{"data": {"bikes": [{"bike_id": "3a48d9d11ce0b73dd1a504f635823488", "fusion_lon": 0.0, "lon": -77.02716166666667, "name": "3a48d9d11ce0b73dd1a504f635823488", "is_disabled": 0, "rental_uris": {"android": "https://dc.lft.to/lastmile_qr_scan", "ios": "https://dc.lft.to/lastmile_qr_scan"}, "type": "electric_scooter", "lat": 38.91564266666666, "is_reserved": 0, "fusion_lat": 0.0}, {"bike_id": "435b68ec4fe0fae23cea281f87a6d4f7", "fusion_lon": 0.0, "lon": -77.01768133333333, "name": "435b68ec4fe0fae23cea281f87a6d4f7", "is_disabled": 0, "rental_uris": {"android": "https://dc.lft.to/lastmile_qr_scan", "ios": "https://dc.lft.to/lastmile_qr_scan"}, "type": "electric_scooter", "lat": 38.900778833333334, "is_reserved": 0, "fusion_lat": 0.0}, {"bike_id": "950beea6a4cec2f2b501f52afb8e35d9", "fusion_lon": 0.0, "lon": -77.0414375, "name": "950beea6a4cec2f2b501f52afb8e35d9", "is_disabled": 0, "rental_uris": {"android": "https://dc.lft.to/lastmile_qr_scan", "ios": "https://dc.lft.to/lastmile_qr_scan"}, "type": "electric_scooter", "lat": 38.9229765, "is_reserved": 0, "fusion_lat": 0.0}, {"bike_id": "a45165896396776018d48b72eecaf2cd", "fusion_lon": 0.0, "lon": -77.05529033333333, "name": "a45165896396776018d48b72eecaf2cd", "is_disabled": 0, "rental_uris": {"android": "https://dc.lft.to/lastmile_qr_scan", "ios": "https://dc.lft.to/lastmile_qr_scan"}, "type": "electric_scooter", "lat": 38.93013766666667, "is_reserved": 0, "fusion_lat": 0.0}, {"bike_id": "5bd2151f079aa1b52b45a6460ffedd11", "fusion_lon": 0.0, "lon": -76.9934845, "name": "5bd2151f079aa1b52b45a6460ffedd11", "is_disabled": 0, "rental_uris": {"android": "https://dc.lft.to/lastmile_qr_scan", "ios": "https://dc.lft.to/lastmile_qr_scan"}, "type": "electric_scooter", "lat": 38.91479866666667, "is_reserved": 0, "fusion_lat": 0.0}, {"bike_id": "280bd0c6e877a50291338c845e73381c", "fusion_lon": 0.0, "lon": -76.98108016666667, "name": "280bd0c6e877a50291338c845e73381c", "is_disabled": 0, "rental_uris": {"android": "https://dc.lft.to/lastmile_qr_scan", "ios": "https://dc.lft.to/lastmile_qr_scan"}, "type": "electric_bike", "lat": 38.877322, "is_reserved": 0, "fusion_lat": 0.0}, {"bike_id": "7a5c349f63a4c489070795637a8424d4", "fusion_lon": 0.0, "lon": -77.038262, "name": "7a5c349f63a4c489070795637a8424d4", "is_disabled": 0, "rental_uris": {"android": "https://dc.lft.to/lastmile_qr_scan", "ios": "https://dc.lft.to/lastmile_qr_scan"}, "type": "electric_scooter", "lat": 38.906652666666666, "is_reserved": 0, "fusion_lat": 0.0}, {"bike_id": "0e60f905a44e0aca3703fa333c2b2caa", "fusion_lon": 0.0, "lon": -77.01591583333334, "name": "0e60f905a44e0aca3703fa333c2b2caa", "is_disabled": 0, "rental_uris": {"android": "https://dc.lft.to/lastmile_qr_scan", "ios": "https://dc.lft.to/lastmile_qr_scan"}, "type": "electric_scooter", "lat": 38.94938483333333, "is_reserved": 0, "fusion_lat": 0.0}, {"bike_id": "a8403b97c905784740b7a57e1641ea1d", "fusion_lon": 0.0, "lon": -77.0241765, "name": "a8403b97c905784740b7a57e1641ea1d", "is_disabled": 0, "rental_uris": {"android": "https://dc.lft.to/lastmile_qr_scan", "ios": "https://dc.lft.to/lastmile_qr_scan"}, "type": "electric_scooter", "lat": 38.93713066666667, "is_reserved": 0, "fusion_lat": 0.0}, {"bike_id": "257bd3550166d7c92eaee5f01320d3ae", "fusion_lon": 0.0, "lon": -77.03851516666667, "name": "257bd3550166d7c92eaee5f01320d3ae", "is_disabled": 0, "rental_uris": {"android": "https://dc.lft.to/lastmile_qr_scan", "ios": "https://dc.lft.to/lastmile_qr_scan"}, "type": "electric_scooter", "lat": 38.915442, "is_reserved": 0, "fusion_lat": 0.0}, {"bike_id": "12b5801d47d6258bc7985942e58e2ee5", "fusion_lon": 0.0, "lon": -77.0272155, "name": "12b5801d47d6258bc7985942e58e2ee5", "is_disabled": 0, "rental_uris": {"android": "https://dc.lft.to/lastmile_qr_scan", "ios": "https://dc.lft.to/lastmile_qr_scan"}, "type": "electric_scooter", "lat": 38.949562666666665, "is_reserved": 0, "fusion_lat": 0.0}, {"bike_id": "835c3132e31b418d88b8fd40a261aef3", "fusion_lon": 0.0, "lon": -77.01864216666667, "name": "835c3132e31b418d88b8fd40a261aef3", "is_disabled": 0, "rental_uris": {"android": "https://dc.lft.to/lastmile_qr_scan", "ios": "https://dc.lft.to/lastmile_qr_scan"}, "type": "electric_scooter", "lat": 38.973658, "is_reserved": 0, "fusion_lat": 0.0}, {"bike_id": "5cb0aaaa6f68d61bab4c2c33ff62547f", "fusion_lon": 0.0, "lon": -77.02935116666667, "name": "5cb0aaaa6f68d61bab4c2c33ff62547f", "is_disabled": 0, "rental_uris": {"android": "https://dc.lft.to/lastmile_qr_scan", "ios": "https://dc.lft.to/lastmile_qr_scan"}, "type": "electric_scooter", "lat": 38.905232833333336, "is_reserved": 0, "fusion_lat": 0.0}, {"bike_id": "6fcfbe60679f7b98028a8efaaef08a14", "fusion_lon": 0.0, "lon": -77.05857716666667, "name": "6fcfbe60679f7b98028a8efaaef08a14", "is_disabled": 0, "rental_uris": {"android": "https://dc.lft.to/lastmile_qr_scan", "ios": "https://dc.lft.to/lastmile_qr_scan"}, "type": "electric_scooter", "lat": 38.93608033333334, "is_reserved": 0, "fusion_lat": 0.0}, {"bike_id": "8c07179ec26f87201a85105d4ea3957f", "fusion_lon": 0.0, "lon": -77.045977, "name": "8c07179ec26f87201a85105d4ea3957f", "is_disabled": 0, "rental_uris": {"android": "https://dc.lft.to/lastmile_qr_scan", "ios": "https://dc.lft.to/lastmile_qr_scan"}, "type": "electric_scooter", "lat": 38.919157, "is_reserved": 0, "fusion_lat": 0.0}, {"bike_id": "840af8eda0d856d856ab72346783646e", "fusion_lon": 0.0, "lon": -77.0147485, "name": "840af8eda0d856d856ab72346783646e", "is_disabled": 0, "rental_uris": {"android": "https://dc.lft.to/lastmile_qr_scan", "ios": "https://dc.lft.to/lastmile_qr_scan"}, "type": "electric_scooter", "lat": 38.917665666666664, "is_reserved": 0, "fusion_lat": 0.0}, {"bike_id": "b9aeb1364bd21e125fe202a9ffbd0d8a", "fusion_lon": 0.0, "lon": -77.04492983333333, "name": "b9aeb1364bd21e125fe202a9ffbd0d8a", "is_disabled": 0, "rental_uris": {"android": "https://dc.lft.to/lastmile_qr_scan", "ios": "https://dc.lft.to/lastmile_qr_scan"}, "type": "electric_scooter", "lat": 38.9032815, "is_reserved": 0, "fusion_lat": 0.0}, {"bike_id": "b4f470e53e7f8e2e4fa70092af91f404", "fusion_lon": 0.0, "lon": -77.01730966666666, "name": "b4f470e53e7f8e2e4fa70092af91f404", "is_disabled": 0, "rental_uris": {"android": "https://dc.lft.to/lastmile_qr_scan", "ios": "https://dc.lft.to/lastmile_qr_scan"}, "type": "electric_scooter", "lat": 38.87264916666667, "is_reserved": 0, "fusion_lat": 0.0}, {"bike_id": "e9190d4e4611f851515f101d2dc91812", "fusion_lon": 0.0, "lon": -77.04931616666667, "name": "e9190d4e4611f851515f101d2dc91812", "is_disabled": 0, "rental_uris": {"android": "https://dc.lft.to/lastmile_qr_scan", "ios": "https://dc.lft.to/lastmile_qr_scan"}, "type": "electric_bike", "lat": 38.81351883333333, "is_reserved": 0, "fusion_lat": 0.0}, {"bike_id": "d063f2b3979514674f506bc7d2a38a26", "fusion_lon": 0.0, "lon": -77.0269295, "name": "d063f2b3979514674f506bc7d2a38a26", "is_disabled": 0, "rental_uris": {"android": "https://dc.lft.to/lastmile_qr_scan", "ios": "https://dc.lft.to/lastmile_qr_scan"}, "type": "electric_scooter", "lat": 38.911233833333334, "is_reserved": 0, "fusion_lat": 0.0}, {"bike_id": "cd67bb90308220f80b888b586b20187c", "fusion_lon": 0.0, "lon": -77.0349275, "name": "cd67bb90308220f80b888b586b20187c", "is_disabled": 0, "rental_uris": {"android": "https://dc.lft.to/lastmile_qr_scan", "ios": "https://dc.lft.to/lastmile_qr_scan"}, "type": "electric_scooter", "lat": 38.91693766666667, "is_reserved": 0, "fusion_lat": 0.0}, {"bike_id": "fa8896cc23554884148c2428ffdacd73", "fusion_lon": 0.0, "lon": -77.05716916666667, "name": "fa8896cc23554884148c2428ffdacd73", "is_disabled": 0, "rental_uris": {"android": "https://dc.lft.to/lastmile_qr_scan", "ios": "https://dc.lft.to/lastmile_qr_scan"}, "type": "electric_scooter", "lat": 38.933631, "is_reserved": 0, "fusion_lat": 0.0}, {"bike_id": "84d1e07182fd4abd3afe021e5c251b12", "fusion_lon": 0.0, "lon": -77.01737383333334, "name": "84d1e07182fd4abd3afe021e5c251b12", "is_disabled": 0, "rental_uris": {"android": "https://dc.lft.to/lastmile_qr_scan", "ios": "https://dc.lft.to/lastmile_qr_scan"}, "type": "electric_scooter", "lat": 38.874955, "is_reserved": 0, "fusion_lat": 0.0}, {"bike_id": "62219e08daa16afaddf3d9f6731100fb", "fusion_lon": 0.0, "lon": -77.02559183333334, "name": "62219e08daa16afaddf3d9f6731100fb", "is_disabled": 0, "rental_uris": {"android": "https://dc.lft.to/lastmile_qr_scan", "ios": "https://dc.lft.to/lastmile_qr_scan"}, "type": "electric_scooter", "lat": 38.880589, "is_reserved": 0, "fusion_lat": 0.0}, {"bike_id": "d61eaadf270a3a7bcb12e850979a6cd3", "fusion_lon": 0.0, "lon": -77.04393033333334, "name": "d61eaadf270a3a7bcb12e850979a6cd3", "is_disabled": 0, "rental_uris": {"android": "https://dc.lft.to/lastmile_qr_scan", "ios": "https://dc.lft.to/lastmile_qr_scan"}, "type": "electric_scooter", "lat": 38.9126275, "is_reserved": 0, "fusion_lat": 0.0}, {"bike_id": "4c1f1fa5cfd2cf548d3fc587cdad8605", "fusion_lon": 0.0, "lon": -77.04572966666667, "name": "4c1f1fa5cfd2cf548d3fc587cdad8605", "is_disabled": 0, "rental_uris": {"android": "https://dc.lft.to/lastmile_qr_scan", "ios": "https://dc.lft.to/lastmile_qr_scan"}, "type": "electric_bike", "lat": 38.924252, "is_reserved": 0, "fusion_lat": 0.0}, {"bike_id": "ce92dd1b57447822deceb33e60d68a24", "fusion_lon": 0.0, "lon": -77.03969933333333, "name": "ce92dd1b57447822deceb33e60d68a24", "is_disabled": 0, "rental_uris": {"android": "https://dc.lft.to/lastmile_qr_scan", "ios": "https://dc.lft.to/lastmile_qr_scan"}, "type": "electric_scooter", "lat": 38.902679666666664, "is_reserved": 0, "fusion_lat": 0.0}, {"bike_id": "651808eb3f44a8c42b59f67f7783d1be", "fusion_lon": 0.0, "lon": -77.023815, "name": "651808eb3f44a8c42b59f67f7783d1be", "is_disabled": 0, "rental_uris": {"android": "https://dc.lft.to/lastmile_qr_scan", "ios": "https://dc.lft.to/lastmile_qr_scan"}, "type": "electric_scooter", "lat": 38.90195116666666, "is_reserved": 0, "fusion_lat": 0.0}, {"bike_id": "4cde0ebb8a21b5b24f78da796485cc1b", "fusion_lon": 0.0, "lon": -77.01999816666667, "name": "4cde0ebb8a21b5b24f78da796485cc1b", "is_disabled": 0, "rental_uris": {"android": "https://dc.lft.to/lastmile_qr_scan", "ios": "https://dc.lft.to/lastmile_qr_scan"}, "type": "electric_scooter", "lat": 38.91367283333334, "is_reserved": 0, "fusion_lat": 0.0}, {"bike_id": "c21f4d635e9d0e36b7e90b9af59d10ea", "fusion_lon": 0.0, "lon": -76.933492, "name": "c21f4d635e9d0e36b7e90b9af59d10ea", "is_disabled": 0, "rental_uris": {"android": "https://dc.lft.to/lastmile_qr_scan", "ios": "https://dc.lft.to/lastmile_qr_scan"}, "type": "electric_scooter", "lat": 38.899042, "is_reserved": 0, "fusion_lat": 0.0}, {"bike_id": "00f47790dee2e84646510e1a89bffd3f", "fusion_lon": 0.0, "lon": -77.0296395, "name": "00f47790dee2e84646510e1a89bffd3f", "is_disabled": 0, "rental_uris": {"android": "https://dc.lft.to/lastmile_qr_scan", "ios": "https://dc.lft.to/lastmile_qr_scan"}, "type": "electric_scooter", "lat": 38.90497716666667, "is_reserved": 0, "fusion_lat": 0.0}, {"bike_id": "599fbddf191908e878dc23aaef1fb4f0", "fusion_lon": 0.0, "lon": -76.99260766666667, "name": "599fbddf191908e878dc23aaef1fb4f0", "is_disabled": 0, "rental_uris": {"android": "https://dc.lft.to/lastmile_qr_scan", "ios": "https://dc.lft.to/lastmile_qr_scan"}, "type": "electric_scooter", "lat": 38.91978966666667, "is_reserved": 0, "fusion_lat": 0.0}, {"bike_id": "35ab7383a7047abc2d3d16eb10fa9e5c", "fusion_lon": 0.0, "lon": -76.98943566666667, "name": "35ab7383a7047abc2d3d16eb10fa9e5c", "is_disabled": 0, "rental_uris": {"android": "https://dc.lft.to/lastmile_qr_scan", "ios": "https://dc.lft.to/lastmile_qr_scan"}, "type": "electric_scooter", "lat": 38.903965666666664, "is_reserved": 0, "fusion_lat": 0.0}, {"bike_id": "eb16003317d5962608fdbbd84bb908b2", "fusion_lon": 0.0, "lon": -77.03383566666666, "name": "eb16003317d5962608fdbbd84bb908b2", "is_disabled": 0, "rental_uris": {"android": "https://dc.lft.to/lastmile_qr_scan", "ios": "https://dc.lft.to/lastmile_qr_scan"}, "type": "electric_scooter", "lat": 38.9136315, "is_reserved": 0, "fusion_lat": 0.0}, {"bike_id": "ea609ea0bd74ee709ab388a7d332f69b", "fusion_lon": 0.0, "lon": -76.9733045, "name": "ea609ea0bd74ee709ab388a7d332f69b", "is_disabled": 0, "rental_uris": {"android": "https://dc.lft.to/lastmile_qr_scan", "ios": "https://dc.lft.to/lastmile_qr_scan"}, "type": "electric_scooter", "lat": 38.90411233333333, "is_reserved": 0, "fusion_lat": 0.0}, {"bike_id": "cd32429849a4d853265c535bdc33ea82", "fusion_lon": 0.0, "lon": -77.02304383333333, "name": "cd32429849a4d853265c535bdc33ea82", "is_disabled": 0, "rental_uris": {"android": "https://dc.lft.to/lastmile_qr_scan", "ios": "https://dc.lft.to/lastmile_qr_scan"}, "type": "electric_scooter", "lat": 38.895602833333335, "is_reserved": 0, "fusion_lat": 0.0}, {"bike_id": "8ce61506b65606d3eaa6f17d411d9973", "fusion_lon": 0.0, "lon": -77.00709116666667, "name": "8ce61506b65606d3eaa6f17d411d9973", "is_disabled": 0, "rental_uris": {"android": "https://dc.lft.to/lastmile_qr_scan", "ios": "https://dc.lft.to/lastmile_qr_scan"}, "type": "electric_scooter", "lat": 38.87684616666667, "is_reserved": 0, "fusion_lat": 0.0}, {"bike_id": "252c729eceb60c994495199b6ce774d1", "fusion_lon": 0.0, "lon": -77.03811483333334, "name": "252c729eceb60c994495199b6ce774d1", "is_disabled": 0, "rental_uris": {"android": "https://dc.lft.to/lastmile_qr_scan", "ios": "https://dc.lft.to/lastmile_qr_scan"}, "type": "electric_scooter", "lat": 38.907056, "is_reserved": 0, "fusion_lat": 0.0}, {"bike_id": "e8a3a826e7cd8e77236a55e420b0b13e", "fusion_lon": 0.0, "lon": -77.04881416666667, "name": "e8a3a826e7cd8e77236a55e420b0b13e", "is_disabled": 0, "rental_uris": {"android": "https://dc.lft.to/lastmile_qr_scan", "ios": "https://dc.lft.to/lastmile_qr_scan"}, "type": "electric_scooter", "lat": 38.91341966666667, "is_reserved": 0, "fusion_lat": 0.0}, {"bike_id": "98e5a4f62aca4c4c98529682a7516407", "fusion_lon": 0.0, "lon": -77.0304045, "name": "98e5a4f62aca4c4c98529682a7516407", "is_disabled": 0, "rental_uris": {"android": "https://dc.lft.to/lastmile_qr_scan", "ios": "https://dc.lft.to/lastmile_qr_scan"}, "type": "electric_scooter", "lat": 38.8843305, "is_reserved": 0, "fusion_lat": 0.0}, {"bike_id": "554bfb6dcea7d81ac915676c47f1b207", "fusion_lon": 0.0, "lon": -77.03199783333334, "name": "554bfb6dcea7d81ac915676c47f1b207", "is_disabled": 0, "rental_uris": {"android": "https://dc.lft.to/lastmile_qr_scan", "ios": "https://dc.lft.to/lastmile_qr_scan"}, "type": "electric_scooter", "lat": 38.91477483333333, "is_reserved": 0, "fusion_lat": 0.0}, {"bike_id": "2051acf50d22c7b267f6cbdfa9970faa", "fusion_lon": 0.0, "lon": -77.02081216666667, "name": "2051acf50d22c7b267f6cbdfa9970faa", "is_disabled": 0, "rental_uris": {"android": "https://dc.lft.to/lastmile_qr_scan", "ios": "https://dc.lft.to/lastmile_qr_scan"}, "type": "electric_scooter", "lat": 38.87571233333333, "is_reserved": 0, "fusion_lat": 0.0}, {"bike_id": "767cef18adb9607bf2aedf2ce87c5f6a", "fusion_lon": 0.0, "lon": -77.0488065, "name": "767cef18adb9607bf2aedf2ce87c5f6a", "is_disabled": 0, "rental_uris": {"android": "https://dc.lft.to/lastmile_qr_scan", "ios": "https://dc.lft.to/lastmile_qr_scan"}, "type": "electric_scooter", "lat": 38.9156205, "is_reserved": 0, "fusion_lat": 0.0}, {"bike_id": "341aa9cbb6e6a6fbbee6cb7ccd821b4b", "fusion_lon": 0.0, "lon": -77.02331583333333, "name": "341aa9cbb6e6a6fbbee6cb7ccd821b4b", "is_disabled": 0, "rental_uris": {"android": "https://dc.lft.to/lastmile_qr_scan", "ios": "https://dc.lft.to/lastmile_qr_scan"}, "type": "electric_scooter", "lat": 38.92479316666667, "is_reserved": 0, "fusion_lat": 0.0}, {"bike_id": "7b1c20ac783c6a33849fa61dab996f96", "fusion_lon": 0.0, "lon": -77.09477833333334, "name": "7b1c20ac783c6a33849fa61dab996f96", "is_disabled": 0, "rental_uris": {"android": "https://dc.lft.to/lastmile_qr_scan", "ios": "https://dc.lft.to/lastmile_qr_scan"}, "type": "electric_bike", "lat": 39.0304865, "is_reserved": 0, "fusion_lat": 0.0}, {"bike_id": "1108ba9a3bcee69fdd52644589fea070", "fusion_lon": 0.0, "lon": -77.06337766666667, "name": "1108ba9a3bcee69fdd52644589fea070", "is_disabled": 0, "rental_uris": {"android": "https://dc.lft.to/lastmile_qr_scan", "ios": "https://dc.lft.to/lastmile_qr_scan"}, "type": "electric_scooter", "lat": 38.90679216666667, "is_reserved": 0, "fusion_lat": 0.0}, {"bike_id": "3355eca9f40fa79d1c14f9faf9d0b786", "fusion_lon": 0.0, "lon": -76.988195, "name": "3355eca9f40fa79d1c14f9faf9d0b786", "is_disabled": 0, "rental_uris": {"android": "https://dc.lft.to/lastmile_qr_scan", "ios": "https://dc.lft.to/lastmile_qr_scan"}, "type": "electric_scooter", "lat": 38.90032266666667, "is_reserved": 0, "fusion_lat": 0.0}, {"bike_id": "5f0b43f8f1914ca1c6c855f3c4243b79", "fusion_lon": 0.0, "lon": -77.0164355, "name": "5f0b43f8f1914ca1c6c855f3c4243b79", "is_disabled": 0, "rental_uris": {"android": "https://dc.lft.to/lastmile_qr_scan", "ios": "https://dc.lft.to/lastmile_qr_scan"}, "type": "electric_scooter", "lat": 38.91589833333333, "is_reserved": 0, "fusion_lat": 0.0}, {"bike_id": "fdded77a3d0f47c1258e21c1b1e15b0e", "fusion_lon": 0.0, "lon": -76.99086466666667, "name": "fdded77a3d0f47c1258e21c1b1e15b0e", "is_disabled": 0, "rental_uris": {"android": "https://dc.lft.to/lastmile_qr_scan", "ios": "https://dc.lft.to/lastmile_qr_scan"}, "type": "electric_scooter", "lat": 38.92952183333333, "is_reserved": 0, "fusion_lat": 0.0}, {"bike_id": "73e7ce24323adab916e01ead81513b31", "fusion_lon": 0.0, "lon": -77.02329833333333, "name": "73e7ce24323adab916e01ead81513b31", "is_disabled": 0, "rental_uris": {"android": "https://dc.lft.to/lastmile_qr_scan", "ios": "https://dc.lft.to/lastmile_qr_scan"}, "type": "electric_scooter", "lat": 38.92709833333333, "is_reserved": 0, "fusion_lat": 0.0}, {"bike_id": "92971d7ea77bf58485cabe91bacc7ee3", "fusion_lon": 0.0, "lon": -77.03510566666667, "name": "92971d7ea77bf58485cabe91bacc7ee3", "is_disabled": 0, "rental_uris": {"android": "https://dc.lft.to/lastmile_qr_scan", "ios": "https://dc.lft.to/lastmile_qr_scan"}, "type": "electric_scooter", "lat": 38.9262145, "is_reserved": 0, "fusion_lat": 0.0}, {"bike_id": "746d66c0db96de1fed3d9be544a0f98f", "fusion_lon": 0.0, "lon": -77.041781, "name": "746d66c0db96de1fed3d9be544a0f98f", "is_disabled": 0, "rental_uris": {"android": "https://dc.lft.to/lastmile_qr_scan", "ios": "https://dc.lft.to/lastmile_qr_scan"}, "type": "electric_scooter", "lat": 38.92061116666667, "is_reserved": 0, "fusion_lat": 0.0}, {"bike_id": "0e7cd928452aed0db5b4f13ff1ceccc5", "fusion_lon": 0.0, "lon": -77.03474133333333, "name": "0e7cd928452aed0db5b4f13ff1ceccc5", "is_disabled": 0, "rental_uris": {"android": "https://dc.lft.to/lastmile_qr_scan", "ios": "https://dc.lft.to/lastmile_qr_scan"}, "type": "electric_scooter", "lat": 38.9074495, "is_reserved": 0, "fusion_lat": 0.0}, {"bike_id": "be76a09281a97bc47477c31fbf81c4e7", "fusion_lon": 0.0, "lon": -77.0179845, "name": "be76a09281a97bc47477c31fbf81c4e7", "is_disabled": 0, "rental_uris": {"android": "https://dc.lft.to/lastmile_qr_scan", "ios": "https://dc.lft.to/lastmile_qr_scan"}, "type": "electric_scooter", "lat": 38.908291, "is_reserved": 0, "fusion_lat": 0.0}, {"bike_id": "b63ca618f27680aa0cf6bb229e1563c6", "fusion_lon": 0.0, "lon": -77.033499, "name": "b63ca618f27680aa0cf6bb229e1563c6", "is_disabled": 0, "rental_uris": {"android": "https://dc.lft.to/lastmile_qr_scan", "ios": "https://dc.lft.to/lastmile_qr_scan"}, "type": "electric_scooter", "lat": 38.898413833333336, "is_reserved": 0, "fusion_lat": 0.0}, {"bike_id": "40bbb5f7ffa216d4a9d3190b77bcae1f", "fusion_lon": 0.0, "lon": -76.9852885, "name": "40bbb5f7ffa216d4a9d3190b77bcae1f", "is_disabled": 0, "rental_uris": {"android": "https://dc.lft.to/lastmile_qr_scan", "ios": "https://dc.lft.to/lastmile_qr_scan"}, "type": "electric_scooter", "lat": 38.866667666666665, "is_reserved": 0, "fusion_lat": 0.0}, {"bike_id": "a700db37f4dc6537c0d63903c5754f7e", "fusion_lon": 0.0, "lon": -76.98793316666666, "name": "a700db37f4dc6537c0d63903c5754f7e", "is_disabled": 0, "rental_uris": {"android": "https://dc.lft.to/lastmile_qr_scan", "ios": "https://dc.lft.to/lastmile_qr_scan"}, "type": "electric_bike", "lat": 38.9221395, "is_reserved": 0, "fusion_lat": 0.0}, {"bike_id": "3a688313775d04b8e7f8837809975f23", "fusion_lon": 0.0, "lon": -77.02578166666666, "name": "3a688313775d04b8e7f8837809975f23", "is_disabled": 0, "rental_uris": {"android": "https://dc.lft.to/lastmile_qr_scan", "ios": "https://dc.lft.to/lastmile_qr_scan"}, "type": "electric_scooter", "lat": 38.892264833333336, "is_reserved": 0, "fusion_lat": 0.0}, {"bike_id": "7b0e84ae69e97d8425dffcdcd0d33ad3", "fusion_lon": 0.0, "lon": -77.01199266666667, "name": "7b0e84ae69e97d8425dffcdcd0d33ad3", "is_disabled": 0, "rental_uris": {"android": "https://dc.lft.to/lastmile_qr_scan", "ios": "https://dc.lft.to/lastmile_qr_scan"}, "type": "electric_scooter", "lat": 38.90012316666667, "is_reserved": 0, "fusion_lat": 0.0}, {"bike_id": "e0c1dd14db0e26548709c630372a8f58", "fusion_lon": 0.0, "lon": -77.02694733333334, "name": "e0c1dd14db0e26548709c630372a8f58", "is_disabled": 0, "rental_uris": {"android": "https://dc.lft.to/lastmile_qr_scan", "ios": "https://dc.lft.to/lastmile_qr_scan"}, "type": "electric_scooter", "lat": 38.881356333333336, "is_reserved": 0, "fusion_lat": 0.0}, {"bike_id": "92157435dbf6c64bb005d6a19a3ee2c3", "fusion_lon": 0.0, "lon": -76.92736733333334, "name": "92157435dbf6c64bb005d6a19a3ee2c3", "is_disabled": 0, "rental_uris": {"android": "https://dc.lft.to/lastmile_qr_scan", "ios": "https://dc.lft.to/lastmile_qr_scan"}, "type": "electric_scooter", "lat": 38.88968333333333, "is_reserved": 0, "fusion_lat": 0.0}, {"bike_id": "7ab451b170eed0fa1667756514f2682f", "fusion_lon": 0.0, "lon": -77.02160116666667, "name": "7ab451b170eed0fa1667756514f2682f", "is_disabled": 0, "rental_uris": {"android": "https://dc.lft.to/lastmile_qr_scan", "ios": "https://dc.lft.to/lastmile_qr_scan"}, "type": "electric_scooter", "lat": 38.945969166666664, "is_reserved": 0, "fusion_lat": 0.0}, {"bike_id": "0c405f6b0938f3eae4a7b4a74056b673", "fusion_lon": 0.0, "lon": -77.030996, "name": "0c405f6b0938f3eae4a7b4a74056b673", "is_disabled": 0, "rental_uris": {"android": "https://dc.lft.to/lastmile_qr_scan", "ios": "https://dc.lft.to/lastmile_qr_scan"}, "type": "electric_scooter", "lat": 38.923724166666666, "is_reserved": 0, "fusion_lat": 0.0}, {"bike_id": "17ba5c41007f27d08e4edecf3a070503", "fusion_lon": 0.0, "lon": -77.00114866666667, "name": "17ba5c41007f27d08e4edecf3a070503", "is_disabled": 0, "rental_uris": {"android": "https://dc.lft.to/lastmile_qr_scan", "ios": "https://dc.lft.to/lastmile_qr_scan"}, "type": "electric_scooter", "lat": 38.917044, "is_reserved": 0, "fusion_lat": 0.0}, {"bike_id": "40aa86983c6d264dc44535771875439b", "fusion_lon": 0.0, "lon": -77.02318033333333, "name": "40aa86983c6d264dc44535771875439b", "is_disabled": 0, "rental_uris": {"android": "https://dc.lft.to/lastmile_qr_scan", "ios": "https://dc.lft.to/lastmile_qr_scan"}, "type": "electric_scooter", "lat": 38.9073005, "is_reserved": 0, "fusion_lat": 0.0}, {"bike_id": "8e0c0ee29c715471b31aac6ef10f9467", "fusion_lon": 0.0, "lon": -77.021733, "name": "8e0c0ee29c715471b31aac6ef10f9467", "is_disabled": 0, "rental_uris": {"android": "https://dc.lft.to/lastmile_qr_scan", "ios": "https://dc.lft.to/lastmile_qr_scan"}, "type": "electric_scooter", "lat": 38.884847, "is_reserved": 0, "fusion_lat": 0.0}, {"bike_id": "da6df96f7a2cb194d39077edf1e34a17", "fusion_lon": 0.0, "lon": -77.03499583333333, "name": "da6df96f7a2cb194d39077edf1e34a17", "is_disabled": 0, "rental_uris": {"android": "https://dc.lft.to/lastmile_qr_scan", "ios": "https://dc.lft.to/lastmile_qr_scan"}, "type": "electric_scooter", "lat": 38.923573166666664, "is_reserved": 0, "fusion_lat": 0.0}, {"bike_id": "17baaccbcaf1a85e6dfc99e99588cd44", "fusion_lon": 0.0, "lon": -76.93159716666666, "name": "17baaccbcaf1a85e6dfc99e99588cd44", "is_disabled": 0, "rental_uris": {"android": "https://dc.lft.to/lastmile_qr_scan", "ios": "https://dc.lft.to/lastmile_qr_scan"}, "type": "electric_scooter", "lat": 38.8987675, "is_reserved": 0, "fusion_lat": 0.0}, {"bike_id": "0c0463ffe1488e67d494f3675ed2309a", "fusion_lon": 0.0, "lon": -77.03351016666667, "name": "0c0463ffe1488e67d494f3675ed2309a", "is_disabled": 0, "rental_uris": {"android": "https://dc.lft.to/lastmile_qr_scan", "ios": "https://dc.lft.to/lastmile_qr_scan"}, "type": "electric_scooter", "lat": 38.941875833333334, "is_reserved": 0, "fusion_lat": 0.0}, {"bike_id": "bd2a942359af7b23fd8e8ab38cc59ee9", "fusion_lon": 0.0, "lon": -77.0827565, "name": "bd2a942359af7b23fd8e8ab38cc59ee9", "is_disabled": 0, "rental_uris": {"android": "https://dc.lft.to/lastmile_qr_scan", "ios": "https://dc.lft.to/lastmile_qr_scan"}, "type": "electric_scooter", "lat": 38.93022416666667, "is_reserved": 0, "fusion_lat": 0.0}, {"bike_id": "29283109853827e7792c6993f7d34a8a", "fusion_lon": 0.0, "lon": -77.0350865, "name": "29283109853827e7792c6993f7d34a8a", "is_disabled": 0, "rental_uris": {"android": "https://dc.lft.to/lastmile_qr_scan", "ios": "https://dc.lft.to/lastmile_qr_scan"}, "type": "electric_scooter", "lat": 38.92155733333333, "is_reserved": 0, "fusion_lat": 0.0}, {"bike_id": "82c43357298e3aa2ece4d54392948450", "fusion_lon": 0.0, "lon": -76.98329266666667, "name": "82c43357298e3aa2ece4d54392948450", "is_disabled": 0, "rental_uris": {"android": "https://dc.lft.to/lastmile_qr_scan", "ios": "https://dc.lft.to/lastmile_qr_scan"}, "type": "electric_scooter", "lat": 38.90870916666667, "is_reserved": 0, "fusion_lat": 0.0}, {"bike_id": "c713a1ac89c4d944f5beac2f3987ad08", "fusion_lon": 0.0, "lon": -77.0345875, "name": "c713a1ac89c4d944f5beac2f3987ad08", "is_disabled": 0, "rental_uris": {"android": "https://dc.lft.to/lastmile_qr_scan", "ios": "https://dc.lft.to/lastmile_qr_scan"}, "type": "electric_scooter", "lat": 38.904470333333336, "is_reserved": 0, "fusion_lat": 0.0}, {"bike_id": "649f3f5ea1f856743d9b440e5e564fbb", "fusion_lon": 0.0, "lon": -76.9969135, "name": "649f3f5ea1f856743d9b440e5e564fbb", "is_disabled": 0, "rental_uris": {"android": "https://dc.lft.to/lastmile_qr_scan", "ios": "https://dc.lft.to/lastmile_qr_scan"}, "type": "electric_scooter", "lat": 38.90831266666667, "is_reserved": 0, "fusion_lat": 0.0}, {"bike_id": "87ba11605bb7f3e6e31d2e89e6257f13", "fusion_lon": 0.0, "lon": -77.01708433333333, "name": "87ba11605bb7f3e6e31d2e89e6257f13", "is_disabled": 0, "rental_uris": {"android": "https://dc.lft.to/lastmile_qr_scan", "ios": "https://dc.lft.to/lastmile_qr_scan"}, "type": "electric_scooter", "lat": 38.917427833333335, "is_reserved": 0, "fusion_lat": 0.0}, {"bike_id": "3339f40273205536afe3f4f3f14f14dc", "fusion_lon": 0.0, "lon": -77.00729783333334, "name": "3339f40273205536afe3f4f3f14f14dc", "is_disabled": 0, "rental_uris": {"android": "https://dc.lft.to/lastmile_qr_scan", "ios": "https://dc.lft.to/lastmile_qr_scan"}, "type": "electric_scooter", "lat": 38.905559333333336, "is_reserved": 0, "fusion_lat": 0.0}, {"bike_id": "6e3cea263aadfa30fe32ab37d20e273c", "fusion_lon": 0.0, "lon": -77.04416566666667, "name": "6e3cea263aadfa30fe32ab37d20e273c", "is_disabled": 0, "rental_uris": {"android": "https://dc.lft.to/lastmile_qr_scan", "ios": "https://dc.lft.to/lastmile_qr_scan"}, "type": "electric_scooter", "lat": 38.91784283333333, "is_reserved": 0, "fusion_lat": 0.0}, {"bike_id": "c4a75a17bdb934c77de6be75e711c162", "fusion_lon": 0.0, "lon": -77.03133633333333, "name": "c4a75a17bdb934c77de6be75e711c162", "is_disabled": 0, "rental_uris": {"android": "https://dc.lft.to/lastmile_qr_scan", "ios": "https://dc.lft.to/lastmile_qr_scan"}, "type": "electric_scooter", "lat": 38.92371933333333, "is_reserved": 0, "fusion_lat": 0.0}, {"bike_id": "bba71e6ae6caa733449d3562cb1acbd6", "fusion_lon": 0.0, "lon": -77.024898, "name": "bba71e6ae6caa733449d3562cb1acbd6", "is_disabled": 0, "rental_uris": {"android": "https://dc.lft.to/lastmile_qr_scan", "ios": "https://dc.lft.to/lastmile_qr_scan"}, "type": "electric_scooter", "lat": 38.941853333333334, "is_reserved": 0, "fusion_lat": 0.0}, {"bike_id": "64bcc59c316830ae3a1f1aee19b85550", "fusion_lon": 0.0, "lon": -77.03656366666667, "name": "64bcc59c316830ae3a1f1aee19b85550", "is_disabled": 0, "rental_uris": {"android": "https://dc.lft.to/lastmile_qr_scan", "ios": "https://dc.lft.to/lastmile_qr_scan"}, "type": "electric_scooter", "lat": 38.92289266666667, "is_reserved": 0, "fusion_lat": 0.0}, {"bike_id": "550357092998cab7225a74f863b29f5e", "fusion_lon": 0.0, "lon": -77.0460405, "name": "550357092998cab7225a74f863b29f5e", "is_disabled": 0, "rental_uris": {"android": "https://dc.lft.to/lastmile_qr_scan", "ios": "https://dc.lft.to/lastmile_qr_scan"}, "type": "electric_scooter", "lat": 38.91920066666667, "is_reserved": 0, "fusion_lat": 0.0}, {"bike_id": "b08af5a570b8b8e2dc1adef4d4f22058", "fusion_lon": 0.0, "lon": -76.94760733333334, "name": "b08af5a570b8b8e2dc1adef4d4f22058", "is_disabled": 0, "rental_uris": {"android": "https://dc.lft.to/lastmile_qr_scan", "ios": "https://dc.lft.to/lastmile_qr_scan"}, "type": "electric_scooter", "lat": 38.89670066666667, "is_reserved": 0, "fusion_lat": 0.0}, {"bike_id": "3900203cf0d53436fd92d1e7e0b9b109", "fusion_lon": 0.0, "lon": -77.13102433333333, "name": "3900203cf0d53436fd92d1e7e0b9b109", "is_disabled": 0, "rental_uris": {"android": "https://dc.lft.to/lastmile_qr_scan", "ios": "https://dc.lft.to/lastmile_qr_scan"}, "type": "electric_bike", "lat": 39.02428366666667, "is_reserved": 0, "fusion_lat": 0.0}, {"bike_id": "1b17aa24d9dff92b3e1c3d92412c433c", "fusion_lon": 0.0, "lon": -77.06077433333333, "name": "1b17aa24d9dff92b3e1c3d92412c433c", "is_disabled": 0, "rental_uris": {"android": "https://dc.lft.to/lastmile_qr_scan", "ios": "https://dc.lft.to/lastmile_qr_scan"}, "type": "electric_bike", "lat": 38.8858075, "is_reserved": 0, "fusion_lat": 0.0}, {"bike_id": "5b9f43b930daddcb3e9c8bdc316ae244", "fusion_lon": 0.0, "lon": -77.03212733333334, "name": "5b9f43b930daddcb3e9c8bdc316ae244", "is_disabled": 0, "rental_uris": {"android": "https://dc.lft.to/lastmile_qr_scan", "ios": "https://dc.lft.to/lastmile_qr_scan"}, "type": "electric_scooter", "lat": 38.915723166666666, "is_reserved": 0, "fusion_lat": 0.0}, {"bike_id": "5f7e287caeb2b0aa403279c807f5aa2b", "fusion_lon": 0.0, "lon": -77.0433885, "name": "5f7e287caeb2b0aa403279c807f5aa2b", "is_disabled": 0, "rental_uris": {"android": "https://dc.lft.to/lastmile_qr_scan", "ios": "https://dc.lft.to/lastmile_qr_scan"}, "type": "electric_scooter", "lat": 38.90727, "is_reserved": 0, "fusion_lat": 0.0}, {"bike_id": "208fa67aedb0665bfc5442941e48d4fd", "fusion_lon": 0.0, "lon": -77.09481, "name": "208fa67aedb0665bfc5442941e48d4fd", "is_disabled": 0, "rental_uris": {"android": "https://dc.lft.to/lastmile_qr_scan", "ios": "https://dc.lft.to/lastmile_qr_scan"}, "type": "electric_bike", "lat": 39.030474, "is_reserved": 0, "fusion_lat": 0.0}, {"bike_id": "89d84593b9cfbca14d74f5ff3c92aef4", "fusion_lon": 0.0, "lon": -77.02088283333333, "name": "89d84593b9cfbca14d74f5ff3c92aef4", "is_disabled": 0, "rental_uris": {"android": "https://dc.lft.to/lastmile_qr_scan", "ios": "https://dc.lft.to/lastmile_qr_scan"}, "type": "electric_bike", "lat": 38.94106933333333, "is_reserved": 0, "fusion_lat": 0.0}, {"bike_id": "5e4f3e2c9d3671528136dddf1db2e7ad", "fusion_lon": 0.0, "lon": -77.033617, "name": "5e4f3e2c9d3671528136dddf1db2e7ad", "is_disabled": 0, "rental_uris": {"android": "https://dc.lft.to/lastmile_qr_scan", "ios": "https://dc.lft.to/lastmile_qr_scan"}, "type": "electric_scooter", "lat": 38.932279333333334, "is_reserved": 0, "fusion_lat": 0.0}, {"bike_id": "5a2ef703a042b0e7a17e6453bea9cf5b", "fusion_lon": 0.0, "lon": -77.02788033333333, "name": "5a2ef703a042b0e7a17e6453bea9cf5b", "is_disabled": 0, "rental_uris": {"android": "https://dc.lft.to/lastmile_qr_scan", "ios": "https://dc.lft.to/lastmile_qr_scan"}, "type": "electric_scooter", "lat": 38.93061316666667, "is_reserved": 0, "fusion_lat": 0.0}, {"bike_id": "d1411ef7e4abcce11dc4a313b94d0261", "fusion_lon": 0.0, "lon": -77.02390833333334, "name": "d1411ef7e4abcce11dc4a313b94d0261", "is_disabled": 0, "rental_uris": {"android": "https://dc.lft.to/lastmile_qr_scan", "ios": "https://dc.lft.to/lastmile_qr_scan"}, "type": "electric_scooter", "lat": 38.91959883333333, "is_reserved": 0, "fusion_lat": 0.0}, {"bike_id": "f450e8c8c0ea5fb80a5b009394d5ad4e", "fusion_lon": 0.0, "lon": -77.032094, "name": "f450e8c8c0ea5fb80a5b009394d5ad4e", "is_disabled": 0, "rental_uris": {"android": "https://dc.lft.to/lastmile_qr_scan", "ios": "https://dc.lft.to/lastmile_qr_scan"}, "type": "electric_scooter", "lat": 38.914752, "is_reserved": 0, "fusion_lat": 0.0}, {"bike_id": "c77ef461b61fd9156167148cb99f2aed", "fusion_lon": 0.0, "lon": -77.05103433333333, "name": "c77ef461b61fd9156167148cb99f2aed", "is_disabled": 0, "rental_uris": {"android": "https://dc.lft.to/lastmile_qr_scan", "ios": "https://dc.lft.to/lastmile_qr_scan"}, "type": "electric_scooter", "lat": 38.90534533333334, "is_reserved": 0, "fusion_lat": 0.0}, {"bike_id": "45aee16f786dcd29856b7116255d1284", "fusion_lon": 0.0, "lon": -77.01486683333333, "name": "45aee16f786dcd29856b7116255d1284", "is_disabled": 0, "rental_uris": {"android": "https://dc.lft.to/lastmile_qr_scan", "ios": "https://dc.lft.to/lastmile_qr_scan"}, "type": "electric_scooter", "lat": 38.87631716666667, "is_reserved": 0, "fusion_lat": 0.0}, {"bike_id": "6344b1daf6eda3511468c1200d239d59", "fusion_lon": 0.0, "lon": -77.02710216666667, "name": "6344b1daf6eda3511468c1200d239d59", "is_disabled": 0, "rental_uris": {"android": "https://dc.lft.to/lastmile_qr_scan", "ios": "https://dc.lft.to/lastmile_qr_scan"}, "type": "electric_scooter", "lat": 38.9066805, "is_reserved": 0, "fusion_lat": 0.0}, {"bike_id": "a49edc71eb53ba7b52ff7c49cd4aea11", "fusion_lon": 0.0, "lon": -76.99002933333334, "name": "a49edc71eb53ba7b52ff7c49cd4aea11", "is_disabled": 0, "rental_uris": {"android": "https://dc.lft.to/lastmile_qr_scan", "ios": "https://dc.lft.to/lastmile_qr_scan"}, "type": "electric_scooter", "lat": 38.92442833333333, "is_reserved": 0, "fusion_lat": 0.0}, {"bike_id": "352dd54f16357e05d28585bb292f47ac", "fusion_lon": 0.0, "lon": -77.0275035, "name": "352dd54f16357e05d28585bb292f47ac", "is_disabled": 0, "rental_uris": {"android": "https://dc.lft.to/lastmile_qr_scan", "ios": "https://dc.lft.to/lastmile_qr_scan"}, "type": "electric_scooter", "lat": 38.95169, "is_reserved": 0, "fusion_lat": 0.0}, {"bike_id": "d2ef5ccc8017495518b4295ff68e11f8", "fusion_lon": 0.0, "lon": -77.03654283333333, "name": "d2ef5ccc8017495518b4295ff68e11f8", "is_disabled": 0, "rental_uris": {"android": "https://dc.lft.to/lastmile_qr_scan", "ios": "https://dc.lft.to/lastmile_qr_scan"}, "type": "electric_scooter", "lat": 38.92382933333333, "is_reserved": 0, "fusion_lat": 0.0}, {"bike_id": "4b9d322b474adb78b4e203ee0c84e044", "fusion_lon": 0.0, "lon": -76.9845225, "name": "4b9d322b474adb78b4e203ee0c84e044", "is_disabled": 0, "rental_uris": {"android": "https://dc.lft.to/lastmile_qr_scan", "ios": "https://dc.lft.to/lastmile_qr_scan"}, "type": "electric_scooter", "lat": 38.88025416666667, "is_reserved": 0, "fusion_lat": 0.0}, {"bike_id": "e580d3df4c14ce8fe6ed7a1893df358b", "fusion_lon": 0.0, "lon": -77.11016316666667, "name": "e580d3df4c14ce8fe6ed7a1893df358b", "is_disabled": 0, "rental_uris": {"android": "https://dc.lft.to/lastmile_qr_scan", "ios": "https://dc.lft.to/lastmile_qr_scan"}, "type": "electric_bike", "lat": 38.84744033333333, "is_reserved": 0, "fusion_lat": 0.0}, {"bike_id": "1af3ab3990374d1f67bccae018310eac", "fusion_lon": 0.0, "lon": -77.02707183333334, "name": "1af3ab3990374d1f67bccae018310eac", "is_disabled": 0, "rental_uris": {"android": "https://dc.lft.to/lastmile_qr_scan", "ios": "https://dc.lft.to/lastmile_qr_scan"}, "type": "electric_scooter", "lat": 38.88168833333334, "is_reserved": 0, "fusion_lat": 0.0}, {"bike_id": "015162fd618f3a26ef0fa0aa74aca4dc", "fusion_lon": 0.0, "lon": -76.99785233333333, "name": "015162fd618f3a26ef0fa0aa74aca4dc", "is_disabled": 0, "rental_uris": {"android": "https://dc.lft.to/lastmile_qr_scan", "ios": "https://dc.lft.to/lastmile_qr_scan"}, "type": "electric_scooter", "lat": 38.90905466666667, "is_reserved": 0, "fusion_lat": 0.0}, {"bike_id": "243a75cafc7a5135e559347c58113646", "fusion_lon": 0.0, "lon": -77.01658733333333, "name": "243a75cafc7a5135e559347c58113646", "is_disabled": 0, "rental_uris": {"android": "https://dc.lft.to/lastmile_qr_scan", "ios": "https://dc.lft.to/lastmile_qr_scan"}, "type": "electric_scooter", "lat": 38.8810685, "is_reserved": 0, "fusion_lat": 0.0}, {"bike_id": "f89187559bd1192353307bc70c283e55", "fusion_lon": 0.0, "lon": -77.0509185, "name": "f89187559bd1192353307bc70c283e55", "is_disabled": 0, "rental_uris": {"android": "https://dc.lft.to/lastmile_qr_scan", "ios": "https://dc.lft.to/lastmile_qr_scan"}, "type": "electric_bike", "lat": 38.81334416666667, "is_reserved": 0, "fusion_lat": 0.0}, {"bike_id": "844192576a20686fcd6e7b0b75d80d79", "fusion_lon": 0.0, "lon": -77.02342633333333, "name": "844192576a20686fcd6e7b0b75d80d79", "is_disabled": 0, "rental_uris": {"android": "https://dc.lft.to/lastmile_qr_scan", "ios": "https://dc.lft.to/lastmile_qr_scan"}, "type": "electric_scooter", "lat": 38.90727316666667, "is_reserved": 0, "fusion_lat": 0.0}, {"bike_id": "d099f762d910718fd7c7725fe319ef3b", "fusion_lon": 0.0, "lon": -76.986358, "name": "d099f762d910718fd7c7725fe319ef3b", "is_disabled": 0, "rental_uris": {"android": "https://dc.lft.to/lastmile_qr_scan", "ios": "https://dc.lft.to/lastmile_qr_scan"}, "type": "electric_scooter", "lat": 38.880417333333334, "is_reserved": 0, "fusion_lat": 0.0}, {"bike_id": "d7b323990d6b1caa0fa128aaaa6d3584", "fusion_lon": 0.0, "lon": -77.1159835, "name": "d7b323990d6b1caa0fa128aaaa6d3584", "is_disabled": 0, "rental_uris": {"android": "https://dc.lft.to/lastmile_qr_scan", "ios": "https://dc.lft.to/lastmile_qr_scan"}, "type": "electric_bike", "lat": 39.0749215, "is_reserved": 0, "fusion_lat": 0.0}, {"bike_id": "1f63e30d3225e2ea876451b29c0c67cf", "fusion_lon": 0.0, "lon": -77.02168383333333, "name": "1f63e30d3225e2ea876451b29c0c67cf", "is_disabled": 0, "rental_uris": {"android": "https://dc.lft.to/lastmile_qr_scan", "ios": "https://dc.lft.to/lastmile_qr_scan"}, "type": "electric_scooter", "lat": 38.909541, "is_reserved": 0, "fusion_lat": 0.0}, {"bike_id": "b57c9634f64b514f0bbb661103314499", "fusion_lon": 0.0, "lon": -77.02981116666666, "name": "b57c9634f64b514f0bbb661103314499", "is_disabled": 0, "rental_uris": {"android": "https://dc.lft.to/lastmile_qr_scan", "ios": "https://dc.lft.to/lastmile_qr_scan"}, "type": "electric_scooter", "lat": 38.9344545, "is_reserved": 0, "fusion_lat": 0.0}, {"bike_id": "5cf6f3d09807ecda10890a21d1a40688", "fusion_lon": 0.0, "lon": -77.027127, "name": "5cf6f3d09807ecda10890a21d1a40688", "is_disabled": 0, "rental_uris": {"android": "https://dc.lft.to/lastmile_qr_scan", "ios": "https://dc.lft.to/lastmile_qr_scan"}, "type": "electric_scooter", "lat": 38.90666816666667, "is_reserved": 0, "fusion_lat": 0.0}, {"bike_id": "a5c71aa8975d3c4e0f54706c048ca9db", "fusion_lon": 0.0, "lon": -77.077245, "name": "a5c71aa8975d3c4e0f54706c048ca9db", "is_disabled": 0, "rental_uris": {"android": "https://dc.lft.to/lastmile_qr_scan", "ios": "https://dc.lft.to/lastmile_qr_scan"}, "type": "electric_scooter", "lat": 38.9576565, "is_reserved": 0, "fusion_lat": 0.0}, {"bike_id": "75f484d430fd905d2238a94aea403acf", "fusion_lon": 0.0, "lon": -77.02347566666667, "name": "75f484d430fd905d2238a94aea403acf", "is_disabled": 0, "rental_uris": {"android": "https://dc.lft.to/lastmile_qr_scan", "ios": "https://dc.lft.to/lastmile_qr_scan"}, "type": "electric_scooter", "lat": 38.946142, "is_reserved": 0, "fusion_lat": 0.0}, {"bike_id": "7937d4248ba1517f949d7e7aa1ace900", "fusion_lon": 0.0, "lon": -76.98841883333333, "name": "7937d4248ba1517f949d7e7aa1ace900", "is_disabled": 0, "rental_uris": {"android": "https://dc.lft.to/lastmile_qr_scan", "ios": "https://dc.lft.to/lastmile_qr_scan"}, "type": "electric_scooter", "lat": 38.892554833333335, "is_reserved": 0, "fusion_lat": 0.0}, {"bike_id": "094f9bfcafbc9d1db23ea69da91afbbd", "fusion_lon": 0.0, "lon": -77.03261316666666, "name": "094f9bfcafbc9d1db23ea69da91afbbd", "is_disabled": 0, "rental_uris": {"android": "https://dc.lft.to/lastmile_qr_scan", "ios": "https://dc.lft.to/lastmile_qr_scan"}, "type": "electric_scooter", "lat": 38.914043, "is_reserved": 0, "fusion_lat": 0.0}, {"bike_id": "375a62f361b09aa042ff8875f865f87e", "fusion_lon": 0.0, "lon": -77.02524, "name": "375a62f361b09aa042ff8875f865f87e", "is_disabled": 0, "rental_uris": {"android": "https://dc.lft.to/lastmile_qr_scan", "ios": "https://dc.lft.to/lastmile_qr_scan"}, "type": "electric_scooter", "lat": 38.904215666666666, "is_reserved": 0, "fusion_lat": 0.0}, {"bike_id": "511314b5badd0d974066f41907c006eb", "fusion_lon": 0.0, "lon": -76.98713216666667, "name": "511314b5badd0d974066f41907c006eb", "is_disabled": 0, "rental_uris": {"android": "https://dc.lft.to/lastmile_qr_scan", "ios": "https://dc.lft.to/lastmile_qr_scan"}, "type": "electric_scooter", "lat": 38.866991, "is_reserved": 0, "fusion_lat": 0.0}, {"bike_id": "1dd8d6e8d0f1dff74194a133f8970f78", "fusion_lon": 0.0, "lon": -77.0209575, "name": "1dd8d6e8d0f1dff74194a133f8970f78", "is_disabled": 0, "rental_uris": {"android": "https://dc.lft.to/lastmile_qr_scan", "ios": "https://dc.lft.to/lastmile_qr_scan"}, "type": "electric_scooter", "lat": 38.93116366666667, "is_reserved": 0, "fusion_lat": 0.0}, {"bike_id": "7eeb49a51a68828766267806dae2a37d", "fusion_lon": 0.0, "lon": -77.0391755, "name": "7eeb49a51a68828766267806dae2a37d", "is_disabled": 0, "rental_uris": {"android": "https://dc.lft.to/lastmile_qr_scan", "ios": "https://dc.lft.to/lastmile_qr_scan"}, "type": "electric_scooter", "lat": 38.9246905, "is_reserved": 0, "fusion_lat": 0.0}, {"bike_id": "e4f8a2b0caedf58e38dbd16ff58cadc7", "fusion_lon": 0.0, "lon": -77.0145695, "name": "e4f8a2b0caedf58e38dbd16ff58cadc7", "is_disabled": 0, "rental_uris": {"android": "https://dc.lft.to/lastmile_qr_scan", "ios": "https://dc.lft.to/lastmile_qr_scan"}, "type": "electric_scooter", "lat": 38.9182085, "is_reserved": 0, "fusion_lat": 0.0}, {"bike_id": "089db2dc5d739907c15d74de54b71562", "fusion_lon": 0.0, "lon": -76.92473883333334, "name": "089db2dc5d739907c15d74de54b71562", "is_disabled": 0, "rental_uris": {"android": "https://dc.lft.to/lastmile_qr_scan", "ios": "https://dc.lft.to/lastmile_qr_scan"}, "type": "electric_bike", "lat": 38.958886666666665, "is_reserved": 0, "fusion_lat": 0.0}, {"bike_id": "5d573c43f2f3210790eb5af4491a6b31", "fusion_lon": 0.0, "lon": -76.99652283333333, "name": "5d573c43f2f3210790eb5af4491a6b31", "is_disabled": 0, "rental_uris": {"android": "https://dc.lft.to/lastmile_qr_scan", "ios": "https://dc.lft.to/lastmile_qr_scan"}, "type": "electric_bike", "lat": 38.98821066666667, "is_reserved": 0, "fusion_lat": 0.0}, {"bike_id": "089df070394702432a7417bce83df314", "fusion_lon": 0.0, "lon": -77.00207683333333, "name": "089df070394702432a7417bce83df314", "is_disabled": 0, "rental_uris": {"android": "https://dc.lft.to/lastmile_qr_scan", "ios": "https://dc.lft.to/lastmile_qr_scan"}, "type": "electric_scooter", "lat": 38.90070133333333, "is_reserved": 0, "fusion_lat": 0.0}, {"bike_id": "1e15663ce484be384fc1b1bd4f165140", "fusion_lon": 0.0, "lon": -77.0217995, "name": "1e15663ce484be384fc1b1bd4f165140", "is_disabled": 0, "rental_uris": {"android": "https://dc.lft.to/lastmile_qr_scan", "ios": "https://dc.lft.to/lastmile_qr_scan"}, "type": "electric_bike", "lat": 38.90702, "is_reserved": 0, "fusion_lat": 0.0}, {"bike_id": "1832177ae836e932595713bbf2bdc9e2", "fusion_lon": 0.0, "lon": -76.99962083333334, "name": "1832177ae836e932595713bbf2bdc9e2", "is_disabled": 0, "rental_uris": {"android": "https://dc.lft.to/lastmile_qr_scan", "ios": "https://dc.lft.to/lastmile_qr_scan"}, "type": "electric_scooter", "lat": 38.918976, "is_reserved": 0, "fusion_lat": 0.0}, {"bike_id": "60a598d4e83ffb7dedb2be04c6541954", "fusion_lon": 0.0, "lon": -77.03882366666667, "name": "60a598d4e83ffb7dedb2be04c6541954", "is_disabled": 0, "rental_uris": {"android": "https://dc.lft.to/lastmile_qr_scan", "ios": "https://dc.lft.to/lastmile_qr_scan"}, "type": "electric_scooter", "lat": 38.925057333333335, "is_reserved": 0, "fusion_lat": 0.0}, {"bike_id": "869ce30bdbb71e5605d3f51cc2898229", "fusion_lon": 0.0, "lon": -77.05854083333334, "name": "869ce30bdbb71e5605d3f51cc2898229", "is_disabled": 0, "rental_uris": {"android": "https://dc.lft.to/lastmile_qr_scan", "ios": "https://dc.lft.to/lastmile_qr_scan"}, "type": "electric_scooter", "lat": 38.936097, "is_reserved": 0, "fusion_lat": 0.0}, {"bike_id": "29bb063471eca5b17db003b76412e94e", "fusion_lon": 0.0, "lon": -77.0264955, "name": "29bb063471eca5b17db003b76412e94e", "is_disabled": 0, "rental_uris": {"android": "https://dc.lft.to/lastmile_qr_scan", "ios": "https://dc.lft.to/lastmile_qr_scan"}, "type": "electric_bike", "lat": 38.98819733333333, "is_reserved": 0, "fusion_lat": 0.0}, {"bike_id": "186ab564551635c8c691bdd9960897dc", "fusion_lon": 0.0, "lon": -76.96527266666666, "name": "186ab564551635c8c691bdd9960897dc", "is_disabled": 0, "rental_uris": {"android": "https://dc.lft.to/lastmile_qr_scan", "ios": "https://dc.lft.to/lastmile_qr_scan"}, "type": "electric_scooter", "lat": 38.876273833333336, "is_reserved": 0, "fusion_lat": 0.0}, {"bike_id": "ee2335582bb4d88617285257ec10da74", "fusion_lon": 0.0, "lon": -77.02636983333333, "name": "ee2335582bb4d88617285257ec10da74", "is_disabled": 0, "rental_uris": {"android": "https://dc.lft.to/lastmile_qr_scan", "ios": "https://dc.lft.to/lastmile_qr_scan"}, "type": "electric_scooter", "lat": 38.92529533333333, "is_reserved": 0, "fusion_lat": 0.0}, {"bike_id": "f9b880822acc7007f7c9ad31c5e2c412", "fusion_lon": 0.0, "lon": -77.04202116666667, "name": "f9b880822acc7007f7c9ad31c5e2c412", "is_disabled": 0, "rental_uris": {"android": "https://dc.lft.to/lastmile_qr_scan", "ios": "https://dc.lft.to/lastmile_qr_scan"}, "type": "electric_scooter", "lat": 38.911264833333334, "is_reserved": 0, "fusion_lat": 0.0}, {"bike_id": "a45ad8eec382b0708a0f588f1828d937", "fusion_lon": 0.0, "lon": -76.97742483333333, "name": "a45ad8eec382b0708a0f588f1828d937", "is_disabled": 0, "rental_uris": {"android": "https://dc.lft.to/lastmile_qr_scan", "ios": "https://dc.lft.to/lastmile_qr_scan"}, "type": "electric_scooter", "lat": 38.86829516666667, "is_reserved": 0, "fusion_lat": 0.0}, {"bike_id": "189cdc9634e0dbe0223a882ea9f23dde", "fusion_lon": 0.0, "lon": -77.06210433333334, "name": "189cdc9634e0dbe0223a882ea9f23dde", "is_disabled": 0, "rental_uris": {"android": "https://dc.lft.to/lastmile_qr_scan", "ios": "https://dc.lft.to/lastmile_qr_scan"}, "type": "electric_bike", "lat": 38.92033933333333, "is_reserved": 0, "fusion_lat": 0.0}, {"bike_id": "25235a240dbc479d1e156de1637935bd", "fusion_lon": 0.0, "lon": -77.01765933333333, "name": "25235a240dbc479d1e156de1637935bd", "is_disabled": 0, "rental_uris": {"android": "https://dc.lft.to/lastmile_qr_scan", "ios": "https://dc.lft.to/lastmile_qr_scan"}, "type": "electric_scooter", "lat": 38.91740733333334, "is_reserved": 0, "fusion_lat": 0.0}, {"bike_id": "b52cc9f2f31099838c9a92d7c873ab23", "fusion_lon": 0.0, "lon": -77.04176283333334, "name": "b52cc9f2f31099838c9a92d7c873ab23", "is_disabled": 0, "rental_uris": {"android": "https://dc.lft.to/lastmile_qr_scan", "ios": "https://dc.lft.to/lastmile_qr_scan"}, "type": "electric_scooter", "lat": 38.91938733333333, "is_reserved": 0, "fusion_lat": 0.0}, {"bike_id": "fb67ccc70ce72599a8929df745a9f767", "fusion_lon": 0.0, "lon": -77.02977133333333, "name": "fb67ccc70ce72599a8929df745a9f767", "is_disabled": 0, "rental_uris": {"android": "https://dc.lft.to/lastmile_qr_scan", "ios": "https://dc.lft.to/lastmile_qr_scan"}, "type": "electric_scooter", "lat": 38.951941833333336, "is_reserved": 0, "fusion_lat": 0.0}, {"bike_id": "a0143d35ba6c413753757c0b80118376", "fusion_lon": 0.0, "lon": -76.96501883333333, "name": "a0143d35ba6c413753757c0b80118376", "is_disabled": 0, "rental_uris": {"android": "https://dc.lft.to/lastmile_qr_scan", "ios": "https://dc.lft.to/lastmile_qr_scan"}, "type": "electric_bike", "lat": 38.8755745, "is_reserved": 0, "fusion_lat": 0.0}, {"bike_id": "e6c9cabd0576698656e6720f262975c4", "fusion_lon": 0.0, "lon": -77.01755483333334, "name": "e6c9cabd0576698656e6720f262975c4", "is_disabled": 0, "rental_uris": {"android": "https://dc.lft.to/lastmile_qr_scan", "ios": "https://dc.lft.to/lastmile_qr_scan"}, "type": "electric_scooter", "lat": 38.8785055, "is_reserved": 0, "fusion_lat": 0.0}, {"bike_id": "55bd4e6edd4fd6e6fdf34623b883f721", "fusion_lon": 0.0, "lon": -77.021979, "name": "55bd4e6edd4fd6e6fdf34623b883f721", "is_disabled": 0, "rental_uris": {"android": "https://dc.lft.to/lastmile_qr_scan", "ios": "https://dc.lft.to/lastmile_qr_scan"}, "type": "electric_scooter", "lat": 38.895405, "is_reserved": 0, "fusion_lat": 0.0}, {"bike_id": "49f1c921715ea3a864321d8ae316747d", "fusion_lon": 0.0, "lon": -77.03829783333333, "name": "49f1c921715ea3a864321d8ae316747d", "is_disabled": 0, "rental_uris": {"android": "https://dc.lft.to/lastmile_qr_scan", "ios": "https://dc.lft.to/lastmile_qr_scan"}, "type": "electric_scooter", "lat": 38.907910666666666, "is_reserved": 0, "fusion_lat": 0.0}, {"bike_id": "ba2b3664a14a4ce9a46e38ca3f23bf61", "fusion_lon": 0.0, "lon": -77.02694083333333, "name": "ba2b3664a14a4ce9a46e38ca3f23bf61", "is_disabled": 0, "rental_uris": {"android": "https://dc.lft.to/lastmile_qr_scan", "ios": "https://dc.lft.to/lastmile_qr_scan"}, "type": "electric_scooter", "lat": 38.91130833333333, "is_reserved": 0, "fusion_lat": 0.0}, {"bike_id": "4b04060acf7853b4a3ec27d7e41de78b", "fusion_lon": 0.0, "lon": -77.03568583333333, "name": "4b04060acf7853b4a3ec27d7e41de78b", "is_disabled": 0, "rental_uris": {"android": "https://dc.lft.to/lastmile_qr_scan", "ios": "https://dc.lft.to/lastmile_qr_scan"}, "type": "electric_scooter", "lat": 38.92332916666667, "is_reserved": 0, "fusion_lat": 0.0}, {"bike_id": "26e8f9e5b4fd8405e611ff33b9dcb700", "fusion_lon": 0.0, "lon": -77.05052516666667, "name": "26e8f9e5b4fd8405e611ff33b9dcb700", "is_disabled": 0, "rental_uris": {"android": "https://dc.lft.to/lastmile_qr_scan", "ios": "https://dc.lft.to/lastmile_qr_scan"}, "type": "electric_scooter", "lat": 38.9234025, "is_reserved": 0, "fusion_lat": 0.0}, {"bike_id": "7941a4da274fc8fff0073fa12c127ec7", "fusion_lon": 0.0, "lon": -77.02717266666667, "name": "7941a4da274fc8fff0073fa12c127ec7", "is_disabled": 0, "rental_uris": {"android": "https://dc.lft.to/lastmile_qr_scan", "ios": "https://dc.lft.to/lastmile_qr_scan"}, "type": "electric_scooter", "lat": 38.909524833333336, "is_reserved": 0, "fusion_lat": 0.0}, {"bike_id": "d3b0978d13f4f92e2c54436952e51e59", "fusion_lon": 0.0, "lon": -77.04492233333333, "name": "d3b0978d13f4f92e2c54436952e51e59", "is_disabled": 0, "rental_uris": {"android": "https://dc.lft.to/lastmile_qr_scan", "ios": "https://dc.lft.to/lastmile_qr_scan"}, "type": "electric_bike", "lat": 38.842891, "is_reserved": 0, "fusion_lat": 0.0}, {"bike_id": "fda1068f37d2102d3152238a421c612d", "fusion_lon": 0.0, "lon": -76.98608433333334, "name": "fda1068f37d2102d3152238a421c612d", "is_disabled": 0, "rental_uris": {"android": "https://dc.lft.to/lastmile_qr_scan", "ios": "https://dc.lft.to/lastmile_qr_scan"}, "type": "electric_scooter", "lat": 38.87833083333334, "is_reserved": 0, "fusion_lat": 0.0}, {"bike_id": "60b447073a10c1a2e665b3ae912d2209", "fusion_lon": 0.0, "lon": -77.03947016666666, "name": "60b447073a10c1a2e665b3ae912d2209", "is_disabled": 0, "rental_uris": {"android": "https://dc.lft.to/lastmile_qr_scan", "ios": "https://dc.lft.to/lastmile_qr_scan"}, "type": "electric_scooter", "lat": 38.92621116666667, "is_reserved": 0, "fusion_lat": 0.0}, {"bike_id": "3f20ac8d5fb2d7ca3606088f3eadf30d", "fusion_lon": 0.0, "lon": -77.00572766666667, "name": "3f20ac8d5fb2d7ca3606088f3eadf30d", "is_disabled": 0, "rental_uris": {"android": "https://dc.lft.to/lastmile_qr_scan", "ios": "https://dc.lft.to/lastmile_qr_scan"}, "type": "electric_scooter", "lat": 38.918128833333334, "is_reserved": 0, "fusion_lat": 0.0}, {"bike_id": "cbbdccd91717fc18c8710e4579addf2d", "fusion_lon": 0.0, "lon": -77.0257685, "name": "cbbdccd91717fc18c8710e4579addf2d", "is_disabled": 0, "rental_uris": {"android": "https://dc.lft.to/lastmile_qr_scan", "ios": "https://dc.lft.to/lastmile_qr_scan"}, "type": "electric_scooter", "lat": 38.903639, "is_reserved": 0, "fusion_lat": 0.0}, {"bike_id": "ee878e60e2845bce479aed7446ac8b4e", "fusion_lon": 0.0, "lon": -77.03102683333333, "name": "ee878e60e2845bce479aed7446ac8b4e", "is_disabled": 0, "rental_uris": {"android": "https://dc.lft.to/lastmile_qr_scan", "ios": "https://dc.lft.to/lastmile_qr_scan"}, "type": "electric_scooter", "lat": 38.95077033333333, "is_reserved": 0, "fusion_lat": 0.0}, {"bike_id": "01c20152734ce903d1d540b6783733c3", "fusion_lon": 0.0, "lon": -77.01775016666667, "name": "01c20152734ce903d1d540b6783733c3", "is_disabled": 0, "rental_uris": {"android": "https://dc.lft.to/lastmile_qr_scan", "ios": "https://dc.lft.to/lastmile_qr_scan"}, "type": "electric_scooter", "lat": 38.902762, "is_reserved": 0, "fusion_lat": 0.0}, {"bike_id": "f1dc2aef459a73009bbcb1fc3751e236", "fusion_lon": 0.0, "lon": -76.9493635, "name": "f1dc2aef459a73009bbcb1fc3751e236", "is_disabled": 0, "rental_uris": {"android": "https://dc.lft.to/lastmile_qr_scan", "ios": "https://dc.lft.to/lastmile_qr_scan"}, "type": "electric_scooter", "lat": 38.893496, "is_reserved": 0, "fusion_lat": 0.0}, {"bike_id": "5e6bb4d045bbdff7cf7f4d05a54c3c9a", "fusion_lon": 0.0, "lon": -77.06839983333333, "name": "5e6bb4d045bbdff7cf7f4d05a54c3c9a", "is_disabled": 0, "rental_uris": {"android": "https://dc.lft.to/lastmile_qr_scan", "ios": "https://dc.lft.to/lastmile_qr_scan"}, "type": "electric_scooter", "lat": 38.91726166666667, "is_reserved": 0, "fusion_lat": 0.0}, {"bike_id": "208fb32d2db2f037d0e22cf2b6d8413e", "fusion_lon": 0.0, "lon": -77.0231925, "name": "208fb32d2db2f037d0e22cf2b6d8413e", "is_disabled": 0, "rental_uris": {"android": "https://dc.lft.to/lastmile_qr_scan", "ios": "https://dc.lft.to/lastmile_qr_scan"}, "type": "electric_scooter", "lat": 38.91836216666667, "is_reserved": 0, "fusion_lat": 0.0}, {"bike_id": "413f31e503ba6bec818748602f7b23c6", "fusion_lon": 0.0, "lon": -77.03856683333333, "name": "413f31e503ba6bec818748602f7b23c6", "is_disabled": 0, "rental_uris": {"android": "https://dc.lft.to/lastmile_qr_scan", "ios": "https://dc.lft.to/lastmile_qr_scan"}, "type": "electric_scooter", "lat": 38.915448166666664, "is_reserved": 0, "fusion_lat": 0.0}, {"bike_id": "211bc94901a6cbcb9810bce693721d85", "fusion_lon": 0.0, "lon": -77.04686466666666, "name": "211bc94901a6cbcb9810bce693721d85", "is_disabled": 0, "rental_uris": {"android": "https://dc.lft.to/lastmile_qr_scan", "ios": "https://dc.lft.to/lastmile_qr_scan"}, "type": "electric_scooter", "lat": 38.892231333333335, "is_reserved": 0, "fusion_lat": 0.0}, {"bike_id": "067b4f1283993d75421f8d9424e6c7ec", "fusion_lon": 0.0, "lon": -77.0217925, "name": "067b4f1283993d75421f8d9424e6c7ec", "is_disabled": 0, "rental_uris": {"android": "https://dc.lft.to/lastmile_qr_scan", "ios": "https://dc.lft.to/lastmile_qr_scan"}, "type": "electric_scooter", "lat": 38.92494266666667, "is_reserved": 0, "fusion_lat": 0.0}, {"bike_id": "f46c87df2136b2490360487c41c2b462", "fusion_lon": 0.0, "lon": -77.06502133333333, "name": "f46c87df2136b2490360487c41c2b462", "is_disabled": 0, "rental_uris": {"android": "https://dc.lft.to/lastmile_qr_scan", "ios": "https://dc.lft.to/lastmile_qr_scan"}, "type": "electric_bike", "lat": 38.9686785, "is_reserved": 0, "fusion_lat": 0.0}, {"bike_id": "3d7dee71bbd14398d02fa9c67b77cba1", "fusion_lon": 0.0, "lon": -77.04168666666666, "name": "3d7dee71bbd14398d02fa9c67b77cba1", "is_disabled": 0, "rental_uris": {"android": "https://dc.lft.to/lastmile_qr_scan", "ios": "https://dc.lft.to/lastmile_qr_scan"}, "type": "electric_scooter", "lat": 38.916445333333336, "is_reserved": 0, "fusion_lat": 0.0}, {"bike_id": "bfa98982ba54d493709f971ad8761140", "fusion_lon": 0.0, "lon": -77.04268583333334, "name": "bfa98982ba54d493709f971ad8761140", "is_disabled": 0, "rental_uris": {"android": "https://dc.lft.to/lastmile_qr_scan", "ios": "https://dc.lft.to/lastmile_qr_scan"}, "type": "electric_scooter", "lat": 38.9086135, "is_reserved": 0, "fusion_lat": 0.0}, {"bike_id": "88422753f56f432071b301957b5d6044", "fusion_lon": 0.0, "lon": -76.969113, "name": "88422753f56f432071b301957b5d6044", "is_disabled": 0, "rental_uris": {"android": "https://dc.lft.to/lastmile_qr_scan", "ios": "https://dc.lft.to/lastmile_qr_scan"}, "type": "electric_bike", "lat": 38.846152333333336, "is_reserved": 0, "fusion_lat": 0.0}, {"bike_id": "4eefda669b87d11b61f1a225ddb602dd", "fusion_lon": 0.0, "lon": -77.02159216666666, "name": "4eefda669b87d11b61f1a225ddb602dd", "is_disabled": 0, "rental_uris": {"android": "https://dc.lft.to/lastmile_qr_scan", "ios": "https://dc.lft.to/lastmile_qr_scan"}, "type": "electric_scooter", "lat": 38.92497266666667, "is_reserved": 0, "fusion_lat": 0.0}, {"bike_id": "e2779e35180108c5053f307e7e2931a7", "fusion_lon": 0.0, "lon": -77.01286183333333, "name": "e2779e35180108c5053f307e7e2931a7", "is_disabled": 0, "rental_uris": {"android": "https://dc.lft.to/lastmile_qr_scan", "ios": "https://dc.lft.to/lastmile_qr_scan"}, "type": "electric_bike", "lat": 39.00382333333334, "is_reserved": 0, "fusion_lat": 0.0}, {"bike_id": "b6df4338e8bba79627cf5b28c88cb01e", "fusion_lon": 0.0, "lon": -77.03373533333334, "name": "b6df4338e8bba79627cf5b28c88cb01e", "is_disabled": 0, "rental_uris": {"android": "https://dc.lft.to/lastmile_qr_scan", "ios": "https://dc.lft.to/lastmile_qr_scan"}, "type": "electric_scooter", "lat": 38.92170333333333, "is_reserved": 0, "fusion_lat": 0.0}, {"bike_id": "43754aec7ec760773ffaa7b34c34ad51", "fusion_lon": 0.0, "lon": -77.05879133333333, "name": "43754aec7ec760773ffaa7b34c34ad51", "is_disabled": 0, "rental_uris": {"android": "https://dc.lft.to/lastmile_qr_scan", "ios": "https://dc.lft.to/lastmile_qr_scan"}, "type": "electric_bike", "lat": 38.958931, "is_reserved": 0, "fusion_lat": 0.0}, {"bike_id": "f15aef4c5066c64d42feb82fa97fff53", "fusion_lon": 0.0, "lon": -77.02382066666667, "name": "f15aef4c5066c64d42feb82fa97fff53", "is_disabled": 0, "rental_uris": {"android": "https://dc.lft.to/lastmile_qr_scan", "ios": "https://dc.lft.to/lastmile_qr_scan"}, "type": "electric_scooter", "lat": 38.90206283333333, "is_reserved": 0, "fusion_lat": 0.0}, {"bike_id": "8b30343c5b716dd30a4a58729681a869", "fusion_lon": 0.0, "lon": -77.216529, "name": "8b30343c5b716dd30a4a58729681a869", "is_disabled": 0, "rental_uris": {"android": "https://dc.lft.to/lastmile_qr_scan", "ios": "https://dc.lft.to/lastmile_qr_scan"}, "type": "electric_bike", "lat": 38.9301155, "is_reserved": 0, "fusion_lat": 0.0}, {"bike_id": "068f0af7596bb801aa678743d6104eff", "fusion_lon": 0.0, "lon": -77.01696516666667, "name": "068f0af7596bb801aa678743d6104eff", "is_disabled": 0, "rental_uris": {"android": "https://dc.lft.to/lastmile_qr_scan", "ios": "https://dc.lft.to/lastmile_qr_scan"}, "type": "electric_scooter", "lat": 38.911733166666664, "is_reserved": 0, "fusion_lat": 0.0}, {"bike_id": "2a72e5db4a6dddb4435c4df0e83e0062", "fusion_lon": 0.0, "lon": -77.02877733333334, "name": "2a72e5db4a6dddb4435c4df0e83e0062", "is_disabled": 0, "rental_uris": {"android": "https://dc.lft.to/lastmile_qr_scan", "ios": "https://dc.lft.to/lastmile_qr_scan"}, "type": "electric_bike", "lat": 38.999028833333334, "is_reserved": 0, "fusion_lat": 0.0}, {"bike_id": "cce8827ae80be2125d876dfb5528661c", "fusion_lon": 0.0, "lon": -77.03424066666666, "name": "cce8827ae80be2125d876dfb5528661c", "is_disabled": 0, "rental_uris": {"android": "https://dc.lft.to/lastmile_qr_scan", "ios": "https://dc.lft.to/lastmile_qr_scan"}, "type": "electric_scooter", "lat": 38.90725833333333, "is_reserved": 0, "fusion_lat": 0.0}, {"bike_id": "1dcbe06e01711b9feff748af9c99b665", "fusion_lon": 0.0, "lon": -77.041439, "name": "1dcbe06e01711b9feff748af9c99b665", "is_disabled": 0, "rental_uris": {"android": "https://dc.lft.to/lastmile_qr_scan", "ios": "https://dc.lft.to/lastmile_qr_scan"}, "type": "electric_scooter", "lat": 38.92297816666667, "is_reserved": 0, "fusion_lat": 0.0}, {"bike_id": "9516e97ae0e74114510de462a094b73b", "fusion_lon": 0.0, "lon": -77.04775433333333, "name": "9516e97ae0e74114510de462a094b73b", "is_disabled": 0, "rental_uris": {"android": "https://dc.lft.to/lastmile_qr_scan", "ios": "https://dc.lft.to/lastmile_qr_scan"}, "type": "electric_scooter", "lat": 38.907216, "is_reserved": 0, "fusion_lat": 0.0}, {"bike_id": "f9e79c416f6240881c097c6421dff17e", "fusion_lon": 0.0, "lon": -76.93734916666666, "name": "f9e79c416f6240881c097c6421dff17e", "is_disabled": 0, "rental_uris": {"android": "https://dc.lft.to/lastmile_qr_scan", "ios": "https://dc.lft.to/lastmile_qr_scan"}, "type": "electric_scooter", "lat": 38.89017666666667, "is_reserved": 0, "fusion_lat": 0.0}, {"bike_id": "995534915a8b47edde2195e50cfdce81", "fusion_lon": 0.0, "lon": -76.97265016666667, "name": "995534915a8b47edde2195e50cfdce81", "is_disabled": 0, "rental_uris": {"android": "https://dc.lft.to/lastmile_qr_scan", "ios": "https://dc.lft.to/lastmile_qr_scan"}, "type": "electric_bike", "lat": 38.91964, "is_reserved": 0, "fusion_lat": 0.0}, {"bike_id": "520d34b692a7a660f780c56a7c91b448", "fusion_lon": 0.0, "lon": -77.04647533333333, "name": "520d34b692a7a660f780c56a7c91b448", "is_disabled": 0, "rental_uris": {"android": "https://dc.lft.to/lastmile_qr_scan", "ios": "https://dc.lft.to/lastmile_qr_scan"}, "type": "electric_bike", "lat": 39.0550125, "is_reserved": 0, "fusion_lat": 0.0}, {"bike_id": "3d38deae571b4e081e4b92ec360ec348", "fusion_lon": 0.0, "lon": -77.0369615, "name": "3d38deae571b4e081e4b92ec360ec348", "is_disabled": 0, "rental_uris": {"android": "https://dc.lft.to/lastmile_qr_scan", "ios": "https://dc.lft.to/lastmile_qr_scan"}, "type": "electric_bike", "lat": 38.93974683333333, "is_reserved": 0, "fusion_lat": 0.0}, {"bike_id": "c2be918a1c060fd137c47a9c67e87a17", "fusion_lon": 0.0, "lon": -77.03257166666667, "name": "c2be918a1c060fd137c47a9c67e87a17", "is_disabled": 0, "rental_uris": {"android": "https://dc.lft.to/lastmile_qr_scan", "ios": "https://dc.lft.to/lastmile_qr_scan"}, "type": "electric_scooter", "lat": 38.94274216666667, "is_reserved": 0, "fusion_lat": 0.0}, {"bike_id": "efcf079e8c6ad6f4acd634673897b1e2", "fusion_lon": 0.0, "lon": -77.01197616666667, "name": "efcf079e8c6ad6f4acd634673897b1e2", "is_disabled": 0, "rental_uris": {"android": "https://dc.lft.to/lastmile_qr_scan", "ios": "https://dc.lft.to/lastmile_qr_scan"}, "type": "electric_scooter", "lat": 38.90011066666667, "is_reserved": 0, "fusion_lat": 0.0}, {"bike_id": "e5c20eb50761a1c86c9f7301f31c76ce", "fusion_lon": 0.0, "lon": -76.98386733333334, "name": "e5c20eb50761a1c86c9f7301f31c76ce", "is_disabled": 0, "rental_uris": {"android": "https://dc.lft.to/lastmile_qr_scan", "ios": "https://dc.lft.to/lastmile_qr_scan"}, "type": "electric_scooter", "lat": 38.861146166666664, "is_reserved": 0, "fusion_lat": 0.0}, {"bike_id": "98b03c45a69f6510d09cd91e1aa2381f", "fusion_lon": 0.0, "lon": -77.00205883333334, "name": "98b03c45a69f6510d09cd91e1aa2381f", "is_disabled": 0, "rental_uris": {"android": "https://dc.lft.to/lastmile_qr_scan", "ios": "https://dc.lft.to/lastmile_qr_scan"}, "type": "electric_scooter", "lat": 38.900767, "is_reserved": 0, "fusion_lat": 0.0}, {"bike_id": "8087845ea3ba3072f218cad238ad8583", "fusion_lon": 0.0, "lon": -76.99330416666666, "name": "8087845ea3ba3072f218cad238ad8583", "is_disabled": 0, "rental_uris": {"android": "https://dc.lft.to/lastmile_qr_scan", "ios": "https://dc.lft.to/lastmile_qr_scan"}, "type": "electric_bike", "lat": 38.893655, "is_reserved": 0, "fusion_lat": 0.0}, {"bike_id": "91fa7483fc36c6e113626745e55c16e2", "fusion_lon": 0.0, "lon": -77.01221166666667, "name": "91fa7483fc36c6e113626745e55c16e2", "is_disabled": 0, "rental_uris": {"android": "https://dc.lft.to/lastmile_qr_scan", "ios": "https://dc.lft.to/lastmile_qr_scan"}, "type": "electric_scooter", "lat": 38.9143985, "is_reserved": 0, "fusion_lat": 0.0}, {"bike_id": "0fb0d96b7bb33d44c0a773ec5af66052", "fusion_lon": 0.0, "lon": -77.01800066666667, "name": "0fb0d96b7bb33d44c0a773ec5af66052", "is_disabled": 0, "rental_uris": {"android": "https://dc.lft.to/lastmile_qr_scan", "ios": "https://dc.lft.to/lastmile_qr_scan"}, "type": "electric_scooter", "lat": 38.876726, "is_reserved": 0, "fusion_lat": 0.0}, {"bike_id": "5d5943431232d03ac6e9d98821c0b536", "fusion_lon": 0.0, "lon": -77.03208966666666, "name": "5d5943431232d03ac6e9d98821c0b536", "is_disabled": 0, "rental_uris": {"android": "https://dc.lft.to/lastmile_qr_scan", "ios": "https://dc.lft.to/lastmile_qr_scan"}, "type": "electric_scooter", "lat": 38.9098145, "is_reserved": 0, "fusion_lat": 0.0}, {"bike_id": "f2b0a49a37484b39bd9757b178514e45", "fusion_lon": 0.0, "lon": -77.0219725, "name": "f2b0a49a37484b39bd9757b178514e45", "is_disabled": 0, "rental_uris": {"android": "https://dc.lft.to/lastmile_qr_scan", "ios": "https://dc.lft.to/lastmile_qr_scan"}, "type": "electric_scooter", "lat": 38.91097366666666, "is_reserved": 0, "fusion_lat": 0.0}, {"bike_id": "224a0a3cd335baea393b53047f712117", "fusion_lon": 0.0, "lon": -77.03184433333334, "name": "224a0a3cd335baea393b53047f712117", "is_disabled": 0, "rental_uris": {"android": "https://dc.lft.to/lastmile_qr_scan", "ios": "https://dc.lft.to/lastmile_qr_scan"}, "type": "electric_scooter", "lat": 38.92383683333333, "is_reserved": 0, "fusion_lat": 0.0}, {"bike_id": "713136c721d6e94d979b1e96c79ece41", "fusion_lon": 0.0, "lon": -77.0262465, "name": "713136c721d6e94d979b1e96c79ece41", "is_disabled": 0, "rental_uris": {"android": "https://dc.lft.to/lastmile_qr_scan", "ios": "https://dc.lft.to/lastmile_qr_scan"}, "type": "electric_scooter", "lat": 38.9281025, "is_reserved": 0, "fusion_lat": 0.0}, {"bike_id": "31d6ec21472645f8b1d831056fd9a1c4", "fusion_lon": 0.0, "lon": -77.031676, "name": "31d6ec21472645f8b1d831056fd9a1c4", "is_disabled": 0, "rental_uris": {"android": "https://dc.lft.to/lastmile_qr_scan", "ios": "https://dc.lft.to/lastmile_qr_scan"}, "type": "electric_scooter", "lat": 38.892214333333335, "is_reserved": 0, "fusion_lat": 0.0}, {"bike_id": "ae6b2d0b69274362909a2a7cb3cf1bb1", "fusion_lon": 0.0, "lon": -77.03078583333334, "name": "ae6b2d0b69274362909a2a7cb3cf1bb1", "is_disabled": 0, "rental_uris": {"android": "https://dc.lft.to/lastmile_qr_scan", "ios": "https://dc.lft.to/lastmile_qr_scan"}, "type": "electric_bike", "lat": 38.933131833333334, "is_reserved": 0, "fusion_lat": 0.0}, {"bike_id": "226ee1cee85b1928a130564d89dd7645", "fusion_lon": 0.0, "lon": -77.03851083333333, "name": "226ee1cee85b1928a130564d89dd7645", "is_disabled": 0, "rental_uris": {"android": "https://dc.lft.to/lastmile_qr_scan", "ios": "https://dc.lft.to/lastmile_qr_scan"}, "type": "electric_scooter", "lat": 38.90785233333333, "is_reserved": 0, "fusion_lat": 0.0}, {"bike_id": "34eca5b766b2f0e69c4a41f5c499fa13", "fusion_lon": 0.0, "lon": -77.03201616666666, "name": "34eca5b766b2f0e69c4a41f5c499fa13", "is_disabled": 0, "rental_uris": {"android": "https://dc.lft.to/lastmile_qr_scan", "ios": "https://dc.lft.to/lastmile_qr_scan"}, "type": "electric_scooter", "lat": 38.90943566666667, "is_reserved": 0, "fusion_lat": 0.0}, {"bike_id": "44ab4edfafeb820d92f0419fa1693012", "fusion_lon": 0.0, "lon": -76.9884445, "name": "44ab4edfafeb820d92f0419fa1693012", "is_disabled": 0, "rental_uris": {"android": "https://dc.lft.to/lastmile_qr_scan", "ios": "https://dc.lft.to/lastmile_qr_scan"}, "type": "electric_bike", "lat": 38.842773666666666, "is_reserved": 0, "fusion_lat": 0.0}, {"bike_id": "19935f2a5f64dd827a223e1186a7401e", "fusion_lon": 0.0, "lon": -77.00657366666667, "name": "19935f2a5f64dd827a223e1186a7401e", "is_disabled": 0, "rental_uris": {"android": "https://dc.lft.to/lastmile_qr_scan", "ios": "https://dc.lft.to/lastmile_qr_scan"}, "type": "electric_scooter", "lat": 38.944654, "is_reserved": 0, "fusion_lat": 0.0}, {"bike_id": "b7b0866ded66adddafcc717f94e16c24", "fusion_lon": 0.0, "lon": -77.00366533333333, "name": "b7b0866ded66adddafcc717f94e16c24", "is_disabled": 0, "rental_uris": {"android": "https://dc.lft.to/lastmile_qr_scan", "ios": "https://dc.lft.to/lastmile_qr_scan"}, "type": "electric_scooter", "lat": 38.882640333333335, "is_reserved": 0, "fusion_lat": 0.0}, {"bike_id": "3da61c480b66b0d74cc626352134e315", "fusion_lon": 0.0, "lon": -77.012608, "name": "3da61c480b66b0d74cc626352134e315", "is_disabled": 0, "rental_uris": {"android": "https://dc.lft.to/lastmile_qr_scan", "ios": "https://dc.lft.to/lastmile_qr_scan"}, "type": "electric_scooter", "lat": 38.900591166666665, "is_reserved": 0, "fusion_lat": 0.0}, {"bike_id": "2f48e229e0edaa7d6524431b568fb3cd", "fusion_lon": 0.0, "lon": -77.03673083333334, "name": "2f48e229e0edaa7d6524431b568fb3cd", "is_disabled": 0, "rental_uris": {"android": "https://dc.lft.to/lastmile_qr_scan", "ios": "https://dc.lft.to/lastmile_qr_scan"}, "type": "electric_scooter", "lat": 38.917098, "is_reserved": 0, "fusion_lat": 0.0}, {"bike_id": "daa0a722a03a1bb16be2bba708cf41a0", "fusion_lon": 0.0, "lon": -77.02723466666667, "name": "daa0a722a03a1bb16be2bba708cf41a0", "is_disabled": 0, "rental_uris": {"android": "https://dc.lft.to/lastmile_qr_scan", "ios": "https://dc.lft.to/lastmile_qr_scan"}, "type": "electric_scooter", "lat": 38.94959133333333, "is_reserved": 0, "fusion_lat": 0.0}, {"bike_id": "de1fde7af433f84476d1e60e5edf2539", "fusion_lon": 0.0, "lon": -77.03849866666667, "name": "de1fde7af433f84476d1e60e5edf2539", "is_disabled": 0, "rental_uris": {"android": "https://dc.lft.to/lastmile_qr_scan", "ios": "https://dc.lft.to/lastmile_qr_scan"}, "type": "electric_scooter", "lat": 38.91547966666667, "is_reserved": 0, "fusion_lat": 0.0}, {"bike_id": "78b408300d3a01efc78e2125d9a5f67f", "fusion_lon": 0.0, "lon": -77.11708566666667, "name": "78b408300d3a01efc78e2125d9a5f67f", "is_disabled": 0, "rental_uris": {"android": "https://dc.lft.to/lastmile_qr_scan", "ios": "https://dc.lft.to/lastmile_qr_scan"}, "type": "electric_bike", "lat": 38.867463, "is_reserved": 0, "fusion_lat": 0.0}, {"bike_id": "733ffa1b27d6900deed05a6c86853ccc", "fusion_lon": 0.0, "lon": -77.02290183333334, "name": "733ffa1b27d6900deed05a6c86853ccc", "is_disabled": 0, "rental_uris": {"android": "https://dc.lft.to/lastmile_qr_scan", "ios": "https://dc.lft.to/lastmile_qr_scan"}, "type": "electric_scooter", "lat": 38.92754933333333, "is_reserved": 0, "fusion_lat": 0.0}, {"bike_id": "d51527c3e7d85179b78b881193138e44", "fusion_lon": 0.0, "lon": -77.05012216666667, "name": "d51527c3e7d85179b78b881193138e44", "is_disabled": 0, "rental_uris": {"android": "https://dc.lft.to/lastmile_qr_scan", "ios": "https://dc.lft.to/lastmile_qr_scan"}, "type": "electric_scooter", "lat": 38.9061945, "is_reserved": 0, "fusion_lat": 0.0}, {"bike_id": "3983777dab9773af82b67351d253df06", "fusion_lon": 0.0, "lon": -77.05133033333334, "name": "3983777dab9773af82b67351d253df06", "is_disabled": 0, "rental_uris": {"android": "https://dc.lft.to/lastmile_qr_scan", "ios": "https://dc.lft.to/lastmile_qr_scan"}, "type": "electric_scooter", "lat": 38.90509483333334, "is_reserved": 0, "fusion_lat": 0.0}, {"bike_id": "3b5efabc36a076cb36443d0d675fb6d5", "fusion_lon": 0.0, "lon": -77.023103, "name": "3b5efabc36a076cb36443d0d675fb6d5", "is_disabled": 0, "rental_uris": {"android": "https://dc.lft.to/lastmile_qr_scan", "ios": "https://dc.lft.to/lastmile_qr_scan"}, "type": "electric_scooter", "lat": 38.929392, "is_reserved": 0, "fusion_lat": 0.0}, {"bike_id": "92cad4651fd40fa1edd37862289835b9", "fusion_lon": 0.0, "lon": -77.031034, "name": "92cad4651fd40fa1edd37862289835b9", "is_disabled": 0, "rental_uris": {"android": "https://dc.lft.to/lastmile_qr_scan", "ios": "https://dc.lft.to/lastmile_qr_scan"}, "type": "electric_scooter", "lat": 38.94644783333333, "is_reserved": 0, "fusion_lat": 0.0}, {"bike_id": "ed1091890e8a4e08839367ebc3c283f2", "fusion_lon": 0.0, "lon": -76.995169, "name": "ed1091890e8a4e08839367ebc3c283f2", "is_disabled": 0, "rental_uris": {"android": "https://dc.lft.to/lastmile_qr_scan", "ios": "https://dc.lft.to/lastmile_qr_scan"}, "type": "electric_scooter", "lat": 38.90985366666666, "is_reserved": 0, "fusion_lat": 0.0}, {"bike_id": "7809b2b8cffabc59f807ef057c208f47", "fusion_lon": 0.0, "lon": -77.05122166666666, "name": "7809b2b8cffabc59f807ef057c208f47", "is_disabled": 0, "rental_uris": {"android": "https://dc.lft.to/lastmile_qr_scan", "ios": "https://dc.lft.to/lastmile_qr_scan"}, "type": "electric_scooter", "lat": 38.923478833333334, "is_reserved": 0, "fusion_lat": 0.0}, {"bike_id": "dca7dc312eb1eb9a12625f2b949d5a6c", "fusion_lon": 0.0, "lon": -77.02796483333333, "name": "dca7dc312eb1eb9a12625f2b949d5a6c", "is_disabled": 0, "rental_uris": {"android": "https://dc.lft.to/lastmile_qr_scan", "ios": "https://dc.lft.to/lastmile_qr_scan"}, "type": "electric_scooter", "lat": 38.9540045, "is_reserved": 0, "fusion_lat": 0.0}, {"bike_id": "4fb42fe08a08f2660ab1c3c2fb64335e", "fusion_lon": 0.0, "lon": -77.03452283333333, "name": "4fb42fe08a08f2660ab1c3c2fb64335e", "is_disabled": 0, "rental_uris": {"android": "https://dc.lft.to/lastmile_qr_scan", "ios": "https://dc.lft.to/lastmile_qr_scan"}, "type": "electric_scooter", "lat": 38.93425583333333, "is_reserved": 0, "fusion_lat": 0.0}, {"bike_id": "b389835e25390a3d140d247ff525b82b", "fusion_lon": 0.0, "lon": -77.02214283333333, "name": "b389835e25390a3d140d247ff525b82b", "is_disabled": 0, "rental_uris": {"android": "https://dc.lft.to/lastmile_qr_scan", "ios": "https://dc.lft.to/lastmile_qr_scan"}, "type": "electric_scooter", "lat": 38.915509166666666, "is_reserved": 0, "fusion_lat": 0.0}, {"bike_id": "ca667d378ee636ce29affb5962f8e46a", "fusion_lon": 0.0, "lon": -77.02688333333333, "name": "ca667d378ee636ce29affb5962f8e46a", "is_disabled": 0, "rental_uris": {"android": "https://dc.lft.to/lastmile_qr_scan", "ios": "https://dc.lft.to/lastmile_qr_scan"}, "type": "electric_scooter", "lat": 38.9085695, "is_reserved": 0, "fusion_lat": 0.0}, {"bike_id": "a9e649977ce7f1a4815d456293a8b6d0", "fusion_lon": 0.0, "lon": -77.04533033333334, "name": "a9e649977ce7f1a4815d456293a8b6d0", "is_disabled": 0, "rental_uris": {"android": "https://dc.lft.to/lastmile_qr_scan", "ios": "https://dc.lft.to/lastmile_qr_scan"}, "type": "electric_scooter", "lat": 38.93295166666667, "is_reserved": 0, "fusion_lat": 0.0}, {"bike_id": "e1b501ece30899bdefb21268942d1cba", "fusion_lon": 0.0, "lon": -77.04166183333334, "name": "e1b501ece30899bdefb21268942d1cba", "is_disabled": 0, "rental_uris": {"android": "https://dc.lft.to/lastmile_qr_scan", "ios": "https://dc.lft.to/lastmile_qr_scan"}, "type": "electric_scooter", "lat": 38.911816333333334, "is_reserved": 0, "fusion_lat": 0.0}, {"bike_id": "1ac951109080b6caa45c0553bea16848", "fusion_lon": 0.0, "lon": -77.02178716666667, "name": "1ac951109080b6caa45c0553bea16848", "is_disabled": 0, "rental_uris": {"android": "https://dc.lft.to/lastmile_qr_scan", "ios": "https://dc.lft.to/lastmile_qr_scan"}, "type": "electric_scooter", "lat": 38.90584333333334, "is_reserved": 0, "fusion_lat": 0.0}, {"bike_id": "5095543bfd316c910cc0c22ee3abdc52", "fusion_lon": 0.0, "lon": -77.03782716666667, "name": "5095543bfd316c910cc0c22ee3abdc52", "is_disabled": 0, "rental_uris": {"android": "https://dc.lft.to/lastmile_qr_scan", "ios": "https://dc.lft.to/lastmile_qr_scan"}, "type": "electric_scooter", "lat": 38.92504983333333, "is_reserved": 0, "fusion_lat": 0.0}, {"bike_id": "9403bdb711d35693f3c5930c26c5baf7", "fusion_lon": 0.0, "lon": -77.03485216666667, "name": "9403bdb711d35693f3c5930c26c5baf7", "is_disabled": 0, "rental_uris": {"android": "https://dc.lft.to/lastmile_qr_scan", "ios": "https://dc.lft.to/lastmile_qr_scan"}, "type": "electric_bike", "lat": 38.9353615, "is_reserved": 0, "fusion_lat": 0.0}, {"bike_id": "0188b8ba627a69305d99af58db31014b", "fusion_lon": 0.0, "lon": -76.99427866666667, "name": "0188b8ba627a69305d99af58db31014b", "is_disabled": 0, "rental_uris": {"android": "https://dc.lft.to/lastmile_qr_scan", "ios": "https://dc.lft.to/lastmile_qr_scan"}, "type": "electric_scooter", "lat": 38.903157, "is_reserved": 0, "fusion_lat": 0.0}, {"bike_id": "1a33c2ccfbf792ebf595584ddcf4a912", "fusion_lon": 0.0, "lon": -77.02977066666666, "name": "1a33c2ccfbf792ebf595584ddcf4a912", "is_disabled": 0, "rental_uris": {"android": "https://dc.lft.to/lastmile_qr_scan", "ios": "https://dc.lft.to/lastmile_qr_scan"}, "type": "electric_scooter", "lat": 38.884201833333336, "is_reserved": 0, "fusion_lat": 0.0}, {"bike_id": "fb20c605888f9058e4ebe6df07e8014e", "fusion_lon": 0.0, "lon": -77.03798933333333, "name": "fb20c605888f9058e4ebe6df07e8014e", "is_disabled": 0, "rental_uris": {"android": "https://dc.lft.to/lastmile_qr_scan", "ios": "https://dc.lft.to/lastmile_qr_scan"}, "type": "electric_scooter", "lat": 38.92500366666667, "is_reserved": 0, "fusion_lat": 0.0}, {"bike_id": "ebc5c1791e9494666c7e4e4139d4bf1f", "fusion_lon": 0.0, "lon": -77.03188066666667, "name": "ebc5c1791e9494666c7e4e4139d4bf1f", "is_disabled": 0, "rental_uris": {"android": "https://dc.lft.to/lastmile_qr_scan", "ios": "https://dc.lft.to/lastmile_qr_scan"}, "type": "electric_scooter", "lat": 38.91471683333333, "is_reserved": 0, "fusion_lat": 0.0}, {"bike_id": "7967115d97bd85d29aa0ff18651da99c", "fusion_lon": 0.0, "lon": -76.98825066666667, "name": "7967115d97bd85d29aa0ff18651da99c", "is_disabled": 0, "rental_uris": {"android": "https://dc.lft.to/lastmile_qr_scan", "ios": "https://dc.lft.to/lastmile_qr_scan"}, "type": "electric_scooter", "lat": 38.90029783333333, "is_reserved": 0, "fusion_lat": 0.0}, {"bike_id": "44bc0bf5c6c162e89e1cd90e7f31bb97", "fusion_lon": 0.0, "lon": -77.1009085, "name": "44bc0bf5c6c162e89e1cd90e7f31bb97", "is_disabled": 0, "rental_uris": {"android": "https://dc.lft.to/lastmile_qr_scan", "ios": "https://dc.lft.to/lastmile_qr_scan"}, "type": "electric_bike", "lat": 38.959518, "is_reserved": 0, "fusion_lat": 0.0}, {"bike_id": "9bc4c97bd19eb0a61135c29701e62357", "fusion_lon": 0.0, "lon": -77.01658733333333, "name": "9bc4c97bd19eb0a61135c29701e62357", "is_disabled": 0, "rental_uris": {"android": "https://dc.lft.to/lastmile_qr_scan", "ios": "https://dc.lft.to/lastmile_qr_scan"}, "type": "electric_scooter", "lat": 38.881163, "is_reserved": 0, "fusion_lat": 0.0}, {"bike_id": "c418c90c21370eb992b8cf42ef213412", "fusion_lon": 0.0, "lon": -77.02304, "name": "c418c90c21370eb992b8cf42ef213412", "is_disabled": 0, "rental_uris": {"android": "https://dc.lft.to/lastmile_qr_scan", "ios": "https://dc.lft.to/lastmile_qr_scan"}, "type": "electric_scooter", "lat": 38.92768066666667, "is_reserved": 0, "fusion_lat": 0.0}, {"bike_id": "8c583dbc3a7a72d32c603019ffd188c1", "fusion_lon": 0.0, "lon": -77.02717633333333, "name": "8c583dbc3a7a72d32c603019ffd188c1", "is_disabled": 0, "rental_uris": {"android": "https://dc.lft.to/lastmile_qr_scan", "ios": "https://dc.lft.to/lastmile_qr_scan"}, "type": "electric_scooter", "lat": 38.94093483333333, "is_reserved": 0, "fusion_lat": 0.0}, {"bike_id": "dde47bbb0e0f8f6872b5f9f84052358b", "fusion_lon": 0.0, "lon": -77.04901683333334, "name": "dde47bbb0e0f8f6872b5f9f84052358b", "is_disabled": 0, "rental_uris": {"android": "https://dc.lft.to/lastmile_qr_scan", "ios": "https://dc.lft.to/lastmile_qr_scan"}, "type": "electric_scooter", "lat": 38.900755, "is_reserved": 0, "fusion_lat": 0.0}, {"bike_id": "67fc317bcb819902bd9d84856745db83", "fusion_lon": 0.0, "lon": -77.03564, "name": "67fc317bcb819902bd9d84856745db83", "is_disabled": 0, "rental_uris": {"android": "https://dc.lft.to/lastmile_qr_scan", "ios": "https://dc.lft.to/lastmile_qr_scan"}, "type": "electric_scooter", "lat": 38.9279415, "is_reserved": 0, "fusion_lat": 0.0}, {"bike_id": "830682a22f9e0e2f8f772f671aab1023", "fusion_lon": 0.0, "lon": -77.00225716666667, "name": "830682a22f9e0e2f8f772f671aab1023", "is_disabled": 0, "rental_uris": {"android": "https://dc.lft.to/lastmile_qr_scan", "ios": "https://dc.lft.to/lastmile_qr_scan"}, "type": "electric_scooter", "lat": 38.907639, "is_reserved": 0, "fusion_lat": 0.0}, {"bike_id": "c27e67bd355ddd44a59cdc48eb5b2599", "fusion_lon": 0.0, "lon": -77.0354875, "name": "c27e67bd355ddd44a59cdc48eb5b2599", "is_disabled": 0, "rental_uris": {"android": "https://dc.lft.to/lastmile_qr_scan", "ios": "https://dc.lft.to/lastmile_qr_scan"}, "type": "electric_scooter", "lat": 38.92472933333333, "is_reserved": 0, "fusion_lat": 0.0}, {"bike_id": "24625dab9df14913330357c93978c3de", "fusion_lon": 0.0, "lon": -77.02429733333334, "name": "24625dab9df14913330357c93978c3de", "is_disabled": 0, "rental_uris": {"android": "https://dc.lft.to/lastmile_qr_scan", "ios": "https://dc.lft.to/lastmile_qr_scan"}, "type": "electric_bike", "lat": 38.9482745, "is_reserved": 0, "fusion_lat": 0.0}, {"bike_id": "b4643906e9af011c7191750ecc874fc1", "fusion_lon": 0.0, "lon": -77.03278566666667, "name": "b4643906e9af011c7191750ecc874fc1", "is_disabled": 0, "rental_uris": {"android": "https://dc.lft.to/lastmile_qr_scan", "ios": "https://dc.lft.to/lastmile_qr_scan"}, "type": "electric_scooter", "lat": 38.916179, "is_reserved": 0, "fusion_lat": 0.0}, {"bike_id": "d209d92848af0ea2a8a789a3b1ea9bd3", "fusion_lon": 0.0, "lon": -77.0269605, "name": "d209d92848af0ea2a8a789a3b1ea9bd3", "is_disabled": 0, "rental_uris": {"android": "https://dc.lft.to/lastmile_qr_scan", "ios": "https://dc.lft.to/lastmile_qr_scan"}, "type": "electric_scooter", "lat": 38.917960666666666, "is_reserved": 0, "fusion_lat": 0.0}, {"bike_id": "52a2cd24eea42201d4d4da551d2312dc", "fusion_lon": 0.0, "lon": -77.04328016666666, "name": "52a2cd24eea42201d4d4da551d2312dc", "is_disabled": 0, "rental_uris": {"android": "https://dc.lft.to/lastmile_qr_scan", "ios": "https://dc.lft.to/lastmile_qr_scan"}, "type": "electric_scooter", "lat": 38.89225233333333, "is_reserved": 0, "fusion_lat": 0.0}, {"bike_id": "0c27c045e49d70505c6f5295b31cf499", "fusion_lon": 0.0, "lon": -77.04694366666666, "name": "0c27c045e49d70505c6f5295b31cf499", "is_disabled": 0, "rental_uris": {"android": "https://dc.lft.to/lastmile_qr_scan", "ios": "https://dc.lft.to/lastmile_qr_scan"}, "type": "electric_scooter", "lat": 38.9096805, "is_reserved": 0, "fusion_lat": 0.0}, {"bike_id": "d6255e332db5c02e8a9c12810c4df12c", "fusion_lon": 0.0, "lon": -77.04159566666667, "name": "d6255e332db5c02e8a9c12810c4df12c", "is_disabled": 0, "rental_uris": {"android": "https://dc.lft.to/lastmile_qr_scan", "ios": "https://dc.lft.to/lastmile_qr_scan"}, "type": "electric_scooter", "lat": 38.9034165, "is_reserved": 0, "fusion_lat": 0.0}, {"bike_id": "79fccc74527f38fdeccd107bb97c0670", "fusion_lon": 0.0, "lon": -77.01879816666667, "name": "79fccc74527f38fdeccd107bb97c0670", "is_disabled": 0, "rental_uris": {"android": "https://dc.lft.to/lastmile_qr_scan", "ios": "https://dc.lft.to/lastmile_qr_scan"}, "type": "electric_scooter", "lat": 38.90433983333333, "is_reserved": 0, "fusion_lat": 0.0}, {"bike_id": "650a870b023b2078002de919f8630799", "fusion_lon": 0.0, "lon": -77.02686683333333, "name": "650a870b023b2078002de919f8630799", "is_disabled": 0, "rental_uris": {"android": "https://dc.lft.to/lastmile_qr_scan", "ios": "https://dc.lft.to/lastmile_qr_scan"}, "type": "electric_scooter", "lat": 38.912686666666666, "is_reserved": 0, "fusion_lat": 0.0}, {"bike_id": "4a849e54bead80c016d1cd00771fb47d", "fusion_lon": 0.0, "lon": -76.97156283333334, "name": "4a849e54bead80c016d1cd00771fb47d", "is_disabled": 0, "rental_uris": {"android": "https://dc.lft.to/lastmile_qr_scan", "ios": "https://dc.lft.to/lastmile_qr_scan"}, "type": "electric_bike", "lat": 38.9164905, "is_reserved": 0, "fusion_lat": 0.0}, {"bike_id": "1295d62f7a499ff2ed152619efdb655c", "fusion_lon": 0.0, "lon": -77.03221516666666, "name": "1295d62f7a499ff2ed152619efdb655c", "is_disabled": 0, "rental_uris": {"android": "https://dc.lft.to/lastmile_qr_scan", "ios": "https://dc.lft.to/lastmile_qr_scan"}, "type": "electric_scooter", "lat": 38.96162916666667, "is_reserved": 0, "fusion_lat": 0.0}, {"bike_id": "b9e6a26ccf9ce67e90514f7452362645", "fusion_lon": 0.0, "lon": -77.23321166666666, "name": "b9e6a26ccf9ce67e90514f7452362645", "is_disabled": 0, "rental_uris": {"android": "https://dc.lft.to/lastmile_qr_scan", "ios": "https://dc.lft.to/lastmile_qr_scan"}, "type": "electric_bike", "lat": 38.87286133333333, "is_reserved": 0, "fusion_lat": 0.0}, {"bike_id": "46412abc7e9c312403a919cf2877470a", "fusion_lon": 0.0, "lon": -77.02934883333333, "name": "46412abc7e9c312403a919cf2877470a", "is_disabled": 0, "rental_uris": {"android": "https://dc.lft.to/lastmile_qr_scan", "ios": "https://dc.lft.to/lastmile_qr_scan"}, "type": "electric_scooter", "lat": 38.907317666666664, "is_reserved": 0, "fusion_lat": 0.0}, {"bike_id": "267b341475a4bc3ecd7e6f267d072cd3", "fusion_lon": 0.0, "lon": -77.01766616666667, "name": "267b341475a4bc3ecd7e6f267d072cd3", "is_disabled": 0, "rental_uris": {"android": "https://dc.lft.to/lastmile_qr_scan", "ios": "https://dc.lft.to/lastmile_qr_scan"}, "type": "electric_bike", "lat": 38.878794666666664, "is_reserved": 0, "fusion_lat": 0.0}, {"bike_id": "2da22b7228bf90ca4296f8963d64d366", "fusion_lon": 0.0, "lon": -77.02719533333334, "name": "2da22b7228bf90ca4296f8963d64d366", "is_disabled": 0, "rental_uris": {"android": "https://dc.lft.to/lastmile_qr_scan", "ios": "https://dc.lft.to/lastmile_qr_scan"}, "type": "electric_scooter", "lat": 38.924819166666666, "is_reserved": 0, "fusion_lat": 0.0}, {"bike_id": "b9231d26c746c362611f5b3edc541575", "fusion_lon": 0.0, "lon": -77.075964, "name": "b9231d26c746c362611f5b3edc541575", "is_disabled": 0, "rental_uris": {"android": "https://dc.lft.to/lastmile_qr_scan", "ios": "https://dc.lft.to/lastmile_qr_scan"}, "type": "electric_scooter", "lat": 38.912168333333334, "is_reserved": 0, "fusion_lat": 0.0}, {"bike_id": "5bd03f6c04eb5616c7264c4d8a806be1", "fusion_lon": 0.0, "lon": -77.00350883333333, "name": "5bd03f6c04eb5616c7264c4d8a806be1", "is_disabled": 0, "rental_uris": {"android": "https://dc.lft.to/lastmile_qr_scan", "ios": "https://dc.lft.to/lastmile_qr_scan"}, "type": "electric_scooter", "lat": 38.90143716666667, "is_reserved": 0, "fusion_lat": 0.0}, {"bike_id": "ed62199e0b2b72fe6bf48da0793f922a", "fusion_lon": 0.0, "lon": -77.04329933333334, "name": "ed62199e0b2b72fe6bf48da0793f922a", "is_disabled": 0, "rental_uris": {"android": "https://dc.lft.to/lastmile_qr_scan", "ios": "https://dc.lft.to/lastmile_qr_scan"}, "type": "electric_scooter", "lat": 38.89228033333333, "is_reserved": 0, "fusion_lat": 0.0}, {"bike_id": "c92951c93b95b020901b6fc06e269334", "fusion_lon": 0.0, "lon": -77.02167033333333, "name": "c92951c93b95b020901b6fc06e269334", "is_disabled": 0, "rental_uris": {"android": "https://dc.lft.to/lastmile_qr_scan", "ios": "https://dc.lft.to/lastmile_qr_scan"}, "type": "electric_scooter", "lat": 38.88327666666667, "is_reserved": 0, "fusion_lat": 0.0}, {"bike_id": "ed289c18627a9fb87668c7fa5c5240ca", "fusion_lon": 0.0, "lon": -76.93751516666667, "name": "ed289c18627a9fb87668c7fa5c5240ca", "is_disabled": 0, "rental_uris": {"android": "https://dc.lft.to/lastmile_qr_scan", "ios": "https://dc.lft.to/lastmile_qr_scan"}, "type": "electric_scooter", "lat": 38.89051083333333, "is_reserved": 0, "fusion_lat": 0.0}, {"bike_id": "a27dc2acaa28ff4eaf339cf6d223b2ad", "fusion_lon": 0.0, "lon": -77.244442, "name": "a27dc2acaa28ff4eaf339cf6d223b2ad", "is_disabled": 0, "rental_uris": {"android": "https://dc.lft.to/lastmile_qr_scan", "ios": "https://dc.lft.to/lastmile_qr_scan"}, "type": "electric_bike", "lat": 38.881946, "is_reserved": 0, "fusion_lat": 0.0}, {"bike_id": "53f40b076ebb9ee5afcb5f0a032b933d", "fusion_lon": 0.0, "lon": -76.99086, "name": "53f40b076ebb9ee5afcb5f0a032b933d", "is_disabled": 0, "rental_uris": {"android": "https://dc.lft.to/lastmile_qr_scan", "ios": "https://dc.lft.to/lastmile_qr_scan"}, "type": "electric_scooter", "lat": 38.8823755, "is_reserved": 0, "fusion_lat": 0.0}, {"bike_id": "ecce884328c1ac013f805c436343dbbe", "fusion_lon": 0.0, "lon": -77.02826266666666, "name": "ecce884328c1ac013f805c436343dbbe", "is_disabled": 0, "rental_uris": {"android": "https://dc.lft.to/lastmile_qr_scan", "ios": "https://dc.lft.to/lastmile_qr_scan"}, "type": "electric_scooter", "lat": 38.932269833333336, "is_reserved": 0, "fusion_lat": 0.0}, {"bike_id": "6777fd5fb62a0bb52c29ee09306779ee", "fusion_lon": 0.0, "lon": -77.05105766666667, "name": "6777fd5fb62a0bb52c29ee09306779ee", "is_disabled": 0, "rental_uris": {"android": "https://dc.lft.to/lastmile_qr_scan", "ios": "https://dc.lft.to/lastmile_qr_scan"}, "type": "electric_scooter", "lat": 38.90540566666667, "is_reserved": 0, "fusion_lat": 0.0}, {"bike_id": "b1a1dcef6784184bb13b07a3647d67dd", "fusion_lon": 0.0, "lon": -77.05583483333334, "name": "b1a1dcef6784184bb13b07a3647d67dd", "is_disabled": 0, "rental_uris": {"android": "https://dc.lft.to/lastmile_qr_scan", "ios": "https://dc.lft.to/lastmile_qr_scan"}, "type": "electric_scooter", "lat": 38.89326716666667, "is_reserved": 0, "fusion_lat": 0.0}, {"bike_id": "f1a0b915f5adb49adaa9b53db40ec1ac", "fusion_lon": 0.0, "lon": -76.98027433333333, "name": "f1a0b915f5adb49adaa9b53db40ec1ac", "is_disabled": 0, "rental_uris": {"android": "https://dc.lft.to/lastmile_qr_scan", "ios": "https://dc.lft.to/lastmile_qr_scan"}, "type": "electric_scooter", "lat": 38.90381266666667, "is_reserved": 0, "fusion_lat": 0.0}, {"bike_id": "7c5e71e098ac59311f626787b1aa9005", "fusion_lon": 0.0, "lon": -77.0467015, "name": "7c5e71e098ac59311f626787b1aa9005", "is_disabled": 0, "rental_uris": {"android": "https://dc.lft.to/lastmile_qr_scan", "ios": "https://dc.lft.to/lastmile_qr_scan"}, "type": "electric_scooter", "lat": 38.90546283333333, "is_reserved": 0, "fusion_lat": 0.0}, {"bike_id": "0893a8ea4553f0977c3dfc3cf1065182", "fusion_lon": 0.0, "lon": -76.99608866666667, "name": "0893a8ea4553f0977c3dfc3cf1065182", "is_disabled": 0, "rental_uris": {"android": "https://dc.lft.to/lastmile_qr_scan", "ios": "https://dc.lft.to/lastmile_qr_scan"}, "type": "electric_scooter", "lat": 38.9006625, "is_reserved": 0, "fusion_lat": 0.0}, {"bike_id": "2b07f4047d3e862d45aff48fc140c73f", "fusion_lon": 0.0, "lon": -77.0416115, "name": "2b07f4047d3e862d45aff48fc140c73f", "is_disabled": 0, "rental_uris": {"android": "https://dc.lft.to/lastmile_qr_scan", "ios": "https://dc.lft.to/lastmile_qr_scan"}, "type": "electric_scooter", "lat": 38.91594466666667, "is_reserved": 0, "fusion_lat": 0.0}, {"bike_id": "37c354cb194ba361f4329648a8de0eeb", "fusion_lon": 0.0, "lon": -76.99872766666667, "name": "37c354cb194ba361f4329648a8de0eeb", "is_disabled": 0, "rental_uris": {"android": "https://dc.lft.to/lastmile_qr_scan", "ios": "https://dc.lft.to/lastmile_qr_scan"}, "type": "electric_scooter", "lat": 38.90026533333333, "is_reserved": 0, "fusion_lat": 0.0}, {"bike_id": "d5ab198aa26301e895d31cc11b918096", "fusion_lon": 0.0, "lon": -77.02808, "name": "d5ab198aa26301e895d31cc11b918096", "is_disabled": 0, "rental_uris": {"android": "https://dc.lft.to/lastmile_qr_scan", "ios": "https://dc.lft.to/lastmile_qr_scan"}, "type": "electric_scooter", "lat": 38.93082866666666, "is_reserved": 0, "fusion_lat": 0.0}, {"bike_id": "74c1360996a88f20288c7ed7dd6d8c9f", "fusion_lon": 0.0, "lon": -77.05209583333334, "name": "74c1360996a88f20288c7ed7dd6d8c9f", "is_disabled": 0, "rental_uris": {"android": "https://dc.lft.to/lastmile_qr_scan", "ios": "https://dc.lft.to/lastmile_qr_scan"}, "type": "electric_scooter", "lat": 38.924372, "is_reserved": 0, "fusion_lat": 0.0}, {"bike_id": "ff8666ba84394762d2ada64eb0a36ed3", "fusion_lon": 0.0, "lon": -77.00375383333333, "name": "ff8666ba84394762d2ada64eb0a36ed3", "is_disabled": 0, "rental_uris": {"android": "https://dc.lft.to/lastmile_qr_scan", "ios": "https://dc.lft.to/lastmile_qr_scan"}, "type": "electric_scooter", "lat": 38.875659166666665, "is_reserved": 0, "fusion_lat": 0.0}, {"bike_id": "913367e7ad526b32752ac290af1da3a4", "fusion_lon": 0.0, "lon": -77.04621833333333, "name": "913367e7ad526b32752ac290af1da3a4", "is_disabled": 0, "rental_uris": {"android": "https://dc.lft.to/lastmile_qr_scan", "ios": "https://dc.lft.to/lastmile_qr_scan"}, "type": "electric_scooter", "lat": 38.909567333333335, "is_reserved": 0, "fusion_lat": 0.0}, {"bike_id": "171a9d207f4ec024c07a078043957cfa", "fusion_lon": 0.0, "lon": -77.04863383333333, "name": "171a9d207f4ec024c07a078043957cfa", "is_disabled": 0, "rental_uris": {"android": "https://dc.lft.to/lastmile_qr_scan", "ios": "https://dc.lft.to/lastmile_qr_scan"}, "type": "electric_scooter", "lat": 38.915219666666665, "is_reserved": 0, "fusion_lat": 0.0}, {"bike_id": "e19868204917501f1340261df11402d5", "fusion_lon": 0.0, "lon": -76.98065683333333, "name": "e19868204917501f1340261df11402d5", "is_disabled": 0, "rental_uris": {"android": "https://dc.lft.to/lastmile_qr_scan", "ios": "https://dc.lft.to/lastmile_qr_scan"}, "type": "electric_scooter", "lat": 38.90166583333333, "is_reserved": 0, "fusion_lat": 0.0}, {"bike_id": "50e5c556712eb38ec079413a50eca024", "fusion_lon": 0.0, "lon": -77.00093433333333, "name": "50e5c556712eb38ec079413a50eca024", "is_disabled": 0, "rental_uris": {"android": "https://dc.lft.to/lastmile_qr_scan", "ios": "https://dc.lft.to/lastmile_qr_scan"}, "type": "electric_scooter", "lat": 38.87662366666667, "is_reserved": 0, "fusion_lat": 0.0}, {"bike_id": "c205c4d4d225a52aad1c9b149663c764", "fusion_lon": 0.0, "lon": -77.02130766666667, "name": "c205c4d4d225a52aad1c9b149663c764", "is_disabled": 0, "rental_uris": {"android": "https://dc.lft.to/lastmile_qr_scan", "ios": "https://dc.lft.to/lastmile_qr_scan"}, "type": "electric_scooter", "lat": 38.88753416666667, "is_reserved": 0, "fusion_lat": 0.0}, {"bike_id": "78c69a705bb1c187cfd788b2ecefbb6a", "fusion_lon": 0.0, "lon": -77.04478616666667, "name": "78c69a705bb1c187cfd788b2ecefbb6a", "is_disabled": 0, "rental_uris": {"android": "https://dc.lft.to/lastmile_qr_scan", "ios": "https://dc.lft.to/lastmile_qr_scan"}, "type": "electric_scooter", "lat": 38.91166333333334, "is_reserved": 0, "fusion_lat": 0.0}, {"bike_id": "ff5932346ab27d296b35237cea3b436e", "fusion_lon": 0.0, "lon": -77.00263266666667, "name": "ff5932346ab27d296b35237cea3b436e", "is_disabled": 0, "rental_uris": {"android": "https://dc.lft.to/lastmile_qr_scan", "ios": "https://dc.lft.to/lastmile_qr_scan"}, "type": "electric_scooter", "lat": 38.905831666666664, "is_reserved": 0, "fusion_lat": 0.0}, {"bike_id": "1fac60833e9c67880ca03febc1c590a0", "fusion_lon": 0.0, "lon": -77.04585583333333, "name": "1fac60833e9c67880ca03febc1c590a0", "is_disabled": 0, "rental_uris": {"android": "https://dc.lft.to/lastmile_qr_scan", "ios": "https://dc.lft.to/lastmile_qr_scan"}, "type": "electric_scooter", "lat": 38.918561, "is_reserved": 0, "fusion_lat": 0.0}, {"bike_id": "5718df282bea9aa4576be372372bc6f7", "fusion_lon": 0.0, "lon": -76.99775433333333, "name": "5718df282bea9aa4576be372372bc6f7", "is_disabled": 0, "rental_uris": {"android": "https://dc.lft.to/lastmile_qr_scan", "ios": "https://dc.lft.to/lastmile_qr_scan"}, "type": "electric_scooter", "lat": 38.84427216666667, "is_reserved": 0, "fusion_lat": 0.0}, {"bike_id": "13c51cd187d9fcc29ac470076a3a5141", "fusion_lon": 0.0, "lon": -76.95753500000001, "name": "13c51cd187d9fcc29ac470076a3a5141", "is_disabled": 0, "rental_uris": {"android": "https://dc.lft.to/lastmile_qr_scan", "ios": "https://dc.lft.to/lastmile_qr_scan"}, "type": "electric_scooter", "lat": 38.88428566666666, "is_reserved": 0, "fusion_lat": 0.0}, {"bike_id": "a4800e653bbfdc0f8ce087d271d18672", "fusion_lon": 0.0, "lon": -77.10600766666667, "name": "a4800e653bbfdc0f8ce087d271d18672", "is_disabled": 0, "rental_uris": {"android": "https://dc.lft.to/lastmile_qr_scan", "ios": "https://dc.lft.to/lastmile_qr_scan"}, "type": "electric_bike", "lat": 38.92900933333333, "is_reserved": 0, "fusion_lat": 0.0}, {"bike_id": "5686ccc2a132a63d8bb9c2b1efe7e695", "fusion_lon": 0.0, "lon": -77.03473866666667, "name": "5686ccc2a132a63d8bb9c2b1efe7e695", "is_disabled": 0, "rental_uris": {"android": "https://dc.lft.to/lastmile_qr_scan", "ios": "https://dc.lft.to/lastmile_qr_scan"}, "type": "electric_scooter", "lat": 38.9055365, "is_reserved": 0, "fusion_lat": 0.0}, {"bike_id": "e8d5fc2768159268dbf316d07ad9c237", "fusion_lon": 0.0, "lon": -77.01584416666667, "name": "e8d5fc2768159268dbf316d07ad9c237", "is_disabled": 0, "rental_uris": {"android": "https://dc.lft.to/lastmile_qr_scan", "ios": "https://dc.lft.to/lastmile_qr_scan"}, "type": "electric_scooter", "lat": 38.91680233333334, "is_reserved": 0, "fusion_lat": 0.0}, {"bike_id": "6f8e189559d3c47cb66823cfc616cbb4", "fusion_lon": 0.0, "lon": -76.94965633333334, "name": "6f8e189559d3c47cb66823cfc616cbb4", "is_disabled": 0, "rental_uris": {"android": "https://dc.lft.to/lastmile_qr_scan", "ios": "https://dc.lft.to/lastmile_qr_scan"}, "type": "electric_scooter", "lat": 38.893597666666665, "is_reserved": 0, "fusion_lat": 0.0}, {"bike_id": "72a6ee771ea90db31ddfe7c019ab991e", "fusion_lon": 0.0, "lon": -77.01288416666667, "name": "72a6ee771ea90db31ddfe7c019ab991e", "is_disabled": 0, "rental_uris": {"android": "https://dc.lft.to/lastmile_qr_scan", "ios": "https://dc.lft.to/lastmile_qr_scan"}, "type": "electric_scooter", "lat": 38.881507, "is_reserved": 0, "fusion_lat": 0.0}, {"bike_id": "69359b7afd07e4643df218095e5e4a00", "fusion_lon": 0.0, "lon": -77.0204495, "name": "69359b7afd07e4643df218095e5e4a00", "is_disabled": 0, "rental_uris": {"android": "https://dc.lft.to/lastmile_qr_scan", "ios": "https://dc.lft.to/lastmile_qr_scan"}, "type": "electric_scooter", "lat": 38.91559066666667, "is_reserved": 0, "fusion_lat": 0.0}, {"bike_id": "b1fab6151cd751e59f8d3cee5f349955", "fusion_lon": 0.0, "lon": -77.03772133333334, "name": "b1fab6151cd751e59f8d3cee5f349955", "is_disabled": 0, "rental_uris": {"android": "https://dc.lft.to/lastmile_qr_scan", "ios": "https://dc.lft.to/lastmile_qr_scan"}, "type": "electric_scooter", "lat": 38.906991, "is_reserved": 0, "fusion_lat": 0.0}, {"bike_id": "726557997b1d32ca5528abbac7cbb8b4", "fusion_lon": 0.0, "lon": -77.04363666666667, "name": "726557997b1d32ca5528abbac7cbb8b4", "is_disabled": 0, "rental_uris": {"android": "https://dc.lft.to/lastmile_qr_scan", "ios": "https://dc.lft.to/lastmile_qr_scan"}, "type": "electric_scooter", "lat": 38.892219, "is_reserved": 0, "fusion_lat": 0.0}, {"bike_id": "76cdca6b97a7f7d9cecdbf06ae6c1857", "fusion_lon": 0.0, "lon": -77.04874633333333, "name": "76cdca6b97a7f7d9cecdbf06ae6c1857", "is_disabled": 0, "rental_uris": {"android": "https://dc.lft.to/lastmile_qr_scan", "ios": "https://dc.lft.to/lastmile_qr_scan"}, "type": "electric_scooter", "lat": 38.9097285, "is_reserved": 0, "fusion_lat": 0.0}, {"bike_id": "d5a81d1d530953ee2bb55430797022d6", "fusion_lon": 0.0, "lon": -77.02416116666667, "name": "d5a81d1d530953ee2bb55430797022d6", "is_disabled": 0, "rental_uris": {"android": "https://dc.lft.to/lastmile_qr_scan", "ios": "https://dc.lft.to/lastmile_qr_scan"}, "type": "electric_scooter", "lat": 38.916899, "is_reserved": 0, "fusion_lat": 0.0}, {"bike_id": "1fa6d89f4054669f49aad8e237df41ba", "fusion_lon": 0.0, "lon": -77.0079725, "name": "1fa6d89f4054669f49aad8e237df41ba", "is_disabled": 0, "rental_uris": {"android": "https://dc.lft.to/lastmile_qr_scan", "ios": "https://dc.lft.to/lastmile_qr_scan"}, "type": "electric_bike", "lat": 38.9492135, "is_reserved": 0, "fusion_lat": 0.0}, {"bike_id": "aa0ee52a5ca7155d774b459c4d770ef9", "fusion_lon": 0.0, "lon": -77.05858433333333, "name": "aa0ee52a5ca7155d774b459c4d770ef9", "is_disabled": 0, "rental_uris": {"android": "https://dc.lft.to/lastmile_qr_scan", "ios": "https://dc.lft.to/lastmile_qr_scan"}, "type": "electric_scooter", "lat": 38.936092333333335, "is_reserved": 0, "fusion_lat": 0.0}, {"bike_id": "6defd90dbb64beec855290d874dcdfa4", "fusion_lon": 0.0, "lon": -77.02964066666667, "name": "6defd90dbb64beec855290d874dcdfa4", "is_disabled": 0, "rental_uris": {"android": "https://dc.lft.to/lastmile_qr_scan", "ios": "https://dc.lft.to/lastmile_qr_scan"}, "type": "electric_scooter", "lat": 38.923256333333335, "is_reserved": 0, "fusion_lat": 0.0},