{"data": {"bikes": [{"lon": -77.0318145, "bike_id": "dfd09c54f64bd219e9f6aa9f56681ed8", "lat": 38.90517633333333, "fusion_lon": 0.0, "fusion_lat": 0.0, "type": "electric_scooter", "name": "dfd09c54f64bd219e9f6aa9f56681ed8", "is_disabled": 0, "rental_uris": {"ios": "https://dc.lft.to/lastmile_qr_scan", "android": "https://dc.lft.to/lastmile_qr_scan"}, "is_reserved": 0}, {"lon": -76.97620466666666, "bike_id": "1f80bc5d439388b4b1b41b063a962344", "lat": 38.9265335, "fusion_lon": 0.0, "fusion_lat": 0.0, "type": "electric_scooter", "name": "1f80bc5d439388b4b1b41b063a962344", "is_disabled": 0, "rental_uris": {"ios": "https://dc.lft.to/lastmile_qr_scan", "android": "https://dc.lft.to/lastmile_qr_scan"}, "is_reserved": 0}, {"lon": -77.01869866666667, "bike_id": "acfd50d595094b6529ce07f88cb43054", "lat": 38.951550166666664, "fusion_lon": 0.0, "fusion_lat": 0.0, "type": "electric_scooter", "name": "acfd50d595094b6529ce07f88cb43054", "is_disabled": 0, "rental_uris": {"ios": "https://dc.lft.to/lastmile_qr_scan", "android": "https://dc.lft.to/lastmile_qr_scan"}, "is_reserved": 0}, {"lon": -77.04196983333334, "bike_id": "7937bf63cd8a62f77c72a8aa06a6c792", "lat": 38.92628583333333, "fusion_lon": 0.0, "fusion_lat": 0.0, "type": "electric_scooter", "name": "7937bf63cd8a62f77c72a8aa06a6c792", "is_disabled": 0, "rental_uris": {"ios": "https://dc.lft.to/lastmile_qr_scan", "android": "https://dc.lft.to/lastmile_qr_scan"}, "is_reserved": 0}, {"lon": -76.99104033333333, "bike_id": "119999972adcc8185389b34455b1517b", "lat": 38.90321083333333, "fusion_lon": 0.0, "fusion_lat": 0.0, "type": "electric_scooter", "name": "119999972adcc8185389b34455b1517b", "is_disabled": 0, "rental_uris": {"ios": "https://dc.lft.to/lastmile_qr_scan", "android": "https://dc.lft.to/lastmile_qr_scan"}, "is_reserved": 0}, {"lon": -77.0881005, "bike_id": "7aab79f4d88dd20a0e649c25cf5853c5", "lat": 38.9117565, "fusion_lon": 0.0, "fusion_lat": 0.0, "type": "electric_bike", "name": "7aab79f4d88dd20a0e649c25cf5853c5", "is_disabled": 0, "rental_uris": {"ios": "https://dc.lft.to/lastmile_qr_scan", "android": "https://dc.lft.to/lastmile_qr_scan"}, "is_reserved": 0}, {"lon": -77.03921233333334, "bike_id": "6836eec1939276602b2984286bdb2bc3", "lat": 38.92802416666667, "fusion_lon": 0.0, "fusion_lat": 0.0, "type": "electric_scooter", "name": "6836eec1939276602b2984286bdb2bc3", "is_disabled": 0, "rental_uris": {"ios": "https://dc.lft.to/lastmile_qr_scan", "android": "https://dc.lft.to/lastmile_qr_scan"}, "is_reserved": 0}, {"lon": -77.00690516666667, "bike_id": "d9838d9082884f9caa3b8e3550249fd3", "lat": 38.90014216666667, "fusion_lon": 0.0, "fusion_lat": 0.0, "type": "electric_scooter", "name": "d9838d9082884f9caa3b8e3550249fd3", "is_disabled": 0, "rental_uris": {"ios": "https://dc.lft.to/lastmile_qr_scan", "android": "https://dc.lft.to/lastmile_qr_scan"}, "is_reserved": 0}, {"lon": -77.036349, "bike_id": "97445df9760af360bb870ada61e09cc4", "lat": 38.92461866666667, "fusion_lon": 0.0, "fusion_lat": 0.0, "type": "electric_scooter", "name": "97445df9760af360bb870ada61e09cc4", "is_disabled": 0, "rental_uris": {"ios": "https://dc.lft.to/lastmile_qr_scan", "android": "https://dc.lft.to/lastmile_qr_scan"}, "is_reserved": 0}, {"lon": -76.9523625, "bike_id": "0a22f6518177f727e6d1c7f3eaaa314a", "lat": 38.891026333333336, "fusion_lon": 0.0, "fusion_lat": 0.0, "type": "electric_scooter", "name": "0a22f6518177f727e6d1c7f3eaaa314a", "is_disabled": 0, "rental_uris": {"ios": "https://dc.lft.to/lastmile_qr_scan", "android": "https://dc.lft.to/lastmile_qr_scan"}, "is_reserved": 0}, {"lon": -77.05976316666667, "bike_id": "f5249b5438825974735dceebf5acca21", "lat": 38.8070905, "fusion_lon": 0.0, "fusion_lat": 0.0, "type": "electric_bike", "name": "f5249b5438825974735dceebf5acca21", "is_disabled": 0, "rental_uris": {"ios": "https://dc.lft.to/lastmile_qr_scan", "android": "https://dc.lft.to/lastmile_qr_scan"}, "is_reserved": 0}, {"lon": -77.01024283333334, "bike_id": "2ba2d5053e71a578cfa6f8c5fd510233", "lat": 38.90852566666667, "fusion_lon": 0.0, "fusion_lat": 0.0, "type": "electric_scooter", "name": "2ba2d5053e71a578cfa6f8c5fd510233", "is_disabled": 0, "rental_uris": {"ios": "https://dc.lft.to/lastmile_qr_scan", "android": "https://dc.lft.to/lastmile_qr_scan"}, "is_reserved": 0}, {"lon": -77.02091816666666, "bike_id": "91bc265ef6b58438699bbe6828d9d150", "lat": 38.9291585, "fusion_lon": 0.0, "fusion_lat": 0.0, "type": "electric_scooter", "name": "91bc265ef6b58438699bbe6828d9d150", "is_disabled": 0, "rental_uris": {"ios": "https://dc.lft.to/lastmile_qr_scan", "android": "https://dc.lft.to/lastmile_qr_scan"}, "is_reserved": 0}, {"lon": -77.00745683333334, "bike_id": "a4b633906b8da77ea4567ccabe507c3f", "lat": 38.925313333333335, "fusion_lon": 0.0, "fusion_lat": 0.0, "type": "electric_scooter", "name": "a4b633906b8da77ea4567ccabe507c3f", "is_disabled": 0, "rental_uris": {"ios": "https://dc.lft.to/lastmile_qr_scan", "android": "https://dc.lft.to/lastmile_qr_scan"}, "is_reserved": 0}, {"lon": -77.0279755, "bike_id": "1d825fbf4b51bda685a7d2b4ab5d1154", "lat": 38.95422283333333, "fusion_lon": 0.0, "fusion_lat": 0.0, "type": "electric_scooter", "name": "1d825fbf4b51bda685a7d2b4ab5d1154", "is_disabled": 0, "rental_uris": {"ios": "https://dc.lft.to/lastmile_qr_scan", "android": "https://dc.lft.to/lastmile_qr_scan"}, "is_reserved": 0}, {"lon": -77.04604933333333, "bike_id": "6a07d127dadbc9efec9beb932e876dc4", "lat": 38.883853, "fusion_lon": 0.0, "fusion_lat": 0.0, "type": "electric_scooter", "name": "6a07d127dadbc9efec9beb932e876dc4", "is_disabled": 0, "rental_uris": {"ios": "https://dc.lft.to/lastmile_qr_scan", "android": "https://dc.lft.to/lastmile_qr_scan"}, "is_reserved": 0}, {"lon": -77.022657, "bike_id": "857d62615b8fc4f86f29fbf3e457f292", "lat": 38.92829616666667, "fusion_lon": 0.0, "fusion_lat": 0.0, "type": "electric_scooter", "name": "857d62615b8fc4f86f29fbf3e457f292", "is_disabled": 0, "rental_uris": {"ios": "https://dc.lft.to/lastmile_qr_scan", "android": "https://dc.lft.to/lastmile_qr_scan"}, "is_reserved": 0}, {"lon": -77.03708416666667, "bike_id": "0386fe6629641d2da174cd5d1fc69da4", "lat": 38.912699333333336, "fusion_lon": 0.0, "fusion_lat": 0.0, "type": "electric_scooter", "name": "0386fe6629641d2da174cd5d1fc69da4", "is_disabled": 0, "rental_uris": {"ios": "https://dc.lft.to/lastmile_qr_scan", "android": "https://dc.lft.to/lastmile_qr_scan"}, "is_reserved": 0}, {"lon": -77.05734733333334, "bike_id": "5cc1114ec85c94cc9ede33a9c2906a4e", "lat": 38.92429283333333, "fusion_lon": 0.0, "fusion_lat": 0.0, "type": "electric_scooter", "name": "5cc1114ec85c94cc9ede33a9c2906a4e", "is_disabled": 0, "rental_uris": {"ios": "https://dc.lft.to/lastmile_qr_scan", "android": "https://dc.lft.to/lastmile_qr_scan"}, "is_reserved": 0}, {"lon": -76.96375533333334, "bike_id": "c18815b5dc3d10ad55cb7a2206fe8b74", "lat": 38.9518375, "fusion_lon": 0.0, "fusion_lat": 0.0, "type": "electric_bike", "name": "c18815b5dc3d10ad55cb7a2206fe8b74", "is_disabled": 0, "rental_uris": {"ios": "https://dc.lft.to/lastmile_qr_scan", "android": "https://dc.lft.to/lastmile_qr_scan"}, "is_reserved": 0}, {"lon": -77.02222616666667, "bike_id": "a27b0e6f731165e6c5822b75f25e9e8e", "lat": 38.90841316666667, "fusion_lon": 0.0, "fusion_lat": 0.0, "type": "electric_scooter", "name": "a27b0e6f731165e6c5822b75f25e9e8e", "is_disabled": 0, "rental_uris": {"ios": "https://dc.lft.to/lastmile_qr_scan", "android": "https://dc.lft.to/lastmile_qr_scan"}, "is_reserved": 0}, {"lon": -77.03119966666667, "bike_id": "627f5ab791b4b909e325a3f0c0015a4a", "lat": 38.988373, "fusion_lon": 0.0, "fusion_lat": 0.0, "type": "electric_scooter", "name": "627f5ab791b4b909e325a3f0c0015a4a", "is_disabled": 0, "rental_uris": {"ios": "https://dc.lft.to/lastmile_qr_scan", "android": "https://dc.lft.to/lastmile_qr_scan"}, "is_reserved": 0}, {"lon": -77.03330683333333, "bike_id": "9db5df3a9a3fbe7c9c23254ce0b8a0b8", "lat": 38.960497, "fusion_lon": 0.0, "fusion_lat": 0.0, "type": "electric_scooter", "name": "9db5df3a9a3fbe7c9c23254ce0b8a0b8", "is_disabled": 0, "rental_uris": {"ios": "https://dc.lft.to/lastmile_qr_scan", "android": "https://dc.lft.to/lastmile_qr_scan"}, "is_reserved": 0}, {"lon": -77.2279855, "bike_id": "55e798807aa1d8b95c6e356df018263a", "lat": 38.910174166666664, "fusion_lon": 0.0, "fusion_lat": 0.0, "type": "electric_bike", "name": "55e798807aa1d8b95c6e356df018263a", "is_disabled": 0, "rental_uris": {"ios": "https://dc.lft.to/lastmile_qr_scan", "android": "https://dc.lft.to/lastmile_qr_scan"}, "is_reserved": 0}, {"lon": -77.01982316666667, "bike_id": "56f717892aedf097cbd837c50d0b4942", "lat": 38.91098516666667, "fusion_lon": 0.0, "fusion_lat": 0.0, "type": "electric_scooter", "name": "56f717892aedf097cbd837c50d0b4942", "is_disabled": 0, "rental_uris": {"ios": "https://dc.lft.to/lastmile_qr_scan", "android": "https://dc.lft.to/lastmile_qr_scan"}, "is_reserved": 0}, {"lon": -77.00082066666667, "bike_id": "845f3b2d6a0747d2d3dcc58bb6d51222", "lat": 38.908385333333335, "fusion_lon": 0.0, "fusion_lat": 0.0, "type": "electric_scooter", "name": "845f3b2d6a0747d2d3dcc58bb6d51222", "is_disabled": 0, "rental_uris": {"ios": "https://dc.lft.to/lastmile_qr_scan", "android": "https://dc.lft.to/lastmile_qr_scan"}, "is_reserved": 0}, {"lon": -77.03849983333333, "bike_id": "3519e2022cf2b690766620d11b865aac", "lat": 38.91804883333333, "fusion_lon": 0.0, "fusion_lat": 0.0, "type": "electric_scooter", "name": "3519e2022cf2b690766620d11b865aac", "is_disabled": 0, "rental_uris": {"ios": "https://dc.lft.to/lastmile_qr_scan", "android": "https://dc.lft.to/lastmile_qr_scan"}, "is_reserved": 0}, {"lon": -77.00693033333333, "bike_id": "2832c0c34833cfe49d7a5a0bf19ffb7b", "lat": 38.905415166666664, "fusion_lon": 0.0, "fusion_lat": 0.0, "type": "electric_scooter", "name": "2832c0c34833cfe49d7a5a0bf19ffb7b", "is_disabled": 0, "rental_uris": {"ios": "https://dc.lft.to/lastmile_qr_scan", "android": "https://dc.lft.to/lastmile_qr_scan"}, "is_reserved": 0}, {"lon": -77.043303, "bike_id": "1d0a4bcca714396b6e133ef5b6e867b1", "lat": 38.907239, "fusion_lon": 0.0, "fusion_lat": 0.0, "type": "electric_scooter", "name": "1d0a4bcca714396b6e133ef5b6e867b1", "is_disabled": 0, "rental_uris": {"ios": "https://dc.lft.to/lastmile_qr_scan", "android": "https://dc.lft.to/lastmile_qr_scan"}, "is_reserved": 0}, {"lon": -77.00575416666666, "bike_id": "e8c34f15c9416123111c63d5b9b04d94", "lat": 38.835911, "fusion_lon": 0.0, "fusion_lat": 0.0, "type": "electric_scooter", "name": "e8c34f15c9416123111c63d5b9b04d94", "is_disabled": 0, "rental_uris": {"ios": "https://dc.lft.to/lastmile_qr_scan", "android": "https://dc.lft.to/lastmile_qr_scan"}, "is_reserved": 0}, {"lon": -77.01305933333333, "bike_id": "8639211e054c8f25d85a20c694b1620d", "lat": 38.943269666666666, "fusion_lon": 0.0, "fusion_lat": 0.0, "type": "electric_scooter", "name": "8639211e054c8f25d85a20c694b1620d", "is_disabled": 0, "rental_uris": {"ios": "https://dc.lft.to/lastmile_qr_scan", "android": "https://dc.lft.to/lastmile_qr_scan"}, "is_reserved": 0}, {"lon": -77.032083, "bike_id": "5e2f46d6d6c150cab30a282f11d813d8", "lat": 38.91932383333334, "fusion_lon": 0.0, "fusion_lat": 0.0, "type": "electric_scooter", "name": "5e2f46d6d6c150cab30a282f11d813d8", "is_disabled": 0, "rental_uris": {"ios": "https://dc.lft.to/lastmile_qr_scan", "android": "https://dc.lft.to/lastmile_qr_scan"}, "is_reserved": 0}, {"lon": -77.0487635, "bike_id": "f74fe9909e8b8b67c1e1cf35ed10ccd6", "lat": 38.892296, "fusion_lon": 0.0, "fusion_lat": 0.0, "type": "electric_scooter", "name": "f74fe9909e8b8b67c1e1cf35ed10ccd6", "is_disabled": 0, "rental_uris": {"ios": "https://dc.lft.to/lastmile_qr_scan", "android": "https://dc.lft.to/lastmile_qr_scan"}, "is_reserved": 0}, {"lon": -76.99380483333333, "bike_id": "cee157afef5989957a7fb27ba1dcae06", "lat": 38.971925166666665, "fusion_lon": 0.0, "fusion_lat": 0.0, "type": "electric_bike", "name": "cee157afef5989957a7fb27ba1dcae06", "is_disabled": 0, "rental_uris": {"ios": "https://dc.lft.to/lastmile_qr_scan", "android": "https://dc.lft.to/lastmile_qr_scan"}, "is_reserved": 0}, {"lon": -76.980997, "bike_id": "25d9b98425255a748ad46136d75d7011", "lat": 38.905295, "fusion_lon": 0.0, "fusion_lat": 0.0, "type": "electric_scooter", "name": "25d9b98425255a748ad46136d75d7011", "is_disabled": 0, "rental_uris": {"ios": "https://dc.lft.to/lastmile_qr_scan", "android": "https://dc.lft.to/lastmile_qr_scan"}, "is_reserved": 0}, {"lon": -77.07007166666666, "bike_id": "061e9a00edcbb66723b427bc09f86fd2", "lat": 38.958547, "fusion_lon": 0.0, "fusion_lat": 0.0, "type": "electric_scooter", "name": "061e9a00edcbb66723b427bc09f86fd2", "is_disabled": 0, "rental_uris": {"ios": "https://dc.lft.to/lastmile_qr_scan", "android": "https://dc.lft.to/lastmile_qr_scan"}, "is_reserved": 0}, {"lon": -77.03666083333333, "bike_id": "c13bec86f4615db8c799291bedc4ea72", "lat": 38.923321, "fusion_lon": 0.0, "fusion_lat": 0.0, "type": "electric_scooter", "name": "c13bec86f4615db8c799291bedc4ea72", "is_disabled": 0, "rental_uris": {"ios": "https://dc.lft.to/lastmile_qr_scan", "android": "https://dc.lft.to/lastmile_qr_scan"}, "is_reserved": 0}, {"lon": -77.0396255, "bike_id": "5fd7a481d293681ab23574a674a06529", "lat": 38.90072516666667, "fusion_lon": 0.0, "fusion_lat": 0.0, "type": "electric_scooter", "name": "5fd7a481d293681ab23574a674a06529", "is_disabled": 0, "rental_uris": {"ios": "https://dc.lft.to/lastmile_qr_scan", "android": "https://dc.lft.to/lastmile_qr_scan"}, "is_reserved": 0}, {"lon": -76.9995005, "bike_id": "6c116b9953a4b894c5248d40e433f674", "lat": 38.89827183333333, "fusion_lon": 0.0, "fusion_lat": 0.0, "type": "electric_scooter", "name": "6c116b9953a4b894c5248d40e433f674", "is_disabled": 0, "rental_uris": {"ios": "https://dc.lft.to/lastmile_qr_scan", "android": "https://dc.lft.to/lastmile_qr_scan"}, "is_reserved": 0}, {"lon": -77.04612833333333, "bike_id": "7dfcc9798a8d40b5d37e0ad845ce6dff", "lat": 38.915726, "fusion_lon": 0.0, "fusion_lat": 0.0, "type": "electric_scooter", "name": "7dfcc9798a8d40b5d37e0ad845ce6dff", "is_disabled": 0, "rental_uris": {"ios": "https://dc.lft.to/lastmile_qr_scan", "android": "https://dc.lft.to/lastmile_qr_scan"}, "is_reserved": 0}, {"lon": -77.05210833333334, "bike_id": "bec6ca816a64d9a8fd0407ef5913e1a6", "lat": 38.9007925, "fusion_lon": 0.0, "fusion_lat": 0.0, "type": "electric_scooter", "name": "bec6ca816a64d9a8fd0407ef5913e1a6", "is_disabled": 0, "rental_uris": {"ios": "https://dc.lft.to/lastmile_qr_scan", "android": "https://dc.lft.to/lastmile_qr_scan"}, "is_reserved": 0}, {"lon": -77.04673116666666, "bike_id": "57ff559cf5978289cc0604a7c693b056", "lat": 38.905651666666664, "fusion_lon": 0.0, "fusion_lat": 0.0, "type": "electric_scooter", "name": "57ff559cf5978289cc0604a7c693b056", "is_disabled": 0, "rental_uris": {"ios": "https://dc.lft.to/lastmile_qr_scan", "android": "https://dc.lft.to/lastmile_qr_scan"}, "is_reserved": 0}, {"lon": -77.032558, "bike_id": "f4f2cda8b99addec4e9525f23e83bcb3", "lat": 38.92893566666667, "fusion_lon": 0.0, "fusion_lat": 0.0, "type": "electric_scooter", "name": "f4f2cda8b99addec4e9525f23e83bcb3", "is_disabled": 0, "rental_uris": {"ios": "https://dc.lft.to/lastmile_qr_scan", "android": "https://dc.lft.to/lastmile_qr_scan"}, "is_reserved": 0}, {"lon": -76.99556216666667, "bike_id": "9801f323301365f6c3ed8d4cb0195151", "lat": 38.92672866666667, "fusion_lon": 0.0, "fusion_lat": 0.0, "type": "electric_scooter", "name": "9801f323301365f6c3ed8d4cb0195151", "is_disabled": 0, "rental_uris": {"ios": "https://dc.lft.to/lastmile_qr_scan", "android": "https://dc.lft.to/lastmile_qr_scan"}, "is_reserved": 0}, {"lon": -77.00688116666667, "bike_id": "d9865e8f552fe04da0b8ddfcd7887a3f", "lat": 38.906181333333336, "fusion_lon": 0.0, "fusion_lat": 0.0, "type": "electric_scooter", "name": "d9865e8f552fe04da0b8ddfcd7887a3f", "is_disabled": 0, "rental_uris": {"ios": "https://dc.lft.to/lastmile_qr_scan", "android": "https://dc.lft.to/lastmile_qr_scan"}, "is_reserved": 0}, {"lon": -77.02390383333334, "bike_id": "ee2955c9531a49ab314f441f571b8c50", "lat": 38.92015766666667, "fusion_lon": 0.0, "fusion_lat": 0.0, "type": "electric_scooter", "name": "ee2955c9531a49ab314f441f571b8c50", "is_disabled": 0, "rental_uris": {"ios": "https://dc.lft.to/lastmile_qr_scan", "android": "https://dc.lft.to/lastmile_qr_scan"}, "is_reserved": 0}, {"lon": -77.0033515, "bike_id": "7b5bb21788a1abb09de3af13e2864f1d", "lat": 38.89193783333333, "fusion_lon": 0.0, "fusion_lat": 0.0, "type": "electric_scooter", "name": "7b5bb21788a1abb09de3af13e2864f1d", "is_disabled": 0, "rental_uris": {"ios": "https://dc.lft.to/lastmile_qr_scan", "android": "https://dc.lft.to/lastmile_qr_scan"}, "is_reserved": 0}, {"lon": -77.0446325, "bike_id": "12bed1694d6879df2b4bfbb1cbfd7dee", "lat": 38.90730833333333, "fusion_lon": 0.0, "fusion_lat": 0.0, "type": "electric_scooter", "name": "12bed1694d6879df2b4bfbb1cbfd7dee", "is_disabled": 0, "rental_uris": {"ios": "https://dc.lft.to/lastmile_qr_scan", "android": "https://dc.lft.to/lastmile_qr_scan"}, "is_reserved": 0}, {"lon": -77.03197366666667, "bike_id": "00500fc4f4af85a78f29dbcdaf45c2c2", "lat": 38.91923516666667, "fusion_lon": 0.0, "fusion_lat": 0.0, "type": "electric_scooter", "name": "00500fc4f4af85a78f29dbcdaf45c2c2", "is_disabled": 0, "rental_uris": {"ios": "https://dc.lft.to/lastmile_qr_scan", "android": "https://dc.lft.to/lastmile_qr_scan"}, "is_reserved": 0}, {"lon": -77.03670816666667, "bike_id": "7b6595b3c0218974b5fd0637ebd97a21", "lat": 38.92110666666667, "fusion_lon": 0.0, "fusion_lat": 0.0, "type": "electric_scooter", "name": "7b6595b3c0218974b5fd0637ebd97a21", "is_disabled": 0, "rental_uris": {"ios": "https://dc.lft.to/lastmile_qr_scan", "android": "https://dc.lft.to/lastmile_qr_scan"}, "is_reserved": 0}, {"lon": -77.02117316666667, "bike_id": "237b108109506e2b6eb6621c9b4f473c", "lat": 38.93700333333334, "fusion_lon": 0.0, "fusion_lat": 0.0, "type": "electric_scooter", "name": "237b108109506e2b6eb6621c9b4f473c", "is_disabled": 0, "rental_uris": {"ios": "https://dc.lft.to/lastmile_qr_scan", "android": "https://dc.lft.to/lastmile_qr_scan"}, "is_reserved": 0}, {"lon": -77.03199883333333, "bike_id": "2d64917a4704c65d3c898f8c15dc498d", "lat": 38.92784566666667, "fusion_lon": 0.0, "fusion_lat": 0.0, "type": "electric_scooter", "name": "2d64917a4704c65d3c898f8c15dc498d", "is_disabled": 0, "rental_uris": {"ios": "https://dc.lft.to/lastmile_qr_scan", "android": "https://dc.lft.to/lastmile_qr_scan"}, "is_reserved": 0}, {"lon": -77.035349, "bike_id": "3e1615e202e8853de3f63fcb38c0a70f", "lat": 38.9258235, "fusion_lon": 0.0, "fusion_lat": 0.0, "type": "electric_scooter", "name": "3e1615e202e8853de3f63fcb38c0a70f", "is_disabled": 0, "rental_uris": {"ios": "https://dc.lft.to/lastmile_qr_scan", "android": "https://dc.lft.to/lastmile_qr_scan"}, "is_reserved": 0}, {"lon": -77.0276335, "bike_id": "aa287e6dc4f76e771c3cd44e042b9e9b", "lat": 38.93338033333333, "fusion_lon": 0.0, "fusion_lat": 0.0, "type": "electric_scooter", "name": "aa287e6dc4f76e771c3cd44e042b9e9b", "is_disabled": 0, "rental_uris": {"ios": "https://dc.lft.to/lastmile_qr_scan", "android": "https://dc.lft.to/lastmile_qr_scan"}, "is_reserved": 0}, {"lon": -76.98375, "bike_id": "5399694a3b816a7db1b5e0deefcea17c", "lat": 38.89604216666667, "fusion_lon": 0.0, "fusion_lat": 0.0, "type": "electric_scooter", "name": "5399694a3b816a7db1b5e0deefcea17c", "is_disabled": 0, "rental_uris": {"ios": "https://dc.lft.to/lastmile_qr_scan", "android": "https://dc.lft.to/lastmile_qr_scan"}, "is_reserved": 0}, {"lon": -77.0419205, "bike_id": "e196a5a3e0920ce55be3b40bca34d2f0", "lat": 38.9055165, "fusion_lon": 0.0, "fusion_lat": 0.0, "type": "electric_scooter", "name": "e196a5a3e0920ce55be3b40bca34d2f0", "is_disabled": 0, "rental_uris": {"ios": "https://dc.lft.to/lastmile_qr_scan", "android": "https://dc.lft.to/lastmile_qr_scan"}, "is_reserved": 0}, {"lon": -77.03763433333333, "bike_id": "2c01c7b81838d0e4d28bfc1841a92465", "lat": 38.92014266666666, "fusion_lon": 0.0, "fusion_lat": 0.0, "type": "electric_scooter", "name": "2c01c7b81838d0e4d28bfc1841a92465", "is_disabled": 0, "rental_uris": {"ios": "https://dc.lft.to/lastmile_qr_scan", "android": "https://dc.lft.to/lastmile_qr_scan"}, "is_reserved": 0}, {"lon": -77.0216915, "bike_id": "b2af1b3ff46ade2bfefd24df03e6fa55", "lat": 38.92996566666667, "fusion_lon": 0.0, "fusion_lat": 0.0, "type": "electric_scooter", "name": "b2af1b3ff46ade2bfefd24df03e6fa55", "is_disabled": 0, "rental_uris": {"ios": "https://dc.lft.to/lastmile_qr_scan", "android": "https://dc.lft.to/lastmile_qr_scan"}, "is_reserved": 0}, {"lon": -77.03265383333333, "bike_id": "080add80ace414b95e3aa7bacfb71e83", "lat": 38.932402, "fusion_lon": 0.0, "fusion_lat": 0.0, "type": "electric_scooter", "name": "080add80ace414b95e3aa7bacfb71e83", "is_disabled": 0, "rental_uris": {"ios": "https://dc.lft.to/lastmile_qr_scan", "android": "https://dc.lft.to/lastmile_qr_scan"}, "is_reserved": 0}, {"lon": -77.046714, "bike_id": "f1556ec0bebe7e89c4c7a2fb6e89fec6", "lat": 38.90725, "fusion_lon": 0.0, "fusion_lat": 0.0, "type": "electric_scooter", "name": "f1556ec0bebe7e89c4c7a2fb6e89fec6", "is_disabled": 0, "rental_uris": {"ios": "https://dc.lft.to/lastmile_qr_scan", "android": "https://dc.lft.to/lastmile_qr_scan"}, "is_reserved": 0}, {"lon": -77.03582066666667, "bike_id": "f449fcb04844dc589c67de9cd51a2bb0", "lat": 38.91049233333333, "fusion_lon": 0.0, "fusion_lat": 0.0, "type": "electric_scooter", "name": "f449fcb04844dc589c67de9cd51a2bb0", "is_disabled": 0, "rental_uris": {"ios": "https://dc.lft.to/lastmile_qr_scan", "android": "https://dc.lft.to/lastmile_qr_scan"}, "is_reserved": 0}, {"lon": -77.044188, "bike_id": "e8e21a1b13a0100f975b0b2a1a57b38f", "lat": 38.911299, "fusion_lon": 0.0, "fusion_lat": 0.0, "type": "electric_scooter", "name": "e8e21a1b13a0100f975b0b2a1a57b38f", "is_disabled": 0, "rental_uris": {"ios": "https://dc.lft.to/lastmile_qr_scan", "android": "https://dc.lft.to/lastmile_qr_scan"}, "is_reserved": 0}, {"lon": -77.0326395, "bike_id": "a55fa8b1806ad128503830236eff6c3f", "lat": 38.93773366666667, "fusion_lon": 0.0, "fusion_lat": 0.0, "type": "electric_scooter", "name": "a55fa8b1806ad128503830236eff6c3f", "is_disabled": 0, "rental_uris": {"ios": "https://dc.lft.to/lastmile_qr_scan", "android": "https://dc.lft.to/lastmile_qr_scan"}, "is_reserved": 0}, {"lon": -77.0320875, "bike_id": "1b1b5b1bd1e3fc79c3098fbc105b461e", "lat": 38.91733116666666, "fusion_lon": 0.0, "fusion_lat": 0.0, "type": "electric_scooter", "name": "1b1b5b1bd1e3fc79c3098fbc105b461e", "is_disabled": 0, "rental_uris": {"ios": "https://dc.lft.to/lastmile_qr_scan", "android": "https://dc.lft.to/lastmile_qr_scan"}, "is_reserved": 0}, {"lon": -77.03326916666667, "bike_id": "2ea9792d8e3150a426db63a472a6a465", "lat": 38.9471455, "fusion_lon": 0.0, "fusion_lat": 0.0, "type": "electric_scooter", "name": "2ea9792d8e3150a426db63a472a6a465", "is_disabled": 0, "rental_uris": {"ios": "https://dc.lft.to/lastmile_qr_scan", "android": "https://dc.lft.to/lastmile_qr_scan"}, "is_reserved": 0}, {"lon": -77.0422425, "bike_id": "d881ce9cd00d395edbe835c1846508c9", "lat": 38.913483666666664, "fusion_lon": 0.0, "fusion_lat": 0.0, "type": "electric_scooter", "name": "d881ce9cd00d395edbe835c1846508c9", "is_disabled": 0, "rental_uris": {"ios": "https://dc.lft.to/lastmile_qr_scan", "android": "https://dc.lft.to/lastmile_qr_scan"}, "is_reserved": 0}, {"lon": -76.992856, "bike_id": "48a8fe1116aaaa15cb45015b6262d904", "lat": 38.898954333333336, "fusion_lon": 0.0, "fusion_lat": 0.0, "type": "electric_scooter", "name": "48a8fe1116aaaa15cb45015b6262d904", "is_disabled": 0, "rental_uris": {"ios": "https://dc.lft.to/lastmile_qr_scan", "android": "https://dc.lft.to/lastmile_qr_scan"}, "is_reserved": 0}, {"lon": -77.02223433333333, "bike_id": "96934a408550335ae2ab92a4999aeb47", "lat": 38.9261085, "fusion_lon": 0.0, "fusion_lat": 0.0, "type": "electric_scooter", "name": "96934a408550335ae2ab92a4999aeb47", "is_disabled": 0, "rental_uris": {"ios": "https://dc.lft.to/lastmile_qr_scan", "android": "https://dc.lft.to/lastmile_qr_scan"}, "is_reserved": 0}, {"lon": -77.052599, "bike_id": "b2092214fd067c4a6c913b0ff02ab4ea", "lat": 38.900082833333336, "fusion_lon": 0.0, "fusion_lat": 0.0, "type": "electric_scooter", "name": "b2092214fd067c4a6c913b0ff02ab4ea", "is_disabled": 0, "rental_uris": {"ios": "https://dc.lft.to/lastmile_qr_scan", "android": "https://dc.lft.to/lastmile_qr_scan"}, "is_reserved": 0}, {"lon": -77.043911, "bike_id": "d6543e16f1805626fd6c67a0a7b3c0d3", "lat": 39.04718716666667, "fusion_lon": 0.0, "fusion_lat": 0.0, "type": "electric_bike", "name": "d6543e16f1805626fd6c67a0a7b3c0d3", "is_disabled": 0, "rental_uris": {"ios": "https://dc.lft.to/lastmile_qr_scan", "android": "https://dc.lft.to/lastmile_qr_scan"}, "is_reserved": 0}, {"lon": -77.0320285, "bike_id": "973603601c8a6f589459caf0dd920f20", "lat": 38.909759, "fusion_lon": 0.0, "fusion_lat": 0.0, "type": "electric_scooter", "name": "973603601c8a6f589459caf0dd920f20", "is_disabled": 0, "rental_uris": {"ios": "https://dc.lft.to/lastmile_qr_scan", "android": "https://dc.lft.to/lastmile_qr_scan"}, "is_reserved": 0}, {"lon": -77.02837, "bike_id": "48deb45960bd41fba4814f90c5fc7be3", "lat": 38.925789333333334, "fusion_lon": 0.0, "fusion_lat": 0.0, "type": "electric_scooter", "name": "48deb45960bd41fba4814f90c5fc7be3", "is_disabled": 0, "rental_uris": {"ios": "https://dc.lft.to/lastmile_qr_scan", "android": "https://dc.lft.to/lastmile_qr_scan"}, "is_reserved": 0}, {"lon": -77.0224195, "bike_id": "c940ad7fbb96b090e16ee874efa30f87", "lat": 38.962101833333335, "fusion_lon": 0.0, "fusion_lat": 0.0, "type": "electric_bike", "name": "c940ad7fbb96b090e16ee874efa30f87", "is_disabled": 0, "rental_uris": {"ios": "https://dc.lft.to/lastmile_qr_scan", "android": "https://dc.lft.to/lastmile_qr_scan"}, "is_reserved": 0}, {"lon": -76.989213, "bike_id": "df164250e6e035b3733a0fdb414d4141", "lat": 38.858075, "fusion_lon": 0.0, "fusion_lat": 0.0, "type": "electric_scooter", "name": "df164250e6e035b3733a0fdb414d4141", "is_disabled": 0, "rental_uris": {"ios": "https://dc.lft.to/lastmile_qr_scan", "android": "https://dc.lft.to/lastmile_qr_scan"}, "is_reserved": 0}, {"lon": -76.971908, "bike_id": "ea6e417b73cacd1531290c581c57a4e0", "lat": 38.873854666666666, "fusion_lon": 0.0, "fusion_lat": 0.0, "type": "electric_scooter", "name": "ea6e417b73cacd1531290c581c57a4e0", "is_disabled": 0, "rental_uris": {"ios": "https://dc.lft.to/lastmile_qr_scan", "android": "https://dc.lft.to/lastmile_qr_scan"}, "is_reserved": 0}, {"lon": -77.0210905, "bike_id": "20a13f281dedf232378235f4f78664f4", "lat": 38.906018, "fusion_lon": 0.0, "fusion_lat": 0.0, "type": "electric_scooter", "name": "20a13f281dedf232378235f4f78664f4", "is_disabled": 0, "rental_uris": {"ios": "https://dc.lft.to/lastmile_qr_scan", "android": "https://dc.lft.to/lastmile_qr_scan"}, "is_reserved": 0}, {"lon": -77.03448766666666, "bike_id": "c48d10fd7d9364683106492ad8a6ad28", "lat": 38.909476166666664, "fusion_lon": 0.0, "fusion_lat": 0.0, "type": "electric_scooter", "name": "c48d10fd7d9364683106492ad8a6ad28", "is_disabled": 0, "rental_uris": {"ios": "https://dc.lft.to/lastmile_qr_scan", "android": "https://dc.lft.to/lastmile_qr_scan"}, "is_reserved": 0}, {"lon": -77.0432065, "bike_id": "2782aede70c38b1c6509ce61be98f887", "lat": 38.907331666666664, "fusion_lon": 0.0, "fusion_lat": 0.0, "type": "electric_scooter", "name": "2782aede70c38b1c6509ce61be98f887", "is_disabled": 0, "rental_uris": {"ios": "https://dc.lft.to/lastmile_qr_scan", "android": "https://dc.lft.to/lastmile_qr_scan"}, "is_reserved": 0}, {"lon": -77.0240755, "bike_id": "034428c15e370175a37fa16bf19b0e2e", "lat": 38.9208935, "fusion_lon": 0.0, "fusion_lat": 0.0, "type": "electric_scooter", "name": "034428c15e370175a37fa16bf19b0e2e", "is_disabled": 0, "rental_uris": {"ios": "https://dc.lft.to/lastmile_qr_scan", "android": "https://dc.lft.to/lastmile_qr_scan"}, "is_reserved": 0}, {"lon": -77.03753433333333, "bike_id": "2edd8521dc2ca046fbb66d0df0feb0f6", "lat": 38.928846, "fusion_lon": 0.0, "fusion_lat": 0.0, "type": "electric_scooter", "name": "2edd8521dc2ca046fbb66d0df0feb0f6", "is_disabled": 0, "rental_uris": {"ios": "https://dc.lft.to/lastmile_qr_scan", "android": "https://dc.lft.to/lastmile_qr_scan"}, "is_reserved": 0}, {"lon": -77.00497116666666, "bike_id": "8e228e9ac48655b90d2c4301659242dd", "lat": 38.905706333333335, "fusion_lon": 0.0, "fusion_lat": 0.0, "type": "electric_scooter", "name": "8e228e9ac48655b90d2c4301659242dd", "is_disabled": 0, "rental_uris": {"ios": "https://dc.lft.to/lastmile_qr_scan", "android": "https://dc.lft.to/lastmile_qr_scan"}, "is_reserved": 0}, {"lon": -76.98526716666667, "bike_id": "7f45b9314ad0748daad13ac1195b1f9a", "lat": 38.86688783333334, "fusion_lon": 0.0, "fusion_lat": 0.0, "type": "electric_scooter", "name": "7f45b9314ad0748daad13ac1195b1f9a", "is_disabled": 0, "rental_uris": {"ios": "https://dc.lft.to/lastmile_qr_scan", "android": "https://dc.lft.to/lastmile_qr_scan"}, "is_reserved": 0}, {"lon": -77.04823666666667, "bike_id": "85ad65b3f38d1b2da1b89733431b6f53", "lat": 38.89741, "fusion_lon": 0.0, "fusion_lat": 0.0, "type": "electric_scooter", "name": "85ad65b3f38d1b2da1b89733431b6f53", "is_disabled": 0, "rental_uris": {"ios": "https://dc.lft.to/lastmile_qr_scan", "android": "https://dc.lft.to/lastmile_qr_scan"}, "is_reserved": 0}, {"lon": -77.03816266666666, "bike_id": "0bef131c5bd02e21a1f8d8896ca9aec9", "lat": 38.931089166666666, "fusion_lon": 0.0, "fusion_lat": 0.0, "type": "electric_scooter", "name": "0bef131c5bd02e21a1f8d8896ca9aec9", "is_disabled": 0, "rental_uris": {"ios": "https://dc.lft.to/lastmile_qr_scan", "android": "https://dc.lft.to/lastmile_qr_scan"}, "is_reserved": 0}, {"lon": -77.02021383333333, "bike_id": "a7dba98a592609bc4e91eecdaa65d5cd", "lat": 38.90572816666667, "fusion_lon": 0.0, "fusion_lat": 0.0, "type": "electric_scooter", "name": "a7dba98a592609bc4e91eecdaa65d5cd", "is_disabled": 0, "rental_uris": {"ios": "https://dc.lft.to/lastmile_qr_scan", "android": "https://dc.lft.to/lastmile_qr_scan"}, "is_reserved": 0}, {"lon": -77.02771116666666, "bike_id": "eb2d2a54c9c9af90c68cec2e2caa5846", "lat": 38.95427316666667, "fusion_lon": 0.0, "fusion_lat": 0.0, "type": "electric_scooter", "name": "eb2d2a54c9c9af90c68cec2e2caa5846", "is_disabled": 0, "rental_uris": {"ios": "https://dc.lft.to/lastmile_qr_scan", "android": "https://dc.lft.to/lastmile_qr_scan"}, "is_reserved": 0}, {"lon": -77.05576633333334, "bike_id": "c603b7911e9c5051a67b7cacebf2c9a3", "lat": 38.90007033333333, "fusion_lon": 0.0, "fusion_lat": 0.0, "type": "electric_scooter", "name": "c603b7911e9c5051a67b7cacebf2c9a3", "is_disabled": 0, "rental_uris": {"ios": "https://dc.lft.to/lastmile_qr_scan", "android": "https://dc.lft.to/lastmile_qr_scan"}, "is_reserved": 0}, {"lon": -77.04817183333333, "bike_id": "5307649e815cbdd9c5dda43f81987309", "lat": 38.9111265, "fusion_lon": 0.0, "fusion_lat": 0.0, "type": "electric_scooter", "name": "5307649e815cbdd9c5dda43f81987309", "is_disabled": 0, "rental_uris": {"ios": "https://dc.lft.to/lastmile_qr_scan", "android": "https://dc.lft.to/lastmile_qr_scan"}, "is_reserved": 0}, {"lon": -77.04470083333334, "bike_id": "2236e8a02e6387743327dd72628c76c8", "lat": 38.923944, "fusion_lon": 0.0, "fusion_lat": 0.0, "type": "electric_scooter", "name": "2236e8a02e6387743327dd72628c76c8", "is_disabled": 0, "rental_uris": {"ios": "https://dc.lft.to/lastmile_qr_scan", "android": "https://dc.lft.to/lastmile_qr_scan"}, "is_reserved": 0}, {"lon": -77.01905766666667, "bike_id": "72f74b4a1506f10f4e105feecd8bdffb", "lat": 38.899693666666664, "fusion_lon": 0.0, "fusion_lat": 0.0, "type": "electric_scooter", "name": "72f74b4a1506f10f4e105feecd8bdffb", "is_disabled": 0, "rental_uris": {"ios": "https://dc.lft.to/lastmile_qr_scan", "android": "https://dc.lft.to/lastmile_qr_scan"}, "is_reserved": 0}, {"lon": -76.90744766666667, "bike_id": "b3f1724c03d392f1d32f0507937c99c5", "lat": 38.896156, "fusion_lon": 0.0, "fusion_lat": 0.0, "type": "electric_bike", "name": "b3f1724c03d392f1d32f0507937c99c5", "is_disabled": 0, "rental_uris": {"ios": "https://dc.lft.to/lastmile_qr_scan", "android": "https://dc.lft.to/lastmile_qr_scan"}, "is_reserved": 0}, {"lon": -77.00560233333333, "bike_id": "f9d41943acbfcb715dbc245511c6456c", "lat": 38.874738, "fusion_lon": 0.0, "fusion_lat": 0.0, "type": "electric_scooter", "name": "f9d41943acbfcb715dbc245511c6456c", "is_disabled": 0, "rental_uris": {"ios": "https://dc.lft.to/lastmile_qr_scan", "android": "https://dc.lft.to/lastmile_qr_scan"}, "is_reserved": 0}, {"lon": -76.9742735, "bike_id": "048c3e470c515c23364966f5e9dca2d2", "lat": 38.90400783333333, "fusion_lon": 0.0, "fusion_lat": 0.0, "type": "electric_scooter", "name": "048c3e470c515c23364966f5e9dca2d2", "is_disabled": 0, "rental_uris": {"ios": "https://dc.lft.to/lastmile_qr_scan", "android": "https://dc.lft.to/lastmile_qr_scan"}, "is_reserved": 0}, {"lon": -77.04225833333334, "bike_id": "ac2b68bc55577847761548c83ac0e02d", "lat": 38.914123333333336, "fusion_lon": 0.0, "fusion_lat": 0.0, "type": "electric_scooter", "name": "ac2b68bc55577847761548c83ac0e02d", "is_disabled": 0, "rental_uris": {"ios": "https://dc.lft.to/lastmile_qr_scan", "android": "https://dc.lft.to/lastmile_qr_scan"}, "is_reserved": 0}, {"lon": -77.032677, "bike_id": "4590a2e54bdc1239394895d3ed6c0c02", "lat": 38.91986333333333, "fusion_lon": 0.0, "fusion_lat": 0.0, "type": "electric_scooter", "name": "4590a2e54bdc1239394895d3ed6c0c02", "is_disabled": 0, "rental_uris": {"ios": "https://dc.lft.to/lastmile_qr_scan", "android": "https://dc.lft.to/lastmile_qr_scan"}, "is_reserved": 0}, {"lon": -77.0229425, "bike_id": "b8a86a3adbe8cdc8af11418791c34f55", "lat": 38.9223205, "fusion_lon": 0.0, "fusion_lat": 0.0, "type": "electric_scooter", "name": "b8a86a3adbe8cdc8af11418791c34f55", "is_disabled": 0, "rental_uris": {"ios": "https://dc.lft.to/lastmile_qr_scan", "android": "https://dc.lft.to/lastmile_qr_scan"}, "is_reserved": 0}, {"lon": -77.02485266666666, "bike_id": "d1a43b22cf51a76713b37cd5beb096f2", "lat": 38.9361995, "fusion_lon": 0.0, "fusion_lat": 0.0, "type": "electric_scooter", "name": "d1a43b22cf51a76713b37cd5beb096f2", "is_disabled": 0, "rental_uris": {"ios": "https://dc.lft.to/lastmile_qr_scan", "android": "https://dc.lft.to/lastmile_qr_scan"}, "is_reserved": 0}, {"lon": -77.02375416666666, "bike_id": "b19ebc8bb823b7e831c39155b6badd84", "lat": 38.90197666666667, "fusion_lon": 0.0, "fusion_lat": 0.0, "type": "electric_scooter", "name": "b19ebc8bb823b7e831c39155b6badd84", "is_disabled": 0, "rental_uris": {"ios": "https://dc.lft.to/lastmile_qr_scan", "android": "https://dc.lft.to/lastmile_qr_scan"}, "is_reserved": 0}, {"lon": -76.90474116666667, "bike_id": "481606b8a1e3b78f3f572f8600c6400e", "lat": 39.002982833333334, "fusion_lon": 0.0, "fusion_lat": 0.0, "type": "electric_bike", "name": "481606b8a1e3b78f3f572f8600c6400e", "is_disabled": 0, "rental_uris": {"ios": "https://dc.lft.to/lastmile_qr_scan", "android": "https://dc.lft.to/lastmile_qr_scan"}, "is_reserved": 0}, {"lon": -77.0328395, "bike_id": "c37c471fe14ef0eb99afd04bdba718b4", "lat": 38.939775166666664, "fusion_lon": 0.0, "fusion_lat": 0.0, "type": "electric_scooter", "name": "c37c471fe14ef0eb99afd04bdba718b4", "is_disabled": 0, "rental_uris": {"ios": "https://dc.lft.to/lastmile_qr_scan", "android": "https://dc.lft.to/lastmile_qr_scan"}, "is_reserved": 0}, {"lon": -77.00578783333333, "bike_id": "02fa508052f33adfa32229aebdf960f4", "lat": 38.876801666666665, "fusion_lon": 0.0, "fusion_lat": 0.0, "type": "electric_scooter", "name": "02fa508052f33adfa32229aebdf960f4", "is_disabled": 0, "rental_uris": {"ios": "https://dc.lft.to/lastmile_qr_scan", "android": "https://dc.lft.to/lastmile_qr_scan"}, "is_reserved": 0}, {"lon": -76.9472105, "bike_id": "019943cfeff8cfd4eb6350b07109ab59", "lat": 38.89748633333333, "fusion_lon": 0.0, "fusion_lat": 0.0, "type": "electric_scooter", "name": "019943cfeff8cfd4eb6350b07109ab59", "is_disabled": 0, "rental_uris": {"ios": "https://dc.lft.to/lastmile_qr_scan", "android": "https://dc.lft.to/lastmile_qr_scan"}, "is_reserved": 0}, {"lon": -77.01630016666667, "bike_id": "e612c87098dba0a9bfcf032fdfa06ca6", "lat": 38.965718833333334, "fusion_lon": 0.0, "fusion_lat": 0.0, "type": "electric_scooter", "name": "e612c87098dba0a9bfcf032fdfa06ca6", "is_disabled": 0, "rental_uris": {"ios": "https://dc.lft.to/lastmile_qr_scan", "android": "https://dc.lft.to/lastmile_qr_scan"}, "is_reserved": 0}, {"lon": -77.0200965, "bike_id": "259486493caa3f482bc4f917361d9b4f", "lat": 38.9240535, "fusion_lon": 0.0, "fusion_lat": 0.0, "type": "electric_scooter", "name": "259486493caa3f482bc4f917361d9b4f", "is_disabled": 0, "rental_uris": {"ios": "https://dc.lft.to/lastmile_qr_scan", "android": "https://dc.lft.to/lastmile_qr_scan"}, "is_reserved": 0}, {"lon": -77.02954316666667, "bike_id": "fa94c936af731c9d587268f9e9dd8952", "lat": 38.907477166666666, "fusion_lon": 0.0, "fusion_lat": 0.0, "type": "electric_scooter", "name": "fa94c936af731c9d587268f9e9dd8952", "is_disabled": 0, "rental_uris": {"ios": "https://dc.lft.to/lastmile_qr_scan", "android": "https://dc.lft.to/lastmile_qr_scan"}, "is_reserved": 0}, {"lon": -77.36091233333333, "bike_id": "a2b4c14f576c4a22028ab05ad0e9240b", "lat": 38.93960083333333, "fusion_lon": 0.0, "fusion_lat": 0.0, "type": "electric_bike", "name": "a2b4c14f576c4a22028ab05ad0e9240b", "is_disabled": 0, "rental_uris": {"ios": "https://dc.lft.to/lastmile_qr_scan", "android": "https://dc.lft.to/lastmile_qr_scan"}, "is_reserved": 0}, {"lon": -77.032832, "bike_id": "e7d3bb8cd3d1c882dd2638096dd1c15b", "lat": 38.932089500000004, "fusion_lon": 0.0, "fusion_lat": 0.0, "type": "electric_scooter", "name": "e7d3bb8cd3d1c882dd2638096dd1c15b", "is_disabled": 0, "rental_uris": {"ios": "https://dc.lft.to/lastmile_qr_scan", "android": "https://dc.lft.to/lastmile_qr_scan"}, "is_reserved": 0}, {"lon": -77.03559, "bike_id": "6384272e6273eed6e39426d242027ff6", "lat": 38.927426833333335, "fusion_lon": 0.0, "fusion_lat": 0.0, "type": "electric_scooter", "name": "6384272e6273eed6e39426d242027ff6", "is_disabled": 0, "rental_uris": {"ios": "https://dc.lft.to/lastmile_qr_scan", "android": "https://dc.lft.to/lastmile_qr_scan"}, "is_reserved": 0}, {"lon": -77.00541316666667, "bike_id": "d2409e5d03a4c7037c23299c9c9caf3d", "lat": 38.9126955, "fusion_lon": 0.0, "fusion_lat": 0.0, "type": "electric_scooter", "name": "d2409e5d03a4c7037c23299c9c9caf3d", "is_disabled": 0, "rental_uris": {"ios": "https://dc.lft.to/lastmile_qr_scan", "android": "https://dc.lft.to/lastmile_qr_scan"}, "is_reserved": 0}, {"lon": -77.0120525, "bike_id": "95c4232169d1b58124c6d5fd7d660a5c", "lat": 38.885540666666664, "fusion_lon": 0.0, "fusion_lat": 0.0, "type": "electric_scooter", "name": "95c4232169d1b58124c6d5fd7d660a5c", "is_disabled": 0, "rental_uris": {"ios": "https://dc.lft.to/lastmile_qr_scan", "android": "https://dc.lft.to/lastmile_qr_scan"}, "is_reserved": 0}, {"lon": -76.97700216666667, "bike_id": "53b463b4b490ea979522f07d47f8cbd5", "lat": 38.949199, "fusion_lon": 0.0, "fusion_lat": 0.0, "type": "electric_bike", "name": "53b463b4b490ea979522f07d47f8cbd5", "is_disabled": 0, "rental_uris": {"ios": "https://dc.lft.to/lastmile_qr_scan", "android": "https://dc.lft.to/lastmile_qr_scan"}, "is_reserved": 0}, {"lon": -77.05306, "bike_id": "e362021061b80a74a9195101b4e4e035", "lat": 38.8988515, "fusion_lon": 0.0, "fusion_lat": 0.0, "type": "electric_scooter", "name": "e362021061b80a74a9195101b4e4e035", "is_disabled": 0, "rental_uris": {"ios": "https://dc.lft.to/lastmile_qr_scan", "android": "https://dc.lft.to/lastmile_qr_scan"}, "is_reserved": 0}, {"lon": -76.98640166666667, "bike_id": "748ba7f1e324a94c66cbfbfcd9e28cce", "lat": 38.89834066666667, "fusion_lon": 0.0, "fusion_lat": 0.0, "type": "electric_scooter", "name": "748ba7f1e324a94c66cbfbfcd9e28cce", "is_disabled": 0, "rental_uris": {"ios": "https://dc.lft.to/lastmile_qr_scan", "android": "https://dc.lft.to/lastmile_qr_scan"}, "is_reserved": 0}, {"lon": -77.03590433333333, "bike_id": "614d63645278da3e030c6f184a3f1e70", "lat": 38.93655783333333, "fusion_lon": 0.0, "fusion_lat": 0.0, "type": "electric_scooter", "name": "614d63645278da3e030c6f184a3f1e70", "is_disabled": 0, "rental_uris": {"ios": "https://dc.lft.to/lastmile_qr_scan", "android": "https://dc.lft.to/lastmile_qr_scan"}, "is_reserved": 0}, {"lon": -77.022601, "bike_id": "38348a90f08e8dcba542bed5b8c08977", "lat": 38.940940499999996, "fusion_lon": 0.0, "fusion_lat": 0.0, "type": "electric_scooter", "name": "38348a90f08e8dcba542bed5b8c08977", "is_disabled": 0, "rental_uris": {"ios": "https://dc.lft.to/lastmile_qr_scan", "android": "https://dc.lft.to/lastmile_qr_scan"}, "is_reserved": 0}, {"lon": -77.021677, "bike_id": "da2907bfde8eae2322b78ae3e6528dae", "lat": 38.897293166666664, "fusion_lon": 0.0, "fusion_lat": 0.0, "type": "electric_scooter", "name": "da2907bfde8eae2322b78ae3e6528dae", "is_disabled": 0, "rental_uris": {"ios": "https://dc.lft.to/lastmile_qr_scan", "android": "https://dc.lft.to/lastmile_qr_scan"}, "is_reserved": 0}, {"lon": -77.00957533333333, "bike_id": "f68fe95441141cbfb351045f4933f432", "lat": 38.95339666666667, "fusion_lon": 0.0, "fusion_lat": 0.0, "type": "electric_bike", "name": "f68fe95441141cbfb351045f4933f432", "is_disabled": 0, "rental_uris": {"ios": "https://dc.lft.to/lastmile_qr_scan", "android": "https://dc.lft.to/lastmile_qr_scan"}, "is_reserved": 0}, {"lon": -77.02899733333334, "bike_id": "e7584dfd3ebe8c9039359c1f1a77306c", "lat": 38.92815233333334, "fusion_lon": 0.0, "fusion_lat": 0.0, "type": "electric_scooter", "name": "e7584dfd3ebe8c9039359c1f1a77306c", "is_disabled": 0, "rental_uris": {"ios": "https://dc.lft.to/lastmile_qr_scan", "android": "https://dc.lft.to/lastmile_qr_scan"}, "is_reserved": 0}, {"lon": -77.04547683333334, "bike_id": "4f83eb74e5b20e58f826b3b27423e04f", "lat": 38.913474, "fusion_lon": 0.0, "fusion_lat": 0.0, "type": "electric_scooter", "name": "4f83eb74e5b20e58f826b3b27423e04f", "is_disabled": 0, "rental_uris": {"ios": "https://dc.lft.to/lastmile_qr_scan", "android": "https://dc.lft.to/lastmile_qr_scan"}, "is_reserved": 0}, {"lon": -77.03267266666667, "bike_id": "17792bff206dfd729fcf3e08cc12b2b4", "lat": 38.937614833333335, "fusion_lon": 0.0, "fusion_lat": 0.0, "type": "electric_scooter", "name": "17792bff206dfd729fcf3e08cc12b2b4", "is_disabled": 0, "rental_uris": {"ios": "https://dc.lft.to/lastmile_qr_scan", "android": "https://dc.lft.to/lastmile_qr_scan"}, "is_reserved": 0}, {"lon": -77.02588816666666, "bike_id": "5365fbd179a9acf94ef46da775445c14", "lat": 38.904986666666666, "fusion_lon": 0.0, "fusion_lat": 0.0, "type": "electric_scooter", "name": "5365fbd179a9acf94ef46da775445c14", "is_disabled": 0, "rental_uris": {"ios": "https://dc.lft.to/lastmile_qr_scan", "android": "https://dc.lft.to/lastmile_qr_scan"}, "is_reserved": 0}, {"lon": -77.03173516666666, "bike_id": "6b5c41306b265b8eed5b9308847865bf", "lat": 38.887327666666664, "fusion_lon": 0.0, "fusion_lat": 0.0, "type": "electric_scooter", "name": "6b5c41306b265b8eed5b9308847865bf", "is_disabled": 0, "rental_uris": {"ios": "https://dc.lft.to/lastmile_qr_scan", "android": "https://dc.lft.to/lastmile_qr_scan"}, "is_reserved": 0}, {"lon": -76.92621316666667, "bike_id": "8b2e68de226d82f7d180a48b2cf836d6", "lat": 38.884615833333335, "fusion_lon": 0.0, "fusion_lat": 0.0, "type": "electric_scooter", "name": "8b2e68de226d82f7d180a48b2cf836d6", "is_disabled": 0, "rental_uris": {"ios": "https://dc.lft.to/lastmile_qr_scan", "android": "https://dc.lft.to/lastmile_qr_scan"}, "is_reserved": 0}, {"lon": -77.02804733333333, "bike_id": "b200b48ed09c8bf523850ec4f43db347", "lat": 38.916832666666664, "fusion_lon": 0.0, "fusion_lat": 0.0, "type": "electric_scooter", "name": "b200b48ed09c8bf523850ec4f43db347", "is_disabled": 0, "rental_uris": {"ios": "https://dc.lft.to/lastmile_qr_scan", "android": "https://dc.lft.to/lastmile_qr_scan"}, "is_reserved": 0}, {"lon": -77.022126, "bike_id": "ea56c03af936e270c7dd6e73fcdd6d38", "lat": 38.893559333333336, "fusion_lon": 0.0, "fusion_lat": 0.0, "type": "electric_scooter", "name": "ea56c03af936e270c7dd6e73fcdd6d38", "is_disabled": 0, "rental_uris": {"ios": "https://dc.lft.to/lastmile_qr_scan", "android": "https://dc.lft.to/lastmile_qr_scan"}, "is_reserved": 0}, {"lon": -77.02267433333333, "bike_id": "ccddc1f349497542001b7a2209f7728a", "lat": 38.93773433333333, "fusion_lon": 0.0, "fusion_lat": 0.0, "type": "electric_scooter", "name": "ccddc1f349497542001b7a2209f7728a", "is_disabled": 0, "rental_uris": {"ios": "https://dc.lft.to/lastmile_qr_scan", "android": "https://dc.lft.to/lastmile_qr_scan"}, "is_reserved": 0}, {"lon": -76.97607666666667, "bike_id": "e682ca181474cc056254e8f30916dc2d", "lat": 38.9056975, "fusion_lon": 0.0, "fusion_lat": 0.0, "type": "electric_scooter", "name": "e682ca181474cc056254e8f30916dc2d", "is_disabled": 0, "rental_uris": {"ios": "https://dc.lft.to/lastmile_qr_scan", "android": "https://dc.lft.to/lastmile_qr_scan"}, "is_reserved": 0}, {"lon": -77.05408983333334, "bike_id": "468f1970e69f4d502ea02ca190517ff9", "lat": 38.950511666666664, "fusion_lon": 0.0, "fusion_lat": 0.0, "type": "electric_scooter", "name": "468f1970e69f4d502ea02ca190517ff9", "is_disabled": 0, "rental_uris": {"ios": "https://dc.lft.to/lastmile_qr_scan", "android": "https://dc.lft.to/lastmile_qr_scan"}, "is_reserved": 0}, {"lon": -77.02943, "bike_id": "4fbb4b177b364acf57827163c1154b65", "lat": 38.88746966666667, "fusion_lon": 0.0, "fusion_lat": 0.0, "type": "electric_scooter", "name": "4fbb4b177b364acf57827163c1154b65", "is_disabled": 0, "rental_uris": {"ios": "https://dc.lft.to/lastmile_qr_scan", "android": "https://dc.lft.to/lastmile_qr_scan"}, "is_reserved": 0}, {"lon": -77.01480133333334, "bike_id": "ef85682cb06ba19096d5e47b44001cd0", "lat": 38.9406585, "fusion_lon": 0.0, "fusion_lat": 0.0, "type": "electric_bike", "name": "ef85682cb06ba19096d5e47b44001cd0", "is_disabled": 0, "rental_uris": {"ios": "https://dc.lft.to/lastmile_qr_scan", "android": "https://dc.lft.to/lastmile_qr_scan"}, "is_reserved": 0}, {"lon": -77.029798, "bike_id": "3f4f2fb3c7be4df8690620309cf89980", "lat": 38.9393345, "fusion_lon": 0.0, "fusion_lat": 0.0, "type": "electric_scooter", "name": "3f4f2fb3c7be4df8690620309cf89980", "is_disabled": 0, "rental_uris": {"ios": "https://dc.lft.to/lastmile_qr_scan", "android": "https://dc.lft.to/lastmile_qr_scan"}, "is_reserved": 0}, {"lon": -76.98273166666667, "bike_id": "6b4c1f197f920e1c04a6699ff78904f9", "lat": 38.88536333333333, "fusion_lon": 0.0, "fusion_lat": 0.0, "type": "electric_scooter", "name": "6b4c1f197f920e1c04a6699ff78904f9", "is_disabled": 0, "rental_uris": {"ios": "https://dc.lft.to/lastmile_qr_scan", "android": "https://dc.lft.to/lastmile_qr_scan"}, "is_reserved": 0}, {"lon": -76.9834295, "bike_id": "b50acf81b92367959326fa34d3ccee10", "lat": 38.900975833333334, "fusion_lon": 0.0, "fusion_lat": 0.0, "type": "electric_scooter", "name": "b50acf81b92367959326fa34d3ccee10", "is_disabled": 0, "rental_uris": {"ios": "https://dc.lft.to/lastmile_qr_scan", "android": "https://dc.lft.to/lastmile_qr_scan"}, "is_reserved": 0}, {"lon": -77.03176883333333, "bike_id": "303fe4fd7a8761d57cb438a3908a0533", "lat": 38.88416983333333, "fusion_lon": 0.0, "fusion_lat": 0.0, "type": "electric_scooter", "name": "303fe4fd7a8761d57cb438a3908a0533", "is_disabled": 0, "rental_uris": {"ios": "https://dc.lft.to/lastmile_qr_scan", "android": "https://dc.lft.to/lastmile_qr_scan"}, "is_reserved": 0}, {"lon": -77.001962, "bike_id": "c6f34009d237ac17bb50a8a892c83948", "lat": 38.895535333333335, "fusion_lon": 0.0, "fusion_lat": 0.0, "type": "electric_scooter", "name": "c6f34009d237ac17bb50a8a892c83948", "is_disabled": 0, "rental_uris": {"ios": "https://dc.lft.to/lastmile_qr_scan", "android": "https://dc.lft.to/lastmile_qr_scan"}, "is_reserved": 0}, {"lon": -77.02038383333333, "bike_id": "662ffec8063c19b6197291af112ec7f3", "lat": 38.908691833333336, "fusion_lon": 0.0, "fusion_lat": 0.0, "type": "electric_scooter", "name": "662ffec8063c19b6197291af112ec7f3", "is_disabled": 0, "rental_uris": {"ios": "https://dc.lft.to/lastmile_qr_scan", "android": "https://dc.lft.to/lastmile_qr_scan"}, "is_reserved": 0}, {"lon": -77.0053605, "bike_id": "c95e4cd33ee9470a4cbfceff17fc2116", "lat": 38.929771, "fusion_lon": 0.0, "fusion_lat": 0.0, "type": "electric_scooter", "name": "c95e4cd33ee9470a4cbfceff17fc2116", "is_disabled": 0, "rental_uris": {"ios": "https://dc.lft.to/lastmile_qr_scan", "android": "https://dc.lft.to/lastmile_qr_scan"}, "is_reserved": 0}, {"lon": -77.03700966666666, "bike_id": "54591d1352fceed16bef9d682ce08051", "lat": 38.93525116666667, "fusion_lon": 0.0, "fusion_lat": 0.0, "type": "electric_scooter", "name": "54591d1352fceed16bef9d682ce08051", "is_disabled": 0, "rental_uris": {"ios": "https://dc.lft.to/lastmile_qr_scan", "android": "https://dc.lft.to/lastmile_qr_scan"}, "is_reserved": 0}, {"lon": -77.02509766666667, "bike_id": "10215a0b32d4f9a4347c82e0735aac5e", "lat": 38.92073883333333, "fusion_lon": 0.0, "fusion_lat": 0.0, "type": "electric_scooter", "name": "10215a0b32d4f9a4347c82e0735aac5e", "is_disabled": 0, "rental_uris": {"ios": "https://dc.lft.to/lastmile_qr_scan", "android": "https://dc.lft.to/lastmile_qr_scan"}, "is_reserved": 0}, {"lon": -77.0558615, "bike_id": "26be9724a46da45a4e0ac38abccc4862", "lat": 38.893091166666665, "fusion_lon": 0.0, "fusion_lat": 0.0, "type": "electric_scooter", "name": "26be9724a46da45a4e0ac38abccc4862", "is_disabled": 0, "rental_uris": {"ios": "https://dc.lft.to/lastmile_qr_scan", "android": "https://dc.lft.to/lastmile_qr_scan"}, "is_reserved": 0}, {"lon": -76.98407483333334, "bike_id": "bfae828ab09828019fbef4894c36dd6c", "lat": 38.90632516666667, "fusion_lon": 0.0, "fusion_lat": 0.0, "type": "electric_scooter", "name": "bfae828ab09828019fbef4894c36dd6c", "is_disabled": 0, "rental_uris": {"ios": "https://dc.lft.to/lastmile_qr_scan", "android": "https://dc.lft.to/lastmile_qr_scan"}, "is_reserved": 0}, {"lon": -76.98773883333334, "bike_id": "06f80b2c217ac0e5df0746b2758c1d38", "lat": 38.86612433333333, "fusion_lon": 0.0, "fusion_lat": 0.0, "type": "electric_bike", "name": "06f80b2c217ac0e5df0746b2758c1d38", "is_disabled": 0, "rental_uris": {"ios": "https://dc.lft.to/lastmile_qr_scan", "android": "https://dc.lft.to/lastmile_qr_scan"}, "is_reserved": 0}, {"lon": -77.04036666666667, "bike_id": "a904bbbd9d6b01cd6a13bdfa72a9f3cd", "lat": 38.904014, "fusion_lon": 0.0, "fusion_lat": 0.0, "type": "electric_scooter", "name": "a904bbbd9d6b01cd6a13bdfa72a9f3cd", "is_disabled": 0, "rental_uris": {"ios": "https://dc.lft.to/lastmile_qr_scan", "android": "https://dc.lft.to/lastmile_qr_scan"}, "is_reserved": 0}, {"lon": -77.03925116666667, "bike_id": "4f52ee0a1228113e628abab1be144116", "lat": 38.921117833333334, "fusion_lon": 0.0, "fusion_lat": 0.0, "type": "electric_scooter", "name": "4f52ee0a1228113e628abab1be144116", "is_disabled": 0, "rental_uris": {"ios": "https://dc.lft.to/lastmile_qr_scan", "android": "https://dc.lft.to/lastmile_qr_scan"}, "is_reserved": 0}, {"lon": -77.02992583333334, "bike_id": "f2365700f31d8ae2cbb517d97651a53a", "lat": 38.91261133333333, "fusion_lon": 0.0, "fusion_lat": 0.0, "type": "electric_scooter", "name": "f2365700f31d8ae2cbb517d97651a53a", "is_disabled": 0, "rental_uris": {"ios": "https://dc.lft.to/lastmile_qr_scan", "android": "https://dc.lft.to/lastmile_qr_scan"}, "is_reserved": 0}, {"lon": -77.03768383333333, "bike_id": "a98b2eefc93fe7940f46959234ccf9e7", "lat": 38.92973516666667, "fusion_lon": 0.0, "fusion_lat": 0.0, "type": "electric_scooter", "name": "a98b2eefc93fe7940f46959234ccf9e7", "is_disabled": 0, "rental_uris": {"ios": "https://dc.lft.to/lastmile_qr_scan", "android": "https://dc.lft.to/lastmile_qr_scan"}, "is_reserved": 0}, {"lon": -76.98936033333334, "bike_id": "2f12cb98deb98c18ff845f7c6acd6db3", "lat": 38.9183485, "fusion_lon": 0.0, "fusion_lat": 0.0, "type": "electric_scooter", "name": "2f12cb98deb98c18ff845f7c6acd6db3", "is_disabled": 0, "rental_uris": {"ios": "https://dc.lft.to/lastmile_qr_scan", "android": "https://dc.lft.to/lastmile_qr_scan"}, "is_reserved": 0}, {"lon": -77.02564, "bike_id": "bdb2ac85c0c26480ffd2b71a3c238827", "lat": 38.91340266666667, "fusion_lon": 0.0, "fusion_lat": 0.0, "type": "electric_scooter", "name": "bdb2ac85c0c26480ffd2b71a3c238827", "is_disabled": 0, "rental_uris": {"ios": "https://dc.lft.to/lastmile_qr_scan", "android": "https://dc.lft.to/lastmile_qr_scan"}, "is_reserved": 0}, {"lon": -76.98829983333333, "bike_id": "02e3ada37f91630f98fd9860c3ece81b", "lat": 38.90131483333333, "fusion_lon": 0.0, "fusion_lat": 0.0, "type": "electric_scooter", "name": "02e3ada37f91630f98fd9860c3ece81b", "is_disabled": 0, "rental_uris": {"ios": "https://dc.lft.to/lastmile_qr_scan", "android": "https://dc.lft.to/lastmile_qr_scan"}, "is_reserved": 0}, {"lon": -77.048739, "bike_id": "e1feb6d3a60ad71b0f2d5d79d1c6c74d", "lat": 38.89234533333333, "fusion_lon": 0.0, "fusion_lat": 0.0, "type": "electric_scooter", "name": "e1feb6d3a60ad71b0f2d5d79d1c6c74d", "is_disabled": 0, "rental_uris": {"ios": "https://dc.lft.to/lastmile_qr_scan", "android": "https://dc.lft.to/lastmile_qr_scan"}, "is_reserved": 0}, {"lon": -77.0319795, "bike_id": "6b9b72ebf61ad1d4d9afd88802868afc", "lat": 38.930557, "fusion_lon": 0.0, "fusion_lat": 0.0, "type": "electric_scooter", "name": "6b9b72ebf61ad1d4d9afd88802868afc", "is_disabled": 0, "rental_uris": {"ios": "https://dc.lft.to/lastmile_qr_scan", "android": "https://dc.lft.to/lastmile_qr_scan"}, "is_reserved": 0}, {"lon": -77.02381216666667, "bike_id": "7601c125bab9f840f0e8f1982257e4ba", "lat": 38.90791566666667, "fusion_lon": 0.0, "fusion_lat": 0.0, "type": "electric_scooter", "name": "7601c125bab9f840f0e8f1982257e4ba", "is_disabled": 0, "rental_uris": {"ios": "https://dc.lft.to/lastmile_qr_scan", "android": "https://dc.lft.to/lastmile_qr_scan"}, "is_reserved": 0}, {"lon": -77.05508316666666, "bike_id": "25ea4400d4456c8b6ad2f66943dcf546", "lat": 38.899649333333336, "fusion_lon": 0.0, "fusion_lat": 0.0, "type": "electric_scooter", "name": "25ea4400d4456c8b6ad2f66943dcf546", "is_disabled": 0, "rental_uris": {"ios": "https://dc.lft.to/lastmile_qr_scan", "android": "https://dc.lft.to/lastmile_qr_scan"}, "is_reserved": 0}, {"lon": -77.04476833333334, "bike_id": "54df7529666c64b6757e28db28ca212d", "lat": 38.91943233333333, "fusion_lon": 0.0, "fusion_lat": 0.0, "type": "electric_scooter", "name": "54df7529666c64b6757e28db28ca212d", "is_disabled": 0, "rental_uris": {"ios": "https://dc.lft.to/lastmile_qr_scan", "android": "https://dc.lft.to/lastmile_qr_scan"}, "is_reserved": 0}, {"lon": -76.96551916666667, "bike_id": "bb14bfca34b90dfd645345c6d6e473be", "lat": 38.91854683333333, "fusion_lon": 0.0, "fusion_lat": 0.0, "type": "electric_scooter", "name": "bb14bfca34b90dfd645345c6d6e473be", "is_disabled": 0, "rental_uris": {"ios": "https://dc.lft.to/lastmile_qr_scan", "android": "https://dc.lft.to/lastmile_qr_scan"}, "is_reserved": 0}, {"lon": -77.02401883333333, "bike_id": "847fe0dc1e404a42e1e0c658be3340f1", "lat": 38.921653666666664, "fusion_lon": 0.0, "fusion_lat": 0.0, "type": "electric_scooter", "name": "847fe0dc1e404a42e1e0c658be3340f1", "is_disabled": 0, "rental_uris": {"ios": "https://dc.lft.to/lastmile_qr_scan", "android": "https://dc.lft.to/lastmile_qr_scan"}, "is_reserved": 0}, {"lon": -77.02784233333334, "bike_id": "25f5e26e951ec4c8d7cf8cda27f6be43", "lat": 38.927685333333336, "fusion_lon": 0.0, "fusion_lat": 0.0, "type": "electric_scooter", "name": "25f5e26e951ec4c8d7cf8cda27f6be43", "is_disabled": 0, "rental_uris": {"ios": "https://dc.lft.to/lastmile_qr_scan", "android": "https://dc.lft.to/lastmile_qr_scan"}, "is_reserved": 0}, {"lon": -76.98668316666667, "bike_id": "2841220e1bee474504cdb6c4ba9567a6", "lat": 38.91248216666666, "fusion_lon": 0.0, "fusion_lat": 0.0, "type": "electric_scooter", "name": "2841220e1bee474504cdb6c4ba9567a6", "is_disabled": 0, "rental_uris": {"ios": "https://dc.lft.to/lastmile_qr_scan", "android": "https://dc.lft.to/lastmile_qr_scan"}, "is_reserved": 0}, {"lon": -77.036423, "bike_id": "08598f5646f6bf387d97d53e801709c8", "lat": 38.903559333333334, "fusion_lon": 0.0, "fusion_lat": 0.0, "type": "electric_scooter", "name": "08598f5646f6bf387d97d53e801709c8", "is_disabled": 0, "rental_uris": {"ios": "https://dc.lft.to/lastmile_qr_scan", "android": "https://dc.lft.to/lastmile_qr_scan"}, "is_reserved": 0}, {"lon": -77.00482466666666, "bike_id": "a49c9bb52c6817c9da46322ef5a137bc", "lat": 38.90565616666667, "fusion_lon": 0.0, "fusion_lat": 0.0, "type": "electric_scooter", "name": "a49c9bb52c6817c9da46322ef5a137bc", "is_disabled": 0, "rental_uris": {"ios": "https://dc.lft.to/lastmile_qr_scan", "android": "https://dc.lft.to/lastmile_qr_scan"}, "is_reserved": 0}, {"lon": -77.02505316666667, "bike_id": "c2cb4191ee2472e22cd38a3c33ab41d0", "lat": 38.920749666666666, "fusion_lon": 0.0, "fusion_lat": 0.0, "type": "electric_scooter", "name": "c2cb4191ee2472e22cd38a3c33ab41d0", "is_disabled": 0, "rental_uris": {"ios": "https://dc.lft.to/lastmile_qr_scan", "android": "https://dc.lft.to/lastmile_qr_scan"}, "is_reserved": 0}, {"lon": -77.01530566666666, "bike_id": "4b5fa740353eb8c88eeb9a42bad1fbd9", "lat": 38.90037866666667, "fusion_lon": 0.0, "fusion_lat": 0.0, "type": "electric_scooter", "name": "4b5fa740353eb8c88eeb9a42bad1fbd9", "is_disabled": 0, "rental_uris": {"ios": "https://dc.lft.to/lastmile_qr_scan", "android": "https://dc.lft.to/lastmile_qr_scan"}, "is_reserved": 0}, {"lon": -77.02345333333334, "bike_id": "42ff3246cb667532330aca55ea2effdb", "lat": 38.922557833333336, "fusion_lon": 0.0, "fusion_lat": 0.0, "type": "electric_scooter", "name": "42ff3246cb667532330aca55ea2effdb", "is_disabled": 0, "rental_uris": {"ios": "https://dc.lft.to/lastmile_qr_scan", "android": "https://dc.lft.to/lastmile_qr_scan"}, "is_reserved": 0}, {"lon": -76.986913, "bike_id": "0c3f50f27635dd09b6af70ba9897f432", "lat": 38.912234833333336, "fusion_lon": 0.0, "fusion_lat": 0.0, "type": "electric_scooter", "name": "0c3f50f27635dd09b6af70ba9897f432", "is_disabled": 0, "rental_uris": {"ios": "https://dc.lft.to/lastmile_qr_scan", "android": "https://dc.lft.to/lastmile_qr_scan"}, "is_reserved": 0}, {"lon": -77.02798016666667, "bike_id": "6c33b5a9b0f91a513baf6ce656cbc8ad", "lat": 38.929642, "fusion_lon": 0.0, "fusion_lat": 0.0, "type": "electric_scooter", "name": "6c33b5a9b0f91a513baf6ce656cbc8ad", "is_disabled": 0, "rental_uris": {"ios": "https://dc.lft.to/lastmile_qr_scan", "android": "https://dc.lft.to/lastmile_qr_scan"}, "is_reserved": 0}, {"lon": -77.03975583333333, "bike_id": "6fb1ee4744d4479023f19336211c2edc", "lat": 38.92804433333333, "fusion_lon": 0.0, "fusion_lat": 0.0, "type": "electric_scooter", "name": "6fb1ee4744d4479023f19336211c2edc", "is_disabled": 0, "rental_uris": {"ios": "https://dc.lft.to/lastmile_qr_scan", "android": "https://dc.lft.to/lastmile_qr_scan"}, "is_reserved": 0}, {"lon": -76.985251, "bike_id": "4511328deedf44319abe6fbee7cde487", "lat": 38.86682666666667, "fusion_lon": 0.0, "fusion_lat": 0.0, "type": "electric_scooter", "name": "4511328deedf44319abe6fbee7cde487", "is_disabled": 0, "rental_uris": {"ios": "https://dc.lft.to/lastmile_qr_scan", "android": "https://dc.lft.to/lastmile_qr_scan"}, "is_reserved": 0}, {"lon": -77.0254795, "bike_id": "f5b36c3288605daa738d7d1917e8fb90", "lat": 38.907185166666665, "fusion_lon": 0.0, "fusion_lat": 0.0, "type": "electric_scooter", "name": "f5b36c3288605daa738d7d1917e8fb90", "is_disabled": 0, "rental_uris": {"ios": "https://dc.lft.to/lastmile_qr_scan", "android": "https://dc.lft.to/lastmile_qr_scan"}, "is_reserved": 0}, {"lon": -77.001001, "bike_id": "ba23b8083275ba5ce1b77def3b1e862e", "lat": 38.912546666666664, "fusion_lon": 0.0, "fusion_lat": 0.0, "type": "electric_scooter", "name": "ba23b8083275ba5ce1b77def3b1e862e", "is_disabled": 0, "rental_uris": {"ios": "https://dc.lft.to/lastmile_qr_scan", "android": "https://dc.lft.to/lastmile_qr_scan"}, "is_reserved": 0}, {"lon": -77.03848616666667, "bike_id": "e3d85bd63d86217805356669937baf6f", "lat": 38.9166935, "fusion_lon": 0.0, "fusion_lat": 0.0, "type": "electric_scooter", "name": "e3d85bd63d86217805356669937baf6f", "is_disabled": 0, "rental_uris": {"ios": "https://dc.lft.to/lastmile_qr_scan", "android": "https://dc.lft.to/lastmile_qr_scan"}, "is_reserved": 0}, {"lon": -77.038557, "bike_id": "705209b23580252e654a6ff1f538f729", "lat": 38.916914166666665, "fusion_lon": 0.0, "fusion_lat": 0.0, "type": "electric_scooter", "name": "705209b23580252e654a6ff1f538f729", "is_disabled": 0, "rental_uris": {"ios": "https://dc.lft.to/lastmile_qr_scan", "android": "https://dc.lft.to/lastmile_qr_scan"}, "is_reserved": 0}, {"lon": -77.03206166666666, "bike_id": "697a31aa58b240ff342d1a5cef4bb650", "lat": 38.903616, "fusion_lon": 0.0, "fusion_lat": 0.0, "type": "electric_scooter", "name": "697a31aa58b240ff342d1a5cef4bb650", "is_disabled": 0, "rental_uris": {"ios": "https://dc.lft.to/lastmile_qr_scan", "android": "https://dc.lft.to/lastmile_qr_scan"}, "is_reserved": 0}, {"lon": -76.95005016666667, "bike_id": "0f18b57b7e4ea5193305d16d127d5992", "lat": 38.89379816666667, "fusion_lon": 0.0, "fusion_lat": 0.0, "type": "electric_scooter", "name": "0f18b57b7e4ea5193305d16d127d5992", "is_disabled": 0, "rental_uris": {"ios": "https://dc.lft.to/lastmile_qr_scan", "android": "https://dc.lft.to/lastmile_qr_scan"}, "is_reserved": 0}, {"lon": -77.23319983333333, "bike_id": "bc8d47cec5c33328777946c4357b42c6", "lat": 38.87282033333334, "fusion_lon": 0.0, "fusion_lat": 0.0, "type": "electric_bike", "name": "bc8d47cec5c33328777946c4357b42c6", "is_disabled": 0, "rental_uris": {"ios": "https://dc.lft.to/lastmile_qr_scan", "android": "https://dc.lft.to/lastmile_qr_scan"}, "is_reserved": 0}, {"lon": -76.99446983333333, "bike_id": "d457e889f28faecce497f64d4ea55082", "lat": 38.862788333333334, "fusion_lon": 0.0, "fusion_lat": 0.0, "type": "electric_scooter", "name": "d457e889f28faecce497f64d4ea55082", "is_disabled": 0, "rental_uris": {"ios": "https://dc.lft.to/lastmile_qr_scan", "android": "https://dc.lft.to/lastmile_qr_scan"}, "is_reserved": 0}, {"lon": -77.0304795, "bike_id": "e78433314bf223909f94d5d57e864501", "lat": 38.883501833333334, "fusion_lon": 0.0, "fusion_lat": 0.0, "type": "electric_scooter", "name": "e78433314bf223909f94d5d57e864501", "is_disabled": 0, "rental_uris": {"ios": "https://dc.lft.to/lastmile_qr_scan", "android": "https://dc.lft.to/lastmile_qr_scan"}, "is_reserved": 0}, {"lon": -77.00894533333333, "bike_id": "d8db368d3f8f64f7f5cd123eca3404de", "lat": 38.922774833333335, "fusion_lon": 0.0, "fusion_lat": 0.0, "type": "electric_scooter", "name": "d8db368d3f8f64f7f5cd123eca3404de", "is_disabled": 0, "rental_uris": {"ios": "https://dc.lft.to/lastmile_qr_scan", "android": "https://dc.lft.to/lastmile_qr_scan"}, "is_reserved": 0}, {"lon": -76.96545316666666, "bike_id": "a4d6cc1e912ab6f685d5ab4c4fd0b1fc", "lat": 38.918438333333334, "fusion_lon": 0.0, "fusion_lat": 0.0, "type": "electric_scooter", "name": "a4d6cc1e912ab6f685d5ab4c4fd0b1fc", "is_disabled": 0, "rental_uris": {"ios": "https://dc.lft.to/lastmile_qr_scan", "android": "https://dc.lft.to/lastmile_qr_scan"}, "is_reserved": 0}, {"lon": -76.9888715, "bike_id": "d3c3af49f20b8a46ff5067fb5d3fa6ae", "lat": 38.8665985, "fusion_lon": 0.0, "fusion_lat": 0.0, "type": "electric_scooter", "name": "d3c3af49f20b8a46ff5067fb5d3fa6ae", "is_disabled": 0, "rental_uris": {"ios": "https://dc.lft.to/lastmile_qr_scan", "android": "https://dc.lft.to/lastmile_qr_scan"}, "is_reserved": 0}, {"lon": -76.9823535, "bike_id": "c38b531a023f88053929908599c8c90d", "lat": 38.91674166666667, "fusion_lon": 0.0, "fusion_lat": 0.0, "type": "electric_scooter", "name": "c38b531a023f88053929908599c8c90d", "is_disabled": 0, "rental_uris": {"ios": "https://dc.lft.to/lastmile_qr_scan", "android": "https://dc.lft.to/lastmile_qr_scan"}, "is_reserved": 0}, {"lon": -77.040584, "bike_id": "34945089b2552ca481361b90fcb89785", "lat": 38.908657833333336, "fusion_lon": 0.0, "fusion_lat": 0.0, "type": "electric_bike", "name": "34945089b2552ca481361b90fcb89785", "is_disabled": 0, "rental_uris": {"ios": "https://dc.lft.to/lastmile_qr_scan", "android": "https://dc.lft.to/lastmile_qr_scan"}, "is_reserved": 0}, {"lon": -77.23327966666666, "bike_id": "1f9df7533caf463e695947be755b4bde", "lat": 38.872741, "fusion_lon": 0.0, "fusion_lat": 0.0, "type": "electric_bike", "name": "1f9df7533caf463e695947be755b4bde", "is_disabled": 0, "rental_uris": {"ios": "https://dc.lft.to/lastmile_qr_scan", "android": "https://dc.lft.to/lastmile_qr_scan"}, "is_reserved": 0}, {"lon": -76.94193583333333, "bike_id": "c9003f90bbb5742fa6dfc1bd2dae15c9", "lat": 38.893086, "fusion_lon": 0.0, "fusion_lat": 0.0, "type": "electric_bike", "name": "c9003f90bbb5742fa6dfc1bd2dae15c9", "is_disabled": 0, "rental_uris": {"ios": "https://dc.lft.to/lastmile_qr_scan", "android": "https://dc.lft.to/lastmile_qr_scan"}, "is_reserved": 0}, {"lon": -77.01624466666667, "bike_id": "2538897b76f9216504f7067c655d690e", "lat": 38.908695, "fusion_lon": 0.0, "fusion_lat": 0.0, "type": "electric_scooter", "name": "2538897b76f9216504f7067c655d690e", "is_disabled": 0, "rental_uris": {"ios": "https://dc.lft.to/lastmile_qr_scan", "android": "https://dc.lft.to/lastmile_qr_scan"}, "is_reserved": 0}, {"lon": -77.0486485, "bike_id": "1b09ee4978a42a30d0be91ae0ab8ba76", "lat": 38.90959316666667, "fusion_lon": 0.0, "fusion_lat": 0.0, "type": "electric_scooter", "name": "1b09ee4978a42a30d0be91ae0ab8ba76", "is_disabled": 0, "rental_uris": {"ios": "https://dc.lft.to/lastmile_qr_scan", "android": "https://dc.lft.to/lastmile_qr_scan"}, "is_reserved": 0}, {"lon": -76.99873933333333, "bike_id": "bbf00bd06de2a9ebee71d368547247ee", "lat": 38.900294833333334, "fusion_lon": 0.0, "fusion_lat": 0.0, "type": "electric_scooter", "name": "bbf00bd06de2a9ebee71d368547247ee", "is_disabled": 0, "rental_uris": {"ios": "https://dc.lft.to/lastmile_qr_scan", "android": "https://dc.lft.to/lastmile_qr_scan"}, "is_reserved": 0}, {"lon": -77.02810616666666, "bike_id": "e0a7207264c1214158ed404f2a69a6f8", "lat": 38.95649316666667, "fusion_lon": 0.0, "fusion_lat": 0.0, "type": "electric_bike", "name": "e0a7207264c1214158ed404f2a69a6f8", "is_disabled": 0, "rental_uris": {"ios": "https://dc.lft.to/lastmile_qr_scan", "android": "https://dc.lft.to/lastmile_qr_scan"}, "is_reserved": 0}, {"lon": -77.00212083333334, "bike_id": "7a6307afb57708810856dbdd6fcb40c9", "lat": 38.91465266666667, "fusion_lon": 0.0, "fusion_lat": 0.0, "type": "electric_scooter", "name": "7a6307afb57708810856dbdd6fcb40c9", "is_disabled": 0, "rental_uris": {"ios": "https://dc.lft.to/lastmile_qr_scan", "android": "https://dc.lft.to/lastmile_qr_scan"}, "is_reserved": 0}, {"lon": -77.04496033333334, "bike_id": "dc616b0321c69baee166b16211a82557", "lat": 38.91362816666667, "fusion_lon": 0.0, "fusion_lat": 0.0, "type": "electric_scooter", "name": "dc616b0321c69baee166b16211a82557", "is_disabled": 0, "rental_uris": {"ios": "https://dc.lft.to/lastmile_qr_scan", "android": "https://dc.lft.to/lastmile_qr_scan"}, "is_reserved": 0}, {"lon": -77.04163666666666, "bike_id": "2fed4ac9d6050cccd874ca5c63dfacdd", "lat": 38.93152716666667, "fusion_lon": 0.0, "fusion_lat": 0.0, "type": "electric_scooter", "name": "2fed4ac9d6050cccd874ca5c63dfacdd", "is_disabled": 0, "rental_uris": {"ios": "https://dc.lft.to/lastmile_qr_scan", "android": "https://dc.lft.to/lastmile_qr_scan"}, "is_reserved": 0}, {"lon": -77.026036, "bike_id": "c1d3b087ff1895a6fd0206f688f57fa8", "lat": 38.905795499999996, "fusion_lon": 0.0, "fusion_lat": 0.0, "type": "electric_scooter", "name": "c1d3b087ff1895a6fd0206f688f57fa8", "is_disabled": 0, "rental_uris": {"ios": "https://dc.lft.to/lastmile_qr_scan", "android": "https://dc.lft.to/lastmile_qr_scan"}, "is_reserved": 0}, {"lon": -77.034953, "bike_id": "111c9a01a5998025e340f972a2cd9c99", "lat": 38.93277616666666, "fusion_lon": 0.0, "fusion_lat": 0.0, "type": "electric_scooter", "name": "111c9a01a5998025e340f972a2cd9c99", "is_disabled": 0, "rental_uris": {"ios": "https://dc.lft.to/lastmile_qr_scan", "android": "https://dc.lft.to/lastmile_qr_scan"}, "is_reserved": 0}, {"lon": -77.0409615, "bike_id": "ca1b201195fc386d95018601394d0e03", "lat": 38.920395166666665, "fusion_lon": 0.0, "fusion_lat": 0.0, "type": "electric_scooter", "name": "ca1b201195fc386d95018601394d0e03", "is_disabled": 0, "rental_uris": {"ios": "https://dc.lft.to/lastmile_qr_scan", "android": "https://dc.lft.to/lastmile_qr_scan"}, "is_reserved": 0}, {"lon": -77.033391, "bike_id": "cf1e50acf3ea78d235b5774b7a993237", "lat": 38.947188833333335, "fusion_lon": 0.0, "fusion_lat": 0.0, "type": "electric_scooter", "name": "cf1e50acf3ea78d235b5774b7a993237", "is_disabled": 0, "rental_uris": {"ios": "https://dc.lft.to/lastmile_qr_scan", "android": "https://dc.lft.to/lastmile_qr_scan"}, "is_reserved": 0}, {"lon": -77.03168166666667, "bike_id": "8b956ab7cf01a5ab5e9e70ad4f88d655", "lat": 38.9141845, "fusion_lon": 0.0, "fusion_lat": 0.0, "type": "electric_scooter", "name": "8b956ab7cf01a5ab5e9e70ad4f88d655", "is_disabled": 0, "rental_uris": {"ios": "https://dc.lft.to/lastmile_qr_scan", "android": "https://dc.lft.to/lastmile_qr_scan"}, "is_reserved": 0}, {"lon": -76.9835985, "bike_id": "1f814d8c6db32a0f308378b4c1aeaae5", "lat": 38.861096, "fusion_lon": 0.0, "fusion_lat": 0.0, "type": "electric_scooter", "name": "1f814d8c6db32a0f308378b4c1aeaae5", "is_disabled": 0, "rental_uris": {"ios": "https://dc.lft.to/lastmile_qr_scan", "android": "https://dc.lft.to/lastmile_qr_scan"}, "is_reserved": 0}, {"lon": -77.04561416666667, "bike_id": "a7237be7119622d5ced643abe5e451c0", "lat": 38.91363616666667, "fusion_lon": 0.0, "fusion_lat": 0.0, "type": "electric_scooter", "name": "a7237be7119622d5ced643abe5e451c0", "is_disabled": 0, "rental_uris": {"ios": "https://dc.lft.to/lastmile_qr_scan", "android": "https://dc.lft.to/lastmile_qr_scan"}, "is_reserved": 0}, {"lon": -77.0377125, "bike_id": "40e7b88f3054b1c87f41b99b376ab342", "lat": 38.907777833333334, "fusion_lon": 0.0, "fusion_lat": 0.0, "type": "electric_scooter", "name": "40e7b88f3054b1c87f41b99b376ab342", "is_disabled": 0, "rental_uris": {"ios": "https://dc.lft.to/lastmile_qr_scan", "android": "https://dc.lft.to/lastmile_qr_scan"}, "is_reserved": 0}, {"lon": -77.038782, "bike_id": "f1750c34d0053bc6afc2e783cae1b212", "lat": 38.911112833333334, "fusion_lon": 0.0, "fusion_lat": 0.0, "type": "electric_scooter", "name": "f1750c34d0053bc6afc2e783cae1b212", "is_disabled": 0, "rental_uris": {"ios": "https://dc.lft.to/lastmile_qr_scan", "android": "https://dc.lft.to/lastmile_qr_scan"}, "is_reserved": 0}, {"lon": -77.02485566666667, "bike_id": "ce4e6d2f41f51fea20248544bb9e21f8", "lat": 38.93095983333333, "fusion_lon": 0.0, "fusion_lat": 0.0, "type": "electric_scooter", "name": "ce4e6d2f41f51fea20248544bb9e21f8", "is_disabled": 0, "rental_uris": {"ios": "https://dc.lft.to/lastmile_qr_scan", "android": "https://dc.lft.to/lastmile_qr_scan"}, "is_reserved": 0}, {"lon": -77.02951066666667, "bike_id": "0b43608d71ece8bbe7c44d8603854fac", "lat": 38.905054, "fusion_lon": 0.0, "fusion_lat": 0.0, "type": "electric_scooter", "name": "0b43608d71ece8bbe7c44d8603854fac", "is_disabled": 0, "rental_uris": {"ios": "https://dc.lft.to/lastmile_qr_scan", "android": "https://dc.lft.to/lastmile_qr_scan"}, "is_reserved": 0}, {"lon": -77.0081335, "bike_id": "ea307ca0a0a2149efe1798963a6b252e", "lat": 38.91695583333333, "fusion_lon": 0.0, "fusion_lat": 0.0, "type": "electric_scooter", "name": "ea307ca0a0a2149efe1798963a6b252e", "is_disabled": 0, "rental_uris": {"ios": "https://dc.lft.to/lastmile_qr_scan", "android": "https://dc.lft.to/lastmile_qr_scan"}, "is_reserved": 0}, {"lon": -76.93371833333333, "bike_id": "a952ea0fdabdb67bbd878108622f67fd", "lat": 38.899149, "fusion_lon": 0.0, "fusion_lat": 0.0, "type": "electric_scooter", "name": "a952ea0fdabdb67bbd878108622f67fd", "is_disabled": 0, "rental_uris": {"ios": "https://dc.lft.to/lastmile_qr_scan", "android": "https://dc.lft.to/lastmile_qr_scan"}, "is_reserved": 0}, {"lon": -77.016082, "bike_id": "d2cf45977b3a88dbb479124d96b8cb45", "lat": 38.910624166666665, "fusion_lon": 0.0, "fusion_lat": 0.0, "type": "electric_scooter", "name": "d2cf45977b3a88dbb479124d96b8cb45", "is_disabled": 0, "rental_uris": {"ios": "https://dc.lft.to/lastmile_qr_scan", "android": "https://dc.lft.to/lastmile_qr_scan"}, "is_reserved": 0}, {"lon": -76.93179716666667, "bike_id": "6e5bae8886fdc684a004a1a37b9b8cd3", "lat": 38.89884033333333, "fusion_lon": 0.0, "fusion_lat": 0.0, "type": "electric_scooter", "name": "6e5bae8886fdc684a004a1a37b9b8cd3", "is_disabled": 0, "rental_uris": {"ios": "https://dc.lft.to/lastmile_qr_scan", "android": "https://dc.lft.to/lastmile_qr_scan"}, "is_reserved": 0}, {"lon": -77.02956716666667, "bike_id": "31506f020f3604c82787e9ff68a53e7e", "lat": 38.907448, "fusion_lon": 0.0, "fusion_lat": 0.0, "type": "electric_scooter", "name": "31506f020f3604c82787e9ff68a53e7e", "is_disabled": 0, "rental_uris": {"ios": "https://dc.lft.to/lastmile_qr_scan", "android": "https://dc.lft.to/lastmile_qr_scan"}, "is_reserved": 0}, {"lon": -76.9973175, "bike_id": "0470cca162ab30dede772de5b372970d", "lat": 38.90035733333333, "fusion_lon": 0.0, "fusion_lat": 0.0, "type": "electric_scooter", "name": "0470cca162ab30dede772de5b372970d", "is_disabled": 0, "rental_uris": {"ios": "https://dc.lft.to/lastmile_qr_scan", "android": "https://dc.lft.to/lastmile_qr_scan"}, "is_reserved": 0}, {"lon": -77.015772, "bike_id": "c20a0f86ae8eaa56880e9d0de30f2ae8", "lat": 38.894730333333335, "fusion_lon": 0.0, "fusion_lat": 0.0, "type": "electric_scooter", "name": "c20a0f86ae8eaa56880e9d0de30f2ae8", "is_disabled": 0, "rental_uris": {"ios": "https://dc.lft.to/lastmile_qr_scan", "android": "https://dc.lft.to/lastmile_qr_scan"}, "is_reserved": 0}, {"lon": -76.9974445, "bike_id": "0f08a28d3d9c8170fcf12dfeb2f723da", "lat": 38.909641666666666, "fusion_lon": 0.0, "fusion_lat": 0.0, "type": "electric_scooter", "name": "0f08a28d3d9c8170fcf12dfeb2f723da", "is_disabled": 0, "rental_uris": {"ios": "https://dc.lft.to/lastmile_qr_scan", "android": "https://dc.lft.to/lastmile_qr_scan"}, "is_reserved": 0}, {"lon": -76.99611333333333, "bike_id": "5416818569215d765ecf27e9798af787", "lat": 38.88312966666667, "fusion_lon": 0.0, "fusion_lat": 0.0, "type": "electric_scooter", "name": "5416818569215d765ecf27e9798af787", "is_disabled": 0, "rental_uris": {"ios": "https://dc.lft.to/lastmile_qr_scan", "android": "https://dc.lft.to/lastmile_qr_scan"}, "is_reserved": 0}, {"lon": -76.95192683333333, "bike_id": "0cfb8070e1b840c283541aaef8b8d073", "lat": 38.90004233333333, "fusion_lon": 0.0, "fusion_lat": 0.0, "type": "electric_scooter", "name": "0cfb8070e1b840c283541aaef8b8d073", "is_disabled": 0, "rental_uris": {"ios": "https://dc.lft.to/lastmile_qr_scan", "android": "https://dc.lft.to/lastmile_qr_scan"}, "is_reserved": 0}, {"lon": -77.0238945, "bike_id": "bc92c0f8d1ad74f513872d3f1420407c", "lat": 38.9096415, "fusion_lon": 0.0, "fusion_lat": 0.0, "type": "electric_scooter", "name": "bc92c0f8d1ad74f513872d3f1420407c", "is_disabled": 0, "rental_uris": {"ios": "https://dc.lft.to/lastmile_qr_scan", "android": "https://dc.lft.to/lastmile_qr_scan"}, "is_reserved": 0}, {"lon": -77.04489016666666, "bike_id": "7de487db117633fb6dec2a733c9238a8", "lat": 38.919443333333334, "fusion_lon": 0.0, "fusion_lat": 0.0, "type": "electric_scooter", "name": "7de487db117633fb6dec2a733c9238a8", "is_disabled": 0, "rental_uris": {"ios": "https://dc.lft.to/lastmile_qr_scan", "android": "https://dc.lft.to/lastmile_qr_scan"}, "is_reserved": 0}, {"lon": -77.04447, "bike_id": "1890f92442ba55863cbabb346378e679", "lat": 38.91938916666667, "fusion_lon": 0.0, "fusion_lat": 0.0, "type": "electric_scooter", "name": "1890f92442ba55863cbabb346378e679", "is_disabled": 0, "rental_uris": {"ios": "https://dc.lft.to/lastmile_qr_scan", "android": "https://dc.lft.to/lastmile_qr_scan"}, "is_reserved": 0}, {"lon": -76.99567866666666, "bike_id": "a53b2bd93d71387c2a44e9c6cca4be7b", "lat": 38.851808, "fusion_lon": 0.0, "fusion_lat": 0.0, "type": "electric_bike", "name": "a53b2bd93d71387c2a44e9c6cca4be7b", "is_disabled": 0, "rental_uris": {"ios": "https://dc.lft.to/lastmile_qr_scan", "android": "https://dc.lft.to/lastmile_qr_scan"}, "is_reserved": 0}, {"lon": -77.02211566666666, "bike_id": "342eee3891d3b59019be3713b3eb3e3d", "lat": 38.89354766666666, "fusion_lon": 0.0, "fusion_lat": 0.0, "type": "electric_scooter", "name": "342eee3891d3b59019be3713b3eb3e3d", "is_disabled": 0, "rental_uris": {"ios": "https://dc.lft.to/lastmile_qr_scan", "android": "https://dc.lft.to/lastmile_qr_scan"}, "is_reserved": 0}, {"lon": -76.95751283333334, "bike_id": "52071bdfd94df7e2db610d1dc5bce5c1", "lat": 38.8842775, "fusion_lon": 0.0, "fusion_lat": 0.0, "type": "electric_scooter", "name": "52071bdfd94df7e2db610d1dc5bce5c1", "is_disabled": 0, "rental_uris": {"ios": "https://dc.lft.to/lastmile_qr_scan", "android": "https://dc.lft.to/lastmile_qr_scan"}, "is_reserved": 0}, {"lon": -77.050171, "bike_id": "760f4c7ceab4e2e70e90eb6db9fddeb4", "lat": 38.90155333333333, "fusion_lon": 0.0, "fusion_lat": 0.0, "type": "electric_scooter", "name": "760f4c7ceab4e2e70e90eb6db9fddeb4", "is_disabled": 0, "rental_uris": {"ios": "https://dc.lft.to/lastmile_qr_scan", "android": "https://dc.lft.to/lastmile_qr_scan"}, "is_reserved": 0}, {"lon": -76.98560333333333, "bike_id": "93253315bdec1eb4272e4da863a0a687", "lat": 38.896216, "fusion_lon": 0.0, "fusion_lat": 0.0, "type": "electric_scooter", "name": "93253315bdec1eb4272e4da863a0a687", "is_disabled": 0, "rental_uris": {"ios": "https://dc.lft.to/lastmile_qr_scan", "android": "https://dc.lft.to/lastmile_qr_scan"}, "is_reserved": 0}, {"lon": -77.01976916666666, "bike_id": "06a2b663543308fe8ba6d1cd5c2c6bd3", "lat": 38.935904666666666, "fusion_lon": 0.0, "fusion_lat": 0.0, "type": "electric_scooter", "name": "06a2b663543308fe8ba6d1cd5c2c6bd3", "is_disabled": 0, "rental_uris": {"ios": "https://dc.lft.to/lastmile_qr_scan", "android": "https://dc.lft.to/lastmile_qr_scan"}, "is_reserved": 0}, {"lon": -77.03041116666667, "bike_id": "00889fcd18fb0cf8dec332f6236b5620", "lat": 38.87837416666667, "fusion_lon": 0.0, "fusion_lat": 0.0, "type": "electric_scooter", "name": "00889fcd18fb0cf8dec332f6236b5620", "is_disabled": 0, "rental_uris": {"ios": "https://dc.lft.to/lastmile_qr_scan", "android": "https://dc.lft.to/lastmile_qr_scan"}, "is_reserved": 0}, {"lon": -77.01998883333333, "bike_id": "ee422f2b0500697c73e6baca8ba4ff13", "lat": 38.924100833333334, "fusion_lon": 0.0, "fusion_lat": 0.0, "type": "electric_scooter", "name": "ee422f2b0500697c73e6baca8ba4ff13", "is_disabled": 0, "rental_uris": {"ios": "https://dc.lft.to/lastmile_qr_scan", "android": "https://dc.lft.to/lastmile_qr_scan"}, "is_reserved": 0}, {"lon": -77.0258025, "bike_id": "7268edaf3f0c07fde01a1af3f960e305", "lat": 38.887421, "fusion_lon": 0.0, "fusion_lat": 0.0, "type": "electric_scooter", "name": "7268edaf3f0c07fde01a1af3f960e305", "is_disabled": 0, "rental_uris": {"ios": "https://dc.lft.to/lastmile_qr_scan", "android": "https://dc.lft.to/lastmile_qr_scan"}, "is_reserved": 0}, {"lon": -76.990031, "bike_id": "6e139070154b85070f6a6492f186c9f5", "lat": 38.865053333333336, "fusion_lon": 0.0, "fusion_lat": 0.0, "type": "electric_scooter", "name": "6e139070154b85070f6a6492f186c9f5", "is_disabled": 0, "rental_uris": {"ios": "https://dc.lft.to/lastmile_qr_scan", "android": "https://dc.lft.to/lastmile_qr_scan"}, "is_reserved": 0}, {"lon": -76.93733783333333, "bike_id": "dd6915e72fa5c08848d7f1bb9a5a0e89", "lat": 38.89017416666667, "fusion_lon": 0.0, "fusion_lat": 0.0, "type": "electric_scooter", "name": "dd6915e72fa5c08848d7f1bb9a5a0e89", "is_disabled": 0, "rental_uris": {"ios": "https://dc.lft.to/lastmile_qr_scan", "android": "https://dc.lft.to/lastmile_qr_scan"}, "is_reserved": 0}, {"lon": -76.98943333333334, "bike_id": "ca9c25fdcc80e2279013327dee2bec92", "lat": 38.901919, "fusion_lon": 0.0, "fusion_lat": 0.0, "type": "electric_scooter", "name": "ca9c25fdcc80e2279013327dee2bec92", "is_disabled": 0, "rental_uris": {"ios": "https://dc.lft.to/lastmile_qr_scan", "android": "https://dc.lft.to/lastmile_qr_scan"}, "is_reserved": 0}, {"lon": -77.02722866666667, "bike_id": "b3930f2aca2c4d5a68c635dbe36c90f8", "lat": 38.8978675, "fusion_lon": 0.0, "fusion_lat": 0.0, "type": "electric_scooter", "name": "b3930f2aca2c4d5a68c635dbe36c90f8", "is_disabled": 0, "rental_uris": {"ios": "https://dc.lft.to/lastmile_qr_scan", "android": "https://dc.lft.to/lastmile_qr_scan"}, "is_reserved": 0}, {"lon": -77.02152816666667, "bike_id": "784941b7107d88ef57ca24271866e59c", "lat": 38.897332166666665, "fusion_lon": 0.0, "fusion_lat": 0.0, "type": "electric_scooter", "name": "784941b7107d88ef57ca24271866e59c", "is_disabled": 0, "rental_uris": {"ios": "https://dc.lft.to/lastmile_qr_scan", "android": "https://dc.lft.to/lastmile_qr_scan"}, "is_reserved": 0}, {"lon": -77.02577283333333, "bike_id": "6fb4cd404ee8cd67c68190cb1aa94b8d", "lat": 38.90576383333333, "fusion_lon": 0.0, "fusion_lat": 0.0, "type": "electric_scooter", "name": "6fb4cd404ee8cd67c68190cb1aa94b8d", "is_disabled": 0, "rental_uris": {"ios": "https://dc.lft.to/lastmile_qr_scan", "android": "https://dc.lft.to/lastmile_qr_scan"}, "is_reserved": 0}, {"lon": -77.05265733333333, "bike_id": "ccbddac28e4b39c03d5c6f5bdd3401c3", "lat": 38.925685666666666, "fusion_lon": 0.0, "fusion_lat": 0.0, "type": "electric_scooter", "name": "ccbddac28e4b39c03d5c6f5bdd3401c3", "is_disabled": 0, "rental_uris": {"ios": "https://dc.lft.to/lastmile_qr_scan", "android": "https://dc.lft.to/lastmile_qr_scan"}, "is_reserved": 0}, {"lon": -77.031695, "bike_id": "3ec838c12108319637df6fa8d5562b66", "lat": 38.93598816666667, "fusion_lon": 0.0, "fusion_lat": 0.0, "type": "electric_scooter", "name": "3ec838c12108319637df6fa8d5562b66", "is_disabled": 0, "rental_uris": {"ios": "https://dc.lft.to/lastmile_qr_scan", "android": "https://dc.lft.to/lastmile_qr_scan"}, "is_reserved": 0}, {"lon": -76.962573, "bike_id": "f32eb9e6119877a7746fb6ce2c69f79c", "lat": 38.88249316666667, "fusion_lon": 0.0, "fusion_lat": 0.0, "type": "electric_bike", "name": "f32eb9e6119877a7746fb6ce2c69f79c", "is_disabled": 0, "rental_uris": {"ios": "https://dc.lft.to/lastmile_qr_scan", "android": "https://dc.lft.to/lastmile_qr_scan"}, "is_reserved": 0}, {"lon": -77.0317985, "bike_id": "9bcd6b7d254c389e457b07ad7a91a072", "lat": 38.929096333333334, "fusion_lon": 0.0, "fusion_lat": 0.0, "type": "electric_scooter", "name": "9bcd6b7d254c389e457b07ad7a91a072", "is_disabled": 0, "rental_uris": {"ios": "https://dc.lft.to/lastmile_qr_scan", "android": "https://dc.lft.to/lastmile_qr_scan"}, "is_reserved": 0}, {"lon": -77.03442483333333, "bike_id": "51780f035e07ec77f3302bfbe23eb2e8", "lat": 38.910127333333335, "fusion_lon": 0.0, "fusion_lat": 0.0, "type": "electric_scooter", "name": "51780f035e07ec77f3302bfbe23eb2e8", "is_disabled": 0, "rental_uris": {"ios": "https://dc.lft.to/lastmile_qr_scan", "android": "https://dc.lft.to/lastmile_qr_scan"}, "is_reserved": 0}, {"lon": -77.00659133333333, "bike_id": "7a22fc822a0d6ef9ca5e4c92812d9d05", "lat": 38.944619833333334, "fusion_lon": 0.0, "fusion_lat": 0.0, "type": "electric_scooter", "name": "7a22fc822a0d6ef9ca5e4c92812d9d05", "is_disabled": 0, "rental_uris": {"ios": "https://dc.lft.to/lastmile_qr_scan", "android": "https://dc.lft.to/lastmile_qr_scan"}, "is_reserved": 0}, {"lon": -77.00480333333333, "bike_id": "d354492d9004e59dab4ff74fb7e0683d", "lat": 38.895853833333334, "fusion_lon": 0.0, "fusion_lat": 0.0, "type": "electric_scooter", "name": "d354492d9004e59dab4ff74fb7e0683d", "is_disabled": 0, "rental_uris": {"ios": "https://dc.lft.to/lastmile_qr_scan", "android": "https://dc.lft.to/lastmile_qr_scan"}, "is_reserved": 0}, {"lon": -77.024003, "bike_id": "f02a6b65e4e5eeba1e3a6ef2419325d2", "lat": 38.920153166666665, "fusion_lon": 0.0, "fusion_lat": 0.0, "type": "electric_scooter", "name": "f02a6b65e4e5eeba1e3a6ef2419325d2", "is_disabled": 0, "rental_uris": {"ios": "https://dc.lft.to/lastmile_qr_scan", "android": "https://dc.lft.to/lastmile_qr_scan"}, "is_reserved": 0}, {"lon": -76.98757966666666, "bike_id": "543ed72057f5e1e0b15342217f8f2052", "lat": 38.858103166666666, "fusion_lon": 0.0, "fusion_lat": 0.0, "type": "electric_bike", "name": "543ed72057f5e1e0b15342217f8f2052", "is_disabled": 0, "rental_uris": {"ios": "https://dc.lft.to/lastmile_qr_scan", "android": "https://dc.lft.to/lastmile_qr_scan"}, "is_reserved": 0}, {"lon": -77.00200716666667, "bike_id": "ccbb80f8d28007c1f75a4b1ec24cfe40", "lat": 38.891109, "fusion_lon": 0.0, "fusion_lat": 0.0, "type": "electric_scooter", "name": "ccbb80f8d28007c1f75a4b1ec24cfe40", "is_disabled": 0, "rental_uris": {"ios": "https://dc.lft.to/lastmile_qr_scan", "android": "https://dc.lft.to/lastmile_qr_scan"}, "is_reserved": 0}, {"lon": -77.18562366666667, "bike_id": "af403f7566380eb273646b43cb67dbe5", "lat": 39.099758666666666, "fusion_lon": 0.0, "fusion_lat": 0.0, "type": "electric_bike", "name": "af403f7566380eb273646b43cb67dbe5", "is_disabled": 0, "rental_uris": {"ios": "https://dc.lft.to/lastmile_qr_scan", "android": "https://dc.lft.to/lastmile_qr_scan"}, "is_reserved": 0}, {"lon": -77.02382783333333, "bike_id": "7b08a68741611f137cd752ad07b0fe4d", "lat": 38.907332, "fusion_lon": 0.0, "fusion_lat": 0.0, "type": "electric_scooter", "name": "7b08a68741611f137cd752ad07b0fe4d", "is_disabled": 0, "rental_uris": {"ios": "https://dc.lft.to/lastmile_qr_scan", "android": "https://dc.lft.to/lastmile_qr_scan"}, "is_reserved": 0}, {"lon": -76.978418, "bike_id": "2879aefd15aa28a9d94b9f8d6aa45c32", "lat": 38.86571383333333, "fusion_lon": 0.0, "fusion_lat": 0.0, "type": "electric_scooter", "name": "2879aefd15aa28a9d94b9f8d6aa45c32", "is_disabled": 0, "rental_uris": {"ios": "https://dc.lft.to/lastmile_qr_scan", "android": "https://dc.lft.to/lastmile_qr_scan"}, "is_reserved": 0}, {"lon": -76.94894533333333, "bike_id": "f41ce3f57e82365a23a0c5848d51cc0e", "lat": 38.8953355, "fusion_lon": 0.0, "fusion_lat": 0.0, "type": "electric_scooter", "name": "f41ce3f57e82365a23a0c5848d51cc0e", "is_disabled": 0, "rental_uris": {"ios": "https://dc.lft.to/lastmile_qr_scan", "android": "https://dc.lft.to/lastmile_qr_scan"}, "is_reserved": 0}, {"lon": -76.9700595, "bike_id": "4d0d25a5c851de75085db5bf82a05e54", "lat": 38.863706666666666, "fusion_lon": 0.0, "fusion_lat": 0.0, "type": "electric_bike", "name": "4d0d25a5c851de75085db5bf82a05e54", "is_disabled": 0, "rental_uris": {"ios": "https://dc.lft.to/lastmile_qr_scan", "android": "https://dc.lft.to/lastmile_qr_scan"}, "is_reserved": 0}, {"lon": -77.02472333333333, "bike_id": "9bb431bf4fd9efeb85d58fedd5b9dfb1", "lat": 38.92596116666667, "fusion_lon": 0.0, "fusion_lat": 0.0, "type": "electric_scooter", "name": "9bb431bf4fd9efeb85d58fedd5b9dfb1", "is_disabled": 0, "rental_uris": {"ios": "https://dc.lft.to/lastmile_qr_scan", "android": "https://dc.lft.to/lastmile_qr_scan"}, "is_reserved": 0}, {"lon": -77.02441016666667, "bike_id": "996ae51acebf2056c9e50617f76322b9", "lat": 38.9360185, "fusion_lon": 0.0, "fusion_lat": 0.0, "type": "electric_scooter", "name": "996ae51acebf2056c9e50617f76322b9", "is_disabled": 0, "rental_uris": {"ios": "https://dc.lft.to/lastmile_qr_scan", "android": "https://dc.lft.to/lastmile_qr_scan"}, "is_reserved": 0}, {"lon": -77.038971, "bike_id": "822471f97e7a735208206f0396a4673d", "lat": 38.9233395, "fusion_lon": 0.0, "fusion_lat": 0.0, "type": "electric_scooter", "name": "822471f97e7a735208206f0396a4673d", "is_disabled": 0, "rental_uris": {"ios": "https://dc.lft.to/lastmile_qr_scan", "android": "https://dc.lft.to/lastmile_qr_scan"}, "is_reserved": 0}, {"lon": -77.02814016666666, "bike_id": "fa126ef185cb1c66d700086e911835c5", "lat": 38.9419765, "fusion_lon": 0.0, "fusion_lat": 0.0, "type": "electric_scooter", "name": "fa126ef185cb1c66d700086e911835c5", "is_disabled": 0, "rental_uris": {"ios": "https://dc.lft.to/lastmile_qr_scan", "android": "https://dc.lft.to/lastmile_qr_scan"}, "is_reserved": 0}, {"lon": -77.02703516666666, "bike_id": "8680392e6637f3f43f595d1218ea9531", "lat": 38.8971895, "fusion_lon": 0.0, "fusion_lat": 0.0, "type": "electric_scooter", "name": "8680392e6637f3f43f595d1218ea9531", "is_disabled": 0, "rental_uris": {"ios": "https://dc.lft.to/lastmile_qr_scan", "android": "https://dc.lft.to/lastmile_qr_scan"}, "is_reserved": 0}, {"lon": -77.02682616666667, "bike_id": "629a7c33c94bce414712eb64c028d8e7", "lat": 38.89555983333333, "fusion_lon": 0.0, "fusion_lat": 0.0, "type": "electric_scooter", "name": "629a7c33c94bce414712eb64c028d8e7", "is_disabled": 0, "rental_uris": {"ios": "https://dc.lft.to/lastmile_qr_scan", "android": "https://dc.lft.to/lastmile_qr_scan"}, "is_reserved": 0}, {"lon": -77.0359285, "bike_id": "bd4a3338fa83651e301b1bc6aed78e2b", "lat": 38.91775333333333, "fusion_lon": 0.0, "fusion_lat": 0.0, "type": "electric_scooter", "name": "bd4a3338fa83651e301b1bc6aed78e2b", "is_disabled": 0, "rental_uris": {"ios": "https://dc.lft.to/lastmile_qr_scan", "android": "https://dc.lft.to/lastmile_qr_scan"}, "is_reserved": 0}, {"lon": -77.014134, "bike_id": "f35a04f59d2cea752f7dc932f73c105c", "lat": 38.92872783333333, "fusion_lon": 0.0, "fusion_lat": 0.0, "type": "electric_scooter", "name": "f35a04f59d2cea752f7dc932f73c105c", "is_disabled": 0, "rental_uris": {"ios": "https://dc.lft.to/lastmile_qr_scan", "android": "https://dc.lft.to/lastmile_qr_scan"}, "is_reserved": 0}, {"lon": -77.04510816666667, "bike_id": "81aeb0f6e5d69d78a2d1c21f11f90a2f", "lat": 38.88601716666667, "fusion_lon": 0.0, "fusion_lat": 0.0, "type": "electric_scooter", "name": "81aeb0f6e5d69d78a2d1c21f11f90a2f", "is_disabled": 0, "rental_uris": {"ios": "https://dc.lft.to/lastmile_qr_scan", "android": "https://dc.lft.to/lastmile_qr_scan"}, "is_reserved": 0}, {"lon": -77.03311883333333, "bike_id": "af60f74d68eed40b6ad166cd09885001", "lat": 38.896219333333335, "fusion_lon": 0.0, "fusion_lat": 0.0, "type": "electric_scooter", "name": "af60f74d68eed40b6ad166cd09885001", "is_disabled": 0, "rental_uris": {"ios": "https://dc.lft.to/lastmile_qr_scan", "android": "https://dc.lft.to/lastmile_qr_scan"}, "is_reserved": 0}, {"lon": -77.03884066666667, "bike_id": "c4b80a2a140e2dc735e3a2654b4c0389", "lat": 38.92020433333333, "fusion_lon": 0.0, "fusion_lat": 0.0, "type": "electric_scooter", "name": "c4b80a2a140e2dc735e3a2654b4c0389", "is_disabled": 0, "rental_uris": {"ios": "https://dc.lft.to/lastmile_qr_scan", "android": "https://dc.lft.to/lastmile_qr_scan"}, "is_reserved": 0}, {"lon": -77.02718316666666, "bike_id": "55856f5cc271d82480986cdd3a4f9108", "lat": 38.92768733333333, "fusion_lon": 0.0, "fusion_lat": 0.0, "type": "electric_scooter", "name": "55856f5cc271d82480986cdd3a4f9108", "is_disabled": 0, "rental_uris": {"ios": "https://dc.lft.to/lastmile_qr_scan", "android": "https://dc.lft.to/lastmile_qr_scan"}, "is_reserved": 0}, {"lon": -77.03662816666667, "bike_id": "decce11ad8f33fa3e4fe5f8d757bed99", "lat": 38.91752266666667, "fusion_lon": 0.0, "fusion_lat": 0.0, "type": "electric_scooter", "name": "decce11ad8f33fa3e4fe5f8d757bed99", "is_disabled": 0, "rental_uris": {"ios": "https://dc.lft.to/lastmile_qr_scan", "android": "https://dc.lft.to/lastmile_qr_scan"}, "is_reserved": 0}, {"lon": -77.03578183333333, "bike_id": "7d604bde8bd80158e5a16935378c6f40", "lat": 38.91765983333333, "fusion_lon": 0.0, "fusion_lat": 0.0, "type": "electric_scooter", "name": "7d604bde8bd80158e5a16935378c6f40", "is_disabled": 0, "rental_uris": {"ios": "https://dc.lft.to/lastmile_qr_scan", "android": "https://dc.lft.to/lastmile_qr_scan"}, "is_reserved": 0}, {"lon": -76.92996733333334, "bike_id": "ed6048757d902308d8104ea181e01059", "lat": 38.901906333333336, "fusion_lon": 0.0, "fusion_lat": 0.0, "type": "electric_scooter", "name": "ed6048757d902308d8104ea181e01059", "is_disabled": 0, "rental_uris": {"ios": "https://dc.lft.to/lastmile_qr_scan", "android": "https://dc.lft.to/lastmile_qr_scan"}, "is_reserved": 0}, {"lon": -77.02308716666667, "bike_id": "5f7d070bf7fa0aaed7d2d7b24eb9ea00", "lat": 38.916734166666664, "fusion_lon": 0.0, "fusion_lat": 0.0, "type": "electric_scooter", "name": "5f7d070bf7fa0aaed7d2d7b24eb9ea00", "is_disabled": 0, "rental_uris": {"ios": "https://dc.lft.to/lastmile_qr_scan", "android": "https://dc.lft.to/lastmile_qr_scan"}, "is_reserved": 0}, {"lon": -77.043272, "bike_id": "51af7a18447aba3b50915f8f793b09c3", "lat": 38.90731483333333, "fusion_lon": 0.0, "fusion_lat": 0.0, "type": "electric_scooter", "name": "51af7a18447aba3b50915f8f793b09c3", "is_disabled": 0, "rental_uris": {"ios": "https://dc.lft.to/lastmile_qr_scan", "android": "https://dc.lft.to/lastmile_qr_scan"}, "is_reserved": 0}, {"lon": -77.04028716666667, "bike_id": "95c9d4ba08338d430536d2a6f083d256", "lat": 38.911188, "fusion_lon": 0.0, "fusion_lat": 0.0, "type": "electric_scooter", "name": "95c9d4ba08338d430536d2a6f083d256", "is_disabled": 0, "rental_uris": {"ios": "https://dc.lft.to/lastmile_qr_scan", "android": "https://dc.lft.to/lastmile_qr_scan"}, "is_reserved": 0}, {"lon": -77.1091675, "bike_id": "4534cf73feaac445aef49469e61567a9", "lat": 39.0520515, "fusion_lon": 0.0, "fusion_lat": 0.0, "type": "electric_bike", "name": "4534cf73feaac445aef49469e61567a9", "is_disabled": 0, "rental_uris": {"ios": "https://dc.lft.to/lastmile_qr_scan", "android": "https://dc.lft.to/lastmile_qr_scan"}, "is_reserved": 0}, {"lon": -77.080748, "bike_id": "4c5fb559ba447bfa86725eb181aa6e0d", "lat": 39.052824666666666, "fusion_lon": 0.0, "fusion_lat": 0.0, "type": "electric_bike", "name": "4c5fb559ba447bfa86725eb181aa6e0d", "is_disabled": 0, "rental_uris": {"ios": "https://dc.lft.to/lastmile_qr_scan", "android": "https://dc.lft.to/lastmile_qr_scan"}, "is_reserved": 0}, {"lon": -76.9953365, "bike_id": "156c695cb52bef18bc4bec7530ad6e0a", "lat": 38.883726, "fusion_lon": 0.0, "fusion_lat": 0.0, "type": "electric_scooter", "name": "156c695cb52bef18bc4bec7530ad6e0a", "is_disabled": 0, "rental_uris": {"ios": "https://dc.lft.to/lastmile_qr_scan", "android": "https://dc.lft.to/lastmile_qr_scan"}, "is_reserved": 0}, {"lon": -77.0193515, "bike_id": "45b545543eef08c8c91a3d23d60202ad", "lat": 38.93525133333333, "fusion_lon": 0.0, "fusion_lat": 0.0, "type": "electric_scooter", "name": "45b545543eef08c8c91a3d23d60202ad", "is_disabled": 0, "rental_uris": {"ios": "https://dc.lft.to/lastmile_qr_scan", "android": "https://dc.lft.to/lastmile_qr_scan"}, "is_reserved": 0}, {"lon": -77.0486655, "bike_id": "6d60b143af508f81a58de16cd44cc97d", "lat": 38.892204, "fusion_lon": 0.0, "fusion_lat": 0.0, "type": "electric_scooter", "name": "6d60b143af508f81a58de16cd44cc97d", "is_disabled": 0, "rental_uris": {"ios": "https://dc.lft.to/lastmile_qr_scan", "android": "https://dc.lft.to/lastmile_qr_scan"}, "is_reserved": 0}, {"lon": -77.03440683333334, "bike_id": "4202055bc5d2535dd7c91ab1ad0165bc", "lat": 38.90975133333333, "fusion_lon": 0.0, "fusion_lat": 0.0, "type": "electric_scooter", "name": "4202055bc5d2535dd7c91ab1ad0165bc", "is_disabled": 0, "rental_uris": {"ios": "https://dc.lft.to/lastmile_qr_scan", "android": "https://dc.lft.to/lastmile_qr_scan"}, "is_reserved": 0}, {"lon": -77.0023275, "bike_id": "50fb112aa8a252b927ff5f17684ffa7c", "lat": 38.900355833333336, "fusion_lon": 0.0, "fusion_lat": 0.0, "type": "electric_scooter", "name": "50fb112aa8a252b927ff5f17684ffa7c", "is_disabled": 0, "rental_uris": {"ios": "https://dc.lft.to/lastmile_qr_scan", "android": "https://dc.lft.to/lastmile_qr_scan"}, "is_reserved": 0}, {"lon": -76.97474583333333, "bike_id": "9377a5d3a275b3bb1ccbb5d39f1a857f", "lat": 38.90350466666666, "fusion_lon": 0.0, "fusion_lat": 0.0, "type": "electric_scooter", "name": "9377a5d3a275b3bb1ccbb5d39f1a857f", "is_disabled": 0, "rental_uris": {"ios": "https://dc.lft.to/lastmile_qr_scan", "android": "https://dc.lft.to/lastmile_qr_scan"}, "is_reserved": 0}, {"lon": -77.00645983333334, "bike_id": "a73a36128d21bc0d6cd2380b78f9394f", "lat": 38.926169, "fusion_lon": 0.0, "fusion_lat": 0.0, "type": "electric_scooter", "name": "a73a36128d21bc0d6cd2380b78f9394f", "is_disabled": 0, "rental_uris": {"ios": "https://dc.lft.to/lastmile_qr_scan", "android": "https://dc.lft.to/lastmile_qr_scan"}, "is_reserved": 0}, {"lon": -77.03389333333334, "bike_id": "9b02139c21847bb9fc3d0751262e1ea0", "lat": 38.905505, "fusion_lon": 0.0, "fusion_lat": 0.0, "type": "electric_scooter", "name": "9b02139c21847bb9fc3d0751262e1ea0", "is_disabled": 0, "rental_uris": {"ios": "https://dc.lft.to/lastmile_qr_scan", "android": "https://dc.lft.to/lastmile_qr_scan"}, "is_reserved": 0}, {"lon": -77.06514333333334, "bike_id": "ea25a8c619d9433e20affe6d7584b21e", "lat": 38.9039845, "fusion_lon": 0.0, "fusion_lat": 0.0, "type": "electric_scooter", "name": "ea25a8c619d9433e20affe6d7584b21e", "is_disabled": 0, "rental_uris": {"ios": "https://dc.lft.to/lastmile_qr_scan", "android": "https://dc.lft.to/lastmile_qr_scan"}, "is_reserved": 0}, {"lon": -76.96555716666667, "bike_id": "cbea9440b359b50d22a00999f766d4c9", "lat": 38.918633166666666, "fusion_lon": 0.0, "fusion_lat": 0.0, "type": "electric_scooter", "name": "cbea9440b359b50d22a00999f766d4c9", "is_disabled": 0, "rental_uris": {"ios": "https://dc.lft.to/lastmile_qr_scan", "android": "https://dc.lft.to/lastmile_qr_scan"}, "is_reserved": 0}, {"lon": -77.01290283333333, "bike_id": "4c61a5d11e7ca772db7163ba0d40ff20", "lat": 38.920162, "fusion_lon": 0.0, "fusion_lat": 0.0, "type": "electric_scooter", "name": "4c61a5d11e7ca772db7163ba0d40ff20", "is_disabled": 0, "rental_uris": {"ios": "https://dc.lft.to/lastmile_qr_scan", "android": "https://dc.lft.to/lastmile_qr_scan"}, "is_reserved": 0}, {"lon": -76.99018983333333, "bike_id": "cf9cef9ce601501ecb78b07a4e65cf07", "lat": 38.866446, "fusion_lon": 0.0, "fusion_lat": 0.0, "type": "electric_scooter", "name": "cf9cef9ce601501ecb78b07a4e65cf07", "is_disabled": 0, "rental_uris": {"ios": "https://dc.lft.to/lastmile_qr_scan", "android": "https://dc.lft.to/lastmile_qr_scan"}, "is_reserved": 0}, {"lon": -77.03865533333334, "bike_id": "e461deb991bc1d148b1e578f190dff09", "lat": 38.9156545, "fusion_lon": 0.0, "fusion_lat": 0.0, "type": "electric_scooter", "name": "e461deb991bc1d148b1e578f190dff09", "is_disabled": 0, "rental_uris": {"ios": "https://dc.lft.to/lastmile_qr_scan", "android": "https://dc.lft.to/lastmile_qr_scan"}, "is_reserved": 0}, {"lon": -76.99088283333333, "bike_id": "562e8a1b2de665cc8c2ca4d89e60bd61", "lat": 38.8624245, "fusion_lon": 0.0, "fusion_lat": 0.0, "type": "electric_bike", "name": "562e8a1b2de665cc8c2ca4d89e60bd61", "is_disabled": 0, "rental_uris": {"ios": "https://dc.lft.to/lastmile_qr_scan", "android": "https://dc.lft.to/lastmile_qr_scan"}, "is_reserved": 0}, {"lon": -76.98148516666667, "bike_id": "749b64ac3e1328db66c07ddca57dc9f9", "lat": 38.903186833333336, "fusion_lon": 0.0, "fusion_lat": 0.0, "type": "electric_scooter", "name": "749b64ac3e1328db66c07ddca57dc9f9", "is_disabled": 0, "rental_uris": {"ios": "https://dc.lft.to/lastmile_qr_scan", "android": "https://dc.lft.to/lastmile_qr_scan"}, "is_reserved": 0}, {"lon": -76.99460616666667, "bike_id": "e54a51c3578b942d209af20976aeccef", "lat": 38.940659, "fusion_lon": 0.0, "fusion_lat": 0.0, "type": "electric_scooter", "name": "e54a51c3578b942d209af20976aeccef", "is_disabled": 0, "rental_uris": {"ios": "https://dc.lft.to/lastmile_qr_scan", "android": "https://dc.lft.to/lastmile_qr_scan"}, "is_reserved": 0}, {"lon": -77.07931716666667, "bike_id": "097abcdad9a900c7d36ff34bcc09cf85", "lat": 38.931046333333335, "fusion_lon": 0.0, "fusion_lat": 0.0, "type": "electric_scooter", "name": "097abcdad9a900c7d36ff34bcc09cf85", "is_disabled": 0, "rental_uris": {"ios": "https://dc.lft.to/lastmile_qr_scan", "android": "https://dc.lft.to/lastmile_qr_scan"}, "is_reserved": 0}, {"lon": -76.976714, "bike_id": "5f66d98f9f2cb8ee51cd0cecf23b7b0c", "lat": 38.95247416666667, "fusion_lon": 0.0, "fusion_lat": 0.0, "type": "electric_bike", "name": "5f66d98f9f2cb8ee51cd0cecf23b7b0c", "is_disabled": 0, "rental_uris": {"ios": "https://dc.lft.to/lastmile_qr_scan", "android": "https://dc.lft.to/lastmile_qr_scan"}, "is_reserved": 0},