{"data": {"bikes": [{"rental_uris": {"android": "https://dc.lft.to/lastmile_qr_scan", "ios": "https://dc.lft.to/lastmile_qr_scan"}, "type": "electric_scooter", "lon": -77.00489866666666, "name": "3b79256bd09e578739e288eb1f59b6c5", "bike_id": "3b79256bd09e578739e288eb1f59b6c5", "fusion_lat": 0.0, "is_reserved": 0, "lat": 38.925819833333335, "fusion_lon": 0.0, "is_disabled": 0}, {"rental_uris": {"android": "https://dc.lft.to/lastmile_qr_scan", "ios": "https://dc.lft.to/lastmile_qr_scan"}, "type": "electric_scooter", "lon": -76.977307, "name": "f3b03709776a006216f1e4dd884febf6", "bike_id": "f3b03709776a006216f1e4dd884febf6", "fusion_lat": 0.0, "is_reserved": 0, "lat": 38.872871333333336, "fusion_lon": 0.0, "is_disabled": 0}, {"rental_uris": {"android": "https://dc.lft.to/lastmile_qr_scan", "ios": "https://dc.lft.to/lastmile_qr_scan"}, "type": "electric_bike", "lon": -76.95475533333334, "name": "e5c63a6e3edf85253966207d9d814e57", "bike_id": "e5c63a6e3edf85253966207d9d814e57", "fusion_lat": 0.0, "is_reserved": 0, "lat": 38.93562333333333, "fusion_lon": 0.0, "is_disabled": 0}, {"rental_uris": {"android": "https://dc.lft.to/lastmile_qr_scan", "ios": "https://dc.lft.to/lastmile_qr_scan"}, "type": "electric_scooter", "lon": -76.97618666666666, "name": "5da6a214e228b984ef911ed90127f078", "bike_id": "5da6a214e228b984ef911ed90127f078", "fusion_lat": 0.0, "is_reserved": 0, "lat": 38.93139983333333, "fusion_lon": 0.0, "is_disabled": 0}, {"rental_uris": {"android": "https://dc.lft.to/lastmile_qr_scan", "ios": "https://dc.lft.to/lastmile_qr_scan"}, "type": "electric_scooter", "lon": -76.98473933333334, "name": "100e5d5a0fe30c4aa2decb076df69119", "bike_id": "100e5d5a0fe30c4aa2decb076df69119", "fusion_lat": 0.0, "is_reserved": 0, "lat": 38.92892666666667, "fusion_lon": 0.0, "is_disabled": 0}, {"rental_uris": {"android": "https://dc.lft.to/lastmile_qr_scan", "ios": "https://dc.lft.to/lastmile_qr_scan"}, "type": "electric_scooter", "lon": -77.00211983333334, "name": "0e8cb3813d86f8e423bb37793f19a116", "bike_id": "0e8cb3813d86f8e423bb37793f19a116", "fusion_lat": 0.0, "is_reserved": 0, "lat": 38.9027675, "fusion_lon": 0.0, "is_disabled": 0}, {"rental_uris": {"android": "https://dc.lft.to/lastmile_qr_scan", "ios": "https://dc.lft.to/lastmile_qr_scan"}, "type": "electric_scooter", "lon": -76.99056616666667, "name": "3647dd89e77c866b73faa2bcd3c6b224", "bike_id": "3647dd89e77c866b73faa2bcd3c6b224", "fusion_lat": 0.0, "is_reserved": 0, "lat": 38.85897383333333, "fusion_lon": 0.0, "is_disabled": 0}, {"rental_uris": {"android": "https://dc.lft.to/lastmile_qr_scan", "ios": "https://dc.lft.to/lastmile_qr_scan"}, "type": "electric_bike", "lon": -76.98881133333333, "name": "37eea2c31553befe1521446402201768", "bike_id": "37eea2c31553befe1521446402201768", "fusion_lat": 0.0, "is_reserved": 0, "lat": 38.921139833333335, "fusion_lon": 0.0, "is_disabled": 0}, {"rental_uris": {"android": "https://dc.lft.to/lastmile_qr_scan", "ios": "https://dc.lft.to/lastmile_qr_scan"}, "type": "electric_scooter", "lon": -77.04012483333334, "name": "c384032611e99a9437b45f4b93bc4a55", "bike_id": "c384032611e99a9437b45f4b93bc4a55", "fusion_lat": 0.0, "is_reserved": 0, "lat": 38.91841516666667, "fusion_lon": 0.0, "is_disabled": 0}, {"rental_uris": {"android": "https://dc.lft.to/lastmile_qr_scan", "ios": "https://dc.lft.to/lastmile_qr_scan"}, "type": "electric_scooter", "lon": -77.00651733333333, "name": "c896280b8def75f35b08fa0d775a0d99", "bike_id": "c896280b8def75f35b08fa0d775a0d99", "fusion_lat": 0.0, "is_reserved": 0, "lat": 38.88333933333333, "fusion_lon": 0.0, "is_disabled": 0}, {"rental_uris": {"android": "https://dc.lft.to/lastmile_qr_scan", "ios": "https://dc.lft.to/lastmile_qr_scan"}, "type": "electric_scooter", "lon": -77.01096516666667, "name": "5127a6e3777ffe0308454b390c8555d1", "bike_id": "5127a6e3777ffe0308454b390c8555d1", "fusion_lat": 0.0, "is_reserved": 0, "lat": 38.903712, "fusion_lon": 0.0, "is_disabled": 0}, {"rental_uris": {"android": "https://dc.lft.to/lastmile_qr_scan", "ios": "https://dc.lft.to/lastmile_qr_scan"}, "type": "electric_scooter", "lon": -76.99510316666667, "name": "ca411777cd2bfd2a14407516ac68cc09", "bike_id": "ca411777cd2bfd2a14407516ac68cc09", "fusion_lat": 0.0, "is_reserved": 0, "lat": 38.877764666666664, "fusion_lon": 0.0, "is_disabled": 0}, {"rental_uris": {"android": "https://dc.lft.to/lastmile_qr_scan", "ios": "https://dc.lft.to/lastmile_qr_scan"}, "type": "electric_scooter", "lon": -77.03476566666667, "name": "4dd845fd5ad3727681c5f2823f5e5add", "bike_id": "4dd845fd5ad3727681c5f2823f5e5add", "fusion_lat": 0.0, "is_reserved": 0, "lat": 38.911171, "fusion_lon": 0.0, "is_disabled": 0}, {"rental_uris": {"android": "https://dc.lft.to/lastmile_qr_scan", "ios": "https://dc.lft.to/lastmile_qr_scan"}, "type": "electric_bike", "lon": -76.949554, "name": "6f59a1d503a6c976228f7c1857df9dc1", "bike_id": "6f59a1d503a6c976228f7c1857df9dc1", "fusion_lat": 0.0, "is_reserved": 0, "lat": 38.934953, "fusion_lon": 0.0, "is_disabled": 0}, {"rental_uris": {"android": "https://dc.lft.to/lastmile_qr_scan", "ios": "https://dc.lft.to/lastmile_qr_scan"}, "type": "electric_scooter", "lon": -77.03442583333333, "name": "d8bc8af4785a0256baafadfc09f17602", "bike_id": "d8bc8af4785a0256baafadfc09f17602", "fusion_lat": 0.0, "is_reserved": 0, "lat": 38.9063565, "fusion_lon": 0.0, "is_disabled": 0}, {"rental_uris": {"android": "https://dc.lft.to/lastmile_qr_scan", "ios": "https://dc.lft.to/lastmile_qr_scan"}, "type": "electric_scooter", "lon": -77.06769466666667, "name": "abc31d958c0a812beed9ad6faf85b886", "bike_id": "abc31d958c0a812beed9ad6faf85b886", "fusion_lat": 0.0, "is_reserved": 0, "lat": 38.903645833333336, "fusion_lon": 0.0, "is_disabled": 0}, {"rental_uris": {"android": "https://dc.lft.to/lastmile_qr_scan", "ios": "https://dc.lft.to/lastmile_qr_scan"}, "type": "electric_scooter", "lon": -77.03846333333334, "name": "836f357753bedab1a7e29ec7416d5bae", "bike_id": "836f357753bedab1a7e29ec7416d5bae", "fusion_lat": 0.0, "is_reserved": 0, "lat": 38.9026985, "fusion_lon": 0.0, "is_disabled": 0}, {"rental_uris": {"android": "https://dc.lft.to/lastmile_qr_scan", "ios": "https://dc.lft.to/lastmile_qr_scan"}, "type": "electric_scooter", "lon": -77.030494, "name": "0000c687bdf28d939b8dfdffee592f75", "bike_id": "0000c687bdf28d939b8dfdffee592f75", "fusion_lat": 0.0, "is_reserved": 0, "lat": 38.8840465, "fusion_lon": 0.0, "is_disabled": 0}, {"rental_uris": {"android": "https://dc.lft.to/lastmile_qr_scan", "ios": "https://dc.lft.to/lastmile_qr_scan"}, "type": "electric_scooter", "lon": -77.008187, "name": "8f433e0da145de284e85fbe1a5196b8c", "bike_id": "8f433e0da145de284e85fbe1a5196b8c", "fusion_lat": 0.0, "is_reserved": 0, "lat": 38.91561033333333, "fusion_lon": 0.0, "is_disabled": 0}, {"rental_uris": {"android": "https://dc.lft.to/lastmile_qr_scan", "ios": "https://dc.lft.to/lastmile_qr_scan"}, "type": "electric_scooter", "lon": -77.03394016666667, "name": "8165e85a49a1ea94aa980e552256362d", "bike_id": "8165e85a49a1ea94aa980e552256362d", "fusion_lat": 0.0, "is_reserved": 0, "lat": 38.9242815, "fusion_lon": 0.0, "is_disabled": 0}, {"rental_uris": {"android": "https://dc.lft.to/lastmile_qr_scan", "ios": "https://dc.lft.to/lastmile_qr_scan"}, "type": "electric_scooter", "lon": -77.061218, "name": "286bedfd058901f6003d4ccdf07fbe14", "bike_id": "286bedfd058901f6003d4ccdf07fbe14", "fusion_lat": 0.0, "is_reserved": 0, "lat": 38.94360533333333, "fusion_lon": 0.0, "is_disabled": 0}, {"rental_uris": {"android": "https://dc.lft.to/lastmile_qr_scan", "ios": "https://dc.lft.to/lastmile_qr_scan"}, "type": "electric_scooter", "lon": -77.00602783333333, "name": "3796447e5a0daef494551438bf90d548", "bike_id": "3796447e5a0daef494551438bf90d548", "fusion_lat": 0.0, "is_reserved": 0, "lat": 38.90817466666667, "fusion_lon": 0.0, "is_disabled": 0}, {"rental_uris": {"android": "https://dc.lft.to/lastmile_qr_scan", "ios": "https://dc.lft.to/lastmile_qr_scan"}, "type": "electric_scooter", "lon": -77.02021733333333, "name": "416cae1ee57ad7635af03f3d569f18b4", "bike_id": "416cae1ee57ad7635af03f3d569f18b4", "fusion_lat": 0.0, "is_reserved": 0, "lat": 38.92430616666667, "fusion_lon": 0.0, "is_disabled": 0}, {"rental_uris": {"android": "https://dc.lft.to/lastmile_qr_scan", "ios": "https://dc.lft.to/lastmile_qr_scan"}, "type": "electric_scooter", "lon": -77.00245116666666, "name": "fbf0bacd75ed934ac281471de6a537d6", "bike_id": "fbf0bacd75ed934ac281471de6a537d6", "fusion_lat": 0.0, "is_reserved": 0, "lat": 38.88022516666667, "fusion_lon": 0.0, "is_disabled": 0}, {"rental_uris": {"android": "https://dc.lft.to/lastmile_qr_scan", "ios": "https://dc.lft.to/lastmile_qr_scan"}, "type": "electric_scooter", "lon": -77.04476833333334, "name": "8c5a8cd74ee90a747fa9f7b9887eb754", "bike_id": "8c5a8cd74ee90a747fa9f7b9887eb754", "fusion_lat": 0.0, "is_reserved": 0, "lat": 38.90901233333334, "fusion_lon": 0.0, "is_disabled": 0}, {"rental_uris": {"android": "https://dc.lft.to/lastmile_qr_scan", "ios": "https://dc.lft.to/lastmile_qr_scan"}, "type": "electric_scooter", "lon": -77.0319615, "name": "4a767b48460873e0d417207ae55ef50e", "bike_id": "4a767b48460873e0d417207ae55ef50e", "fusion_lat": 0.0, "is_reserved": 0, "lat": 38.916299, "fusion_lon": 0.0, "is_disabled": 0}, {"rental_uris": {"android": "https://dc.lft.to/lastmile_qr_scan", "ios": "https://dc.lft.to/lastmile_qr_scan"}, "type": "electric_scooter", "lon": -76.99031016666666, "name": "d3b9fcbe927f71ae8309988181b59a4d", "bike_id": "d3b9fcbe927f71ae8309988181b59a4d", "fusion_lat": 0.0, "is_reserved": 0, "lat": 38.86402233333333, "fusion_lon": 0.0, "is_disabled": 0}, {"rental_uris": {"android": "https://dc.lft.to/lastmile_qr_scan", "ios": "https://dc.lft.to/lastmile_qr_scan"}, "type": "electric_scooter", "lon": -76.99735616666666, "name": "0ee21a489aee2372069544e7158d2944", "bike_id": "0ee21a489aee2372069544e7158d2944", "fusion_lat": 0.0, "is_reserved": 0, "lat": 38.898841, "fusion_lon": 0.0, "is_disabled": 0}, {"rental_uris": {"android": "https://dc.lft.to/lastmile_qr_scan", "ios": "https://dc.lft.to/lastmile_qr_scan"}, "type": "electric_scooter", "lon": -76.98702633333333, "name": "1c81934aef3c35c5e10368b05e8ce047", "bike_id": "1c81934aef3c35c5e10368b05e8ce047", "fusion_lat": 0.0, "is_reserved": 0, "lat": 38.90697733333333, "fusion_lon": 0.0, "is_disabled": 0}, {"rental_uris": {"android": "https://dc.lft.to/lastmile_qr_scan", "ios": "https://dc.lft.to/lastmile_qr_scan"}, "type": "electric_scooter", "lon": -77.031981, "name": "dee36e96ccd9fab5e2f20b9398d96bb7", "bike_id": "dee36e96ccd9fab5e2f20b9398d96bb7", "fusion_lat": 0.0, "is_reserved": 0, "lat": 38.909195833333335, "fusion_lon": 0.0, "is_disabled": 0}, {"rental_uris": {"android": "https://dc.lft.to/lastmile_qr_scan", "ios": "https://dc.lft.to/lastmile_qr_scan"}, "type": "electric_scooter", "lon": -77.04223733333333, "name": "44118e0932e1916f76130d1abbfe22ee", "bike_id": "44118e0932e1916f76130d1abbfe22ee", "fusion_lat": 0.0, "is_reserved": 0, "lat": 38.926226, "fusion_lon": 0.0, "is_disabled": 0}, {"rental_uris": {"android": "https://dc.lft.to/lastmile_qr_scan", "ios": "https://dc.lft.to/lastmile_qr_scan"}, "type": "electric_bike", "lon": -76.923429, "name": "f20d2327837662050d480157193becec", "bike_id": "f20d2327837662050d480157193becec", "fusion_lat": 0.0, "is_reserved": 0, "lat": 38.8878485, "fusion_lon": 0.0, "is_disabled": 0}, {"rental_uris": {"android": "https://dc.lft.to/lastmile_qr_scan", "ios": "https://dc.lft.to/lastmile_qr_scan"}, "type": "electric_scooter", "lon": -76.99027866666667, "name": "17d2d3f16c9601ad46e8535ea7cdeda6", "bike_id": "17d2d3f16c9601ad46e8535ea7cdeda6", "fusion_lat": 0.0, "is_reserved": 0, "lat": 38.8640325, "fusion_lon": 0.0, "is_disabled": 0}, {"rental_uris": {"android": "https://dc.lft.to/lastmile_qr_scan", "ios": "https://dc.lft.to/lastmile_qr_scan"}, "type": "electric_scooter", "lon": -77.04966216666666, "name": "0f263345723f0f170f727db16eb97012", "bike_id": "0f263345723f0f170f727db16eb97012", "fusion_lat": 0.0, "is_reserved": 0, "lat": 38.912495166666666, "fusion_lon": 0.0, "is_disabled": 0}, {"rental_uris": {"android": "https://dc.lft.to/lastmile_qr_scan", "ios": "https://dc.lft.to/lastmile_qr_scan"}, "type": "electric_scooter", "lon": -77.0018915, "name": "680e66807f689d30b2662462b4f328c5", "bike_id": "680e66807f689d30b2662462b4f328c5", "fusion_lat": 0.0, "is_reserved": 0, "lat": 38.90029916666667, "fusion_lon": 0.0, "is_disabled": 0}, {"rental_uris": {"android": "https://dc.lft.to/lastmile_qr_scan", "ios": "https://dc.lft.to/lastmile_qr_scan"}, "type": "electric_bike", "lon": -77.02400383333334, "name": "7de4af8b2ad6248db1104a13d513b416", "bike_id": "7de4af8b2ad6248db1104a13d513b416", "fusion_lat": 0.0, "is_reserved": 0, "lat": 38.93686433333333, "fusion_lon": 0.0, "is_disabled": 0}, {"rental_uris": {"android": "https://dc.lft.to/lastmile_qr_scan", "ios": "https://dc.lft.to/lastmile_qr_scan"}, "type": "electric_scooter", "lon": -77.0233585, "name": "1efa156a015f4831d08a54352749323b", "bike_id": "1efa156a015f4831d08a54352749323b", "fusion_lat": 0.0, "is_reserved": 0, "lat": 38.929662, "fusion_lon": 0.0, "is_disabled": 0}, {"rental_uris": {"android": "https://dc.lft.to/lastmile_qr_scan", "ios": "https://dc.lft.to/lastmile_qr_scan"}, "type": "electric_scooter", "lon": -77.0284485, "name": "a435ff14898448829de02cb17df6a327", "bike_id": "a435ff14898448829de02cb17df6a327", "fusion_lat": 0.0, "is_reserved": 0, "lat": 38.92760116666667, "fusion_lon": 0.0, "is_disabled": 0}, {"rental_uris": {"android": "https://dc.lft.to/lastmile_qr_scan", "ios": "https://dc.lft.to/lastmile_qr_scan"}, "type": "electric_scooter", "lon": -77.03733533333333, "name": "abec920e2b0398da7b48c962ed13064e", "bike_id": "abec920e2b0398da7b48c962ed13064e", "fusion_lat": 0.0, "is_reserved": 0, "lat": 38.90627533333333, "fusion_lon": 0.0, "is_disabled": 0}, {"rental_uris": {"android": "https://dc.lft.to/lastmile_qr_scan", "ios": "https://dc.lft.to/lastmile_qr_scan"}, "type": "electric_scooter", "lon": -77.04609416666666, "name": "a9555bcf0304316cbdf5a051f14c6285", "bike_id": "a9555bcf0304316cbdf5a051f14c6285", "fusion_lat": 0.0, "is_reserved": 0, "lat": 38.883734833333335, "fusion_lon": 0.0, "is_disabled": 0}, {"rental_uris": {"android": "https://dc.lft.to/lastmile_qr_scan", "ios": "https://dc.lft.to/lastmile_qr_scan"}, "type": "electric_scooter", "lon": -77.08618783333333, "name": "f1944ca3f4e3368dd07a802830839335", "bike_id": "f1944ca3f4e3368dd07a802830839335", "fusion_lat": 0.0, "is_reserved": 0, "lat": 38.95864733333333, "fusion_lon": 0.0, "is_disabled": 0}, {"rental_uris": {"android": "https://dc.lft.to/lastmile_qr_scan", "ios": "https://dc.lft.to/lastmile_qr_scan"}, "type": "electric_scooter", "lon": -77.02481966666667, "name": "37da7fb166b6a25c6aa9e4a11b7781c8", "bike_id": "37da7fb166b6a25c6aa9e4a11b7781c8", "fusion_lat": 0.0, "is_reserved": 0, "lat": 38.880052166666665, "fusion_lon": 0.0, "is_disabled": 0}, {"rental_uris": {"android": "https://dc.lft.to/lastmile_qr_scan", "ios": "https://dc.lft.to/lastmile_qr_scan"}, "type": "electric_scooter", "lon": -77.00858666666667, "name": "4308d565a94fa5958fa2e1ba67a5ed13", "bike_id": "4308d565a94fa5958fa2e1ba67a5ed13", "fusion_lat": 0.0, "is_reserved": 0, "lat": 38.876312666666664, "fusion_lon": 0.0, "is_disabled": 0}, {"rental_uris": {"android": "https://dc.lft.to/lastmile_qr_scan", "ios": "https://dc.lft.to/lastmile_qr_scan"}, "type": "electric_scooter", "lon": -77.03720916666667, "name": "87c050fc86d4656417980ce99499a1d6", "bike_id": "87c050fc86d4656417980ce99499a1d6", "fusion_lat": 0.0, "is_reserved": 0, "lat": 38.918028, "fusion_lon": 0.0, "is_disabled": 0}, {"rental_uris": {"android": "https://dc.lft.to/lastmile_qr_scan", "ios": "https://dc.lft.to/lastmile_qr_scan"}, "type": "electric_scooter", "lon": -76.99579883333334, "name": "57663133e5e969c24ee920eed2a43699", "bike_id": "57663133e5e969c24ee920eed2a43699", "fusion_lat": 0.0, "is_reserved": 0, "lat": 38.949448333333336, "fusion_lon": 0.0, "is_disabled": 0}, {"rental_uris": {"android": "https://dc.lft.to/lastmile_qr_scan", "ios": "https://dc.lft.to/lastmile_qr_scan"}, "type": "electric_scooter", "lon": -77.02602933333333, "name": "93412591e095ab22292fc60faaf3f9bf", "bike_id": "93412591e095ab22292fc60faaf3f9bf", "fusion_lat": 0.0, "is_reserved": 0, "lat": 38.90043216666667, "fusion_lon": 0.0, "is_disabled": 0}, {"rental_uris": {"android": "https://dc.lft.to/lastmile_qr_scan", "ios": "https://dc.lft.to/lastmile_qr_scan"}, "type": "electric_scooter", "lon": -76.94769766666667, "name": "fcb474d55630d91b5636d328dffb9aaf", "bike_id": "fcb474d55630d91b5636d328dffb9aaf", "fusion_lat": 0.0, "is_reserved": 0, "lat": 38.896737333333334, "fusion_lon": 0.0, "is_disabled": 0}, {"rental_uris": {"android": "https://dc.lft.to/lastmile_qr_scan", "ios": "https://dc.lft.to/lastmile_qr_scan"}, "type": "electric_scooter", "lon": -77.04136316666667, "name": "2048f674a5018e53705585a3fa45e20e", "bike_id": "2048f674a5018e53705585a3fa45e20e", "fusion_lat": 0.0, "is_reserved": 0, "lat": 38.921201833333335, "fusion_lon": 0.0, "is_disabled": 0}, {"rental_uris": {"android": "https://dc.lft.to/lastmile_qr_scan", "ios": "https://dc.lft.to/lastmile_qr_scan"}, "type": "electric_scooter", "lon": -77.03174633333333, "name": "0c2617a1c035e749a126005dfcf9b47a", "bike_id": "0c2617a1c035e749a126005dfcf9b47a", "fusion_lat": 0.0, "is_reserved": 0, "lat": 38.88735716666667, "fusion_lon": 0.0, "is_disabled": 0}, {"rental_uris": {"android": "https://dc.lft.to/lastmile_qr_scan", "ios": "https://dc.lft.to/lastmile_qr_scan"}, "type": "electric_bike", "lon": -76.96493233333334, "name": "920560150bb0f04c43d8779c7a8c50f7", "bike_id": "920560150bb0f04c43d8779c7a8c50f7", "fusion_lat": 0.0, "is_reserved": 0, "lat": 38.875483, "fusion_lon": 0.0, "is_disabled": 0}, {"rental_uris": {"android": "https://dc.lft.to/lastmile_qr_scan", "ios": "https://dc.lft.to/lastmile_qr_scan"}, "type": "electric_scooter", "lon": -77.0287935, "name": "ee4650b411151ddcb640e14a34f31d27", "bike_id": "ee4650b411151ddcb640e14a34f31d27", "fusion_lat": 0.0, "is_reserved": 0, "lat": 38.90413366666667, "fusion_lon": 0.0, "is_disabled": 0}, {"rental_uris": {"android": "https://dc.lft.to/lastmile_qr_scan", "ios": "https://dc.lft.to/lastmile_qr_scan"}, "type": "electric_scooter", "lon": -77.0234195, "name": "30477308cc0fb0d55d85d59073627291", "bike_id": "30477308cc0fb0d55d85d59073627291", "fusion_lat": 0.0, "is_reserved": 0, "lat": 38.929719666666664, "fusion_lon": 0.0, "is_disabled": 0}, {"rental_uris": {"android": "https://dc.lft.to/lastmile_qr_scan", "ios": "https://dc.lft.to/lastmile_qr_scan"}, "type": "electric_scooter", "lon": -77.03175366666666, "name": "2bf47776745b725f42d4fbbe40ad3e09", "bike_id": "2bf47776745b725f42d4fbbe40ad3e09", "fusion_lat": 0.0, "is_reserved": 0, "lat": 38.9209645, "fusion_lon": 0.0, "is_disabled": 0}, {"rental_uris": {"android": "https://dc.lft.to/lastmile_qr_scan", "ios": "https://dc.lft.to/lastmile_qr_scan"}, "type": "electric_scooter", "lon": -77.03216516666667, "name": "f491dee3645c03d987ed49abedd72e4d", "bike_id": "f491dee3645c03d987ed49abedd72e4d", "fusion_lat": 0.0, "is_reserved": 0, "lat": 38.9180525, "fusion_lon": 0.0, "is_disabled": 0}, {"rental_uris": {"android": "https://dc.lft.to/lastmile_qr_scan", "ios": "https://dc.lft.to/lastmile_qr_scan"}, "type": "electric_scooter", "lon": -77.02463083333333, "name": "80cbab3c38366c3b1997d465d4eab222", "bike_id": "80cbab3c38366c3b1997d465d4eab222", "fusion_lat": 0.0, "is_reserved": 0, "lat": 38.90631033333333, "fusion_lon": 0.0, "is_disabled": 0}, {"rental_uris": {"android": "https://dc.lft.to/lastmile_qr_scan", "ios": "https://dc.lft.to/lastmile_qr_scan"}, "type": "electric_scooter", "lon": -76.929553, "name": "de5fd1f02f3782986c9b8dde6537372c", "bike_id": "de5fd1f02f3782986c9b8dde6537372c", "fusion_lat": 0.0, "is_reserved": 0, "lat": 38.89877083333333, "fusion_lon": 0.0, "is_disabled": 0}, {"rental_uris": {"android": "https://dc.lft.to/lastmile_qr_scan", "ios": "https://dc.lft.to/lastmile_qr_scan"}, "type": "electric_scooter", "lon": -77.027798, "name": "c2b7c68e6fc8ca2f6b3c91f041bf7471", "bike_id": "c2b7c68e6fc8ca2f6b3c91f041bf7471", "fusion_lat": 0.0, "is_reserved": 0, "lat": 38.881654166666664, "fusion_lon": 0.0, "is_disabled": 0}, {"rental_uris": {"android": "https://dc.lft.to/lastmile_qr_scan", "ios": "https://dc.lft.to/lastmile_qr_scan"}, "type": "electric_bike", "lon": -77.13182533333334, "name": "50e41edd20a77f8a07bca02a238fee23", "bike_id": "50e41edd20a77f8a07bca02a238fee23", "fusion_lat": 0.0, "is_reserved": 0, "lat": 38.86903683333333, "fusion_lon": 0.0, "is_disabled": 0}, {"rental_uris": {"android": "https://dc.lft.to/lastmile_qr_scan", "ios": "https://dc.lft.to/lastmile_qr_scan"}, "type": "electric_scooter", "lon": -77.03874866666666, "name": "f9dfa2f4865a1ef344ff7751ecfe5e37", "bike_id": "f9dfa2f4865a1ef344ff7751ecfe5e37", "fusion_lat": 0.0, "is_reserved": 0, "lat": 38.919766, "fusion_lon": 0.0, "is_disabled": 0}, {"rental_uris": {"android": "https://dc.lft.to/lastmile_qr_scan", "ios": "https://dc.lft.to/lastmile_qr_scan"}, "type": "electric_bike", "lon": -76.99766016666666, "name": "21b13c4061b759599f91adbc6fc78d9b", "bike_id": "21b13c4061b759599f91adbc6fc78d9b", "fusion_lat": 0.0, "is_reserved": 0, "lat": 39.00591216666667, "fusion_lon": 0.0, "is_disabled": 0}, {"rental_uris": {"android": "https://dc.lft.to/lastmile_qr_scan", "ios": "https://dc.lft.to/lastmile_qr_scan"}, "type": "electric_scooter", "lon": -77.0121565, "name": "2f01a4702a7c42972c974d364f5b6c90", "bike_id": "2f01a4702a7c42972c974d364f5b6c90", "fusion_lat": 0.0, "is_reserved": 0, "lat": 38.893252833333335, "fusion_lon": 0.0, "is_disabled": 0}, {"rental_uris": {"android": "https://dc.lft.to/lastmile_qr_scan", "ios": "https://dc.lft.to/lastmile_qr_scan"}, "type": "electric_scooter", "lon": -76.99138683333334, "name": "d2963660f711bb4101800c648424810c", "bike_id": "d2963660f711bb4101800c648424810c", "fusion_lat": 0.0, "is_reserved": 0, "lat": 38.8790835, "fusion_lon": 0.0, "is_disabled": 0}, {"rental_uris": {"android": "https://dc.lft.to/lastmile_qr_scan", "ios": "https://dc.lft.to/lastmile_qr_scan"}, "type": "electric_scooter", "lon": -77.0341925, "name": "3cffaf7f53e931641e592b8ed8cf0c66", "bike_id": "3cffaf7f53e931641e592b8ed8cf0c66", "fusion_lat": 0.0, "is_reserved": 0, "lat": 38.929414333333334, "fusion_lon": 0.0, "is_disabled": 0}, {"rental_uris": {"android": "https://dc.lft.to/lastmile_qr_scan", "ios": "https://dc.lft.to/lastmile_qr_scan"}, "type": "electric_bike", "lon": -77.09572933333334, "name": "8522065f39a44b42cfbdbecb0ac51e88", "bike_id": "8522065f39a44b42cfbdbecb0ac51e88", "fusion_lat": 0.0, "is_reserved": 0, "lat": 38.9856095, "fusion_lon": 0.0, "is_disabled": 0}, {"rental_uris": {"android": "https://dc.lft.to/lastmile_qr_scan", "ios": "https://dc.lft.to/lastmile_qr_scan"}, "type": "electric_bike", "lon": -77.03116733333333, "name": "c86dc271f487def82728e091ec5575cd", "bike_id": "c86dc271f487def82728e091ec5575cd", "fusion_lat": 0.0, "is_reserved": 0, "lat": 38.993747166666665, "fusion_lon": 0.0, "is_disabled": 0}, {"rental_uris": {"android": "https://dc.lft.to/lastmile_qr_scan", "ios": "https://dc.lft.to/lastmile_qr_scan"}, "type": "electric_scooter", "lon": -77.026186, "name": "2848ade2fab4eb9abbf17b6701f63e4e", "bike_id": "2848ade2fab4eb9abbf17b6701f63e4e", "fusion_lat": 0.0, "is_reserved": 0, "lat": 38.916904833333334, "fusion_lon": 0.0, "is_disabled": 0}, {"rental_uris": {"android": "https://dc.lft.to/lastmile_qr_scan", "ios": "https://dc.lft.to/lastmile_qr_scan"}, "type": "electric_scooter", "lon": -77.03868266666667, "name": "167614126e723eecc87f5fa7ab4dc840", "bike_id": "167614126e723eecc87f5fa7ab4dc840", "fusion_lat": 0.0, "is_reserved": 0, "lat": 38.91101183333333, "fusion_lon": 0.0, "is_disabled": 0}, {"rental_uris": {"android": "https://dc.lft.to/lastmile_qr_scan", "ios": "https://dc.lft.to/lastmile_qr_scan"}, "type": "electric_scooter", "lon": -77.0376185, "name": "2ece689efbe152827d83ea27cd2aa17b", "bike_id": "2ece689efbe152827d83ea27cd2aa17b", "fusion_lat": 0.0, "is_reserved": 0, "lat": 38.924597166666665, "fusion_lon": 0.0, "is_disabled": 0}, {"rental_uris": {"android": "https://dc.lft.to/lastmile_qr_scan", "ios": "https://dc.lft.to/lastmile_qr_scan"}, "type": "electric_scooter", "lon": -77.00888983333333, "name": "1495edea883a45ff54f7bb08551ba0fe", "bike_id": "1495edea883a45ff54f7bb08551ba0fe", "fusion_lat": 0.0, "is_reserved": 0, "lat": 38.876228, "fusion_lon": 0.0, "is_disabled": 0}, {"rental_uris": {"android": "https://dc.lft.to/lastmile_qr_scan", "ios": "https://dc.lft.to/lastmile_qr_scan"}, "type": "electric_scooter", "lon": -77.02813333333333, "name": "0bb533db3b30bdaeb6b59a30134427ae", "bike_id": "0bb533db3b30bdaeb6b59a30134427ae", "fusion_lat": 0.0, "is_reserved": 0, "lat": 38.90620366666667, "fusion_lon": 0.0, "is_disabled": 0}, {"rental_uris": {"android": "https://dc.lft.to/lastmile_qr_scan", "ios": "https://dc.lft.to/lastmile_qr_scan"}, "type": "electric_scooter", "lon": -77.01205633333333, "name": "a005c95c1179f2d9f765103517398b9e", "bike_id": "a005c95c1179f2d9f765103517398b9e", "fusion_lat": 0.0, "is_reserved": 0, "lat": 38.871457166666666, "fusion_lon": 0.0, "is_disabled": 0}, {"rental_uris": {"android": "https://dc.lft.to/lastmile_qr_scan", "ios": "https://dc.lft.to/lastmile_qr_scan"}, "type": "electric_scooter", "lon": -77.03108216666666, "name": "d9f1c47d15f947237d4e89c62c2f3c50", "bike_id": "d9f1c47d15f947237d4e89c62c2f3c50", "fusion_lat": 0.0, "is_reserved": 0, "lat": 38.89224633333333, "fusion_lon": 0.0, "is_disabled": 0}, {"rental_uris": {"android": "https://dc.lft.to/lastmile_qr_scan", "ios": "https://dc.lft.to/lastmile_qr_scan"}, "type": "electric_scooter", "lon": -77.03485516666667, "name": "910cd71fcbb9c9dfc2ecb399fa5c3686", "bike_id": "910cd71fcbb9c9dfc2ecb399fa5c3686", "fusion_lat": 0.0, "is_reserved": 0, "lat": 38.902702833333336, "fusion_lon": 0.0, "is_disabled": 0}, {"rental_uris": {"android": "https://dc.lft.to/lastmile_qr_scan", "ios": "https://dc.lft.to/lastmile_qr_scan"}, "type": "electric_scooter", "lon": -77.04671483333334, "name": "a3467d7157964127fe6cd50b86b2c54f", "bike_id": "a3467d7157964127fe6cd50b86b2c54f", "fusion_lat": 0.0, "is_reserved": 0, "lat": 38.915803333333336, "fusion_lon": 0.0, "is_disabled": 0}, {"rental_uris": {"android": "https://dc.lft.to/lastmile_qr_scan", "ios": "https://dc.lft.to/lastmile_qr_scan"}, "type": "electric_scooter", "lon": -77.03066016666666, "name": "b3e96e094ae30772f8972ce6ae924c5a", "bike_id": "b3e96e094ae30772f8972ce6ae924c5a", "fusion_lat": 0.0, "is_reserved": 0, "lat": 38.880404666666664, "fusion_lon": 0.0, "is_disabled": 0}, {"rental_uris": {"android": "https://dc.lft.to/lastmile_qr_scan", "ios": "https://dc.lft.to/lastmile_qr_scan"}, "type": "electric_scooter", "lon": -77.02320183333333, "name": "6cf0bfae1e03bf478b63b7810a8830e2", "bike_id": "6cf0bfae1e03bf478b63b7810a8830e2", "fusion_lat": 0.0, "is_reserved": 0, "lat": 38.90725533333333, "fusion_lon": 0.0, "is_disabled": 0}, {"rental_uris": {"android": "https://dc.lft.to/lastmile_qr_scan", "ios": "https://dc.lft.to/lastmile_qr_scan"}, "type": "electric_scooter", "lon": -77.03208083333334, "name": "73d884501155ce183d33878d3fa62598", "bike_id": "73d884501155ce183d33878d3fa62598", "fusion_lat": 0.0, "is_reserved": 0, "lat": 38.9092235, "fusion_lon": 0.0, "is_disabled": 0}, {"rental_uris": {"android": "https://dc.lft.to/lastmile_qr_scan", "ios": "https://dc.lft.to/lastmile_qr_scan"}, "type": "electric_scooter", "lon": -77.04685183333333, "name": "b0f2d76e18dba13d62a4d36cddaac472", "bike_id": "b0f2d76e18dba13d62a4d36cddaac472", "fusion_lat": 0.0, "is_reserved": 0, "lat": 38.920997666666665, "fusion_lon": 0.0, "is_disabled": 0}, {"rental_uris": {"android": "https://dc.lft.to/lastmile_qr_scan", "ios": "https://dc.lft.to/lastmile_qr_scan"}, "type": "electric_bike", "lon": -77.08052366666666, "name": "dd14ca9b008e0f819145a1a45332c453", "bike_id": "dd14ca9b008e0f819145a1a45332c453", "fusion_lat": 0.0, "is_reserved": 0, "lat": 38.8484135, "fusion_lon": 0.0, "is_disabled": 0}, {"rental_uris": {"android": "https://dc.lft.to/lastmile_qr_scan", "ios": "https://dc.lft.to/lastmile_qr_scan"}, "type": "electric_scooter", "lon": -77.0323275, "name": "3694b657d5aa67326d3aa28a9ac2b9ae", "bike_id": "3694b657d5aa67326d3aa28a9ac2b9ae", "fusion_lat": 0.0, "is_reserved": 0, "lat": 38.91401066666667, "fusion_lon": 0.0, "is_disabled": 0}, {"rental_uris": {"android": "https://dc.lft.to/lastmile_qr_scan", "ios": "https://dc.lft.to/lastmile_qr_scan"}, "type": "electric_scooter", "lon": -76.932625, "name": "ad6f519ab19aaa387db8c4ee754a1c64", "bike_id": "ad6f519ab19aaa387db8c4ee754a1c64", "fusion_lat": 0.0, "is_reserved": 0, "lat": 38.8876955, "fusion_lon": 0.0, "is_disabled": 0}, {"rental_uris": {"android": "https://dc.lft.to/lastmile_qr_scan", "ios": "https://dc.lft.to/lastmile_qr_scan"}, "type": "electric_scooter", "lon": -76.98616483333333, "name": "58c04420622859f69fec05c128cbaecf", "bike_id": "58c04420622859f69fec05c128cbaecf", "fusion_lat": 0.0, "is_reserved": 0, "lat": 38.90691266666666, "fusion_lon": 0.0, "is_disabled": 0}, {"rental_uris": {"android": "https://dc.lft.to/lastmile_qr_scan", "ios": "https://dc.lft.to/lastmile_qr_scan"}, "type": "electric_scooter", "lon": -76.9510965, "name": "1b4e849f5f26b13261d8fda73629e212", "bike_id": "1b4e849f5f26b13261d8fda73629e212", "fusion_lat": 0.0, "is_reserved": 0, "lat": 38.88791783333333, "fusion_lon": 0.0, "is_disabled": 0}, {"rental_uris": {"android": "https://dc.lft.to/lastmile_qr_scan", "ios": "https://dc.lft.to/lastmile_qr_scan"}, "type": "electric_bike", "lon": -77.13181166666666, "name": "2085f54b8e7b07c298f763ebdff067b1", "bike_id": "2085f54b8e7b07c298f763ebdff067b1", "fusion_lat": 0.0, "is_reserved": 0, "lat": 38.869074, "fusion_lon": 0.0, "is_disabled": 0}, {"rental_uris": {"android": "https://dc.lft.to/lastmile_qr_scan", "ios": "https://dc.lft.to/lastmile_qr_scan"}, "type": "electric_scooter", "lon": -77.02791316666666, "name": "066270b62fc56ee36c08dfdbf201038f", "bike_id": "066270b62fc56ee36c08dfdbf201038f", "fusion_lat": 0.0, "is_reserved": 0, "lat": 38.961344833333335, "fusion_lon": 0.0, "is_disabled": 0}, {"rental_uris": {"android": "https://dc.lft.to/lastmile_qr_scan", "ios": "https://dc.lft.to/lastmile_qr_scan"}, "type": "electric_scooter", "lon": -77.016224, "name": "b8580a4aa0538d57741b49621e8de4ae", "bike_id": "b8580a4aa0538d57741b49621e8de4ae", "fusion_lat": 0.0, "is_reserved": 0, "lat": 38.90610183333333, "fusion_lon": 0.0, "is_disabled": 0}, {"rental_uris": {"android": "https://dc.lft.to/lastmile_qr_scan", "ios": "https://dc.lft.to/lastmile_qr_scan"}, "type": "electric_scooter", "lon": -77.05194516666667, "name": "21e9076711366176d6c89a23ebec6d22", "bike_id": "21e9076711366176d6c89a23ebec6d22", "fusion_lat": 0.0, "is_reserved": 0, "lat": 38.92543833333333, "fusion_lon": 0.0, "is_disabled": 0}, {"rental_uris": {"android": "https://dc.lft.to/lastmile_qr_scan", "ios": "https://dc.lft.to/lastmile_qr_scan"}, "type": "electric_scooter", "lon": -76.98881066666667, "name": "8f3e320a3bdc98be173da3368882fb12", "bike_id": "8f3e320a3bdc98be173da3368882fb12", "fusion_lat": 0.0, "is_reserved": 0, "lat": 38.906326, "fusion_lon": 0.0, "is_disabled": 0}, {"rental_uris": {"android": "https://dc.lft.to/lastmile_qr_scan", "ios": "https://dc.lft.to/lastmile_qr_scan"}, "type": "electric_scooter", "lon": -77.01202316666667, "name": "89f439756405b0e64fd0c26ea82f0099", "bike_id": "89f439756405b0e64fd0c26ea82f0099", "fusion_lat": 0.0, "is_reserved": 0, "lat": 38.92178333333333, "fusion_lon": 0.0, "is_disabled": 0}, {"rental_uris": {"android": "https://dc.lft.to/lastmile_qr_scan", "ios": "https://dc.lft.to/lastmile_qr_scan"}, "type": "electric_scooter", "lon": -77.04659216666667, "name": "0816f37babd25d58ac9264b331da7a2e", "bike_id": "0816f37babd25d58ac9264b331da7a2e", "fusion_lat": 0.0, "is_reserved": 0, "lat": 38.893404833333335, "fusion_lon": 0.0, "is_disabled": 0}, {"rental_uris": {"android": "https://dc.lft.to/lastmile_qr_scan", "ios": "https://dc.lft.to/lastmile_qr_scan"}, "type": "electric_scooter", "lon": -77.02178616666667, "name": "5da1d727937fb7057c8059eac5fbb931", "bike_id": "5da1d727937fb7057c8059eac5fbb931", "fusion_lat": 0.0, "is_reserved": 0, "lat": 38.8959785, "fusion_lon": 0.0, "is_disabled": 0}, {"rental_uris": {"android": "https://dc.lft.to/lastmile_qr_scan", "ios": "https://dc.lft.to/lastmile_qr_scan"}, "type": "electric_scooter", "lon": -77.04377333333333, "name": "cf0252f5817e9aac2b5e86f41a14498e", "bike_id": "cf0252f5817e9aac2b5e86f41a14498e", "fusion_lat": 0.0, "is_reserved": 0, "lat": 38.925809666666666, "fusion_lon": 0.0, "is_disabled": 0}, {"rental_uris": {"android": "https://dc.lft.to/lastmile_qr_scan", "ios": "https://dc.lft.to/lastmile_qr_scan"}, "type": "electric_bike", "lon": -76.98153633333334, "name": "5e544a68bfb5d11cb3c4b6629c1f0ec5", "bike_id": "5e544a68bfb5d11cb3c4b6629c1f0ec5", "fusion_lat": 0.0, "is_reserved": 0, "lat": 38.95960433333333, "fusion_lon": 0.0, "is_disabled": 0}, {"rental_uris": {"android": "https://dc.lft.to/lastmile_qr_scan", "ios": "https://dc.lft.to/lastmile_qr_scan"}, "type": "electric_scooter", "lon": -77.046818, "name": "451db8e36b974ab3206f92e7bd8fbcfb", "bike_id": "451db8e36b974ab3206f92e7bd8fbcfb", "fusion_lat": 0.0, "is_reserved": 0, "lat": 38.89891733333333, "fusion_lon": 0.0, "is_disabled": 0}, {"rental_uris": {"android": "https://dc.lft.to/lastmile_qr_scan", "ios": "https://dc.lft.to/lastmile_qr_scan"}, "type": "electric_scooter", "lon": -76.99462533333333, "name": "b2c4303914d2f89d77c90f14d48e3ce6", "bike_id": "b2c4303914d2f89d77c90f14d48e3ce6", "fusion_lat": 0.0, "is_reserved": 0, "lat": 38.851619, "fusion_lon": 0.0, "is_disabled": 0}, {"rental_uris": {"android": "https://dc.lft.to/lastmile_qr_scan", "ios": "https://dc.lft.to/lastmile_qr_scan"}, "type": "electric_scooter", "lon": -76.98473583333333, "name": "11cfae884cd0ed304bb4fca7b63c7b38", "bike_id": "11cfae884cd0ed304bb4fca7b63c7b38", "fusion_lat": 0.0, "is_reserved": 0, "lat": 38.908617166666666, "fusion_lon": 0.0, "is_disabled": 0}, {"rental_uris": {"android": "https://dc.lft.to/lastmile_qr_scan", "ios": "https://dc.lft.to/lastmile_qr_scan"}, "type": "electric_scooter", "lon": -77.03002566666666, "name": "b39c9b3ab58dc3aa1ad3e75d96b1cb86", "bike_id": "b39c9b3ab58dc3aa1ad3e75d96b1cb86", "fusion_lat": 0.0, "is_reserved": 0, "lat": 38.927911333333334, "fusion_lon": 0.0, "is_disabled": 0}, {"rental_uris": {"android": "https://dc.lft.to/lastmile_qr_scan", "ios": "https://dc.lft.to/lastmile_qr_scan"}, "type": "electric_scooter", "lon": -77.063531, "name": "ba76e945ccd81d37a239f3d54bc3ade8", "bike_id": "ba76e945ccd81d37a239f3d54bc3ade8", "fusion_lat": 0.0, "is_reserved": 0, "lat": 38.91327883333334, "fusion_lon": 0.0, "is_disabled": 0}, {"rental_uris": {"android": "https://dc.lft.to/lastmile_qr_scan", "ios": "https://dc.lft.to/lastmile_qr_scan"}, "type": "electric_scooter", "lon": -77.03220866666666, "name": "e9192ab080dbbe303df68594cf1d1917", "bike_id": "e9192ab080dbbe303df68594cf1d1917", "fusion_lat": 0.0, "is_reserved": 0, "lat": 38.9119015, "fusion_lon": 0.0, "is_disabled": 0}, {"rental_uris": {"android": "https://dc.lft.to/lastmile_qr_scan", "ios": "https://dc.lft.to/lastmile_qr_scan"}, "type": "electric_scooter", "lon": -77.0218475, "name": "738f5ce3f349abf4f9d1d69338a95d5f", "bike_id": "738f5ce3f349abf4f9d1d69338a95d5f", "fusion_lat": 0.0, "is_reserved": 0, "lat": 38.892273833333334, "fusion_lon": 0.0, "is_disabled": 0}, {"rental_uris": {"android": "https://dc.lft.to/lastmile_qr_scan", "ios": "https://dc.lft.to/lastmile_qr_scan"}, "type": "electric_bike", "lon": -77.35309283333333, "name": "6235d34c75251014d74e07346c69dd75", "bike_id": "6235d34c75251014d74e07346c69dd75", "fusion_lat": 0.0, "is_reserved": 0, "lat": 38.949976166666666, "fusion_lon": 0.0, "is_disabled": 0}, {"rental_uris": {"android": "https://dc.lft.to/lastmile_qr_scan", "ios": "https://dc.lft.to/lastmile_qr_scan"}, "type": "electric_scooter", "lon": -77.0338005, "name": "81bb2fd640bc581ffa5cc0149b46c794", "bike_id": "81bb2fd640bc581ffa5cc0149b46c794", "fusion_lat": 0.0, "is_reserved": 0, "lat": 38.90963883333333, "fusion_lon": 0.0, "is_disabled": 0}, {"rental_uris": {"android": "https://dc.lft.to/lastmile_qr_scan", "ios": "https://dc.lft.to/lastmile_qr_scan"}, "type": "electric_scooter", "lon": -76.99712566666666, "name": "ad0e41c27581985aa3bac951ed7b467f", "bike_id": "ad0e41c27581985aa3bac951ed7b467f", "fusion_lat": 0.0, "is_reserved": 0, "lat": 38.91098816666667, "fusion_lon": 0.0, "is_disabled": 0}, {"rental_uris": {"android": "https://dc.lft.to/lastmile_qr_scan", "ios": "https://dc.lft.to/lastmile_qr_scan"}, "type": "electric_scooter", "lon": -76.94656216666667, "name": "4c586d95b86fedd5c8f0c67feb10fd02", "bike_id": "4c586d95b86fedd5c8f0c67feb10fd02", "fusion_lat": 0.0, "is_reserved": 0, "lat": 38.898233, "fusion_lon": 0.0, "is_disabled": 0}, {"rental_uris": {"android": "https://dc.lft.to/lastmile_qr_scan", "ios": "https://dc.lft.to/lastmile_qr_scan"}, "type": "electric_scooter", "lon": -77.06394983333334, "name": "2fe3d22f128105c25cef7cc061ba0a6a", "bike_id": "2fe3d22f128105c25cef7cc061ba0a6a", "fusion_lat": 0.0, "is_reserved": 0, "lat": 38.92907266666667, "fusion_lon": 0.0, "is_disabled": 0}, {"rental_uris": {"android": "https://dc.lft.to/lastmile_qr_scan", "ios": "https://dc.lft.to/lastmile_qr_scan"}, "type": "electric_scooter", "lon": -77.04244083333333, "name": "e66421cd50c37e784a4d0004159ac211", "bike_id": "e66421cd50c37e784a4d0004159ac211", "fusion_lat": 0.0, "is_reserved": 0, "lat": 38.9454705, "fusion_lon": 0.0, "is_disabled": 0}, {"rental_uris": {"android": "https://dc.lft.to/lastmile_qr_scan", "ios": "https://dc.lft.to/lastmile_qr_scan"}, "type": "electric_scooter", "lon": -77.04525783333334, "name": "6b1d2c09e23a89b33ef88fb1785b8f3e", "bike_id": "6b1d2c09e23a89b33ef88fb1785b8f3e", "fusion_lat": 0.0, "is_reserved": 0, "lat": 38.900836, "fusion_lon": 0.0, "is_disabled": 0}, {"rental_uris": {"android": "https://dc.lft.to/lastmile_qr_scan", "ios": "https://dc.lft.to/lastmile_qr_scan"}, "type": "electric_scooter", "lon": -77.02292466666667, "name": "ea46f448f5789d1e86bcf9575c2b5b0d", "bike_id": "ea46f448f5789d1e86bcf9575c2b5b0d", "fusion_lat": 0.0, "is_reserved": 0, "lat": 38.9089695, "fusion_lon": 0.0, "is_disabled": 0}, {"rental_uris": {"android": "https://dc.lft.to/lastmile_qr_scan", "ios": "https://dc.lft.to/lastmile_qr_scan"}, "type": "electric_scooter", "lon": -77.06046333333333, "name": "1adcd5abdb419cb576611d6e7163d147", "bike_id": "1adcd5abdb419cb576611d6e7163d147", "fusion_lat": 0.0, "is_reserved": 0, "lat": 38.93902933333333, "fusion_lon": 0.0, "is_disabled": 0}, {"rental_uris": {"android": "https://dc.lft.to/lastmile_qr_scan", "ios": "https://dc.lft.to/lastmile_qr_scan"}, "type": "electric_scooter", "lon": -76.94120933333333, "name": "a988345c6d6591bcb5be029d83574614", "bike_id": "a988345c6d6591bcb5be029d83574614", "fusion_lat": 0.0, "is_reserved": 0, "lat": 38.907927666666666, "fusion_lon": 0.0, "is_disabled": 0}, {"rental_uris": {"android": "https://dc.lft.to/lastmile_qr_scan", "ios": "https://dc.lft.to/lastmile_qr_scan"}, "type": "electric_scooter", "lon": -77.03768466666666, "name": "3739f2b71096d275ef82efb767e051ad", "bike_id": "3739f2b71096d275ef82efb767e051ad", "fusion_lat": 0.0, "is_reserved": 0, "lat": 38.916852166666665, "fusion_lon": 0.0, "is_disabled": 0}, {"rental_uris": {"android": "https://dc.lft.to/lastmile_qr_scan", "ios": "https://dc.lft.to/lastmile_qr_scan"}, "type": "electric_scooter", "lon": -77.05151466666666, "name": "1322d2f9f0a10ea1cfa6cb3539caabdf", "bike_id": "1322d2f9f0a10ea1cfa6cb3539caabdf", "fusion_lat": 0.0, "is_reserved": 0, "lat": 38.90426466666667, "fusion_lon": 0.0, "is_disabled": 0}, {"rental_uris": {"android": "https://dc.lft.to/lastmile_qr_scan", "ios": "https://dc.lft.to/lastmile_qr_scan"}, "type": "electric_scooter", "lon": -77.02310983333334, "name": "56fa3e562be38bfd5b9953424f9d5fd5", "bike_id": "56fa3e562be38bfd5b9953424f9d5fd5", "fusion_lat": 0.0, "is_reserved": 0, "lat": 38.91619883333333, "fusion_lon": 0.0, "is_disabled": 0}, {"rental_uris": {"android": "https://dc.lft.to/lastmile_qr_scan", "ios": "https://dc.lft.to/lastmile_qr_scan"}, "type": "electric_scooter", "lon": -77.02721766666667, "name": "af5a60756a09a6e7175d7a12a8f5fa49", "bike_id": "af5a60756a09a6e7175d7a12a8f5fa49", "fusion_lat": 0.0, "is_reserved": 0, "lat": 38.922488333333334, "fusion_lon": 0.0, "is_disabled": 0}, {"rental_uris": {"android": "https://dc.lft.to/lastmile_qr_scan", "ios": "https://dc.lft.to/lastmile_qr_scan"}, "type": "electric_scooter", "lon": -77.03115833333334, "name": "a6e41d57437b8cd2725cd1e72fc4bcbd", "bike_id": "a6e41d57437b8cd2725cd1e72fc4bcbd", "fusion_lat": 0.0, "is_reserved": 0, "lat": 38.91704133333333, "fusion_lon": 0.0, "is_disabled": 0}, {"rental_uris": {"android": "https://dc.lft.to/lastmile_qr_scan", "ios": "https://dc.lft.to/lastmile_qr_scan"}, "type": "electric_scooter", "lon": -77.01980466666667, "name": "c7ae820098dc3b9f771a26d27f381803", "bike_id": "c7ae820098dc3b9f771a26d27f381803", "fusion_lat": 0.0, "is_reserved": 0, "lat": 38.912891333333334, "fusion_lon": 0.0, "is_disabled": 0}, {"rental_uris": {"android": "https://dc.lft.to/lastmile_qr_scan", "ios": "https://dc.lft.to/lastmile_qr_scan"}, "type": "electric_bike", "lon": -77.12584383333333, "name": "2e1526156ce91080060baccbb1034edc", "bike_id": "2e1526156ce91080060baccbb1034edc", "fusion_lat": 0.0, "is_reserved": 0, "lat": 38.8513845, "fusion_lon": 0.0, "is_disabled": 0}, {"rental_uris": {"android": "https://dc.lft.to/lastmile_qr_scan", "ios": "https://dc.lft.to/lastmile_qr_scan"}, "type": "electric_scooter", "lon": -77.0184105, "name": "aad3c3528fafd7c7b5b7b4f2b431774c", "bike_id": "aad3c3528fafd7c7b5b7b4f2b431774c", "fusion_lat": 0.0, "is_reserved": 0, "lat": 38.92185766666667, "fusion_lon": 0.0, "is_disabled": 0}, {"rental_uris": {"android": "https://dc.lft.to/lastmile_qr_scan", "ios": "https://dc.lft.to/lastmile_qr_scan"}, "type": "electric_scooter", "lon": -77.02717116666666, "name": "78abaeed62a39d2578ef0aae6ee57054", "bike_id": "78abaeed62a39d2578ef0aae6ee57054", "fusion_lat": 0.0, "is_reserved": 0, "lat": 38.90747966666667, "fusion_lon": 0.0, "is_disabled": 0}, {"rental_uris": {"android": "https://dc.lft.to/lastmile_qr_scan", "ios": "https://dc.lft.to/lastmile_qr_scan"}, "type": "electric_scooter", "lon": -77.04563566666667, "name": "a66448c2145dd7c89dba3dceb598787a", "bike_id": "a66448c2145dd7c89dba3dceb598787a", "fusion_lat": 0.0, "is_reserved": 0, "lat": 38.908494833333336, "fusion_lon": 0.0, "is_disabled": 0}, {"rental_uris": {"android": "https://dc.lft.to/lastmile_qr_scan", "ios": "https://dc.lft.to/lastmile_qr_scan"}, "type": "electric_scooter", "lon": -77.02275516666667, "name": "5809b910dfe7ed9c6d46597d44af78a3", "bike_id": "5809b910dfe7ed9c6d46597d44af78a3", "fusion_lat": 0.0, "is_reserved": 0, "lat": 38.89722666666667, "fusion_lon": 0.0, "is_disabled": 0}, {"rental_uris": {"android": "https://dc.lft.to/lastmile_qr_scan", "ios": "https://dc.lft.to/lastmile_qr_scan"}, "type": "electric_bike", "lon": -76.93232533333334, "name": "51efefe2220834a21fbe3adc72f5aa16", "bike_id": "51efefe2220834a21fbe3adc72f5aa16", "fusion_lat": 0.0, "is_reserved": 0, "lat": 38.865926, "fusion_lon": 0.0, "is_disabled": 0}, {"rental_uris": {"android": "https://dc.lft.to/lastmile_qr_scan", "ios": "https://dc.lft.to/lastmile_qr_scan"}, "type": "electric_scooter", "lon": -77.02759033333334, "name": "6cab1fbed3db686edbe4ca8923c3be9c", "bike_id": "6cab1fbed3db686edbe4ca8923c3be9c", "fusion_lat": 0.0, "is_reserved": 0, "lat": 38.96505883333333, "fusion_lon": 0.0, "is_disabled": 0}, {"rental_uris": {"android": "https://dc.lft.to/lastmile_qr_scan", "ios": "https://dc.lft.to/lastmile_qr_scan"}, "type": "electric_scooter", "lon": -77.02606283333333, "name": "117b44ac8228d7d5d12ba7a8642f82e1", "bike_id": "117b44ac8228d7d5d12ba7a8642f82e1", "fusion_lat": 0.0, "is_reserved": 0, "lat": 38.91630133333334, "fusion_lon": 0.0, "is_disabled": 0}, {"rental_uris": {"android": "https://dc.lft.to/lastmile_qr_scan", "ios": "https://dc.lft.to/lastmile_qr_scan"}, "type": "electric_scooter", "lon": -77.04199033333333, "name": "020fa97561a654cb8ff88b080682360f", "bike_id": "020fa97561a654cb8ff88b080682360f", "fusion_lat": 0.0, "is_reserved": 0, "lat": 38.89220016666667, "fusion_lon": 0.0, "is_disabled": 0}, {"rental_uris": {"android": "https://dc.lft.to/lastmile_qr_scan", "ios": "https://dc.lft.to/lastmile_qr_scan"}, "type": "electric_scooter", "lon": -77.01960416666667, "name": "628fb9808715cf379c54db1932c41ee5", "bike_id": "628fb9808715cf379c54db1932c41ee5", "fusion_lat": 0.0, "is_reserved": 0, "lat": 38.89835033333333, "fusion_lon": 0.0, "is_disabled": 0}, {"rental_uris": {"android": "https://dc.lft.to/lastmile_qr_scan", "ios": "https://dc.lft.to/lastmile_qr_scan"}, "type": "electric_scooter", "lon": -77.01403683333334, "name": "27b8a7eede095c9216c6f00951bbad22", "bike_id": "27b8a7eede095c9216c6f00951bbad22", "fusion_lat": 0.0, "is_reserved": 0, "lat": 38.88022316666667, "fusion_lon": 0.0, "is_disabled": 0}, {"rental_uris": {"android": "https://dc.lft.to/lastmile_qr_scan", "ios": "https://dc.lft.to/lastmile_qr_scan"}, "type": "electric_scooter", "lon": -77.04222266666666, "name": "09535e29e4dabac985c376d1f595de3d", "bike_id": "09535e29e4dabac985c376d1f595de3d", "fusion_lat": 0.0, "is_reserved": 0, "lat": 38.91699933333334, "fusion_lon": 0.0, "is_disabled": 0}, {"rental_uris": {"android": "https://dc.lft.to/lastmile_qr_scan", "ios": "https://dc.lft.to/lastmile_qr_scan"}, "type": "electric_scooter", "lon": -77.02697, "name": "b7b00ed886dc653dff2f000a953dfe67", "bike_id": "b7b00ed886dc653dff2f000a953dfe67", "fusion_lat": 0.0, "is_reserved": 0, "lat": 38.905697, "fusion_lon": 0.0, "is_disabled": 0}, {"rental_uris": {"android": "https://dc.lft.to/lastmile_qr_scan", "ios": "https://dc.lft.to/lastmile_qr_scan"}, "type": "electric_scooter", "lon": -76.9911765, "name": "01629adb0047a96c8f4cf9b9471db5a6", "bike_id": "01629adb0047a96c8f4cf9b9471db5a6", "fusion_lat": 0.0, "is_reserved": 0, "lat": 38.90029783333333, "fusion_lon": 0.0, "is_disabled": 0}, {"rental_uris": {"android": "https://dc.lft.to/lastmile_qr_scan", "ios": "https://dc.lft.to/lastmile_qr_scan"}, "type": "electric_scooter", "lon": -77.04486883333334, "name": "4bd7488f99733d32b9a8c23a7b01d0b6", "bike_id": "4bd7488f99733d32b9a8c23a7b01d0b6", "fusion_lat": 0.0, "is_reserved": 0, "lat": 38.90354133333334, "fusion_lon": 0.0, "is_disabled": 0}, {"rental_uris": {"android": "https://dc.lft.to/lastmile_qr_scan", "ios": "https://dc.lft.to/lastmile_qr_scan"}, "type": "electric_scooter", "lon": -77.04500633333333, "name": "0c2aa4feb943222c4702e9aa2b9f075f", "bike_id": "0c2aa4feb943222c4702e9aa2b9f075f", "fusion_lat": 0.0, "is_reserved": 0, "lat": 38.903531666666666, "fusion_lon": 0.0, "is_disabled": 0}, {"rental_uris": {"android": "https://dc.lft.to/lastmile_qr_scan", "ios": "https://dc.lft.to/lastmile_qr_scan"}, "type": "electric_bike", "lon": -77.1068735, "name": "ef89dc947212f738064e1f1822b9d9d3", "bike_id": "ef89dc947212f738064e1f1822b9d9d3", "fusion_lat": 0.0, "is_reserved": 0, "lat": 38.935776, "fusion_lon": 0.0, "is_disabled": 0}, {"rental_uris": {"android": "https://dc.lft.to/lastmile_qr_scan", "ios": "https://dc.lft.to/lastmile_qr_scan"}, "type": "electric_scooter", "lon": -76.979061, "name": "a2b1d74b8e7a9e664effe8f43b839335", "bike_id": "a2b1d74b8e7a9e664effe8f43b839335", "fusion_lat": 0.0, "is_reserved": 0, "lat": 38.8942755, "fusion_lon": 0.0, "is_disabled": 0}, {"rental_uris": {"android": "https://dc.lft.to/lastmile_qr_scan", "ios": "https://dc.lft.to/lastmile_qr_scan"}, "type": "electric_scooter", "lon": -77.000871, "name": "dc872b6a2b05bfdc7c2a3fb21f4a982c", "bike_id": "dc872b6a2b05bfdc7c2a3fb21f4a982c", "fusion_lat": 0.0, "is_reserved": 0, "lat": 38.875978, "fusion_lon": 0.0, "is_disabled": 0}, {"rental_uris": {"android": "https://dc.lft.to/lastmile_qr_scan", "ios": "https://dc.lft.to/lastmile_qr_scan"}, "type": "electric_scooter", "lon": -77.0222585, "name": "ebaebf69651d7c4827136c39c045e21a", "bike_id": "ebaebf69651d7c4827136c39c045e21a", "fusion_lat": 0.0, "is_reserved": 0, "lat": 38.892210166666665, "fusion_lon": 0.0, "is_disabled": 0}, {"rental_uris": {"android": "https://dc.lft.to/lastmile_qr_scan", "ios": "https://dc.lft.to/lastmile_qr_scan"}, "type": "electric_scooter", "lon": -77.02130066666666, "name": "62b890e83ccbf15c76c9ea38343335fc", "bike_id": "62b890e83ccbf15c76c9ea38343335fc", "fusion_lat": 0.0, "is_reserved": 0, "lat": 38.89466566666667, "fusion_lon": 0.0, "is_disabled": 0}, {"rental_uris": {"android": "https://dc.lft.to/lastmile_qr_scan", "ios": "https://dc.lft.to/lastmile_qr_scan"}, "type": "electric_scooter", "lon": -77.0306755, "name": "ec7dd4afe0d147a5fff71d9d4041d7a2", "bike_id": "ec7dd4afe0d147a5fff71d9d4041d7a2", "fusion_lat": 0.0, "is_reserved": 0, "lat": 38.916758, "fusion_lon": 0.0, "is_disabled": 0}, {"rental_uris": {"android": "https://dc.lft.to/lastmile_qr_scan", "ios": "https://dc.lft.to/lastmile_qr_scan"}, "type": "electric_scooter", "lon": -77.03071933333334, "name": "29767270fdacd40e927025a5ad257b9f", "bike_id": "29767270fdacd40e927025a5ad257b9f", "fusion_lat": 0.0, "is_reserved": 0, "lat": 38.9056785, "fusion_lon": 0.0, "is_disabled": 0}, {"rental_uris": {"android": "https://dc.lft.to/lastmile_qr_scan", "ios": "https://dc.lft.to/lastmile_qr_scan"}, "type": "electric_scooter", "lon": -76.99747433333333, "name": "a0f6deb25d87d247e7fc616f877876ce", "bike_id": "a0f6deb25d87d247e7fc616f877876ce", "fusion_lat": 0.0, "is_reserved": 0, "lat": 38.900352, "fusion_lon": 0.0, "is_disabled": 0}, {"rental_uris": {"android": "https://dc.lft.to/lastmile_qr_scan", "ios": "https://dc.lft.to/lastmile_qr_scan"}, "type": "electric_bike", "lon": -77.16234766666666, "name": "698be1c03650a14157d8f84aaabefa85", "bike_id": "698be1c03650a14157d8f84aaabefa85", "fusion_lat": 0.0, "is_reserved": 0, "lat": 38.886450333333336, "fusion_lon": 0.0, "is_disabled": 0}, {"rental_uris": {"android": "https://dc.lft.to/lastmile_qr_scan", "ios": "https://dc.lft.to/lastmile_qr_scan"}, "type": "electric_scooter", "lon": -77.01059883333333, "name": "e26e45b509a60d0121318d535edda873", "bike_id": "e26e45b509a60d0121318d535edda873", "fusion_lat": 0.0, "is_reserved": 0, "lat": 38.8724225, "fusion_lon": 0.0, "is_disabled": 0}, {"rental_uris": {"android": "https://dc.lft.to/lastmile_qr_scan", "ios": "https://dc.lft.to/lastmile_qr_scan"}, "type": "electric_scooter", "lon": -77.015899, "name": "54005e778c4d78bdacb3151b01caf21f", "bike_id": "54005e778c4d78bdacb3151b01caf21f", "fusion_lat": 0.0, "is_reserved": 0, "lat": 38.928430666666664, "fusion_lon": 0.0, "is_disabled": 0}, {"rental_uris": {"android": "https://dc.lft.to/lastmile_qr_scan", "ios": "https://dc.lft.to/lastmile_qr_scan"}, "type": "electric_scooter", "lon": -77.03244083333334, "name": "4f6a71c3b03f1e4171e6e28463cb44d5", "bike_id": "4f6a71c3b03f1e4171e6e28463cb44d5", "fusion_lat": 0.0, "is_reserved": 0, "lat": 38.929778666666664, "fusion_lon": 0.0, "is_disabled": 0}, {"rental_uris": {"android": "https://dc.lft.to/lastmile_qr_scan", "ios": "https://dc.lft.to/lastmile_qr_scan"}, "type": "electric_scooter", "lon": -77.02486016666667, "name": "ccebb5fcf6f9a260067cadfbdd174c50", "bike_id": "ccebb5fcf6f9a260067cadfbdd174c50", "fusion_lat": 0.0, "is_reserved": 0, "lat": 38.938773, "fusion_lon": 0.0, "is_disabled": 0}, {"rental_uris": {"android": "https://dc.lft.to/lastmile_qr_scan", "ios": "https://dc.lft.to/lastmile_qr_scan"}, "type": "electric_scooter", "lon": -77.02940433333333, "name": "2a4a28573a9a12652962dc3d4c946038", "bike_id": "2a4a28573a9a12652962dc3d4c946038", "fusion_lat": 0.0, "is_reserved": 0, "lat": 38.8954715, "fusion_lon": 0.0, "is_disabled": 0}, {"rental_uris": {"android": "https://dc.lft.to/lastmile_qr_scan", "ios": "https://dc.lft.to/lastmile_qr_scan"}, "type": "electric_scooter", "lon": -77.061717, "name": "a693f1863b984050681e451f53e6bf68", "bike_id": "a693f1863b984050681e451f53e6bf68", "fusion_lat": 0.0, "is_reserved": 0, "lat": 38.9052975, "fusion_lon": 0.0, "is_disabled": 0}, {"rental_uris": {"android": "https://dc.lft.to/lastmile_qr_scan", "ios": "https://dc.lft.to/lastmile_qr_scan"}, "type": "electric_scooter", "lon": -77.02384916666666, "name": "278f8a153b9b89d0c5c6751338949174", "bike_id": "278f8a153b9b89d0c5c6751338949174", "fusion_lat": 0.0, "is_reserved": 0, "lat": 38.89222383333333, "fusion_lon": 0.0, "is_disabled": 0}, {"rental_uris": {"android": "https://dc.lft.to/lastmile_qr_scan", "ios": "https://dc.lft.to/lastmile_qr_scan"}, "type": "electric_scooter", "lon": -77.0418005, "name": "093a4b84940282b68f4c45dd13f52573", "bike_id": "093a4b84940282b68f4c45dd13f52573", "fusion_lat": 0.0, "is_reserved": 0, "lat": 38.91254383333333, "fusion_lon": 0.0, "is_disabled": 0}, {"rental_uris": {"android": "https://dc.lft.to/lastmile_qr_scan", "ios": "https://dc.lft.to/lastmile_qr_scan"}, "type": "electric_scooter", "lon": -77.04197816666667, "name": "e35093542ff7651acaf5bce1c57a55a7", "bike_id": "e35093542ff7651acaf5bce1c57a55a7", "fusion_lat": 0.0, "is_reserved": 0, "lat": 38.9229575, "fusion_lon": 0.0, "is_disabled": 0}, {"rental_uris": {"android": "https://dc.lft.to/lastmile_qr_scan", "ios": "https://dc.lft.to/lastmile_qr_scan"}, "type": "electric_scooter", "lon": -77.0448295, "name": "6a6e391135978ad1ae93ec9532590ff1", "bike_id": "6a6e391135978ad1ae93ec9532590ff1", "fusion_lat": 0.0, "is_reserved": 0, "lat": 38.90581183333333, "fusion_lon": 0.0, "is_disabled": 0}, {"rental_uris": {"android": "https://dc.lft.to/lastmile_qr_scan", "ios": "https://dc.lft.to/lastmile_qr_scan"}, "type": "electric_scooter", "lon": -77.0450955, "name": "1b0353a646f79a952c2dcb505bc6dec3", "bike_id": "1b0353a646f79a952c2dcb505bc6dec3", "fusion_lat": 0.0, "is_reserved": 0, "lat": 38.906913, "fusion_lon": 0.0, "is_disabled": 0}, {"rental_uris": {"android": "https://dc.lft.to/lastmile_qr_scan", "ios": "https://dc.lft.to/lastmile_qr_scan"}, "type": "electric_scooter", "lon": -77.02512716666666, "name": "9ce36defc90e50e0fa88dcbf38c0a524", "bike_id": "9ce36defc90e50e0fa88dcbf38c0a524", "fusion_lat": 0.0, "is_reserved": 0, "lat": 38.90395433333333, "fusion_lon": 0.0, "is_disabled": 0}, {"rental_uris": {"android": "https://dc.lft.to/lastmile_qr_scan", "ios": "https://dc.lft.to/lastmile_qr_scan"}, "type": "electric_scooter", "lon": -77.00754283333333, "name": "3d69a9972b2e80df64e9b41d0d4fe6da", "bike_id": "3d69a9972b2e80df64e9b41d0d4fe6da", "fusion_lat": 0.0, "is_reserved": 0, "lat": 38.897675, "fusion_lon": 0.0, "is_disabled": 0}, {"rental_uris": {"android": "https://dc.lft.to/lastmile_qr_scan", "ios": "https://dc.lft.to/lastmile_qr_scan"}, "type": "electric_scooter", "lon": -76.9894505, "name": "b8a73191aac1a38afde01120edb20c2c", "bike_id": "b8a73191aac1a38afde01120edb20c2c", "fusion_lat": 0.0, "is_reserved": 0, "lat": 38.8817745, "fusion_lon": 0.0, "is_disabled": 0}, {"rental_uris": {"android": "https://dc.lft.to/lastmile_qr_scan", "ios": "https://dc.lft.to/lastmile_qr_scan"}, "type": "electric_scooter", "lon": -77.017657, "name": "174e8e716a5e4200f91426d408a15531", "bike_id": "174e8e716a5e4200f91426d408a15531", "fusion_lat": 0.0, "is_reserved": 0, "lat": 38.9211515, "fusion_lon": 0.0, "is_disabled": 0}, {"rental_uris": {"android": "https://dc.lft.to/lastmile_qr_scan", "ios": "https://dc.lft.to/lastmile_qr_scan"}, "type": "electric_scooter", "lon": -77.04301783333334, "name": "e0876e7c2ab6b8ddf34c9656ea89e179", "bike_id": "e0876e7c2ab6b8ddf34c9656ea89e179", "fusion_lat": 0.0, "is_reserved": 0, "lat": 38.9264405, "fusion_lon": 0.0, "is_disabled": 0}, {"rental_uris": {"android": "https://dc.lft.to/lastmile_qr_scan", "ios": "https://dc.lft.to/lastmile_qr_scan"}, "type": "electric_scooter", "lon": -77.04228783333333, "name": "6a73399e45ffe85935f51a55e8419989", "bike_id": "6a73399e45ffe85935f51a55e8419989", "fusion_lat": 0.0, "is_reserved": 0, "lat": 38.90709433333333, "fusion_lon": 0.0, "is_disabled": 0}, {"rental_uris": {"android": "https://dc.lft.to/lastmile_qr_scan", "ios": "https://dc.lft.to/lastmile_qr_scan"}, "type": "electric_scooter", "lon": -77.07867433333334, "name": "7e2b5f281cd5463fcfe999e1d61830ef", "bike_id": "7e2b5f281cd5463fcfe999e1d61830ef", "fusion_lat": 0.0, "is_reserved": 0, "lat": 38.9190705, "fusion_lon": 0.0, "is_disabled": 0}, {"rental_uris": {"android": "https://dc.lft.to/lastmile_qr_scan", "ios": "https://dc.lft.to/lastmile_qr_scan"}, "type": "electric_scooter", "lon": -77.0487405, "name": "9952b99439425e9a88332645efaa1218", "bike_id": "9952b99439425e9a88332645efaa1218", "fusion_lat": 0.0, "is_reserved": 0, "lat": 38.90973683333333, "fusion_lon": 0.0, "is_disabled": 0}, {"rental_uris": {"android": "https://dc.lft.to/lastmile_qr_scan", "ios": "https://dc.lft.to/lastmile_qr_scan"}, "type": "electric_scooter", "lon": -77.07149316666667, "name": "8492a8bc060c56ff73442a8183171866", "bike_id": "8492a8bc060c56ff73442a8183171866", "fusion_lat": 0.0, "is_reserved": 0, "lat": 38.93822766666667, "fusion_lon": 0.0, "is_disabled": 0}, {"rental_uris": {"android": "https://dc.lft.to/lastmile_qr_scan", "ios": "https://dc.lft.to/lastmile_qr_scan"}, "type": "electric_scooter", "lon": -77.04832616666667, "name": "8fe14b4092823327dc13c35c7b5642d7", "bike_id": "8fe14b4092823327dc13c35c7b5642d7", "fusion_lat": 0.0, "is_reserved": 0, "lat": 38.904701, "fusion_lon": 0.0, "is_disabled": 0}, {"rental_uris": {"android": "https://dc.lft.to/lastmile_qr_scan", "ios": "https://dc.lft.to/lastmile_qr_scan"}, "type": "electric_scooter", "lon": -77.0022665, "name": "a0b3ccc8927f0c750f8db02dd3290a3c", "bike_id": "a0b3ccc8927f0c750f8db02dd3290a3c", "fusion_lat": 0.0, "is_reserved": 0, "lat": 38.90010266666667, "fusion_lon": 0.0, "is_disabled": 0}, {"rental_uris": {"android": "https://dc.lft.to/lastmile_qr_scan", "ios": "https://dc.lft.to/lastmile_qr_scan"}, "type": "electric_scooter", "lon": -77.04174116666667, "name": "874ee7af9bcef5642438ec27cd71da08", "bike_id": "874ee7af9bcef5642438ec27cd71da08", "fusion_lat": 0.0, "is_reserved": 0, "lat": 38.91462383333333, "fusion_lon": 0.0, "is_disabled": 0}, {"rental_uris": {"android": "https://dc.lft.to/lastmile_qr_scan", "ios": "https://dc.lft.to/lastmile_qr_scan"}, "type": "electric_scooter", "lon": -77.03684316666667, "name": "53c75b9545e76ed288e35f4b7185e0ab", "bike_id": "53c75b9545e76ed288e35f4b7185e0ab", "fusion_lat": 0.0, "is_reserved": 0, "lat": 38.91676233333333, "fusion_lon": 0.0, "is_disabled": 0}, {"rental_uris": {"android": "https://dc.lft.to/lastmile_qr_scan", "ios": "https://dc.lft.to/lastmile_qr_scan"}, "type": "electric_scooter", "lon": -77.0328825, "name": "15ab9005cffca47896a1f558763f9688", "bike_id": "15ab9005cffca47896a1f558763f9688", "fusion_lat": 0.0, "is_reserved": 0, "lat": 38.956452166666665, "fusion_lon": 0.0, "is_disabled": 0}, {"rental_uris": {"android": "https://dc.lft.to/lastmile_qr_scan", "ios": "https://dc.lft.to/lastmile_qr_scan"}, "type": "electric_scooter", "lon": -77.03551016666667, "name": "d7771884dacc5eac25ffd8c18b40da3e", "bike_id": "d7771884dacc5eac25ffd8c18b40da3e", "fusion_lat": 0.0, "is_reserved": 0, "lat": 38.903582166666666, "fusion_lon": 0.0, "is_disabled": 0}, {"rental_uris": {"android": "https://dc.lft.to/lastmile_qr_scan", "ios": "https://dc.lft.to/lastmile_qr_scan"}, "type": "electric_scooter", "lon": -76.93833133333334, "name": "ad183b4455bad79dad9790d846b040f2", "bike_id": "ad183b4455bad79dad9790d846b040f2", "fusion_lat": 0.0, "is_reserved": 0, "lat": 38.890104666666666, "fusion_lon": 0.0, "is_disabled": 0}, {"rental_uris": {"android": "https://dc.lft.to/lastmile_qr_scan", "ios": "https://dc.lft.to/lastmile_qr_scan"}, "type": "electric_scooter", "lon": -77.02343516666667, "name": "dd6796135538c135992fed53b65e7b2f", "bike_id": "dd6796135538c135992fed53b65e7b2f", "fusion_lat": 0.0, "is_reserved": 0, "lat": 38.929855833333335, "fusion_lon": 0.0, "is_disabled": 0}, {"rental_uris": {"android": "https://dc.lft.to/lastmile_qr_scan", "ios": "https://dc.lft.to/lastmile_qr_scan"}, "type": "electric_scooter", "lon": -77.02698316666667, "name": "b6d650a050a3a49c5d12e50367aaf2cf", "bike_id": "b6d650a050a3a49c5d12e50367aaf2cf", "fusion_lat": 0.0, "is_reserved": 0, "lat": 38.906864, "fusion_lon": 0.0, "is_disabled": 0}, {"rental_uris": {"android": "https://dc.lft.to/lastmile_qr_scan", "ios": "https://dc.lft.to/lastmile_qr_scan"}, "type": "electric_bike", "lon": -77.12509216666666, "name": "4861b4530019c8c6d7ee7ce70ef338e4", "bike_id": "4861b4530019c8c6d7ee7ce70ef338e4", "fusion_lat": 0.0, "is_reserved": 0, "lat": 39.02423266666667, "fusion_lon": 0.0, "is_disabled": 0}, {"rental_uris": {"android": "https://dc.lft.to/lastmile_qr_scan", "ios": "https://dc.lft.to/lastmile_qr_scan"}, "type": "electric_scooter", "lon": -76.98343216666666, "name": "df267c6a9a169809d68ccb1a3d684d3d", "bike_id": "df267c6a9a169809d68ccb1a3d684d3d", "fusion_lat": 0.0, "is_reserved": 0, "lat": 38.864627666666664, "fusion_lon": 0.0, "is_disabled": 0}, {"rental_uris": {"android": "https://dc.lft.to/lastmile_qr_scan", "ios": "https://dc.lft.to/lastmile_qr_scan"}, "type": "electric_scooter", "lon": -77.03459083333334, "name": "ae99f6692e0ddddeed2966f56977d7a5", "bike_id": "ae99f6692e0ddddeed2966f56977d7a5", "fusion_lat": 0.0, "is_reserved": 0, "lat": 38.903041, "fusion_lon": 0.0, "is_disabled": 0}, {"rental_uris": {"android": "https://dc.lft.to/lastmile_qr_scan", "ios": "https://dc.lft.to/lastmile_qr_scan"}, "type": "electric_scooter", "lon": -76.99570566666667, "name": "b3239602c6025a7ee784bf9e78eaf4c7", "bike_id": "b3239602c6025a7ee784bf9e78eaf4c7", "fusion_lat": 0.0, "is_reserved": 0, "lat": 38.920282666666665, "fusion_lon": 0.0, "is_disabled": 0}, {"rental_uris": {"android": "https://dc.lft.to/lastmile_qr_scan", "ios": "https://dc.lft.to/lastmile_qr_scan"}, "type": "electric_scooter", "lon": -77.0296465, "name": "54fa2b34b15fe01757f41626d87acee1", "bike_id": "54fa2b34b15fe01757f41626d87acee1", "fusion_lat": 0.0, "is_reserved": 0, "lat": 38.906465, "fusion_lon": 0.0, "is_disabled": 0}, {"rental_uris": {"android": "https://dc.lft.to/lastmile_qr_scan", "ios": "https://dc.lft.to/lastmile_qr_scan"}, "type": "electric_scooter", "lon": -77.0245425, "name": "be5b42d739ccc3c59c92130aff9fde91", "bike_id": "be5b42d739ccc3c59c92130aff9fde91", "fusion_lat": 0.0, "is_reserved": 0, "lat": 38.89729916666667, "fusion_lon": 0.0, "is_disabled": 0}, {"rental_uris": {"android": "https://dc.lft.to/lastmile_qr_scan", "ios": "https://dc.lft.to/lastmile_qr_scan"}, "type": "electric_scooter", "lon": -76.94634133333334, "name": "dd2670b05901c6c7e9a315a3edd998c3", "bike_id": "dd2670b05901c6c7e9a315a3edd998c3", "fusion_lat": 0.0, "is_reserved": 0, "lat": 38.898416, "fusion_lon": 0.0, "is_disabled": 0}, {"rental_uris": {"android": "https://dc.lft.to/lastmile_qr_scan", "ios": "https://dc.lft.to/lastmile_qr_scan"}, "type": "electric_scooter", "lon": -77.0415425, "name": "46449a410a1e101a4b9d5b76046111e7", "bike_id": "46449a410a1e101a4b9d5b76046111e7", "fusion_lat": 0.0, "is_reserved": 0, "lat": 38.917425, "fusion_lon": 0.0, "is_disabled": 0}, {"rental_uris": {"android": "https://dc.lft.to/lastmile_qr_scan", "ios": "https://dc.lft.to/lastmile_qr_scan"}, "type": "electric_scooter", "lon": -77.02357983333333, "name": "3213de7c734e551d2040d482bf6bf204", "bike_id": "3213de7c734e551d2040d482bf6bf204", "fusion_lat": 0.0, "is_reserved": 0, "lat": 38.89219966666667, "fusion_lon": 0.0, "is_disabled": 0}, {"rental_uris": {"android": "https://dc.lft.to/lastmile_qr_scan", "ios": "https://dc.lft.to/lastmile_qr_scan"}, "type": "electric_scooter", "lon": -77.032135, "name": "ec064360e52679853f22e9bdabf24eca", "bike_id": "ec064360e52679853f22e9bdabf24eca", "fusion_lat": 0.0, "is_reserved": 0, "lat": 38.92221, "fusion_lon": 0.0, "is_disabled": 0}, {"rental_uris": {"android": "https://dc.lft.to/lastmile_qr_scan", "ios": "https://dc.lft.to/lastmile_qr_scan"}, "type": "electric_scooter", "lon": -76.9948735, "name": "a4038cc99a3dd60ffe40dafde5e7a89c", "bike_id": "a4038cc99a3dd60ffe40dafde5e7a89c", "fusion_lat": 0.0, "is_reserved": 0, "lat": 38.877299666666666, "fusion_lon": 0.0, "is_disabled": 0}, {"rental_uris": {"android": "https://dc.lft.to/lastmile_qr_scan", "ios": "https://dc.lft.to/lastmile_qr_scan"}, "type": "electric_scooter", "lon": -77.021512, "name": "46ba9e318153f79b1783b02486affb46", "bike_id": "46ba9e318153f79b1783b02486affb46", "fusion_lat": 0.0, "is_reserved": 0, "lat": 38.884997, "fusion_lon": 0.0, "is_disabled": 0}, {"rental_uris": {"android": "https://dc.lft.to/lastmile_qr_scan", "ios": "https://dc.lft.to/lastmile_qr_scan"}, "type": "electric_scooter", "lon": -77.04168516666667, "name": "15c2a9c1a9becc35e8db86b680e6a71e", "bike_id": "15c2a9c1a9becc35e8db86b680e6a71e", "fusion_lat": 0.0, "is_reserved": 0, "lat": 38.91337433333333, "fusion_lon": 0.0, "is_disabled": 0}, {"rental_uris": {"android": "https://dc.lft.to/lastmile_qr_scan", "ios": "https://dc.lft.to/lastmile_qr_scan"}, "type": "electric_scooter", "lon": -77.002286, "name": "0f3cb8a0d0ed6f0ccc2659bcc2e39d45", "bike_id": "0f3cb8a0d0ed6f0ccc2659bcc2e39d45", "fusion_lat": 0.0, "is_reserved": 0, "lat": 38.87490483333333, "fusion_lon": 0.0, "is_disabled": 0}, {"rental_uris": {"android": "https://dc.lft.to/lastmile_qr_scan", "ios": "https://dc.lft.to/lastmile_qr_scan"}, "type": "electric_scooter", "lon": -77.0251025, "name": "2aa6b45043042c0a4a969b8654cbec13", "bike_id": "2aa6b45043042c0a4a969b8654cbec13", "fusion_lat": 0.0, "is_reserved": 0, "lat": 38.90150166666667, "fusion_lon": 0.0, "is_disabled": 0}, {"rental_uris": {"android": "https://dc.lft.to/lastmile_qr_scan", "ios": "https://dc.lft.to/lastmile_qr_scan"}, "type": "electric_scooter", "lon": -77.032898, "name": "5ac12a7dbeebb58f1038db6eb0c36158", "bike_id": "5ac12a7dbeebb58f1038db6eb0c36158", "fusion_lat": 0.0, "is_reserved": 0, "lat": 38.9564585, "fusion_lon": 0.0, "is_disabled": 0}, {"rental_uris": {"android": "https://dc.lft.to/lastmile_qr_scan", "ios": "https://dc.lft.to/lastmile_qr_scan"}, "type": "electric_bike", "lon": -77.10996483333334, "name": "5766a2a010adfd26b1bad874b05c786e", "bike_id": "5766a2a010adfd26b1bad874b05c786e", "fusion_lat": 0.0, "is_reserved": 0, "lat": 38.870444166666665, "fusion_lon": 0.0, "is_disabled": 0}, {"rental_uris": {"android": "https://dc.lft.to/lastmile_qr_scan", "ios": "https://dc.lft.to/lastmile_qr_scan"}, "type": "electric_scooter", "lon": -76.9899375, "name": "85c93e0155f1f2bf53f7878ff5a8bd39", "bike_id": "85c93e0155f1f2bf53f7878ff5a8bd39", "fusion_lat": 0.0, "is_reserved": 0, "lat": 38.8644285, "fusion_lon": 0.0, "is_disabled": 0}, {"rental_uris": {"android": "https://dc.lft.to/lastmile_qr_scan", "ios": "https://dc.lft.to/lastmile_qr_scan"}, "type": "electric_bike", "lon": -77.10128383333333, "name": "5c6fb5bd2f3c86d53a59346605347f2f", "bike_id": "5c6fb5bd2f3c86d53a59346605347f2f", "fusion_lat": 0.0, "is_reserved": 0, "lat": 38.852079333333336, "fusion_lon": 0.0, "is_disabled": 0}, {"rental_uris": {"android": "https://dc.lft.to/lastmile_qr_scan", "ios": "https://dc.lft.to/lastmile_qr_scan"}, "type": "electric_scooter", "lon": -77.0197675, "name": "e6ff45ef7bd26edf803c4234b56883dd", "bike_id": "e6ff45ef7bd26edf803c4234b56883dd", "fusion_lat": 0.0, "is_reserved": 0, "lat": 38.91286866666667, "fusion_lon": 0.0, "is_disabled": 0}, {"rental_uris": {"android": "https://dc.lft.to/lastmile_qr_scan", "ios": "https://dc.lft.to/lastmile_qr_scan"}, "type": "electric_scooter", "lon": -77.03340533333333, "name": "49f39b775de6a3afa03fca0494d90c03", "bike_id": "49f39b775de6a3afa03fca0494d90c03", "fusion_lat": 0.0, "is_reserved": 0, "lat": 38.898382833333336, "fusion_lon": 0.0, "is_disabled": 0}, {"rental_uris": {"android": "https://dc.lft.to/lastmile_qr_scan", "ios": "https://dc.lft.to/lastmile_qr_scan"}, "type": "electric_scooter", "lon": -77.03807266666666, "name": "070c3b92876027ab7e5f1ffc9eb03c32", "bike_id": "070c3b92876027ab7e5f1ffc9eb03c32", "fusion_lat": 0.0, "is_reserved": 0, "lat": 38.910361, "fusion_lon": 0.0, "is_disabled": 0}, {"rental_uris": {"android": "https://dc.lft.to/lastmile_qr_scan", "ios": "https://dc.lft.to/lastmile_qr_scan"}, "type": "electric_scooter", "lon": -76.99495433333334, "name": "778420fa7fd3ad84b167aa39bd6d023c", "bike_id": "778420fa7fd3ad84b167aa39bd6d023c", "fusion_lat": 0.0, "is_reserved": 0, "lat": 38.86220766666667, "fusion_lon": 0.0, "is_disabled": 0}, {"rental_uris": {"android": "https://dc.lft.to/lastmile_qr_scan", "ios": "https://dc.lft.to/lastmile_qr_scan"}, "type": "electric_scooter", "lon": -77.02842733333334, "name": "eb702a25c99803b91ef1fc737dd7ff72", "bike_id": "eb702a25c99803b91ef1fc737dd7ff72", "fusion_lat": 0.0, "is_reserved": 0, "lat": 38.91690666666667, "fusion_lon": 0.0, "is_disabled": 0}, {"rental_uris": {"android": "https://dc.lft.to/lastmile_qr_scan", "ios": "https://dc.lft.to/lastmile_qr_scan"}, "type": "electric_scooter", "lon": -77.02405366666666, "name": "e94173caa65f3fe0c9fc5780448045c8", "bike_id": "e94173caa65f3fe0c9fc5780448045c8", "fusion_lat": 0.0, "is_reserved": 0, "lat": 38.89279166666667, "fusion_lon": 0.0, "is_disabled": 0}, {"rental_uris": {"android": "https://dc.lft.to/lastmile_qr_scan", "ios": "https://dc.lft.to/lastmile_qr_scan"}, "type": "electric_scooter", "lon": -77.043817, "name": "7c8f2e3aec31b1f125cba7d79e590d73", "bike_id": "7c8f2e3aec31b1f125cba7d79e590d73", "fusion_lat": 0.0, "is_reserved": 0, "lat": 38.92067816666667, "fusion_lon": 0.0, "is_disabled": 0}, {"rental_uris": {"android": "https://dc.lft.to/lastmile_qr_scan", "ios": "https://dc.lft.to/lastmile_qr_scan"}, "type": "electric_scooter", "lon": -77.04241583333334, "name": "f6104e9ef6f29adc4051b5da931fd05c", "bike_id": "f6104e9ef6f29adc4051b5da931fd05c", "fusion_lat": 0.0, "is_reserved": 0, "lat": 38.92224133333333, "fusion_lon": 0.0, "is_disabled": 0}, {"rental_uris": {"android": "https://dc.lft.to/lastmile_qr_scan", "ios": "https://dc.lft.to/lastmile_qr_scan"}, "type": "electric_scooter", "lon": -77.02688016666667, "name": "75b37513b91a722f345ede20d103d9fe", "bike_id": "75b37513b91a722f345ede20d103d9fe", "fusion_lat": 0.0, "is_reserved": 0, "lat": 38.909683666666666, "fusion_lon": 0.0, "is_disabled": 0}, {"rental_uris": {"android": "https://dc.lft.to/lastmile_qr_scan", "ios": "https://dc.lft.to/lastmile_qr_scan"}, "type": "electric_scooter", "lon": -76.978267, "name": "f4cc96d311366545c83b78053b4fbd45", "bike_id": "f4cc96d311366545c83b78053b4fbd45", "fusion_lat": 0.0, "is_reserved": 0, "lat": 38.896039333333334, "fusion_lon": 0.0, "is_disabled": 0}, {"rental_uris": {"android": "https://dc.lft.to/lastmile_qr_scan", "ios": "https://dc.lft.to/lastmile_qr_scan"}, "type": "electric_scooter", "lon": -77.03989633333333, "name": "e05caf8c9b4a167c3cdf7db310699367", "bike_id": "e05caf8c9b4a167c3cdf7db310699367", "fusion_lat": 0.0, "is_reserved": 0, "lat": 38.9162185, "fusion_lon": 0.0, "is_disabled": 0}, {"rental_uris": {"android": "https://dc.lft.to/lastmile_qr_scan", "ios": "https://dc.lft.to/lastmile_qr_scan"}, "type": "electric_scooter", "lon": -76.99510916666667, "name": "22460452f6d99c85fca77059376a5091", "bike_id": "22460452f6d99c85fca77059376a5091", "fusion_lat": 0.0, "is_reserved": 0, "lat": 38.87779, "fusion_lon": 0.0, "is_disabled": 0}, {"rental_uris": {"android": "https://dc.lft.to/lastmile_qr_scan", "ios": "https://dc.lft.to/lastmile_qr_scan"}, "type": "electric_scooter", "lon": -77.04355483333333, "name": "62b0579499d42160a191af4dbebe952f", "bike_id": "62b0579499d42160a191af4dbebe952f", "fusion_lat": 0.0, "is_reserved": 0, "lat": 38.907304333333336, "fusion_lon": 0.0, "is_disabled": 0}, {"rental_uris": {"android": "https://dc.lft.to/lastmile_qr_scan", "ios": "https://dc.lft.to/lastmile_qr_scan"}, "type": "electric_scooter", "lon": -76.99367883333333, "name": "606d1ad6d5ca3a1b1777c92b0a5001c5", "bike_id": "606d1ad6d5ca3a1b1777c92b0a5001c5", "fusion_lat": 0.0, "is_reserved": 0, "lat": 38.900535166666664, "fusion_lon": 0.0, "is_disabled": 0}, {"rental_uris": {"android": "https://dc.lft.to/lastmile_qr_scan", "ios": "https://dc.lft.to/lastmile_qr_scan"}, "type": "electric_scooter", "lon": -77.02699266666667, "name": "78877a1abdc65da85cb433e750cc0181", "bike_id": "78877a1abdc65da85cb433e750cc0181", "fusion_lat": 0.0, "is_reserved": 0, "lat": 38.90448966666666, "fusion_lon": 0.0, "is_disabled": 0}, {"rental_uris": {"android": "https://dc.lft.to/lastmile_qr_scan", "ios": "https://dc.lft.to/lastmile_qr_scan"}, "type": "electric_scooter", "lon": -76.98856133333334, "name": "d1a3b316700f9ddc86e5fe5767da58ae", "bike_id": "d1a3b316700f9ddc86e5fe5767da58ae", "fusion_lat": 0.0, "is_reserved": 0, "lat": 38.9035285, "fusion_lon": 0.0, "is_disabled": 0}, {"rental_uris": {"android": "https://dc.lft.to/lastmile_qr_scan", "ios": "https://dc.lft.to/lastmile_qr_scan"}, "type": "electric_scooter", "lon": -77.04997616666667, "name": "b938f4907c54c4479b4a0f00e8a9a43f", "bike_id": "b938f4907c54c4479b4a0f00e8a9a43f", "fusion_lat": 0.0, "is_reserved": 0, "lat": 38.90408716666666, "fusion_lon": 0.0, "is_disabled": 0}, {"rental_uris": {"android": "https://dc.lft.to/lastmile_qr_scan", "ios": "https://dc.lft.to/lastmile_qr_scan"}, "type": "electric_bike", "lon": -77.03855633333333, "name": "241d72e33cfe4b7d759a69407708a299", "bike_id": "241d72e33cfe4b7d759a69407708a299", "fusion_lat": 0.0, "is_reserved": 0, "lat": 38.921617833333336, "fusion_lon": 0.0, "is_disabled": 0}, {"rental_uris": {"android": "https://dc.lft.to/lastmile_qr_scan", "ios": "https://dc.lft.to/lastmile_qr_scan"}, "type": "electric_scooter", "lon": -77.02775633333333, "name": "b1f946f53f8b6242ecf4f613e254be76", "bike_id": "b1f946f53f8b6242ecf4f613e254be76", "fusion_lat": 0.0, "is_reserved": 0, "lat": 38.892183333333335, "fusion_lon": 0.0, "is_disabled": 0}, {"rental_uris": {"android": "https://dc.lft.to/lastmile_qr_scan", "ios": "https://dc.lft.to/lastmile_qr_scan"}, "type": "electric_scooter", "lon": -77.02499, "name": "b776af3cf76e5dc9e8b9cadd93b4b911", "bike_id": "b776af3cf76e5dc9e8b9cadd93b4b911", "fusion_lat": 0.0, "is_reserved": 0, "lat": 38.93282083333333, "fusion_lon": 0.0, "is_disabled": 0}, {"rental_uris": {"android": "https://dc.lft.to/lastmile_qr_scan", "ios": "https://dc.lft.to/lastmile_qr_scan"}, "type": "electric_scooter", "lon": -76.94306133333333, "name": "40d74194dd8d98214c0cdfcb8a402f6c", "bike_id": "40d74194dd8d98214c0cdfcb8a402f6c", "fusion_lat": 0.0, "is_reserved": 0, "lat": 38.901692, "fusion_lon": 0.0, "is_disabled": 0}, {"rental_uris": {"android": "https://dc.lft.to/lastmile_qr_scan", "ios": "https://dc.lft.to/lastmile_qr_scan"}, "type": "electric_scooter", "lon": -77.03991566666667, "name": "d4f5c086cac803336837589f024a5516", "bike_id": "d4f5c086cac803336837589f024a5516", "fusion_lat": 0.0, "is_reserved": 0, "lat": 38.89343983333333, "fusion_lon": 0.0, "is_disabled": 0}, {"rental_uris": {"android": "https://dc.lft.to/lastmile_qr_scan", "ios": "https://dc.lft.to/lastmile_qr_scan"}, "type": "electric_scooter", "lon": -77.04875066666666, "name": "dd763942812bd11ba1dfe0d2e9bfc8b0", "bike_id": "dd763942812bd11ba1dfe0d2e9bfc8b0", "fusion_lat": 0.0, "is_reserved": 0, "lat": 38.91196016666667, "fusion_lon": 0.0, "is_disabled": 0}, {"rental_uris": {"android": "https://dc.lft.to/lastmile_qr_scan", "ios": "https://dc.lft.to/lastmile_qr_scan"}, "type": "electric_scooter", "lon": -77.0540785, "name": "4990bbc69490d11214bd745dc47ef1cd", "bike_id": "4990bbc69490d11214bd745dc47ef1cd", "fusion_lat": 0.0, "is_reserved": 0, "lat": 38.86889933333333, "fusion_lon": 0.0, "is_disabled": 0}, {"rental_uris": {"android": "https://dc.lft.to/lastmile_qr_scan", "ios": "https://dc.lft.to/lastmile_qr_scan"}, "type": "electric_scooter", "lon": -77.0736415, "name": "ac2689c1af15863f0cb148543030ecbc", "bike_id": "ac2689c1af15863f0cb148543030ecbc", "fusion_lat": 0.0, "is_reserved": 0, "lat": 38.9432225, "fusion_lon": 0.0, "is_disabled": 0}, {"rental_uris": {"android": "https://dc.lft.to/lastmile_qr_scan", "ios": "https://dc.lft.to/lastmile_qr_scan"}, "type": "electric_scooter", "lon": -76.99370733333333, "name": "388b2e38f3f112da45bec71a6af82c3f", "bike_id": "388b2e38f3f112da45bec71a6af82c3f", "fusion_lat": 0.0, "is_reserved": 0, "lat": 38.923978166666664, "fusion_lon": 0.0, "is_disabled": 0}, {"rental_uris": {"android": "https://dc.lft.to/lastmile_qr_scan", "ios": "https://dc.lft.to/lastmile_qr_scan"}, "type": "electric_scooter", "lon": -77.02010966666667, "name": "dfe3365a152a1da86c1060514d62f118", "bike_id": "dfe3365a152a1da86c1060514d62f118", "fusion_lat": 0.0, "is_reserved": 0, "lat": 38.879343666666664, "fusion_lon": 0.0, "is_disabled": 0}, {"rental_uris": {"android": "https://dc.lft.to/lastmile_qr_scan", "ios": "https://dc.lft.to/lastmile_qr_scan"}, "type": "electric_scooter", "lon": -77.017194, "name": "635a9c7077156ae9346846c724c73ceb", "bike_id": "635a9c7077156ae9346846c724c73ceb", "fusion_lat": 0.0, "is_reserved": 0, "lat": 38.87934, "fusion_lon": 0.0, "is_disabled": 0}, {"rental_uris": {"android": "https://dc.lft.to/lastmile_qr_scan", "ios": "https://dc.lft.to/lastmile_qr_scan"}, "type": "electric_scooter", "lon": -76.98558683333333, "name": "f630bfd2ae12834b2180a766ddd2aa9e", "bike_id": "f630bfd2ae12834b2180a766ddd2aa9e", "fusion_lat": 0.0, "is_reserved": 0, "lat": 38.8558105, "fusion_lon": 0.0, "is_disabled": 0}, {"rental_uris": {"android": "https://dc.lft.to/lastmile_qr_scan", "ios": "https://dc.lft.to/lastmile_qr_scan"}, "type": "electric_scooter", "lon": -76.99681466666667, "name": "5e1652abaa3b57072e8414cca0aedc1f", "bike_id": "5e1652abaa3b57072e8414cca0aedc1f", "fusion_lat": 0.0, "is_reserved": 0, "lat": 38.92183083333333, "fusion_lon": 0.0, "is_disabled": 0}, {"rental_uris": {"android": "https://dc.lft.to/lastmile_qr_scan", "ios": "https://dc.lft.to/lastmile_qr_scan"}, "type": "electric_scooter", "lon": -77.03452383333334, "name": "29199f55854834c07d33dd1a06c66813", "bike_id": "29199f55854834c07d33dd1a06c66813", "fusion_lat": 0.0, "is_reserved": 0, "lat": 38.9087165, "fusion_lon": 0.0, "is_disabled": 0}, {"rental_uris": {"android": "https://dc.lft.to/lastmile_qr_scan", "ios": "https://dc.lft.to/lastmile_qr_scan"}, "type": "electric_scooter", "lon": -77.038601, "name": "9322ac5bdef320db0dde4c76d64c857e", "bike_id": "9322ac5bdef320db0dde4c76d64c857e", "fusion_lat": 0.0, "is_reserved": 0, "lat": 38.911678, "fusion_lon": 0.0, "is_disabled": 0}, {"rental_uris": {"android": "https://dc.lft.to/lastmile_qr_scan", "ios": "https://dc.lft.to/lastmile_qr_scan"}, "type": "electric_scooter", "lon": -76.98617216666666, "name": "c47bf01c9e6ab57edace4f2b121ed286", "bike_id": "c47bf01c9e6ab57edace4f2b121ed286", "fusion_lat": 0.0, "is_reserved": 0, "lat": 38.905749, "fusion_lon": 0.0, "is_disabled": 0}, {"rental_uris": {"android": "https://dc.lft.to/lastmile_qr_scan", "ios": "https://dc.lft.to/lastmile_qr_scan"}, "type": "electric_scooter", "lon": -77.01773683333333, "name": "4d6890a1dbaa9e4f62a9831b65c1e73a", "bike_id": "4d6890a1dbaa9e4f62a9831b65c1e73a", "fusion_lat": 0.0, "is_reserved": 0, "lat": 38.902050833333334, "fusion_lon": 0.0, "is_disabled": 0}, {"rental_uris": {"android": "https://dc.lft.to/lastmile_qr_scan", "ios": "https://dc.lft.to/lastmile_qr_scan"}, "type": "electric_scooter", "lon": -76.98462566666667, "name": "0cc59f3f20ae4cd2292f75c8dbe828be", "bike_id": "0cc59f3f20ae4cd2292f75c8dbe828be", "fusion_lat": 0.0, "is_reserved": 0, "lat": 38.880103, "fusion_lon": 0.0, "is_disabled": 0}, {"rental_uris": {"android": "https://dc.lft.to/lastmile_qr_scan", "ios": "https://dc.lft.to/lastmile_qr_scan"}, "type": "electric_bike", "lon": -77.00866233333333, "name": "ae1d2f2acfb1b438dc191be5b0db9406", "bike_id": "ae1d2f2acfb1b438dc191be5b0db9406", "fusion_lat": 0.0, "is_reserved": 0, "lat": 38.8272485, "fusion_lon": 0.0, "is_disabled": 0}, {"rental_uris": {"android": "https://dc.lft.to/lastmile_qr_scan", "ios": "https://dc.lft.to/lastmile_qr_scan"}, "type": "electric_scooter", "lon": -77.01179933333333, "name": "e8f8a6d71f292f0354990f0825684fe9", "bike_id": "e8f8a6d71f292f0354990f0825684fe9", "fusion_lat": 0.0, "is_reserved": 0, "lat": 38.90020633333334, "fusion_lon": 0.0, "is_disabled": 0}, {"rental_uris": {"android": "https://dc.lft.to/lastmile_qr_scan", "ios": "https://dc.lft.to/lastmile_qr_scan"}, "type": "electric_scooter", "lon": -77.0344075, "name": "48b603a95253d0c2e2ed7ce933d59efa", "bike_id": "48b603a95253d0c2e2ed7ce933d59efa", "fusion_lat": 0.0, "is_reserved": 0, "lat": 38.91032833333333, "fusion_lon": 0.0, "is_disabled": 0}, {"rental_uris": {"android": "https://dc.lft.to/lastmile_qr_scan", "ios": "https://dc.lft.to/lastmile_qr_scan"}, "type": "electric_scooter", "lon": -77.0465635, "name": "57376123e6b5534a4a670eec02e3267d", "bike_id": "57376123e6b5534a4a670eec02e3267d", "fusion_lat": 0.0, "is_reserved": 0, "lat": 38.90488966666667, "fusion_lon": 0.0, "is_disabled": 0}, {"rental_uris": {"android": "https://dc.lft.to/lastmile_qr_scan", "ios": "https://dc.lft.to/lastmile_qr_scan"}, "type": "electric_scooter", "lon": -77.03105966666666, "name": "bc53e199c77a7206d2ba18396bcca102", "bike_id": "bc53e199c77a7206d2ba18396bcca102", "fusion_lat": 0.0, "is_reserved": 0, "lat": 38.8922395, "fusion_lon": 0.0, "is_disabled": 0}, {"rental_uris": {"android": "https://dc.lft.to/lastmile_qr_scan", "ios": "https://dc.lft.to/lastmile_qr_scan"}, "type": "electric_scooter", "lon": -77.02539783333333, "name": "5f0bee38a903dbacfbb578c3e30f4ada", "bike_id": "5f0bee38a903dbacfbb578c3e30f4ada", "fusion_lat": 0.0, "is_reserved": 0, "lat": 38.9071565, "fusion_lon": 0.0, "is_disabled": 0}, {"rental_uris": {"android": "https://dc.lft.to/lastmile_qr_scan", "ios": "https://dc.lft.to/lastmile_qr_scan"}, "type": "electric_scooter", "lon": -77.09222066666666, "name": "8441a213888d8cc5c33d99eedbf664a3", "bike_id": "8441a213888d8cc5c33d99eedbf664a3", "fusion_lat": 0.0, "is_reserved": 0, "lat": 38.916862, "fusion_lon": 0.0, "is_disabled": 0}, {"rental_uris": {"android": "https://dc.lft.to/lastmile_qr_scan", "ios": "https://dc.lft.to/lastmile_qr_scan"}, "type": "electric_scooter", "lon": -77.017546, "name": "28452d3765c4c6b9d90d3d32f77333eb", "bike_id": "28452d3765c4c6b9d90d3d32f77333eb", "fusion_lat": 0.0, "is_reserved": 0, "lat": 38.90255, "fusion_lon": 0.0, "is_disabled": 0}, {"rental_uris": {"android": "https://dc.lft.to/lastmile_qr_scan", "ios": "https://dc.lft.to/lastmile_qr_scan"}, "type": "electric_scooter", "lon": -77.04318233333333, "name": "b8a5ecd204170c5bb18d132bcbefa025", "bike_id": "b8a5ecd204170c5bb18d132bcbefa025", "fusion_lat": 0.0, "is_reserved": 0, "lat": 38.91263816666667, "fusion_lon": 0.0, "is_disabled": 0}, {"rental_uris": {"android": "https://dc.lft.to/lastmile_qr_scan", "ios": "https://dc.lft.to/lastmile_qr_scan"}, "type": "electric_scooter", "lon": -77.02427283333333, "name": "8d95be752be3b0aaf304fb9f7807cd40", "bike_id": "8d95be752be3b0aaf304fb9f7807cd40", "fusion_lat": 0.0, "is_reserved": 0, "lat": 38.927544, "fusion_lon": 0.0, "is_disabled": 0}, {"rental_uris": {"android": "https://dc.lft.to/lastmile_qr_scan", "ios": "https://dc.lft.to/lastmile_qr_scan"}, "type": "electric_scooter", "lon": -77.03025016666666, "name": "1d9f3f29a88f501484aee1eec8136420", "bike_id": "1d9f3f29a88f501484aee1eec8136420", "fusion_lat": 0.0, "is_reserved": 0, "lat": 38.896135666666666, "fusion_lon": 0.0, "is_disabled": 0}, {"rental_uris": {"android": "https://dc.lft.to/lastmile_qr_scan", "ios": "https://dc.lft.to/lastmile_qr_scan"}, "type": "electric_scooter", "lon": -77.02194966666667, "name": "d966041871b037f0e7e833cf6d9c3650", "bike_id": "d966041871b037f0e7e833cf6d9c3650", "fusion_lat": 0.0, "is_reserved": 0, "lat": 38.90588433333333, "fusion_lon": 0.0, "is_disabled": 0}, {"rental_uris": {"android": "https://dc.lft.to/lastmile_qr_scan", "ios": "https://dc.lft.to/lastmile_qr_scan"}, "type": "electric_scooter", "lon": -77.00454, "name": "1803e67e6f853bf8313e4ed242efbdc5", "bike_id": "1803e67e6f853bf8313e4ed242efbdc5", "fusion_lat": 0.0, "is_reserved": 0, "lat": 38.928954833333336, "fusion_lon": 0.0, "is_disabled": 0}, {"rental_uris": {"android": "https://dc.lft.to/lastmile_qr_scan", "ios": "https://dc.lft.to/lastmile_qr_scan"}, "type": "electric_scooter", "lon": -77.01303783333333, "name": "689bc8a461122eacf10180060631ac98", "bike_id": "689bc8a461122eacf10180060631ac98", "fusion_lat": 0.0, "is_reserved": 0, "lat": 38.9017965, "fusion_lon": 0.0, "is_disabled": 0}, {"rental_uris": {"android": "https://dc.lft.to/lastmile_qr_scan", "ios": "https://dc.lft.to/lastmile_qr_scan"}, "type": "electric_scooter", "lon": -77.02140283333334, "name": "a7811dc2206dae2120164e1763ac562e", "bike_id": "a7811dc2206dae2120164e1763ac562e", "fusion_lat": 0.0, "is_reserved": 0, "lat": 38.899561166666665, "fusion_lon": 0.0, "is_disabled": 0}, {"rental_uris": {"android": "https://dc.lft.to/lastmile_qr_scan", "ios": "https://dc.lft.to/lastmile_qr_scan"}, "type": "electric_scooter", "lon": -77.0396465, "name": "64dedfe8eec4b7c62d255830b5731c66", "bike_id": "64dedfe8eec4b7c62d255830b5731c66", "fusion_lat": 0.0, "is_reserved": 0, "lat": 38.90412466666667, "fusion_lon": 0.0, "is_disabled": 0}, {"rental_uris": {"android": "https://dc.lft.to/lastmile_qr_scan", "ios": "https://dc.lft.to/lastmile_qr_scan"}, "type": "electric_scooter", "lon": -77.02521566666667, "name": "3386752d456c347ec710ae747044409e", "bike_id": "3386752d456c347ec710ae747044409e", "fusion_lat": 0.0, "is_reserved": 0, "lat": 38.9198625, "fusion_lon": 0.0, "is_disabled": 0}, {"rental_uris": {"android": "https://dc.lft.to/lastmile_qr_scan", "ios": "https://dc.lft.to/lastmile_qr_scan"}, "type": "electric_scooter", "lon": -76.93752633333334, "name": "baf0b50406a2fcbbc6c84d41273c27b0", "bike_id": "baf0b50406a2fcbbc6c84d41273c27b0", "fusion_lat": 0.0, "is_reserved": 0, "lat": 38.890389, "fusion_lon": 0.0, "is_disabled": 0}, {"rental_uris": {"android": "https://dc.lft.to/lastmile_qr_scan", "ios": "https://dc.lft.to/lastmile_qr_scan"}, "type": "electric_bike", "lon": -76.9095905, "name": "92521dbdff5fc1217261fedb55f64018", "bike_id": "92521dbdff5fc1217261fedb55f64018", "fusion_lat": 0.0, "is_reserved": 0, "lat": 38.854253166666666, "fusion_lon": 0.0, "is_disabled": 0}, {"rental_uris": {"android": "https://dc.lft.to/lastmile_qr_scan", "ios": "https://dc.lft.to/lastmile_qr_scan"}, "type": "electric_scooter", "lon": -77.034751, "name": "a84e2143b120cd6e0e03c756f7baf2fa", "bike_id": "a84e2143b120cd6e0e03c756f7baf2fa", "fusion_lat": 0.0, "is_reserved": 0, "lat": 38.930953833333334, "fusion_lon": 0.0, "is_disabled": 0}, {"rental_uris": {"android": "https://dc.lft.to/lastmile_qr_scan", "ios": "https://dc.lft.to/lastmile_qr_scan"}, "type": "electric_scooter", "lon": -77.003411, "name": "2f470de4b596252e31b4c4c336bee4f8", "bike_id": "2f470de4b596252e31b4c4c336bee4f8", "fusion_lat": 0.0, "is_reserved": 0, "lat": 38.922634, "fusion_lon": 0.0, "is_disabled": 0}, {"rental_uris": {"android": "https://dc.lft.to/lastmile_qr_scan", "ios": "https://dc.lft.to/lastmile_qr_scan"}, "type": "electric_scooter", "lon": -77.04343266666666, "name": "c1f6f7b928fd37a01f50b277fc3b796e", "bike_id": "c1f6f7b928fd37a01f50b277fc3b796e", "fusion_lat": 0.0, "is_reserved": 0, "lat": 38.907125, "fusion_lon": 0.0, "is_disabled": 0}, {"rental_uris": {"android": "https://dc.lft.to/lastmile_qr_scan", "ios": "https://dc.lft.to/lastmile_qr_scan"}, "type": "electric_scooter", "lon": -77.04114083333333, "name": "0db4cf04c7fe3aa8f97a22a459406199", "bike_id": "0db4cf04c7fe3aa8f97a22a459406199", "fusion_lat": 0.0, "is_reserved": 0, "lat": 38.93467283333333, "fusion_lon": 0.0, "is_disabled": 0}, {"rental_uris": {"android": "https://dc.lft.to/lastmile_qr_scan", "ios": "https://dc.lft.to/lastmile_qr_scan"}, "type": "electric_scooter", "lon": -77.0679505, "name": "9f00dc792ada64b605f8efd106e726aa", "bike_id": "9f00dc792ada64b605f8efd106e726aa", "fusion_lat": 0.0, "is_reserved": 0, "lat": 38.90511983333333, "fusion_lon": 0.0, "is_disabled": 0}, {"rental_uris": {"android": "https://dc.lft.to/lastmile_qr_scan", "ios": "https://dc.lft.to/lastmile_qr_scan"}, "type": "electric_scooter", "lon": -77.0656905, "name": "00250e21bf3b449eb96e975ca7097fe6", "bike_id": "00250e21bf3b449eb96e975ca7097fe6", "fusion_lat": 0.0, "is_reserved": 0, "lat": 38.905232833333336, "fusion_lon": 0.0, "is_disabled": 0}, {"rental_uris": {"android": "https://dc.lft.to/lastmile_qr_scan", "ios": "https://dc.lft.to/lastmile_qr_scan"}, "type": "electric_scooter", "lon": -77.041359, "name": "56f1f573d10f456e08c4330167bdc436", "bike_id": "56f1f573d10f456e08c4330167bdc436", "fusion_lat": 0.0, "is_reserved": 0, "lat": 38.92124966666667, "fusion_lon": 0.0, "is_disabled": 0}, {"rental_uris": {"android": "https://dc.lft.to/lastmile_qr_scan", "ios": "https://dc.lft.to/lastmile_qr_scan"}, "type": "electric_bike", "lon": -77.0237645, "name": "9d9ac4031b84ea7330b7f2ece69cb305", "bike_id": "9d9ac4031b84ea7330b7f2ece69cb305", "fusion_lat": 0.0, "is_reserved": 0, "lat": 38.95295316666667, "fusion_lon": 0.0, "is_disabled": 0}, {"rental_uris": {"android": "https://dc.lft.to/lastmile_qr_scan", "ios": "https://dc.lft.to/lastmile_qr_scan"}, "type": "electric_scooter", "lon": -77.0437105, "name": "6c5bdae594945c3179cd366b88b67f05", "bike_id": "6c5bdae594945c3179cd366b88b67f05", "fusion_lat": 0.0, "is_reserved": 0, "lat": 38.90711183333333, "fusion_lon": 0.0, "is_disabled": 0}, {"rental_uris": {"android": "https://dc.lft.to/lastmile_qr_scan", "ios": "https://dc.lft.to/lastmile_qr_scan"}, "type": "electric_scooter", "lon": -77.04660066666666, "name": "e9435710fefa710795d5764e6281f3b8", "bike_id": "e9435710fefa710795d5764e6281f3b8", "fusion_lat": 0.0, "is_reserved": 0, "lat": 38.89236116666667, "fusion_lon": 0.0, "is_disabled": 0}, {"rental_uris": {"android": "https://dc.lft.to/lastmile_qr_scan", "ios": "https://dc.lft.to/lastmile_qr_scan"}, "type": "electric_bike", "lon": -76.98752133333333, "name": "7d2e59b2ec1e73002da2b51ced37a174", "bike_id": "7d2e59b2ec1e73002da2b51ced37a174", "fusion_lat": 0.0, "is_reserved": 0, "lat": 38.98827416666666, "fusion_lon": 0.0, "is_disabled": 0}, {"rental_uris": {"android": "https://dc.lft.to/lastmile_qr_scan", "ios": "https://dc.lft.to/lastmile_qr_scan"}, "type": "electric_scooter", "lon": -77.02425116666667, "name": "42bee2799b2ab67b88c0b5ceac5c2110", "bike_id": "42bee2799b2ab67b88c0b5ceac5c2110", "fusion_lat": 0.0, "is_reserved": 0, "lat": 38.9204405, "fusion_lon": 0.0, "is_disabled": 0}, {"rental_uris": {"android": "https://dc.lft.to/lastmile_qr_scan", "ios": "https://dc.lft.to/lastmile_qr_scan"}, "type": "electric_scooter", "lon": -77.01200566666667, "name": "a68d66c0476a0a00cda6c6810b815a9b", "bike_id": "a68d66c0476a0a00cda6c6810b815a9b", "fusion_lat": 0.0, "is_reserved": 0, "lat": 38.8952345, "fusion_lon": 0.0, "is_disabled": 0}, {"rental_uris": {"android": "https://dc.lft.to/lastmile_qr_scan", "ios": "https://dc.lft.to/lastmile_qr_scan"}, "type": "electric_scooter", "lon": -77.02350266666667, "name": "146e12c75e13a997da730f42517be601", "bike_id": "146e12c75e13a997da730f42517be601", "fusion_lat": 0.0, "is_reserved": 0, "lat": 38.9020805, "fusion_lon": 0.0, "is_disabled": 0}, {"rental_uris": {"android": "https://dc.lft.to/lastmile_qr_scan", "ios": "https://dc.lft.to/lastmile_qr_scan"}, "type": "electric_scooter", "lon": -77.03349783333333, "name": "c8e0c1899b35a55fd1339a286e2ea89e", "bike_id": "c8e0c1899b35a55fd1339a286e2ea89e", "fusion_lat": 0.0, "is_reserved": 0, "lat": 38.9171085, "fusion_lon": 0.0, "is_disabled": 0}, {"rental_uris": {"android": "https://dc.lft.to/lastmile_qr_scan", "ios": "https://dc.lft.to/lastmile_qr_scan"}, "type": "electric_bike", "lon": -76.99247166666666, "name": "841be99bf48258b858b399bae3ec1812", "bike_id": "841be99bf48258b858b399bae3ec1812", "fusion_lat": 0.0, "is_reserved": 0, "lat": 38.92344933333333, "fusion_lon": 0.0, "is_disabled": 0}, {"rental_uris": {"android": "https://dc.lft.to/lastmile_qr_scan", "ios": "https://dc.lft.to/lastmile_qr_scan"}, "type": "electric_scooter", "lon": -77.03154216666667, "name": "004ebce0ba5e0ca6844d82865ff5a68b", "bike_id": "004ebce0ba5e0ca6844d82865ff5a68b", "fusion_lat": 0.0, "is_reserved": 0, "lat": 38.928087166666664, "fusion_lon": 0.0, "is_disabled": 0}, {"rental_uris": {"android": "https://dc.lft.to/lastmile_qr_scan", "ios": "https://dc.lft.to/lastmile_qr_scan"}, "type": "electric_scooter", "lon": -76.93465616666667, "name": "9d23bf87a763f256a32bf3365a72d530", "bike_id": "9d23bf87a763f256a32bf3365a72d530", "fusion_lat": 0.0, "is_reserved": 0, "lat": 38.9018905, "fusion_lon": 0.0, "is_disabled": 0}, {"rental_uris": {"android": "https://dc.lft.to/lastmile_qr_scan", "ios": "https://dc.lft.to/lastmile_qr_scan"}, "type": "electric_bike", "lon": -76.93887733333334, "name": "546929f7d25cfc5d51f7b3ead6901c95", "bike_id": "546929f7d25cfc5d51f7b3ead6901c95", "fusion_lat": 0.0, "is_reserved": 0, "lat": 38.956185833333336, "fusion_lon": 0.0, "is_disabled": 0}, {"rental_uris": {"android": "https://dc.lft.to/lastmile_qr_scan", "ios": "https://dc.lft.to/lastmile_qr_scan"}, "type": "electric_scooter", "lon": -77.0200575, "name": "0810da1da4189aae5375b32946fd54d2", "bike_id": "0810da1da4189aae5375b32946fd54d2", "fusion_lat": 0.0, "is_reserved": 0, "lat": 38.8987205, "fusion_lon": 0.0, "is_disabled": 0}, {"rental_uris": {"android": "https://dc.lft.to/lastmile_qr_scan", "ios": "https://dc.lft.to/lastmile_qr_scan"}, "type": "electric_scooter", "lon": -76.996328, "name": "92adb9a0360de0d1c2c4f20ebc0d9ff5", "bike_id": "92adb9a0360de0d1c2c4f20ebc0d9ff5", "fusion_lat": 0.0, "is_reserved": 0, "lat": 38.84617983333333, "fusion_lon": 0.0, "is_disabled": 0}, {"rental_uris": {"android": "https://dc.lft.to/lastmile_qr_scan", "ios": "https://dc.lft.to/lastmile_qr_scan"}, "type": "electric_scooter", "lon": -77.03144133333333, "name": "19ff599a0f34233f18fc26f6c83c2a51", "bike_id": "19ff599a0f34233f18fc26f6c83c2a51", "fusion_lat": 0.0, "is_reserved": 0, "lat": 38.93185316666667, "fusion_lon": 0.0, "is_disabled": 0}, {"rental_uris": {"android": "https://dc.lft.to/lastmile_qr_scan", "ios": "https://dc.lft.to/lastmile_qr_scan"}, "type": "electric_scooter", "lon": -77.01753383333333, "name": "ab85741966a302ad89322eee7429f110", "bike_id": "ab85741966a302ad89322eee7429f110", "fusion_lat": 0.0, "is_reserved": 0, "lat": 38.91355016666667, "fusion_lon": 0.0, "is_disabled": 0}, {"rental_uris": {"android": "https://dc.lft.to/lastmile_qr_scan", "ios": "https://dc.lft.to/lastmile_qr_scan"}, "type": "electric_scooter", "lon": -77.02194333333334, "name": "b3b2512253f6f0fc3f74b0da7d599240", "bike_id": "b3b2512253f6f0fc3f74b0da7d599240", "fusion_lat": 0.0, "is_reserved": 0, "lat": 38.91134733333333, "fusion_lon": 0.0, "is_disabled": 0}, {"rental_uris": {"android": "https://dc.lft.to/lastmile_qr_scan", "ios": "https://dc.lft.to/lastmile_qr_scan"}, "type": "electric_scooter", "lon": -77.029036, "name": "a8a09d2cc9ec3a6ee6dac2ffa457d4e6", "bike_id": "a8a09d2cc9ec3a6ee6dac2ffa457d4e6", "fusion_lat": 0.0, "is_reserved": 0, "lat": 38.95841883333333, "fusion_lon": 0.0, "is_disabled": 0}, {"rental_uris": {"android": "https://dc.lft.to/lastmile_qr_scan", "ios": "https://dc.lft.to/lastmile_qr_scan"}, "type": "electric_bike", "lon": -77.06349766666666, "name": "2845462a52b77342b058a286c9b636a9", "bike_id": "2845462a52b77342b058a286c9b636a9", "fusion_lat": 0.0, "is_reserved": 0, "lat": 38.9436885, "fusion_lon": 0.0, "is_disabled": 0}, {"rental_uris": {"android": "https://dc.lft.to/lastmile_qr_scan", "ios": "https://dc.lft.to/lastmile_qr_scan"}, "type": "electric_scooter", "lon": -77.03086416666666, "name": "78fe60cf28665d33951faf748b0cbd80", "bike_id": "78fe60cf28665d33951faf748b0cbd80", "fusion_lat": 0.0, "is_reserved": 0, "lat": 38.916968833333335, "fusion_lon": 0.0, "is_disabled": 0}, {"rental_uris": {"android": "https://dc.lft.to/lastmile_qr_scan", "ios": "https://dc.lft.to/lastmile_qr_scan"}, "type": "electric_scooter", "lon": -77.02347416666667, "name": "24268291162ca557711c414d658c486e", "bike_id": "24268291162ca557711c414d658c486e", "fusion_lat": 0.0, "is_reserved": 0, "lat": 38.884785, "fusion_lon": 0.0, "is_disabled": 0}, {"rental_uris": {"android": "https://dc.lft.to/lastmile_qr_scan", "ios": "https://dc.lft.to/lastmile_qr_scan"}, "type": "electric_scooter", "lon": -77.005999, "name": "455d6c6cfc4d9bd4e83c843a70762240", "bike_id": "455d6c6cfc4d9bd4e83c843a70762240", "fusion_lat": 0.0, "is_reserved": 0, "lat": 38.903232, "fusion_lon": 0.0, "is_disabled": 0}, {"rental_uris": {"android": "https://dc.lft.to/lastmile_qr_scan", "ios": "https://dc.lft.to/lastmile_qr_scan"}, "type": "electric_scooter", "lon": -76.94158416666667, "name": "64e2b689d430135334fc5ca54846b9d2", "bike_id": "64e2b689d430135334fc5ca54846b9d2", "fusion_lat": 0.0, "is_reserved": 0, "lat": 38.88362516666667, "fusion_lon": 0.0, "is_disabled": 0}, {"rental_uris": {"android": "https://dc.lft.to/lastmile_qr_scan", "ios": "https://dc.lft.to/lastmile_qr_scan"}, "type": "electric_scooter", "lon": -77.04404566666666, "name": "eff13a853001149f5eaa959958ab39c9", "bike_id": "eff13a853001149f5eaa959958ab39c9", "fusion_lat": 0.0, "is_reserved": 0, "lat": 38.917072166666664, "fusion_lon": 0.0, "is_disabled": 0}, {"rental_uris": {"android": "https://dc.lft.to/lastmile_qr_scan", "ios": "https://dc.lft.to/lastmile_qr_scan"}, "type": "electric_scooter", "lon": -77.05277516666666, "name": "93b66d918136ae3a8460183065ae3186", "bike_id": "93b66d918136ae3a8460183065ae3186", "fusion_lat": 0.0, "is_reserved": 0, "lat": 38.92258116666667, "fusion_lon": 0.0, "is_disabled": 0}, {"rental_uris": {"android": "https://dc.lft.to/lastmile_qr_scan", "ios": "https://dc.lft.to/lastmile_qr_scan"}, "type": "electric_scooter", "lon": -77.02618766666667, "name": "bc5b6d4071bbe745cbe146cf0f192858", "bike_id": "bc5b6d4071bbe745cbe146cf0f192858", "fusion_lat": 0.0, "is_reserved": 0, "lat": 38.897257, "fusion_lon": 0.0, "is_disabled": 0}, {"rental_uris": {"android": "https://dc.lft.to/lastmile_qr_scan", "ios": "https://dc.lft.to/lastmile_qr_scan"}, "type": "electric_bike", "lon": -77.00604616666666, "name": "63a25fe66028eceda55b1314e23a25ba", "bike_id": "63a25fe66028eceda55b1314e23a25ba", "fusion_lat": 0.0, "is_reserved": 0, "lat": 38.8981105, "fusion_lon": 0.0, "is_disabled": 0}, {"rental_uris": {"android": "https://dc.lft.to/lastmile_qr_scan", "ios": "https://dc.lft.to/lastmile_qr_scan"}, "type": "electric_scooter", "lon": -77.023079, "name": "d1f0ea080923c951af3147ea49b15dfd", "bike_id": "d1f0ea080923c951af3147ea49b15dfd", "fusion_lat": 0.0, "is_reserved": 0, "lat": 38.87886733333333, "fusion_lon": 0.0, "is_disabled": 0}, {"rental_uris": {"android": "https://dc.lft.to/lastmile_qr_scan", "ios": "https://dc.lft.to/lastmile_qr_scan"}, "type": "electric_scooter", "lon": -77.04019383333333, "name": "1094092df7141730242fe2d87c27f5ad", "bike_id": "1094092df7141730242fe2d87c27f5ad", "fusion_lat": 0.0, "is_reserved": 0, "lat": 38.92200366666667, "fusion_lon": 0.0, "is_disabled": 0}, {"rental_uris": {"android": "https://dc.lft.to/lastmile_qr_scan", "ios": "https://dc.lft.to/lastmile_qr_scan"}, "type": "electric_scooter", "lon": -76.9873565, "name": "fa823265e18fcea818fc9463ef1787f7", "bike_id": "fa823265e18fcea818fc9463ef1787f7", "fusion_lat": 0.0, "is_reserved": 0, "lat": 38.8669835, "fusion_lon": 0.0, "is_disabled": 0}, {"rental_uris": {"android": "https://dc.lft.to/lastmile_qr_scan", "ios": "https://dc.lft.to/lastmile_qr_scan"}, "type": "electric_scooter", "lon": -77.04236566666667, "name": "c04edf2014896d23b8e219af1706eb49", "bike_id": "c04edf2014896d23b8e219af1706eb49", "fusion_lat": 0.0, "is_reserved": 0, "lat": 38.92156166666667, "fusion_lon": 0.0, "is_disabled": 0}, {"rental_uris": {"android": "https://dc.lft.to/lastmile_qr_scan", "ios": "https://dc.lft.to/lastmile_qr_scan"}, "type": "electric_scooter", "lon": -77.0457935, "name": "e64ffbc95a8017db6848f77d909b62e1", "bike_id": "e64ffbc95a8017db6848f77d909b62e1", "fusion_lat": 0.0, "is_reserved": 0, "lat": 38.900041333333334, "fusion_lon": 0.0, "is_disabled": 0}, {"rental_uris": {"android": "https://dc.lft.to/lastmile_qr_scan", "ios": "https://dc.lft.to/lastmile_qr_scan"},