{"data": {"bikes": [{"type": "electric_scooter", "name": "4aa98469bb127d7bae11f1adcf5d7b5c", "fusion_lon": 0.0, "is_reserved": 0, "lon": -77.0344735, "fusion_lat": 0.0, "is_disabled": 0, "bike_id": "4aa98469bb127d7bae11f1adcf5d7b5c", "lat": 38.91799316666667, "rental_uris": {"ios": "https://dc.lft.to/lastmile_qr_scan", "android": "https://dc.lft.to/lastmile_qr_scan"}}, {"type": "electric_scooter", "name": "0a1b49e60e6f98b01febcee0090f2857", "fusion_lon": 0.0, "is_reserved": 0, "lon": -76.98438866666666, "fusion_lat": 0.0, "is_disabled": 0, "bike_id": "0a1b49e60e6f98b01febcee0090f2857", "lat": 38.93108983333333, "rental_uris": {"ios": "https://dc.lft.to/lastmile_qr_scan", "android": "https://dc.lft.to/lastmile_qr_scan"}}, {"type": "electric_scooter", "name": "d03aa9f8668455069ffb733c068cd99f", "fusion_lon": 0.0, "is_reserved": 0, "lon": -77.02986883333334, "fusion_lat": 0.0, "is_disabled": 0, "bike_id": "d03aa9f8668455069ffb733c068cd99f", "lat": 38.8961055, "rental_uris": {"ios": "https://dc.lft.to/lastmile_qr_scan", "android": "https://dc.lft.to/lastmile_qr_scan"}}, {"type": "electric_scooter", "name": "d894b5571dd5a113ee58a671641066fc", "fusion_lon": 0.0, "is_reserved": 0, "lon": -77.01823233333333, "fusion_lat": 0.0, "is_disabled": 0, "bike_id": "d894b5571dd5a113ee58a671641066fc", "lat": 38.92273766666667, "rental_uris": {"ios": "https://dc.lft.to/lastmile_qr_scan", "android": "https://dc.lft.to/lastmile_qr_scan"}}, {"type": "electric_bike", "name": "33273efe2e5e364b24ec71a3782e9aeb", "fusion_lon": 0.0, "is_reserved": 0, "lon": -76.976167, "fusion_lat": 0.0, "is_disabled": 0, "bike_id": "33273efe2e5e364b24ec71a3782e9aeb", "lat": 38.89293216666667, "rental_uris": {"ios": "https://dc.lft.to/lastmile_qr_scan", "android": "https://dc.lft.to/lastmile_qr_scan"}}, {"type": "electric_scooter", "name": "f820a34eeb791e19428691d5526585ad", "fusion_lon": 0.0, "is_reserved": 0, "lon": -77.0330695, "fusion_lat": 0.0, "is_disabled": 0, "bike_id": "f820a34eeb791e19428691d5526585ad", "lat": 38.90129116666667, "rental_uris": {"ios": "https://dc.lft.to/lastmile_qr_scan", "android": "https://dc.lft.to/lastmile_qr_scan"}}, {"type": "electric_scooter", "name": "b1bf1395d4af646bea7033ed1d19efba", "fusion_lon": 0.0, "is_reserved": 0, "lon": -77.023095, "fusion_lat": 0.0, "is_disabled": 0, "bike_id": "b1bf1395d4af646bea7033ed1d19efba", "lat": 38.925154166666665, "rental_uris": {"ios": "https://dc.lft.to/lastmile_qr_scan", "android": "https://dc.lft.to/lastmile_qr_scan"}}, {"type": "electric_scooter", "name": "4023bfd78ee9b56e42f8ef2d9abc85cc", "fusion_lon": 0.0, "is_reserved": 0, "lon": -77.0331275, "fusion_lat": 0.0, "is_disabled": 0, "bike_id": "4023bfd78ee9b56e42f8ef2d9abc85cc", "lat": 38.897498, "rental_uris": {"ios": "https://dc.lft.to/lastmile_qr_scan", "android": "https://dc.lft.to/lastmile_qr_scan"}}, {"type": "electric_scooter", "name": "bb813e76a088a2c09ffb92dbd0615931", "fusion_lon": 0.0, "is_reserved": 0, "lon": -77.00706716666667, "fusion_lat": 0.0, "is_disabled": 0, "bike_id": "bb813e76a088a2c09ffb92dbd0615931", "lat": 38.88494566666667, "rental_uris": {"ios": "https://dc.lft.to/lastmile_qr_scan", "android": "https://dc.lft.to/lastmile_qr_scan"}}, {"type": "electric_scooter", "name": "2232972c4d3cc385f2b51d8de975a8ce", "fusion_lon": 0.0, "is_reserved": 0, "lon": -77.021866, "fusion_lat": 0.0, "is_disabled": 0, "bike_id": "2232972c4d3cc385f2b51d8de975a8ce", "lat": 38.907131166666666, "rental_uris": {"ios": "https://dc.lft.to/lastmile_qr_scan", "android": "https://dc.lft.to/lastmile_qr_scan"}}, {"type": "electric_scooter", "name": "2cdd1f3a7d7a759762b6ab5d0b780943", "fusion_lon": 0.0, "is_reserved": 0, "lon": -77.04787333333333, "fusion_lat": 0.0, "is_disabled": 0, "bike_id": "2cdd1f3a7d7a759762b6ab5d0b780943", "lat": 38.893798833333335, "rental_uris": {"ios": "https://dc.lft.to/lastmile_qr_scan", "android": "https://dc.lft.to/lastmile_qr_scan"}}, {"type": "electric_scooter", "name": "d5119289ce96b5f4b3a5bd704cad2736", "fusion_lon": 0.0, "is_reserved": 0, "lon": -77.0079545, "fusion_lat": 0.0, "is_disabled": 0, "bike_id": "d5119289ce96b5f4b3a5bd704cad2736", "lat": 38.897184333333335, "rental_uris": {"ios": "https://dc.lft.to/lastmile_qr_scan", "android": "https://dc.lft.to/lastmile_qr_scan"}}, {"type": "electric_scooter", "name": "dff2dac245c09cdd7bc30ae2ddc0e8fe", "fusion_lon": 0.0, "is_reserved": 0, "lon": -77.033672, "fusion_lat": 0.0, "is_disabled": 0, "bike_id": "dff2dac245c09cdd7bc30ae2ddc0e8fe", "lat": 38.938210166666664, "rental_uris": {"ios": "https://dc.lft.to/lastmile_qr_scan", "android": "https://dc.lft.to/lastmile_qr_scan"}}, {"type": "electric_scooter", "name": "ad14d119e659f8c2d0c1e3204b647d53", "fusion_lon": 0.0, "is_reserved": 0, "lon": -77.052554, "fusion_lat": 0.0, "is_disabled": 0, "bike_id": "ad14d119e659f8c2d0c1e3204b647d53", "lat": 38.92515383333333, "rental_uris": {"ios": "https://dc.lft.to/lastmile_qr_scan", "android": "https://dc.lft.to/lastmile_qr_scan"}}, {"type": "electric_scooter", "name": "54438e0dd197809be5e99708a99447d9", "fusion_lon": 0.0, "is_reserved": 0, "lon": -77.04493216666667, "fusion_lat": 0.0, "is_disabled": 0, "bike_id": "54438e0dd197809be5e99708a99447d9", "lat": 38.922385, "rental_uris": {"ios": "https://dc.lft.to/lastmile_qr_scan", "android": "https://dc.lft.to/lastmile_qr_scan"}}, {"type": "electric_scooter", "name": "2c4732ea4862899e922ebf7ed7a7271b", "fusion_lon": 0.0, "is_reserved": 0, "lon": -77.021461, "fusion_lat": 0.0, "is_disabled": 0, "bike_id": "2c4732ea4862899e922ebf7ed7a7271b", "lat": 38.923990833333335, "rental_uris": {"ios": "https://dc.lft.to/lastmile_qr_scan", "android": "https://dc.lft.to/lastmile_qr_scan"}}, {"type": "electric_scooter", "name": "076fe190ddc63d183f8a1ef47f844930", "fusion_lon": 0.0, "is_reserved": 0, "lon": -77.02818566666667, "fusion_lat": 0.0, "is_disabled": 0, "bike_id": "076fe190ddc63d183f8a1ef47f844930", "lat": 38.8872505, "rental_uris": {"ios": "https://dc.lft.to/lastmile_qr_scan", "android": "https://dc.lft.to/lastmile_qr_scan"}}, {"type": "electric_scooter", "name": "95fe44d9138bd4495c4ef91896acede2", "fusion_lon": 0.0, "is_reserved": 0, "lon": -77.056898, "fusion_lat": 0.0, "is_disabled": 0, "bike_id": "95fe44d9138bd4495c4ef91896acede2", "lat": 38.906067166666666, "rental_uris": {"ios": "https://dc.lft.to/lastmile_qr_scan", "android": "https://dc.lft.to/lastmile_qr_scan"}}, {"type": "electric_scooter", "name": "d24d055729aaad9274315294b3c524d0", "fusion_lon": 0.0, "is_reserved": 0, "lon": -77.00563116666666, "fusion_lat": 0.0, "is_disabled": 0, "bike_id": "d24d055729aaad9274315294b3c524d0", "lat": 38.88514033333333, "rental_uris": {"ios": "https://dc.lft.to/lastmile_qr_scan", "android": "https://dc.lft.to/lastmile_qr_scan"}}, {"type": "electric_scooter", "name": "f9b7ba19f179591c28778b2369212d69", "fusion_lon": 0.0, "is_reserved": 0, "lon": -77.02751483333333, "fusion_lat": 0.0, "is_disabled": 0, "bike_id": "f9b7ba19f179591c28778b2369212d69", "lat": 38.92315116666666, "rental_uris": {"ios": "https://dc.lft.to/lastmile_qr_scan", "android": "https://dc.lft.to/lastmile_qr_scan"}}, {"type": "electric_scooter", "name": "248a9ed15eb7e26b34c345e4224d7530", "fusion_lon": 0.0, "is_reserved": 0, "lon": -77.02511666666666, "fusion_lat": 0.0, "is_disabled": 0, "bike_id": "248a9ed15eb7e26b34c345e4224d7530", "lat": 38.942023666666664, "rental_uris": {"ios": "https://dc.lft.to/lastmile_qr_scan", "android": "https://dc.lft.to/lastmile_qr_scan"}}, {"type": "electric_scooter", "name": "b379d2542210728e0b867b3891299407", "fusion_lon": 0.0, "is_reserved": 0, "lon": -76.98590933333334, "fusion_lat": 0.0, "is_disabled": 0, "bike_id": "b379d2542210728e0b867b3891299407", "lat": 38.866985166666666, "rental_uris": {"ios": "https://dc.lft.to/lastmile_qr_scan", "android": "https://dc.lft.to/lastmile_qr_scan"}}, {"type": "electric_scooter", "name": "3c3b8b66cc9f9da2ab577d731328fee6", "fusion_lon": 0.0, "is_reserved": 0, "lon": -77.04869866666667, "fusion_lat": 0.0, "is_disabled": 0, "bike_id": "3c3b8b66cc9f9da2ab577d731328fee6", "lat": 38.8932785, "rental_uris": {"ios": "https://dc.lft.to/lastmile_qr_scan", "android": "https://dc.lft.to/lastmile_qr_scan"}}, {"type": "electric_scooter", "name": "b3dda618b333beb66b7fa9efde12c9a1", "fusion_lon": 0.0, "is_reserved": 0, "lon": -77.03833883333333, "fusion_lat": 0.0, "is_disabled": 0, "bike_id": "b3dda618b333beb66b7fa9efde12c9a1", "lat": 38.90376283333333, "rental_uris": {"ios": "https://dc.lft.to/lastmile_qr_scan", "android": "https://dc.lft.to/lastmile_qr_scan"}}, {"type": "electric_scooter", "name": "81406efcc9ea83c0125a181a28e803a5", "fusion_lon": 0.0, "is_reserved": 0, "lon": -77.03140983333333, "fusion_lat": 0.0, "is_disabled": 0, "bike_id": "81406efcc9ea83c0125a181a28e803a5", "lat": 38.905358166666666, "rental_uris": {"ios": "https://dc.lft.to/lastmile_qr_scan", "android": "https://dc.lft.to/lastmile_qr_scan"}}, {"type": "electric_bike", "name": "6a501e8d0f80b29f2c563149e887cb80", "fusion_lon": 0.0, "is_reserved": 0, "lon": -77.22799816666667, "fusion_lat": 0.0, "is_disabled": 0, "bike_id": "6a501e8d0f80b29f2c563149e887cb80", "lat": 38.910220333333335, "rental_uris": {"ios": "https://dc.lft.to/lastmile_qr_scan", "android": "https://dc.lft.to/lastmile_qr_scan"}}, {"type": "electric_scooter", "name": "b7eee1ea871404ccc18068328dfd89e1", "fusion_lon": 0.0, "is_reserved": 0, "lon": -76.99510483333333, "fusion_lat": 0.0, "is_disabled": 0, "bike_id": "b7eee1ea871404ccc18068328dfd89e1", "lat": 38.862572666666665, "rental_uris": {"ios": "https://dc.lft.to/lastmile_qr_scan", "android": "https://dc.lft.to/lastmile_qr_scan"}}, {"type": "electric_scooter", "name": "939243339e56db4c53af29bff02ea0b8", "fusion_lon": 0.0, "is_reserved": 0, "lon": -77.03175983333334, "fusion_lat": 0.0, "is_disabled": 0, "bike_id": "939243339e56db4c53af29bff02ea0b8", "lat": 38.909021, "rental_uris": {"ios": "https://dc.lft.to/lastmile_qr_scan", "android": "https://dc.lft.to/lastmile_qr_scan"}}, {"type": "electric_bike", "name": "1a33acd7d12d0586e5525d7e5a8f07f2", "fusion_lon": 0.0, "is_reserved": 0, "lon": -76.96236033333334, "fusion_lat": 0.0, "is_disabled": 0, "bike_id": "1a33acd7d12d0586e5525d7e5a8f07f2", "lat": 38.880581, "rental_uris": {"ios": "https://dc.lft.to/lastmile_qr_scan", "android": "https://dc.lft.to/lastmile_qr_scan"}}, {"type": "electric_bike", "name": "6f17879f668209e53a20bace970ede7a", "fusion_lon": 0.0, "is_reserved": 0, "lon": -77.02295433333333, "fusion_lat": 0.0, "is_disabled": 0, "bike_id": "6f17879f668209e53a20bace970ede7a", "lat": 38.961414, "rental_uris": {"ios": "https://dc.lft.to/lastmile_qr_scan", "android": "https://dc.lft.to/lastmile_qr_scan"}}, {"type": "electric_bike", "name": "0e073e72db13f24ba5b27b6e1696afcb", "fusion_lon": 0.0, "is_reserved": 0, "lon": -77.23318483333334, "fusion_lat": 0.0, "is_disabled": 0, "bike_id": "0e073e72db13f24ba5b27b6e1696afcb", "lat": 38.87277566666667, "rental_uris": {"ios": "https://dc.lft.to/lastmile_qr_scan", "android": "https://dc.lft.to/lastmile_qr_scan"}}, {"type": "electric_scooter", "name": "7dec8bb3e0520198f3ed873fb4623f68", "fusion_lon": 0.0, "is_reserved": 0, "lon": -76.99471533333333, "fusion_lat": 0.0, "is_disabled": 0, "bike_id": "7dec8bb3e0520198f3ed873fb4623f68", "lat": 38.862143833333334, "rental_uris": {"ios": "https://dc.lft.to/lastmile_qr_scan", "android": "https://dc.lft.to/lastmile_qr_scan"}}, {"type": "electric_scooter", "name": "03a683686b80f83adbd0ebd0b08b635f", "fusion_lon": 0.0, "is_reserved": 0, "lon": -77.04688933333334, "fusion_lat": 0.0, "is_disabled": 0, "bike_id": "03a683686b80f83adbd0ebd0b08b635f", "lat": 38.892228333333335, "rental_uris": {"ios": "https://dc.lft.to/lastmile_qr_scan", "android": "https://dc.lft.to/lastmile_qr_scan"}}, {"type": "electric_scooter", "name": "e3a79f9435422303b2b87a5f7a8cf175", "fusion_lon": 0.0, "is_reserved": 0, "lon": -77.0364395, "fusion_lat": 0.0, "is_disabled": 0, "bike_id": "e3a79f9435422303b2b87a5f7a8cf175", "lat": 38.91747866666667, "rental_uris": {"ios": "https://dc.lft.to/lastmile_qr_scan", "android": "https://dc.lft.to/lastmile_qr_scan"}}, {"type": "electric_scooter", "name": "c23802cfc498aa49e4ba16a56c0179a2", "fusion_lon": 0.0, "is_reserved": 0, "lon": -77.04096816666667, "fusion_lat": 0.0, "is_disabled": 0, "bike_id": "c23802cfc498aa49e4ba16a56c0179a2", "lat": 38.9157035, "rental_uris": {"ios": "https://dc.lft.to/lastmile_qr_scan", "android": "https://dc.lft.to/lastmile_qr_scan"}}, {"type": "electric_scooter", "name": "61378dccbc0f241ab289c7a184b8c0ee", "fusion_lon": 0.0, "is_reserved": 0, "lon": -77.02382616666667, "fusion_lat": 0.0, "is_disabled": 0, "bike_id": "61378dccbc0f241ab289c7a184b8c0ee", "lat": 38.90639633333333, "rental_uris": {"ios": "https://dc.lft.to/lastmile_qr_scan", "android": "https://dc.lft.to/lastmile_qr_scan"}}, {"type": "electric_bike", "name": "00d63477aebc83712940cd2e57def5c7", "fusion_lon": 0.0, "is_reserved": 0, "lon": -77.0549425, "fusion_lat": 0.0, "is_disabled": 0, "bike_id": "00d63477aebc83712940cd2e57def5c7", "lat": 39.014806, "rental_uris": {"ios": "https://dc.lft.to/lastmile_qr_scan", "android": "https://dc.lft.to/lastmile_qr_scan"}}, {"type": "electric_scooter", "name": "aadd625c914bfa32857881b3c5429eb3", "fusion_lon": 0.0, "is_reserved": 0, "lon": -77.02008916666666, "fusion_lat": 0.0, "is_disabled": 0, "bike_id": "aadd625c914bfa32857881b3c5429eb3", "lat": 38.899287, "rental_uris": {"ios": "https://dc.lft.to/lastmile_qr_scan", "android": "https://dc.lft.to/lastmile_qr_scan"}}, {"type": "electric_scooter", "name": "c5c46a51cc50bdd1358b54c5267be9ae", "fusion_lon": 0.0, "is_reserved": 0, "lon": -77.02295216666667, "fusion_lat": 0.0, "is_disabled": 0, "bike_id": "c5c46a51cc50bdd1358b54c5267be9ae", "lat": 38.916905, "rental_uris": {"ios": "https://dc.lft.to/lastmile_qr_scan", "android": "https://dc.lft.to/lastmile_qr_scan"}}, {"type": "electric_scooter", "name": "71229387db4eaae8f8ccaf2ed3dd60a9", "fusion_lon": 0.0, "is_reserved": 0, "lon": -77.04496266666666, "fusion_lat": 0.0, "is_disabled": 0, "bike_id": "71229387db4eaae8f8ccaf2ed3dd60a9", "lat": 38.9102775, "rental_uris": {"ios": "https://dc.lft.to/lastmile_qr_scan", "android": "https://dc.lft.to/lastmile_qr_scan"}}, {"type": "electric_scooter", "name": "317058aa354ae2156e66d77a80d56b29", "fusion_lon": 0.0, "is_reserved": 0, "lon": -77.038606, "fusion_lat": 0.0, "is_disabled": 0, "bike_id": "317058aa354ae2156e66d77a80d56b29", "lat": 38.90860933333333, "rental_uris": {"ios": "https://dc.lft.to/lastmile_qr_scan", "android": "https://dc.lft.to/lastmile_qr_scan"}}, {"type": "electric_scooter", "name": "c84b87648ef629f460155b3f757e6c12", "fusion_lon": 0.0, "is_reserved": 0, "lon": -76.9930855, "fusion_lat": 0.0, "is_disabled": 0, "bike_id": "c84b87648ef629f460155b3f757e6c12", "lat": 38.900109, "rental_uris": {"ios": "https://dc.lft.to/lastmile_qr_scan", "android": "https://dc.lft.to/lastmile_qr_scan"}}, {"type": "electric_scooter", "name": "6250b18d7256b6dd6455f1133603b593", "fusion_lon": 0.0, "is_reserved": 0, "lon": -77.03337983333333, "fusion_lat": 0.0, "is_disabled": 0, "bike_id": "6250b18d7256b6dd6455f1133603b593", "lat": 38.91713883333333, "rental_uris": {"ios": "https://dc.lft.to/lastmile_qr_scan", "android": "https://dc.lft.to/lastmile_qr_scan"}}, {"type": "electric_scooter", "name": "72cae57b8b5c898d847556cdd29ca4b9", "fusion_lon": 0.0, "is_reserved": 0, "lon": -77.03143866666667, "fusion_lat": 0.0, "is_disabled": 0, "bike_id": "72cae57b8b5c898d847556cdd29ca4b9", "lat": 38.91114866666667, "rental_uris": {"ios": "https://dc.lft.to/lastmile_qr_scan", "android": "https://dc.lft.to/lastmile_qr_scan"}}, {"type": "electric_scooter", "name": "26070c224f2af3af55bb71bfd29ea346", "fusion_lon": 0.0, "is_reserved": 0, "lon": -77.01871383333334, "fusion_lat": 0.0, "is_disabled": 0, "bike_id": "26070c224f2af3af55bb71bfd29ea346", "lat": 38.92134433333333, "rental_uris": {"ios": "https://dc.lft.to/lastmile_qr_scan", "android": "https://dc.lft.to/lastmile_qr_scan"}}, {"type": "electric_scooter", "name": "e9940eaf802bf3f390a0c1c6cc7928f2", "fusion_lon": 0.0, "is_reserved": 0, "lon": -77.07309566666666, "fusion_lat": 0.0, "is_disabled": 0, "bike_id": "e9940eaf802bf3f390a0c1c6cc7928f2", "lat": 38.93567266666667, "rental_uris": {"ios": "https://dc.lft.to/lastmile_qr_scan", "android": "https://dc.lft.to/lastmile_qr_scan"}}, {"type": "electric_scooter", "name": "97dc5d305c475f4674db4d046e144969", "fusion_lon": 0.0, "is_reserved": 0, "lon": -77.06887266666666, "fusion_lat": 0.0, "is_disabled": 0, "bike_id": "97dc5d305c475f4674db4d046e144969", "lat": 38.918402666666665, "rental_uris": {"ios": "https://dc.lft.to/lastmile_qr_scan", "android": "https://dc.lft.to/lastmile_qr_scan"}}, {"type": "electric_scooter", "name": "35aa235daf71ec14c214fb6a498d3f75", "fusion_lon": 0.0, "is_reserved": 0, "lon": -77.04509, "fusion_lat": 0.0, "is_disabled": 0, "bike_id": "35aa235daf71ec14c214fb6a498d3f75", "lat": 38.9146785, "rental_uris": {"ios": "https://dc.lft.to/lastmile_qr_scan", "android": "https://dc.lft.to/lastmile_qr_scan"}}, {"type": "electric_scooter", "name": "682238fe5d034f21342424ef0d27f19b", "fusion_lon": 0.0, "is_reserved": 0, "lon": -77.0287045, "fusion_lat": 0.0, "is_disabled": 0, "bike_id": "682238fe5d034f21342424ef0d27f19b", "lat": 38.89505483333333, "rental_uris": {"ios": "https://dc.lft.to/lastmile_qr_scan", "android": "https://dc.lft.to/lastmile_qr_scan"}}, {"type": "electric_scooter", "name": "24e63297237da5675bffa854581a69a1", "fusion_lon": 0.0, "is_reserved": 0, "lon": -77.01765916666666, "fusion_lat": 0.0, "is_disabled": 0, "bike_id": "24e63297237da5675bffa854581a69a1", "lat": 38.974751499999996, "rental_uris": {"ios": "https://dc.lft.to/lastmile_qr_scan", "android": "https://dc.lft.to/lastmile_qr_scan"}}, {"type": "electric_scooter", "name": "c16ce2c09538849746e80dfc2301ce9a", "fusion_lon": 0.0, "is_reserved": 0, "lon": -76.9969225, "fusion_lat": 0.0, "is_disabled": 0, "bike_id": "c16ce2c09538849746e80dfc2301ce9a", "lat": 38.88426166666667, "rental_uris": {"ios": "https://dc.lft.to/lastmile_qr_scan", "android": "https://dc.lft.to/lastmile_qr_scan"}}, {"type": "electric_scooter", "name": "e303db249be2567d9bfed06b57fde028", "fusion_lon": 0.0, "is_reserved": 0, "lon": -77.0385455, "fusion_lat": 0.0, "is_disabled": 0, "bike_id": "e303db249be2567d9bfed06b57fde028", "lat": 38.903534, "rental_uris": {"ios": "https://dc.lft.to/lastmile_qr_scan", "android": "https://dc.lft.to/lastmile_qr_scan"}}, {"type": "electric_scooter", "name": "ba2ffc309ddf3b5d444efe80e5cf40b7", "fusion_lon": 0.0, "is_reserved": 0, "lon": -77.03821966666666, "fusion_lat": 0.0, "is_disabled": 0, "bike_id": "ba2ffc309ddf3b5d444efe80e5cf40b7", "lat": 38.90718666666667, "rental_uris": {"ios": "https://dc.lft.to/lastmile_qr_scan", "android": "https://dc.lft.to/lastmile_qr_scan"}}, {"type": "electric_scooter", "name": "d915ea2c6658fa7a4c4fc65c188b51a1", "fusion_lon": 0.0, "is_reserved": 0, "lon": -77.00941366666666, "fusion_lat": 0.0, "is_disabled": 0, "bike_id": "d915ea2c6658fa7a4c4fc65c188b51a1", "lat": 38.874695333333335, "rental_uris": {"ios": "https://dc.lft.to/lastmile_qr_scan", "android": "https://dc.lft.to/lastmile_qr_scan"}}, {"type": "electric_scooter", "name": "2643ae584464eadfac1745a20d9fedc4", "fusion_lon": 0.0, "is_reserved": 0, "lon": -77.000494, "fusion_lat": 0.0, "is_disabled": 0, "bike_id": "2643ae584464eadfac1745a20d9fedc4", "lat": 38.883089166666664, "rental_uris": {"ios": "https://dc.lft.to/lastmile_qr_scan", "android": "https://dc.lft.to/lastmile_qr_scan"}}, {"type": "electric_scooter", "name": "e365ef59be29ca10bf3b9bf7ff977caf", "fusion_lon": 0.0, "is_reserved": 0, "lon": -77.00610333333333, "fusion_lat": 0.0, "is_disabled": 0, "bike_id": "e365ef59be29ca10bf3b9bf7ff977caf", "lat": 38.87184333333333, "rental_uris": {"ios": "https://dc.lft.to/lastmile_qr_scan", "android": "https://dc.lft.to/lastmile_qr_scan"}}, {"type": "electric_scooter", "name": "4282e18de818fdd5dce5a2006d73ed0f", "fusion_lon": 0.0, "is_reserved": 0, "lon": -77.02951066666667, "fusion_lat": 0.0, "is_disabled": 0, "bike_id": "4282e18de818fdd5dce5a2006d73ed0f", "lat": 38.916755333333334, "rental_uris": {"ios": "https://dc.lft.to/lastmile_qr_scan", "android": "https://dc.lft.to/lastmile_qr_scan"}}, {"type": "electric_scooter", "name": "5c40aa181b48efed3db9c413964c51fa", "fusion_lon": 0.0, "is_reserved": 0, "lon": -77.03999516666667, "fusion_lat": 0.0, "is_disabled": 0, "bike_id": "5c40aa181b48efed3db9c413964c51fa", "lat": 38.934288, "rental_uris": {"ios": "https://dc.lft.to/lastmile_qr_scan", "android": "https://dc.lft.to/lastmile_qr_scan"}}, {"type": "electric_scooter", "name": "f260b036112f3930704185d77c0a79fa", "fusion_lon": 0.0, "is_reserved": 0, "lon": -76.99926916666666, "fusion_lat": 0.0, "is_disabled": 0, "bike_id": "f260b036112f3930704185d77c0a79fa", "lat": 38.843144, "rental_uris": {"ios": "https://dc.lft.to/lastmile_qr_scan", "android": "https://dc.lft.to/lastmile_qr_scan"}}, {"type": "electric_scooter", "name": "0af864632a6cfe39498cd0cd064ce06c", "fusion_lon": 0.0, "is_reserved": 0, "lon": -77.0318035, "fusion_lat": 0.0, "is_disabled": 0, "bike_id": "0af864632a6cfe39498cd0cd064ce06c", "lat": 38.9135285, "rental_uris": {"ios": "https://dc.lft.to/lastmile_qr_scan", "android": "https://dc.lft.to/lastmile_qr_scan"}}, {"type": "electric_scooter", "name": "3c3d86be43d0e2f1477239917539cff3", "fusion_lon": 0.0, "is_reserved": 0, "lon": -77.01942216666667, "fusion_lat": 0.0, "is_disabled": 0, "bike_id": "3c3d86be43d0e2f1477239917539cff3", "lat": 38.92425466666667, "rental_uris": {"ios": "https://dc.lft.to/lastmile_qr_scan", "android": "https://dc.lft.to/lastmile_qr_scan"}}, {"type": "electric_bike", "name": "450a39f45f0fd5e472011bae71e1271c", "fusion_lon": 0.0, "is_reserved": 0, "lon": -76.98104733333334, "fusion_lat": 0.0, "is_disabled": 0, "bike_id": "450a39f45f0fd5e472011bae71e1271c", "lat": 38.877336, "rental_uris": {"ios": "https://dc.lft.to/lastmile_qr_scan", "android": "https://dc.lft.to/lastmile_qr_scan"}}, {"type": "electric_scooter", "name": "3a4a82113e38a69978e0021b0f0f1af1", "fusion_lon": 0.0, "is_reserved": 0, "lon": -76.9841985, "fusion_lat": 0.0, "is_disabled": 0, "bike_id": "3a4a82113e38a69978e0021b0f0f1af1", "lat": 38.86061566666667, "rental_uris": {"ios": "https://dc.lft.to/lastmile_qr_scan", "android": "https://dc.lft.to/lastmile_qr_scan"}}, {"type": "electric_scooter", "name": "fc8a3161cd97275102f0e7db709b77c6", "fusion_lon": 0.0, "is_reserved": 0, "lon": -77.02482633333334, "fusion_lat": 0.0, "is_disabled": 0, "bike_id": "fc8a3161cd97275102f0e7db709b77c6", "lat": 38.89681383333333, "rental_uris": {"ios": "https://dc.lft.to/lastmile_qr_scan", "android": "https://dc.lft.to/lastmile_qr_scan"}}, {"type": "electric_scooter", "name": "4a68d149cdbae96ff83813ea14689a41", "fusion_lon": 0.0, "is_reserved": 0, "lon": -76.99016466666667, "fusion_lat": 0.0, "is_disabled": 0, "bike_id": "4a68d149cdbae96ff83813ea14689a41", "lat": 38.865170166666665, "rental_uris": {"ios": "https://dc.lft.to/lastmile_qr_scan", "android": "https://dc.lft.to/lastmile_qr_scan"}}, {"type": "electric_scooter", "name": "7e3240f23e1f1ffd4cb8d95462811211", "fusion_lon": 0.0, "is_reserved": 0, "lon": -77.0338495, "fusion_lat": 0.0, "is_disabled": 0, "bike_id": "7e3240f23e1f1ffd4cb8d95462811211", "lat": 38.925335833333335, "rental_uris": {"ios": "https://dc.lft.to/lastmile_qr_scan", "android": "https://dc.lft.to/lastmile_qr_scan"}}, {"type": "electric_scooter", "name": "99f0b68a6c454afe6e69617625ac402a", "fusion_lon": 0.0, "is_reserved": 0, "lon": -76.93397666666667, "fusion_lat": 0.0, "is_disabled": 0, "bike_id": "99f0b68a6c454afe6e69617625ac402a", "lat": 38.89890666666667, "rental_uris": {"ios": "https://dc.lft.to/lastmile_qr_scan", "android": "https://dc.lft.to/lastmile_qr_scan"}}, {"type": "electric_scooter", "name": "903b179d91f1c51e17289407f861bee6", "fusion_lon": 0.0, "is_reserved": 0, "lon": -77.01561233333334, "fusion_lat": 0.0, "is_disabled": 0, "bike_id": "903b179d91f1c51e17289407f861bee6", "lat": 38.89176116666667, "rental_uris": {"ios": "https://dc.lft.to/lastmile_qr_scan", "android": "https://dc.lft.to/lastmile_qr_scan"}}, {"type": "electric_scooter", "name": "8a4e88d82501a21a1e02a61735bb5114", "fusion_lon": 0.0, "is_reserved": 0, "lon": -77.046013, "fusion_lat": 0.0, "is_disabled": 0, "bike_id": "8a4e88d82501a21a1e02a61735bb5114", "lat": 38.90266333333334, "rental_uris": {"ios": "https://dc.lft.to/lastmile_qr_scan", "android": "https://dc.lft.to/lastmile_qr_scan"}}, {"type": "electric_scooter", "name": "b3137414a69694d8fe22ba6773af4321", "fusion_lon": 0.0, "is_reserved": 0, "lon": -77.00332816666666, "fusion_lat": 0.0, "is_disabled": 0, "bike_id": "b3137414a69694d8fe22ba6773af4321", "lat": 38.893561166666665, "rental_uris": {"ios": "https://dc.lft.to/lastmile_qr_scan", "android": "https://dc.lft.to/lastmile_qr_scan"}}, {"type": "electric_scooter", "name": "dd45cc1fb8e883c3d4ca99c0c9d9ed9a", "fusion_lon": 0.0, "is_reserved": 0, "lon": -77.03475833333333, "fusion_lat": 0.0, "is_disabled": 0, "bike_id": "dd45cc1fb8e883c3d4ca99c0c9d9ed9a", "lat": 38.917124666666666, "rental_uris": {"ios": "https://dc.lft.to/lastmile_qr_scan", "android": "https://dc.lft.to/lastmile_qr_scan"}}, {"type": "electric_scooter", "name": "5fb3d9536702dc93f4a81b3e021efee5", "fusion_lon": 0.0, "is_reserved": 0, "lon": -77.03995666666667, "fusion_lat": 0.0, "is_disabled": 0, "bike_id": "5fb3d9536702dc93f4a81b3e021efee5", "lat": 38.92461483333334, "rental_uris": {"ios": "https://dc.lft.to/lastmile_qr_scan", "android": "https://dc.lft.to/lastmile_qr_scan"}}, {"type": "electric_scooter", "name": "c92f5e5d9422fddb5eeed4e4556829d7", "fusion_lon": 0.0, "is_reserved": 0, "lon": -77.05793233333333, "fusion_lat": 0.0, "is_disabled": 0, "bike_id": "c92f5e5d9422fddb5eeed4e4556829d7", "lat": 38.934835166666666, "rental_uris": {"ios": "https://dc.lft.to/lastmile_qr_scan", "android": "https://dc.lft.to/lastmile_qr_scan"}}, {"type": "electric_scooter", "name": "b12edcf7b85f607b6945a201a8b2da47", "fusion_lon": 0.0, "is_reserved": 0, "lon": -77.031881, "fusion_lat": 0.0, "is_disabled": 0, "bike_id": "b12edcf7b85f607b6945a201a8b2da47", "lat": 38.8935825, "rental_uris": {"ios": "https://dc.lft.to/lastmile_qr_scan", "android": "https://dc.lft.to/lastmile_qr_scan"}}, {"type": "electric_scooter", "name": "2affceb2e4e5bca5687e999b09c780fb", "fusion_lon": 0.0, "is_reserved": 0, "lon": -76.996423, "fusion_lat": 0.0, "is_disabled": 0, "bike_id": "2affceb2e4e5bca5687e999b09c780fb", "lat": 38.904537833333336, "rental_uris": {"ios": "https://dc.lft.to/lastmile_qr_scan", "android": "https://dc.lft.to/lastmile_qr_scan"}}, {"type": "electric_scooter", "name": "c1cfddf00c46057131228a00f6a5d57d", "fusion_lon": 0.0, "is_reserved": 0, "lon": -77.03289716666667, "fusion_lat": 0.0, "is_disabled": 0, "bike_id": "c1cfddf00c46057131228a00f6a5d57d", "lat": 38.93036716666667, "rental_uris": {"ios": "https://dc.lft.to/lastmile_qr_scan", "android": "https://dc.lft.to/lastmile_qr_scan"}}, {"type": "electric_scooter", "name": "a6faafce7e9facd84346b1bebd681fa0", "fusion_lon": 0.0, "is_reserved": 0, "lon": -77.02503583333333, "fusion_lat": 0.0, "is_disabled": 0, "bike_id": "a6faafce7e9facd84346b1bebd681fa0", "lat": 38.94198333333333, "rental_uris": {"ios": "https://dc.lft.to/lastmile_qr_scan", "android": "https://dc.lft.to/lastmile_qr_scan"}}, {"type": "electric_scooter", "name": "3f4a9d54a91654c1c34005cd6e6f3e83", "fusion_lon": 0.0, "is_reserved": 0, "lon": -77.036427, "fusion_lat": 0.0, "is_disabled": 0, "bike_id": "3f4a9d54a91654c1c34005cd6e6f3e83", "lat": 38.9174795, "rental_uris": {"ios": "https://dc.lft.to/lastmile_qr_scan", "android": "https://dc.lft.to/lastmile_qr_scan"}}, {"type": "electric_scooter", "name": "9e8d84a77d5da69e23e8c751b03a07a1", "fusion_lon": 0.0, "is_reserved": 0, "lon": -77.027276, "fusion_lat": 0.0, "is_disabled": 0, "bike_id": "9e8d84a77d5da69e23e8c751b03a07a1", "lat": 38.887480833333335, "rental_uris": {"ios": "https://dc.lft.to/lastmile_qr_scan", "android": "https://dc.lft.to/lastmile_qr_scan"}}, {"type": "electric_scooter", "name": "78cd032f80f833ba531390299569644d", "fusion_lon": 0.0, "is_reserved": 0, "lon": -77.0239285, "fusion_lat": 0.0, "is_disabled": 0, "bike_id": "78cd032f80f833ba531390299569644d", "lat": 38.91135716666667, "rental_uris": {"ios": "https://dc.lft.to/lastmile_qr_scan", "android": "https://dc.lft.to/lastmile_qr_scan"}}, {"type": "electric_scooter", "name": "417fc9a3b153e86bd5509989be627819", "fusion_lon": 0.0, "is_reserved": 0, "lon": -77.04119266666666, "fusion_lat": 0.0, "is_disabled": 0, "bike_id": "417fc9a3b153e86bd5509989be627819", "lat": 38.902507, "rental_uris": {"ios": "https://dc.lft.to/lastmile_qr_scan", "android": "https://dc.lft.to/lastmile_qr_scan"}}, {"type": "electric_scooter", "name": "f9a93a792dc056cc503e8a3f2212ae25", "fusion_lon": 0.0, "is_reserved": 0, "lon": -77.02866033333333, "fusion_lat": 0.0, "is_disabled": 0, "bike_id": "f9a93a792dc056cc503e8a3f2212ae25", "lat": 38.8971185, "rental_uris": {"ios": "https://dc.lft.to/lastmile_qr_scan", "android": "https://dc.lft.to/lastmile_qr_scan"}}, {"type": "electric_scooter", "name": "09182ffbae00fe1465ef39f7e1d6c51e", "fusion_lon": 0.0, "is_reserved": 0, "lon": -77.04765333333333, "fusion_lat": 0.0, "is_disabled": 0, "bike_id": "09182ffbae00fe1465ef39f7e1d6c51e", "lat": 38.917732666666666, "rental_uris": {"ios": "https://dc.lft.to/lastmile_qr_scan", "android": "https://dc.lft.to/lastmile_qr_scan"}}, {"type": "electric_bike", "name": "646fcea42c7ec1f369ab9e2efda246ba", "fusion_lon": 0.0, "is_reserved": 0, "lon": -76.97331033333333, "fusion_lat": 0.0, "is_disabled": 0, "bike_id": "646fcea42c7ec1f369ab9e2efda246ba", "lat": 38.86519633333333, "rental_uris": {"ios": "https://dc.lft.to/lastmile_qr_scan", "android": "https://dc.lft.to/lastmile_qr_scan"}}, {"type": "electric_scooter", "name": "00bfe3e6e8e3a9d3b3b2eb130765942e", "fusion_lon": 0.0, "is_reserved": 0, "lon": -77.00785333333333, "fusion_lat": 0.0, "is_disabled": 0, "bike_id": "00bfe3e6e8e3a9d3b3b2eb130765942e", "lat": 38.897259166666664, "rental_uris": {"ios": "https://dc.lft.to/lastmile_qr_scan", "android": "https://dc.lft.to/lastmile_qr_scan"}}, {"type": "electric_scooter", "name": "114667432098df87eb9226f44c2e0285", "fusion_lon": 0.0, "is_reserved": 0, "lon": -77.03120366666667, "fusion_lat": 0.0, "is_disabled": 0, "bike_id": "114667432098df87eb9226f44c2e0285", "lat": 38.9169575, "rental_uris": {"ios": "https://dc.lft.to/lastmile_qr_scan", "android": "https://dc.lft.to/lastmile_qr_scan"}}, {"type": "electric_scooter", "name": "8a545f19635750fe20875e2c20967acb", "fusion_lon": 0.0, "is_reserved": 0, "lon": -77.03513133333334, "fusion_lat": 0.0, "is_disabled": 0, "bike_id": "8a545f19635750fe20875e2c20967acb", "lat": 38.92156716666667, "rental_uris": {"ios": "https://dc.lft.to/lastmile_qr_scan", "android": "https://dc.lft.to/lastmile_qr_scan"}}, {"type": "electric_scooter", "name": "40ce2f1900a72717f9f5db96d22166b9", "fusion_lon": 0.0, "is_reserved": 0, "lon": -76.995333, "fusion_lat": 0.0, "is_disabled": 0, "bike_id": "40ce2f1900a72717f9f5db96d22166b9", "lat": 38.926649166666664, "rental_uris": {"ios": "https://dc.lft.to/lastmile_qr_scan", "android": "https://dc.lft.to/lastmile_qr_scan"}}, {"type": "electric_scooter", "name": "0205d32306bca468a68e8e6a9569eb07", "fusion_lon": 0.0, "is_reserved": 0, "lon": -77.04566133333333, "fusion_lat": 0.0, "is_disabled": 0, "bike_id": "0205d32306bca468a68e8e6a9569eb07", "lat": 38.90971966666667, "rental_uris": {"ios": "https://dc.lft.to/lastmile_qr_scan", "android": "https://dc.lft.to/lastmile_qr_scan"}}, {"type": "electric_scooter", "name": "688f62b9c304d141daa79a04f40d8c4c", "fusion_lon": 0.0, "is_reserved": 0, "lon": -77.04871, "fusion_lat": 0.0, "is_disabled": 0, "bike_id": "688f62b9c304d141daa79a04f40d8c4c", "lat": 38.8932755, "rental_uris": {"ios": "https://dc.lft.to/lastmile_qr_scan", "android": "https://dc.lft.to/lastmile_qr_scan"}}, {"type": "electric_scooter", "name": "2a803ef1f9d7a53f7e44dbf37855939c", "fusion_lon": 0.0, "is_reserved": 0, "lon": -77.04144866666667, "fusion_lat": 0.0, "is_disabled": 0, "bike_id": "2a803ef1f9d7a53f7e44dbf37855939c", "lat": 38.92647233333334, "rental_uris": {"ios": "https://dc.lft.to/lastmile_qr_scan", "android": "https://dc.lft.to/lastmile_qr_scan"}}, {"type": "electric_scooter", "name": "ac448b640b8e8af60831605031534d23", "fusion_lon": 0.0, "is_reserved": 0, "lon": -77.0450285, "fusion_lat": 0.0, "is_disabled": 0, "bike_id": "ac448b640b8e8af60831605031534d23", "lat": 38.90570316666667, "rental_uris": {"ios": "https://dc.lft.to/lastmile_qr_scan", "android": "https://dc.lft.to/lastmile_qr_scan"}}, {"type": "electric_scooter", "name": "68ef3c6d982451247b2ee43163020cc5", "fusion_lon": 0.0, "is_reserved": 0, "lon": -77.03197283333333, "fusion_lat": 0.0, "is_disabled": 0, "bike_id": "68ef3c6d982451247b2ee43163020cc5", "lat": 38.91680366666667, "rental_uris": {"ios": "https://dc.lft.to/lastmile_qr_scan", "android": "https://dc.lft.to/lastmile_qr_scan"}}, {"type": "electric_scooter", "name": "49139659be7f26a0fe3c74cc406e5853", "fusion_lon": 0.0, "is_reserved": 0, "lon": -76.9850695, "fusion_lat": 0.0, "is_disabled": 0, "bike_id": "49139659be7f26a0fe3c74cc406e5853", "lat": 38.88084333333333, "rental_uris": {"ios": "https://dc.lft.to/lastmile_qr_scan", "android": "https://dc.lft.to/lastmile_qr_scan"}}, {"type": "electric_scooter", "name": "7a694e71ab3cdc1b563d236442163519", "fusion_lon": 0.0, "is_reserved": 0, "lon": -77.02487516666666, "fusion_lat": 0.0, "is_disabled": 0, "bike_id": "7a694e71ab3cdc1b563d236442163519", "lat": 38.938642333333334, "rental_uris": {"ios": "https://dc.lft.to/lastmile_qr_scan", "android": "https://dc.lft.to/lastmile_qr_scan"}}, {"type": "electric_scooter", "name": "9a27f361cc23253df5df00b442c088cc", "fusion_lon": 0.0, "is_reserved": 0, "lon": -76.98541566666667, "fusion_lat": 0.0, "is_disabled": 0, "bike_id": "9a27f361cc23253df5df00b442c088cc", "lat": 38.90888866666667, "rental_uris": {"ios": "https://dc.lft.to/lastmile_qr_scan", "android": "https://dc.lft.to/lastmile_qr_scan"}}, {"type": "electric_scooter", "name": "72ea7be877b4b33041a4ee8383d888ab", "fusion_lon": 0.0, "is_reserved": 0, "lon": -77.02727116666667, "fusion_lat": 0.0, "is_disabled": 0, "bike_id": "72ea7be877b4b33041a4ee8383d888ab", "lat": 38.887505, "rental_uris": {"ios": "https://dc.lft.to/lastmile_qr_scan", "android": "https://dc.lft.to/lastmile_qr_scan"}}, {"type": "electric_scooter", "name": "2d5c3c8f54f462d9fe598999001fe8cc", "fusion_lon": 0.0, "is_reserved": 0, "lon": -77.041742, "fusion_lat": 0.0, "is_disabled": 0, "bike_id": "2d5c3c8f54f462d9fe598999001fe8cc", "lat": 38.917070833333334, "rental_uris": {"ios": "https://dc.lft.to/lastmile_qr_scan", "android": "https://dc.lft.to/lastmile_qr_scan"}}, {"type": "electric_scooter", "name": "6a85071e1fa4c3b462877fec88f4970d", "fusion_lon": 0.0, "is_reserved": 0, "lon": -76.95474216666666, "fusion_lat": 0.0, "is_disabled": 0, "bike_id": "6a85071e1fa4c3b462877fec88f4970d", "lat": 38.88684633333333, "rental_uris": {"ios": "https://dc.lft.to/lastmile_qr_scan", "android": "https://dc.lft.to/lastmile_qr_scan"}}, {"type": "electric_scooter", "name": "d0db92d91d7d3472b97150426f80c1a3", "fusion_lon": 0.0, "is_reserved": 0, "lon": -77.02205983333333, "fusion_lat": 0.0, "is_disabled": 0, "bike_id": "d0db92d91d7d3472b97150426f80c1a3", "lat": 38.915577, "rental_uris": {"ios": "https://dc.lft.to/lastmile_qr_scan", "android": "https://dc.lft.to/lastmile_qr_scan"}}, {"type": "electric_scooter", "name": "1441eb3091dd482d3235266e2a322a68", "fusion_lon": 0.0, "is_reserved": 0, "lon": -77.01671166666667, "fusion_lat": 0.0, "is_disabled": 0, "bike_id": "1441eb3091dd482d3235266e2a322a68", "lat": 38.92080516666667, "rental_uris": {"ios": "https://dc.lft.to/lastmile_qr_scan", "android": "https://dc.lft.to/lastmile_qr_scan"}}, {"type": "electric_scooter", "name": "1014501ee164d586fe6d03dc698d01f4", "fusion_lon": 0.0, "is_reserved": 0, "lon": -77.03132533333333, "fusion_lat": 0.0, "is_disabled": 0, "bike_id": "1014501ee164d586fe6d03dc698d01f4", "lat": 38.8923595, "rental_uris": {"ios": "https://dc.lft.to/lastmile_qr_scan", "android": "https://dc.lft.to/lastmile_qr_scan"}}, {"type": "electric_scooter", "name": "30b3f798abc540c158b39eb83645e99b", "fusion_lon": 0.0, "is_reserved": 0, "lon": -77.0227455, "fusion_lat": 0.0, "is_disabled": 0, "bike_id": "30b3f798abc540c158b39eb83645e99b", "lat": 38.9265725, "rental_uris": {"ios": "https://dc.lft.to/lastmile_qr_scan", "android": "https://dc.lft.to/lastmile_qr_scan"}}, {"type": "electric_scooter", "name": "635dffbea9e60b31f7e5b84559000487", "fusion_lon": 0.0, "is_reserved": 0, "lon": -77.03057233333334, "fusion_lat": 0.0, "is_disabled": 0, "bike_id": "635dffbea9e60b31f7e5b84559000487", "lat": 38.927710833333336, "rental_uris": {"ios": "https://dc.lft.to/lastmile_qr_scan", "android": "https://dc.lft.to/lastmile_qr_scan"}}, {"type": "electric_scooter", "name": "523bfd84eb6f2d9af5f21f1a3af04797", "fusion_lon": 0.0, "is_reserved": 0, "lon": -77.03264516666667, "fusion_lat": 0.0, "is_disabled": 0, "bike_id": "523bfd84eb6f2d9af5f21f1a3af04797", "lat": 38.93771783333333, "rental_uris": {"ios": "https://dc.lft.to/lastmile_qr_scan", "android": "https://dc.lft.to/lastmile_qr_scan"}}, {"type": "electric_scooter", "name": "571469a59f5d9fda6b972f53324e1344", "fusion_lon": 0.0, "is_reserved": 0, "lon": -77.027287, "fusion_lat": 0.0, "is_disabled": 0, "bike_id": "571469a59f5d9fda6b972f53324e1344", "lat": 38.95176816666667, "rental_uris": {"ios": "https://dc.lft.to/lastmile_qr_scan", "android": "https://dc.lft.to/lastmile_qr_scan"}}, {"type": "electric_bike", "name": "e561c9c53b4a80866ef590d77768ecdd", "fusion_lon": 0.0, "is_reserved": 0, "lon": -76.98758066666667, "fusion_lat": 0.0, "is_disabled": 0, "bike_id": "e561c9c53b4a80866ef590d77768ecdd", "lat": 38.857715166666665, "rental_uris": {"ios": "https://dc.lft.to/lastmile_qr_scan", "android": "https://dc.lft.to/lastmile_qr_scan"}}, {"type": "electric_scooter", "name": "8ca1daa3d132efaa5029888c92105dbf", "fusion_lon": 0.0, "is_reserved": 0, "lon": -77.02780566666667, "fusion_lat": 0.0, "is_disabled": 0, "bike_id": "8ca1daa3d132efaa5029888c92105dbf", "lat": 38.95531116666667, "rental_uris": {"ios": "https://dc.lft.to/lastmile_qr_scan", "android": "https://dc.lft.to/lastmile_qr_scan"}}, {"type": "electric_scooter", "name": "4ff2b05f7a5113cca61d5119d78fccc3", "fusion_lon": 0.0, "is_reserved": 0, "lon": -77.01683833333334, "fusion_lat": 0.0, "is_disabled": 0, "bike_id": "4ff2b05f7a5113cca61d5119d78fccc3", "lat": 38.97123966666667, "rental_uris": {"ios": "https://dc.lft.to/lastmile_qr_scan", "android": "https://dc.lft.to/lastmile_qr_scan"}}, {"type": "electric_scooter", "name": "d235cd8e9c0650a862229ebc88184533", "fusion_lon": 0.0, "is_reserved": 0, "lon": -77.05821166666666, "fusion_lat": 0.0, "is_disabled": 0, "bike_id": "d235cd8e9c0650a862229ebc88184533", "lat": 38.9352585, "rental_uris": {"ios": "https://dc.lft.to/lastmile_qr_scan", "android": "https://dc.lft.to/lastmile_qr_scan"}}, {"type": "electric_scooter", "name": "4967a69c80e31b7434f4d5beba64f7fa", "fusion_lon": 0.0, "is_reserved": 0, "lon": -77.0608885, "fusion_lat": 0.0, "is_disabled": 0, "bike_id": "4967a69c80e31b7434f4d5beba64f7fa", "lat": 38.9302355, "rental_uris": {"ios": "https://dc.lft.to/lastmile_qr_scan", "android": "https://dc.lft.to/lastmile_qr_scan"}}, {"type": "electric_bike", "name": "27940d6de4d04418422ea3addba26520", "fusion_lon": 0.0, "is_reserved": 0, "lon": -77.0952435, "fusion_lat": 0.0, "is_disabled": 0, "bike_id": "27940d6de4d04418422ea3addba26520", "lat": 38.8381585, "rental_uris": {"ios": "https://dc.lft.to/lastmile_qr_scan", "android": "https://dc.lft.to/lastmile_qr_scan"}}, {"type": "electric_scooter", "name": "16c46c471bc66a133540eeb93fec7099", "fusion_lon": 0.0, "is_reserved": 0, "lon": -77.0368065, "fusion_lat": 0.0, "is_disabled": 0, "bike_id": "16c46c471bc66a133540eeb93fec7099", "lat": 38.90791883333333, "rental_uris": {"ios": "https://dc.lft.to/lastmile_qr_scan", "android": "https://dc.lft.to/lastmile_qr_scan"}}, {"type": "electric_scooter", "name": "6f88faddb3d04742ab0b54bdd79a76c5", "fusion_lon": 0.0, "is_reserved": 0, "lon": -77.01717666666667, "fusion_lat": 0.0, "is_disabled": 0, "bike_id": "6f88faddb3d04742ab0b54bdd79a76c5", "lat": 38.893438, "rental_uris": {"ios": "https://dc.lft.to/lastmile_qr_scan", "android": "https://dc.lft.to/lastmile_qr_scan"}}, {"type": "electric_scooter", "name": "1bc27581f66aa768b49c002cc190b0cb", "fusion_lon": 0.0, "is_reserved": 0, "lon": -76.97716566666666, "fusion_lat": 0.0, "is_disabled": 0, "bike_id": "1bc27581f66aa768b49c002cc190b0cb", "lat": 38.898963333333334, "rental_uris": {"ios": "https://dc.lft.to/lastmile_qr_scan", "android": "https://dc.lft.to/lastmile_qr_scan"}}, {"type": "electric_scooter", "name": "03bc1b1d11fb96667ce948c5265193cc", "fusion_lon": 0.0, "is_reserved": 0, "lon": -77.029819, "fusion_lat": 0.0, "is_disabled": 0, "bike_id": "03bc1b1d11fb96667ce948c5265193cc", "lat": 38.920509833333334, "rental_uris": {"ios": "https://dc.lft.to/lastmile_qr_scan", "android": "https://dc.lft.to/lastmile_qr_scan"}}, {"type": "electric_scooter", "name": "302a27899ec296f29a0d0b326e3de876", "fusion_lon": 0.0, "is_reserved": 0, "lon": -77.027526, "fusion_lat": 0.0, "is_disabled": 0, "bike_id": "302a27899ec296f29a0d0b326e3de876", "lat": 38.93961766666666, "rental_uris": {"ios": "https://dc.lft.to/lastmile_qr_scan", "android": "https://dc.lft.to/lastmile_qr_scan"}}, {"type": "electric_scooter", "name": "e29432e7fab0988138bccf4354f1ac77", "fusion_lon": 0.0, "is_reserved": 0, "lon": -77.04262833333334, "fusion_lat": 0.0, "is_disabled": 0, "bike_id": "e29432e7fab0988138bccf4354f1ac77", "lat": 38.892225, "rental_uris": {"ios": "https://dc.lft.to/lastmile_qr_scan", "android": "https://dc.lft.to/lastmile_qr_scan"}}, {"type": "electric_scooter", "name": "a01119bc0e532174cfc895bbc969d39b", "fusion_lon": 0.0, "is_reserved": 0, "lon": -77.04197083333334, "fusion_lat": 0.0, "is_disabled": 0, "bike_id": "a01119bc0e532174cfc895bbc969d39b", "lat": 38.918768166666666, "rental_uris": {"ios": "https://dc.lft.to/lastmile_qr_scan", "android": "https://dc.lft.to/lastmile_qr_scan"}}, {"type": "electric_scooter", "name": "0a3e3195503e7cb4e6a4f6164265d3c0", "fusion_lon": 0.0, "is_reserved": 0, "lon": -76.99619833333334, "fusion_lat": 0.0, "is_disabled": 0, "bike_id": "0a3e3195503e7cb4e6a4f6164265d3c0", "lat": 38.88586316666667, "rental_uris": {"ios": "https://dc.lft.to/lastmile_qr_scan", "android": "https://dc.lft.to/lastmile_qr_scan"}}, {"type": "electric_scooter", "name": "d8ac7f43a27485938c2ba294b8e335a8", "fusion_lon": 0.0, "is_reserved": 0, "lon": -77.05749016666667, "fusion_lat": 0.0, "is_disabled": 0, "bike_id": "d8ac7f43a27485938c2ba294b8e335a8", "lat": 38.93544, "rental_uris": {"ios": "https://dc.lft.to/lastmile_qr_scan", "android": "https://dc.lft.to/lastmile_qr_scan"}}, {"type": "electric_scooter", "name": "26be2064c2a7f0627bc99b25899b93dd", "fusion_lon": 0.0, "is_reserved": 0, "lon": -77.03955633333334, "fusion_lat": 0.0, "is_disabled": 0, "bike_id": "26be2064c2a7f0627bc99b25899b93dd", "lat": 38.892478833333335, "rental_uris": {"ios": "https://dc.lft.to/lastmile_qr_scan", "android": "https://dc.lft.to/lastmile_qr_scan"}}, {"type": "electric_scooter", "name": "aa20f80cfce6579e712d464720c3c21e", "fusion_lon": 0.0, "is_reserved": 0, "lon": -77.02968633333333, "fusion_lat": 0.0, "is_disabled": 0, "bike_id": "aa20f80cfce6579e712d464720c3c21e", "lat": 38.91716066666667, "rental_uris": {"ios": "https://dc.lft.to/lastmile_qr_scan", "android": "https://dc.lft.to/lastmile_qr_scan"}}, {"type": "electric_scooter", "name": "7997f495ed68425ee47bffec361ee867", "fusion_lon": 0.0, "is_reserved": 0, "lon": -77.04314183333334, "fusion_lat": 0.0, "is_disabled": 0, "bike_id": "7997f495ed68425ee47bffec361ee867", "lat": 38.9232355, "rental_uris": {"ios": "https://dc.lft.to/lastmile_qr_scan", "android": "https://dc.lft.to/lastmile_qr_scan"}}, {"type": "electric_scooter", "name": "dc6f53bf492d9c0a70978c91ce9724f3", "fusion_lon": 0.0, "is_reserved": 0, "lon": -76.9309005, "fusion_lat": 0.0, "is_disabled": 0, "bike_id": "dc6f53bf492d9c0a70978c91ce9724f3", "lat": 38.8779525, "rental_uris": {"ios": "https://dc.lft.to/lastmile_qr_scan", "android": "https://dc.lft.to/lastmile_qr_scan"}}, {"type": "electric_scooter", "name": "269c1e8a350bcd09bb8738115eaec9eb", "fusion_lon": 0.0, "is_reserved": 0, "lon": -77.04406433333334, "fusion_lat": 0.0, "is_disabled": 0, "bike_id": "269c1e8a350bcd09bb8738115eaec9eb", "lat": 38.9258855, "rental_uris": {"ios": "https://dc.lft.to/lastmile_qr_scan", "android": "https://dc.lft.to/lastmile_qr_scan"}}, {"type": "electric_scooter", "name": "ada4acd0494508159aa0a17dc911c3cb", "fusion_lon": 0.0, "is_reserved": 0, "lon": -76.99336566666666, "fusion_lat": 0.0, "is_disabled": 0, "bike_id": "ada4acd0494508159aa0a17dc911c3cb", "lat": 38.9103365, "rental_uris": {"ios": "https://dc.lft.to/lastmile_qr_scan", "android": "https://dc.lft.to/lastmile_qr_scan"}}, {"type": "electric_scooter", "name": "b0dd266ca38d615caae85450f576a2ee", "fusion_lon": 0.0, "is_reserved": 0, "lon": -77.01214083333333, "fusion_lat": 0.0, "is_disabled": 0, "bike_id": "b0dd266ca38d615caae85450f576a2ee", "lat": 38.914440166666665, "rental_uris": {"ios": "https://dc.lft.to/lastmile_qr_scan", "android": "https://dc.lft.to/lastmile_qr_scan"}}, {"type": "electric_scooter", "name": "6d26b66c96f4b9534f73dab3573ae2ab", "fusion_lon": 0.0, "is_reserved": 0, "lon": -77.05611133333333, "fusion_lat": 0.0, "is_disabled": 0, "bike_id": "6d26b66c96f4b9534f73dab3573ae2ab", "lat": 38.93166566666667, "rental_uris": {"ios": "https://dc.lft.to/lastmile_qr_scan", "android": "https://dc.lft.to/lastmile_qr_scan"}}, {"type": "electric_scooter", "name": "ce84031da3a67a085727a134b840740e", "fusion_lon": 0.0, "is_reserved": 0, "lon": -77.0430715, "fusion_lat": 0.0, "is_disabled": 0, "bike_id": "ce84031da3a67a085727a134b840740e", "lat": 38.89221116666667, "rental_uris": {"ios": "https://dc.lft.to/lastmile_qr_scan", "android": "https://dc.lft.to/lastmile_qr_scan"}}, {"type": "electric_scooter", "name": "cf6b95aaf793bf7c2c45a960cf8449b1", "fusion_lon": 0.0, "is_reserved": 0, "lon": -77.01514566666667, "fusion_lat": 0.0, "is_disabled": 0, "bike_id": "cf6b95aaf793bf7c2c45a960cf8449b1", "lat": 38.958358833333335, "rental_uris": {"ios": "https://dc.lft.to/lastmile_qr_scan", "android": "https://dc.lft.to/lastmile_qr_scan"}}, {"type": "electric_scooter", "name": "e84f39c1e57cc9637defe8bac8e8c5ce", "fusion_lon": 0.0, "is_reserved": 0, "lon": -77.025253, "fusion_lat": 0.0, "is_disabled": 0, "bike_id": "e84f39c1e57cc9637defe8bac8e8c5ce", "lat": 38.921532, "rental_uris": {"ios": "https://dc.lft.to/lastmile_qr_scan", "android": "https://dc.lft.to/lastmile_qr_scan"}}, {"type": "electric_scooter", "name": "7363e21c944033329a160212cbfa0b99", "fusion_lon": 0.0, "is_reserved": 0, "lon": -77.027193, "fusion_lat": 0.0, "is_disabled": 0, "bike_id": "7363e21c944033329a160212cbfa0b99", "lat": 38.95136933333333, "rental_uris": {"ios": "https://dc.lft.to/lastmile_qr_scan", "android": "https://dc.lft.to/lastmile_qr_scan"}}, {"type": "electric_bike", "name": "2b4230383e80ad84f4f9dbdc192973cb", "fusion_lon": 0.0, "is_reserved": 0, "lon": -77.03077616666667, "fusion_lat": 0.0, "is_disabled": 0, "bike_id": "2b4230383e80ad84f4f9dbdc192973cb", "lat": 39.042298, "rental_uris": {"ios": "https://dc.lft.to/lastmile_qr_scan", "android": "https://dc.lft.to/lastmile_qr_scan"}}, {"type": "electric_scooter", "name": "041c7d2d2487fb6439ba94aaa5005f71", "fusion_lon": 0.0, "is_reserved": 0, "lon": -77.0276085, "fusion_lat": 0.0, "is_disabled": 0, "bike_id": "041c7d2d2487fb6439ba94aaa5005f71", "lat": 38.95615633333333, "rental_uris": {"ios": "https://dc.lft.to/lastmile_qr_scan", "android": "https://dc.lft.to/lastmile_qr_scan"}}, {"type": "electric_scooter", "name": "64e4adec55a6e219291a24b9ff17c1c4", "fusion_lon": 0.0, "is_reserved": 0, "lon": -77.0320065, "fusion_lat": 0.0, "is_disabled": 0, "bike_id": "64e4adec55a6e219291a24b9ff17c1c4", "lat": 38.93064616666667, "rental_uris": {"ios": "https://dc.lft.to/lastmile_qr_scan", "android": "https://dc.lft.to/lastmile_qr_scan"}}, {"type": "electric_scooter", "name": "b047efefee7fa4bd19a039cd175e9b6e", "fusion_lon": 0.0, "is_reserved": 0, "lon": -76.965081, "fusion_lat": 0.0, "is_disabled": 0, "bike_id": "b047efefee7fa4bd19a039cd175e9b6e", "lat": 38.876478666666664, "rental_uris": {"ios": "https://dc.lft.to/lastmile_qr_scan", "android": "https://dc.lft.to/lastmile_qr_scan"}}, {"type": "electric_scooter", "name": "42e58f62cbedb80678716302d8bfb48e", "fusion_lon": 0.0, "is_reserved": 0, "lon": -77.0201415, "fusion_lat": 0.0, "is_disabled": 0, "bike_id": "42e58f62cbedb80678716302d8bfb48e", "lat": 38.911071, "rental_uris": {"ios": "https://dc.lft.to/lastmile_qr_scan", "android": "https://dc.lft.to/lastmile_qr_scan"}}, {"type": "electric_scooter", "name": "f9124db4bf9d61764d29af2a4b889219", "fusion_lon": 0.0, "is_reserved": 0, "lon": -77.0120675, "fusion_lat": 0.0, "is_disabled": 0, "bike_id": "f9124db4bf9d61764d29af2a4b889219", "lat": 38.8697415, "rental_uris": {"ios": "https://dc.lft.to/lastmile_qr_scan", "android": "https://dc.lft.to/lastmile_qr_scan"}}, {"type": "electric_bike", "name": "faffe670f0b68a36daa12dc6ced2cb94", "fusion_lon": 0.0, "is_reserved": 0, "lon": -76.99352866666666, "fusion_lat": 0.0, "is_disabled": 0, "bike_id": "faffe670f0b68a36daa12dc6ced2cb94", "lat": 38.95507683333334, "rental_uris": {"ios": "https://dc.lft.to/lastmile_qr_scan", "android": "https://dc.lft.to/lastmile_qr_scan"}}, {"type": "electric_scooter", "name": "55aba4ab0840fc044f87623c0df06414", "fusion_lon": 0.0, "is_reserved": 0, "lon": -76.999559, "fusion_lat": 0.0, "is_disabled": 0, "bike_id": "55aba4ab0840fc044f87623c0df06414", "lat": 38.903248833333336, "rental_uris": {"ios": "https://dc.lft.to/lastmile_qr_scan", "android": "https://dc.lft.to/lastmile_qr_scan"}}, {"type": "electric_scooter", "name": "3a266c0eaf3bdd99ca7deb85469d7367", "fusion_lon": 0.0, "is_reserved": 0, "lon": -77.02019483333333, "fusion_lat": 0.0, "is_disabled": 0, "bike_id": "3a266c0eaf3bdd99ca7deb85469d7367", "lat": 38.92441816666667, "rental_uris": {"ios": "https://dc.lft.to/lastmile_qr_scan", "android": "https://dc.lft.to/lastmile_qr_scan"}}, {"type": "electric_scooter", "name": "5b98cd56851c51d6936b84b1c03d4fa2", "fusion_lon": 0.0, "is_reserved": 0, "lon": -77.02888733333333, "fusion_lat": 0.0, "is_disabled": 0, "bike_id": "5b98cd56851c51d6936b84b1c03d4fa2", "lat": 38.91949916666667, "rental_uris": {"ios": "https://dc.lft.to/lastmile_qr_scan", "android": "https://dc.lft.to/lastmile_qr_scan"}}, {"type": "electric_scooter", "name": "27916beede1a5020b5a11bf473ab4ad4", "fusion_lon": 0.0, "is_reserved": 0, "lon": -77.03832516666667, "fusion_lat": 0.0, "is_disabled": 0, "bike_id": "27916beede1a5020b5a11bf473ab4ad4", "lat": 38.91186866666666, "rental_uris": {"ios": "https://dc.lft.to/lastmile_qr_scan", "android": "https://dc.lft.to/lastmile_qr_scan"}}, {"type": "electric_scooter", "name": "7c5fa97b27ac03dd361fd54a6789a3b1", "fusion_lon": 0.0, "is_reserved": 0, "lon": -77.03783233333333, "fusion_lat": 0.0, "is_disabled": 0, "bike_id": "7c5fa97b27ac03dd361fd54a6789a3b1", "lat": 38.9252935, "rental_uris": {"ios": "https://dc.lft.to/lastmile_qr_scan", "android": "https://dc.lft.to/lastmile_qr_scan"}}, {"type": "electric_scooter", "name": "600396fc8ce98e51ea4bfad3cf327be5", "fusion_lon": 0.0, "is_reserved": 0, "lon": -77.03199366666666, "fusion_lat": 0.0, "is_disabled": 0, "bike_id": "600396fc8ce98e51ea4bfad3cf327be5", "lat": 38.884662166666665, "rental_uris": {"ios": "https://dc.lft.to/lastmile_qr_scan", "android": "https://dc.lft.to/lastmile_qr_scan"}}, {"type": "electric_scooter", "name": "871e43edc27b891d8fe8c841c8c4ff69", "fusion_lon": 0.0, "is_reserved": 0, "lon": -77.01289816666667, "fusion_lat": 0.0, "is_disabled": 0, "bike_id": "871e43edc27b891d8fe8c841c8c4ff69", "lat": 38.90081083333333, "rental_uris": {"ios": "https://dc.lft.to/lastmile_qr_scan", "android": "https://dc.lft.to/lastmile_qr_scan"}}, {"type": "electric_scooter", "name": "e31a4b8e13e5fe60f8dbfd4c25e43a97", "fusion_lon": 0.0, "is_reserved": 0, "lon": -76.97545516666666, "fusion_lat": 0.0, "is_disabled": 0, "bike_id": "e31a4b8e13e5fe60f8dbfd4c25e43a97", "lat": 38.90326133333333, "rental_uris": {"ios": "https://dc.lft.to/lastmile_qr_scan", "android": "https://dc.lft.to/lastmile_qr_scan"}}, {"type": "electric_scooter", "name": "97bd07a39e763e53030df30f8f6f31a8", "fusion_lon": 0.0, "is_reserved": 0, "lon": -76.98592966666666, "fusion_lat": 0.0, "is_disabled": 0, "bike_id": "97bd07a39e763e53030df30f8f6f31a8", "lat": 38.8670095, "rental_uris": {"ios": "https://dc.lft.to/lastmile_qr_scan", "android": "https://dc.lft.to/lastmile_qr_scan"}}, {"type": "electric_scooter", "name": "c0fb928a8126bfffb3b6ea565318df23", "fusion_lon": 0.0, "is_reserved": 0, "lon": -77.04358266666667, "fusion_lat": 0.0, "is_disabled": 0, "bike_id": "c0fb928a8126bfffb3b6ea565318df23", "lat": 38.90127, "rental_uris": {"ios": "https://dc.lft.to/lastmile_qr_scan", "android": "https://dc.lft.to/lastmile_qr_scan"}}, {"type": "electric_scooter", "name": "6cbd179854e3caa85a5a7504cad4d81f", "fusion_lon": 0.0, "is_reserved": 0, "lon": -77.01414483333333, "fusion_lat": 0.0, "is_disabled": 0, "bike_id": "6cbd179854e3caa85a5a7504cad4d81f", "lat": 38.928497, "rental_uris": {"ios": "https://dc.lft.to/lastmile_qr_scan", "android": "https://dc.lft.to/lastmile_qr_scan"}}, {"type": "electric_scooter", "name": "60774af0c89e1da4adb777e4ef4c672e", "fusion_lon": 0.0, "is_reserved": 0, "lon": -76.98168166666666, "fusion_lat": 0.0, "is_disabled": 0, "bike_id": "60774af0c89e1da4adb777e4ef4c672e", "lat": 38.89855333333333, "rental_uris": {"ios": "https://dc.lft.to/lastmile_qr_scan", "android": "https://dc.lft.to/lastmile_qr_scan"}}, {"type": "electric_scooter", "name": "913bb889685a4a07f3aba45d5308481c", "fusion_lon": 0.0, "is_reserved": 0, "lon": -77.03664983333333, "fusion_lat": 0.0, "is_disabled": 0, "bike_id": "913bb889685a4a07f3aba45d5308481c", "lat": 38.92236, "rental_uris": {"ios": "https://dc.lft.to/lastmile_qr_scan", "android": "https://dc.lft.to/lastmile_qr_scan"}}, {"type": "electric_scooter", "name": "2c6a7842a53c31ee1773813debe79351", "fusion_lon": 0.0, "is_reserved": 0, "lon": -77.0480145, "fusion_lat": 0.0, "is_disabled": 0, "bike_id": "2c6a7842a53c31ee1773813debe79351", "lat": 38.892215, "rental_uris": {"ios": "https://dc.lft.to/lastmile_qr_scan", "android": "https://dc.lft.to/lastmile_qr_scan"}}, {"type": "electric_bike", "name": "4bdd93c117b7d2d4e15fc303f5419740", "fusion_lon": 0.0, "is_reserved": 0, "lon": -77.0617125, "fusion_lat": 0.0, "is_disabled": 0, "bike_id": "4bdd93c117b7d2d4e15fc303f5419740", "lat": 38.807089500000004, "rental_uris": {"ios": "https://dc.lft.to/lastmile_qr_scan", "android": "https://dc.lft.to/lastmile_qr_scan"}}, {"type": "electric_scooter", "name": "c1946f5be80447f8ee3b48e2e1d7ed87", "fusion_lon": 0.0, "is_reserved": 0, "lon": -76.9558165, "fusion_lat": 0.0, "is_disabled": 0, "bike_id": "c1946f5be80447f8ee3b48e2e1d7ed87", "lat": 38.88626583333333, "rental_uris": {"ios": "https://dc.lft.to/lastmile_qr_scan", "android": "https://dc.lft.to/lastmile_qr_scan"}}, {"type": "electric_scooter", "name": "639c09c2697791a8c5a6b3c2b56bf72c", "fusion_lon": 0.0, "is_reserved": 0, "lon": -76.99042616666667, "fusion_lat": 0.0, "is_disabled": 0, "bike_id": "639c09c2697791a8c5a6b3c2b56bf72c", "lat": 38.86389466666667, "rental_uris": {"ios": "https://dc.lft.to/lastmile_qr_scan", "android": "https://dc.lft.to/lastmile_qr_scan"}}, {"type": "electric_bike", "name": "e1c04fdf78510fb146cd7f45b62207d0", "fusion_lon": 0.0, "is_reserved": 0, "lon": -77.09463083333333, "fusion_lat": 0.0, "is_disabled": 0, "bike_id": "e1c04fdf78510fb146cd7f45b62207d0", "lat": 38.807592, "rental_uris": {"ios": "https://dc.lft.to/lastmile_qr_scan", "android": "https://dc.lft.to/lastmile_qr_scan"}}, {"type": "electric_scooter", "name": "b04499f8ff5794c0b370e3050a3cf8fd", "fusion_lon": 0.0, "is_reserved": 0, "lon": -77.04657083333333, "fusion_lat": 0.0, "is_disabled": 0, "bike_id": "b04499f8ff5794c0b370e3050a3cf8fd", "lat": 38.8975725, "rental_uris": {"ios": "https://dc.lft.to/lastmile_qr_scan", "android": "https://dc.lft.to/lastmile_qr_scan"}}, {"type": "electric_scooter", "name": "1a8eecadb65fbc6ca620aca87bfe8ddc", "fusion_lon": 0.0, "is_reserved": 0, "lon": -77.02827933333333, "fusion_lat": 0.0, "is_disabled": 0, "bike_id": "1a8eecadb65fbc6ca620aca87bfe8ddc", "lat": 38.887329333333334, "rental_uris": {"ios": "https://dc.lft.to/lastmile_qr_scan", "android": "https://dc.lft.to/lastmile_qr_scan"}}, {"type": "electric_scooter", "name": "4e7817945f5ade8c1c5fbeca490d223b", "fusion_lon": 0.0, "is_reserved": 0, "lon": -76.9315745, "fusion_lat": 0.0, "is_disabled": 0, "bike_id": "4e7817945f5ade8c1c5fbeca490d223b", "lat": 38.90834816666667, "rental_uris": {"ios": "https://dc.lft.to/lastmile_qr_scan", "android": "https://dc.lft.to/lastmile_qr_scan"}}, {"type": "electric_scooter", "name": "536334adf4cd697fe9406fe9f0cc5a69", "fusion_lon": 0.0, "is_reserved": 0, "lon": -77.03180916666666, "fusion_lat": 0.0, "is_disabled": 0, "bike_id": "536334adf4cd697fe9406fe9f0cc5a69", "lat": 38.909468833333335, "rental_uris": {"ios": "https://dc.lft.to/lastmile_qr_scan", "android": "https://dc.lft.to/lastmile_qr_scan"}}, {"type": "electric_scooter", "name": "7b09626298097cdd89d5fe5b5dc59a11", "fusion_lon": 0.0, "is_reserved": 0, "lon": -76.97827883333333, "fusion_lat": 0.0, "is_disabled": 0, "bike_id": "7b09626298097cdd89d5fe5b5dc59a11", "lat": 38.907726833333335, "rental_uris": {"ios": "https://dc.lft.to/lastmile_qr_scan", "android": "https://dc.lft.to/lastmile_qr_scan"}}, {"type": "electric_scooter", "name": "2483ba771660c1484e4f35f4895bd1fe", "fusion_lon": 0.0, "is_reserved": 0, "lon": -77.02419033333334, "fusion_lat": 0.0, "is_disabled": 0, "bike_id": "2483ba771660c1484e4f35f4895bd1fe", "lat": 38.9029415, "rental_uris": {"ios": "https://dc.lft.to/lastmile_qr_scan", "android": "https://dc.lft.to/lastmile_qr_scan"}}, {"type": "electric_scooter", "name": "34e059f34b17eafd65f73fbd5faf1e9c", "fusion_lon": 0.0, "is_reserved": 0, "lon": -77.03874333333333, "fusion_lat": 0.0, "is_disabled": 0, "bike_id": "34e059f34b17eafd65f73fbd5faf1e9c", "lat": 38.918464, "rental_uris": {"ios": "https://dc.lft.to/lastmile_qr_scan", "android": "https://dc.lft.to/lastmile_qr_scan"}}, {"type": "electric_scooter", "name": "24451fa787fd871bd164d2512bc49489", "fusion_lon": 0.0, "is_reserved": 0, "lon": -77.046887, "fusion_lat": 0.0, "is_disabled": 0, "bike_id": "24451fa787fd871bd164d2512bc49489", "lat": 38.90080066666667, "rental_uris": {"ios": "https://dc.lft.to/lastmile_qr_scan", "android": "https://dc.lft.to/lastmile_qr_scan"}}, {"type": "electric_scooter", "name": "fa61747f4ab13c63a9e803bfa071163c", "fusion_lon": 0.0, "is_reserved": 0, "lon": -77.02300266666667, "fusion_lat": 0.0, "is_disabled": 0, "bike_id": "fa61747f4ab13c63a9e803bfa071163c", "lat": 38.91599, "rental_uris": {"ios": "https://dc.lft.to/lastmile_qr_scan", "android": "https://dc.lft.to/lastmile_qr_scan"}}, {"type": "electric_scooter", "name": "e2ecc2b4030a7cc2f941ba71a85f2c5a", "fusion_lon": 0.0, "is_reserved": 0, "lon": -77.02743566666666, "fusion_lat": 0.0, "is_disabled": 0, "bike_id": "e2ecc2b4030a7cc2f941ba71a85f2c5a", "lat": 38.95200416666667, "rental_uris": {"ios": "https://dc.lft.to/lastmile_qr_scan", "android": "https://dc.lft.to/lastmile_qr_scan"}}, {"type": "electric_scooter", "name": "ad77629d8b744c29ac35a3092f405774", "fusion_lon": 0.0, "is_reserved": 0, "lon": -77.0359985, "fusion_lat": 0.0, "is_disabled": 0, "bike_id": "ad77629d8b744c29ac35a3092f405774", "lat": 38.91706666666666, "rental_uris": {"ios": "https://dc.lft.to/lastmile_qr_scan", "android": "https://dc.lft.to/lastmile_qr_scan"}}, {"type": "electric_scooter", "name": "7225a1ced0b202d1f0dfa1448ad175e9", "fusion_lon": 0.0, "is_reserved": 0, "lon": -76.98744166666667, "fusion_lat": 0.0, "is_disabled": 0, "bike_id": "7225a1ced0b202d1f0dfa1448ad175e9", "lat": 38.919001, "rental_uris": {"ios": "https://dc.lft.to/lastmile_qr_scan", "android": "https://dc.lft.to/lastmile_qr_scan"}}, {"type": "electric_scooter", "name": "394a6496f0bf576e5b0a1d33314f645a", "fusion_lon": 0.0, "is_reserved": 0, "lon": -77.02367066666666, "fusion_lat": 0.0, "is_disabled": 0, "bike_id": "394a6496f0bf576e5b0a1d33314f645a", "lat": 38.892309166666664, "rental_uris": {"ios": "https://dc.lft.to/lastmile_qr_scan", "android": "https://dc.lft.to/lastmile_qr_scan"}}, {"type": "electric_bike", "name": "a7a7534ba8e57d84af2433a7ea4f1a1e", "fusion_lon": 0.0, "is_reserved": 0, "lon": -77.02682933333334, "fusion_lat": 0.0, "is_disabled": 0, "bike_id": "a7a7534ba8e57d84af2433a7ea4f1a1e", "lat": 38.99588633333333, "rental_uris": {"ios": "https://dc.lft.to/lastmile_qr_scan", "android": "https://dc.lft.to/lastmile_qr_scan"}}, {"type": "electric_bike", "name": "2f2df768f3433c504832eb051102a8a7", "fusion_lon": 0.0, "is_reserved": 0, "lon": -77.0788865, "fusion_lat": 0.0, "is_disabled": 0, "bike_id": "2f2df768f3433c504832eb051102a8a7", "lat": 38.86286233333333, "rental_uris": {"ios": "https://dc.lft.to/lastmile_qr_scan", "android": "https://dc.lft.to/lastmile_qr_scan"}}, {"type": "electric_scooter", "name": "1c2fd7f6ab83551d9aa88b26f5d8945c", "fusion_lon": 0.0, "is_reserved": 0, "lon": -77.03675816666667, "fusion_lat": 0.0, "is_disabled": 0, "bike_id": "1c2fd7f6ab83551d9aa88b26f5d8945c", "lat": 38.923268, "rental_uris": {"ios": "https://dc.lft.to/lastmile_qr_scan", "android": "https://dc.lft.to/lastmile_qr_scan"}}, {"type": "electric_scooter", "name": "4165098830513d545990f49d205a43c5", "fusion_lon": 0.0, "is_reserved": 0, "lon": -77.043309, "fusion_lat": 0.0, "is_disabled": 0, "bike_id": "4165098830513d545990f49d205a43c5", "lat": 38.903962, "rental_uris": {"ios": "https://dc.lft.to/lastmile_qr_scan", "android": "https://dc.lft.to/lastmile_qr_scan"}}, {"type": "electric_scooter", "name": "488026e1aa0045ca218dbe66ead9954f", "fusion_lon": 0.0, "is_reserved": 0, "lon": -77.02512866666666, "fusion_lat": 0.0, "is_disabled": 0, "bike_id": "488026e1aa0045ca218dbe66ead9954f", "lat": 38.942053, "rental_uris": {"ios": "https://dc.lft.to/lastmile_qr_scan", "android": "https://dc.lft.to/lastmile_qr_scan"}}, {"type": "electric_scooter", "name": "53fd49665b6569e99f61fc9dc037ed98", "fusion_lon": 0.0, "is_reserved": 0, "lon": -77.00211816666666, "fusion_lat": 0.0, "is_disabled": 0, "bike_id": "53fd49665b6569e99f61fc9dc037ed98", "lat": 38.911065666666666, "rental_uris": {"ios": "https://dc.lft.to/lastmile_qr_scan", "android": "https://dc.lft.to/lastmile_qr_scan"}}, {"type": "electric_scooter", "name": "5e35b6fb8f857c32d58972ee4add5fbc", "fusion_lon": 0.0, "is_reserved": 0, "lon": -76.98260883333333, "fusion_lat": 0.0, "is_disabled": 0, "bike_id": "5e35b6fb8f857c32d58972ee4add5fbc", "lat": 38.866391666666665, "rental_uris": {"ios": "https://dc.lft.to/lastmile_qr_scan", "android": "https://dc.lft.to/lastmile_qr_scan"}}, {"type": "electric_scooter", "name": "17063059558bb6a3d2c0350efb2bc558", "fusion_lon": 0.0, "is_reserved": 0, "lon": -77.0406475, "fusion_lat": 0.0, "is_disabled": 0, "bike_id": "17063059558bb6a3d2c0350efb2bc558", "lat": 38.925464, "rental_uris": {"ios": "https://dc.lft.to/lastmile_qr_scan", "android": "https://dc.lft.to/lastmile_qr_scan"}}, {"type": "electric_scooter", "name": "fb66cad4dcd640a9a136b6edeb2ea122", "fusion_lon": 0.0, "is_reserved": 0, "lon": -77.00137133333334, "fusion_lat": 0.0, "is_disabled": 0, "bike_id": "fb66cad4dcd640a9a136b6edeb2ea122", "lat": 38.894745666666665, "rental_uris": {"ios": "https://dc.lft.to/lastmile_qr_scan", "android": "https://dc.lft.to/lastmile_qr_scan"}}, {"type": "electric_scooter", "name": "264e11933564a3b92b8695b3bb0eb12b", "fusion_lon": 0.0, "is_reserved": 0, "lon": -77.01213883333334, "fusion_lat": 0.0, "is_disabled": 0, "bike_id": "264e11933564a3b92b8695b3bb0eb12b", "lat": 38.9175285, "rental_uris": {"ios": "https://dc.lft.to/lastmile_qr_scan", "android": "https://dc.lft.to/lastmile_qr_scan"}}, {"type": "electric_scooter", "name": "6a41e9e9a34cff30b4c5cbb9c5816dca", "fusion_lon": 0.0, "is_reserved": 0, "lon": -77.03213933333333, "fusion_lat": 0.0, "is_disabled": 0, "bike_id": "6a41e9e9a34cff30b4c5cbb9c5816dca", "lat": 38.91623283333333, "rental_uris": {"ios": "https://dc.lft.to/lastmile_qr_scan", "android": "https://dc.lft.to/lastmile_qr_scan"}}, {"type": "electric_scooter", "name": "6f527ca9d8c28ed0f0337722a2c67779", "fusion_lon": 0.0, "is_reserved": 0, "lon": -77.0057395, "fusion_lat": 0.0, "is_disabled": 0, "bike_id": "6f527ca9d8c28ed0f0337722a2c67779", "lat": 38.90567216666667, "rental_uris": {"ios": "https://dc.lft.to/lastmile_qr_scan", "android": "https://dc.lft.to/lastmile_qr_scan"}}, {"type": "electric_scooter", "name": "7d7466064da2acddb52a6d1267a15531", "fusion_lon": 0.0, "is_reserved": 0, "lon": -77.0153085, "fusion_lat": 0.0, "is_disabled": 0, "bike_id": "7d7466064da2acddb52a6d1267a15531", "lat": 38.941135833333334, "rental_uris": {"ios": "https://dc.lft.to/lastmile_qr_scan", "android": "https://dc.lft.to/lastmile_qr_scan"}}, {"type": "electric_scooter", "name": "b41b963a269b486d2dcc230e1ac920e5", "fusion_lon": 0.0, "is_reserved": 0, "lon": -77.0057435, "fusion_lat": 0.0, "is_disabled": 0, "bike_id": "b41b963a269b486d2dcc230e1ac920e5", "lat": 38.87638716666667, "rental_uris": {"ios": "https://dc.lft.to/lastmile_qr_scan", "android": "https://dc.lft.to/lastmile_qr_scan"}}, {"type": "electric_scooter", "name": "a9ff246539a0051f203dbba490dd7bda", "fusion_lon": 0.0, "is_reserved": 0, "lon": -77.0335595, "fusion_lat": 0.0, "is_disabled": 0, "bike_id": "a9ff246539a0051f203dbba490dd7bda", "lat": 38.901355333333335, "rental_uris": {"ios": "https://dc.lft.to/lastmile_qr_scan", "android": "https://dc.lft.to/lastmile_qr_scan"}}, {"type": "electric_scooter", "name": "9b49013cea13eca4d2fc91ecb5eb0919", "fusion_lon": 0.0, "is_reserved": 0, "lon": -77.0228025, "fusion_lat": 0.0, "is_disabled": 0, "bike_id": "9b49013cea13eca4d2fc91ecb5eb0919", "lat": 38.9177815, "rental_uris": {"ios": "https://dc.lft.to/lastmile_qr_scan", "android": "https://dc.lft.to/lastmile_qr_scan"}}, {"type": "electric_bike", "name": "6182362ce01ceaebbbb04da35189f6af", "fusion_lon": 0.0, "is_reserved": 0, "lon": -77.02398816666667, "fusion_lat": 0.0, "is_disabled": 0, "bike_id": "6182362ce01ceaebbbb04da35189f6af", "lat": 38.953054, "rental_uris": {"ios": "https://dc.lft.to/lastmile_qr_scan", "android": "https://dc.lft.to/lastmile_qr_scan"}}, {"type": "electric_scooter", "name": "1836a602f0cbfc5f25a82cadec1734ed", "fusion_lon": 0.0, "is_reserved": 0, "lon": -77.07896066666666, "fusion_lat": 0.0, "is_disabled": 0, "bike_id": "1836a602f0cbfc5f25a82cadec1734ed", "lat": 38.91927483333333, "rental_uris": {"ios": "https://dc.lft.to/lastmile_qr_scan", "android": "https://dc.lft.to/lastmile_qr_scan"}}, {"type": "electric_scooter", "name": "1bc3a798c6a7d73cb3ad55d04755a82f", "fusion_lon": 0.0, "is_reserved": 0, "lon": -77.04488066666667, "fusion_lat": 0.0, "is_disabled": 0, "bike_id": "1bc3a798c6a7d73cb3ad55d04755a82f", "lat": 38.92235683333333, "rental_uris": {"ios": "https://dc.lft.to/lastmile_qr_scan", "android": "https://dc.lft.to/lastmile_qr_scan"}}, {"type": "electric_scooter", "name": "a94088c4adbfcde8a445c5acb6789fcd", "fusion_lon": 0.0, "is_reserved": 0, "lon": -77.04031633333334, "fusion_lat": 0.0, "is_disabled": 0, "bike_id": "a94088c4adbfcde8a445c5acb6789fcd", "lat": 38.92455833333333, "rental_uris": {"ios": "https://dc.lft.to/lastmile_qr_scan", "android": "https://dc.lft.to/lastmile_qr_scan"}}, {"type": "electric_scooter", "name": "81841750d5ade6d18c4250cfc39bc431", "fusion_lon": 0.0, "is_reserved": 0, "lon": -76.98145133333334, "fusion_lat": 0.0, "is_disabled": 0, "bike_id": "81841750d5ade6d18c4250cfc39bc431", "lat": 38.903212333333336, "rental_uris": {"ios": "https://dc.lft.to/lastmile_qr_scan", "android": "https://dc.lft.to/lastmile_qr_scan"}}, {"type": "electric_scooter", "name": "beecf8a415a1e5a577f9520b4128c22a", "fusion_lon": 0.0, "is_reserved": 0, "lon": -77.03425733333333, "fusion_lat": 0.0, "is_disabled": 0, "bike_id": "beecf8a415a1e5a577f9520b4128c22a", "lat": 38.90480783333334, "rental_uris": {"ios": "https://dc.lft.to/lastmile_qr_scan", "android": "https://dc.lft.to/lastmile_qr_scan"}}, {"type": "electric_scooter", "name": "0545bc7ee4697b5014a3e7c0af913c67", "fusion_lon": 0.0, "is_reserved": 0, "lon": -77.04189966666667, "fusion_lat": 0.0, "is_disabled": 0, "bike_id": "0545bc7ee4697b5014a3e7c0af913c67", "lat": 38.92043966666667, "rental_uris": {"ios": "https://dc.lft.to/lastmile_qr_scan", "android": "https://dc.lft.to/lastmile_qr_scan"}}, {"type": "electric_bike", "name": "7fb46ec1017025afc967134ebc970737", "fusion_lon": 0.0, "is_reserved": 0, "lon": -77.09619, "fusion_lat": 0.0, "is_disabled": 0, "bike_id": "7fb46ec1017025afc967134ebc970737", "lat": 38.878976, "rental_uris": {"ios": "https://dc.lft.to/lastmile_qr_scan", "android": "https://dc.lft.to/lastmile_qr_scan"}}, {"type": "electric_scooter", "name": "a2e385c71db1d0f04d073e37dffa8413", "fusion_lon": 0.0, "is_reserved": 0, "lon": -77.0405465, "fusion_lat": 0.0, "is_disabled": 0, "bike_id": "a2e385c71db1d0f04d073e37dffa8413", "lat": 38.917764, "rental_uris": {"ios": "https://dc.lft.to/lastmile_qr_scan", "android": "https://dc.lft.to/lastmile_qr_scan"}}, {"type": "electric_scooter", "name": "cfa62d718763e7bd74002b37576b9278", "fusion_lon": 0.0, "is_reserved": 0, "lon": -76.94155216666667, "fusion_lat": 0.0, "is_disabled": 0, "bike_id": "cfa62d718763e7bd74002b37576b9278", "lat": 38.88360316666667, "rental_uris": {"ios": "https://dc.lft.to/lastmile_qr_scan", "android": "https://dc.lft.to/lastmile_qr_scan"}}, {"type": "electric_scooter", "name": "c845ad68eaf9147843d030085f868532", "fusion_lon": 0.0, "is_reserved": 0, "lon": -77.04653283333333, "fusion_lat": 0.0, "is_disabled": 0, "bike_id": "c845ad68eaf9147843d030085f868532", "lat": 38.913669166666665, "rental_uris": {"ios": "https://dc.lft.to/lastmile_qr_scan", "android": "https://dc.lft.to/lastmile_qr_scan"}}, {"type": "electric_scooter", "name": "37f50704e100a3fb1a8920606d207933", "fusion_lon": 0.0, "is_reserved": 0, "lon": -77.03906933333333, "fusion_lat": 0.0, "is_disabled": 0, "bike_id": "37f50704e100a3fb1a8920606d207933", "lat": 38.901806, "rental_uris": {"ios": "https://dc.lft.to/lastmile_qr_scan", "android": "https://dc.lft.to/lastmile_qr_scan"}}, {"type": "electric_scooter", "name": "a0a0bcd9702096016253b9016dbf0cf2", "fusion_lon": 0.0, "is_reserved": 0, "lon": -77.0331175, "fusion_lat": 0.0, "is_disabled": 0, "bike_id": "a0a0bcd9702096016253b9016dbf0cf2", "lat": 38.9004505, "rental_uris": {"ios": "https://dc.lft.to/lastmile_qr_scan", "android": "https://dc.lft.to/lastmile_qr_scan"}}, {"type": "electric_scooter", "name": "d8bc0fbcde298df0551b67d64fb60bb0", "fusion_lon": 0.0, "is_reserved": 0, "lon": -77.029592, "fusion_lat": 0.0, "is_disabled": 0, "bike_id": "d8bc0fbcde298df0551b67d64fb60bb0", "lat": 38.90489066666667, "rental_uris": {"ios": "https://dc.lft.to/lastmile_qr_scan", "android": "https://dc.lft.to/lastmile_qr_scan"}}, {"type": "electric_scooter", "name": "a99f780d8215febd3567c1fe796092b1", "fusion_lon": 0.0, "is_reserved": 0, "lon": -77.000431, "fusion_lat": 0.0, "is_disabled": 0, "bike_id": "a99f780d8215febd3567c1fe796092b1", "lat": 38.88125566666667, "rental_uris": {"ios": "https://dc.lft.to/lastmile_qr_scan", "android": "https://dc.lft.to/lastmile_qr_scan"}}, {"type": "electric_scooter", "name": "619637bc901d061c258f577febbb3ccb", "fusion_lon": 0.0, "is_reserved": 0, "lon": -77.04503266666667, "fusion_lat": 0.0, "is_disabled": 0, "bike_id": "619637bc901d061c258f577febbb3ccb", "lat": 38.892230166666664, "rental_uris": {"ios": "https://dc.lft.to/lastmile_qr_scan", "android": "https://dc.lft.to/lastmile_qr_scan"}}, {"type": "electric_scooter", "name": "d09d1f99ae089b4aeff12f6138fa8015", "fusion_lon": 0.0, "is_reserved": 0, "lon": -77.02312266666667, "fusion_lat": 0.0, "is_disabled": 0, "bike_id": "d09d1f99ae089b4aeff12f6138fa8015", "lat": 38.878922833333334, "rental_uris": {"ios": "https://dc.lft.to/lastmile_qr_scan", "android": "https://dc.lft.to/lastmile_qr_scan"}}, {"type": "electric_scooter", "name": "46b0d64af0b0db4de46874293e7fe8e1", "fusion_lon": 0.0, "is_reserved": 0, "lon": -77.02694283333334, "fusion_lat": 0.0, "is_disabled": 0, "bike_id": "46b0d64af0b0db4de46874293e7fe8e1", "lat": 38.9152355, "rental_uris": {"ios": "https://dc.lft.to/lastmile_qr_scan", "android": "https://dc.lft.to/lastmile_qr_scan"}}, {"type": "electric_scooter", "name": "71b74c3a87ddbaf2612cc5319fa1cc5f", "fusion_lon": 0.0, "is_reserved": 0, "lon": -77.00566283333333, "fusion_lat": 0.0, "is_disabled": 0, "bike_id": "71b74c3a87ddbaf2612cc5319fa1cc5f", "lat": 38.885123666666665, "rental_uris": {"ios": "https://dc.lft.to/lastmile_qr_scan", "android": "https://dc.lft.to/lastmile_qr_scan"}}, {"type": "electric_scooter", "name": "7939b6037df66c135e9288c1ec187282", "fusion_lon": 0.0, "is_reserved": 0, "lon": -77.02404483333333, "fusion_lat": 0.0, "is_disabled": 0, "bike_id": "7939b6037df66c135e9288c1ec187282", "lat": 38.920871, "rental_uris": {"ios": "https://dc.lft.to/lastmile_qr_scan", "android": "https://dc.lft.to/lastmile_qr_scan"}}, {"type": "electric_scooter", "name": "99e7836431f8ceefa480380023956221", "fusion_lon": 0.0, "is_reserved": 0, "lon": -76.9871405, "fusion_lat": 0.0, "is_disabled": 0, "bike_id": "99e7836431f8ceefa480380023956221", "lat": 38.866982666666665, "rental_uris": {"ios": "https://dc.lft.to/lastmile_qr_scan", "android": "https://dc.lft.to/lastmile_qr_scan"}}, {"type": "electric_scooter", "name": "5b32abdbb888e4c6d8caf0a29853e5b7", "fusion_lon": 0.0, "is_reserved": 0, "lon": -77.02579, "fusion_lat": 0.0, "is_disabled": 0, "bike_id": "5b32abdbb888e4c6d8caf0a29853e5b7", "lat": 38.920467333333335, "rental_uris": {"ios": "https://dc.lft.to/lastmile_qr_scan", "android": "https://dc.lft.to/lastmile_qr_scan"}}, {"type": "electric_scooter", "name": "64e081f09008813d9929f45b3e04d77d", "fusion_lon": 0.0, "is_reserved": 0, "lon": -77.03272933333334, "fusion_lat": 0.0, "is_disabled": 0, "bike_id": "64e081f09008813d9929f45b3e04d77d", "lat": 38.89892916666667, "rental_uris": {"ios": "https://dc.lft.to/lastmile_qr_scan", "android": "https://dc.lft.to/lastmile_qr_scan"}}, {"type": "electric_scooter", "name": "1d20f87f2ab5efe4fa90be0f6802e266", "fusion_lon": 0.0, "is_reserved": 0, "lon": -77.00908716666666, "fusion_lat": 0.0, "is_disabled": 0, "bike_id": "1d20f87f2ab5efe4fa90be0f6802e266", "lat": 38.87937516666667, "rental_uris": {"ios": "https://dc.lft.to/lastmile_qr_scan", "android": "https://dc.lft.to/lastmile_qr_scan"}}, {"type": "electric_scooter", "name": "565e3114176c40e190b89af0eb6c5a13", "fusion_lon": 0.0, "is_reserved": 0, "lon": -77.00929716666667, "fusion_lat": 0.0, "is_disabled": 0, "bike_id": "565e3114176c40e190b89af0eb6c5a13", "lat": 38.908418166666664, "rental_uris": {"ios": "https://dc.lft.to/lastmile_qr_scan", "android": "https://dc.lft.to/lastmile_qr_scan"}}, {"type": "electric_scooter", "name": "cb47225c2673d72a0611ea23b22ee20b", "fusion_lon": 0.0, "is_reserved": 0, "lon": -77.014291, "fusion_lat": 0.0, "is_disabled": 0, "bike_id": "cb47225c2673d72a0611ea23b22ee20b", "lat": 38.9523375, "rental_uris": {"ios": "https://dc.lft.to/lastmile_qr_scan", "android": "https://dc.lft.to/lastmile_qr_scan"}}, {"type": "electric_scooter", "name": "27ba28af08901ff91f65868108643ff2", "fusion_lon": 0.0, "is_reserved": 0, "lon": -77.04380333333333, "fusion_lat": 0.0, "is_disabled": 0, "bike_id": "27ba28af08901ff91f65868108643ff2", "lat": 38.907258, "rental_uris": {"ios": "https://dc.lft.to/lastmile_qr_scan", "android": "https://dc.lft.to/lastmile_qr_scan"}}, {"type": "electric_scooter", "name": "798b750d42989710e276e1721b43328e", "fusion_lon": 0.0, "is_reserved": 0, "lon": -77.03588366666666, "fusion_lat": 0.0, "is_disabled": 0, "bike_id": "798b750d42989710e276e1721b43328e", "lat": 38.93675483333333, "rental_uris": {"ios": "https://dc.lft.to/lastmile_qr_scan", "android": "https://dc.lft.to/lastmile_qr_scan"}}, {"type": "electric_scooter", "name": "886d17f36ae451de2409154031cb58cd", "fusion_lon": 0.0, "is_reserved": 0, "lon": -77.01298133333333, "fusion_lat": 0.0, "is_disabled": 0, "bike_id": "886d17f36ae451de2409154031cb58cd", "lat": 38.930353833333335, "rental_uris": {"ios": "https://dc.lft.to/lastmile_qr_scan", "android": "https://dc.lft.to/lastmile_qr_scan"}}, {"type": "electric_scooter", "name": "9ab45d29da27a1ef23c04ce5bcfff968", "fusion_lon": 0.0, "is_reserved": 0, "lon": -77.01191966666667, "fusion_lat": 0.0, "is_disabled": 0, "bike_id": "9ab45d29da27a1ef23c04ce5bcfff968", "lat": 38.900116, "rental_uris": {"ios": "https://dc.lft.to/lastmile_qr_scan", "android": "https://dc.lft.to/lastmile_qr_scan"}}, {"type": "electric_scooter", "name": "4c67773dc21307fd9e3e484383cb2f97", "fusion_lon": 0.0, "is_reserved": 0, "lon": -77.034955, "fusion_lat": 0.0, "is_disabled": 0, "bike_id": "4c67773dc21307fd9e3e484383cb2f97", "lat": 38.924844666666665, "rental_uris": {"ios": "https://dc.lft.to/lastmile_qr_scan", "android": "https://dc.lft.to/lastmile_qr_scan"}}, {"type": "electric_scooter", "name": "a302520174425c45ed598c49f8f18534", "fusion_lon": 0.0, "is_reserved": 0, "lon": -77.04632466666666, "fusion_lat": 0.0, "is_disabled": 0, "bike_id": "a302520174425c45ed598c49f8f18534", "lat": 38.90959866666667, "rental_uris": {"ios": "https://dc.lft.to/lastmile_qr_scan", "android": "https://dc.lft.to/lastmile_qr_scan"}}, {"type": "electric_scooter", "name": "043f76c725453f7b6300b2204b118c2c", "fusion_lon": 0.0, "is_reserved": 0, "lon": -77.05626333333333, "fusion_lat": 0.0, "is_disabled": 0, "bike_id": "043f76c725453f7b6300b2204b118c2c", "lat": 38.931521833333335, "rental_uris": {"ios": "https://dc.lft.to/lastmile_qr_scan", "android": "https://dc.lft.to/lastmile_qr_scan"}}, {"type": "electric_scooter", "name": "a5453492a4f26e71dd34f0f6d818818a", "fusion_lon": 0.0, "is_reserved": 0, "lon": -77.03224183333333, "fusion_lat": 0.0, "is_disabled": 0, "bike_id": "a5453492a4f26e71dd34f0f6d818818a", "lat": 38.89911266666667, "rental_uris": {"ios": "https://dc.lft.to/lastmile_qr_scan", "android": "https://dc.lft.to/lastmile_qr_scan"}}, {"type": "electric_scooter", "name": "9ff16a1240e34882c994d5d11445f629", "fusion_lon": 0.0, "is_reserved": 0, "lon": -77.01951433333333, "fusion_lat": 0.0, "is_disabled": 0, "bike_id": "9ff16a1240e34882c994d5d11445f629", "lat": 38.919289166666665, "rental_uris": {"ios": "https://dc.lft.to/lastmile_qr_scan", "android": "https://dc.lft.to/lastmile_qr_scan"}}, {"type": "electric_scooter", "name": "09ccdbbb2344eb1e01ec002a3d5693a0", "fusion_lon": 0.0, "is_reserved": 0, "lon": -77.0512545, "fusion_lat": 0.0, "is_disabled": 0, "bike_id": "09ccdbbb2344eb1e01ec002a3d5693a0", "lat": 38.90573716666667, "rental_uris": {"ios": "https://dc.lft.to/lastmile_qr_scan", "android": "https://dc.lft.to/lastmile_qr_scan"}}, {"type": "electric_scooter", "name": "201b2c6218e1f84d76df91465fcb549e", "fusion_lon": 0.0, "is_reserved": 0, "lon": -77.02397316666666, "fusion_lat": 0.0, "is_disabled": 0, "bike_id": "201b2c6218e1f84d76df91465fcb549e", "lat": 38.920860833333336, "rental_uris": {"ios": "https://dc.lft.to/lastmile_qr_scan", "android": "https://dc.lft.to/lastmile_qr_scan"}}, {"type": "electric_scooter", "name": "7b0634b819d7a9bdfd71dffec96854b9", "fusion_lon": 0.0, "is_reserved": 0, "lon": -76.99044083333334, "fusion_lat": 0.0, "is_disabled": 0, "bike_id": "7b0634b819d7a9bdfd71dffec96854b9", "lat": 38.86388383333333, "rental_uris": {"ios": "https://dc.lft.to/lastmile_qr_scan", "android": "https://dc.lft.to/lastmile_qr_scan"}}, {"type": "electric_scooter", "name": "2eaaf4aead6db365da4bafc403a23f81", "fusion_lon": 0.0, "is_reserved": 0, "lon": -77.0127595, "fusion_lat": 0.0, "is_disabled": 0, "bike_id": "2eaaf4aead6db365da4bafc403a23f81", "lat": 38.956664, "rental_uris": {"ios": "https://dc.lft.to/lastmile_qr_scan", "android": "https://dc.lft.to/lastmile_qr_scan"}}, {"type": "electric_bike", "name": "ce243fdb06c918c99a3ce9aea9813d18", "fusion_lon": 0.0, "is_reserved": 0, "lon": -76.997815, "fusion_lat": 0.0, "is_disabled": 0, "bike_id": "ce243fdb06c918c99a3ce9aea9813d18", "lat": 38.82913966666667, "rental_uris": {"ios": "https://dc.lft.to/lastmile_qr_scan", "android": "https://dc.lft.to/lastmile_qr_scan"}}, {"type": "electric_scooter", "name": "c1591fc84ac8b2fd26e5c6f934082e79", "fusion_lon": 0.0, "is_reserved": 0, "lon": -77.0308305, "fusion_lat": 0.0, "is_disabled": 0, "bike_id": "c1591fc84ac8b2fd26e5c6f934082e79", "lat": 38.938696166666666, "rental_uris": {"ios": "https://dc.lft.to/lastmile_qr_scan", "android": "https://dc.lft.to/lastmile_qr_scan"}}, {"type": "electric_scooter", "name": "fede11667123449d9ef5deb9b75c0db2", "fusion_lon": 0.0, "is_reserved": 0, "lon": -77.002126, "fusion_lat": 0.0, "is_disabled": 0, "bike_id": "fede11667123449d9ef5deb9b75c0db2", "lat": 38.90626, "rental_uris": {"ios": "https://dc.lft.to/lastmile_qr_scan", "android": "https://dc.lft.to/lastmile_qr_scan"}}, {"type": "electric_scooter", "name": "3f60cfdaeb7e506e9029ffc9c4e5928d", "fusion_lon": 0.0, "is_reserved": 0, "lon": -77.0080465, "fusion_lat": 0.0, "is_disabled": 0, "bike_id": "3f60cfdaeb7e506e9029ffc9c4e5928d", "lat": 38.89636983333333, "rental_uris": {"ios": "https://dc.lft.to/lastmile_qr_scan", "android": "https://dc.lft.to/lastmile_qr_scan"}}, {"type": "electric_scooter", "name": "aeba320fa778fa794667e984cf1fb39a", "fusion_lon": 0.0, "is_reserved": 0, "lon": -77.06781116666667, "fusion_lat": 0.0, "is_disabled": 0, "bike_id": "aeba320fa778fa794667e984cf1fb39a", "lat": 38.90383933333333, "rental_uris": {"ios": "https://dc.lft.to/lastmile_qr_scan", "android": "https://dc.lft.to/lastmile_qr_scan"}}, {"type": "electric_bike", "name": "19680acf4a463c2520e86886d9692976", "fusion_lon": 0.0, "is_reserved": 0, "lon": -77.0194085, "fusion_lat": 0.0, "is_disabled": 0, "bike_id": "19680acf4a463c2520e86886d9692976", "lat": 38.922638, "rental_uris": {"ios": "https://dc.lft.to/lastmile_qr_scan", "android": "https://dc.lft.to/lastmile_qr_scan"}}, {"type": "electric_bike", "name": "9bb7225a2af6221d9a4dee39a78f422b", "fusion_lon": 0.0, "is_reserved": 0, "lon": -77.01977083333334, "fusion_lat": 0.0, "is_disabled": 0, "bike_id": "9bb7225a2af6221d9a4dee39a78f422b", "lat": 38.911175166666666, "rental_uris": {"ios": "https://dc.lft.to/lastmile_qr_scan", "android": "https://dc.lft.to/lastmile_qr_scan"}}, {"type": "electric_scooter", "name": "26315a1c1620439dcb4f48717df01399", "fusion_lon": 0.0, "is_reserved": 0, "lon": -76.99157566666666, "fusion_lat": 0.0, "is_disabled": 0, "bike_id": "26315a1c1620439dcb4f48717df01399", "lat": 38.89119516666667, "rental_uris": {"ios": "https://dc.lft.to/lastmile_qr_scan", "android": "https://dc.lft.to/lastmile_qr_scan"}}, {"type": "electric_scooter", "name": "f1adc1891c76690c12568ed52ea922ee", "fusion_lon": 0.0, "is_reserved": 0, "lon": -77.04136283333334, "fusion_lat": 0.0, "is_disabled": 0, "bike_id": "f1adc1891c76690c12568ed52ea922ee", "lat": 38.909068500000004, "rental_uris": {"ios": "https://dc.lft.to/lastmile_qr_scan", "android": "https://dc.lft.to/lastmile_qr_scan"}}, {"type": "electric_scooter", "name": "7b0b1689a47080f70d131ae5a02111ea", "fusion_lon": 0.0, "is_reserved": 0, "lon": -76.94890116666667, "fusion_lat": 0.0, "is_disabled": 0, "bike_id": "7b0b1689a47080f70d131ae5a02111ea", "lat": 38.895717, "rental_uris": {"ios": "https://dc.lft.to/lastmile_qr_scan", "android": "https://dc.lft.to/lastmile_qr_scan"}}, {"type": "electric_scooter", "name": "806d5f5f50dc6ead5517bafb0cfb2b18", "fusion_lon": 0.0, "is_reserved": 0, "lon": -77.0057025, "fusion_lat": 0.0, "is_disabled": 0, "bike_id": "806d5f5f50dc6ead5517bafb0cfb2b18", "lat": 38.83700566666667, "rental_uris": {"ios": "https://dc.lft.to/lastmile_qr_scan", "android": "https://dc.lft.to/lastmile_qr_scan"}}, {"type": "electric_scooter", "name": "a15382f95d4f30e62f080d658ff75fee", "fusion_lon": 0.0, "is_reserved": 0, "lon": -77.03400916666666, "fusion_lat": 0.0, "is_disabled": 0, "bike_id": "a15382f95d4f30e62f080d658ff75fee", "lat": 38.91686083333333, "rental_uris": {"ios": "https://dc.lft.to/lastmile_qr_scan", "android": "https://dc.lft.to/lastmile_qr_scan"}}, {"type": "electric_scooter", "name": "364b7c2f73f6f84cc41fd359cf7f36ee", "fusion_lon": 0.0, "is_reserved": 0, "lon": -77.02578366666667, "fusion_lat": 0.0, "is_disabled": 0, "bike_id": "364b7c2f73f6f84cc41fd359cf7f36ee", "lat": 38.92048033333333, "rental_uris": {"ios": "https://dc.lft.to/lastmile_qr_scan", "android": "https://dc.lft.to/lastmile_qr_scan"}}, {"type": "electric_scooter", "name": "2ccf0644fe04d47867d440aeaffde1c9", "fusion_lon": 0.0, "is_reserved": 0, "lon": -77.0384325, "fusion_lat": 0.0, "is_disabled": 0, "bike_id": "2ccf0644fe04d47867d440aeaffde1c9", "lat": 38.906188666666665, "rental_uris": {"ios": "https://dc.lft.to/lastmile_qr_scan", "android": "https://dc.lft.to/lastmile_qr_scan"}}, {"type": "electric_scooter", "name": "f7b232f63c01c26767be6e7f3f2a50b7", "fusion_lon": 0.0, "is_reserved": 0, "lon": -76.9977665, "fusion_lat": 0.0, "is_disabled": 0, "bike_id": "f7b232f63c01c26767be6e7f3f2a50b7", "lat": 38.844313166666666, "rental_uris": {"ios": "https://dc.lft.to/lastmile_qr_scan", "android": "https://dc.lft.to/lastmile_qr_scan"}}, {"type": "electric_scooter", "name": "2b6de7d2c9daeb9a1e912e25d811df29", "fusion_lon": 0.0, "is_reserved": 0, "lon": -77.019959, "fusion_lat": 0.0, "is_disabled": 0, "bike_id": "2b6de7d2c9daeb9a1e912e25d811df29", "lat": 38.8853695, "rental_uris": {"ios": "https://dc.lft.to/lastmile_qr_scan", "android": "https://dc.lft.to/lastmile_qr_scan"}}, {"type": "electric_scooter", "name": "f465855de061283a14fda9e0f687210a", "fusion_lon": 0.0, "is_reserved": 0, "lon": -77.0542425, "fusion_lat": 0.0, "is_disabled": 0, "bike_id": "f465855de061283a14fda9e0f687210a", "lat": 38.92827783333333, "rental_uris": {"ios": "https://dc.lft.to/lastmile_qr_scan", "android": "https://dc.lft.to/lastmile_qr_scan"}}, {"type": "electric_scooter", "name": "e066ae8d994cfd976e952aaa63c6ead8", "fusion_lon": 0.0, "is_reserved": 0, "lon": -77.0332285, "fusion_lat": 0.0, "is_disabled": 0, "bike_id": "e066ae8d994cfd976e952aaa63c6ead8", "lat": 38.90854316666667, "rental_uris": {"ios": "https://dc.lft.to/lastmile_qr_scan", "android": "https://dc.lft.to/lastmile_qr_scan"}}, {"type": "electric_scooter", "name": "9c710de66d48ebe78bef7c5787c8a63f", "fusion_lon": 0.0, "is_reserved": 0, "lon": -77.04498933333333, "fusion_lat": 0.0, "is_disabled": 0, "bike_id": "9c710de66d48ebe78bef7c5787c8a63f", "lat": 38.91198266666667, "rental_uris": {"ios": "https://dc.lft.to/lastmile_qr_scan", "android": "https://dc.lft.to/lastmile_qr_scan"}}, {"type": "electric_scooter", "name": "b228b10641e35ad76630992f145964de", "fusion_lon": 0.0, "is_reserved": 0, "lon": -76.98971566666667, "fusion_lat": 0.0, "is_disabled": 0, "bike_id": "b228b10641e35ad76630992f145964de", "lat": 38.85926383333333, "rental_uris": {"ios": "https://dc.lft.to/lastmile_qr_scan", "android": "https://dc.lft.to/lastmile_qr_scan"}}, {"type": "electric_scooter", "name": "a855978495f3a2c029696efb126a62d4", "fusion_lon": 0.0, "is_reserved": 0, "lon": -76.96902516666667, "fusion_lat": 0.0, "is_disabled": 0, "bike_id": "a855978495f3a2c029696efb126a62d4", "lat": 38.871584666666664, "rental_uris": {"ios": "https://dc.lft.to/lastmile_qr_scan", "android": "https://dc.lft.to/lastmile_qr_scan"}}, {"type": "electric_scooter", "name": "2ac98144894ff0a5a1094d0f5a58467a", "fusion_lon": 0.0, "is_reserved": 0, "lon": -76.97347383333333, "fusion_lat": 0.0, "is_disabled": 0, "bike_id": "2ac98144894ff0a5a1094d0f5a58467a", "lat": 38.89723016666667, "rental_uris": {"ios": "https://dc.lft.to/lastmile_qr_scan", "android": "https://dc.lft.to/lastmile_qr_scan"}}, {"type": "electric_scooter", "name": "713d9e6ba477b26001298bf499a76bf9", "fusion_lon": 0.0, "is_reserved": 0, "lon": -77.02063366666667, "fusion_lat": 0.0, "is_disabled": 0, "bike_id": "713d9e6ba477b26001298bf499a76bf9", "lat": 38.95753033333333, "rental_uris": {"ios": "https://dc.lft.to/lastmile_qr_scan", "android": "https://dc.lft.to/lastmile_qr_scan"}}, {"type": "electric_scooter", "name": "4fddc0f0c76e1e1dc0bb3b021eddb3fe", "fusion_lon": 0.0, "is_reserved": 0, "lon": -77.02693916666666, "fusion_lat": 0.0, "is_disabled": 0, "bike_id": "4fddc0f0c76e1e1dc0bb3b021eddb3fe", "lat": 38.918153, "rental_uris": {"ios": "https://dc.lft.to/lastmile_qr_scan", "android": "https://dc.lft.to/lastmile_qr_scan"}}, {"type": "electric_scooter", "name": "93c8716c5a3c043e8453ff4ab7728a7f", "fusion_lon": 0.0, "is_reserved": 0, "lon": -77.04487966666667, "fusion_lat": 0.0, "is_disabled": 0, "bike_id": "93c8716c5a3c043e8453ff4ab7728a7f", "lat": 38.906500333333334, "rental_uris": {"ios": "https://dc.lft.to/lastmile_qr_scan", "android": "https://dc.lft.to/lastmile_qr_scan"}}, {"type": "electric_bike", "name": "9f1c2c628d929c49a913b8a11b1502ad", "fusion_lon": 0.0, "is_reserved": 0, "lon": -77.02700983333334, "fusion_lat": 0.0, "is_disabled": 0, "bike_id": "9f1c2c628d929c49a913b8a11b1502ad", "lat": 38.93153383333333, "rental_uris": {"ios": "https://dc.lft.to/lastmile_qr_scan", "android": "https://dc.lft.to/lastmile_qr_scan"}}, {"type": "electric_bike", "name": "48525b0665d27b3d7a6f3ff5d76a2562", "fusion_lon": 0.0, "is_reserved": 0, "lon": -76.972143, "fusion_lat": 0.0, "is_disabled": 0, "bike_id": "48525b0665d27b3d7a6f3ff5d76a2562", "lat": 38.98365483333333, "rental_uris": {"ios": "https://dc.lft.to/lastmile_qr_scan", "android": "https://dc.lft.to/lastmile_qr_scan"}}, {"type": "electric_scooter", "name": "c67aacaf817e8da3f3b4fc43ad63eca3", "fusion_lon": 0.0, "is_reserved": 0, "lon": -77.05055133333333, "fusion_lat": 0.0, "is_disabled": 0, "bike_id": "c67aacaf817e8da3f3b4fc43ad63eca3", "lat": 38.924200166666665, "rental_uris": {"ios": "https://dc.lft.to/lastmile_qr_scan", "android": "https://dc.lft.to/lastmile_qr_scan"}}, {"type": "electric_scooter", "name": "0dbf97686d5e76563b423073b27f6cfa", "fusion_lon": 0.0, "is_reserved": 0, "lon": -77.0391045, "fusion_lat": 0.0, "is_disabled": 0, "bike_id": "0dbf97686d5e76563b423073b27f6cfa", "lat": 38.9258055, "rental_uris": {"ios": "https://dc.lft.to/lastmile_qr_scan", "android": "https://dc.lft.to/lastmile_qr_scan"}}, {"type": "electric_scooter", "name": "dac31c6b9c819216b86c58338f26d014", "fusion_lon": 0.0, "is_reserved": 0, "lon": -76.99819983333333, "fusion_lat": 0.0, "is_disabled": 0, "bike_id": "dac31c6b9c819216b86c58338f26d014", "lat": 38.8853285, "rental_uris": {"ios": "https://dc.lft.to/lastmile_qr_scan", "android": "https://dc.lft.to/lastmile_qr_scan"}}, {"type": "electric_scooter", "name": "801ac0b99f7f47233e86776603a9dec0", "fusion_lon": 0.0, "is_reserved": 0, "lon": -77.03439233333333, "fusion_lat": 0.0, "is_disabled": 0, "bike_id": "801ac0b99f7f47233e86776603a9dec0", "lat": 38.90874866666667, "rental_uris": {"ios": "https://dc.lft.to/lastmile_qr_scan", "android": "https://dc.lft.to/lastmile_qr_scan"}}, {"type": "electric_scooter", "name": "0d5e4caa2282ab89af19842fe528c789", "fusion_lon": 0.0, "is_reserved": 0, "lon": -77.0295925, "fusion_lat": 0.0, "is_disabled": 0, "bike_id": "0d5e4caa2282ab89af19842fe528c789", "lat": 38.88434433333333, "rental_uris": {"ios": "https://dc.lft.to/lastmile_qr_scan", "android": "https://dc.lft.to/lastmile_qr_scan"}}, {"type": "electric_scooter", "name": "c9c1bb19f0674660f4522afda7249edb", "fusion_lon": 0.0, "is_reserved": 0, "lon": -76.94932866666667, "fusion_lat": 0.0, "is_disabled": 0, "bike_id": "c9c1bb19f0674660f4522afda7249edb", "lat": 38.8936285, "rental_uris": {"ios": "https://dc.lft.to/lastmile_qr_scan", "android": "https://dc.lft.to/lastmile_qr_scan"}}, {"type": "electric_scooter", "name": "0ea94ac6fdd7fba11219814e5aa9fb37", "fusion_lon": 0.0, "is_reserved": 0, "lon": -77.022218, "fusion_lat": 0.0, "is_disabled": 0, "bike_id": "0ea94ac6fdd7fba11219814e5aa9fb37", "lat": 38.91269416666667, "rental_uris": {"ios": "https://dc.lft.to/lastmile_qr_scan", "android": "https://dc.lft.to/lastmile_qr_scan"}}, {"type": "electric_scooter", "name": "1e8bd2e4961987c3fa04591e5ff78eaa", "fusion_lon": 0.0, "is_reserved": 0, "lon": -76.99849883333333, "fusion_lat": 0.0, "is_disabled": 0, "bike_id": "1e8bd2e4961987c3fa04591e5ff78eaa", "lat": 38.9088055, "rental_uris": {"ios": "https://dc.lft.to/lastmile_qr_scan", "android": "https://dc.lft.to/lastmile_qr_scan"}}, {"type": "electric_scooter", "name": "9d8ec228ec3ad60acb5c5553596ef0e0", "fusion_lon": 0.0, "is_reserved": 0, "lon": -77.044974, "fusion_lat": 0.0, "is_disabled": 0, "bike_id": "9d8ec228ec3ad60acb5c5553596ef0e0", "lat": 38.914158, "rental_uris": {"ios": "https://dc.lft.to/lastmile_qr_scan", "android": "https://dc.lft.to/lastmile_qr_scan"}}, {"type": "electric_scooter", "name": "ed986ba18d004af02e410fb2c8a9dbd8", "fusion_lon": 0.0, "is_reserved": 0, "lon": -76.96882783333334, "fusion_lat": 0.0, "is_disabled": 0, "bike_id": "ed986ba18d004af02e410fb2c8a9dbd8", "lat": 38.861032, "rental_uris": {"ios": "https://dc.lft.to/lastmile_qr_scan", "android": "https://dc.lft.to/lastmile_qr_scan"}}, {"type": "electric_scooter", "name": "759af13098cc231f6d982e92321f34af", "fusion_lon": 0.0, "is_reserved": 0, "lon": -77.02836833333333, "fusion_lat": 0.0, "is_disabled": 0, "bike_id": "759af13098cc231f6d982e92321f34af", "lat": 38.93222016666667, "rental_uris": {"ios": "https://dc.lft.to/lastmile_qr_scan", "android": "https://dc.lft.to/lastmile_qr_scan"}}, {"type": "electric_scooter", "name": "d5bc5042341f94f78e1246e869a52277", "fusion_lon": 0.0, "is_reserved": 0, "lon": -77.02662966666666, "fusion_lat": 0.0, "is_disabled": 0, "bike_id": "d5bc5042341f94f78e1246e869a52277", "lat": 38.932671666666664, "rental_uris": {"ios": "https://dc.lft.to/lastmile_qr_scan", "android": "https://dc.lft.to/lastmile_qr_scan"}}, {"type": "electric_scooter", "name": "69d017ba4df76854ee3733aeafdaa9f3", "fusion_lon": 0.0, "is_reserved": 0, "lon": -77.03537316666667, "fusion_lat": 0.0, "is_disabled": 0, "bike_id": "69d017ba4df76854ee3733aeafdaa9f3", "lat": 38.9229095, "rental_uris": {"ios": "https://dc.lft.to/lastmile_qr_scan", "android": "https://dc.lft.to/lastmile_qr_scan"}}, {"type": "electric_scooter", "name": "868aa6596dc9128393df39d7b512b5ad", "fusion_lon": 0.0, "is_reserved": 0, "lon": -77.02319283333334, "fusion_lat": 0.0, "is_disabled": 0, "bike_id": "868aa6596dc9128393df39d7b512b5ad", "lat": 38.92935466666667, "rental_uris": {"ios": "https://dc.lft.to/lastmile_qr_scan", "android": "https://dc.lft.to/lastmile_qr_scan"}}, {"type": "electric_scooter", "name": "26172d7585f333a1df12b9bfa2556b3c", "fusion_lon": 0.0, "is_reserved": 0, "lon": -77.0178645, "fusion_lat": 0.0, "is_disabled": 0, "bike_id": "26172d7585f333a1df12b9bfa2556b3c", "lat": 38.90111016666667, "rental_uris": {"ios": "https://dc.lft.to/lastmile_qr_scan", "android": "https://dc.lft.to/lastmile_qr_scan"}}, {"type": "electric_scooter", "name": "c8df713592f5b8fce405ad7229d4253e", "fusion_lon": 0.0, "is_reserved": 0, "lon": -77.03545816666667, "fusion_lat": 0.0, "is_disabled": 0, "bike_id": "c8df713592f5b8fce405ad7229d4253e", "lat": 38.9263925, "rental_uris": {"ios": "https://dc.lft.to/lastmile_qr_scan", "android": "https://dc.lft.to/lastmile_qr_scan"}}, {"type": "electric_scooter", "name": "21dc95173c5149a4689c2fa594fdce4a", "fusion_lon": 0.0, "is_reserved": 0, "lon": -77.0036165, "fusion_lat": 0.0, "is_disabled": 0, "bike_id": "21dc95173c5149a4689c2fa594fdce4a", "lat": 38.91118183333333, "rental_uris": {"ios": "https://dc.lft.to/lastmile_qr_scan", "android": "https://dc.lft.to/lastmile_qr_scan"}}, {"type": "electric_scooter", "name": "f28bcae345de9a1506914c4c53048dc9", "fusion_lon": 0.0, "is_reserved": 0, "lon": -77.05063233333334, "fusion_lat": 0.0, "is_disabled": 0, "bike_id": "f28bcae345de9a1506914c4c53048dc9", "lat": 38.924184833333335, "rental_uris": {"ios": "https://dc.lft.to/lastmile_qr_scan", "android": "https://dc.lft.to/lastmile_qr_scan"}}, {"type": "electric_scooter", "name": "eb5d7fdf73862597ccb3ab7d56aaec26", "fusion_lon": 0.0, "is_reserved": 0, "lon": -77.01024816666667, "fusion_lat": 0.0, "is_disabled": 0, "bike_id": "eb5d7fdf73862597ccb3ab7d56aaec26", "lat": 38.88515016666667, "rental_uris": {"ios": "https://dc.lft.to/lastmile_qr_scan", "android": "https://dc.lft.to/lastmile_qr_scan"}}, {"type": "electric_scooter", "name": "0c2e533fdd5b58af42712bb42e2c43b8", "fusion_lon": 0.0, "is_reserved": 0, "lon": -77.01728566666667, "fusion_lat": 0.0, "is_disabled": 0, "bike_id": "0c2e533fdd5b58af42712bb42e2c43b8", "lat": 38.977228833333335, "rental_uris": {"ios": "https://dc.lft.to/lastmile_qr_scan", "android": "https://dc.lft.to/lastmile_qr_scan"}}, {"type": "electric_scooter", "name": "94e4598b79401340c57830eedf7a2afd", "fusion_lon": 0.0, "is_reserved": 0, "lon": -76.94780866666666, "fusion_lat": 0.0, "is_disabled": 0, "bike_id": "94e4598b79401340c57830eedf7a2afd", "lat": 38.8888785, "rental_uris": {"ios": "https://dc.lft.to/lastmile_qr_scan", "android": "https://dc.lft.to/lastmile_qr_scan"}}, {"type": "electric_scooter", "name": "055331cf6189b5f7d71c74c1fc3d156b", "fusion_lon": 0.0, "is_reserved": 0, "lon": -77.00244283333333, "fusion_lat": 0.0, "is_disabled": 0, "bike_id": "055331cf6189b5f7d71c74c1fc3d156b", "lat": 38.91071766666666, "rental_uris": {"ios": "https://dc.lft.to/lastmile_qr_scan", "android": "https://dc.lft.to/lastmile_qr_scan"}}, {"type": "electric_scooter", "name": "2b9c00027d1f6faab11d58e60078fa6d", "fusion_lon": 0.0, "is_reserved": 0, "lon": -77.01793666666667, "fusion_lat": 0.0, "is_disabled": 0, "bike_id": "2b9c00027d1f6faab11d58e60078fa6d", "lat": 38.89324116666667, "rental_uris": {"ios": "https://dc.lft.to/lastmile_qr_scan", "android": "https://dc.lft.to/lastmile_qr_scan"}}, {"type": "electric_bike", "name": "a2db4d136e09dab444c8e30661b72f9a", "fusion_lon": 0.0, "is_reserved": 0, "lon": -77.12075183333333, "fusion_lat": 0.0, "is_disabled": 0, "bike_id": "a2db4d136e09dab444c8e30661b72f9a", "lat": 38.854216, "rental_uris": {"ios": "https://dc.lft.to/lastmile_qr_scan", "android": "https://dc.lft.to/lastmile_qr_scan"}}, {"type": "electric_scooter", "name": "4a3b3e6de7ba8678b9528aa7b1c63a97", "fusion_lon": 0.0, "is_reserved": 0, "lon": -77.042638, "fusion_lat": 0.0, "is_disabled": 0, "bike_id": "4a3b3e6de7ba8678b9528aa7b1c63a97", "lat": 38.92296616666667, "rental_uris": {"ios": "https://dc.lft.to/lastmile_qr_scan", "android": "https://dc.lft.to/lastmile_qr_scan"}}, {"type": "electric_scooter", "name": "f77e0e9cd06dd123cc23d4c0cb6d94a7", "fusion_lon": 0.0, "is_reserved": 0, "lon": -77.03193016666667, "fusion_lat": 0.0, "is_disabled": 0, "bike_id": "f77e0e9cd06dd123cc23d4c0cb6d94a7", "lat": 38.9078815, "rental_uris": {"ios": "https://dc.lft.to/lastmile_qr_scan", "android": "https://dc.lft.to/lastmile_qr_scan"}}, {"type": "electric_scooter", "name": "710ac1c5c3ca87aa7ea66948900a1afd", "fusion_lon": 0.0, "is_reserved": 0, "lon": -77.0444435, "fusion_lat": 0.0, "is_disabled": 0, "bike_id": "710ac1c5c3ca87aa7ea66948900a1afd", "lat": 38.91876833333333, "rental_uris": {"ios": "https://dc.lft.to/lastmile_qr_scan", "android": "https://dc.lft.to/lastmile_qr_scan"}}, {"type": "electric_scooter", "name": "8834510cc0482e9ec941a6b8d4ebc6be", "fusion_lon": 0.0, "is_reserved": 0, "lon": -77.033481, "fusion_lat": 0.0, "is_disabled": 0, "bike_id": "8834510cc0482e9ec941a6b8d4ebc6be", "lat": 38.899476666666665, "rental_uris": {"ios": "https://dc.lft.to/lastmile_qr_scan", "android": "https://dc.lft.to/lastmile_qr_scan"}}, {"type": "electric_scooter", "name": "53f0f0d8640972ca469cffda41cb5b84", "fusion_lon": 0.0, "is_reserved": 0, "lon": -77.03359316666666, "fusion_lat": 0.0, "is_disabled": 0, "bike_id": "53f0f0d8640972ca469cffda41cb5b84", "lat": 38.899497333333336, "rental_uris": {"ios": "https://dc.lft.to/lastmile_qr_scan", "android": "https://dc.lft.to/lastmile_qr_scan"}},