{"data": {"bikes": [{"lon": -76.9413285, "bike_id": "fa1030ea4e5c0389a28028765643c245", "lat": 38.886093333333335, "fusion_lon": 0.0, "fusion_lat": 0.0, "type": "electric_scooter", "name": "fa1030ea4e5c0389a28028765643c245", "is_disabled": 0, "rental_uris": {"ios": "https://dc.lft.to/lastmile_qr_scan", "android": "https://dc.lft.to/lastmile_qr_scan"}, "is_reserved": 0}, {"lon": -77.0439395, "bike_id": "3e002a78162af661be303a501a5d2405", "lat": 38.8984045, "fusion_lon": 0.0, "fusion_lat": 0.0, "type": "electric_scooter", "name": "3e002a78162af661be303a501a5d2405", "is_disabled": 0, "rental_uris": {"ios": "https://dc.lft.to/lastmile_qr_scan", "android": "https://dc.lft.to/lastmile_qr_scan"}, "is_reserved": 0}, {"lon": -77.03459566666666, "bike_id": "eab579d5687787d0660b84bb57bbe7a4", "lat": 38.906378, "fusion_lon": 0.0, "fusion_lat": 0.0, "type": "electric_scooter", "name": "eab579d5687787d0660b84bb57bbe7a4", "is_disabled": 0, "rental_uris": {"ios": "https://dc.lft.to/lastmile_qr_scan", "android": "https://dc.lft.to/lastmile_qr_scan"}, "is_reserved": 0}, {"lon": -77.02358516666666, "bike_id": "df5fa6e345448c896a8e82b5ccf0d370", "lat": 38.89223766666667, "fusion_lon": 0.0, "fusion_lat": 0.0, "type": "electric_scooter", "name": "df5fa6e345448c896a8e82b5ccf0d370", "is_disabled": 0, "rental_uris": {"ios": "https://dc.lft.to/lastmile_qr_scan", "android": "https://dc.lft.to/lastmile_qr_scan"}, "is_reserved": 0}, {"lon": -77.02243233333333, "bike_id": "3cef08acb657a4784e8ac1ef22f98bdb", "lat": 38.922731666666664, "fusion_lon": 0.0, "fusion_lat": 0.0, "type": "electric_scooter", "name": "3cef08acb657a4784e8ac1ef22f98bdb", "is_disabled": 0, "rental_uris": {"ios": "https://dc.lft.to/lastmile_qr_scan", "android": "https://dc.lft.to/lastmile_qr_scan"}, "is_reserved": 0}, {"lon": -77.039916, "bike_id": "2b602e40951fa67b87388ca8d362f3c9", "lat": 38.92454133333333, "fusion_lon": 0.0, "fusion_lat": 0.0, "type": "electric_scooter", "name": "2b602e40951fa67b87388ca8d362f3c9", "is_disabled": 0, "rental_uris": {"ios": "https://dc.lft.to/lastmile_qr_scan", "android": "https://dc.lft.to/lastmile_qr_scan"}, "is_reserved": 0}, {"lon": -77.00426483333334, "bike_id": "46b3fbb0fc0da2ecdd6be4101e754b2a", "lat": 38.91336583333333, "fusion_lon": 0.0, "fusion_lat": 0.0, "type": "electric_scooter", "name": "46b3fbb0fc0da2ecdd6be4101e754b2a", "is_disabled": 0, "rental_uris": {"ios": "https://dc.lft.to/lastmile_qr_scan", "android": "https://dc.lft.to/lastmile_qr_scan"}, "is_reserved": 0}, {"lon": -77.05028083333333, "bike_id": "f63aebb5bd2f807d9438463a39552442", "lat": 38.89817983333333, "fusion_lon": 0.0, "fusion_lat": 0.0, "type": "electric_scooter", "name": "f63aebb5bd2f807d9438463a39552442", "is_disabled": 0, "rental_uris": {"ios": "https://dc.lft.to/lastmile_qr_scan", "android": "https://dc.lft.to/lastmile_qr_scan"}, "is_reserved": 0}, {"lon": -77.038395, "bike_id": "a9047d51ed66f1db45ddbb4cba5ad7d2", "lat": 38.9109395, "fusion_lon": 0.0, "fusion_lat": 0.0, "type": "electric_scooter", "name": "a9047d51ed66f1db45ddbb4cba5ad7d2", "is_disabled": 0, "rental_uris": {"ios": "https://dc.lft.to/lastmile_qr_scan", "android": "https://dc.lft.to/lastmile_qr_scan"}, "is_reserved": 0}, {"lon": -76.98494333333333, "bike_id": "cac7fb74492e2d02b6f55670a540495a", "lat": 38.878398, "fusion_lon": 0.0, "fusion_lat": 0.0, "type": "electric_scooter", "name": "cac7fb74492e2d02b6f55670a540495a", "is_disabled": 0, "rental_uris": {"ios": "https://dc.lft.to/lastmile_qr_scan", "android": "https://dc.lft.to/lastmile_qr_scan"}, "is_reserved": 0}, {"lon": -77.03639266666667, "bike_id": "71e5b2ff118ea6c014c253280ffc88e9", "lat": 38.923481, "fusion_lon": 0.0, "fusion_lat": 0.0, "type": "electric_scooter", "name": "71e5b2ff118ea6c014c253280ffc88e9", "is_disabled": 0, "rental_uris": {"ios": "https://dc.lft.to/lastmile_qr_scan", "android": "https://dc.lft.to/lastmile_qr_scan"}, "is_reserved": 0}, {"lon": -76.9463165, "bike_id": "d70403363e638e36e87a35d5cc8de496", "lat": 38.898341333333335, "fusion_lon": 0.0, "fusion_lat": 0.0, "type": "electric_scooter", "name": "d70403363e638e36e87a35d5cc8de496", "is_disabled": 0, "rental_uris": {"ios": "https://dc.lft.to/lastmile_qr_scan", "android": "https://dc.lft.to/lastmile_qr_scan"}, "is_reserved": 0}, {"lon": -77.04939716666667, "bike_id": "5afce99dbfc95a7df624a25e4c8ed4d3", "lat": 38.9084615, "fusion_lon": 0.0, "fusion_lat": 0.0, "type": "electric_scooter", "name": "5afce99dbfc95a7df624a25e4c8ed4d3", "is_disabled": 0, "rental_uris": {"ios": "https://dc.lft.to/lastmile_qr_scan", "android": "https://dc.lft.to/lastmile_qr_scan"}, "is_reserved": 0}, {"lon": -77.01617433333334, "bike_id": "693e28ae7f42b839c520527ff3e48a5a", "lat": 38.906631833333336, "fusion_lon": 0.0, "fusion_lat": 0.0, "type": "electric_scooter", "name": "693e28ae7f42b839c520527ff3e48a5a", "is_disabled": 0, "rental_uris": {"ios": "https://dc.lft.to/lastmile_qr_scan", "android": "https://dc.lft.to/lastmile_qr_scan"}, "is_reserved": 0}, {"lon": -77.07096716666666, "bike_id": "b8ddec4d68cc4ff99d0fbaafe314d48f", "lat": 38.922518833333335, "fusion_lon": 0.0, "fusion_lat": 0.0, "type": "electric_scooter", "name": "b8ddec4d68cc4ff99d0fbaafe314d48f", "is_disabled": 0, "rental_uris": {"ios": "https://dc.lft.to/lastmile_qr_scan", "android": "https://dc.lft.to/lastmile_qr_scan"}, "is_reserved": 0}, {"lon": -77.03974683333334, "bike_id": "a0db2a4dd6177663f5563a5a06a6684d", "lat": 38.93150816666667, "fusion_lon": 0.0, "fusion_lat": 0.0, "type": "electric_scooter", "name": "a0db2a4dd6177663f5563a5a06a6684d", "is_disabled": 0, "rental_uris": {"ios": "https://dc.lft.to/lastmile_qr_scan", "android": "https://dc.lft.to/lastmile_qr_scan"}, "is_reserved": 0}, {"lon": -77.03282466666667, "bike_id": "6ffeec22af2408f2fb362b42a5a46623", "lat": 38.936485833333336, "fusion_lon": 0.0, "fusion_lat": 0.0, "type": "electric_scooter", "name": "6ffeec22af2408f2fb362b42a5a46623", "is_disabled": 0, "rental_uris": {"ios": "https://dc.lft.to/lastmile_qr_scan", "android": "https://dc.lft.to/lastmile_qr_scan"}, "is_reserved": 0}, {"lon": -77.04039033333333, "bike_id": "aedfff5a0e2005b416d29c179d5e4886", "lat": 38.923174833333334, "fusion_lon": 0.0, "fusion_lat": 0.0, "type": "electric_scooter", "name": "aedfff5a0e2005b416d29c179d5e4886", "is_disabled": 0, "rental_uris": {"ios": "https://dc.lft.to/lastmile_qr_scan", "android": "https://dc.lft.to/lastmile_qr_scan"}, "is_reserved": 0}, {"lon": -77.05209366666666, "bike_id": "ac97bb653bda3dbb767b7be928ff673d", "lat": 38.915680333333334, "fusion_lon": 0.0, "fusion_lat": 0.0, "type": "electric_scooter", "name": "ac97bb653bda3dbb767b7be928ff673d", "is_disabled": 0, "rental_uris": {"ios": "https://dc.lft.to/lastmile_qr_scan", "android": "https://dc.lft.to/lastmile_qr_scan"}, "is_reserved": 0}, {"lon": -77.05914533333333, "bike_id": "7fb81c8e2c4f7f322b41bf1763c98623", "lat": 38.90388883333333, "fusion_lon": 0.0, "fusion_lat": 0.0, "type": "electric_scooter", "name": "7fb81c8e2c4f7f322b41bf1763c98623", "is_disabled": 0, "rental_uris": {"ios": "https://dc.lft.to/lastmile_qr_scan", "android": "https://dc.lft.to/lastmile_qr_scan"}, "is_reserved": 0}, {"lon": -77.02611483333334, "bike_id": "56f9110d69697c28572b3a1ab895fca4", "lat": 38.92987983333333, "fusion_lon": 0.0, "fusion_lat": 0.0, "type": "electric_scooter", "name": "56f9110d69697c28572b3a1ab895fca4", "is_disabled": 0, "rental_uris": {"ios": "https://dc.lft.to/lastmile_qr_scan", "android": "https://dc.lft.to/lastmile_qr_scan"}, "is_reserved": 0}, {"lon": -77.01844516666667, "bike_id": "a371fe7dbaba55b02e213ac62fa169ee", "lat": 38.912683, "fusion_lon": 0.0, "fusion_lat": 0.0, "type": "electric_scooter", "name": "a371fe7dbaba55b02e213ac62fa169ee", "is_disabled": 0, "rental_uris": {"ios": "https://dc.lft.to/lastmile_qr_scan", "android": "https://dc.lft.to/lastmile_qr_scan"}, "is_reserved": 0}, {"lon": -77.04418383333334, "bike_id": "b8dd24d4bf8a3a58577acbdb67626b49", "lat": 38.9212065, "fusion_lon": 0.0, "fusion_lat": 0.0, "type": "electric_scooter", "name": "b8dd24d4bf8a3a58577acbdb67626b49", "is_disabled": 0, "rental_uris": {"ios": "https://dc.lft.to/lastmile_qr_scan", "android": "https://dc.lft.to/lastmile_qr_scan"}, "is_reserved": 0}, {"lon": -77.11571066666667, "bike_id": "d629df1157bd51039bc0eca4b41d6a5c", "lat": 38.99348533333333, "fusion_lon": 0.0, "fusion_lat": 0.0, "type": "electric_bike", "name": "d629df1157bd51039bc0eca4b41d6a5c", "is_disabled": 0, "rental_uris": {"ios": "https://dc.lft.to/lastmile_qr_scan", "android": "https://dc.lft.to/lastmile_qr_scan"}, "is_reserved": 0}, {"lon": -77.01481433333333, "bike_id": "e7fc75e8ef9caf98dfbfcd523e871026", "lat": 38.958703166666666, "fusion_lon": 0.0, "fusion_lat": 0.0, "type": "electric_scooter", "name": "e7fc75e8ef9caf98dfbfcd523e871026", "is_disabled": 0, "rental_uris": {"ios": "https://dc.lft.to/lastmile_qr_scan", "android": "https://dc.lft.to/lastmile_qr_scan"}, "is_reserved": 0}, {"lon": -77.0312205, "bike_id": "f10cfdc174d32c407d270797b6114e46", "lat": 38.90441833333333, "fusion_lon": 0.0, "fusion_lat": 0.0, "type": "electric_scooter", "name": "f10cfdc174d32c407d270797b6114e46", "is_disabled": 0, "rental_uris": {"ios": "https://dc.lft.to/lastmile_qr_scan", "android": "https://dc.lft.to/lastmile_qr_scan"}, "is_reserved": 0}, {"lon": -77.13905316666667, "bike_id": "261c3f855605c9a1bb5e9ea38d54b384", "lat": 38.896783166666665, "fusion_lon": 0.0, "fusion_lat": 0.0, "type": "electric_bike", "name": "261c3f855605c9a1bb5e9ea38d54b384", "is_disabled": 0, "rental_uris": {"ios": "https://dc.lft.to/lastmile_qr_scan", "android": "https://dc.lft.to/lastmile_qr_scan"}, "is_reserved": 0}, {"lon": -76.98019716666667, "bike_id": "320e96c1fd3b6c31fc2e26b070d712e4", "lat": 38.88866266666667, "fusion_lon": 0.0, "fusion_lat": 0.0, "type": "electric_scooter", "name": "320e96c1fd3b6c31fc2e26b070d712e4", "is_disabled": 0, "rental_uris": {"ios": "https://dc.lft.to/lastmile_qr_scan", "android": "https://dc.lft.to/lastmile_qr_scan"}, "is_reserved": 0}, {"lon": -77.00657266666667, "bike_id": "4459668b145eaa719ab583a2ea866a72", "lat": 38.94466516666667, "fusion_lon": 0.0, "fusion_lat": 0.0, "type": "electric_scooter", "name": "4459668b145eaa719ab583a2ea866a72", "is_disabled": 0, "rental_uris": {"ios": "https://dc.lft.to/lastmile_qr_scan", "android": "https://dc.lft.to/lastmile_qr_scan"}, "is_reserved": 0}, {"lon": -77.02873066666666, "bike_id": "9e9d33d55743259e99d98f798e80b491", "lat": 38.8850405, "fusion_lon": 0.0, "fusion_lat": 0.0, "type": "electric_scooter", "name": "9e9d33d55743259e99d98f798e80b491", "is_disabled": 0, "rental_uris": {"ios": "https://dc.lft.to/lastmile_qr_scan", "android": "https://dc.lft.to/lastmile_qr_scan"}, "is_reserved": 0}, {"lon": -76.97238716666666, "bike_id": "a4cdf7c88d0f473d9a6b8b1642b9c79c", "lat": 38.94907033333333, "fusion_lon": 0.0, "fusion_lat": 0.0, "type": "electric_bike", "name": "a4cdf7c88d0f473d9a6b8b1642b9c79c", "is_disabled": 0, "rental_uris": {"ios": "https://dc.lft.to/lastmile_qr_scan", "android": "https://dc.lft.to/lastmile_qr_scan"}, "is_reserved": 0}, {"lon": -77.00674783333334, "bike_id": "acf5fd3d81263a797028f54d857d1c56", "lat": 38.900126, "fusion_lon": 0.0, "fusion_lat": 0.0, "type": "electric_scooter", "name": "acf5fd3d81263a797028f54d857d1c56", "is_disabled": 0, "rental_uris": {"ios": "https://dc.lft.to/lastmile_qr_scan", "android": "https://dc.lft.to/lastmile_qr_scan"}, "is_reserved": 0}, {"lon": -77.04340616666667, "bike_id": "39bd7a44fbb9d2fc0bc5a5f2c32e7083", "lat": 38.91336, "fusion_lon": 0.0, "fusion_lat": 0.0, "type": "electric_scooter", "name": "39bd7a44fbb9d2fc0bc5a5f2c32e7083", "is_disabled": 0, "rental_uris": {"ios": "https://dc.lft.to/lastmile_qr_scan", "android": "https://dc.lft.to/lastmile_qr_scan"}, "is_reserved": 0}, {"lon": -77.0545035, "bike_id": "ba6d26404ba3c64267bf8580b46413af", "lat": 38.855414, "fusion_lon": 0.0, "fusion_lat": 0.0, "type": "electric_bike", "name": "ba6d26404ba3c64267bf8580b46413af", "is_disabled": 0, "rental_uris": {"ios": "https://dc.lft.to/lastmile_qr_scan", "android": "https://dc.lft.to/lastmile_qr_scan"}, "is_reserved": 0}, {"lon": -77.0145665, "bike_id": "0a8c05d142471cc22683932bfce4426d", "lat": 38.876723, "fusion_lon": 0.0, "fusion_lat": 0.0, "type": "electric_bike", "name": "0a8c05d142471cc22683932bfce4426d", "is_disabled": 0, "rental_uris": {"ios": "https://dc.lft.to/lastmile_qr_scan", "android": "https://dc.lft.to/lastmile_qr_scan"}, "is_reserved": 0}, {"lon": -77.12650266666667, "bike_id": "ebfc91249e502c5c1e6a70d1f514a3ec", "lat": 38.815199, "fusion_lon": 0.0, "fusion_lat": 0.0, "type": "electric_bike", "name": "ebfc91249e502c5c1e6a70d1f514a3ec", "is_disabled": 0, "rental_uris": {"ios": "https://dc.lft.to/lastmile_qr_scan", "android": "https://dc.lft.to/lastmile_qr_scan"}, "is_reserved": 0}, {"lon": -77.03427833333333, "bike_id": "240e5450fb53a2ce3ffff0ecb4dbe5de", "lat": 38.91937716666666, "fusion_lon": 0.0, "fusion_lat": 0.0, "type": "electric_scooter", "name": "240e5450fb53a2ce3ffff0ecb4dbe5de", "is_disabled": 0, "rental_uris": {"ios": "https://dc.lft.to/lastmile_qr_scan", "android": "https://dc.lft.to/lastmile_qr_scan"}, "is_reserved": 0}, {"lon": -77.02923933333334, "bike_id": "5c89e87197774255fdd7c9e18ea034fa", "lat": 38.934667166666664, "fusion_lon": 0.0, "fusion_lat": 0.0, "type": "electric_scooter", "name": "5c89e87197774255fdd7c9e18ea034fa", "is_disabled": 0, "rental_uris": {"ios": "https://dc.lft.to/lastmile_qr_scan", "android": "https://dc.lft.to/lastmile_qr_scan"}, "is_reserved": 0}, {"lon": -77.02500516666667, "bike_id": "8bb45e7087b8f0030299ddc44e87e1be", "lat": 38.94204366666666, "fusion_lon": 0.0, "fusion_lat": 0.0, "type": "electric_scooter", "name": "8bb45e7087b8f0030299ddc44e87e1be", "is_disabled": 0, "rental_uris": {"ios": "https://dc.lft.to/lastmile_qr_scan", "android": "https://dc.lft.to/lastmile_qr_scan"}, "is_reserved": 0}, {"lon": -77.07925233333333, "bike_id": "a615539c6475410d6932861d7ff37cce", "lat": 38.9309805, "fusion_lon": 0.0, "fusion_lat": 0.0, "type": "electric_scooter", "name": "a615539c6475410d6932861d7ff37cce", "is_disabled": 0, "rental_uris": {"ios": "https://dc.lft.to/lastmile_qr_scan", "android": "https://dc.lft.to/lastmile_qr_scan"}, "is_reserved": 0}, {"lon": -77.0295695, "bike_id": "4dd0efad6f2c1139ded4aba7ce820498", "lat": 38.904614333333335, "fusion_lon": 0.0, "fusion_lat": 0.0, "type": "electric_scooter", "name": "4dd0efad6f2c1139ded4aba7ce820498", "is_disabled": 0, "rental_uris": {"ios": "https://dc.lft.to/lastmile_qr_scan", "android": "https://dc.lft.to/lastmile_qr_scan"}, "is_reserved": 0}, {"lon": -77.03590266666667, "bike_id": "21c59889b1ee1d50fc2346e0f1de476a", "lat": 38.93941916666667, "fusion_lon": 0.0, "fusion_lat": 0.0, "type": "electric_scooter", "name": "21c59889b1ee1d50fc2346e0f1de476a", "is_disabled": 0, "rental_uris": {"ios": "https://dc.lft.to/lastmile_qr_scan", "android": "https://dc.lft.to/lastmile_qr_scan"}, "is_reserved": 0}, {"lon": -76.9945905, "bike_id": "c38baddc60d83e5434935ed6d1780c16", "lat": 38.9407145, "fusion_lon": 0.0, "fusion_lat": 0.0, "type": "electric_scooter", "name": "c38baddc60d83e5434935ed6d1780c16", "is_disabled": 0, "rental_uris": {"ios": "https://dc.lft.to/lastmile_qr_scan", "android": "https://dc.lft.to/lastmile_qr_scan"}, "is_reserved": 0}, {"lon": -76.981506, "bike_id": "e44414f75baec648b234583dfc43afce", "lat": 38.90325033333333, "fusion_lon": 0.0, "fusion_lat": 0.0, "type": "electric_scooter", "name": "e44414f75baec648b234583dfc43afce", "is_disabled": 0, "rental_uris": {"ios": "https://dc.lft.to/lastmile_qr_scan", "android": "https://dc.lft.to/lastmile_qr_scan"}, "is_reserved": 0}, {"lon": -77.01844083333333, "bike_id": "bf8015d0ef223b6d520591bbdcedca4e", "lat": 38.946364, "fusion_lon": 0.0, "fusion_lat": 0.0, "type": "electric_scooter", "name": "bf8015d0ef223b6d520591bbdcedca4e", "is_disabled": 0, "rental_uris": {"ios": "https://dc.lft.to/lastmile_qr_scan", "android": "https://dc.lft.to/lastmile_qr_scan"}, "is_reserved": 0}, {"lon": -76.98805883333333, "bike_id": "96e83ad5b5f506b56dc2bc5f34f75e31", "lat": 38.8673455, "fusion_lon": 0.0, "fusion_lat": 0.0, "type": "electric_scooter", "name": "96e83ad5b5f506b56dc2bc5f34f75e31", "is_disabled": 0, "rental_uris": {"ios": "https://dc.lft.to/lastmile_qr_scan", "android": "https://dc.lft.to/lastmile_qr_scan"}, "is_reserved": 0}, {"lon": -76.99853533333334, "bike_id": "b6faed07fd7257a3b55607e8ef463039", "lat": 38.89088316666667, "fusion_lon": 0.0, "fusion_lat": 0.0, "type": "electric_scooter", "name": "b6faed07fd7257a3b55607e8ef463039", "is_disabled": 0, "rental_uris": {"ios": "https://dc.lft.to/lastmile_qr_scan", "android": "https://dc.lft.to/lastmile_qr_scan"}, "is_reserved": 0}, {"lon": -77.04862983333334, "bike_id": "be587d3feae63f5756549e948c04f453", "lat": 38.892235666666664, "fusion_lon": 0.0, "fusion_lat": 0.0, "type": "electric_scooter", "name": "be587d3feae63f5756549e948c04f453", "is_disabled": 0, "rental_uris": {"ios": "https://dc.lft.to/lastmile_qr_scan", "android": "https://dc.lft.to/lastmile_qr_scan"}, "is_reserved": 0}, {"lon": -77.0435375, "bike_id": "ef62b7cbfee6e0d9fc8d2ae36ab3619b", "lat": 38.90410416666667, "fusion_lon": 0.0, "fusion_lat": 0.0, "type": "electric_scooter", "name": "ef62b7cbfee6e0d9fc8d2ae36ab3619b", "is_disabled": 0, "rental_uris": {"ios": "https://dc.lft.to/lastmile_qr_scan", "android": "https://dc.lft.to/lastmile_qr_scan"}, "is_reserved": 0}, {"lon": -77.023201, "bike_id": "a0293eedd2914ffd4286f46b5f67e36f", "lat": 38.878698, "fusion_lon": 0.0, "fusion_lat": 0.0, "type": "electric_scooter", "name": "a0293eedd2914ffd4286f46b5f67e36f", "is_disabled": 0, "rental_uris": {"ios": "https://dc.lft.to/lastmile_qr_scan", "android": "https://dc.lft.to/lastmile_qr_scan"}, "is_reserved": 0}, {"lon": -77.0303615, "bike_id": "e643405f95c47e36129af02739726332", "lat": 38.884147, "fusion_lon": 0.0, "fusion_lat": 0.0, "type": "electric_scooter", "name": "e643405f95c47e36129af02739726332", "is_disabled": 0, "rental_uris": {"ios": "https://dc.lft.to/lastmile_qr_scan", "android": "https://dc.lft.to/lastmile_qr_scan"}, "is_reserved": 0}, {"lon": -76.97670983333333, "bike_id": "539926e540d9d2d2d95ed71569678ba3", "lat": 38.95247366666667, "fusion_lon": 0.0, "fusion_lat": 0.0, "type": "electric_bike", "name": "539926e540d9d2d2d95ed71569678ba3", "is_disabled": 0, "rental_uris": {"ios": "https://dc.lft.to/lastmile_qr_scan", "android": "https://dc.lft.to/lastmile_qr_scan"}, "is_reserved": 0}, {"lon": -77.002717, "bike_id": "a91615f8f3da476cc9de1c3625043d69", "lat": 38.911890666666665, "fusion_lon": 0.0, "fusion_lat": 0.0, "type": "electric_bike", "name": "a91615f8f3da476cc9de1c3625043d69", "is_disabled": 0, "rental_uris": {"ios": "https://dc.lft.to/lastmile_qr_scan", "android": "https://dc.lft.to/lastmile_qr_scan"}, "is_reserved": 0}, {"lon": -77.0020155, "bike_id": "f627b97b91e96145536c0ea06a33ea3a", "lat": 38.90245, "fusion_lon": 0.0, "fusion_lat": 0.0, "type": "electric_scooter", "name": "f627b97b91e96145536c0ea06a33ea3a", "is_disabled": 0, "rental_uris": {"ios": "https://dc.lft.to/lastmile_qr_scan", "android": "https://dc.lft.to/lastmile_qr_scan"}, "is_reserved": 0}, {"lon": -77.0308665, "bike_id": "69ef8145066987d8b2b26ff4cb9631ad", "lat": 38.927155666666664, "fusion_lon": 0.0, "fusion_lat": 0.0, "type": "electric_scooter", "name": "69ef8145066987d8b2b26ff4cb9631ad", "is_disabled": 0, "rental_uris": {"ios": "https://dc.lft.to/lastmile_qr_scan", "android": "https://dc.lft.to/lastmile_qr_scan"}, "is_reserved": 0}, {"lon": -77.01490883333334, "bike_id": "c954c2a9ea614f3c6b5c77d81de3546c", "lat": 38.91769083333333, "fusion_lon": 0.0, "fusion_lat": 0.0, "type": "electric_scooter", "name": "c954c2a9ea614f3c6b5c77d81de3546c", "is_disabled": 0, "rental_uris": {"ios": "https://dc.lft.to/lastmile_qr_scan", "android": "https://dc.lft.to/lastmile_qr_scan"}, "is_reserved": 0}, {"lon": -77.04125183333333, "bike_id": "e5db09804e2199ff7d1a535ed567ee9f", "lat": 38.91555366666667, "fusion_lon": 0.0, "fusion_lat": 0.0, "type": "electric_scooter", "name": "e5db09804e2199ff7d1a535ed567ee9f", "is_disabled": 0, "rental_uris": {"ios": "https://dc.lft.to/lastmile_qr_scan", "android": "https://dc.lft.to/lastmile_qr_scan"}, "is_reserved": 0}, {"lon": -77.02805533333333, "bike_id": "65b2e9549e6483e95d14e0bbc0a2846a", "lat": 38.907419166666664, "fusion_lon": 0.0, "fusion_lat": 0.0, "type": "electric_scooter", "name": "65b2e9549e6483e95d14e0bbc0a2846a", "is_disabled": 0, "rental_uris": {"ios": "https://dc.lft.to/lastmile_qr_scan", "android": "https://dc.lft.to/lastmile_qr_scan"}, "is_reserved": 0}, {"lon": -77.06573766666666, "bike_id": "729ac585f7fc5aaf14086872223d8b8a", "lat": 38.911379333333336, "fusion_lon": 0.0, "fusion_lat": 0.0, "type": "electric_bike", "name": "729ac585f7fc5aaf14086872223d8b8a", "is_disabled": 0, "rental_uris": {"ios": "https://dc.lft.to/lastmile_qr_scan", "android": "https://dc.lft.to/lastmile_qr_scan"}, "is_reserved": 0}, {"lon": -76.96523516666667, "bike_id": "ddbb81715633f86873285382cb16d85b", "lat": 38.87634, "fusion_lon": 0.0, "fusion_lat": 0.0, "type": "electric_scooter", "name": "ddbb81715633f86873285382cb16d85b", "is_disabled": 0, "rental_uris": {"ios": "https://dc.lft.to/lastmile_qr_scan", "android": "https://dc.lft.to/lastmile_qr_scan"}, "is_reserved": 0}, {"lon": -76.997615, "bike_id": "3a1f2a0ed442de0feae3414fe14d2b1a", "lat": 38.8876895, "fusion_lon": 0.0, "fusion_lat": 0.0, "type": "electric_scooter", "name": "3a1f2a0ed442de0feae3414fe14d2b1a", "is_disabled": 0, "rental_uris": {"ios": "https://dc.lft.to/lastmile_qr_scan", "android": "https://dc.lft.to/lastmile_qr_scan"}, "is_reserved": 0}, {"lon": -77.01531566666667, "bike_id": "a6f2754fdb2e9eea7f7b32cf860e188e", "lat": 38.884989833333336, "fusion_lon": 0.0, "fusion_lat": 0.0, "type": "electric_scooter", "name": "a6f2754fdb2e9eea7f7b32cf860e188e", "is_disabled": 0, "rental_uris": {"ios": "https://dc.lft.to/lastmile_qr_scan", "android": "https://dc.lft.to/lastmile_qr_scan"}, "is_reserved": 0}, {"lon": -76.94197466666667, "bike_id": "eb87d725d7cd7bbb7f042c7944155c5c", "lat": 38.89378383333333, "fusion_lon": 0.0, "fusion_lat": 0.0, "type": "electric_scooter", "name": "eb87d725d7cd7bbb7f042c7944155c5c", "is_disabled": 0, "rental_uris": {"ios": "https://dc.lft.to/lastmile_qr_scan", "android": "https://dc.lft.to/lastmile_qr_scan"}, "is_reserved": 0}, {"lon": -77.03426333333333, "bike_id": "ec89b549a35786b03e5cccccd05f9041", "lat": 38.92741566666667, "fusion_lon": 0.0, "fusion_lat": 0.0, "type": "electric_scooter", "name": "ec89b549a35786b03e5cccccd05f9041", "is_disabled": 0, "rental_uris": {"ios": "https://dc.lft.to/lastmile_qr_scan", "android": "https://dc.lft.to/lastmile_qr_scan"}, "is_reserved": 0}, {"lon": -76.9883745, "bike_id": "cb9e487378e7c737a29c984288f6614d", "lat": 38.89669216666667, "fusion_lon": 0.0, "fusion_lat": 0.0, "type": "electric_scooter", "name": "cb9e487378e7c737a29c984288f6614d", "is_disabled": 0, "rental_uris": {"ios": "https://dc.lft.to/lastmile_qr_scan", "android": "https://dc.lft.to/lastmile_qr_scan"}, "is_reserved": 0}, {"lon": -77.0575305, "bike_id": "f96389c2f539cec86d9852483ad31e6c", "lat": 38.925011, "fusion_lon": 0.0, "fusion_lat": 0.0, "type": "electric_bike", "name": "f96389c2f539cec86d9852483ad31e6c", "is_disabled": 0, "rental_uris": {"ios": "https://dc.lft.to/lastmile_qr_scan", "android": "https://dc.lft.to/lastmile_qr_scan"}, "is_reserved": 0}, {"lon": -77.0450695, "bike_id": "e37ea47d8483737b7b2ec3d308da33f9", "lat": 38.90514183333333, "fusion_lon": 0.0, "fusion_lat": 0.0, "type": "electric_scooter", "name": "e37ea47d8483737b7b2ec3d308da33f9", "is_disabled": 0, "rental_uris": {"ios": "https://dc.lft.to/lastmile_qr_scan", "android": "https://dc.lft.to/lastmile_qr_scan"}, "is_reserved": 0}, {"lon": -77.02300766666667, "bike_id": "7c8418d51f8f8e2377e6eb7e99c62187", "lat": 38.927284, "fusion_lon": 0.0, "fusion_lat": 0.0, "type": "electric_scooter", "name": "7c8418d51f8f8e2377e6eb7e99c62187", "is_disabled": 0, "rental_uris": {"ios": "https://dc.lft.to/lastmile_qr_scan", "android": "https://dc.lft.to/lastmile_qr_scan"}, "is_reserved": 0}, {"lon": -77.1084155, "bike_id": "aa28460a8968009ecf45afca0af014c8", "lat": 38.812030166666666, "fusion_lon": 0.0, "fusion_lat": 0.0, "type": "electric_bike", "name": "aa28460a8968009ecf45afca0af014c8", "is_disabled": 0, "rental_uris": {"ios": "https://dc.lft.to/lastmile_qr_scan", "android": "https://dc.lft.to/lastmile_qr_scan"}, "is_reserved": 0}, {"lon": -77.02838416666667, "bike_id": "352c1f60087fce7437e1539ea8ae0171", "lat": 38.88772183333333, "fusion_lon": 0.0, "fusion_lat": 0.0, "type": "electric_scooter", "name": "352c1f60087fce7437e1539ea8ae0171", "is_disabled": 0, "rental_uris": {"ios": "https://dc.lft.to/lastmile_qr_scan", "android": "https://dc.lft.to/lastmile_qr_scan"}, "is_reserved": 0}, {"lon": -76.946839, "bike_id": "03087c332ff9854d1dd8649e7442b7b5", "lat": 38.88630833333333, "fusion_lon": 0.0, "fusion_lat": 0.0, "type": "electric_scooter", "name": "03087c332ff9854d1dd8649e7442b7b5", "is_disabled": 0, "rental_uris": {"ios": "https://dc.lft.to/lastmile_qr_scan", "android": "https://dc.lft.to/lastmile_qr_scan"}, "is_reserved": 0}, {"lon": -77.00005883333333, "bike_id": "4d4e8e3b72ef65b421098fd500d8ea42", "lat": 38.89741683333333, "fusion_lon": 0.0, "fusion_lat": 0.0, "type": "electric_scooter", "name": "4d4e8e3b72ef65b421098fd500d8ea42", "is_disabled": 0, "rental_uris": {"ios": "https://dc.lft.to/lastmile_qr_scan", "android": "https://dc.lft.to/lastmile_qr_scan"}, "is_reserved": 0}, {"lon": -76.949943, "bike_id": "f098babc419615a076111be70565565f", "lat": 38.893880333333335, "fusion_lon": 0.0, "fusion_lat": 0.0, "type": "electric_scooter", "name": "f098babc419615a076111be70565565f", "is_disabled": 0, "rental_uris": {"ios": "https://dc.lft.to/lastmile_qr_scan", "android": "https://dc.lft.to/lastmile_qr_scan"}, "is_reserved": 0}, {"lon": -77.05860133333333, "bike_id": "39b6db3f2403d5db2ddcd9ac4c2ffe74", "lat": 38.936093666666665, "fusion_lon": 0.0, "fusion_lat": 0.0, "type": "electric_scooter", "name": "39b6db3f2403d5db2ddcd9ac4c2ffe74", "is_disabled": 0, "rental_uris": {"ios": "https://dc.lft.to/lastmile_qr_scan", "android": "https://dc.lft.to/lastmile_qr_scan"}, "is_reserved": 0}, {"lon": -77.07433, "bike_id": "47dbcb36ec5a2d854c1ab401b1156123", "lat": 38.99947616666667, "fusion_lon": 0.0, "fusion_lat": 0.0, "type": "electric_bike", "name": "47dbcb36ec5a2d854c1ab401b1156123", "is_disabled": 0, "rental_uris": {"ios": "https://dc.lft.to/lastmile_qr_scan", "android": "https://dc.lft.to/lastmile_qr_scan"}, "is_reserved": 0}, {"lon": -77.024321, "bike_id": "9d21e337dc0d48c3717c082bd246c6cd", "lat": 38.91408916666666, "fusion_lon": 0.0, "fusion_lat": 0.0, "type": "electric_scooter", "name": "9d21e337dc0d48c3717c082bd246c6cd", "is_disabled": 0, "rental_uris": {"ios": "https://dc.lft.to/lastmile_qr_scan", "android": "https://dc.lft.to/lastmile_qr_scan"}, "is_reserved": 0}, {"lon": -76.98016483333333, "bike_id": "96d2244a435d66ee8c3fbc583abe26e5", "lat": 38.89891933333333, "fusion_lon": 0.0, "fusion_lat": 0.0, "type": "electric_scooter", "name": "96d2244a435d66ee8c3fbc583abe26e5", "is_disabled": 0, "rental_uris": {"ios": "https://dc.lft.to/lastmile_qr_scan", "android": "https://dc.lft.to/lastmile_qr_scan"}, "is_reserved": 0}, {"lon": -77.00737416666666, "bike_id": "608d8a6617f83c480b44a09258258e6a", "lat": 38.916268, "fusion_lon": 0.0, "fusion_lat": 0.0, "type": "electric_scooter", "name": "608d8a6617f83c480b44a09258258e6a", "is_disabled": 0, "rental_uris": {"ios": "https://dc.lft.to/lastmile_qr_scan", "android": "https://dc.lft.to/lastmile_qr_scan"}, "is_reserved": 0}, {"lon": -77.01428033333333, "bike_id": "fd17ace56e255d7afb1aa2189191b100", "lat": 38.914648666666665, "fusion_lon": 0.0, "fusion_lat": 0.0, "type": "electric_scooter", "name": "fd17ace56e255d7afb1aa2189191b100", "is_disabled": 0, "rental_uris": {"ios": "https://dc.lft.to/lastmile_qr_scan", "android": "https://dc.lft.to/lastmile_qr_scan"}, "is_reserved": 0}, {"lon": -77.032587, "bike_id": "3f51baec7d2a91447ba7e019c650e3fe", "lat": 38.9356675, "fusion_lon": 0.0, "fusion_lat": 0.0, "type": "electric_scooter", "name": "3f51baec7d2a91447ba7e019c650e3fe", "is_disabled": 0, "rental_uris": {"ios": "https://dc.lft.to/lastmile_qr_scan", "android": "https://dc.lft.to/lastmile_qr_scan"}, "is_reserved": 0}, {"lon": -77.01446466666667, "bike_id": "53daa2e1124db23fa96f3e9e8cd458f1", "lat": 38.87943216666667, "fusion_lon": 0.0, "fusion_lat": 0.0, "type": "electric_scooter", "name": "53daa2e1124db23fa96f3e9e8cd458f1", "is_disabled": 0, "rental_uris": {"ios": "https://dc.lft.to/lastmile_qr_scan", "android": "https://dc.lft.to/lastmile_qr_scan"}, "is_reserved": 0}, {"lon": -76.98714083333333, "bike_id": "28a8d592cd388b3789f810396eceb96f", "lat": 38.86629516666667, "fusion_lon": 0.0, "fusion_lat": 0.0, "type": "electric_scooter", "name": "28a8d592cd388b3789f810396eceb96f", "is_disabled": 0, "rental_uris": {"ios": "https://dc.lft.to/lastmile_qr_scan", "android": "https://dc.lft.to/lastmile_qr_scan"}, "is_reserved": 0}, {"lon": -77.016623, "bike_id": "9049eda6e1e98d4f12ab4ae41a58901a", "lat": 38.928977833333335, "fusion_lon": 0.0, "fusion_lat": 0.0, "type": "electric_scooter", "name": "9049eda6e1e98d4f12ab4ae41a58901a", "is_disabled": 0, "rental_uris": {"ios": "https://dc.lft.to/lastmile_qr_scan", "android": "https://dc.lft.to/lastmile_qr_scan"}, "is_reserved": 0}, {"lon": -76.99539333333334, "bike_id": "bccf848ceb77dfe96398c09745020b09", "lat": 38.9267465, "fusion_lon": 0.0, "fusion_lat": 0.0, "type": "electric_scooter", "name": "bccf848ceb77dfe96398c09745020b09", "is_disabled": 0, "rental_uris": {"ios": "https://dc.lft.to/lastmile_qr_scan", "android": "https://dc.lft.to/lastmile_qr_scan"}, "is_reserved": 0}, {"lon": -76.99546733333334, "bike_id": "2929dc0b00f8d61076046da44d7af918", "lat": 38.8625955, "fusion_lon": 0.0, "fusion_lat": 0.0, "type": "electric_scooter", "name": "2929dc0b00f8d61076046da44d7af918", "is_disabled": 0, "rental_uris": {"ios": "https://dc.lft.to/lastmile_qr_scan", "android": "https://dc.lft.to/lastmile_qr_scan"}, "is_reserved": 0}, {"lon": -76.93735483333333, "bike_id": "172003ae52075c59be3d2393cf2755d7", "lat": 38.890099, "fusion_lon": 0.0, "fusion_lat": 0.0, "type": "electric_scooter", "name": "172003ae52075c59be3d2393cf2755d7", "is_disabled": 0, "rental_uris": {"ios": "https://dc.lft.to/lastmile_qr_scan", "android": "https://dc.lft.to/lastmile_qr_scan"}, "is_reserved": 0}, {"lon": -77.02342333333333, "bike_id": "3226333dca2290d4d36bc0b2f3fca126", "lat": 38.93539283333333, "fusion_lon": 0.0, "fusion_lat": 0.0, "type": "electric_scooter", "name": "3226333dca2290d4d36bc0b2f3fca126", "is_disabled": 0, "rental_uris": {"ios": "https://dc.lft.to/lastmile_qr_scan", "android": "https://dc.lft.to/lastmile_qr_scan"}, "is_reserved": 0}, {"lon": -77.02594733333333, "bike_id": "177949ccf1698e7cc03dbdbc6c5fce4b", "lat": 38.896141666666665, "fusion_lon": 0.0, "fusion_lat": 0.0, "type": "electric_scooter", "name": "177949ccf1698e7cc03dbdbc6c5fce4b", "is_disabled": 0, "rental_uris": {"ios": "https://dc.lft.to/lastmile_qr_scan", "android": "https://dc.lft.to/lastmile_qr_scan"}, "is_reserved": 0}, {"lon": -77.02800866666666, "bike_id": "8531a7fe71e09a8d09ab452a40f585a9", "lat": 38.911039, "fusion_lon": 0.0, "fusion_lat": 0.0, "type": "electric_scooter", "name": "8531a7fe71e09a8d09ab452a40f585a9", "is_disabled": 0, "rental_uris": {"ios": "https://dc.lft.to/lastmile_qr_scan", "android": "https://dc.lft.to/lastmile_qr_scan"}, "is_reserved": 0}, {"lon": -77.02993083333334, "bike_id": "3725734fbf9a0592a12cf6cfd2a122eb", "lat": 38.924747333333336, "fusion_lon": 0.0, "fusion_lat": 0.0, "type": "electric_scooter", "name": "3725734fbf9a0592a12cf6cfd2a122eb", "is_disabled": 0, "rental_uris": {"ios": "https://dc.lft.to/lastmile_qr_scan", "android": "https://dc.lft.to/lastmile_qr_scan"}, "is_reserved": 0}, {"lon": -76.931288, "bike_id": "4327b37bcf87710ceacbbf08b60ad7b9", "lat": 38.876148, "fusion_lon": 0.0, "fusion_lat": 0.0, "type": "electric_scooter", "name": "4327b37bcf87710ceacbbf08b60ad7b9", "is_disabled": 0, "rental_uris": {"ios": "https://dc.lft.to/lastmile_qr_scan", "android": "https://dc.lft.to/lastmile_qr_scan"}, "is_reserved": 0}, {"lon": -77.03160233333334, "bike_id": "8b7935de95e8ab7ace0a36546f3659cc", "lat": 38.892243, "fusion_lon": 0.0, "fusion_lat": 0.0, "type": "electric_scooter", "name": "8b7935de95e8ab7ace0a36546f3659cc", "is_disabled": 0, "rental_uris": {"ios": "https://dc.lft.to/lastmile_qr_scan", "android": "https://dc.lft.to/lastmile_qr_scan"}, "is_reserved": 0}, {"lon": -77.05440883333333, "bike_id": "3465b0ceab028fcbc2ca7e8edaea92ad", "lat": 38.9286935, "fusion_lon": 0.0, "fusion_lat": 0.0, "type": "electric_scooter", "name": "3465b0ceab028fcbc2ca7e8edaea92ad", "is_disabled": 0, "rental_uris": {"ios": "https://dc.lft.to/lastmile_qr_scan", "android": "https://dc.lft.to/lastmile_qr_scan"}, "is_reserved": 0}, {"lon": -77.04906916666667, "bike_id": "abb76a0443a44f83d7a6dbd058a52f6a", "lat": 38.903543666666664, "fusion_lon": 0.0, "fusion_lat": 0.0, "type": "electric_scooter", "name": "abb76a0443a44f83d7a6dbd058a52f6a", "is_disabled": 0, "rental_uris": {"ios": "https://dc.lft.to/lastmile_qr_scan", "android": "https://dc.lft.to/lastmile_qr_scan"}, "is_reserved": 0}, {"lon": -77.05356133333333, "bike_id": "27e7c74d8fd64dc467d62bcc7a761420", "lat": 38.9270775, "fusion_lon": 0.0, "fusion_lat": 0.0, "type": "electric_scooter", "name": "27e7c74d8fd64dc467d62bcc7a761420", "is_disabled": 0, "rental_uris": {"ios": "https://dc.lft.to/lastmile_qr_scan", "android": "https://dc.lft.to/lastmile_qr_scan"}, "is_reserved": 0}, {"lon": -77.02821433333334, "bike_id": "df86d4362a87394d2d8aac7b52a77592", "lat": 38.92472733333334, "fusion_lon": 0.0, "fusion_lat": 0.0, "type": "electric_scooter", "name": "df86d4362a87394d2d8aac7b52a77592", "is_disabled": 0, "rental_uris": {"ios": "https://dc.lft.to/lastmile_qr_scan", "android": "https://dc.lft.to/lastmile_qr_scan"}, "is_reserved": 0}, {"lon": -77.01907916666667, "bike_id": "dc3c9e13042a6c70566a83b97beadd0f", "lat": 38.886286, "fusion_lon": 0.0, "fusion_lat": 0.0, "type": "electric_scooter", "name": "dc3c9e13042a6c70566a83b97beadd0f", "is_disabled": 0, "rental_uris": {"ios": "https://dc.lft.to/lastmile_qr_scan", "android": "https://dc.lft.to/lastmile_qr_scan"}, "is_reserved": 0}, {"lon": -77.02465766666667, "bike_id": "d9bf707ad8313bb87d1903418818e26d", "lat": 38.8971635, "fusion_lon": 0.0, "fusion_lat": 0.0, "type": "electric_scooter", "name": "d9bf707ad8313bb87d1903418818e26d", "is_disabled": 0, "rental_uris": {"ios": "https://dc.lft.to/lastmile_qr_scan", "android": "https://dc.lft.to/lastmile_qr_scan"}, "is_reserved": 0}, {"lon": -77.03977933333333, "bike_id": "0f12c87c13ab7da31607e8d3f99ddbe0", "lat": 38.92312366666667, "fusion_lon": 0.0, "fusion_lat": 0.0, "type": "electric_scooter", "name": "0f12c87c13ab7da31607e8d3f99ddbe0", "is_disabled": 0, "rental_uris": {"ios": "https://dc.lft.to/lastmile_qr_scan", "android": "https://dc.lft.to/lastmile_qr_scan"}, "is_reserved": 0}, {"lon": -77.034673, "bike_id": "c64aedbb9830f8f68c73a5d1bbd4215c", "lat": 38.91873483333333, "fusion_lon": 0.0, "fusion_lat": 0.0, "type": "electric_scooter", "name": "c64aedbb9830f8f68c73a5d1bbd4215c", "is_disabled": 0, "rental_uris": {"ios": "https://dc.lft.to/lastmile_qr_scan", "android": "https://dc.lft.to/lastmile_qr_scan"}, "is_reserved": 0}, {"lon": -77.018507, "bike_id": "5dfaf86b7c51848ef50f64e823d41e35", "lat": 38.95430783333333, "fusion_lon": 0.0, "fusion_lat": 0.0, "type": "electric_scooter", "name": "5dfaf86b7c51848ef50f64e823d41e35", "is_disabled": 0, "rental_uris": {"ios": "https://dc.lft.to/lastmile_qr_scan", "android": "https://dc.lft.to/lastmile_qr_scan"}, "is_reserved": 0}, {"lon": -77.04155416666667, "bike_id": "36dd66554eb4f9ab36026dc60bc8e2a0", "lat": 38.91490566666667, "fusion_lon": 0.0, "fusion_lat": 0.0, "type": "electric_scooter", "name": "36dd66554eb4f9ab36026dc60bc8e2a0", "is_disabled": 0, "rental_uris": {"ios": "https://dc.lft.to/lastmile_qr_scan", "android": "https://dc.lft.to/lastmile_qr_scan"}, "is_reserved": 0}, {"lon": -76.943798, "bike_id": "a3f14506e2acc6d8d994fd32feb8d1a2", "lat": 38.893276666666665, "fusion_lon": 0.0, "fusion_lat": 0.0, "type": "electric_scooter", "name": "a3f14506e2acc6d8d994fd32feb8d1a2", "is_disabled": 0, "rental_uris": {"ios": "https://dc.lft.to/lastmile_qr_scan", "android": "https://dc.lft.to/lastmile_qr_scan"}, "is_reserved": 0}, {"lon": -76.98267966666667, "bike_id": "42351955f4d31e40d0ff3f95682f1479", "lat": 38.901377833333335, "fusion_lon": 0.0, "fusion_lat": 0.0, "type": "electric_scooter", "name": "42351955f4d31e40d0ff3f95682f1479", "is_disabled": 0, "rental_uris": {"ios": "https://dc.lft.to/lastmile_qr_scan", "android": "https://dc.lft.to/lastmile_qr_scan"}, "is_reserved": 0}, {"lon": -77.02605366666667, "bike_id": "68e272e97c253e81106008ae8594801d", "lat": 38.90338633333333, "fusion_lon": 0.0, "fusion_lat": 0.0, "type": "electric_scooter", "name": "68e272e97c253e81106008ae8594801d", "is_disabled": 0, "rental_uris": {"ios": "https://dc.lft.to/lastmile_qr_scan", "android": "https://dc.lft.to/lastmile_qr_scan"}, "is_reserved": 0}, {"lon": -76.97419416666666, "bike_id": "5e580e068218cf7637b4058d255f0ef6", "lat": 38.904085333333335, "fusion_lon": 0.0, "fusion_lat": 0.0, "type": "electric_scooter", "name": "5e580e068218cf7637b4058d255f0ef6", "is_disabled": 0, "rental_uris": {"ios": "https://dc.lft.to/lastmile_qr_scan", "android": "https://dc.lft.to/lastmile_qr_scan"}, "is_reserved": 0}, {"lon": -76.9782455, "bike_id": "466388a980b9e90ca03c38ead674b8ff", "lat": 38.8437135, "fusion_lon": 0.0, "fusion_lat": 0.0, "type": "electric_bike", "name": "466388a980b9e90ca03c38ead674b8ff", "is_disabled": 0, "rental_uris": {"ios": "https://dc.lft.to/lastmile_qr_scan", "android": "https://dc.lft.to/lastmile_qr_scan"}, "is_reserved": 0}, {"lon": -77.09061466666667, "bike_id": "b0a9ddf2b618188c9d96f100a0e7a4d7", "lat": 38.86262116666666, "fusion_lon": 0.0, "fusion_lat": 0.0, "type": "electric_bike", "name": "b0a9ddf2b618188c9d96f100a0e7a4d7", "is_disabled": 0, "rental_uris": {"ios": "https://dc.lft.to/lastmile_qr_scan", "android": "https://dc.lft.to/lastmile_qr_scan"}, "is_reserved": 0}, {"lon": -77.02410783333333, "bike_id": "893609176bd2a7a2f23b3e0fe3c2068d", "lat": 38.901028833333335, "fusion_lon": 0.0, "fusion_lat": 0.0, "type": "electric_scooter", "name": "893609176bd2a7a2f23b3e0fe3c2068d", "is_disabled": 0, "rental_uris": {"ios": "https://dc.lft.to/lastmile_qr_scan", "android": "https://dc.lft.to/lastmile_qr_scan"}, "is_reserved": 0}, {"lon": -76.95654783333333, "bike_id": "33740e995d163db69f76e59d0900cc9c", "lat": 38.8955785, "fusion_lon": 0.0, "fusion_lat": 0.0, "type": "electric_scooter", "name": "33740e995d163db69f76e59d0900cc9c", "is_disabled": 0, "rental_uris": {"ios": "https://dc.lft.to/lastmile_qr_scan", "android": "https://dc.lft.to/lastmile_qr_scan"}, "is_reserved": 0}, {"lon": -77.05934583333334, "bike_id": "990f6383572a64df322cf711a3159b6d", "lat": 38.91193966666667, "fusion_lon": 0.0, "fusion_lat": 0.0, "type": "electric_bike", "name": "990f6383572a64df322cf711a3159b6d", "is_disabled": 0, "rental_uris": {"ios": "https://dc.lft.to/lastmile_qr_scan", "android": "https://dc.lft.to/lastmile_qr_scan"}, "is_reserved": 0}, {"lon": -77.17839583333334, "bike_id": "859df5fdd9792f6d7e6dea362d27eae9", "lat": 39.088592166666665, "fusion_lon": 0.0, "fusion_lat": 0.0, "type": "electric_bike", "name": "859df5fdd9792f6d7e6dea362d27eae9", "is_disabled": 0, "rental_uris": {"ios": "https://dc.lft.to/lastmile_qr_scan", "android": "https://dc.lft.to/lastmile_qr_scan"}, "is_reserved": 0}, {"lon": -77.0006095, "bike_id": "bfcf22a1c798d72f92bfb712c9be61a3", "lat": 38.896596833333334, "fusion_lon": 0.0, "fusion_lat": 0.0, "type": "electric_scooter", "name": "bfcf22a1c798d72f92bfb712c9be61a3", "is_disabled": 0, "rental_uris": {"ios": "https://dc.lft.to/lastmile_qr_scan", "android": "https://dc.lft.to/lastmile_qr_scan"}, "is_reserved": 0}, {"lon": -77.03291233333333, "bike_id": "20c81bf8e3702fd8fd53ed8d020645ee", "lat": 38.95650166666667, "fusion_lon": 0.0, "fusion_lat": 0.0, "type": "electric_scooter", "name": "20c81bf8e3702fd8fd53ed8d020645ee", "is_disabled": 0, "rental_uris": {"ios": "https://dc.lft.to/lastmile_qr_scan", "android": "https://dc.lft.to/lastmile_qr_scan"}, "is_reserved": 0}, {"lon": -77.05169266666667, "bike_id": "5dcca0327a9ce900368cbbcf73a7f462", "lat": 38.84280433333333, "fusion_lon": 0.0, "fusion_lat": 0.0, "type": "electric_bike", "name": "5dcca0327a9ce900368cbbcf73a7f462", "is_disabled": 0, "rental_uris": {"ios": "https://dc.lft.to/lastmile_qr_scan", "android": "https://dc.lft.to/lastmile_qr_scan"}, "is_reserved": 0}, {"lon": -77.02629916666666, "bike_id": "548ca2bb234d265ce0d94745deb0966f", "lat": 38.9025945, "fusion_lon": 0.0, "fusion_lat": 0.0, "type": "electric_scooter", "name": "548ca2bb234d265ce0d94745deb0966f", "is_disabled": 0, "rental_uris": {"ios": "https://dc.lft.to/lastmile_qr_scan", "android": "https://dc.lft.to/lastmile_qr_scan"}, "is_reserved": 0}, {"lon": -77.03281016666666, "bike_id": "da572ff2dca5c30d61d40e8519d84f00", "lat": 38.936453, "fusion_lon": 0.0, "fusion_lat": 0.0, "type": "electric_scooter", "name": "da572ff2dca5c30d61d40e8519d84f00", "is_disabled": 0, "rental_uris": {"ios": "https://dc.lft.to/lastmile_qr_scan", "android": "https://dc.lft.to/lastmile_qr_scan"}, "is_reserved": 0}, {"lon": -76.99169216666667, "bike_id": "f9c795e5b713208c62f342c16065c64c", "lat": 38.90968566666667, "fusion_lon": 0.0, "fusion_lat": 0.0, "type": "electric_scooter", "name": "f9c795e5b713208c62f342c16065c64c", "is_disabled": 0, "rental_uris": {"ios": "https://dc.lft.to/lastmile_qr_scan", "android": "https://dc.lft.to/lastmile_qr_scan"}, "is_reserved": 0}, {"lon": -77.07344166666667, "bike_id": "a5dfeed11c4c861f47739e7b4cfed8f1", "lat": 38.93485583333333, "fusion_lon": 0.0, "fusion_lat": 0.0, "type": "electric_scooter", "name": "a5dfeed11c4c861f47739e7b4cfed8f1", "is_disabled": 0, "rental_uris": {"ios": "https://dc.lft.to/lastmile_qr_scan", "android": "https://dc.lft.to/lastmile_qr_scan"}, "is_reserved": 0}, {"lon": -77.01115916666667, "bike_id": "561bb611bf657c5cc90b1d9c3274f37b", "lat": 38.885529, "fusion_lon": 0.0, "fusion_lat": 0.0, "type": "electric_scooter", "name": "561bb611bf657c5cc90b1d9c3274f37b", "is_disabled": 0, "rental_uris": {"ios": "https://dc.lft.to/lastmile_qr_scan", "android": "https://dc.lft.to/lastmile_qr_scan"}, "is_reserved": 0}, {"lon": -77.09595933333334, "bike_id": "a1053cb5fdc3906b2eab02f100f922f1", "lat": 39.028929833333336, "fusion_lon": 0.0, "fusion_lat": 0.0, "type": "electric_bike", "name": "a1053cb5fdc3906b2eab02f100f922f1", "is_disabled": 0, "rental_uris": {"ios": "https://dc.lft.to/lastmile_qr_scan", "android": "https://dc.lft.to/lastmile_qr_scan"}, "is_reserved": 0}, {"lon": -77.05625283333333, "bike_id": "b494b3fa84816118c73ee15f9a7bdca8", "lat": 38.960780166666666, "fusion_lon": 0.0, "fusion_lat": 0.0, "type": "electric_scooter", "name": "b494b3fa84816118c73ee15f9a7bdca8", "is_disabled": 0, "rental_uris": {"ios": "https://dc.lft.to/lastmile_qr_scan", "android": "https://dc.lft.to/lastmile_qr_scan"}, "is_reserved": 0}, {"lon": -77.02962616666667, "bike_id": "1612fad62b5fe9dd37b0eca342f3bb22", "lat": 38.90520766666667, "fusion_lon": 0.0, "fusion_lat": 0.0, "type": "electric_scooter", "name": "1612fad62b5fe9dd37b0eca342f3bb22", "is_disabled": 0, "rental_uris": {"ios": "https://dc.lft.to/lastmile_qr_scan", "android": "https://dc.lft.to/lastmile_qr_scan"}, "is_reserved": 0}, {"lon": -77.03468133333334, "bike_id": "018b654ef445e5258e1c5af1a857b521", "lat": 38.907440333333334, "fusion_lon": 0.0, "fusion_lat": 0.0, "type": "electric_scooter", "name": "018b654ef445e5258e1c5af1a857b521", "is_disabled": 0, "rental_uris": {"ios": "https://dc.lft.to/lastmile_qr_scan", "android": "https://dc.lft.to/lastmile_qr_scan"}, "is_reserved": 0}, {"lon": -77.03540633333333, "bike_id": "2b08b8e99df1a252d5d596c7aa6b3383", "lat": 38.924223166666664, "fusion_lon": 0.0, "fusion_lat": 0.0, "type": "electric_scooter", "name": "2b08b8e99df1a252d5d596c7aa6b3383", "is_disabled": 0, "rental_uris": {"ios": "https://dc.lft.to/lastmile_qr_scan", "android": "https://dc.lft.to/lastmile_qr_scan"}, "is_reserved": 0}, {"lon": -77.00382833333333, "bike_id": "126d1bffebdcd52918702c7f73d0ebec", "lat": 38.87945033333333, "fusion_lon": 0.0, "fusion_lat": 0.0, "type": "electric_scooter", "name": "126d1bffebdcd52918702c7f73d0ebec", "is_disabled": 0, "rental_uris": {"ios": "https://dc.lft.to/lastmile_qr_scan", "android": "https://dc.lft.to/lastmile_qr_scan"}, "is_reserved": 0}, {"lon": -77.02176583333333, "bike_id": "9c376d7649393ffcdd69b07b7d8f0783", "lat": 38.9002495, "fusion_lon": 0.0, "fusion_lat": 0.0, "type": "electric_scooter", "name": "9c376d7649393ffcdd69b07b7d8f0783", "is_disabled": 0, "rental_uris": {"ios": "https://dc.lft.to/lastmile_qr_scan", "android": "https://dc.lft.to/lastmile_qr_scan"}, "is_reserved": 0}, {"lon": -77.039272, "bike_id": "cdd918f47db347e03e74259b8d122075", "lat": 38.921127166666665, "fusion_lon": 0.0, "fusion_lat": 0.0, "type": "electric_scooter", "name": "cdd918f47db347e03e74259b8d122075", "is_disabled": 0, "rental_uris": {"ios": "https://dc.lft.to/lastmile_qr_scan", "android": "https://dc.lft.to/lastmile_qr_scan"}, "is_reserved": 0}, {"lon": -77.038388, "bike_id": "a5a4cff8c04f8738c25d256084293d6e", "lat": 38.91470016666667, "fusion_lon": 0.0, "fusion_lat": 0.0, "type": "electric_scooter", "name": "a5a4cff8c04f8738c25d256084293d6e", "is_disabled": 0, "rental_uris": {"ios": "https://dc.lft.to/lastmile_qr_scan", "android": "https://dc.lft.to/lastmile_qr_scan"}, "is_reserved": 0}, {"lon": -77.13102716666667, "bike_id": "6306c40f0ee1df963543f3506f0135d4", "lat": 39.024339, "fusion_lon": 0.0, "fusion_lat": 0.0, "type": "electric_bike", "name": "6306c40f0ee1df963543f3506f0135d4", "is_disabled": 0, "rental_uris": {"ios": "https://dc.lft.to/lastmile_qr_scan", "android": "https://dc.lft.to/lastmile_qr_scan"}, "is_reserved": 0}, {"lon": -77.03265766666667, "bike_id": "12040310ca95df4d484f693f8748bf4e", "lat": 38.934469166666666, "fusion_lon": 0.0, "fusion_lat": 0.0, "type": "electric_scooter", "name": "12040310ca95df4d484f693f8748bf4e", "is_disabled": 0, "rental_uris": {"ios": "https://dc.lft.to/lastmile_qr_scan", "android": "https://dc.lft.to/lastmile_qr_scan"}, "is_reserved": 0}, {"lon": -77.01550866666666, "bike_id": "07d01df7378fd17f162bca7ea233f563", "lat": 38.892248, "fusion_lon": 0.0, "fusion_lat": 0.0, "type": "electric_scooter", "name": "07d01df7378fd17f162bca7ea233f563", "is_disabled": 0, "rental_uris": {"ios": "https://dc.lft.to/lastmile_qr_scan", "android": "https://dc.lft.to/lastmile_qr_scan"}, "is_reserved": 0}, {"lon": -77.002065, "bike_id": "53fe0604dcac7106dd4bb241018cdff7", "lat": 38.908492333333335, "fusion_lon": 0.0, "fusion_lat": 0.0, "type": "electric_scooter", "name": "53fe0604dcac7106dd4bb241018cdff7", "is_disabled": 0, "rental_uris": {"ios": "https://dc.lft.to/lastmile_qr_scan", "android": "https://dc.lft.to/lastmile_qr_scan"}, "is_reserved": 0}, {"lon": -76.99516216666666, "bike_id": "42485f37d87ad42c86c823d6e0c8d84c", "lat": 38.8961545, "fusion_lon": 0.0, "fusion_lat": 0.0, "type": "electric_scooter", "name": "42485f37d87ad42c86c823d6e0c8d84c", "is_disabled": 0, "rental_uris": {"ios": "https://dc.lft.to/lastmile_qr_scan", "android": "https://dc.lft.to/lastmile_qr_scan"}, "is_reserved": 0}, {"lon": -77.0176305, "bike_id": "65006be11e233388f46a890ee32cb84d", "lat": 38.883199833333336, "fusion_lon": 0.0, "fusion_lat": 0.0, "type": "electric_scooter", "name": "65006be11e233388f46a890ee32cb84d", "is_disabled": 0, "rental_uris": {"ios": "https://dc.lft.to/lastmile_qr_scan", "android": "https://dc.lft.to/lastmile_qr_scan"}, "is_reserved": 0}, {"lon": -76.94803333333333, "bike_id": "82ba81a917d462fd1f7158e894f378a9", "lat": 38.861959, "fusion_lon": 0.0, "fusion_lat": 0.0, "type": "electric_bike", "name": "82ba81a917d462fd1f7158e894f378a9", "is_disabled": 0, "rental_uris": {"ios": "https://dc.lft.to/lastmile_qr_scan", "android": "https://dc.lft.to/lastmile_qr_scan"}, "is_reserved": 0}, {"lon": -77.046656, "bike_id": "ac6695b789728753cb8b939935ae365f", "lat": 38.90909, "fusion_lon": 0.0, "fusion_lat": 0.0, "type": "electric_scooter", "name": "ac6695b789728753cb8b939935ae365f", "is_disabled": 0, "rental_uris": {"ios": "https://dc.lft.to/lastmile_qr_scan", "android": "https://dc.lft.to/lastmile_qr_scan"}, "is_reserved": 0}, {"lon": -76.937514, "bike_id": "0691aca9dc0dcb238601ebfb3aeec6e4", "lat": 38.890509333333334, "fusion_lon": 0.0, "fusion_lat": 0.0, "type": "electric_scooter", "name": "0691aca9dc0dcb238601ebfb3aeec6e4", "is_disabled": 0, "rental_uris": {"ios": "https://dc.lft.to/lastmile_qr_scan", "android": "https://dc.lft.to/lastmile_qr_scan"}, "is_reserved": 0}, {"lon": -76.99775033333333, "bike_id": "6042f4bd7ffebc1198992dd8efddafdf", "lat": 38.843045333333336, "fusion_lon": 0.0, "fusion_lat": 0.0, "type": "electric_scooter", "name": "6042f4bd7ffebc1198992dd8efddafdf", "is_disabled": 0, "rental_uris": {"ios": "https://dc.lft.to/lastmile_qr_scan", "android": "https://dc.lft.to/lastmile_qr_scan"}, "is_reserved": 0}, {"lon": -77.04106083333333, "bike_id": "25aab29f3e7319ae4a1fa5d0da2ead72", "lat": 38.89847916666667, "fusion_lon": 0.0, "fusion_lat": 0.0, "type": "electric_scooter", "name": "25aab29f3e7319ae4a1fa5d0da2ead72", "is_disabled": 0, "rental_uris": {"ios": "https://dc.lft.to/lastmile_qr_scan", "android": "https://dc.lft.to/lastmile_qr_scan"}, "is_reserved": 0}, {"lon": -76.9883735, "bike_id": "9ddede6933b1ce34c079a6398a1f175a", "lat": 38.9007595, "fusion_lon": 0.0, "fusion_lat": 0.0, "type": "electric_scooter", "name": "9ddede6933b1ce34c079a6398a1f175a", "is_disabled": 0, "rental_uris": {"ios": "https://dc.lft.to/lastmile_qr_scan", "android": "https://dc.lft.to/lastmile_qr_scan"}, "is_reserved": 0}, {"lon": -77.02302, "bike_id": "6fb8ec5856632e51e5378bdebdbca7af", "lat": 38.926724, "fusion_lon": 0.0, "fusion_lat": 0.0, "type": "electric_scooter", "name": "6fb8ec5856632e51e5378bdebdbca7af", "is_disabled": 0, "rental_uris": {"ios": "https://dc.lft.to/lastmile_qr_scan", "android": "https://dc.lft.to/lastmile_qr_scan"}, "is_reserved": 0}, {"lon": -77.04515983333333, "bike_id": "bba6e4977233fc77840a14acc8aa5e38", "lat": 38.94201733333333, "fusion_lon": 0.0, "fusion_lat": 0.0, "type": "electric_bike", "name": "bba6e4977233fc77840a14acc8aa5e38", "is_disabled": 0, "rental_uris": {"ios": "https://dc.lft.to/lastmile_qr_scan", "android": "https://dc.lft.to/lastmile_qr_scan"}, "is_reserved": 0}, {"lon": -77.04211733333334, "bike_id": "7dd4a9e25af514b34ba3ad8b631b3a7e", "lat": 38.89273016666667, "fusion_lon": 0.0, "fusion_lat": 0.0, "type": "electric_scooter", "name": "7dd4a9e25af514b34ba3ad8b631b3a7e", "is_disabled": 0, "rental_uris": {"ios": "https://dc.lft.to/lastmile_qr_scan", "android": "https://dc.lft.to/lastmile_qr_scan"}, "is_reserved": 0}, {"lon": -77.03384883333334, "bike_id": "f63868513934cc573b7aeface499a8d5", "lat": 38.9388455, "fusion_lon": 0.0, "fusion_lat": 0.0, "type": "electric_scooter", "name": "f63868513934cc573b7aeface499a8d5", "is_disabled": 0, "rental_uris": {"ios": "https://dc.lft.to/lastmile_qr_scan", "android": "https://dc.lft.to/lastmile_qr_scan"}, "is_reserved": 0}, {"lon": -77.011428, "bike_id": "f916ed0cc77e818e7fbfcfc5bb0ba9c2", "lat": 38.91114733333333, "fusion_lon": 0.0, "fusion_lat": 0.0, "type": "electric_scooter", "name": "f916ed0cc77e818e7fbfcfc5bb0ba9c2", "is_disabled": 0, "rental_uris": {"ios": "https://dc.lft.to/lastmile_qr_scan", "android": "https://dc.lft.to/lastmile_qr_scan"}, "is_reserved": 0}, {"lon": -77.0260355, "bike_id": "b844072289870572b87e710560bba359", "lat": 38.982751, "fusion_lon": 0.0, "fusion_lat": 0.0, "type": "electric_bike", "name": "b844072289870572b87e710560bba359", "is_disabled": 0, "rental_uris": {"ios": "https://dc.lft.to/lastmile_qr_scan", "android": "https://dc.lft.to/lastmile_qr_scan"}, "is_reserved": 0}, {"lon": -77.02227583333334, "bike_id": "cfd00aef6579a1d428e2490129affe4c", "lat": 38.92614016666667, "fusion_lon": 0.0, "fusion_lat": 0.0, "type": "electric_scooter", "name": "cfd00aef6579a1d428e2490129affe4c", "is_disabled": 0, "rental_uris": {"ios": "https://dc.lft.to/lastmile_qr_scan", "android": "https://dc.lft.to/lastmile_qr_scan"}, "is_reserved": 0}, {"lon": -77.0248755, "bike_id": "f39bef3b18ce8e6c228406deb08116b2", "lat": 38.94822416666667, "fusion_lon": 0.0, "fusion_lat": 0.0, "type": "electric_scooter", "name": "f39bef3b18ce8e6c228406deb08116b2", "is_disabled": 0, "rental_uris": {"ios": "https://dc.lft.to/lastmile_qr_scan", "android": "https://dc.lft.to/lastmile_qr_scan"}, "is_reserved": 0}, {"lon": -77.02185633333333, "bike_id": "1c0b080b56f4ac4e007f4f1078d6dd87", "lat": 38.939527, "fusion_lon": 0.0, "fusion_lat": 0.0, "type": "electric_scooter", "name": "1c0b080b56f4ac4e007f4f1078d6dd87", "is_disabled": 0, "rental_uris": {"ios": "https://dc.lft.to/lastmile_qr_scan", "android": "https://dc.lft.to/lastmile_qr_scan"}, "is_reserved": 0}, {"lon": -77.0791865, "bike_id": "c51f0b2dca1fcd34b277ee8b4aaeda20", "lat": 38.94814383333333, "fusion_lon": 0.0, "fusion_lat": 0.0, "type": "electric_scooter", "name": "c51f0b2dca1fcd34b277ee8b4aaeda20", "is_disabled": 0, "rental_uris": {"ios": "https://dc.lft.to/lastmile_qr_scan", "android": "https://dc.lft.to/lastmile_qr_scan"}, "is_reserved": 0}, {"lon": -77.01266683333333, "bike_id": "816c44ad5f514308786ef617328e360b", "lat": 38.915465166666664, "fusion_lon": 0.0, "fusion_lat": 0.0, "type": "electric_scooter", "name": "816c44ad5f514308786ef617328e360b", "is_disabled": 0, "rental_uris": {"ios": "https://dc.lft.to/lastmile_qr_scan", "android": "https://dc.lft.to/lastmile_qr_scan"}, "is_reserved": 0}, {"lon": -77.04386966666667, "bike_id": "53ea65e1bd5ccd7fee3218dfd39a66f1", "lat": 39.0472065, "fusion_lon": 0.0, "fusion_lat": 0.0, "type": "electric_bike", "name": "53ea65e1bd5ccd7fee3218dfd39a66f1", "is_disabled": 0, "rental_uris": {"ios": "https://dc.lft.to/lastmile_qr_scan", "android": "https://dc.lft.to/lastmile_qr_scan"}, "is_reserved": 0}, {"lon": -76.97967616666666, "bike_id": "da5ea6eafd08af1d6335dfa02c4d60a3", "lat": 38.95376066666667, "fusion_lon": 0.0, "fusion_lat": 0.0, "type": "electric_bike", "name": "da5ea6eafd08af1d6335dfa02c4d60a3", "is_disabled": 0, "rental_uris": {"ios": "https://dc.lft.to/lastmile_qr_scan", "android": "https://dc.lft.to/lastmile_qr_scan"}, "is_reserved": 0}, {"lon": -77.04405366666667, "bike_id": "374bc30c94ed85eee340a150851aa6b7", "lat": 38.92452866666667, "fusion_lon": 0.0, "fusion_lat": 0.0, "type": "electric_scooter", "name": "374bc30c94ed85eee340a150851aa6b7", "is_disabled": 0, "rental_uris": {"ios": "https://dc.lft.to/lastmile_qr_scan", "android": "https://dc.lft.to/lastmile_qr_scan"}, "is_reserved": 0}, {"lon": -77.02106383333333, "bike_id": "13e77d1bbb0380ffd24449afe1374435", "lat": 38.906054166666664, "fusion_lon": 0.0, "fusion_lat": 0.0, "type": "electric_scooter", "name": "13e77d1bbb0380ffd24449afe1374435", "is_disabled": 0, "rental_uris": {"ios": "https://dc.lft.to/lastmile_qr_scan", "android": "https://dc.lft.to/lastmile_qr_scan"}, "is_reserved": 0}, {"lon": -77.04892133333334, "bike_id": "543910975b939fe9fbd6a4fdda2834fa", "lat": 38.892356, "fusion_lon": 0.0, "fusion_lat": 0.0, "type": "electric_scooter", "name": "543910975b939fe9fbd6a4fdda2834fa", "is_disabled": 0, "rental_uris": {"ios": "https://dc.lft.to/lastmile_qr_scan", "android": "https://dc.lft.to/lastmile_qr_scan"}, "is_reserved": 0}, {"lon": -76.98919683333334, "bike_id": "956e96f0adadc7c420fff60208f2f6ec", "lat": 38.85811283333334, "fusion_lon": 0.0, "fusion_lat": 0.0, "type": "electric_scooter", "name": "956e96f0adadc7c420fff60208f2f6ec", "is_disabled": 0, "rental_uris": {"ios": "https://dc.lft.to/lastmile_qr_scan", "android": "https://dc.lft.to/lastmile_qr_scan"}, "is_reserved": 0}, {"lon": -77.055858, "bike_id": "be0aadadadd6286168290829f973b459", "lat": 38.923375666666665, "fusion_lon": 0.0, "fusion_lat": 0.0, "type": "electric_scooter", "name": "be0aadadadd6286168290829f973b459", "is_disabled": 0, "rental_uris": {"ios": "https://dc.lft.to/lastmile_qr_scan", "android": "https://dc.lft.to/lastmile_qr_scan"}, "is_reserved": 0}, {"lon": -77.02210333333333, "bike_id": "97281b20ad47a8cdcabe70bbf04f09cd", "lat": 38.914175, "fusion_lon": 0.0, "fusion_lat": 0.0, "type": "electric_scooter", "name": "97281b20ad47a8cdcabe70bbf04f09cd", "is_disabled": 0, "rental_uris": {"ios": "https://dc.lft.to/lastmile_qr_scan", "android": "https://dc.lft.to/lastmile_qr_scan"}, "is_reserved": 0}, {"lon": -77.05808933333333, "bike_id": "a286c2b57ab8e2f610d7008a81216757", "lat": 38.9353015, "fusion_lon": 0.0, "fusion_lat": 0.0, "type": "electric_bike", "name": "a286c2b57ab8e2f610d7008a81216757", "is_disabled": 0, "rental_uris": {"ios": "https://dc.lft.to/lastmile_qr_scan", "android": "https://dc.lft.to/lastmile_qr_scan"}, "is_reserved": 0}, {"lon": -77.0468975, "bike_id": "68a61666d3a2814050709eca9322e896", "lat": 38.9063, "fusion_lon": 0.0, "fusion_lat": 0.0, "type": "electric_scooter", "name": "68a61666d3a2814050709eca9322e896", "is_disabled": 0, "rental_uris": {"ios": "https://dc.lft.to/lastmile_qr_scan", "android": "https://dc.lft.to/lastmile_qr_scan"}, "is_reserved": 0}, {"lon": -77.03613216666666, "bike_id": "dc7c0f7a9563f53c12789f292c8819c4", "lat": 38.9374285, "fusion_lon": 0.0, "fusion_lat": 0.0, "type": "electric_scooter", "name": "dc7c0f7a9563f53c12789f292c8819c4", "is_disabled": 0, "rental_uris": {"ios": "https://dc.lft.to/lastmile_qr_scan", "android": "https://dc.lft.to/lastmile_qr_scan"}, "is_reserved": 0}, {"lon": -77.0307065, "bike_id": "dc49380ef35d013d1ab1969adf7c1c27", "lat": 38.91820116666667, "fusion_lon": 0.0, "fusion_lat": 0.0, "type": "electric_scooter", "name": "dc49380ef35d013d1ab1969adf7c1c27", "is_disabled": 0, "rental_uris": {"ios": "https://dc.lft.to/lastmile_qr_scan", "android": "https://dc.lft.to/lastmile_qr_scan"}, "is_reserved": 0}, {"lon": -77.03250033333333, "bike_id": "05c77ff74745d7ecdb8416ea41e9deea", "lat": 38.90446816666667, "fusion_lon": 0.0, "fusion_lat": 0.0, "type": "electric_scooter", "name": "05c77ff74745d7ecdb8416ea41e9deea", "is_disabled": 0, "rental_uris": {"ios": "https://dc.lft.to/lastmile_qr_scan", "android": "https://dc.lft.to/lastmile_qr_scan"}, "is_reserved": 0}, {"lon": -77.01141316666667, "bike_id": "9b265fddf268b8310d050bf8336a0dfd", "lat": 38.90644483333333, "fusion_lon": 0.0, "fusion_lat": 0.0, "type": "electric_scooter", "name": "9b265fddf268b8310d050bf8336a0dfd", "is_disabled": 0, "rental_uris": {"ios": "https://dc.lft.to/lastmile_qr_scan", "android": "https://dc.lft.to/lastmile_qr_scan"}, "is_reserved": 0}, {"lon": -76.98594516666667, "bike_id": "021df1939809e41f1e61a0c6c58bd1b9", "lat": 38.908140833333334, "fusion_lon": 0.0, "fusion_lat": 0.0, "type": "electric_scooter", "name": "021df1939809e41f1e61a0c6c58bd1b9", "is_disabled": 0, "rental_uris": {"ios": "https://dc.lft.to/lastmile_qr_scan", "android": "https://dc.lft.to/lastmile_qr_scan"}, "is_reserved": 0}, {"lon": -76.93366016666667, "bike_id": "e0bfe125a49e8ab2219a9c8764ffbde1", "lat": 38.89915966666667, "fusion_lon": 0.0, "fusion_lat": 0.0, "type": "electric_scooter", "name": "e0bfe125a49e8ab2219a9c8764ffbde1", "is_disabled": 0, "rental_uris": {"ios": "https://dc.lft.to/lastmile_qr_scan", "android": "https://dc.lft.to/lastmile_qr_scan"}, "is_reserved": 0}, {"lon": -76.94436133333333, "bike_id": "e0e09ad5b7301bd3d42431819b851926", "lat": 38.900451333333336, "fusion_lon": 0.0, "fusion_lat": 0.0, "type": "electric_scooter", "name": "e0e09ad5b7301bd3d42431819b851926", "is_disabled": 0, "rental_uris": {"ios": "https://dc.lft.to/lastmile_qr_scan", "android": "https://dc.lft.to/lastmile_qr_scan"}, "is_reserved": 0}, {"lon": -77.001321, "bike_id": "27a86470c1fbe0143a47ef1845c07615", "lat": 38.92547116666667, "fusion_lon": 0.0, "fusion_lat": 0.0, "type": "electric_bike", "name": "27a86470c1fbe0143a47ef1845c07615", "is_disabled": 0, "rental_uris": {"ios": "https://dc.lft.to/lastmile_qr_scan", "android": "https://dc.lft.to/lastmile_qr_scan"}, "is_reserved": 0}, {"lon": -77.0271025, "bike_id": "a098266ec7f5e7afcb5a9aed054c3416", "lat": 38.90672816666667, "fusion_lon": 0.0, "fusion_lat": 0.0, "type": "electric_scooter", "name": "a098266ec7f5e7afcb5a9aed054c3416", "is_disabled": 0, "rental_uris": {"ios": "https://dc.lft.to/lastmile_qr_scan", "android": "https://dc.lft.to/lastmile_qr_scan"}, "is_reserved": 0}, {"lon": -77.1008875, "bike_id": "c0bf86b588fe2a51635fbd2e8dca18a6", "lat": 38.95960733333333, "fusion_lon": 0.0, "fusion_lat": 0.0, "type": "electric_bike", "name": "c0bf86b588fe2a51635fbd2e8dca18a6", "is_disabled": 0, "rental_uris": {"ios": "https://dc.lft.to/lastmile_qr_scan", "android": "https://dc.lft.to/lastmile_qr_scan"}, "is_reserved": 0}, {"lon": -77.01156366666666, "bike_id": "138409c0087164e875473c033f763b00", "lat": 38.91404133333333, "fusion_lon": 0.0, "fusion_lat": 0.0, "type": "electric_scooter", "name": "138409c0087164e875473c033f763b00", "is_disabled": 0, "rental_uris": {"ios": "https://dc.lft.to/lastmile_qr_scan", "android": "https://dc.lft.to/lastmile_qr_scan"}, "is_reserved": 0}, {"lon": -76.987811, "bike_id": "d800365f411946e511be8becbfa971f1", "lat": 38.9066165, "fusion_lon": 0.0, "fusion_lat": 0.0, "type": "electric_scooter", "name": "d800365f411946e511be8becbfa971f1", "is_disabled": 0, "rental_uris": {"ios": "https://dc.lft.to/lastmile_qr_scan", "android": "https://dc.lft.to/lastmile_qr_scan"}, "is_reserved": 0}, {"lon": -76.983769, "bike_id": "fe524775d6b31c97c27834ebe987657e", "lat": 38.91502166666667, "fusion_lon": 0.0, "fusion_lat": 0.0, "type": "electric_scooter", "name": "fe524775d6b31c97c27834ebe987657e", "is_disabled": 0, "rental_uris": {"ios": "https://dc.lft.to/lastmile_qr_scan", "android": "https://dc.lft.to/lastmile_qr_scan"}, "is_reserved": 0}, {"lon": -77.01165516666667, "bike_id": "cc282f6abf9bcea69924fb5e58e8e29e", "lat": 38.872357666666666, "fusion_lon": 0.0, "fusion_lat": 0.0, "type": "electric_bike", "name": "cc282f6abf9bcea69924fb5e58e8e29e", "is_disabled": 0, "rental_uris": {"ios": "https://dc.lft.to/lastmile_qr_scan", "android": "https://dc.lft.to/lastmile_qr_scan"}, "is_reserved": 0}, {"lon": -77.0125715, "bike_id": "eb118cae41116613f77c3d2a18c299df", "lat": 38.908541166666666, "fusion_lon": 0.0, "fusion_lat": 0.0, "type": "electric_scooter", "name": "eb118cae41116613f77c3d2a18c299df", "is_disabled": 0, "rental_uris": {"ios": "https://dc.lft.to/lastmile_qr_scan", "android": "https://dc.lft.to/lastmile_qr_scan"}, "is_reserved": 0}, {"lon": -76.99406633333334, "bike_id": "76756e27de7a7d905bc7924ef64b977f", "lat": 38.83140566666667, "fusion_lon": 0.0, "fusion_lat": 0.0, "type": "electric_bike", "name": "76756e27de7a7d905bc7924ef64b977f", "is_disabled": 0, "rental_uris": {"ios": "https://dc.lft.to/lastmile_qr_scan", "android": "https://dc.lft.to/lastmile_qr_scan"}, "is_reserved": 0}, {"lon": -77.03052266666667, "bike_id": "eaa70346685b4f9b1ff76d9eb87725cc", "lat": 38.90804833333333, "fusion_lon": 0.0, "fusion_lat": 0.0, "type": "electric_scooter", "name": "eaa70346685b4f9b1ff76d9eb87725cc", "is_disabled": 0, "rental_uris": {"ios": "https://dc.lft.to/lastmile_qr_scan", "android": "https://dc.lft.to/lastmile_qr_scan"}, "is_reserved": 0}, {"lon": -77.04647983333334, "bike_id": "c2a6cf541110af08afc004ca49433da1", "lat": 38.915755833333336, "fusion_lon": 0.0, "fusion_lat": 0.0, "type": "electric_scooter", "name": "c2a6cf541110af08afc004ca49433da1", "is_disabled": 0, "rental_uris": {"ios": "https://dc.lft.to/lastmile_qr_scan", "android": "https://dc.lft.to/lastmile_qr_scan"}, "is_reserved": 0}, {"lon": -77.017703, "bike_id": "cee6a789180a9a16ca87ca5d9ca3950a", "lat": 38.92102666666667, "fusion_lon": 0.0, "fusion_lat": 0.0, "type": "electric_scooter", "name": "cee6a789180a9a16ca87ca5d9ca3950a", "is_disabled": 0, "rental_uris": {"ios": "https://dc.lft.to/lastmile_qr_scan", "android": "https://dc.lft.to/lastmile_qr_scan"}, "is_reserved": 0}, {"lon": -77.02539516666667, "bike_id": "f905d8a9b9cef2d1b70c1a9221db9d34", "lat": 38.9274715, "fusion_lon": 0.0, "fusion_lat": 0.0, "type": "electric_scooter", "name": "f905d8a9b9cef2d1b70c1a9221db9d34", "is_disabled": 0, "rental_uris": {"ios": "https://dc.lft.to/lastmile_qr_scan", "android": "https://dc.lft.to/lastmile_qr_scan"}, "is_reserved": 0}, {"lon": -77.036602, "bike_id": "83917be2aed4eb6e3e0a4b2a2acfd0b9", "lat": 38.917559, "fusion_lon": 0.0, "fusion_lat": 0.0, "type": "electric_scooter", "name": "83917be2aed4eb6e3e0a4b2a2acfd0b9", "is_disabled": 0, "rental_uris": {"ios": "https://dc.lft.to/lastmile_qr_scan", "android": "https://dc.lft.to/lastmile_qr_scan"}, "is_reserved": 0}, {"lon": -76.98497683333333, "bike_id": "4b7f4b39c74266a63ade147c43b92044", "lat": 38.920063666666664, "fusion_lon": 0.0, "fusion_lat": 0.0, "type": "electric_scooter", "name": "4b7f4b39c74266a63ade147c43b92044", "is_disabled": 0, "rental_uris": {"ios": "https://dc.lft.to/lastmile_qr_scan", "android": "https://dc.lft.to/lastmile_qr_scan"}, "is_reserved": 0}, {"lon": -76.96387033333333, "bike_id": "10c8c7509e9f3398eb989598f77ef721", "lat": 38.951725833333334, "fusion_lon": 0.0, "fusion_lat": 0.0, "type": "electric_bike", "name": "10c8c7509e9f3398eb989598f77ef721", "is_disabled": 0, "rental_uris": {"ios": "https://dc.lft.to/lastmile_qr_scan", "android": "https://dc.lft.to/lastmile_qr_scan"}, "is_reserved": 0}, {"lon": -77.0078835, "bike_id": "bdc61323254cffcadbf9820e5c725a67", "lat": 38.89668966666667, "fusion_lon": 0.0, "fusion_lat": 0.0, "type": "electric_scooter", "name": "bdc61323254cffcadbf9820e5c725a67", "is_disabled": 0, "rental_uris": {"ios": "https://dc.lft.to/lastmile_qr_scan", "android": "https://dc.lft.to/lastmile_qr_scan"}, "is_reserved": 0}, {"lon": -77.0366725, "bike_id": "412f0cbf35b25b2bc349194d441e9f51", "lat": 38.9392445, "fusion_lon": 0.0, "fusion_lat": 0.0, "type": "electric_scooter", "name": "412f0cbf35b25b2bc349194d441e9f51", "is_disabled": 0, "rental_uris": {"ios": "https://dc.lft.to/lastmile_qr_scan", "android": "https://dc.lft.to/lastmile_qr_scan"}, "is_reserved": 0}, {"lon": -77.03478483333333, "bike_id": "33d45db1085e7bfe1de341e9dfafe41f", "lat": 38.93540383333333, "fusion_lon": 0.0, "fusion_lat": 0.0, "type": "electric_scooter", "name": "33d45db1085e7bfe1de341e9dfafe41f", "is_disabled": 0, "rental_uris": {"ios": "https://dc.lft.to/lastmile_qr_scan", "android": "https://dc.lft.to/lastmile_qr_scan"}, "is_reserved": 0}, {"lon": -77.02540733333333, "bike_id": "2aaf41cf70137eb2ee62881ecf7c161f", "lat": 38.91490183333333, "fusion_lon": 0.0, "fusion_lat": 0.0, "type": "electric_scooter", "name": "2aaf41cf70137eb2ee62881ecf7c161f", "is_disabled": 0, "rental_uris": {"ios": "https://dc.lft.to/lastmile_qr_scan", "android": "https://dc.lft.to/lastmile_qr_scan"}, "is_reserved": 0}, {"lon": -77.00200083333333, "bike_id": "190c85aaebdbde122070ab7fcdbb4beb", "lat": 38.91587833333333, "fusion_lon": 0.0, "fusion_lat": 0.0, "type": "electric_scooter", "name": "190c85aaebdbde122070ab7fcdbb4beb", "is_disabled": 0, "rental_uris": {"ios": "https://dc.lft.to/lastmile_qr_scan", "android": "https://dc.lft.to/lastmile_qr_scan"}, "is_reserved": 0}, {"lon": -76.98019133333334, "bike_id": "fdf19c735b556f21e3158dbcc873d1a7", "lat": 38.902938666666664, "fusion_lon": 0.0, "fusion_lat": 0.0, "type": "electric_scooter", "name": "fdf19c735b556f21e3158dbcc873d1a7", "is_disabled": 0, "rental_uris": {"ios": "https://dc.lft.to/lastmile_qr_scan", "android": "https://dc.lft.to/lastmile_qr_scan"}, "is_reserved": 0}, {"lon": -77.023498, "bike_id": "98d144b504c3f49fbb26979719f8ba5d", "lat": 38.935378166666666, "fusion_lon": 0.0, "fusion_lat": 0.0, "type": "electric_scooter", "name": "98d144b504c3f49fbb26979719f8ba5d", "is_disabled": 0, "rental_uris": {"ios": "https://dc.lft.to/lastmile_qr_scan", "android": "https://dc.lft.to/lastmile_qr_scan"}, "is_reserved": 0}, {"lon": -76.99875533333334, "bike_id": "d97c0eeab8744685c230c7b13159c56a", "lat": 38.90132283333333, "fusion_lon": 0.0, "fusion_lat": 0.0, "type": "electric_scooter", "name": "d97c0eeab8744685c230c7b13159c56a", "is_disabled": 0, "rental_uris": {"ios": "https://dc.lft.to/lastmile_qr_scan", "android": "https://dc.lft.to/lastmile_qr_scan"}, "is_reserved": 0}, {"lon": -77.01763283333334, "bike_id": "76979f6c3556a17eb16bfe8a7dbcda75", "lat": 38.92106183333333, "fusion_lon": 0.0, "fusion_lat": 0.0, "type": "electric_scooter", "name": "76979f6c3556a17eb16bfe8a7dbcda75", "is_disabled": 0, "rental_uris": {"ios": "https://dc.lft.to/lastmile_qr_scan", "android": "https://dc.lft.to/lastmile_qr_scan"}, "is_reserved": 0}, {"lon": -77.00766716666666, "bike_id": "ab32b652e8bbdbff4e20c8ee5f66bc18", "lat": 38.981386, "fusion_lon": 0.0, "fusion_lat": 0.0, "type": "electric_bike", "name": "ab32b652e8bbdbff4e20c8ee5f66bc18", "is_disabled": 0, "rental_uris": {"ios": "https://dc.lft.to/lastmile_qr_scan", "android": "https://dc.lft.to/lastmile_qr_scan"}, "is_reserved": 0}, {"lon": -77.02894533333334, "bike_id": "84abb7fc4d036a1978765cd493c45108", "lat": 38.92820866666667, "fusion_lon": 0.0, "fusion_lat": 0.0, "type": "electric_scooter", "name": "84abb7fc4d036a1978765cd493c45108", "is_disabled": 0, "rental_uris": {"ios": "https://dc.lft.to/lastmile_qr_scan", "android": "https://dc.lft.to/lastmile_qr_scan"}, "is_reserved": 0}, {"lon": -77.02199066666667, "bike_id": "f072fb988fc4b8c03c6424a1847db9c2", "lat": 38.9054225, "fusion_lon": 0.0, "fusion_lat": 0.0, "type": "electric_scooter", "name": "f072fb988fc4b8c03c6424a1847db9c2", "is_disabled": 0, "rental_uris": {"ios": "https://dc.lft.to/lastmile_qr_scan", "android": "https://dc.lft.to/lastmile_qr_scan"}, "is_reserved": 0}, {"lon": -76.97748233333333, "bike_id": "04614596af34a712830d40fd61b9c572", "lat": 38.86513466666667, "fusion_lon": 0.0, "fusion_lat": 0.0, "type": "electric_scooter", "name": "04614596af34a712830d40fd61b9c572", "is_disabled": 0, "rental_uris": {"ios": "https://dc.lft.to/lastmile_qr_scan", "android": "https://dc.lft.to/lastmile_qr_scan"}, "is_reserved": 0}, {"lon": -77.0269055, "bike_id": "d3e205b728d9d26de84923a57a31fe22", "lat": 38.908425666666666, "fusion_lon": 0.0, "fusion_lat": 0.0, "type": "electric_scooter", "name": "d3e205b728d9d26de84923a57a31fe22", "is_disabled": 0, "rental_uris": {"ios": "https://dc.lft.to/lastmile_qr_scan", "android": "https://dc.lft.to/lastmile_qr_scan"}, "is_reserved": 0}, {"lon": -77.02108016666666, "bike_id": "6ef1ff9e742fa8fd24312b701bd96587", "lat": 38.91772533333334, "fusion_lon": 0.0, "fusion_lat": 0.0, "type": "electric_scooter", "name": "6ef1ff9e742fa8fd24312b701bd96587", "is_disabled": 0, "rental_uris": {"ios": "https://dc.lft.to/lastmile_qr_scan", "android": "https://dc.lft.to/lastmile_qr_scan"}, "is_reserved": 0}, {"lon": -77.07692116666666, "bike_id": "7126bbc929e7569f6fde8a2d2e7d166e", "lat": 38.840853333333335, "fusion_lon": 0.0, "fusion_lat": 0.0, "type": "electric_bike", "name": "7126bbc929e7569f6fde8a2d2e7d166e", "is_disabled": 0, "rental_uris": {"ios": "https://dc.lft.to/lastmile_qr_scan", "android": "https://dc.lft.to/lastmile_qr_scan"}, "is_reserved": 0}, {"lon": -77.011356, "bike_id": "fb954337cbc2be2a5058a6bf5180ba5c", "lat": 38.894924333333336, "fusion_lon": 0.0, "fusion_lat": 0.0, "type": "electric_scooter", "name": "fb954337cbc2be2a5058a6bf5180ba5c", "is_disabled": 0, "rental_uris": {"ios": "https://dc.lft.to/lastmile_qr_scan", "android": "https://dc.lft.to/lastmile_qr_scan"}, "is_reserved": 0}, {"lon": -77.02981016666666, "bike_id": "4ee0577f77074a245f2efd163f0c40b3", "lat": 38.93007766666667, "fusion_lon": 0.0, "fusion_lat": 0.0, "type": "electric_scooter", "name": "4ee0577f77074a245f2efd163f0c40b3", "is_disabled": 0, "rental_uris": {"ios": "https://dc.lft.to/lastmile_qr_scan", "android": "https://dc.lft.to/lastmile_qr_scan"}, "is_reserved": 0}, {"lon": -77.0268815, "bike_id": "25fc1f394531c4e2837b1979d79b3831", "lat": 38.90688033333333, "fusion_lon": 0.0, "fusion_lat": 0.0, "type": "electric_scooter", "name": "25fc1f394531c4e2837b1979d79b3831", "is_disabled": 0, "rental_uris": {"ios": "https://dc.lft.to/lastmile_qr_scan", "android": "https://dc.lft.to/lastmile_qr_scan"}, "is_reserved": 0}, {"lon": -77.01155166666666, "bike_id": "95fc7c98f3310debfdbd16c354b71fad", "lat": 38.89595383333333, "fusion_lon": 0.0, "fusion_lat": 0.0, "type": "electric_scooter", "name": "95fc7c98f3310debfdbd16c354b71fad", "is_disabled": 0, "rental_uris": {"ios": "https://dc.lft.to/lastmile_qr_scan", "android": "https://dc.lft.to/lastmile_qr_scan"}, "is_reserved": 0}, {"lon": -76.95755983333333, "bike_id": "a24b184934bf1a56089a1cca079989d0", "lat": 38.88433966666667, "fusion_lon": 0.0, "fusion_lat": 0.0, "type": "electric_scooter", "name": "a24b184934bf1a56089a1cca079989d0", "is_disabled": 0, "rental_uris": {"ios": "https://dc.lft.to/lastmile_qr_scan", "android": "https://dc.lft.to/lastmile_qr_scan"}, "is_reserved": 0}, {"lon": -77.04487683333333, "bike_id": "8d4515c6128d7585843c433d7757d52a", "lat": 38.90272366666667, "fusion_lon": 0.0, "fusion_lat": 0.0, "type": "electric_scooter", "name": "8d4515c6128d7585843c433d7757d52a", "is_disabled": 0, "rental_uris": {"ios": "https://dc.lft.to/lastmile_qr_scan", "android": "https://dc.lft.to/lastmile_qr_scan"}, "is_reserved": 0}, {"lon": -77.03475616666667, "bike_id": "360276b464758c5c43ef82255475bfac", "lat": 38.8849025, "fusion_lon": 0.0, "fusion_lat": 0.0, "type": "electric_scooter", "name": "360276b464758c5c43ef82255475bfac", "is_disabled": 0, "rental_uris": {"ios": "https://dc.lft.to/lastmile_qr_scan", "android": "https://dc.lft.to/lastmile_qr_scan"}, "is_reserved": 0}, {"lon": -77.03344316666667, "bike_id": "da77fce3ae8df492aa905eff2730ef73", "lat": 38.902884, "fusion_lon": 0.0, "fusion_lat": 0.0, "type": "electric_scooter", "name": "da77fce3ae8df492aa905eff2730ef73", "is_disabled": 0, "rental_uris": {"ios": "https://dc.lft.to/lastmile_qr_scan", "android": "https://dc.lft.to/lastmile_qr_scan"}, "is_reserved": 0}, {"lon": -77.02168783333333, "bike_id": "6c5601caa32d72041c7a2c33d44f40d0", "lat": 38.942978, "fusion_lon": 0.0, "fusion_lat": 0.0, "type": "electric_scooter", "name": "6c5601caa32d72041c7a2c33d44f40d0", "is_disabled": 0, "rental_uris": {"ios": "https://dc.lft.to/lastmile_qr_scan", "android": "https://dc.lft.to/lastmile_qr_scan"}, "is_reserved": 0}, {"lon": -76.98743316666666, "bike_id": "bb60fcdf32465142613f8f0de5da2afb", "lat": 38.886141, "fusion_lon": 0.0, "fusion_lat": 0.0, "type": "electric_scooter", "name": "bb60fcdf32465142613f8f0de5da2afb", "is_disabled": 0, "rental_uris": {"ios": "https://dc.lft.to/lastmile_qr_scan", "android": "https://dc.lft.to/lastmile_qr_scan"}, "is_reserved": 0}, {"lon": -77.0003595, "bike_id": "cc5f5b4e30997a4de7c8ad7550676ecf", "lat": 38.967968666666664, "fusion_lon": 0.0, "fusion_lat": 0.0, "type": "electric_bike", "name": "cc5f5b4e30997a4de7c8ad7550676ecf", "is_disabled": 0, "rental_uris": {"ios": "https://dc.lft.to/lastmile_qr_scan", "android": "https://dc.lft.to/lastmile_qr_scan"}, "is_reserved": 0}, {"lon": -77.02978666666667, "bike_id": "cf83bdf60e6022e50788b1972c52ee81", "lat": 38.930686333333334, "fusion_lon": 0.0, "fusion_lat": 0.0, "type": "electric_scooter", "name": "cf83bdf60e6022e50788b1972c52ee81", "is_disabled": 0, "rental_uris": {"ios": "https://dc.lft.to/lastmile_qr_scan", "android": "https://dc.lft.to/lastmile_qr_scan"}, "is_reserved": 0}, {"lon": -76.9768285, "bike_id": "ff519629dd68d11ab0d37006b0395262", "lat": 38.896190833333335, "fusion_lon": 0.0, "fusion_lat": 0.0, "type": "electric_scooter", "name": "ff519629dd68d11ab0d37006b0395262", "is_disabled": 0, "rental_uris": {"ios": "https://dc.lft.to/lastmile_qr_scan", "android": "https://dc.lft.to/lastmile_qr_scan"}, "is_reserved": 0}, {"lon": -77.02972766666667, "bike_id": "abc1fddfa1aa33a6bd8a423ab6738ff2", "lat": 38.9072935, "fusion_lon": 0.0, "fusion_lat": 0.0, "type": "electric_scooter", "name": "abc1fddfa1aa33a6bd8a423ab6738ff2", "is_disabled": 0, "rental_uris": {"ios": "https://dc.lft.to/lastmile_qr_scan", "android": "https://dc.lft.to/lastmile_qr_scan"}, "is_reserved": 0}, {"lon": -77.02653933333333, "bike_id": "8a8e780016dbe728a8cbc073db1c6855", "lat": 38.92984366666666, "fusion_lon": 0.0, "fusion_lat": 0.0, "type": "electric_scooter", "name": "8a8e780016dbe728a8cbc073db1c6855", "is_disabled": 0, "rental_uris": {"ios": "https://dc.lft.to/lastmile_qr_scan", "android": "https://dc.lft.to/lastmile_qr_scan"}, "is_reserved": 0}, {"lon": -77.05408766666666, "bike_id": "9d0e9003e3707e91ac0e00ccf03ece15", "lat": 38.901488666666665, "fusion_lon": 0.0, "fusion_lat": 0.0, "type": "electric_scooter", "name": "9d0e9003e3707e91ac0e00ccf03ece15", "is_disabled": 0, "rental_uris": {"ios": "https://dc.lft.to/lastmile_qr_scan", "android": "https://dc.lft.to/lastmile_qr_scan"}, "is_reserved": 0}, {"lon": -76.988837, "bike_id": "4a7dffc8c25265a1f1367a3e127b9fc0", "lat": 38.86660716666667, "fusion_lon": 0.0, "fusion_lat": 0.0, "type": "electric_scooter", "name": "4a7dffc8c25265a1f1367a3e127b9fc0", "is_disabled": 0, "rental_uris": {"ios": "https://dc.lft.to/lastmile_qr_scan", "android": "https://dc.lft.to/lastmile_qr_scan"}, "is_reserved": 0}, {"lon": -77.02074383333333, "bike_id": "2787874681a383159cf138990a1c723c", "lat": 38.9363425, "fusion_lon": 0.0, "fusion_lat": 0.0, "type": "electric_scooter", "name": "2787874681a383159cf138990a1c723c", "is_disabled": 0, "rental_uris": {"ios": "https://dc.lft.to/lastmile_qr_scan", "android": "https://dc.lft.to/lastmile_qr_scan"}, "is_reserved": 0}, {"lon": -77.03827583333333, "bike_id": "9c749ecd0effb03dc57decbbe6979ffe", "lat": 38.9168965, "fusion_lon": 0.0, "fusion_lat": 0.0, "type": "electric_scooter", "name": "9c749ecd0effb03dc57decbbe6979ffe", "is_disabled": 0, "rental_uris": {"ios": "https://dc.lft.to/lastmile_qr_scan", "android": "https://dc.lft.to/lastmile_qr_scan"}, "is_reserved": 0}, {"lon": -77.02399033333333, "bike_id": "e2af9039b9489ad7c90d204d0ff177e2", "lat": 38.90953583333334, "fusion_lon": 0.0, "fusion_lat": 0.0, "type": "electric_scooter", "name": "e2af9039b9489ad7c90d204d0ff177e2", "is_disabled": 0, "rental_uris": {"ios": "https://dc.lft.to/lastmile_qr_scan", "android": "https://dc.lft.to/lastmile_qr_scan"}, "is_reserved": 0}, {"lon": -77.01995533333333, "bike_id": "111f388e6c811b533fa03b3613dc22b1", "lat": 38.875916833333335, "fusion_lon": 0.0, "fusion_lat": 0.0, "type": "electric_scooter", "name": "111f388e6c811b533fa03b3613dc22b1", "is_disabled": 0, "rental_uris": {"ios": "https://dc.lft.to/lastmile_qr_scan", "android": "https://dc.lft.to/lastmile_qr_scan"}, "is_reserved": 0}, {"lon": -77.03233533333334, "bike_id": "83f0d7286b011cbd8915a7b45be2e75f", "lat": 38.926868666666664, "fusion_lon": 0.0, "fusion_lat": 0.0, "type": "electric_scooter", "name": "83f0d7286b011cbd8915a7b45be2e75f", "is_disabled": 0, "rental_uris": {"ios": "https://dc.lft.to/lastmile_qr_scan", "android": "https://dc.lft.to/lastmile_qr_scan"}, "is_reserved": 0}, {"lon": -77.0282915, "bike_id": "917280b031a4ec39c11a1efbc8eb31c2", "lat": 38.9650885, "fusion_lon": 0.0, "fusion_lat": 0.0, "type": "electric_bike", "name": "917280b031a4ec39c11a1efbc8eb31c2", "is_disabled": 0, "rental_uris": {"ios": "https://dc.lft.to/lastmile_qr_scan", "android": "https://dc.lft.to/lastmile_qr_scan"}, "is_reserved": 0}, {"lon": -76.93006733333333, "bike_id": "51af63b143600b12905aaef57e101579", "lat": 38.89658683333333, "fusion_lon": 0.0, "fusion_lat": 0.0, "type": "electric_bike", "name": "51af63b143600b12905aaef57e101579", "is_disabled": 0, "rental_uris": {"ios": "https://dc.lft.to/lastmile_qr_scan", "android": "https://dc.lft.to/lastmile_qr_scan"}, "is_reserved": 0}, {"lon": -77.01724616666667, "bike_id": "6c885ecb48235f3e084c1727b30b571e", "lat": 38.943162666666666, "fusion_lon": 0.0, "fusion_lat": 0.0, "type": "electric_scooter", "name": "6c885ecb48235f3e084c1727b30b571e", "is_disabled": 0, "rental_uris": {"ios": "https://dc.lft.to/lastmile_qr_scan", "android": "https://dc.lft.to/lastmile_qr_scan"}, "is_reserved": 0}, {"lon": -76.93174666666667, "bike_id": "8374776f82262acd87b7fd7481f80ddf", "lat": 38.898848, "fusion_lon": 0.0, "fusion_lat": 0.0, "type": "electric_scooter", "name": "8374776f82262acd87b7fd7481f80ddf", "is_disabled": 0, "rental_uris": {"ios": "https://dc.lft.to/lastmile_qr_scan", "android": "https://dc.lft.to/lastmile_qr_scan"}, "is_reserved": 0}, {"lon": -77.026563, "bike_id": "73b3656a70ff8d924b12e4b7d59c96e1", "lat": 38.975690166666666, "fusion_lon": 0.0, "fusion_lat": 0.0, "type": "electric_scooter", "name": "73b3656a70ff8d924b12e4b7d59c96e1", "is_disabled": 0, "rental_uris": {"ios": "https://dc.lft.to/lastmile_qr_scan", "android": "https://dc.lft.to/lastmile_qr_scan"}, "is_reserved": 0}, {"lon": -77.03824916666667, "bike_id": "001ebff5c7173edde0bf34015c4ec918", "lat": 38.9207025, "fusion_lon": 0.0, "fusion_lat": 0.0, "type": "electric_scooter", "name": "001ebff5c7173edde0bf34015c4ec918", "is_disabled": 0, "rental_uris": {"ios": "https://dc.lft.to/lastmile_qr_scan", "android": "https://dc.lft.to/lastmile_qr_scan"}, "is_reserved": 0}, {"lon": -77.03289966666667, "bike_id": "2a717e3d65fb06f20ce690417fb0cbae", "lat": 38.95652316666666, "fusion_lon": 0.0, "fusion_lat": 0.0, "type": "electric_scooter", "name": "2a717e3d65fb06f20ce690417fb0cbae", "is_disabled": 0, "rental_uris": {"ios": "https://dc.lft.to/lastmile_qr_scan", "android": "https://dc.lft.to/lastmile_qr_scan"}, "is_reserved": 0}, {"lon": -76.93643433333334, "bike_id": "fd73eecbfba5f428700c4df15eee531d", "lat": 38.9006215, "fusion_lon": 0.0, "fusion_lat": 0.0, "type": "electric_scooter", "name": "fd73eecbfba5f428700c4df15eee531d", "is_disabled": 0, "rental_uris": {"ios": "https://dc.lft.to/lastmile_qr_scan", "android": "https://dc.lft.to/lastmile_qr_scan"}, "is_reserved": 0}, {"lon": -77.01288466666666, "bike_id": "3c4ca12de4c3355050ac431868ce0f79", "lat": 38.900847666666664, "fusion_lon": 0.0, "fusion_lat": 0.0, "type": "electric_scooter", "name": "3c4ca12de4c3355050ac431868ce0f79", "is_disabled": 0, "rental_uris": {"ios": "https://dc.lft.to/lastmile_qr_scan", "android": "https://dc.lft.to/lastmile_qr_scan"}, "is_reserved": 0}, {"lon": -77.041922, "bike_id": "5e7600f247b3dd5191ae31799065fc47", "lat": 38.92629, "fusion_lon": 0.0, "fusion_lat": 0.0, "type": "electric_scooter", "name": "5e7600f247b3dd5191ae31799065fc47", "is_disabled": 0, "rental_uris": {"ios": "https://dc.lft.to/lastmile_qr_scan", "android": "https://dc.lft.to/lastmile_qr_scan"}, "is_reserved": 0}, {"lon": -77.02153866666667, "bike_id": "cc9c5a5894b2238de794c2a8bb3e6de3", "lat": 38.93136333333333, "fusion_lon": 0.0, "fusion_lat": 0.0, "type": "electric_scooter", "name": "cc9c5a5894b2238de794c2a8bb3e6de3", "is_disabled": 0, "rental_uris": {"ios": "https://dc.lft.to/lastmile_qr_scan", "android": "https://dc.lft.to/lastmile_qr_scan"}, "is_reserved": 0}, {"lon": -77.03405566666666, "bike_id": "c7730217e9ae69528e94fb74389556c2", "lat": 38.9111005, "fusion_lon": 0.0, "fusion_lat": 0.0, "type": "electric_scooter", "name": "c7730217e9ae69528e94fb74389556c2", "is_disabled": 0, "rental_uris": {"ios": "https://dc.lft.to/lastmile_qr_scan", "android": "https://dc.lft.to/lastmile_qr_scan"}, "is_reserved": 0}, {"lon": -76.9709885, "bike_id": "4936a3240f1e4943e1fd5685d9814b72", "lat": 38.91812566666667, "fusion_lon": 0.0, "fusion_lat": 0.0, "type": "electric_bike", "name": "4936a3240f1e4943e1fd5685d9814b72", "is_disabled": 0, "rental_uris": {"ios": "https://dc.lft.to/lastmile_qr_scan", "android": "https://dc.lft.to/lastmile_qr_scan"}, "is_reserved": 0}, {"lon": -77.02172033333333, "bike_id": "4a8fd72ca0730b39887a53a065410424", "lat": 38.88747333333333, "fusion_lon": 0.0, "fusion_lat": 0.0, "type": "electric_scooter", "name": "4a8fd72ca0730b39887a53a065410424", "is_disabled": 0, "rental_uris": {"ios": "https://dc.lft.to/lastmile_qr_scan", "android": "https://dc.lft.to/lastmile_qr_scan"}, "is_reserved": 0}, {"lon": -76.993742, "bike_id": "23d315d1afa883c877d4ea03675ec61d", "lat": 38.92397, "fusion_lon": 0.0, "fusion_lat": 0.0, "type": "electric_scooter", "name": "23d315d1afa883c877d4ea03675ec61d", "is_disabled": 0, "rental_uris": {"ios": "https://dc.lft.to/lastmile_qr_scan", "android": "https://dc.lft.to/lastmile_qr_scan"}, "is_reserved": 0}, {"lon": -77.03124333333334, "bike_id": "08a33cddde754cb1f38c4fec80ffc54c", "lat": 38.959241166666665, "fusion_lon": 0.0, "fusion_lat": 0.0, "type": "electric_bike", "name": "08a33cddde754cb1f38c4fec80ffc54c", "is_disabled": 0, "rental_uris": {"ios": "https://dc.lft.to/lastmile_qr_scan", "android": "https://dc.lft.to/lastmile_qr_scan"}, "is_reserved": 0}, {"lon": -77.0298295, "bike_id": "e459baafe5f79b383879a14cb2e752d0", "lat": 38.9072465, "fusion_lon": 0.0, "fusion_lat": 0.0, "type": "electric_scooter", "name": "e459baafe5f79b383879a14cb2e752d0", "is_disabled": 0, "rental_uris": {"ios": "https://dc.lft.to/lastmile_qr_scan", "android": "https://dc.lft.to/lastmile_qr_scan"}, "is_reserved": 0}, {"lon": -77.008901, "bike_id": "0329e8a2571a6e1292f2448382923cf0", "lat": 38.92487116666667, "fusion_lon": 0.0, "fusion_lat": 0.0, "type": "electric_scooter", "name": "0329e8a2571a6e1292f2448382923cf0", "is_disabled": 0, "rental_uris": {"ios": "https://dc.lft.to/lastmile_qr_scan", "android": "https://dc.lft.to/lastmile_qr_scan"}, "is_reserved": 0}, {"lon": -77.004928, "bike_id": "fee587ff7eddcf003246477c03c17cf5", "lat": 38.896956333333335, "fusion_lon": 0.0, "fusion_lat": 0.0, "type": "electric_scooter", "name": "fee587ff7eddcf003246477c03c17cf5", "is_disabled": 0, "rental_uris": {"ios": "https://dc.lft.to/lastmile_qr_scan", "android": "https://dc.lft.to/lastmile_qr_scan"}, "is_reserved": 0}, {"lon": -77.04829983333333, "bike_id": "ebd7ce4b7dfad8c515fbd9e92080e685", "lat": 38.903769833333335, "fusion_lon": 0.0, "fusion_lat": 0.0, "type": "electric_scooter", "name": "ebd7ce4b7dfad8c515fbd9e92080e685", "is_disabled": 0, "rental_uris": {"ios": "https://dc.lft.to/lastmile_qr_scan", "android": "https://dc.lft.to/lastmile_qr_scan"}, "is_reserved": 0}, {"lon": -77.04646616666666, "bike_id": "31d2d9b19438db0e85249fee70b973d2", "lat": 39.0550415, "fusion_lon": 0.0, "fusion_lat": 0.0, "type": "electric_bike", "name": "31d2d9b19438db0e85249fee70b973d2", "is_disabled": 0, "rental_uris": {"ios": "https://dc.lft.to/lastmile_qr_scan", "android": "https://dc.lft.to/lastmile_qr_scan"}, "is_reserved": 0}, {"lon": -77.02760333333333, "bike_id": "60222483f23d6f3e66a85a0b6c075e8d", "lat": 38.9656905, "fusion_lon": 0.0, "fusion_lat": 0.0, "type": "electric_bike", "name": "60222483f23d6f3e66a85a0b6c075e8d", "is_disabled": 0, "rental_uris": {"ios": "https://dc.lft.to/lastmile_qr_scan", "android": "https://dc.lft.to/lastmile_qr_scan"}, "is_reserved": 0}, {"lon": -77.01812033333333, "bike_id": "50aa2a48c9b80b9f9562d0f031f89ea4", "lat": 38.964859, "fusion_lon": 0.0, "fusion_lat": 0.0, "type": "electric_scooter", "name": "50aa2a48c9b80b9f9562d0f031f89ea4", "is_disabled": 0, "rental_uris": {"ios": "https://dc.lft.to/lastmile_qr_scan", "android": "https://dc.lft.to/lastmile_qr_scan"}, "is_reserved": 0}, {"lon": -77.05743466666667, "bike_id": "b3a43f73855a2db3c572a355b94c9c9e", "lat": 38.93391283333333, "fusion_lon": 0.0, "fusion_lat": 0.0, "type": "electric_scooter", "name": "b3a43f73855a2db3c572a355b94c9c9e", "is_disabled": 0, "rental_uris": {"ios": "https://dc.lft.to/lastmile_qr_scan", "android": "https://dc.lft.to/lastmile_qr_scan"}, "is_reserved": 0}, {"lon": -77.02714383333333, "bike_id": "c790ad04b6668fca2aad3ddc371be752", "lat": 38.91697383333333, "fusion_lon": 0.0, "fusion_lat": 0.0, "type": "electric_scooter", "name": "c790ad04b6668fca2aad3ddc371be752", "is_disabled": 0, "rental_uris": {"ios": "https://dc.lft.to/lastmile_qr_scan", "android": "https://dc.lft.to/lastmile_qr_scan"}, "is_reserved": 0}, {"lon": -77.12742016666667, "bike_id": "0238000d8ca826dbbeb38259f2696626", "lat": 38.89558383333333, "fusion_lon": 0.0, "fusion_lat": 0.0, "type": "electric_bike", "name": "0238000d8ca826dbbeb38259f2696626", "is_disabled": 0, "rental_uris": {"ios": "https://dc.lft.to/lastmile_qr_scan", "android": "https://dc.lft.to/lastmile_qr_scan"}, "is_reserved": 0}, {"lon": -77.05591316666667, "bike_id": "60b2fa918dc2029a7301fdfe3920b9d6", "lat": 38.93147116666667, "fusion_lon": 0.0, "fusion_lat": 0.0, "type": "electric_scooter", "name": "60b2fa918dc2029a7301fdfe3920b9d6", "is_disabled": 0, "rental_uris": {"ios": "https://dc.lft.to/lastmile_qr_scan", "android": "https://dc.lft.to/lastmile_qr_scan"}, "is_reserved": 0}, {"lon": -77.03878916666666, "bike_id": "2819da39b00da38c9fec5125d57f4b17", "lat": 38.948732, "fusion_lon": 0.0, "fusion_lat": 0.0, "type": "electric_scooter", "name": "2819da39b00da38c9fec5125d57f4b17", "is_disabled": 0, "rental_uris": {"ios": "https://dc.lft.to/lastmile_qr_scan", "android": "https://dc.lft.to/lastmile_qr_scan"}, "is_reserved": 0}, {"lon": -77.0364075, "bike_id": "c37b5118f7c2519eb3adc471b13b10cd", "lat": 38.913223, "fusion_lon": 0.0, "fusion_lat": 0.0, "type": "electric_scooter", "name": "c37b5118f7c2519eb3adc471b13b10cd", "is_disabled": 0, "rental_uris": {"ios": "https://dc.lft.to/lastmile_qr_scan", "android": "https://dc.lft.to/lastmile_qr_scan"}, "is_reserved": 0}, {"lon": -76.8839945, "bike_id": "f2f0d42f382d66947833bdfb98be237d", "lat": 38.93169616666667, "fusion_lon": 0.0, "fusion_lat": 0.0, "type": "electric_bike", "name": "f2f0d42f382d66947833bdfb98be237d", "is_disabled": 0, "rental_uris": {"ios": "https://dc.lft.to/lastmile_qr_scan", "android": "https://dc.lft.to/lastmile_qr_scan"}, "is_reserved": 0}, {"lon": -76.9882395, "bike_id": "968fd1c1952f9a79ec42a71968a5cfb4", "lat": 38.8907675, "fusion_lon": 0.0, "fusion_lat": 0.0, "type": "electric_scooter", "name": "968fd1c1952f9a79ec42a71968a5cfb4", "is_disabled": 0, "rental_uris": {"ios": "https://dc.lft.to/lastmile_qr_scan", "android": "https://dc.lft.to/lastmile_qr_scan"}, "is_reserved": 0}, {"lon": -77.04824, "bike_id": "aa17b23a8ab8c3a0bcc0b577ed8e4df1", "lat": 38.903754666666664, "fusion_lon": 0.0, "fusion_lat": 0.0, "type": "electric_scooter", "name": "aa17b23a8ab8c3a0bcc0b577ed8e4df1", "is_disabled": 0, "rental_uris": {"ios": "https://dc.lft.to/lastmile_qr_scan", "android": "https://dc.lft.to/lastmile_qr_scan"}, "is_reserved": 0}, {"lon": -77.01795133333333, "bike_id": "98943fcd287809be5a14f979fd473485", "lat": 38.901407166666665, "fusion_lon": 0.0, "fusion_lat": 0.0, "type": "electric_scooter", "name": "98943fcd287809be5a14f979fd473485", "is_disabled": 0, "rental_uris": {"ios": "https://dc.lft.to/lastmile_qr_scan", "android": "https://dc.lft.to/lastmile_qr_scan"}, "is_reserved": 0}, {"lon": -77.00956016666666, "bike_id": "673fa6d8348efffc80ec573cc55dfa4f", "lat": 38.917093333333334, "fusion_lon": 0.0, "fusion_lat": 0.0, "type": "electric_scooter", "name": "673fa6d8348efffc80ec573cc55dfa4f", "is_disabled": 0, "rental_uris": {"ios": "https://dc.lft.to/lastmile_qr_scan", "android": "https://dc.lft.to/lastmile_qr_scan"}, "is_reserved": 0}, {"lon": -76.95647566666666, "bike_id": "c70dfdbadbf2c924cb73f85c30ac5f73", "lat": 38.89622633333333, "fusion_lon": 0.0, "fusion_lat": 0.0, "type": "electric_scooter", "name": "c70dfdbadbf2c924cb73f85c30ac5f73", "is_disabled": 0, "rental_uris": {"ios": "https://dc.lft.to/lastmile_qr_scan", "android": "https://dc.lft.to/lastmile_qr_scan"}, "is_reserved": 0}, {"lon": -77.00474083333333, "bike_id": "b61bd2b0870e948ed6c353bf9c0aee32", "lat": 38.895856333333334, "fusion_lon": 0.0, "fusion_lat": 0.0, "type": "electric_scooter", "name": "b61bd2b0870e948ed6c353bf9c0aee32", "is_disabled": 0, "rental_uris": {"ios": "https://dc.lft.to/lastmile_qr_scan", "android": "https://dc.lft.to/lastmile_qr_scan"}, "is_reserved": 0}, {"lon": -76.96130633333334, "bike_id": "4df64a66c29579857404d4a077c5a811", "lat": 38.94215416666667, "fusion_lon": 0.0, "fusion_lat": 0.0, "type": "electric_bike", "name": "4df64a66c29579857404d4a077c5a811", "is_disabled": 0, "rental_uris": {"ios": "https://dc.lft.to/lastmile_qr_scan", "android": "https://dc.lft.to/lastmile_qr_scan"}, "is_reserved": 0}, {"lon": -77.042498, "bike_id": "00a0e6d49ac6ad3dcbd0b1636dd93e54", "lat": 38.906494333333335, "fusion_lon": 0.0, "fusion_lat": 0.0, "type": "electric_scooter", "name": "00a0e6d49ac6ad3dcbd0b1636dd93e54", "is_disabled": 0, "rental_uris": {"ios": "https://dc.lft.to/lastmile_qr_scan", "android": "https://dc.lft.to/lastmile_qr_scan"}, "is_reserved": 0}, {"lon": -77.04550683333333, "bike_id": "547c9fbca7bc4729841b21635b735f2a", "lat": 38.919289666666664, "fusion_lon": 0.0, "fusion_lat": 0.0, "type": "electric_scooter", "name": "547c9fbca7bc4729841b21635b735f2a", "is_disabled": 0, "rental_uris": {"ios": "https://dc.lft.to/lastmile_qr_scan", "android": "https://dc.lft.to/lastmile_qr_scan"}, "is_reserved": 0}, {"lon": -77.00920016666667, "bike_id": "03191937bb2665587a4bc729c427605b", "lat": 38.8964965, "fusion_lon": 0.0, "fusion_lat": 0.0, "type": "electric_scooter", "name": "03191937bb2665587a4bc729c427605b", "is_disabled": 0, "rental_uris": {"ios": "https://dc.lft.to/lastmile_qr_scan", "android": "https://dc.lft.to/lastmile_qr_scan"}, "is_reserved": 0}, {"lon": -76.99199733333333, "bike_id": "7d666c91e7fd7111cbfff50cbf9a174e", "lat": 38.8983565, "fusion_lon": 0.0, "fusion_lat": 0.0, "type": "electric_scooter", "name": "7d666c91e7fd7111cbfff50cbf9a174e", "is_disabled": 0, "rental_uris": {"ios": "https://dc.lft.to/lastmile_qr_scan", "android": "https://dc.lft.to/lastmile_qr_scan"}, "is_reserved": 0}, {"lon": -77.0181115, "bike_id": "fbe38a2400ac38db132307de1d48877a", "lat": 38.920272, "fusion_lon": 0.0, "fusion_lat": 0.0, "type": "electric_scooter", "name": "fbe38a2400ac38db132307de1d48877a", "is_disabled": 0, "rental_uris": {"ios": "https://dc.lft.to/lastmile_qr_scan", "android": "https://dc.lft.to/lastmile_qr_scan"}, "is_reserved": 0}, {"lon": -77.02166966666667, "bike_id": "4ea54686f69887a19ba355d4ac83e310", "lat": 38.9429625, "fusion_lon": 0.0, "fusion_lat": 0.0, "type": "electric_scooter", "name": "4ea54686f69887a19ba355d4ac83e310", "is_disabled": 0, "rental_uris": {"ios": "https://dc.lft.to/lastmile_qr_scan", "android": "https://dc.lft.to/lastmile_qr_scan"}, "is_reserved": 0}, {"lon": -77.0046405, "bike_id": "5784aa6c400dc08ac549b58bfdcb45aa", "lat": 38.911809, "fusion_lon": 0.0, "fusion_lat": 0.0, "type": "electric_scooter", "name": "5784aa6c400dc08ac549b58bfdcb45aa", "is_disabled": 0, "rental_uris": {"ios": "https://dc.lft.to/lastmile_qr_scan", "android": "https://dc.lft.to/lastmile_qr_scan"}, "is_reserved": 0}, {"lon": -76.94633816666666, "bike_id": "a0360e82f448aa30424fe1f68b2eb08a", "lat": 38.898343833333335, "fusion_lon": 0.0, "fusion_lat": 0.0, "type": "electric_scooter", "name": "a0360e82f448aa30424fe1f68b2eb08a", "is_disabled": 0, "rental_uris": {"ios": "https://dc.lft.to/lastmile_qr_scan", "android": "https://dc.lft.to/lastmile_qr_scan"}, "is_reserved": 0}, {"lon": -77.02315883333333, "bike_id": "e988b33013427bf6d05e157328f9bf56", "lat": 38.9073125, "fusion_lon": 0.0, "fusion_lat": 0.0, "type": "electric_scooter", "name": "e988b33013427bf6d05e157328f9bf56", "is_disabled": 0, "rental_uris": {"ios": "https://dc.lft.to/lastmile_qr_scan", "android": "https://dc.lft.to/lastmile_qr_scan"}, "is_reserved": 0}, {"lon": -77.03941016666667, "bike_id": "33990c929cb654a488557f9bd4293255", "lat": 38.9194135, "fusion_lon": 0.0, "fusion_lat": 0.0, "type": "electric_scooter", "name": "33990c929cb654a488557f9bd4293255", "is_disabled": 0, "rental_uris": {"ios": "https://dc.lft.to/lastmile_qr_scan", "android": "https://dc.lft.to/lastmile_qr_scan"}, "is_reserved": 0}, {"lon": -77.076677, "bike_id": "6812cea45f6dd807fba910fd85a3296a", "lat": 38.943257, "fusion_lon": 0.0, "fusion_lat": 0.0, "type": "electric_scooter", "name": "6812cea45f6dd807fba910fd85a3296a", "is_disabled": 0, "rental_uris": {"ios": "https://dc.lft.to/lastmile_qr_scan", "android": "https://dc.lft.to/lastmile_qr_scan"}, "is_reserved": 0}, {"lon": -77.0561065, "bike_id": "f2b77e54b9f0ba6f58ae9e6bdb5764fb", "lat": 38.923405333333335, "fusion_lon": 0.0, "fusion_lat": 0.0, "type": "electric_scooter", "name": "f2b77e54b9f0ba6f58ae9e6bdb5764fb", "is_disabled": 0, "rental_uris": {"ios": "https://dc.lft.to/lastmile_qr_scan", "android": "https://dc.lft.to/lastmile_qr_scan"}, "is_reserved": 0}, {"lon": -76.99861533333333, "bike_id": "4d937196f4a1243d8cd333fee3730331", "lat": 38.90777033333333, "fusion_lon": 0.0, "fusion_lat": 0.0, "type": "electric_scooter", "name": "4d937196f4a1243d8cd333fee3730331", "is_disabled": 0, "rental_uris": {"ios": "https://dc.lft.to/lastmile_qr_scan", "android": "https://dc.lft.to/lastmile_qr_scan"}, "is_reserved": 0}, {"lon": -77.023461, "bike_id": "10d3b60385b034c5f94cacf43a817211", "lat": 38.922506166666665, "fusion_lon": 0.0, "fusion_lat": 0.0, "type": "electric_scooter", "name": "10d3b60385b034c5f94cacf43a817211", "is_disabled": 0, "rental_uris": {"ios": "https://dc.lft.to/lastmile_qr_scan", "android": "https://dc.lft.to/lastmile_qr_scan"}, "is_reserved": 0}, {"lon": -76.96526083333333, "bike_id": "e615b9b0d71294b27983eea2680fe927", "lat": 38.874806666666665, "fusion_lon": 0.0, "fusion_lat": 0.0, "type": "electric_scooter", "name": "e615b9b0d71294b27983eea2680fe927", "is_disabled": 0, "rental_uris": {"ios": "https://dc.lft.to/lastmile_qr_scan", "android": "https://dc.lft.to/lastmile_qr_scan"}, "is_reserved": 0}, {"lon": -77.02802383333334, "bike_id": "bcee27af3a289e781e46fd96b3ba7c66", "lat": 38.906712166666665, "fusion_lon": 0.0, "fusion_lat": 0.0, "type": "electric_scooter", "name": "bcee27af3a289e781e46fd96b3ba7c66", "is_disabled": 0, "rental_uris": {"ios": "https://dc.lft.to/lastmile_qr_scan", "android": "https://dc.lft.to/lastmile_qr_scan"}, "is_reserved": 0}, {"lon": -77.139325, "bike_id": "4939428081a80a0e4a6288cbb980dba7", "lat": 38.87298883333333, "fusion_lon": 0.0, "fusion_lat": 0.0, "type": "electric_bike", "name": "4939428081a80a0e4a6288cbb980dba7", "is_disabled": 0, "rental_uris": {"ios": "https://dc.lft.to/lastmile_qr_scan", "android": "https://dc.lft.to/lastmile_qr_scan"}, "is_reserved": 0}, {"lon": -77.0557465, "bike_id": "1760c0cbaef5b9387764ce35c4fa6d8c", "lat": 38.897333333333336, "fusion_lon": 0.0, "fusion_lat": 0.0, "type": "electric_scooter", "name": "1760c0cbaef5b9387764ce35c4fa6d8c", "is_disabled": 0, "rental_uris": {"ios": "https://dc.lft.to/lastmile_qr_scan", "android": "https://dc.lft.to/lastmile_qr_scan"}, "is_reserved": 0}, {"lon": -76.9465325, "bike_id": "8fbe00dc464a1aa09d6717a0904a8eda", "lat": 38.89826083333333, "fusion_lon": 0.0, "fusion_lat": 0.0, "type": "electric_scooter", "name": "8fbe00dc464a1aa09d6717a0904a8eda", "is_disabled": 0, "rental_uris": {"ios": "https://dc.lft.to/lastmile_qr_scan", "android": "https://dc.lft.to/lastmile_qr_scan"}, "is_reserved": 0}, {"lon": -76.982359, "bike_id": "6877cac5cbc14f6340b61553cf67a967", "lat": 38.8647405, "fusion_lon": 0.0, "fusion_lat": 0.0, "type": "electric_scooter", "name": "6877cac5cbc14f6340b61553cf67a967", "is_disabled": 0, "rental_uris": {"ios": "https://dc.lft.to/lastmile_qr_scan", "android": "https://dc.lft.to/lastmile_qr_scan"}, "is_reserved": 0}, {"lon": -77.01773616666667, "bike_id": "c62bc965b76734f1441f2855e97865aa", "lat": 38.900284166666665, "fusion_lon": 0.0, "fusion_lat": 0.0, "type": "electric_scooter", "name": "c62bc965b76734f1441f2855e97865aa", "is_disabled": 0, "rental_uris": {"ios": "https://dc.lft.to/lastmile_qr_scan", "android": "https://dc.lft.to/lastmile_qr_scan"}, "is_reserved": 0}, {"lon": -76.99029066666667, "bike_id": "79c6398be29721ab6c1b9166695915e0", "lat": 38.8960465, "fusion_lon": 0.0, "fusion_lat": 0.0, "type": "electric_scooter", "name": "79c6398be29721ab6c1b9166695915e0", "is_disabled": 0, "rental_uris": {"ios": "https://dc.lft.to/lastmile_qr_scan", "android": "https://dc.lft.to/lastmile_qr_scan"}, "is_reserved": 0},