{"data": {"bikes": [{"fusion_lat": 0.0, "name": "d32897544bf7e419695ac8d8ce6b8c09", "is_disabled": 0, "rental_uris": {"android": "https://dc.lft.to/lastmile_qr_scan", "ios": "https://dc.lft.to/lastmile_qr_scan"}, "fusion_lon": 0.0, "lat": 38.8775455, "bike_id": "d32897544bf7e419695ac8d8ce6b8c09", "type": "electric_scooter", "is_reserved": 0, "lon": -77.002624}, {"fusion_lat": 0.0, "name": "9a85ec07ec8edf2cadde0554275f7de6", "is_disabled": 0, "rental_uris": {"android": "https://dc.lft.to/lastmile_qr_scan", "ios": "https://dc.lft.to/lastmile_qr_scan"}, "fusion_lon": 0.0, "lat": 38.92676483333334, "bike_id": "9a85ec07ec8edf2cadde0554275f7de6", "type": "electric_scooter", "is_reserved": 0, "lon": -77.03636383333334}, {"fusion_lat": 0.0, "name": "8b796b407806e2cb48a92792e641dc26", "is_disabled": 0, "rental_uris": {"android": "https://dc.lft.to/lastmile_qr_scan", "ios": "https://dc.lft.to/lastmile_qr_scan"}, "fusion_lon": 0.0, "lat": 38.896840166666664, "bike_id": "8b796b407806e2cb48a92792e641dc26", "type": "electric_scooter", "is_reserved": 0, "lon": -77.04350916666667}, {"fusion_lat": 0.0, "name": "25eccd0aa456e1219fa5aacafff07335", "is_disabled": 0, "rental_uris": {"android": "https://dc.lft.to/lastmile_qr_scan", "ios": "https://dc.lft.to/lastmile_qr_scan"}, "fusion_lon": 0.0, "lat": 38.958854333333335, "bike_id": "25eccd0aa456e1219fa5aacafff07335", "type": "electric_bike", "is_reserved": 0, "lon": -76.92485233333333}, {"fusion_lat": 0.0, "name": "aeb04cb8cf7e998cfe8753e025484b57", "is_disabled": 0, "rental_uris": {"android": "https://dc.lft.to/lastmile_qr_scan", "ios": "https://dc.lft.to/lastmile_qr_scan"}, "fusion_lon": 0.0, "lat": 38.84612933333333, "bike_id": "aeb04cb8cf7e998cfe8753e025484b57", "type": "electric_bike", "is_reserved": 0, "lon": -76.96909116666667}, {"fusion_lat": 0.0, "name": "90830e2e467b4c99e65948b38249ee7b", "is_disabled": 0, "rental_uris": {"android": "https://dc.lft.to/lastmile_qr_scan", "ios": "https://dc.lft.to/lastmile_qr_scan"}, "fusion_lon": 0.0, "lat": 38.946209833333334, "bike_id": "90830e2e467b4c99e65948b38249ee7b", "type": "electric_scooter", "is_reserved": 0, "lon": -77.08013083333333}, {"fusion_lat": 0.0, "name": "47f5e90a37f57de69c775239ac61b945", "is_disabled": 0, "rental_uris": {"android": "https://dc.lft.to/lastmile_qr_scan", "ios": "https://dc.lft.to/lastmile_qr_scan"}, "fusion_lon": 0.0, "lat": 38.92259333333333, "bike_id": "47f5e90a37f57de69c775239ac61b945", "type": "electric_scooter", "is_reserved": 0, "lon": -77.02977033333333}, {"fusion_lat": 0.0, "name": "14541384fbd94589a39278cf085f07fb", "is_disabled": 0, "rental_uris": {"android": "https://dc.lft.to/lastmile_qr_scan", "ios": "https://dc.lft.to/lastmile_qr_scan"}, "fusion_lon": 0.0, "lat": 38.89610833333333, "bike_id": "14541384fbd94589a39278cf085f07fb", "type": "electric_bike", "is_reserved": 0, "lon": -76.9074165}, {"fusion_lat": 0.0, "name": "bcfc6aeb33a8306eaa270a3101b14a42", "is_disabled": 0, "rental_uris": {"android": "https://dc.lft.to/lastmile_qr_scan", "ios": "https://dc.lft.to/lastmile_qr_scan"}, "fusion_lon": 0.0, "lat": 38.87492366666667, "bike_id": "bcfc6aeb33a8306eaa270a3101b14a42", "type": "electric_bike", "is_reserved": 0, "lon": -77.211238}, {"fusion_lat": 0.0, "name": "f67362f74c928fafe0d05d6620df23e0", "is_disabled": 0, "rental_uris": {"android": "https://dc.lft.to/lastmile_qr_scan", "ios": "https://dc.lft.to/lastmile_qr_scan"}, "fusion_lon": 0.0, "lat": 38.948283, "bike_id": "f67362f74c928fafe0d05d6620df23e0", "type": "electric_scooter", "is_reserved": 0, "lon": -77.0800615}, {"fusion_lat": 0.0, "name": "16ce763aae5a1146b96b56522ae34738", "is_disabled": 0, "rental_uris": {"android": "https://dc.lft.to/lastmile_qr_scan", "ios": "https://dc.lft.to/lastmile_qr_scan"}, "fusion_lon": 0.0, "lat": 38.890064, "bike_id": "16ce763aae5a1146b96b56522ae34738", "type": "electric_scooter", "is_reserved": 0, "lon": -76.93745366666667}, {"fusion_lat": 0.0, "name": "ec6d744681a3d1e72a5d0a33c48a56d7", "is_disabled": 0, "rental_uris": {"android": "https://dc.lft.to/lastmile_qr_scan", "ios": "https://dc.lft.to/lastmile_qr_scan"}, "fusion_lon": 0.0, "lat": 38.91514183333334, "bike_id": "ec6d744681a3d1e72a5d0a33c48a56d7", "type": "electric_scooter", "is_reserved": 0, "lon": -77.02703816666667}, {"fusion_lat": 0.0, "name": "48b7b988dc765b7b1b4181156f97f150", "is_disabled": 0, "rental_uris": {"android": "https://dc.lft.to/lastmile_qr_scan", "ios": "https://dc.lft.to/lastmile_qr_scan"}, "fusion_lon": 0.0, "lat": 38.935351833333335, "bike_id": "48b7b988dc765b7b1b4181156f97f150", "type": "electric_scooter", "is_reserved": 0, "lon": -77.02351516666667}, {"fusion_lat": 0.0, "name": "b8b1f17273dccfda43a995dab0765187", "is_disabled": 0, "rental_uris": {"android": "https://dc.lft.to/lastmile_qr_scan", "ios": "https://dc.lft.to/lastmile_qr_scan"}, "fusion_lon": 0.0, "lat": 38.909507, "bike_id": "b8b1f17273dccfda43a995dab0765187", "type": "electric_scooter", "is_reserved": 0, "lon": -77.03215433333334}, {"fusion_lat": 0.0, "name": "0f4730ec6482a8e3343d84353eda095e", "is_disabled": 0, "rental_uris": {"android": "https://dc.lft.to/lastmile_qr_scan", "ios": "https://dc.lft.to/lastmile_qr_scan"}, "fusion_lon": 0.0, "lat": 38.9030535, "bike_id": "0f4730ec6482a8e3343d84353eda095e", "type": "electric_bike", "is_reserved": 0, "lon": -76.97651416666666}, {"fusion_lat": 0.0, "name": "78a77cd42758abafa651f871c3b25d0a", "is_disabled": 0, "rental_uris": {"android": "https://dc.lft.to/lastmile_qr_scan", "ios": "https://dc.lft.to/lastmile_qr_scan"}, "fusion_lon": 0.0, "lat": 38.90291233333333, "bike_id": "78a77cd42758abafa651f871c3b25d0a", "type": "electric_scooter", "is_reserved": 0, "lon": -76.97637633333333}, {"fusion_lat": 0.0, "name": "c104aa8a9b1df3a62427fc3131e96638", "is_disabled": 0, "rental_uris": {"android": "https://dc.lft.to/lastmile_qr_scan", "ios": "https://dc.lft.to/lastmile_qr_scan"}, "fusion_lon": 0.0, "lat": 38.99773883333334, "bike_id": "c104aa8a9b1df3a62427fc3131e96638", "type": "electric_bike", "is_reserved": 0, "lon": -77.047086}, {"fusion_lat": 0.0, "name": "a5ef8f47a9c4211d93bd342ac3eeb045", "is_disabled": 0, "rental_uris": {"android": "https://dc.lft.to/lastmile_qr_scan", "ios": "https://dc.lft.to/lastmile_qr_scan"}, "fusion_lon": 0.0, "lat": 38.9266915, "bike_id": "a5ef8f47a9c4211d93bd342ac3eeb045", "type": "electric_scooter", "is_reserved": 0, "lon": -77.03100083333334}, {"fusion_lat": 0.0, "name": "104bfa782e0751c0ea3bf26d2a86f1d3", "is_disabled": 0, "rental_uris": {"android": "https://dc.lft.to/lastmile_qr_scan", "ios": "https://dc.lft.to/lastmile_qr_scan"}, "fusion_lon": 0.0, "lat": 38.9223445, "bike_id": "104bfa782e0751c0ea3bf26d2a86f1d3", "type": "electric_scooter", "is_reserved": 0, "lon": -77.02329816666666}, {"fusion_lat": 0.0, "name": "6e3588db6567f82e6b8cd57824face23", "is_disabled": 0, "rental_uris": {"android": "https://dc.lft.to/lastmile_qr_scan", "ios": "https://dc.lft.to/lastmile_qr_scan"}, "fusion_lon": 0.0, "lat": 38.896154333333335, "bike_id": "6e3588db6567f82e6b8cd57824face23", "type": "electric_scooter", "is_reserved": 0, "lon": -77.0316495}, {"fusion_lat": 0.0, "name": "147b741d856b65d075b10fe680e67a87", "is_disabled": 0, "rental_uris": {"android": "https://dc.lft.to/lastmile_qr_scan", "ios": "https://dc.lft.to/lastmile_qr_scan"}, "fusion_lon": 0.0, "lat": 38.91827833333333, "bike_id": "147b741d856b65d075b10fe680e67a87", "type": "electric_scooter", "is_reserved": 0, "lon": -77.03642333333333}, {"fusion_lat": 0.0, "name": "1c7755df34e0ba3893a8bd9434f32ab8", "is_disabled": 0, "rental_uris": {"android": "https://dc.lft.to/lastmile_qr_scan", "ios": "https://dc.lft.to/lastmile_qr_scan"}, "fusion_lon": 0.0, "lat": 38.94158516666667, "bike_id": "1c7755df34e0ba3893a8bd9434f32ab8", "type": "electric_scooter", "is_reserved": 0, "lon": -77.026226}, {"fusion_lat": 0.0, "name": "f15fd0ac53291515381b7215c98dbcf8", "is_disabled": 0, "rental_uris": {"android": "https://dc.lft.to/lastmile_qr_scan", "ios": "https://dc.lft.to/lastmile_qr_scan"}, "fusion_lon": 0.0, "lat": 38.9208435, "bike_id": "f15fd0ac53291515381b7215c98dbcf8", "type": "electric_scooter", "is_reserved": 0, "lon": -77.024096}, {"fusion_lat": 0.0, "name": "6999d891face9b495bd65da367526480", "is_disabled": 0, "rental_uris": {"android": "https://dc.lft.to/lastmile_qr_scan", "ios": "https://dc.lft.to/lastmile_qr_scan"}, "fusion_lon": 0.0, "lat": 38.88425066666667, "bike_id": "6999d891face9b495bd65da367526480", "type": "electric_scooter", "is_reserved": 0, "lon": -77.02161966666667}, {"fusion_lat": 0.0, "name": "9c047d14433e56257f7966549c60d921", "is_disabled": 0, "rental_uris": {"android": "https://dc.lft.to/lastmile_qr_scan", "ios": "https://dc.lft.to/lastmile_qr_scan"}, "fusion_lon": 0.0, "lat": 38.933926, "bike_id": "9c047d14433e56257f7966549c60d921", "type": "electric_scooter", "is_reserved": 0, "lon": -77.057436}, {"fusion_lat": 0.0, "name": "36d1bc9565009f2fb061d4580d434e16", "is_disabled": 0, "rental_uris": {"android": "https://dc.lft.to/lastmile_qr_scan", "ios": "https://dc.lft.to/lastmile_qr_scan"}, "fusion_lon": 0.0, "lat": 38.905069833333336, "bike_id": "36d1bc9565009f2fb061d4580d434e16", "type": "electric_scooter", "is_reserved": 0, "lon": -77.01790466666667}, {"fusion_lat": 0.0, "name": "e8e7a0f7cfb7c5d04680d57c295467ee", "is_disabled": 0, "rental_uris": {"android": "https://dc.lft.to/lastmile_qr_scan", "ios": "https://dc.lft.to/lastmile_qr_scan"}, "fusion_lon": 0.0, "lat": 38.96202666666667, "bike_id": "e8e7a0f7cfb7c5d04680d57c295467ee", "type": "electric_scooter", "is_reserved": 0, "lon": -77.02233666666666}, {"fusion_lat": 0.0, "name": "02b996626b3fe87bef6117638f77c237", "is_disabled": 0, "rental_uris": {"android": "https://dc.lft.to/lastmile_qr_scan", "ios": "https://dc.lft.to/lastmile_qr_scan"}, "fusion_lon": 0.0, "lat": 38.887169, "bike_id": "02b996626b3fe87bef6117638f77c237", "type": "electric_scooter", "is_reserved": 0, "lon": -77.01328016666666}, {"fusion_lat": 0.0, "name": "e7a2de10ef1591c275e6da873611e53d", "is_disabled": 0, "rental_uris": {"android": "https://dc.lft.to/lastmile_qr_scan", "ios": "https://dc.lft.to/lastmile_qr_scan"}, "fusion_lon": 0.0, "lat": 38.924545, "bike_id": "e7a2de10ef1591c275e6da873611e53d", "type": "electric_scooter", "is_reserved": 0, "lon": -77.02408216666667}, {"fusion_lat": 0.0, "name": "7c382a195b48e9b993518c48c2899434", "is_disabled": 0, "rental_uris": {"android": "https://dc.lft.to/lastmile_qr_scan", "ios": "https://dc.lft.to/lastmile_qr_scan"}, "fusion_lon": 0.0, "lat": 38.87093133333333, "bike_id": "7c382a195b48e9b993518c48c2899434", "type": "electric_scooter", "is_reserved": 0, "lon": -77.007639}, {"fusion_lat": 0.0, "name": "6898db825ba7fe1bc64c8d0170bd6427", "is_disabled": 0, "rental_uris": {"android": "https://dc.lft.to/lastmile_qr_scan", "ios": "https://dc.lft.to/lastmile_qr_scan"}, "fusion_lon": 0.0, "lat": 38.934903, "bike_id": "6898db825ba7fe1bc64c8d0170bd6427", "type": "electric_scooter", "is_reserved": 0, "lon": -77.045355}, {"fusion_lat": 0.0, "name": "13b08bcf89f5ca4ca6fe14ba2f7e72c2", "is_disabled": 0, "rental_uris": {"android": "https://dc.lft.to/lastmile_qr_scan", "ios": "https://dc.lft.to/lastmile_qr_scan"}, "fusion_lon": 0.0, "lat": 38.91918833333333, "bike_id": "13b08bcf89f5ca4ca6fe14ba2f7e72c2", "type": "electric_scooter", "is_reserved": 0, "lon": -77.021924}, {"fusion_lat": 0.0, "name": "0c7ea307f424c973ca8a067d7b26afa5", "is_disabled": 0, "rental_uris": {"android": "https://dc.lft.to/lastmile_qr_scan", "ios": "https://dc.lft.to/lastmile_qr_scan"}, "fusion_lon": 0.0, "lat": 38.87176066666667, "bike_id": "0c7ea307f424c973ca8a067d7b26afa5", "type": "electric_scooter", "is_reserved": 0, "lon": -77.00619033333334}, {"fusion_lat": 0.0, "name": "a1c3c81a8121fc4fd7dc521595f40265", "is_disabled": 0, "rental_uris": {"android": "https://dc.lft.to/lastmile_qr_scan", "ios": "https://dc.lft.to/lastmile_qr_scan"}, "fusion_lon": 0.0, "lat": 38.9152345, "bike_id": "a1c3c81a8121fc4fd7dc521595f40265", "type": "electric_scooter", "is_reserved": 0, "lon": -77.07273083333334}, {"fusion_lat": 0.0, "name": "0c79ef4bc0e0588b255ff141969b826d", "is_disabled": 0, "rental_uris": {"android": "https://dc.lft.to/lastmile_qr_scan", "ios": "https://dc.lft.to/lastmile_qr_scan"}, "fusion_lon": 0.0, "lat": 38.953761666666665, "bike_id": "0c79ef4bc0e0588b255ff141969b826d", "type": "electric_bike", "is_reserved": 0, "lon": -76.9795585}, {"fusion_lat": 0.0, "name": "c98a5debd2ba3fc8489af093fa4c4907", "is_disabled": 0, "rental_uris": {"android": "https://dc.lft.to/lastmile_qr_scan", "ios": "https://dc.lft.to/lastmile_qr_scan"}, "fusion_lon": 0.0, "lat": 38.90272933333333, "bike_id": "c98a5debd2ba3fc8489af093fa4c4907", "type": "electric_scooter", "is_reserved": 0, "lon": -76.97673316666666}, {"fusion_lat": 0.0, "name": "e2ae135056b4199944216878fc9e8c69", "is_disabled": 0, "rental_uris": {"android": "https://dc.lft.to/lastmile_qr_scan", "ios": "https://dc.lft.to/lastmile_qr_scan"}, "fusion_lon": 0.0, "lat": 38.89874066666667, "bike_id": "e2ae135056b4199944216878fc9e8c69", "type": "electric_scooter", "is_reserved": 0, "lon": -76.93183316666666}, {"fusion_lat": 0.0, "name": "43e293a4783dda680f64ae260a057554", "is_disabled": 0, "rental_uris": {"android": "https://dc.lft.to/lastmile_qr_scan", "ios": "https://dc.lft.to/lastmile_qr_scan"}, "fusion_lon": 0.0, "lat": 38.90032016666667, "bike_id": "43e293a4783dda680f64ae260a057554", "type": "electric_scooter", "is_reserved": 0, "lon": -76.99601333333334}, {"fusion_lat": 0.0, "name": "40fa5c80957c8b3f16b856e19d555839", "is_disabled": 0, "rental_uris": {"android": "https://dc.lft.to/lastmile_qr_scan", "ios": "https://dc.lft.to/lastmile_qr_scan"}, "fusion_lon": 0.0, "lat": 38.92333, "bike_id": "40fa5c80957c8b3f16b856e19d555839", "type": "electric_scooter", "is_reserved": 0, "lon": -77.02049316666667}, {"fusion_lat": 0.0, "name": "a83c95afb732ee870bb5e11db27d6772", "is_disabled": 0, "rental_uris": {"android": "https://dc.lft.to/lastmile_qr_scan", "ios": "https://dc.lft.to/lastmile_qr_scan"}, "fusion_lon": 0.0, "lat": 38.92131783333333, "bike_id": "a83c95afb732ee870bb5e11db27d6772", "type": "electric_scooter", "is_reserved": 0, "lon": -77.0470095}, {"fusion_lat": 0.0, "name": "1e0caf85484d8fa1fe296635b6a7bc7d", "is_disabled": 0, "rental_uris": {"android": "https://dc.lft.to/lastmile_qr_scan", "ios": "https://dc.lft.to/lastmile_qr_scan"}, "fusion_lon": 0.0, "lat": 38.87917616666667, "bike_id": "1e0caf85484d8fa1fe296635b6a7bc7d", "type": "electric_scooter", "is_reserved": 0, "lon": -77.02152183333334}, {"fusion_lat": 0.0, "name": "fa6fc0a15356501e7d5e57a560a274f8", "is_disabled": 0, "rental_uris": {"android": "https://dc.lft.to/lastmile_qr_scan", "ios": "https://dc.lft.to/lastmile_qr_scan"}, "fusion_lon": 0.0, "lat": 38.885064666666665, "bike_id": "fa6fc0a15356501e7d5e57a560a274f8", "type": "electric_scooter", "is_reserved": 0, "lon": -77.007028}, {"fusion_lat": 0.0, "name": "04dd8f330d0cd97d755dc5748f50093b", "is_disabled": 0, "rental_uris": {"android": "https://dc.lft.to/lastmile_qr_scan", "ios": "https://dc.lft.to/lastmile_qr_scan"}, "fusion_lon": 0.0, "lat": 38.9257875, "bike_id": "04dd8f330d0cd97d755dc5748f50093b", "type": "electric_scooter", "is_reserved": 0, "lon": -77.0323895}, {"fusion_lat": 0.0, "name": "36b11c27ff170350f381e75333dc106d", "is_disabled": 0, "rental_uris": {"android": "https://dc.lft.to/lastmile_qr_scan", "ios": "https://dc.lft.to/lastmile_qr_scan"}, "fusion_lon": 0.0, "lat": 38.92342716666667, "bike_id": "36b11c27ff170350f381e75333dc106d", "type": "electric_scooter", "is_reserved": 0, "lon": -77.02427533333334}, {"fusion_lat": 0.0, "name": "b6977bad4073554ccf13d3c8e41c4f07", "is_disabled": 0, "rental_uris": {"android": "https://dc.lft.to/lastmile_qr_scan", "ios": "https://dc.lft.to/lastmile_qr_scan"}, "fusion_lon": 0.0, "lat": 38.86557783333333, "bike_id": "b6977bad4073554ccf13d3c8e41c4f07", "type": "electric_scooter", "is_reserved": 0, "lon": -76.98351833333334}, {"fusion_lat": 0.0, "name": "78323202bcd48414492992cfbdbeac7a", "is_disabled": 0, "rental_uris": {"android": "https://dc.lft.to/lastmile_qr_scan", "ios": "https://dc.lft.to/lastmile_qr_scan"}, "fusion_lon": 0.0, "lat": 38.897328, "bike_id": "78323202bcd48414492992cfbdbeac7a", "type": "electric_scooter", "is_reserved": 0, "lon": -76.94702933333333}, {"fusion_lat": 0.0, "name": "9b70396f9717225c04052dd1f97f15c4", "is_disabled": 0, "rental_uris": {"android": "https://dc.lft.to/lastmile_qr_scan", "ios": "https://dc.lft.to/lastmile_qr_scan"}, "fusion_lon": 0.0, "lat": 38.9078555, "bike_id": "9b70396f9717225c04052dd1f97f15c4", "type": "electric_scooter", "is_reserved": 0, "lon": -77.01107933333333}, {"fusion_lat": 0.0, "name": "7073381e4311ee059891126e5db24931", "is_disabled": 0, "rental_uris": {"android": "https://dc.lft.to/lastmile_qr_scan", "ios": "https://dc.lft.to/lastmile_qr_scan"}, "fusion_lon": 0.0, "lat": 38.8840235, "bike_id": "7073381e4311ee059891126e5db24931", "type": "electric_bike", "is_reserved": 0, "lon": -76.96057766666667}, {"fusion_lat": 0.0, "name": "ffe3bd061c646a8f8fa179af8eb0f71b", "is_disabled": 0, "rental_uris": {"android": "https://dc.lft.to/lastmile_qr_scan", "ios": "https://dc.lft.to/lastmile_qr_scan"}, "fusion_lon": 0.0, "lat": 38.89560566666667, "bike_id": "ffe3bd061c646a8f8fa179af8eb0f71b", "type": "electric_scooter", "is_reserved": 0, "lon": -77.02714}, {"fusion_lat": 0.0, "name": "e46309a8a6501a89ec4b1a1b802a5c51", "is_disabled": 0, "rental_uris": {"android": "https://dc.lft.to/lastmile_qr_scan", "ios": "https://dc.lft.to/lastmile_qr_scan"}, "fusion_lon": 0.0, "lat": 38.8977215, "bike_id": "e46309a8a6501a89ec4b1a1b802a5c51", "type": "electric_scooter", "is_reserved": 0, "lon": -77.010771}, {"fusion_lat": 0.0, "name": "84bca427af803100ea333d5ad4fb56cf", "is_disabled": 0, "rental_uris": {"android": "https://dc.lft.to/lastmile_qr_scan", "ios": "https://dc.lft.to/lastmile_qr_scan"}, "fusion_lon": 0.0, "lat": 38.89764366666667, "bike_id": "84bca427af803100ea333d5ad4fb56cf", "type": "electric_scooter", "is_reserved": 0, "lon": -77.0088995}, {"fusion_lat": 0.0, "name": "401a35c665fd5793dbadc3882f7ed499", "is_disabled": 0, "rental_uris": {"android": "https://dc.lft.to/lastmile_qr_scan", "ios": "https://dc.lft.to/lastmile_qr_scan"}, "fusion_lon": 0.0, "lat": 38.89871566666667, "bike_id": "401a35c665fd5793dbadc3882f7ed499", "type": "electric_scooter", "is_reserved": 0, "lon": -76.93185566666666}, {"fusion_lat": 0.0, "name": "e2a41cf107ff82740df0b59b1c29589c", "is_disabled": 0, "rental_uris": {"android": "https://dc.lft.to/lastmile_qr_scan", "ios": "https://dc.lft.to/lastmile_qr_scan"}, "fusion_lon": 0.0, "lat": 38.883243666666665, "bike_id": "e2a41cf107ff82740df0b59b1c29589c", "type": "electric_scooter", "is_reserved": 0, "lon": -77.01755383333334}, {"fusion_lat": 0.0, "name": "7c61a6e6ef7f397faa6de8856f4f528d", "is_disabled": 0, "rental_uris": {"android": "https://dc.lft.to/lastmile_qr_scan", "ios": "https://dc.lft.to/lastmile_qr_scan"}, "fusion_lon": 0.0, "lat": 38.919120666666664, "bike_id": "7c61a6e6ef7f397faa6de8856f4f528d", "type": "electric_scooter", "is_reserved": 0, "lon": -77.0409685}, {"fusion_lat": 0.0, "name": "bbc17620e218b6e04f0af74676dca3bd", "is_disabled": 0, "rental_uris": {"android": "https://dc.lft.to/lastmile_qr_scan", "ios": "https://dc.lft.to/lastmile_qr_scan"}, "fusion_lon": 0.0, "lat": 38.871782333333336, "bike_id": "bbc17620e218b6e04f0af74676dca3bd", "type": "electric_scooter", "is_reserved": 0, "lon": -77.00617083333333}, {"fusion_lat": 0.0, "name": "8250e6a56595083e89c6862f0e7237ff", "is_disabled": 0, "rental_uris": {"android": "https://dc.lft.to/lastmile_qr_scan", "ios": "https://dc.lft.to/lastmile_qr_scan"}, "fusion_lon": 0.0, "lat": 38.905609, "bike_id": "8250e6a56595083e89c6862f0e7237ff", "type": "electric_scooter", "is_reserved": 0, "lon": -77.00707616666666}, {"fusion_lat": 0.0, "name": "ded9c8f1cebd9a6191e5be8f89995352", "is_disabled": 0, "rental_uris": {"android": "https://dc.lft.to/lastmile_qr_scan", "ios": "https://dc.lft.to/lastmile_qr_scan"}, "fusion_lon": 0.0, "lat": 39.052507, "bike_id": "ded9c8f1cebd9a6191e5be8f89995352", "type": "electric_bike", "is_reserved": 0, "lon": -77.080687}, {"fusion_lat": 0.0, "name": "dbfb4f1dadedff47519f552770b84960", "is_disabled": 0, "rental_uris": {"android": "https://dc.lft.to/lastmile_qr_scan", "ios": "https://dc.lft.to/lastmile_qr_scan"}, "fusion_lon": 0.0, "lat": 38.92065516666667, "bike_id": "dbfb4f1dadedff47519f552770b84960", "type": "electric_scooter", "is_reserved": 0, "lon": -77.02517216666666}, {"fusion_lat": 0.0, "name": "6c07efd174d4d7ad8e55b078bf82dc9f", "is_disabled": 0, "rental_uris": {"android": "https://dc.lft.to/lastmile_qr_scan", "ios": "https://dc.lft.to/lastmile_qr_scan"}, "fusion_lon": 0.0, "lat": 38.8874035, "bike_id": "6c07efd174d4d7ad8e55b078bf82dc9f", "type": "electric_scooter", "is_reserved": 0, "lon": -77.01539533333333}, {"fusion_lat": 0.0, "name": "69d3b6f4ad6472c49c90ff85c180027a", "is_disabled": 0, "rental_uris": {"android": "https://dc.lft.to/lastmile_qr_scan", "ios": "https://dc.lft.to/lastmile_qr_scan"}, "fusion_lon": 0.0, "lat": 38.88339466666667, "bike_id": "69d3b6f4ad6472c49c90ff85c180027a", "type": "electric_scooter", "is_reserved": 0, "lon": -77.01737683333333}, {"fusion_lat": 0.0, "name": "cb73f60cd2124a606f92870907e75338", "is_disabled": 0, "rental_uris": {"android": "https://dc.lft.to/lastmile_qr_scan", "ios": "https://dc.lft.to/lastmile_qr_scan"}, "fusion_lon": 0.0, "lat": 38.920019, "bike_id": "cb73f60cd2124a606f92870907e75338", "type": "electric_scooter", "is_reserved": 0, "lon": -76.995726}, {"fusion_lat": 0.0, "name": "e39619ff40a386e965bc741c557e2d52", "is_disabled": 0, "rental_uris": {"android": "https://dc.lft.to/lastmile_qr_scan", "ios": "https://dc.lft.to/lastmile_qr_scan"}, "fusion_lon": 0.0, "lat": 38.9352385, "bike_id": "e39619ff40a386e965bc741c557e2d52", "type": "electric_scooter", "is_reserved": 0, "lon": -77.07258733333333}, {"fusion_lat": 0.0, "name": "6d9522a8b38fa4880c6a8c58860f9a92", "is_disabled": 0, "rental_uris": {"android": "https://dc.lft.to/lastmile_qr_scan", "ios": "https://dc.lft.to/lastmile_qr_scan"}, "fusion_lon": 0.0, "lat": 38.8624235, "bike_id": "6d9522a8b38fa4880c6a8c58860f9a92", "type": "electric_scooter", "is_reserved": 0, "lon": -76.99497566666666}, {"fusion_lat": 0.0, "name": "f7448f34520280a6436248eb528e0e19", "is_disabled": 0, "rental_uris": {"android": "https://dc.lft.to/lastmile_qr_scan", "ios": "https://dc.lft.to/lastmile_qr_scan"}, "fusion_lon": 0.0, "lat": 38.93991116666667, "bike_id": "f7448f34520280a6436248eb528e0e19", "type": "electric_bike", "is_reserved": 0, "lon": -77.03580033333333}, {"fusion_lat": 0.0, "name": "a1908501aad1a803ef611902bf27a933", "is_disabled": 0, "rental_uris": {"android": "https://dc.lft.to/lastmile_qr_scan", "ios": "https://dc.lft.to/lastmile_qr_scan"}, "fusion_lon": 0.0, "lat": 38.896175, "bike_id": "a1908501aad1a803ef611902bf27a933", "type": "electric_scooter", "is_reserved": 0, "lon": -77.0090515}, {"fusion_lat": 0.0, "name": "565fa9595d72d60bd63154cf69879af1", "is_disabled": 0, "rental_uris": {"android": "https://dc.lft.to/lastmile_qr_scan", "ios": "https://dc.lft.to/lastmile_qr_scan"}, "fusion_lon": 0.0, "lat": 38.89006, "bike_id": "565fa9595d72d60bd63154cf69879af1", "type": "electric_scooter", "is_reserved": 0, "lon": -76.937445}, {"fusion_lat": 0.0, "name": "c159545096207081ec3917fa03a3f444", "is_disabled": 0, "rental_uris": {"android": "https://dc.lft.to/lastmile_qr_scan", "ios": "https://dc.lft.to/lastmile_qr_scan"}, "fusion_lon": 0.0, "lat": 38.911126, "bike_id": "c159545096207081ec3917fa03a3f444", "type": "electric_scooter", "is_reserved": 0, "lon": -77.03828483333334}, {"fusion_lat": 0.0, "name": "58f457d69de6bb8d98a9868a13b19ec1", "is_disabled": 0, "rental_uris": {"android": "https://dc.lft.to/lastmile_qr_scan", "ios": "https://dc.lft.to/lastmile_qr_scan"}, "fusion_lon": 0.0, "lat": 38.93711, "bike_id": "58f457d69de6bb8d98a9868a13b19ec1", "type": "electric_scooter", "is_reserved": 0, "lon": -77.06103233333333}, {"fusion_lat": 0.0, "name": "8c275a3d4c1e8d0de11f3037a2ca03a5", "is_disabled": 0, "rental_uris": {"android": "https://dc.lft.to/lastmile_qr_scan", "ios": "https://dc.lft.to/lastmile_qr_scan"}, "fusion_lon": 0.0, "lat": 38.932599333333336, "bike_id": "8c275a3d4c1e8d0de11f3037a2ca03a5", "type": "electric_scooter", "is_reserved": 0, "lon": -77.03267866666667}, {"fusion_lat": 0.0, "name": "abae59468a918a187a551eedf2552a63", "is_disabled": 0, "rental_uris": {"android": "https://dc.lft.to/lastmile_qr_scan", "ios": "https://dc.lft.to/lastmile_qr_scan"}, "fusion_lon": 0.0, "lat": 38.8994595, "bike_id": "abae59468a918a187a551eedf2552a63", "type": "electric_scooter", "is_reserved": 0, "lon": -76.98161183333333}, {"fusion_lat": 0.0, "name": "0b73c01d8529b840a5b411eac5c5a06b", "is_disabled": 0, "rental_uris": {"android": "https://dc.lft.to/lastmile_qr_scan", "ios": "https://dc.lft.to/lastmile_qr_scan"}, "fusion_lon": 0.0, "lat": 38.93966733333333, "bike_id": "0b73c01d8529b840a5b411eac5c5a06b", "type": "electric_scooter", "is_reserved": 0, "lon": -77.03256416666666}, {"fusion_lat": 0.0, "name": "7a76d9f8bc69ba1b8ebfdc46ad350803", "is_disabled": 0, "rental_uris": {"android": "https://dc.lft.to/lastmile_qr_scan", "ios": "https://dc.lft.to/lastmile_qr_scan"}, "fusion_lon": 0.0, "lat": 38.883966666666666, "bike_id": "7a76d9f8bc69ba1b8ebfdc46ad350803", "type": "electric_scooter", "is_reserved": 0, "lon": -76.98617666666667}, {"fusion_lat": 0.0, "name": "c5274688fdfefbbafe30b2b5ab163bb6", "is_disabled": 0, "rental_uris": {"android": "https://dc.lft.to/lastmile_qr_scan", "ios": "https://dc.lft.to/lastmile_qr_scan"}, "fusion_lon": 0.0, "lat": 38.92437866666667, "bike_id": "c5274688fdfefbbafe30b2b5ab163bb6", "type": "electric_scooter", "is_reserved": 0, "lon": -77.03403933333334}, {"fusion_lat": 0.0, "name": "0879e5141a6fe9c2bc150684906023d5", "is_disabled": 0, "rental_uris": {"android": "https://dc.lft.to/lastmile_qr_scan", "ios": "https://dc.lft.to/lastmile_qr_scan"}, "fusion_lon": 0.0, "lat": 38.932595666666664, "bike_id": "0879e5141a6fe9c2bc150684906023d5", "type": "electric_scooter", "is_reserved": 0, "lon": -77.0661775}, {"fusion_lat": 0.0, "name": "de8c5f57c874691475dd7bae326cdb1b", "is_disabled": 0, "rental_uris": {"android": "https://dc.lft.to/lastmile_qr_scan", "ios": "https://dc.lft.to/lastmile_qr_scan"}, "fusion_lon": 0.0, "lat": 38.9170675, "bike_id": "de8c5f57c874691475dd7bae326cdb1b", "type": "electric_scooter", "is_reserved": 0, "lon": -77.04137483333334}, {"fusion_lat": 0.0, "name": "1b5305809e09adbcb98acb93ab7a55d7", "is_disabled": 0, "rental_uris": {"android": "https://dc.lft.to/lastmile_qr_scan", "ios": "https://dc.lft.to/lastmile_qr_scan"}, "fusion_lon": 0.0, "lat": 38.916548166666665, "bike_id": "1b5305809e09adbcb98acb93ab7a55d7", "type": "electric_scooter", "is_reserved": 0, "lon": -77.02391666666666}, {"fusion_lat": 0.0, "name": "9074f0b2b9bef4cdd6213f41f5f380cf", "is_disabled": 0, "rental_uris": {"android": "https://dc.lft.to/lastmile_qr_scan", "ios": "https://dc.lft.to/lastmile_qr_scan"}, "fusion_lon": 0.0, "lat": 38.923033, "bike_id": "9074f0b2b9bef4cdd6213f41f5f380cf", "type": "electric_scooter", "is_reserved": 0, "lon": -77.04280133333333}, {"fusion_lat": 0.0, "name": "0fb02e3c903a7a8f854f84f37836e06c", "is_disabled": 0, "rental_uris": {"android": "https://dc.lft.to/lastmile_qr_scan", "ios": "https://dc.lft.to/lastmile_qr_scan"}, "fusion_lon": 0.0, "lat": 38.905709, "bike_id": "0fb02e3c903a7a8f854f84f37836e06c", "type": "electric_scooter", "is_reserved": 0, "lon": -77.022024}, {"fusion_lat": 0.0, "name": "dad3f15f5ab393f91809121534780bc2", "is_disabled": 0, "rental_uris": {"android": "https://dc.lft.to/lastmile_qr_scan", "ios": "https://dc.lft.to/lastmile_qr_scan"}, "fusion_lon": 0.0, "lat": 38.887177666666666, "bike_id": "dad3f15f5ab393f91809121534780bc2", "type": "electric_scooter", "is_reserved": 0, "lon": -76.99687233333333}, {"fusion_lat": 0.0, "name": "530e72e6f66d6df1be69c31179347359", "is_disabled": 0, "rental_uris": {"android": "https://dc.lft.to/lastmile_qr_scan", "ios": "https://dc.lft.to/lastmile_qr_scan"}, "fusion_lon": 0.0, "lat": 38.89794216666667, "bike_id": "530e72e6f66d6df1be69c31179347359", "type": "electric_scooter", "is_reserved": 0, "lon": -77.02827133333334}, {"fusion_lat": 0.0, "name": "dfedb59afb5623925b7d020432cae1dc", "is_disabled": 0, "rental_uris": {"android": "https://dc.lft.to/lastmile_qr_scan", "ios": "https://dc.lft.to/lastmile_qr_scan"}, "fusion_lon": 0.0, "lat": 38.933979666666666, "bike_id": "dfedb59afb5623925b7d020432cae1dc", "type": "electric_scooter", "is_reserved": 0, "lon": -77.05744483333334}, {"fusion_lat": 0.0, "name": "a9eaa24a06d558a44790c825d890dc01", "is_disabled": 0, "rental_uris": {"android": "https://dc.lft.to/lastmile_qr_scan", "ios": "https://dc.lft.to/lastmile_qr_scan"}, "fusion_lon": 0.0, "lat": 38.908324666666665, "bike_id": "a9eaa24a06d558a44790c825d890dc01", "type": "electric_scooter", "is_reserved": 0, "lon": -76.98414933333333}, {"fusion_lat": 0.0, "name": "ee48e16426f2a878d33a9a19649c6a6d", "is_disabled": 0, "rental_uris": {"android": "https://dc.lft.to/lastmile_qr_scan", "ios": "https://dc.lft.to/lastmile_qr_scan"}, "fusion_lon": 0.0, "lat": 38.89671516666667, "bike_id": "ee48e16426f2a878d33a9a19649c6a6d", "type": "electric_scooter", "is_reserved": 0, "lon": -77.00514766666667}, {"fusion_lat": 0.0, "name": "9d76f027e7f92727d8a570847efbb17a", "is_disabled": 0, "rental_uris": {"android": "https://dc.lft.to/lastmile_qr_scan", "ios": "https://dc.lft.to/lastmile_qr_scan"}, "fusion_lon": 0.0, "lat": 38.885929, "bike_id": "9d76f027e7f92727d8a570847efbb17a", "type": "electric_scooter", "is_reserved": 0, "lon": -77.01717566666666}, {"fusion_lat": 0.0, "name": "a426f9610856d125c07432f48047762f", "is_disabled": 0, "rental_uris": {"android": "https://dc.lft.to/lastmile_qr_scan", "ios": "https://dc.lft.to/lastmile_qr_scan"}, "fusion_lon": 0.0, "lat": 38.9106095, "bike_id": "a426f9610856d125c07432f48047762f", "type": "electric_scooter", "is_reserved": 0, "lon": -77.04112666666667}, {"fusion_lat": 0.0, "name": "7e34c433b09b9f929270e4d9c4f2442f", "is_disabled": 0, "rental_uris": {"android": "https://dc.lft.to/lastmile_qr_scan", "ios": "https://dc.lft.to/lastmile_qr_scan"}, "fusion_lon": 0.0, "lat": 38.95056966666667, "bike_id": "7e34c433b09b9f929270e4d9c4f2442f", "type": "electric_scooter", "is_reserved": 0, "lon": -77.080225}, {"fusion_lat": 0.0, "name": "2acad37370f9ecce3f50aeeb8d76f78f", "is_disabled": 0, "rental_uris": {"android": "https://dc.lft.to/lastmile_qr_scan", "ios": "https://dc.lft.to/lastmile_qr_scan"}, "fusion_lon": 0.0, "lat": 38.8987535, "bike_id": "2acad37370f9ecce3f50aeeb8d76f78f", "type": "electric_scooter", "is_reserved": 0, "lon": -76.931843}, {"fusion_lat": 0.0, "name": "3a01e1441baca8b65d02ae7e47aa00c1", "is_disabled": 0, "rental_uris": {"android": "https://dc.lft.to/lastmile_qr_scan", "ios": "https://dc.lft.to/lastmile_qr_scan"}, "fusion_lon": 0.0, "lat": 38.90463, "bike_id": "3a01e1441baca8b65d02ae7e47aa00c1", "type": "electric_scooter", "is_reserved": 0, "lon": -77.0176655}, {"fusion_lat": 0.0, "name": "8f0ed20c48441f7733628b551d87f6ec", "is_disabled": 0, "rental_uris": {"android": "https://dc.lft.to/lastmile_qr_scan", "ios": "https://dc.lft.to/lastmile_qr_scan"}, "fusion_lon": 0.0, "lat": 38.886152333333335, "bike_id": "8f0ed20c48441f7733628b551d87f6ec", "type": "electric_scooter", "is_reserved": 0, "lon": -77.01558516666667}, {"fusion_lat": 0.0, "name": "87c4ac39c98a44b5a1599634781eb6c5", "is_disabled": 0, "rental_uris": {"android": "https://dc.lft.to/lastmile_qr_scan", "ios": "https://dc.lft.to/lastmile_qr_scan"}, "fusion_lon": 0.0, "lat": 38.877100666666664, "bike_id": "87c4ac39c98a44b5a1599634781eb6c5", "type": "electric_scooter", "is_reserved": 0, "lon": -76.99385166666667}, {"fusion_lat": 0.0, "name": "7556fb394e18f65b53029e466078f4dc", "is_disabled": 0, "rental_uris": {"android": "https://dc.lft.to/lastmile_qr_scan", "ios": "https://dc.lft.to/lastmile_qr_scan"}, "fusion_lon": 0.0, "lat": 38.927867666666664, "bike_id": "7556fb394e18f65b53029e466078f4dc", "type": "electric_scooter", "is_reserved": 0, "lon": -77.05278816666667}, {"fusion_lat": 0.0, "name": "42cc5f8d46e087982b73656f1043ef51", "is_disabled": 0, "rental_uris": {"android": "https://dc.lft.to/lastmile_qr_scan", "ios": "https://dc.lft.to/lastmile_qr_scan"}, "fusion_lon": 0.0, "lat": 38.925108333333334, "bike_id": "42cc5f8d46e087982b73656f1043ef51", "type": "electric_scooter", "is_reserved": 0, "lon": -77.05104683333333}, {"fusion_lat": 0.0, "name": "f007216a7cb064bd5426177539282b14", "is_disabled": 0, "rental_uris": {"android": "https://dc.lft.to/lastmile_qr_scan", "ios": "https://dc.lft.to/lastmile_qr_scan"}, "fusion_lon": 0.0, "lat": 38.912681166666665, "bike_id": "f007216a7cb064bd5426177539282b14", "type": "electric_scooter", "is_reserved": 0, "lon": -77.04349716666667}, {"fusion_lat": 0.0, "name": "981d85e5bb07004cb54d4cccb5d7d24c", "is_disabled": 0, "rental_uris": {"android": "https://dc.lft.to/lastmile_qr_scan", "ios": "https://dc.lft.to/lastmile_qr_scan"}, "fusion_lon": 0.0, "lat": 38.9170045, "bike_id": "981d85e5bb07004cb54d4cccb5d7d24c", "type": "electric_scooter", "is_reserved": 0, "lon": -77.042141}, {"fusion_lat": 0.0, "name": "8f7e41bd23a59341f1e7da428b1203e7", "is_disabled": 0, "rental_uris": {"android": "https://dc.lft.to/lastmile_qr_scan", "ios": "https://dc.lft.to/lastmile_qr_scan"}, "fusion_lon": 0.0, "lat": 38.896478, "bike_id": "8f7e41bd23a59341f1e7da428b1203e7", "type": "electric_scooter", "is_reserved": 0, "lon": -77.04350866666667}, {"fusion_lat": 0.0, "name": "3cbc474ef31c3fd4375092988d7327c5", "is_disabled": 0, "rental_uris": {"android": "https://dc.lft.to/lastmile_qr_scan", "ios": "https://dc.lft.to/lastmile_qr_scan"}, "fusion_lon": 0.0, "lat": 38.896084, "bike_id": "3cbc474ef31c3fd4375092988d7327c5", "type": "electric_scooter", "is_reserved": 0, "lon": -77.009269}, {"fusion_lat": 0.0, "name": "02a6c38825796932a23f8cd5396b32ca", "is_disabled": 0, "rental_uris": {"android": "https://dc.lft.to/lastmile_qr_scan", "ios": "https://dc.lft.to/lastmile_qr_scan"}, "fusion_lon": 0.0, "lat": 38.8865045, "bike_id": "02a6c38825796932a23f8cd5396b32ca", "type": "electric_scooter", "is_reserved": 0, "lon": -77.00102116666666}, {"fusion_lat": 0.0, "name": "22fbf8c6f2ea60c1554637f82be113b4", "is_disabled": 0, "rental_uris": {"android": "https://dc.lft.to/lastmile_qr_scan", "ios": "https://dc.lft.to/lastmile_qr_scan"}, "fusion_lon": 0.0, "lat": 38.919863666666664, "bike_id": "22fbf8c6f2ea60c1554637f82be113b4", "type": "electric_scooter", "is_reserved": 0, "lon": -77.04157783333333}, {"fusion_lat": 0.0, "name": "cb8e9e78d0eff639dcb3553c2d654c71", "is_disabled": 0, "rental_uris": {"android": "https://dc.lft.to/lastmile_qr_scan", "ios": "https://dc.lft.to/lastmile_qr_scan"}, "fusion_lon": 0.0, "lat": 38.91458033333333, "bike_id": "cb8e9e78d0eff639dcb3553c2d654c71", "type": "electric_scooter", "is_reserved": 0, "lon": -77.0021785}, {"fusion_lat": 0.0, "name": "59a0360e7ccbc33d9b751ef05196c54b", "is_disabled": 0, "rental_uris": {"android": "https://dc.lft.to/lastmile_qr_scan", "ios": "https://dc.lft.to/lastmile_qr_scan"}, "fusion_lon": 0.0, "lat": 38.92273766666667, "bike_id": "59a0360e7ccbc33d9b751ef05196c54b", "type": "electric_scooter", "is_reserved": 0, "lon": -76.991275}, {"fusion_lat": 0.0, "name": "59a7ed102774e43024032651cb5f154c", "is_disabled": 0, "rental_uris": {"android": "https://dc.lft.to/lastmile_qr_scan", "ios": "https://dc.lft.to/lastmile_qr_scan"}, "fusion_lon": 0.0, "lat": 38.90985166666667, "bike_id": "59a7ed102774e43024032651cb5f154c", "type": "electric_scooter", "is_reserved": 0, "lon": -77.03386116666667}, {"fusion_lat": 0.0, "name": "2ee24c743b00a249cf7fb457b49dbe80", "is_disabled": 0, "rental_uris": {"android": "https://dc.lft.to/lastmile_qr_scan", "ios": "https://dc.lft.to/lastmile_qr_scan"}, "fusion_lon": 0.0, "lat": 38.9203365, "bike_id": "2ee24c743b00a249cf7fb457b49dbe80", "type": "electric_scooter", "is_reserved": 0, "lon": -77.031459}, {"fusion_lat": 0.0, "name": "0beadc0f7da5359e358c04a93cdcbbf2", "is_disabled": 0, "rental_uris": {"android": "https://dc.lft.to/lastmile_qr_scan", "ios": "https://dc.lft.to/lastmile_qr_scan"}, "fusion_lon": 0.0, "lat": 38.8962015, "bike_id": "0beadc0f7da5359e358c04a93cdcbbf2", "type": "electric_scooter", "is_reserved": 0, "lon": -77.03223316666667}, {"fusion_lat": 0.0, "name": "bee348fe17365f983e4e4506357b01ca", "is_disabled": 0, "rental_uris": {"android": "https://dc.lft.to/lastmile_qr_scan", "ios": "https://dc.lft.to/lastmile_qr_scan"}, "fusion_lon": 0.0, "lat": 38.897505333333335, "bike_id": "bee348fe17365f983e4e4506357b01ca", "type": "electric_scooter", "is_reserved": 0, "lon": -77.00432166666667}, {"fusion_lat": 0.0, "name": "67cc2694b5c1eee2657aecf2d7432370", "is_disabled": 0, "rental_uris": {"android": "https://dc.lft.to/lastmile_qr_scan", "ios": "https://dc.lft.to/lastmile_qr_scan"}, "fusion_lon": 0.0, "lat": 38.86404, "bike_id": "67cc2694b5c1eee2657aecf2d7432370", "type": "electric_scooter", "is_reserved": 0, "lon": -76.974451}, {"fusion_lat": 0.0, "name": "5d829be72fc589477ae9cb8f1ddafc58", "is_disabled": 0, "rental_uris": {"android": "https://dc.lft.to/lastmile_qr_scan", "ios": "https://dc.lft.to/lastmile_qr_scan"}, "fusion_lon": 0.0, "lat": 38.897928666666665, "bike_id": "5d829be72fc589477ae9cb8f1ddafc58", "type": "electric_scooter", "is_reserved": 0, "lon": -76.93113583333333}, {"fusion_lat": 0.0, "name": "f900a3ea366646e8a8e5090ba21aa912", "is_disabled": 0, "rental_uris": {"android": "https://dc.lft.to/lastmile_qr_scan", "ios": "https://dc.lft.to/lastmile_qr_scan"}, "fusion_lon": 0.0, "lat": 38.949889, "bike_id": "f900a3ea366646e8a8e5090ba21aa912", "type": "electric_scooter", "is_reserved": 0, "lon": -77.066946}, {"fusion_lat": 0.0, "name": "4b8fc785754a88f21b3e24a6eab8b96d", "is_disabled": 0, "rental_uris": {"android": "https://dc.lft.to/lastmile_qr_scan", "ios": "https://dc.lft.to/lastmile_qr_scan"}, "fusion_lon": 0.0, "lat": 38.862424, "bike_id": "4b8fc785754a88f21b3e24a6eab8b96d", "type": "electric_scooter", "is_reserved": 0, "lon": -76.99497683333334}, {"fusion_lat": 0.0, "name": "005727ba6c5be40012d2f5075fe4a65a", "is_disabled": 0, "rental_uris": {"android": "https://dc.lft.to/lastmile_qr_scan", "ios": "https://dc.lft.to/lastmile_qr_scan"}, "fusion_lon": 0.0, "lat": 38.85354666666667, "bike_id": "005727ba6c5be40012d2f5075fe4a65a", "type": "electric_bike", "is_reserved": 0, "lon": -77.13452383333333}, {"fusion_lat": 0.0, "name": "59b4ebfda123427b361d3b0e30124527", "is_disabled": 0, "rental_uris": {"android": "https://dc.lft.to/lastmile_qr_scan", "ios": "https://dc.lft.to/lastmile_qr_scan"}, "fusion_lon": 0.0, "lat": 38.885422, "bike_id": "59b4ebfda123427b361d3b0e30124527", "type": "electric_scooter", "is_reserved": 0, "lon": -77.00051616666667}, {"fusion_lat": 0.0, "name": "01bf3b62c973c35c1fd52a402c9badc1", "is_disabled": 0, "rental_uris": {"android": "https://dc.lft.to/lastmile_qr_scan", "ios": "https://dc.lft.to/lastmile_qr_scan"}, "fusion_lon": 0.0, "lat": 38.9045105, "bike_id": "01bf3b62c973c35c1fd52a402c9badc1", "type": "electric_scooter", "is_reserved": 0, "lon": -77.0269775}, {"fusion_lat": 0.0, "name": "c05ae8ba8f2863cc15d5792f136cc358", "is_disabled": 0, "rental_uris": {"android": "https://dc.lft.to/lastmile_qr_scan", "ios": "https://dc.lft.to/lastmile_qr_scan"}, "fusion_lon": 0.0, "lat": 38.9111235, "bike_id": "c05ae8ba8f2863cc15d5792f136cc358", "type": "electric_scooter", "is_reserved": 0, "lon": -77.08134716666666}, {"fusion_lat": 0.0, "name": "75743429e1485adbb03701454806fc4c", "is_disabled": 0, "rental_uris": {"android": "https://dc.lft.to/lastmile_qr_scan", "ios": "https://dc.lft.to/lastmile_qr_scan"}, "fusion_lon": 0.0, "lat": 38.93693966666667, "bike_id": "75743429e1485adbb03701454806fc4c", "type": "electric_scooter", "is_reserved": 0, "lon": -77.055959}, {"fusion_lat": 0.0, "name": "b6bedf5ab227be78b3084a2a35e416e3", "is_disabled": 0, "rental_uris": {"android": "https://dc.lft.to/lastmile_qr_scan", "ios": "https://dc.lft.to/lastmile_qr_scan"}, "fusion_lon": 0.0, "lat": 38.8280605, "bike_id": "b6bedf5ab227be78b3084a2a35e416e3", "type": "electric_bike", "is_reserved": 0, "lon": -77.1249385}, {"fusion_lat": 0.0, "name": "6d7aee618a9d15309b76a1655447fcc4", "is_disabled": 0, "rental_uris": {"android": "https://dc.lft.to/lastmile_qr_scan", "ios": "https://dc.lft.to/lastmile_qr_scan"}, "fusion_lon": 0.0, "lat": 38.931634833333334, "bike_id": "6d7aee618a9d15309b76a1655447fcc4", "type": "electric_scooter", "is_reserved": 0, "lon": -77.028511}, {"fusion_lat": 0.0, "name": "f043b9b5a0d125c194e47d0948a8c85e", "is_disabled": 0, "rental_uris": {"android": "https://dc.lft.to/lastmile_qr_scan", "ios": "https://dc.lft.to/lastmile_qr_scan"}, "fusion_lon": 0.0, "lat": 38.88735766666667, "bike_id": "f043b9b5a0d125c194e47d0948a8c85e", "type": "electric_scooter", "is_reserved": 0, "lon": -77.00334916666667}, {"fusion_lat": 0.0, "name": "3b20becbc6ad320390f36ee6a6b908f2", "is_disabled": 0, "rental_uris": {"android": "https://dc.lft.to/lastmile_qr_scan", "ios": "https://dc.lft.to/lastmile_qr_scan"}, "fusion_lon": 0.0, "lat": 38.9063525, "bike_id": "3b20becbc6ad320390f36ee6a6b908f2", "type": "electric_scooter", "is_reserved": 0, "lon": -77.048728}, {"fusion_lat": 0.0, "name": "ab9caa30bc36004ab145c706d52007e5", "is_disabled": 0, "rental_uris": {"android": "https://dc.lft.to/lastmile_qr_scan", "ios": "https://dc.lft.to/lastmile_qr_scan"}, "fusion_lon": 0.0, "lat": 38.897112, "bike_id": "ab9caa30bc36004ab145c706d52007e5", "type": "electric_scooter", "is_reserved": 0, "lon": -77.0233205}, {"fusion_lat": 0.0, "name": "e55d887cb6c37165f59c979bac9192d5", "is_disabled": 0, "rental_uris": {"android": "https://dc.lft.to/lastmile_qr_scan", "ios": "https://dc.lft.to/lastmile_qr_scan"}, "fusion_lon": 0.0, "lat": 38.9095755, "bike_id": "e55d887cb6c37165f59c979bac9192d5", "type": "electric_bike", "is_reserved": 0, "lon": -76.98437016666666}, {"fusion_lat": 0.0, "name": "aa98beb86d5e1549b2357656791912ed", "is_disabled": 0, "rental_uris": {"android": "https://dc.lft.to/lastmile_qr_scan", "ios": "https://dc.lft.to/lastmile_qr_scan"}, "fusion_lon": 0.0, "lat": 38.93036433333333, "bike_id": "aa98beb86d5e1549b2357656791912ed", "type": "electric_scooter", "is_reserved": 0, "lon": -77.02962016666666}, {"fusion_lat": 0.0, "name": "8561e0f1d3fe8ba92c41d8169d387db9", "is_disabled": 0, "rental_uris": {"android": "https://dc.lft.to/lastmile_qr_scan", "ios": "https://dc.lft.to/lastmile_qr_scan"}, "fusion_lon": 0.0, "lat": 38.9115315, "bike_id": "8561e0f1d3fe8ba92c41d8169d387db9", "type": "electric_scooter", "is_reserved": 0, "lon": -77.032086}, {"fusion_lat": 0.0, "name": "b9fafd353a4cb6ad50cfdfa048343233", "is_disabled": 0, "rental_uris": {"android": "https://dc.lft.to/lastmile_qr_scan", "ios": "https://dc.lft.to/lastmile_qr_scan"}, "fusion_lon": 0.0, "lat": 38.8662905, "bike_id": "b9fafd353a4cb6ad50cfdfa048343233", "type": "electric_scooter", "is_reserved": 0, "lon": -76.98711483333334}, {"fusion_lat": 0.0, "name": "20817c45354cf52e8ea849263d5e5eb2", "is_disabled": 0, "rental_uris": {"android": "https://dc.lft.to/lastmile_qr_scan", "ios": "https://dc.lft.to/lastmile_qr_scan"}, "fusion_lon": 0.0, "lat": 38.89707683333334, "bike_id": "20817c45354cf52e8ea849263d5e5eb2", "type": "electric_scooter", "is_reserved": 0, "lon": -77.02342283333333}, {"fusion_lat": 0.0, "name": "dfaf9fc8a5e120b52ded940d0ab7d907", "is_disabled": 0, "rental_uris": {"android": "https://dc.lft.to/lastmile_qr_scan", "ios": "https://dc.lft.to/lastmile_qr_scan"}, "fusion_lon": 0.0, "lat": 38.922422166666664, "bike_id": "dfaf9fc8a5e120b52ded940d0ab7d907", "type": "electric_scooter", "is_reserved": 0, "lon": -77.0299045}, {"fusion_lat": 0.0, "name": "158b07a32bc56c988c96a9197968b8e7", "is_disabled": 0, "rental_uris": {"android": "https://dc.lft.to/lastmile_qr_scan", "ios": "https://dc.lft.to/lastmile_qr_scan"}, "fusion_lon": 0.0, "lat": 38.9026595, "bike_id": "158b07a32bc56c988c96a9197968b8e7", "type": "electric_scooter", "is_reserved": 0, "lon": -77.0531685}, {"fusion_lat": 0.0, "name": "3e2a8fe4fa0889d0cca4e52489b445e4", "is_disabled": 0, "rental_uris": {"android": "https://dc.lft.to/lastmile_qr_scan", "ios": "https://dc.lft.to/lastmile_qr_scan"}, "fusion_lon": 0.0, "lat": 38.86032083333333, "bike_id": "3e2a8fe4fa0889d0cca4e52489b445e4", "type": "electric_scooter", "is_reserved": 0, "lon": -76.98370533333333}, {"fusion_lat": 0.0, "name": "bc15b1fbd169d4c05985c9aee52027df", "is_disabled": 0, "rental_uris": {"android": "https://dc.lft.to/lastmile_qr_scan", "ios": "https://dc.lft.to/lastmile_qr_scan"}, "fusion_lon": 0.0, "lat": 38.926880833333335, "bike_id": "bc15b1fbd169d4c05985c9aee52027df", "type": "electric_scooter", "is_reserved": 0, "lon": -77.02180733333333}, {"fusion_lat": 0.0, "name": "2dd71dc4e169e8a57b7f31515773910c", "is_disabled": 0, "rental_uris": {"android": "https://dc.lft.to/lastmile_qr_scan", "ios": "https://dc.lft.to/lastmile_qr_scan"}, "fusion_lon": 0.0, "lat": 38.932630333333336, "bike_id": "2dd71dc4e169e8a57b7f31515773910c", "type": "electric_scooter", "is_reserved": 0, "lon": -77.032668}, {"fusion_lat": 0.0, "name": "bfc28b0ba1450d6cfa2b95687d3a22d0", "is_disabled": 0, "rental_uris": {"android": "https://dc.lft.to/lastmile_qr_scan", "ios": "https://dc.lft.to/lastmile_qr_scan"}, "fusion_lon": 0.0, "lat": 38.9788425, "bike_id": "bfc28b0ba1450d6cfa2b95687d3a22d0", "type": "electric_bike", "is_reserved": 0, "lon": -77.0602315}, {"fusion_lat": 0.0, "name": "ac93b1c71185456367c2ef5df8734415", "is_disabled": 0, "rental_uris": {"android": "https://dc.lft.to/lastmile_qr_scan", "ios": "https://dc.lft.to/lastmile_qr_scan"}, "fusion_lon": 0.0, "lat": 38.911202, "bike_id": "ac93b1c71185456367c2ef5df8734415", "type": "electric_scooter", "is_reserved": 0, "lon": -77.0421965}, {"fusion_lat": 0.0, "name": "1acf3338d6cdacf2304bace1185e50a5", "is_disabled": 0, "rental_uris": {"android": "https://dc.lft.to/lastmile_qr_scan", "ios": "https://dc.lft.to/lastmile_qr_scan"}, "fusion_lon": 0.0, "lat": 38.873708666666666, "bike_id": "1acf3338d6cdacf2304bace1185e50a5", "type": "electric_scooter", "is_reserved": 0, "lon": -77.00059833333333}, {"fusion_lat": 0.0, "name": "f239dc7b2fb37210dbab172c2577ef87", "is_disabled": 0, "rental_uris": {"android": "https://dc.lft.to/lastmile_qr_scan", "ios": "https://dc.lft.to/lastmile_qr_scan"}, "fusion_lon": 0.0, "lat": 38.922072666666665, "bike_id": "f239dc7b2fb37210dbab172c2577ef87", "type": "electric_scooter", "is_reserved": 0, "lon": -77.04250533333334}, {"fusion_lat": 0.0, "name": "6fe8fccd18744f3762f16ed42e260255", "is_disabled": 0, "rental_uris": {"android": "https://dc.lft.to/lastmile_qr_scan", "ios": "https://dc.lft.to/lastmile_qr_scan"}, "fusion_lon": 0.0, "lat": 38.91873416666667, "bike_id": "6fe8fccd18744f3762f16ed42e260255", "type": "electric_scooter", "is_reserved": 0, "lon": -77.04464533333334}, {"fusion_lat": 0.0, "name": "1e2bf174ec01cdb5857c460de30f2297", "is_disabled": 0, "rental_uris": {"android": "https://dc.lft.to/lastmile_qr_scan", "ios": "https://dc.lft.to/lastmile_qr_scan"}, "fusion_lon": 0.0, "lat": 38.8737375, "bike_id": "1e2bf174ec01cdb5857c460de30f2297", "type": "electric_scooter", "is_reserved": 0, "lon": -77.00055516666667}, {"fusion_lat": 0.0, "name": "f89f522d182fae83dc75358ba713f18d", "is_disabled": 0, "rental_uris": {"android": "https://dc.lft.to/lastmile_qr_scan", "ios": "https://dc.lft.to/lastmile_qr_scan"}, "fusion_lon": 0.0, "lat": 38.8921885, "bike_id": "f89f522d182fae83dc75358ba713f18d", "type": "electric_scooter", "is_reserved": 0, "lon": -77.03985316666666}, {"fusion_lat": 0.0, "name": "d62665fbf3b7e642ddcc052e89610b91", "is_disabled": 0, "rental_uris": {"android": "https://dc.lft.to/lastmile_qr_scan", "ios": "https://dc.lft.to/lastmile_qr_scan"}, "fusion_lon": 0.0, "lat": 38.886055166666665, "bike_id": "d62665fbf3b7e642ddcc052e89610b91", "type": "electric_scooter", "is_reserved": 0, "lon": -77.01979133333333}, {"fusion_lat": 0.0, "name": "5f1eeb808086ed1d29c408827a20bfd9", "is_disabled": 0, "rental_uris": {"android": "https://dc.lft.to/lastmile_qr_scan", "ios": "https://dc.lft.to/lastmile_qr_scan"}, "fusion_lon": 0.0, "lat": 38.887318666666665, "bike_id": "5f1eeb808086ed1d29c408827a20bfd9", "type": "electric_scooter", "is_reserved": 0, "lon": -77.0153015}, {"fusion_lat": 0.0, "name": "e416c73581d487b30c8ce744eb8f3741", "is_disabled": 0, "rental_uris": {"android": "https://dc.lft.to/lastmile_qr_scan", "ios": "https://dc.lft.to/lastmile_qr_scan"}, "fusion_lon": 0.0, "lat": 38.87452416666667, "bike_id": "e416c73581d487b30c8ce744eb8f3741", "type": "electric_scooter", "is_reserved": 0, "lon": -77.0188525}, {"fusion_lat": 0.0, "name": "dcf73311dbd97764dd3c5333251fa2a5", "is_disabled": 0, "rental_uris": {"android": "https://dc.lft.to/lastmile_qr_scan", "ios": "https://dc.lft.to/lastmile_qr_scan"}, "fusion_lon": 0.0, "lat": 38.91775116666667, "bike_id": "dcf73311dbd97764dd3c5333251fa2a5", "type": "electric_scooter", "is_reserved": 0, "lon": -77.04766983333333}, {"fusion_lat": 0.0, "name": "216a04bc4003d87e19e73f64d44ab456", "is_disabled": 0, "rental_uris": {"android": "https://dc.lft.to/lastmile_qr_scan", "ios": "https://dc.lft.to/lastmile_qr_scan"}, "fusion_lon": 0.0, "lat": 38.898957833333334, "bike_id": "216a04bc4003d87e19e73f64d44ab456", "type": "electric_scooter", "is_reserved": 0, "lon": -77.00345}, {"fusion_lat": 0.0, "name": "dd138afb74e6dcec19db4dae8318f11d", "is_disabled": 0, "rental_uris": {"android": "https://dc.lft.to/lastmile_qr_scan", "ios": "https://dc.lft.to/lastmile_qr_scan"}, "fusion_lon": 0.0, "lat": 38.90131616666667, "bike_id": "dd138afb74e6dcec19db4dae8318f11d", "type": "electric_scooter", "is_reserved": 0, "lon": -76.986553}, {"fusion_lat": 0.0, "name": "82a75e4757538299c74179e6bf8cecb1", "is_disabled": 0, "rental_uris": {"android": "https://dc.lft.to/lastmile_qr_scan", "ios": "https://dc.lft.to/lastmile_qr_scan"}, "fusion_lon": 0.0, "lat": 38.8967285, "bike_id": "82a75e4757538299c74179e6bf8cecb1", "type": "electric_scooter", "is_reserved": 0, "lon": -77.03237783333333}, {"fusion_lat": 0.0, "name": "982278489b1c4b68e244a4cb97e8c463", "is_disabled": 0, "rental_uris": {"android": "https://dc.lft.to/lastmile_qr_scan", "ios": "https://dc.lft.to/lastmile_qr_scan"}, "fusion_lon": 0.0, "lat": 38.904487333333336, "bike_id": "982278489b1c4b68e244a4cb97e8c463", "type": "electric_scooter", "is_reserved": 0, "lon": -77.028861}, {"fusion_lat": 0.0, "name": "0d79d980f74d78102eabe4f6504fda0e", "is_disabled": 0, "rental_uris": {"android": "https://dc.lft.to/lastmile_qr_scan", "ios": "https://dc.lft.to/lastmile_qr_scan"}, "fusion_lon": 0.0, "lat": 38.832342, "bike_id": "0d79d980f74d78102eabe4f6504fda0e", "type": "electric_bike", "is_reserved": 0, "lon": -76.94621383333333}, {"fusion_lat": 0.0, "name": "e90271f78ba37f4ea8496cb8e8b0f144", "is_disabled": 0, "rental_uris": {"android": "https://dc.lft.to/lastmile_qr_scan", "ios": "https://dc.lft.to/lastmile_qr_scan"}, "fusion_lon": 0.0, "lat": 38.931441, "bike_id": "e90271f78ba37f4ea8496cb8e8b0f144", "type": "electric_scooter", "is_reserved": 0, "lon": -77.02986433333334}, {"fusion_lat": 0.0, "name": "167c45b4405baf243403a6ec6ed6a218", "is_disabled": 0, "rental_uris": {"android": "https://dc.lft.to/lastmile_qr_scan", "ios": "https://dc.lft.to/lastmile_qr_scan"}, "fusion_lon": 0.0, "lat": 38.91487433333333, "bike_id": "167c45b4405baf243403a6ec6ed6a218", "type": "electric_scooter", "is_reserved": 0, "lon": -77.03728733333334}, {"fusion_lat": 0.0, "name": "931db6ed9345926cdf939d827354b583", "is_disabled": 0, "rental_uris": {"android": "https://dc.lft.to/lastmile_qr_scan", "ios": "https://dc.lft.to/lastmile_qr_scan"}, "fusion_lon": 0.0, "lat": 38.88744966666667, "bike_id": "931db6ed9345926cdf939d827354b583", "type": "electric_scooter", "is_reserved": 0, "lon": -77.02572583333334}, {"fusion_lat": 0.0, "name": "45b75d21ab970d8a37910062c32f5c04", "is_disabled": 0, "rental_uris": {"android": "https://dc.lft.to/lastmile_qr_scan", "ios": "https://dc.lft.to/lastmile_qr_scan"}, "fusion_lon": 0.0, "lat": 38.83937266666667, "bike_id": "45b75d21ab970d8a37910062c32f5c04", "type": "electric_bike", "is_reserved": 0, "lon": -77.07901183333334}, {"fusion_lat": 0.0, "name": "77cd6cca921ab7ef2d0ca4e69f590fac", "is_disabled": 0, "rental_uris": {"android": "https://dc.lft.to/lastmile_qr_scan", "ios": "https://dc.lft.to/lastmile_qr_scan"}, "fusion_lon": 0.0, "lat": 38.89611416666666, "bike_id": "77cd6cca921ab7ef2d0ca4e69f590fac", "type": "electric_scooter", "is_reserved": 0, "lon": -76.94812166666667}, {"fusion_lat": 0.0, "name": "dc9bd74c8a9979db554ae1f0cb3dc525", "is_disabled": 0, "rental_uris": {"android": "https://dc.lft.to/lastmile_qr_scan", "ios": "https://dc.lft.to/lastmile_qr_scan"}, "fusion_lon": 0.0, "lat": 38.91707683333333, "bike_id": "dc9bd74c8a9979db554ae1f0cb3dc525", "type": "electric_scooter", "is_reserved": 0, "lon": -77.031076}, {"fusion_lat": 0.0, "name": "6f9947f80bff48672fcb96f1fbba9a10", "is_disabled": 0, "rental_uris": {"android": "https://dc.lft.to/lastmile_qr_scan", "ios": "https://dc.lft.to/lastmile_qr_scan"}, "fusion_lon": 0.0, "lat": 38.90832916666667, "bike_id": "6f9947f80bff48672fcb96f1fbba9a10", "type": "electric_scooter", "is_reserved": 0, "lon": -77.038395}, {"fusion_lat": 0.0, "name": "bbe22d763b0b2a76ed65ec3f1bf0ed22", "is_disabled": 0, "rental_uris": {"android": "https://dc.lft.to/lastmile_qr_scan", "ios": "https://dc.lft.to/lastmile_qr_scan"}, "fusion_lon": 0.0, "lat": 38.9208845, "bike_id": "bbe22d763b0b2a76ed65ec3f1bf0ed22", "type": "electric_scooter", "is_reserved": 0, "lon": -77.02410583333334}, {"fusion_lat": 0.0, "name": "aa5664d815e749c048803e0ef7d996c9", "is_disabled": 0, "rental_uris": {"android": "https://dc.lft.to/lastmile_qr_scan", "ios": "https://dc.lft.to/lastmile_qr_scan"}, "fusion_lon": 0.0, "lat": 38.90568733333333, "bike_id": "aa5664d815e749c048803e0ef7d996c9", "type": "electric_scooter", "is_reserved": 0, "lon": -77.04155566666667}, {"fusion_lat": 0.0, "name": "1bd023c6a730e0b64bffca242560628b", "is_disabled": 0, "rental_uris": {"android": "https://dc.lft.to/lastmile_qr_scan", "ios": "https://dc.lft.to/lastmile_qr_scan"}, "fusion_lon": 0.0, "lat": 38.88255983333333, "bike_id": "1bd023c6a730e0b64bffca242560628b", "type": "electric_scooter", "is_reserved": 0, "lon": -76.99487916666666}, {"fusion_lat": 0.0, "name": "1d889bcbb32412817a5b17ce7a835a31", "is_disabled": 0, "rental_uris": {"android": "https://dc.lft.to/lastmile_qr_scan", "ios": "https://dc.lft.to/lastmile_qr_scan"}, "fusion_lon": 0.0, "lat": 38.91263383333333, "bike_id": "1d889bcbb32412817a5b17ce7a835a31", "type": "electric_scooter", "is_reserved": 0, "lon": -77.04735716666667}, {"fusion_lat": 0.0, "name": "4d929f78609f79462709222de0a05981", "is_disabled": 0, "rental_uris": {"android": "https://dc.lft.to/lastmile_qr_scan", "ios": "https://dc.lft.to/lastmile_qr_scan"}, "fusion_lon": 0.0, "lat": 38.9100155, "bike_id": "4d929f78609f79462709222de0a05981", "type": "electric_scooter", "is_reserved": 0, "lon": -77.04477066666666}, {"fusion_lat": 0.0, "name": "df0fea84a59e17ad8a821a319bf3c651", "is_disabled": 0, "rental_uris": {"android": "https://dc.lft.to/lastmile_qr_scan", "ios": "https://dc.lft.to/lastmile_qr_scan"}, "fusion_lon": 0.0, "lat": 38.865562, "bike_id": "df0fea84a59e17ad8a821a319bf3c651", "type": "electric_scooter", "is_reserved": 0, "lon": -76.98348816666666}, {"fusion_lat": 0.0, "name": "a96585cce04f42f1ddda5f1f1b2ea9aa", "is_disabled": 0, "rental_uris": {"android": "https://dc.lft.to/lastmile_qr_scan", "ios": "https://dc.lft.to/lastmile_qr_scan"}, "fusion_lon": 0.0, "lat": 38.86332516666667, "bike_id": "a96585cce04f42f1ddda5f1f1b2ea9aa", "type": "electric_bike", "is_reserved": 0, "lon": -76.9873075}, {"fusion_lat": 0.0, "name": "c74afdb1e303a1bd719bedf940bf5174", "is_disabled": 0, "rental_uris": {"android": "https://dc.lft.to/lastmile_qr_scan", "ios": "https://dc.lft.to/lastmile_qr_scan"}, "fusion_lon": 0.0, "lat": 38.87952383333333, "bike_id": "c74afdb1e303a1bd719bedf940bf5174", "type": "electric_scooter", "is_reserved": 0, "lon": -76.9900875}, {"fusion_lat": 0.0, "name": "beb26a5277a57e3359a168c4c4b875e9", "is_disabled": 0, "rental_uris": {"android": "https://dc.lft.to/lastmile_qr_scan", "ios": "https://dc.lft.to/lastmile_qr_scan"}, "fusion_lon": 0.0, "lat": 38.883218666666664, "bike_id": "beb26a5277a57e3359a168c4c4b875e9", "type": "electric_scooter", "is_reserved": 0, "lon": -77.01767}, {"fusion_lat": 0.0, "name": "9e374cb5a00ea48535c58483a5bfca9f", "is_disabled": 0, "rental_uris": {"android": "https://dc.lft.to/lastmile_qr_scan", "ios": "https://dc.lft.to/lastmile_qr_scan"}, "fusion_lon": 0.0, "lat": 38.896103, "bike_id": "9e374cb5a00ea48535c58483a5bfca9f", "type": "electric_scooter", "is_reserved": 0, "lon": -76.94815166666666}, {"fusion_lat": 0.0, "name": "1ed755e3a285d6e5cbdec1998d3b42f9", "is_disabled": 0, "rental_uris": {"android": "https://dc.lft.to/lastmile_qr_scan", "ios": "https://dc.lft.to/lastmile_qr_scan"}, "fusion_lon": 0.0, "lat": 38.890065, "bike_id": "1ed755e3a285d6e5cbdec1998d3b42f9", "type": "electric_scooter", "is_reserved": 0, "lon": -76.93744016666666}, {"fusion_lat": 0.0, "name": "fb85db7cd3a4811e0a3af7be126d1c1b", "is_disabled": 0, "rental_uris": {"android": "https://dc.lft.to/lastmile_qr_scan", "ios": "https://dc.lft.to/lastmile_qr_scan"}, "fusion_lon": 0.0, "lat": 38.80449566666667, "bike_id": "fb85db7cd3a4811e0a3af7be126d1c1b", "type": "electric_bike", "is_reserved": 0, "lon": -77.05386766666666}, {"fusion_lat": 0.0, "name": "4451fef2a7c2e8f07db8465a4e15f5aa", "is_disabled": 0, "rental_uris": {"android": "https://dc.lft.to/lastmile_qr_scan", "ios": "https://dc.lft.to/lastmile_qr_scan"}, "fusion_lon": 0.0, "lat": 38.921005, "bike_id": "4451fef2a7c2e8f07db8465a4e15f5aa", "type": "electric_scooter", "is_reserved": 0, "lon": -76.99466016666666}, {"fusion_lat": 0.0, "name": "316b556ff82cf096ee87434639550e8d", "is_disabled": 0, "rental_uris": {"android": "https://dc.lft.to/lastmile_qr_scan", "ios": "https://dc.lft.to/lastmile_qr_scan"}, "fusion_lon": 0.0, "lat": 38.92751666666667, "bike_id": "316b556ff82cf096ee87434639550e8d", "type": "electric_scooter", "is_reserved": 0, "lon": -77.03430583333333}, {"fusion_lat": 0.0, "name": "ad587e3d60b8963284634e857b43aec6", "is_disabled": 0, "rental_uris": {"android": "https://dc.lft.to/lastmile_qr_scan", "ios": "https://dc.lft.to/lastmile_qr_scan"}, "fusion_lon": 0.0, "lat": 38.91467466666667, "bike_id": "ad587e3d60b8963284634e857b43aec6", "type": "electric_scooter", "is_reserved": 0, "lon": -77.0454635}, {"fusion_lat": 0.0, "name": "f9871cb8a95ef8d163abfb824507880a", "is_disabled": 0, "rental_uris": {"android": "https://dc.lft.to/lastmile_qr_scan", "ios": "https://dc.lft.to/lastmile_qr_scan"}, "fusion_lon": 0.0, "lat": 38.89830333333333, "bike_id": "f9871cb8a95ef8d163abfb824507880a", "type": "electric_scooter", "is_reserved": 0, "lon": -76.94629516666667}, {"fusion_lat": 0.0, "name": "3ea86337acc8ad002a6a738a7a0ffcf6", "is_disabled": 0, "rental_uris": {"android": "https://dc.lft.to/lastmile_qr_scan", "ios": "https://dc.lft.to/lastmile_qr_scan"}, "fusion_lon": 0.0, "lat": 38.904103166666665, "bike_id": "3ea86337acc8ad002a6a738a7a0ffcf6", "type": "electric_scooter", "is_reserved": 0, "lon": -76.97328333333333}, {"fusion_lat": 0.0, "name": "de0f107fab548782fa84551d53d4654b", "is_disabled": 0, "rental_uris": {"android": "https://dc.lft.to/lastmile_qr_scan", "ios": "https://dc.lft.to/lastmile_qr_scan"}, "fusion_lon": 0.0, "lat": 38.90033666666667, "bike_id": "de0f107fab548782fa84551d53d4654b", "type": "electric_scooter", "is_reserved": 0, "lon": -77.00199883333333}, {"fusion_lat": 0.0, "name": "4098adf8662e04ac2d3446ac3d9d3cd8", "is_disabled": 0, "rental_uris": {"android": "https://dc.lft.to/lastmile_qr_scan", "ios": "https://dc.lft.to/lastmile_qr_scan"}, "fusion_lon": 0.0, "lat": 38.887108166666664, "bike_id": "4098adf8662e04ac2d3446ac3d9d3cd8", "type": "electric_scooter", "is_reserved": 0, "lon": -77.00246583333333}, {"fusion_lat": 0.0, "name": "bc543b0eea2b768372c0bfd91bf999cf", "is_disabled": 0, "rental_uris": {"android": "https://dc.lft.to/lastmile_qr_scan", "ios": "https://dc.lft.to/lastmile_qr_scan"}, "fusion_lon": 0.0, "lat": 38.821765166666665, "bike_id": "bc543b0eea2b768372c0bfd91bf999cf", "type": "electric_bike", "is_reserved": 0, "lon": -76.99508333333333}, {"fusion_lat": 0.0, "name": "4475be31d20cac3d386dc4342dcfbed8", "is_disabled": 0, "rental_uris": {"android": "https://dc.lft.to/lastmile_qr_scan", "ios": "https://dc.lft.to/lastmile_qr_scan"}, "fusion_lon": 0.0, "lat": 38.896807833333334, "bike_id": "4475be31d20cac3d386dc4342dcfbed8", "type": "electric_scooter", "is_reserved": 0, "lon": -77.03000616666667}, {"fusion_lat": 0.0, "name": "7263c3d044a58d30eca6660b2d382cc0", "is_disabled": 0, "rental_uris": {"android": "https://dc.lft.to/lastmile_qr_scan", "ios": "https://dc.lft.to/lastmile_qr_scan"}, "fusion_lon": 0.0, "lat": 38.918742, "bike_id": "7263c3d044a58d30eca6660b2d382cc0", "type": "electric_scooter", "is_reserved": 0, "lon": -77.03495883333333}, {"fusion_lat": 0.0, "name": "3ced7adef720dc036d0fb5b891213faa", "is_disabled": 0, "rental_uris": {"android": "https://dc.lft.to/lastmile_qr_scan", "ios": "https://dc.lft.to/lastmile_qr_scan"}, "fusion_lon": 0.0, "lat": 38.8969525, "bike_id": "3ced7adef720dc036d0fb5b891213faa", "type": "electric_bike", "is_reserved": 0, "lon": -77.02429266666667}, {"fusion_lat": 0.0, "name": "96a9504178c4f546d7890dbf935548f5", "is_disabled": 0, "rental_uris": {"android": "https://dc.lft.to/lastmile_qr_scan", "ios": "https://dc.lft.to/lastmile_qr_scan"}, "fusion_lon": 0.0, "lat": 38.8964985, "bike_id": "96a9504178c4f546d7890dbf935548f5", "type": "electric_scooter", "is_reserved": 0, "lon": -77.05102733333334}, {"fusion_lat": 0.0, "name": "b0f48d0775c0cf0e1d397cc660865992", "is_disabled": 0, "rental_uris": {"android": "https://dc.lft.to/lastmile_qr_scan", "ios": "https://dc.lft.to/lastmile_qr_scan"}, "fusion_lon": 0.0, "lat": 38.919853333333336, "bike_id": "b0f48d0775c0cf0e1d397cc660865992", "type": "electric_scooter", "is_reserved": 0, "lon": -77.041867}, {"fusion_lat": 0.0, "name": "56ed104ef5b1865cc67596fe6025a4ee", "is_disabled": 0, "rental_uris": {"android": "https://dc.lft.to/lastmile_qr_scan", "ios": "https://dc.lft.to/lastmile_qr_scan"}, "fusion_lon": 0.0, "lat": 38.877506333333336, "bike_id": "56ed104ef5b1865cc67596fe6025a4ee", "type": "electric_scooter", "is_reserved": 0, "lon": -77.0142955}, {"fusion_lat": 0.0, "name": "443fc921d700f87cbba1adcca120b985", "is_disabled": 0, "rental_uris": {"android": "https://dc.lft.to/lastmile_qr_scan", "ios": "https://dc.lft.to/lastmile_qr_scan"}, "fusion_lon": 0.0, "lat": 38.9260535, "bike_id": "443fc921d700f87cbba1adcca120b985", "type": "electric_scooter", "is_reserved": 0, "lon": -77.021555}, {"fusion_lat": 0.0, "name": "8c262d1de9aa52e7123ce632bb64928f", "is_disabled": 0, "rental_uris": {"android": "https://dc.lft.to/lastmile_qr_scan", "ios": "https://dc.lft.to/lastmile_qr_scan"}, "fusion_lon": 0.0, "lat": 38.91643533333333, "bike_id": "8c262d1de9aa52e7123ce632bb64928f", "type": "electric_scooter", "is_reserved": 0, "lon": -77.03153916666666}, {"fusion_lat": 0.0, "name": "5f7c26bfbe5cdf33bba6c637f3269019", "is_disabled": 0, "rental_uris": {"android": "https://dc.lft.to/lastmile_qr_scan", "ios": "https://dc.lft.to/lastmile_qr_scan"}, "fusion_lon": 0.0, "lat": 38.9015645, "bike_id": "5f7c26bfbe5cdf33bba6c637f3269019", "type": "electric_scooter", "is_reserved": 0, "lon": -76.97410516666666}, {"fusion_lat": 0.0, "name": "eb2743d916891f33c161c43d37731596", "is_disabled": 0, "rental_uris": {"android": "https://dc.lft.to/lastmile_qr_scan", "ios": "https://dc.lft.to/lastmile_qr_scan"}, "fusion_lon": 0.0, "lat": 38.945238, "bike_id": "eb2743d916891f33c161c43d37731596", "type": "electric_scooter", "is_reserved": 0, "lon": -77.0227115}, {"fusion_lat": 0.0, "name": "7397461cb94caa36489875b2d2ad8629", "is_disabled": 0, "rental_uris": {"android": "https://dc.lft.to/lastmile_qr_scan", "ios": "https://dc.lft.to/lastmile_qr_scan"}, "fusion_lon": 0.0, "lat": 38.91328216666667, "bike_id": "7397461cb94caa36489875b2d2ad8629", "type": "electric_scooter", "is_reserved": 0, "lon": -77.04859066666667}, {"fusion_lat": 0.0, "name": "0c319c24e6b0cb048076d3ff3cbcb0d3", "is_disabled": 0, "rental_uris": {"android": "https://dc.lft.to/lastmile_qr_scan", "ios": "https://dc.lft.to/lastmile_qr_scan"}, "fusion_lon": 0.0, "lat": 38.9111135, "bike_id": "0c319c24e6b0cb048076d3ff3cbcb0d3", "type": "electric_scooter", "is_reserved": 0, "lon": -77.03827216666667}, {"fusion_lat": 0.0, "name": "b2dd02c5b1d8f13174f28647fb50a925", "is_disabled": 0, "rental_uris": {"android": "https://dc.lft.to/lastmile_qr_scan", "ios": "https://dc.lft.to/lastmile_qr_scan"}, "fusion_lon": 0.0, "lat": 38.905334, "bike_id": "b2dd02c5b1d8f13174f28647fb50a925", "type": "electric_scooter", "is_reserved": 0, "lon": -77.02182166666667}, {"fusion_lat": 0.0, "name": "b868ec343ee3a47d5b084d24d9fcda49", "is_disabled": 0, "rental_uris": {"android": "https://dc.lft.to/lastmile_qr_scan", "ios": "https://dc.lft.to/lastmile_qr_scan"}, "fusion_lon": 0.0, "lat": 38.90238183333334, "bike_id": "b868ec343ee3a47d5b084d24d9fcda49", "type": "electric_scooter", "is_reserved": 0, "lon": -77.0603915}, {"fusion_lat": 0.0, "name": "f2ec918422972bb5d736559c5aa106fd", "is_disabled": 0, "rental_uris": {"android": "https://dc.lft.to/lastmile_qr_scan", "ios": "https://dc.lft.to/lastmile_qr_scan"}, "fusion_lon": 0.0, "lat": 38.9073165, "bike_id": "f2ec918422972bb5d736559c5aa106fd", "type": "electric_scooter", "is_reserved": 0, "lon": -77.00702316666667}, {"fusion_lat": 0.0, "name": "b091636d73f8de1d5e97284f4cbf61e5", "is_disabled": 0, "rental_uris": {"android": "https://dc.lft.to/lastmile_qr_scan", "ios": "https://dc.lft.to/lastmile_qr_scan"}, "fusion_lon": 0.0, "lat": 38.89934733333333, "bike_id": "b091636d73f8de1d5e97284f4cbf61e5", "type": "electric_scooter", "is_reserved": 0, "lon": -77.02176366666667}, {"fusion_lat": 0.0, "name": "2d73e01882b6679d217b15b9df6a3f6c", "is_disabled": 0, "rental_uris": {"android": "https://dc.lft.to/lastmile_qr_scan", "ios": "https://dc.lft.to/lastmile_qr_scan"}, "fusion_lon": 0.0, "lat": 38.926264, "bike_id": "2d73e01882b6679d217b15b9df6a3f6c", "type": "electric_scooter", "is_reserved": 0, "lon": -77.03922416666667}, {"fusion_lat": 0.0, "name": "ac4530466d70cfb122eb61f0b25b7ea5", "is_disabled": 0, "rental_uris": {"android": "https://dc.lft.to/lastmile_qr_scan", "ios": "https://dc.lft.to/lastmile_qr_scan"}, "fusion_lon": 0.0, "lat": 38.923242, "bike_id": "ac4530466d70cfb122eb61f0b25b7ea5", "type": "electric_scooter", "is_reserved": 0, "lon": -77.02969166666666}, {"fusion_lat": 0.0, "name": "71ae28e96e631ce2c42648fdcc9f32c5", "is_disabled": 0, "rental_uris": {"android": "https://dc.lft.to/lastmile_qr_scan", "ios": "https://dc.lft.to/lastmile_qr_scan"}, "fusion_lon": 0.0, "lat": 38.92566383333333, "bike_id": "71ae28e96e631ce2c42648fdcc9f32c5", "type": "electric_scooter", "is_reserved": 0, "lon": -77.03774366666667}, {"fusion_lat": 0.0, "name": "3e3346e43a747340d8513af70e702ab8", "is_disabled": 0, "rental_uris": {"android": "https://dc.lft.to/lastmile_qr_scan", "ios": "https://dc.lft.to/lastmile_qr_scan"}, "fusion_lon": 0.0, "lat": 38.922863166666666, "bike_id": "3e3346e43a747340d8513af70e702ab8", "type": "electric_scooter", "is_reserved": 0, "lon": -76.99772716666666}, {"fusion_lat": 0.0, "name": "151e18ae63038b66adf86338385c4c4f", "is_disabled": 0, "rental_uris": {"android": "https://dc.lft.to/lastmile_qr_scan", "ios": "https://dc.lft.to/lastmile_qr_scan"}, "fusion_lon": 0.0, "lat": 38.9002505, "bike_id": "151e18ae63038b66adf86338385c4c4f", "type": "electric_scooter", "is_reserved": 0, "lon": -77.03178366666667}, {"fusion_lat": 0.0, "name": "c9a1256f2ea07f7c41d799e20c5ffce0", "is_disabled": 0, "rental_uris": {"android": "https://dc.lft.to/lastmile_qr_scan", "ios": "https://dc.lft.to/lastmile_qr_scan"}, "fusion_lon": 0.0, "lat": 38.929587, "bike_id": "c9a1256f2ea07f7c41d799e20c5ffce0", "type": "electric_scooter", "is_reserved": 0, "lon": -77.029771}, {"fusion_lat": 0.0, "name": "6c8513098b837ecd537402315877efe2", "is_disabled": 0, "rental_uris": {"android": "https://dc.lft.to/lastmile_qr_scan", "ios": "https://dc.lft.to/lastmile_qr_scan"}, "fusion_lon": 0.0, "lat": 38.9231705, "bike_id": "6c8513098b837ecd537402315877efe2", "type": "electric_scooter", "is_reserved": 0, "lon": -77.02904816666667}, {"fusion_lat": 0.0, "name": "b055c588c196104dc463a109d5c34bb4", "is_disabled": 0, "rental_uris": {"android": "https://dc.lft.to/lastmile_qr_scan", "ios": "https://dc.lft.to/lastmile_qr_scan"}, "fusion_lon": 0.0, "lat": 38.885584333333334, "bike_id": "b055c588c196104dc463a109d5c34bb4", "type": "electric_scooter", "is_reserved": 0, "lon": -76.97715666666667}, {"fusion_lat": 0.0, "name": "876068b6cffe079f8c7b099553c213a5", "is_disabled": 0, "rental_uris": {"android": "https://dc.lft.to/lastmile_qr_scan", "ios": "https://dc.lft.to/lastmile_qr_scan"}, "fusion_lon": 0.0, "lat": 38.920987333333336, "bike_id": "876068b6cffe079f8c7b099553c213a5", "type": "electric_scooter", "is_reserved": 0, "lon": -77.04166116666667}, {"fusion_lat": 0.0, "name": "2fc7fe8e4a21e7165d44aa751ce9ac19", "is_disabled": 0, "rental_uris": {"android": "https://dc.lft.to/lastmile_qr_scan", "ios": "https://dc.lft.to/lastmile_qr_scan"}, "fusion_lon": 0.0, "lat": 38.9321975, "bike_id": "2fc7fe8e4a21e7165d44aa751ce9ac19", "type": "electric_scooter", "is_reserved": 0, "lon": -77.03513233333334}, {"fusion_lat": 0.0, "name": "ee1d0cd7c49d6ba0384a92002dc69133", "is_disabled": 0, "rental_uris": {"android": "https://dc.lft.to/lastmile_qr_scan", "ios": "https://dc.lft.to/lastmile_qr_scan"}, "fusion_lon": 0.0, "lat": 38.9192205, "bike_id": "ee1d0cd7c49d6ba0384a92002dc69133", "type": "electric_scooter", "is_reserved": 0, "lon": -77.0097095}, {"fusion_lat": 0.0, "name": "25d069fee43ca967c47188f3aad7d7c1", "is_disabled": 0, "rental_uris": {"android": "https://dc.lft.to/lastmile_qr_scan", "ios": "https://dc.lft.to/lastmile_qr_scan"}, "fusion_lon": 0.0, "lat": 38.9156315, "bike_id": "25d069fee43ca967c47188f3aad7d7c1", "type": "electric_scooter", "is_reserved": 0, "lon": -77.02812183333333}, {"fusion_lat": 0.0, "name": "df113fd78df790cb9141f51d9083399c", "is_disabled": 0, "rental_uris": {"android": "https://dc.lft.to/lastmile_qr_scan", "ios": "https://dc.lft.to/lastmile_qr_scan"}, "fusion_lon": 0.0, "lat": 38.9006615, "bike_id": "df113fd78df790cb9141f51d9083399c", "type": "electric_scooter", "is_reserved": 0, "lon": -77.05419783333333}, {"fusion_lat": 0.0, "name": "48049e33818d8e38b06aca012df4641f", "is_disabled": 0, "rental_uris": {"android": "https://dc.lft.to/lastmile_qr_scan", "ios": "https://dc.lft.to/lastmile_qr_scan"}, "fusion_lon": 0.0, "lat": 38.959255, "bike_id": "48049e33818d8e38b06aca012df4641f", "type": "electric_bike", "is_reserved": 0, "lon": -77.03116216666666}, {"fusion_lat": 0.0, "name": "d9999b83a8d6976e013747999dbd7852", "is_disabled": 0, "rental_uris": {"android": "https://dc.lft.to/lastmile_qr_scan", "ios": "https://dc.lft.to/lastmile_qr_scan"}, "fusion_lon": 0.0, "lat": 38.908848, "bike_id": "d9999b83a8d6976e013747999dbd7852", "type": "electric_scooter", "is_reserved": 0, "lon": -76.99875966666667}, {"fusion_lat": 0.0, "name": "6d427612ba3464b27d49f9462a5059cb", "is_disabled": 0, "rental_uris": {"android": "https://dc.lft.to/lastmile_qr_scan", "ios": "https://dc.lft.to/lastmile_qr_scan"}, "fusion_lon": 0.0, "lat": 38.88637333333333, "bike_id": "6d427612ba3464b27d49f9462a5059cb", "type": "electric_scooter", "is_reserved": 0, "lon": -77.01956066666666}, {"fusion_lat": 0.0, "name": "99be01d864e925fa0c8feee2f6829f02", "is_disabled": 0, "rental_uris": {"android": "https://dc.lft.to/lastmile_qr_scan", "ios": "https://dc.lft.to/lastmile_qr_scan"}, "fusion_lon": 0.0, "lat": 38.9111725, "bike_id": "99be01d864e925fa0c8feee2f6829f02", "type": "electric_scooter", "is_reserved": 0, "lon": -76.99765516666666}, {"fusion_lat": 0.0, "name": "367994532aa7d5813256d8f088113c9d", "is_disabled": 0, "rental_uris": {"android": "https://dc.lft.to/lastmile_qr_scan", "ios": "https://dc.lft.to/lastmile_qr_scan"}, "fusion_lon": 0.0, "lat": 38.88613466666666, "bike_id": "367994532aa7d5813256d8f088113c9d", "type": "electric_scooter", "is_reserved": 0, "lon": -77.0125015}, {"fusion_lat": 0.0, "name": "6cb9f0bca6164b9094cfe549b3f11618", "is_disabled": 0, "rental_uris": {"android": "https://dc.lft.to/lastmile_qr_scan", "ios": "https://dc.lft.to/lastmile_qr_scan"}, "fusion_lon": 0.0, "lat": 38.89971633333333, "bike_id": "6cb9f0bca6164b9094cfe549b3f11618", "type": "electric_scooter", "is_reserved": 0, "lon": -77.0068375}, {"fusion_lat": 0.0, "name": "4040a37af75933b5cdb78033d683e429", "is_disabled": 0, "rental_uris": {"android": "https://dc.lft.to/lastmile_qr_scan", "ios": "https://dc.lft.to/lastmile_qr_scan"}, "fusion_lon": 0.0, "lat": 38.91642916666667, "bike_id": "4040a37af75933b5cdb78033d683e429", "type": "electric_scooter", "is_reserved": 0, "lon": -77.022928}, {"fusion_lat": 0.0, "name": "5d9439f86ff29c68bb5e997cb9ecaed1", "is_disabled": 0, "rental_uris": {"android": "https://dc.lft.to/lastmile_qr_scan", "ios": "https://dc.lft.to/lastmile_qr_scan"}, "fusion_lon": 0.0, "lat": 38.8839365, "bike_id": "5d9439f86ff29c68bb5e997cb9ecaed1", "type": "electric_bike", "is_reserved": 0, "lon": -76.96057316666666}, {"fusion_lat": 0.0, "name": "7fc4ea69499a99e9b5cf40764d0d30bb", "is_disabled": 0, "rental_uris": {"android": "https://dc.lft.to/lastmile_qr_scan", "ios": "https://dc.lft.to/lastmile_qr_scan"}, "fusion_lon": 0.0, "lat": 38.88071733333334, "bike_id": "7fc4ea69499a99e9b5cf40764d0d30bb", "type": "electric_scooter", "is_reserved": 0, "lon": -77.02546816666667}, {"fusion_lat": 0.0, "name": "c41a9c091b21cac921c654eaa93c7294", "is_disabled": 0, "rental_uris": {"android": "https://dc.lft.to/lastmile_qr_scan", "ios": "https://dc.lft.to/lastmile_qr_scan"}, "fusion_lon": 0.0, "lat": 38.90152116666667, "bike_id": "c41a9c091b21cac921c654eaa93c7294", "type": "electric_scooter", "is_reserved": 0, "lon": -77.03321383333333}, {"fusion_lat": 0.0, "name": "8c901a0a374bcac17f0b60bc34e05c13", "is_disabled": 0, "rental_uris": {"android": "https://dc.lft.to/lastmile_qr_scan", "ios": "https://dc.lft.to/lastmile_qr_scan"}, "fusion_lon": 0.0, "lat": 38.90259433333333, "bike_id": "8c901a0a374bcac17f0b60bc34e05c13", "type": "electric_scooter", "is_reserved": 0, "lon": -76.97454066666667}, {"fusion_lat": 0.0, "name": "a76701ea056568e5e83d54155d7bfa0b", "is_disabled": 0, "rental_uris": {"android": "https://dc.lft.to/lastmile_qr_scan", "ios": "https://dc.lft.to/lastmile_qr_scan"}, "fusion_lon": 0.0, "lat": 38.90747483333333, "bike_id": "a76701ea056568e5e83d54155d7bfa0b", "type": "electric_scooter", "is_reserved": 0, "lon": -77.04153883333333}, {"fusion_lat": 0.0, "name": "2e782b7cf7c1667a5dd5c762aaccc3d0", "is_disabled": 0, "rental_uris": {"android": "https://dc.lft.to/lastmile_qr_scan", "ios": "https://dc.lft.to/lastmile_qr_scan"}, "fusion_lon": 0.0, "lat": 38.897449, "bike_id": "2e782b7cf7c1667a5dd5c762aaccc3d0", "type": "electric_scooter", "is_reserved": 0, "lon": -77.02466866666667}, {"fusion_lat": 0.0, "name": "d20d97c7a68dbd4d5e48f9c257a9d77e", "is_disabled": 0, "rental_uris": {"android": "https://dc.lft.to/lastmile_qr_scan", "ios": "https://dc.lft.to/lastmile_qr_scan"}, "fusion_lon": 0.0, "lat": 38.89230466666667, "bike_id": "d20d97c7a68dbd4d5e48f9c257a9d77e", "type": "electric_scooter", "is_reserved": 0, "lon": -77.03175766666666}, {"fusion_lat": 0.0, "name": "45f366fa5e407a24dccc722d84a5cef9", "is_disabled": 0, "rental_uris": {"android": "https://dc.lft.to/lastmile_qr_scan", "ios": "https://dc.lft.to/lastmile_qr_scan"}, "fusion_lon": 0.0, "lat": 38.955283, "bike_id": "45f366fa5e407a24dccc722d84a5cef9", "type": "electric_scooter", "is_reserved": 0, "lon": -77.027763}, {"fusion_lat": 0.0, "name": "807ca1c8e3a0d4944880aa26e76249b3", "is_disabled": 0, "rental_uris": {"android": "https://dc.lft.to/lastmile_qr_scan", "ios": "https://dc.lft.to/lastmile_qr_scan"}, "fusion_lon": 0.0, "lat": 38.887660333333336, "bike_id": "807ca1c8e3a0d4944880aa26e76249b3", "type": "electric_scooter", "is_reserved": 0, "lon": -77.00255966666667}, {"fusion_lat": 0.0, "name": "771f983f62533b9cf39592e29ce03fa7", "is_disabled": 0, "rental_uris": {"android": "https://dc.lft.to/lastmile_qr_scan", "ios": "https://dc.lft.to/lastmile_qr_scan"}, "fusion_lon": 0.0, "lat": 38.906738833333335, "bike_id": "771f983f62533b9cf39592e29ce03fa7", "type": "electric_scooter", "is_reserved": 0, "lon": -77.02713783333333}, {"fusion_lat": 0.0, "name": "4bf568b57a43bc0051e6a777ac61a831", "is_disabled": 0, "rental_uris": {"android": "https://dc.lft.to/lastmile_qr_scan", "ios": "https://dc.lft.to/lastmile_qr_scan"}, "fusion_lon": 0.0, "lat": 38.86018633333333, "bike_id": "4bf568b57a43bc0051e6a777ac61a831", "type": "electric_bike", "is_reserved": 0, "lon": -77.12808766666667}, {"fusion_lat": 0.0, "name": "3c45ebad44c3ffc9344a3ed9f6346ccd", "is_disabled": 0, "rental_uris": {"android": "https://dc.lft.to/lastmile_qr_scan", "ios": "https://dc.lft.to/lastmile_qr_scan"}, "fusion_lon": 0.0, "lat": 38.9041115, "bike_id": "3c45ebad44c3ffc9344a3ed9f6346ccd", "type": "electric_scooter", "is_reserved": 0, "lon": -76.97330916666667}, {"fusion_lat": 0.0, "name": "cdd6200308172a76219ef5a5c213a281", "is_disabled": 0, "rental_uris": {"android": "https://dc.lft.to/lastmile_qr_scan", "ios": "https://dc.lft.to/lastmile_qr_scan"}, "fusion_lon": 0.0, "lat": 38.92401233333333, "bike_id": "cdd6200308172a76219ef5a5c213a281", "type": "electric_scooter", "is_reserved": 0, "lon": -77.02496583333334}, {"fusion_lat": 0.0, "name": "9b50a5fa9645117c65a2a38ebefda507", "is_disabled": 0, "rental_uris": {"android": "https://dc.lft.to/lastmile_qr_scan", "ios": "https://dc.lft.to/lastmile_qr_scan"}, "fusion_lon": 0.0, "lat": 38.957309, "bike_id": "9b50a5fa9645117c65a2a38ebefda507", "type": "electric_scooter", "is_reserved": 0, "lon": -77.024039}, {"fusion_lat": 0.0, "name": "2f5e1feb23f8b540a2128dbaa4934ad9", "is_disabled": 0, "rental_uris": {"android": "https://dc.lft.to/lastmile_qr_scan", "ios": "https://dc.lft.to/lastmile_qr_scan"}, "fusion_lon": 0.0, "lat": 38.919544333333334, "bike_id": "2f5e1feb23f8b540a2128dbaa4934ad9", "type": "electric_scooter", "is_reserved": 0, "lon": -77.01850833333333}, {"fusion_lat": 0.0, "name": "d205303032d67d0ec8ba4353129b7e76", "is_disabled": 0, "rental_uris": {"android": "https://dc.lft.to/lastmile_qr_scan", "ios": "https://dc.lft.to/lastmile_qr_scan"}, "fusion_lon": 0.0, "lat": 38.901772666666666, "bike_id": "d205303032d67d0ec8ba4353129b7e76", "type": "electric_scooter", "is_reserved": 0, "lon": -76.94142516666666}, {"fusion_lat": 0.0, "name": "4976670d34b484b0c5981aae37090624", "is_disabled": 0, "rental_uris": {"android": "https://dc.lft.to/lastmile_qr_scan", "ios": "https://dc.lft.to/lastmile_qr_scan"}, "fusion_lon": 0.0, "lat": 38.89735866666667, "bike_id": "4976670d34b484b0c5981aae37090624", "type": "electric_scooter", "is_reserved": 0, "lon": -77.00011366666666}, {"fusion_lat": 0.0, "name": "a98da20436888a8f93a1ce031155f26c", "is_disabled": 0, "rental_uris": {"android": "https://dc.lft.to/lastmile_qr_scan", "ios": "https://dc.lft.to/lastmile_qr_scan"}, "fusion_lon": 0.0, "lat": 38.87622966666667, "bike_id": "a98da20436888a8f93a1ce031155f26c", "type": "electric_scooter", "is_reserved": 0, "lon": -77.0011095}, {"fusion_lat": 0.0, "name": "d4f083e5bb1d00e24fc5129561dc08f6", "is_disabled": 0, "rental_uris": {"android": "https://dc.lft.to/lastmile_qr_scan", "ios": "https://dc.lft.to/lastmile_qr_scan"}, "fusion_lon": 0.0, "lat": 38.9050835, "bike_id": "d4f083e5bb1d00e24fc5129561dc08f6", "type": "electric_scooter", "is_reserved": 0, "lon": -77.0350015}, {"fusion_lat": 0.0, "name": "16662b4dbb076cf9fec4b24865811eaf", "is_disabled": 0, "rental_uris": {"android": "https://dc.lft.to/lastmile_qr_scan", "ios": "https://dc.lft.to/lastmile_qr_scan"}, "fusion_lon": 0.0, "lat": 38.91644816666667, "bike_id": "16662b4dbb076cf9fec4b24865811eaf", "type": "electric_scooter", "is_reserved": 0, "lon": -77.048084}, {"fusion_lat": 0.0, "name": "37aa7d4057198cd606e04fa447dfd7dd", "is_disabled": 0, "rental_uris": {"android": "https://dc.lft.to/lastmile_qr_scan", "ios": "https://dc.lft.to/lastmile_qr_scan"}, "fusion_lon": 0.0, "lat": 38.901377333333336, "bike_id": "37aa7d4057198cd606e04fa447dfd7dd", "type": "electric_scooter", "is_reserved": 0, "lon": -77.01698633333334}, {"fusion_lat": 0.0, "name": "506e08f5de34d95a9d07e5401678372e", "is_disabled": 0, "rental_uris": {"android": "https://dc.lft.to/lastmile_qr_scan", "ios": "https://dc.lft.to/lastmile_qr_scan"}, "fusion_lon": 0.0, "lat": 38.89159333333333, "bike_id": "506e08f5de34d95a9d07e5401678372e", "type": "electric_bike", "is_reserved": 0, "lon": -77.00471183333333}, {"fusion_lat": 0.0, "name": "45e39d3602b633592957efe1b570fcd0", "is_disabled": 0, "rental_uris": {"android": "https://dc.lft.to/lastmile_qr_scan", "ios": "https://dc.lft.to/lastmile_qr_scan"}, "fusion_lon": 0.0, "lat": 38.901959, "bike_id": "45e39d3602b633592957efe1b570fcd0", "type": "electric_scooter", "is_reserved": 0, "lon": -76.988456}, {"fusion_lat": 0.0, "name": "5542c8dc68df2ba549637a35e0113ce6", "is_disabled": 0, "rental_uris": {"android": "https://dc.lft.to/lastmile_qr_scan", "ios": "https://dc.lft.to/lastmile_qr_scan"}, "fusion_lon": 0.0, "lat": 38.94506883333333, "bike_id": "5542c8dc68df2ba549637a35e0113ce6", "type": "electric_bike", "is_reserved": 0, "lon": -77.00666683333333}, {"fusion_lat": 0.0, "name": "91e2f69cb54394aabaa11daa23aeea9d", "is_disabled": 0, "rental_uris": {"android": "https://dc.lft.to/lastmile_qr_scan", "ios": "https://dc.lft.to/lastmile_qr_scan"}, "fusion_lon": 0.0, "lat": 38.881253666666666, "bike_id": "91e2f69cb54394aabaa11daa23aeea9d", "type": "electric_scooter", "is_reserved": 0, "lon": -76.99284733333333}, {"fusion_lat": 0.0, "name": "54daac5ae6193d6b4e3ea1b79345210e", "is_disabled": 0, "rental_uris": {"android": "https://dc.lft.to/lastmile_qr_scan", "ios": "https://dc.lft.to/lastmile_qr_scan"}, "fusion_lon": 0.0, "lat": 38.9321615, "bike_id": "54daac5ae6193d6b4e3ea1b79345210e", "type": "electric_scooter", "is_reserved": 0, "lon": -77.03657266666667}, {"fusion_lat": 0.0, "name": "d4f6982b3624488034a5e12c84911690", "is_disabled": 0, "rental_uris": {"android": "https://dc.lft.to/lastmile_qr_scan", "ios": "https://dc.lft.to/lastmile_qr_scan"}, "fusion_lon": 0.0, "lat": 38.93454916666666, "bike_id": "d4f6982b3624488034a5e12c84911690", "type": "electric_scooter", "is_reserved": 0, "lon": -77.07268133333334}, {"fusion_lat": 0.0, "name": "313c825549089d42ff2ec4e18f29d77b", "is_disabled": 0, "rental_uris": {"android": "https://dc.lft.to/lastmile_qr_scan", "ios": "https://dc.lft.to/lastmile_qr_scan"}, "fusion_lon": 0.0, "lat": 38.88739966666667, "bike_id": "313c825549089d42ff2ec4e18f29d77b", "type": "electric_scooter", "is_reserved": 0, "lon": -77.02582083333333}, {"fusion_lat": 0.0, "name": "b69ca9fe855d041ce8c46424b650a085", "is_disabled": 0, "rental_uris": {"android": "https://dc.lft.to/lastmile_qr_scan", "ios": "https://dc.lft.to/lastmile_qr_scan"}, "fusion_lon": 0.0, "lat": 38.925429, "bike_id": "b69ca9fe855d041ce8c46424b650a085", "type": "electric_bike", "is_reserved": 0, "lon": -77.00118766666667}, {"fusion_lat": 0.0, "name": "35e88727c99f052a01c961a63cb230ec", "is_disabled": 0, "rental_uris": {"android": "https://dc.lft.to/lastmile_qr_scan", "ios": "https://dc.lft.to/lastmile_qr_scan"}, "fusion_lon": 0.0, "lat": 38.9222, "bike_id": "35e88727c99f052a01c961a63cb230ec", "type": "electric_bike", "is_reserved": 0, "lon": -77.20138633333333}, {"fusion_lat": 0.0, "name": "278edf5d674a39d4a0cb6ba0c1ddf84d", "is_disabled": 0, "rental_uris": {"android": "https://dc.lft.to/lastmile_qr_scan", "ios": "https://dc.lft.to/lastmile_qr_scan"}, "fusion_lon": 0.0, "lat": 38.91822333333333, "bike_id": "278edf5d674a39d4a0cb6ba0c1ddf84d", "type": "electric_scooter", "is_reserved": 0, "lon": -77.02532583333333}, {"fusion_lat": 0.0, "name": "6dd145c748a67153425274dc8029e79c", "is_disabled": 0, "rental_uris": {"android": "https://dc.lft.to/lastmile_qr_scan", "ios": "https://dc.lft.to/lastmile_qr_scan"}, "fusion_lon": 0.0, "lat": 38.88737166666667, "bike_id": "6dd145c748a67153425274dc8029e79c", "type": "electric_scooter", "is_reserved": 0, "lon": -77.0317535}, {"fusion_lat": 0.0, "name": "7521eea1355d599c797694cde788fc4a", "is_disabled": 0, "rental_uris": {"android": "https://dc.lft.to/lastmile_qr_scan", "ios": "https://dc.lft.to/lastmile_qr_scan"}, "fusion_lon": 0.0, "lat": 38.898134166666665, "bike_id": "7521eea1355d599c797694cde788fc4a", "type": "electric_scooter", "is_reserved": 0, "lon": -77.047533}, {"fusion_lat": 0.0, "name": "dc7d05fd79a29d6bdded93349d9e00d3", "is_disabled": 0, "rental_uris": {"android": "https://dc.lft.to/lastmile_qr_scan", "ios": "https://dc.lft.to/lastmile_qr_scan"}, "fusion_lon": 0.0, "lat": 38.9177365, "bike_id": "dc7d05fd79a29d6bdded93349d9e00d3", "type": "electric_scooter", "is_reserved": 0, "lon": -77.0122505}, {"fusion_lat": 0.0, "name": "5bf64999d8afb2cc125e7f6631b3b537", "is_disabled": 0, "rental_uris": {"android": "https://dc.lft.to/lastmile_qr_scan", "ios": "https://dc.lft.to/lastmile_qr_scan"}, "fusion_lon": 0.0, "lat": 38.928299333333335, "bike_id": "5bf64999d8afb2cc125e7f6631b3b537", "type": "electric_scooter", "is_reserved": 0, "lon": -77.05438566666666}, {"fusion_lat": 0.0, "name": "548981e71df6dc3239ed8d9a3758ab54", "is_disabled": 0, "rental_uris": {"android": "https://dc.lft.to/lastmile_qr_scan", "ios": "https://dc.lft.to/lastmile_qr_scan"}, "fusion_lon": 0.0, "lat": 38.941908, "bike_id": "548981e71df6dc3239ed8d9a3758ab54", "type": "electric_scooter", "is_reserved": 0, "lon": -77.02592183333333}, {"fusion_lat": 0.0, "name": "857af145621823e18fd3e1e93a04dbc7", "is_disabled": 0, "rental_uris": {"android": "https://dc.lft.to/lastmile_qr_scan", "ios": "https://dc.lft.to/lastmile_qr_scan"}, "fusion_lon": 0.0, "lat": 38.89401566666667, "bike_id": "857af145621823e18fd3e1e93a04dbc7", "type": "electric_scooter", "is_reserved": 0, "lon": -76.994924}, {"fusion_lat": 0.0, "name": "c73988b954b736d1e74f2257de46529d", "is_disabled": 0, "rental_uris": {"android": "https://dc.lft.to/lastmile_qr_scan", "ios": "https://dc.lft.to/lastmile_qr_scan"}, "fusion_lon": 0.0, "lat": 38.92070283333334, "bike_id": "c73988b954b736d1e74f2257de46529d", "type": "electric_scooter", "is_reserved": 0, "lon": -77.0142365}, {"fusion_lat": 0.0, "name": "3168c3082b4798026aa262330587edc9", "is_disabled": 0, "rental_uris": {"android": "https://dc.lft.to/lastmile_qr_scan", "ios": "https://dc.lft.to/lastmile_qr_scan"}, "fusion_lon": 0.0, "lat": 38.9384475, "bike_id": "3168c3082b4798026aa262330587edc9", "type": "electric_scooter", "is_reserved": 0, "lon": -77.0339575}, {"fusion_lat": 0.0, "name": "68a5b5349e1a7f9ec2e94c9ea9971c2d", "is_disabled": 0, "rental_uris": {"android": "https://dc.lft.to/lastmile_qr_scan", "ios": "https://dc.lft.to/lastmile_qr_scan"}, "fusion_lon": 0.0, "lat": 38.964070166666666, "bike_id": "68a5b5349e1a7f9ec2e94c9ea9971c2d", "type": "electric_scooter", "is_reserved": 0, "lon": -77.07533933333333}, {"fusion_lat": 0.0, "name": "843acb4114980b34b155d274f5d98cc8", "is_disabled": 0, "rental_uris": {"android": "https://dc.lft.to/lastmile_qr_scan", "ios": "https://dc.lft.to/lastmile_qr_scan"}, "fusion_lon": 0.0, "lat": 38.94086983333333, "bike_id": "843acb4114980b34b155d274f5d98cc8", "type": "electric_scooter", "is_reserved": 0, "lon": -77.06182233333334}, {"fusion_lat": 0.0, "name": "6d306e633299dbb7eeeaf2a1764e3798", "is_disabled": 0, "rental_uris": {"android": "https://dc.lft.to/lastmile_qr_scan", "ios": "https://dc.lft.to/lastmile_qr_scan"}, "fusion_lon": 0.0, "lat": 38.9291365, "bike_id": "6d306e633299dbb7eeeaf2a1764e3798", "type": "electric_scooter", "is_reserved": 0, "lon": -77.0374785}, {"fusion_lat": 0.0, "name": "fc504d3cb43a0c5130f53c8a155adf63", "is_disabled": 0, "rental_uris": {"android": "https://dc.lft.to/lastmile_qr_scan", "ios": "https://dc.lft.to/lastmile_qr_scan"}, "fusion_lon": 0.0, "lat": 38.85771616666667, "bike_id": "fc504d3cb43a0c5130f53c8a155adf63", "type": "electric_bike", "is_reserved": 0, "lon": -76.9876685}, {"fusion_lat": 0.0, "name": "a4f738419ee72641e58842c4799281ce", "is_disabled": 0, "rental_uris": {"android": "https://dc.lft.to/lastmile_qr_scan", "ios": "https://dc.lft.to/lastmile_qr_scan"}, "fusion_lon": 0.0, "lat": 38.93397483333333, "bike_id": "a4f738419ee72641e58842c4799281ce", "type": "electric_scooter", "is_reserved": 0, "lon": -77.02842083333333}, {"fusion_lat": 0.0, "name": "60a00037cec52cfa40e8d5c63185f531", "is_disabled": 0, "rental_uris": {"android": "https://dc.lft.to/lastmile_qr_scan", "ios": "https://dc.lft.to/lastmile_qr_scan"}, "fusion_lon": 0.0, "lat": 38.93779583333333, "bike_id": "60a00037cec52cfa40e8d5c63185f531", "type": "electric_bike", "is_reserved": 0, "lon": -77.0190925}, {"fusion_lat": 0.0, "name": "1886313d079ab46692708b46bcd887b8", "is_disabled": 0, "rental_uris": {"android": "https://dc.lft.to/lastmile_qr_scan", "ios": "https://dc.lft.to/lastmile_qr_scan"}, "fusion_lon": 0.0, "lat": 38.883839333333334, "bike_id": "1886313d079ab46692708b46bcd887b8", "type": "electric_scooter", "is_reserved": 0, "lon": -76.93040333333333}, {"fusion_lat": 0.0, "name": "f78c60e61c4fd21e7df355a1c1bd1937", "is_disabled": 0, "rental_uris": {"android": "https://dc.lft.to/lastmile_qr_scan", "ios": "https://dc.lft.to/lastmile_qr_scan"}, "fusion_lon": 0.0, "lat": 38.91401166666667, "bike_id": "f78c60e61c4fd21e7df355a1c1bd1937", "type": "electric_scooter", "is_reserved": 0, "lon": -77.03320933333333}, {"fusion_lat": 0.0, "name": "dea9cc22fbb04709441259443e81692f", "is_disabled": 0, "rental_uris": {"android": "https://dc.lft.to/lastmile_qr_scan", "ios": "https://dc.lft.to/lastmile_qr_scan"}, "fusion_lon": 0.0, "lat": 38.93031, "bike_id": "dea9cc22fbb04709441259443e81692f", "type": "electric_bike", "is_reserved": 0, "lon": -77.0201395}, {"fusion_lat": 0.0, "name": "2d5901aa4d81833a91995b2e8d7ac455", "is_disabled": 0, "rental_uris": {"android": "https://dc.lft.to/lastmile_qr_scan", "ios": "https://dc.lft.to/lastmile_qr_scan"}, "fusion_lon": 0.0, "lat": 38.91566366666667, "bike_id": "2d5901aa4d81833a91995b2e8d7ac455", "type": "electric_scooter", "is_reserved": 0, "lon": -77.03226816666667}, {"fusion_lat": 0.0, "name": "02ffe27679ae82be1ac7d0387e944455", "is_disabled": 0, "rental_uris": {"android": "https://dc.lft.to/lastmile_qr_scan", "ios": "https://dc.lft.to/lastmile_qr_scan"}, "fusion_lon": 0.0, "lat": 38.88304266666667, "bike_id": "02ffe27679ae82be1ac7d0387e944455", "type": "electric_scooter", "is_reserved": 0, "lon": -77.02483833333334}, {"fusion_lat": 0.0, "name": "256932816700c573deb912fb585b3c4a", "is_disabled": 0, "rental_uris": {"android": "https://dc.lft.to/lastmile_qr_scan", "ios": "https://dc.lft.to/lastmile_qr_scan"}, "fusion_lon": 0.0, "lat": 38.92476216666667, "bike_id": "256932816700c573deb912fb585b3c4a", "type": "electric_scooter", "is_reserved": 0, "lon": -77.026247}, {"fusion_lat": 0.0, "name": "101f414ccdea6a6a4301039ca42a00b3", "is_disabled": 0, "rental_uris": {"android": "https://dc.lft.to/lastmile_qr_scan", "ios": "https://dc.lft.to/lastmile_qr_scan"}, "fusion_lon": 0.0, "lat": 38.9142645, "bike_id": "101f414ccdea6a6a4301039ca42a00b3", "type": "electric_scooter", "is_reserved": 0, "lon": -77.03471433333333}, {"fusion_lat": 0.0, "name": "6707152b76e8de5ee90be701787a252f", "is_disabled": 0, "rental_uris": {"android": "https://dc.lft.to/lastmile_qr_scan", "ios": "https://dc.lft.to/lastmile_qr_scan"}, "fusion_lon": 0.0, "lat": 38.911230333333336, "bike_id": "6707152b76e8de5ee90be701787a252f", "type": "electric_scooter", "is_reserved": 0, "lon": -77.021668}, {"fusion_lat": 0.0, "name": "52f26bd0a6b97ed8ebdac965349bcc58", "is_disabled": 0, "rental_uris": {"android": "https://dc.lft.to/lastmile_qr_scan", "ios": "https://dc.lft.to/lastmile_qr_scan"}, "fusion_lon": 0.0, "lat": 38.81332783333333, "bike_id": "52f26bd0a6b97ed8ebdac965349bcc58", "type": "electric_bike", "is_reserved": 0, "lon": -77.0509605}, {"fusion_lat": 0.0, "name": "02eb5f34605a742495713cf2015ce1d4", "is_disabled": 0, "rental_uris": {"android": "https://dc.lft.to/lastmile_qr_scan", "ios": "https://dc.lft.to/lastmile_qr_scan"}, "fusion_lon": 0.0, "lat": 38.93508933333333, "bike_id": "02eb5f34605a742495713cf2015ce1d4", "type": "electric_scooter", "is_reserved": 0, "lon": -77.03257116666667}, {"fusion_lat": 0.0, "name": "92c9f6bbf99713037bbb02f6e7fb9549", "is_disabled": 0, "rental_uris": {"android": "https://dc.lft.to/lastmile_qr_scan", "ios": "https://dc.lft.to/lastmile_qr_scan"}, "fusion_lon": 0.0, "lat": 38.920348, "bike_id": "92c9f6bbf99713037bbb02f6e7fb9549", "type": "electric_scooter", "is_reserved": 0, "lon": -77.03136466666666}, {"fusion_lat": 0.0, "name": "35426d261648603e27804a1c3573f975", "is_disabled": 0, "rental_uris": {"android": "https://dc.lft.to/lastmile_qr_scan", "ios": "https://dc.lft.to/lastmile_qr_scan"}, "fusion_lon": 0.0, "lat": 38.931918333333336, "bike_id": "35426d261648603e27804a1c3573f975", "type": "electric_bike", "is_reserved": 0, "lon": -77.22923916666667}, {"fusion_lat": 0.0, "name": "558b269375f63f9d9e3e0d86fbe2aa18", "is_disabled": 0, "rental_uris": {"android": "https://dc.lft.to/lastmile_qr_scan", "ios": "https://dc.lft.to/lastmile_qr_scan"}, "fusion_lon": 0.0, "lat": 38.88313, "bike_id": "558b269375f63f9d9e3e0d86fbe2aa18", "type": "electric_scooter", "is_reserved": 0, "lon": -77.017699}, {"fusion_lat": 0.0, "name": "934b38292902be8047b0c87e6ff66d41", "is_disabled": 0, "rental_uris": {"android": "https://dc.lft.to/lastmile_qr_scan", "ios": "https://dc.lft.to/lastmile_qr_scan"}, "fusion_lon": 0.0, "lat": 38.93459033333333, "bike_id": "934b38292902be8047b0c87e6ff66d41", "type": "electric_scooter", "is_reserved": 0, "lon": -77.07265183333334}, {"fusion_lat": 0.0, "name": "264dc3af82b62b3ff379ce040e47f056", "is_disabled": 0, "rental_uris": {"android": "https://dc.lft.to/lastmile_qr_scan", "ios": "https://dc.lft.to/lastmile_qr_scan"}, "fusion_lon": 0.0, "lat": 38.9004165, "bike_id": "264dc3af82b62b3ff379ce040e47f056", "type": "electric_scooter", "is_reserved": 0, "lon": -77.00205666666666}, {"fusion_lat": 0.0, "name": "df1ab665e766ee587698c9d6c39a9f3c", "is_disabled": 0, "rental_uris": {"android": "https://dc.lft.to/lastmile_qr_scan", "ios": "https://dc.lft.to/lastmile_qr_scan"}, "fusion_lon": 0.0, "lat": 38.8067465, "bike_id": "df1ab665e766ee587698c9d6c39a9f3c", "type": "electric_bike", "is_reserved": 0, "lon": -77.0691905}, {"fusion_lat": 0.0, "name": "df0f03e8ff59b845a421cca9141b40d7", "is_disabled": 0, "rental_uris": {"android": "https://dc.lft.to/lastmile_qr_scan", "ios": "https://dc.lft.to/lastmile_qr_scan"}, "fusion_lon": 0.0, "lat": 38.9079335, "bike_id": "df0f03e8ff59b845a421cca9141b40d7", "type": "electric_scooter", "is_reserved": 0, "lon": -77.00970583333333}, {"fusion_lat": 0.0, "name": "77740245242ab12e750ac69c9843fefc", "is_disabled": 0, "rental_uris": {"android": "https://dc.lft.to/lastmile_qr_scan", "ios": "https://dc.lft.to/lastmile_qr_scan"}, "fusion_lon": 0.0, "lat": 38.912177666666665, "bike_id": "77740245242ab12e750ac69c9843fefc", "type": "electric_scooter", "is_reserved": 0, "lon": -77.02715483333333}, {"fusion_lat": 0.0, "name": "c84ff45d2231af1f092a5e20b0dac74d", "is_disabled": 0, "rental_uris": {"android": "https://dc.lft.to/lastmile_qr_scan", "ios": "https://dc.lft.to/lastmile_qr_scan"}, "fusion_lon": 0.0, "lat": 38.9249625, "bike_id": "c84ff45d2231af1f092a5e20b0dac74d", "type": "electric_bike", "is_reserved": 0, "lon": -77.057613}, {"fusion_lat": 0.0, "name": "0f2c5d520ff68438620932aa6a0400f2", "is_disabled": 0, "rental_uris": {"android": "https://dc.lft.to/lastmile_qr_scan", "ios": "https://dc.lft.to/lastmile_qr_scan"}, "fusion_lon": 0.0, "lat": 38.9205335, "bike_id": "0f2c5d520ff68438620932aa6a0400f2", "type": "electric_scooter", "is_reserved": 0, "lon": -76.9988455}, {"fusion_lat": 0.0, "name": "16faac34bd8c26f929401bc61dfd3bd7", "is_disabled": 0, "rental_uris": {"android": "https://dc.lft.to/lastmile_qr_scan", "ios": "https://dc.lft.to/lastmile_qr_scan"}, "fusion_lon": 0.0, "lat": 38.90971283333333, "bike_id": "16faac34bd8c26f929401bc61dfd3bd7", "type": "electric_scooter", "is_reserved": 0, "lon": -77.03714166666667}, {"fusion_lat": 0.0, "name": "ebce423104a5ccacfa7f79971288a2e3", "is_disabled": 0, "rental_uris": {"android": "https://dc.lft.to/lastmile_qr_scan", "ios": "https://dc.lft.to/lastmile_qr_scan"}, "fusion_lon": 0.0, "lat": 38.90036666666666, "bike_id": "ebce423104a5ccacfa7f79971288a2e3", "type": "electric_scooter", "is_reserved": 0, "lon": -77.001923}, {"fusion_lat": 0.0, "name": "ceae930cdc40e53ba397992d5103135c", "is_disabled": 0, "rental_uris": {"android": "https://dc.lft.to/lastmile_qr_scan", "ios": "https://dc.lft.to/lastmile_qr_scan"}, "fusion_lon": 0.0, "lat": 38.884501, "bike_id": "ceae930cdc40e53ba397992d5103135c", "type": "electric_scooter", "is_reserved": 0, "lon": -76.99388866666666}, {"fusion_lat": 0.0, "name": "f6602341b1b56d8a5667c3fce908aaaf", "is_disabled": 0, "rental_uris": {"android": "https://dc.lft.to/lastmile_qr_scan", "ios": "https://dc.lft.to/lastmile_qr_scan"}, "fusion_lon": 0.0, "lat": 38.88750833333334, "bike_id": "f6602341b1b56d8a5667c3fce908aaaf", "type": "electric_scooter", "is_reserved": 0, "lon": -76.998353}, {"fusion_lat": 0.0, "name": "76f1bf42a7896b516837c2911137c16c", "is_disabled": 0, "rental_uris": {"android": "https://dc.lft.to/lastmile_qr_scan", "ios": "https://dc.lft.to/lastmile_qr_scan"}, "fusion_lon": 0.0, "lat": 38.98461133333333, "bike_id": "76f1bf42a7896b516837c2911137c16c", "type": "electric_bike", "is_reserved": 0, "lon": -76.97059416666667}, {"fusion_lat": 0.0, "name": "968ba53a6829eb3d83945489a27887c8", "is_disabled": 0, "rental_uris": {"android": "https://dc.lft.to/lastmile_qr_scan", "ios": "https://dc.lft.to/lastmile_qr_scan"}, "fusion_lon": 0.0, "lat": 38.9015075, "bike_id": "968ba53a6829eb3d83945489a27887c8", "type": "electric_scooter", "is_reserved": 0, "lon": -76.93066966666666}, {"fusion_lat": 0.0, "name": "82053c419e60b1eaeb2ce1c23b113591", "is_disabled": 0, "rental_uris": {"android": "https://dc.lft.to/lastmile_qr_scan", "ios": "https://dc.lft.to/lastmile_qr_scan"}, "fusion_lon": 0.0, "lat": 38.9068165, "bike_id": "82053c419e60b1eaeb2ce1c23b113591", "type": "electric_bike", "is_reserved": 0, "lon": -76.9449285}, {"fusion_lat": 0.0, "name": "b0977506ad0a85044f1e5201df059591", "is_disabled": 0, "rental_uris": {"android": "https://dc.lft.to/lastmile_qr_scan", "ios": "https://dc.lft.to/lastmile_qr_scan"}, "fusion_lon": 0.0, "lat": 38.88768316666667, "bike_id": "b0977506ad0a85044f1e5201df059591", "type": "electric_scooter", "is_reserved": 0, "lon": -76.97748516666667}, {"fusion_lat": 0.0, "name": "caa369b17faec29dd4fd3dd3b7095097", "is_disabled": 0, "rental_uris": {"android": "https://dc.lft.to/lastmile_qr_scan", "ios": "https://dc.lft.to/lastmile_qr_scan"}, "fusion_lon": 0.0, "lat": 38.92164066666667, "bike_id": "caa369b17faec29dd4fd3dd3b7095097", "type": "electric_bike", "is_reserved": 0, "lon": -77.02202766666667}, {"fusion_lat": 0.0, "name": "62e8a907a5343597a1cd3beaaee48eb1", "is_disabled": 0, "rental_uris": {"android": "https://dc.lft.to/lastmile_qr_scan", "ios": "https://dc.lft.to/lastmile_qr_scan"}, "fusion_lon": 0.0, "lat": 38.905907166666665, "bike_id": "62e8a907a5343597a1cd3beaaee48eb1", "type": "electric_scooter", "is_reserved": 0, "lon": -77.04426683333334}, {"fusion_lat": 0.0, "name": "eb2540b3d680c13caeff91de6188ca52", "is_disabled": 0, "rental_uris": {"android": "https://dc.lft.to/lastmile_qr_scan", "ios": "https://dc.lft.to/lastmile_qr_scan"}, "fusion_lon": 0.0, "lat": 38.898369833333334, "bike_id": "eb2540b3d680c13caeff91de6188ca52", "type": "electric_scooter", "is_reserved": 0, "lon": -77.007509},