{"data": {"bikes": [{"rental_uris": {"ios": "https://dc.lft.to/lastmile_qr_scan", "android": "https://dc.lft.to/lastmile_qr_scan"}, "lon": -77.11220266666666, "type": "electric_bike", "fusion_lat": 0.0, "lat": 38.82875133333334, "name": "60d565c8c3d3427e3573f9b0089bff2b", "fusion_lon": 0.0, "bike_id": "60d565c8c3d3427e3573f9b0089bff2b", "is_disabled": 0, "is_reserved": 0}, {"rental_uris": {"ios": "https://dc.lft.to/lastmile_qr_scan", "android": "https://dc.lft.to/lastmile_qr_scan"}, "lon": -77.00815416666667, "type": "electric_scooter", "fusion_lat": 0.0, "lat": 38.8765465, "name": "8a884edb7521ebce05388d66c093ecae", "fusion_lon": 0.0, "bike_id": "8a884edb7521ebce05388d66c093ecae", "is_disabled": 0, "is_reserved": 0}, {"rental_uris": {"ios": "https://dc.lft.to/lastmile_qr_scan", "android": "https://dc.lft.to/lastmile_qr_scan"}, "lon": -77.02151833333333, "type": "electric_scooter", "fusion_lat": 0.0, "lat": 38.92607183333333, "name": "8729c2e3ed350a0f2bf0ca4b619ae2d9", "fusion_lon": 0.0, "bike_id": "8729c2e3ed350a0f2bf0ca4b619ae2d9", "is_disabled": 0, "is_reserved": 0}, {"rental_uris": {"ios": "https://dc.lft.to/lastmile_qr_scan", "android": "https://dc.lft.to/lastmile_qr_scan"}, "lon": -77.02737266666666, "type": "electric_scooter", "fusion_lat": 0.0, "lat": 38.881606, "name": "3bf88019ef748010a765332e83937076", "fusion_lon": 0.0, "bike_id": "3bf88019ef748010a765332e83937076", "is_disabled": 0, "is_reserved": 0}, {"rental_uris": {"ios": "https://dc.lft.to/lastmile_qr_scan", "android": "https://dc.lft.to/lastmile_qr_scan"}, "lon": -77.03994066666667, "type": "electric_scooter", "fusion_lat": 0.0, "lat": 38.89936066666667, "name": "99011aaa31b904e1276d95005287975e", "fusion_lon": 0.0, "bike_id": "99011aaa31b904e1276d95005287975e", "is_disabled": 0, "is_reserved": 0}, {"rental_uris": {"ios": "https://dc.lft.to/lastmile_qr_scan", "android": "https://dc.lft.to/lastmile_qr_scan"}, "lon": -77.0536395, "type": "electric_scooter", "fusion_lat": 0.0, "lat": 38.890886333333334, "name": "b0066ca61b5c1dd299db95ee555dd8b4", "fusion_lon": 0.0, "bike_id": "b0066ca61b5c1dd299db95ee555dd8b4", "is_disabled": 0, "is_reserved": 0}, {"rental_uris": {"ios": "https://dc.lft.to/lastmile_qr_scan", "android": "https://dc.lft.to/lastmile_qr_scan"}, "lon": -76.87493733333334, "type": "electric_bike", "fusion_lat": 0.0, "lat": 38.99090566666667, "name": "39e28da40bfca97e9d8c9050223f79b0", "fusion_lon": 0.0, "bike_id": "39e28da40bfca97e9d8c9050223f79b0", "is_disabled": 0, "is_reserved": 0}, {"rental_uris": {"ios": "https://dc.lft.to/lastmile_qr_scan", "android": "https://dc.lft.to/lastmile_qr_scan"}, "lon": -76.99177433333334, "type": "electric_scooter", "fusion_lat": 0.0, "lat": 38.90460483333333, "name": "de454b612724a8419258fbbbd37456ce", "fusion_lon": 0.0, "bike_id": "de454b612724a8419258fbbbd37456ce", "is_disabled": 0, "is_reserved": 0}, {"rental_uris": {"ios": "https://dc.lft.to/lastmile_qr_scan", "android": "https://dc.lft.to/lastmile_qr_scan"}, "lon": -77.00717433333334, "type": "electric_scooter", "fusion_lat": 0.0, "lat": 38.91342266666667, "name": "e8e1526b3f64e3181a6a35272a458f1f", "fusion_lon": 0.0, "bike_id": "e8e1526b3f64e3181a6a35272a458f1f", "is_disabled": 0, "is_reserved": 0}, {"rental_uris": {"ios": "https://dc.lft.to/lastmile_qr_scan", "android": "https://dc.lft.to/lastmile_qr_scan"}, "lon": -76.9396125, "type": "electric_scooter", "fusion_lat": 0.0, "lat": 38.8941615, "name": "ba2461beb084a29133c60f59aabbae43", "fusion_lon": 0.0, "bike_id": "ba2461beb084a29133c60f59aabbae43", "is_disabled": 0, "is_reserved": 0}, {"rental_uris": {"ios": "https://dc.lft.to/lastmile_qr_scan", "android": "https://dc.lft.to/lastmile_qr_scan"}, "lon": -77.02899483333333, "type": "electric_scooter", "fusion_lat": 0.0, "lat": 38.903278, "name": "d230d04580793b4fa95122896f66a759", "fusion_lon": 0.0, "bike_id": "d230d04580793b4fa95122896f66a759", "is_disabled": 0, "is_reserved": 0}, {"rental_uris": {"ios": "https://dc.lft.to/lastmile_qr_scan", "android": "https://dc.lft.to/lastmile_qr_scan"}, "lon": -77.07210566666667, "type": "electric_scooter", "fusion_lat": 0.0, "lat": 38.92110366666667, "name": "8818bf43498e0cd6d25625abf77f7192", "fusion_lon": 0.0, "bike_id": "8818bf43498e0cd6d25625abf77f7192", "is_disabled": 0, "is_reserved": 0}, {"rental_uris": {"ios": "https://dc.lft.to/lastmile_qr_scan", "android": "https://dc.lft.to/lastmile_qr_scan"}, "lon": -76.9299835, "type": "electric_bike", "fusion_lat": 0.0, "lat": 38.887953333333336, "name": "0254b69b45a30b5d6153b016bdd2f026", "fusion_lon": 0.0, "bike_id": "0254b69b45a30b5d6153b016bdd2f026", "is_disabled": 0, "is_reserved": 0}, {"rental_uris": {"ios": "https://dc.lft.to/lastmile_qr_scan", "android": "https://dc.lft.to/lastmile_qr_scan"}, "lon": -77.0526515, "type": "electric_scooter", "fusion_lat": 0.0, "lat": 38.910188166666664, "name": "5d9bb429522e0b9ccc047fed3accb8c8", "fusion_lon": 0.0, "bike_id": "5d9bb429522e0b9ccc047fed3accb8c8", "is_disabled": 0, "is_reserved": 0}, {"rental_uris": {"ios": "https://dc.lft.to/lastmile_qr_scan", "android": "https://dc.lft.to/lastmile_qr_scan"}, "lon": -77.0237025, "type": "electric_scooter", "fusion_lat": 0.0, "lat": 38.91789466666667, "name": "175704ab621ac7ff7aa8592202fbc8cf", "fusion_lon": 0.0, "bike_id": "175704ab621ac7ff7aa8592202fbc8cf", "is_disabled": 0, "is_reserved": 0}, {"rental_uris": {"ios": "https://dc.lft.to/lastmile_qr_scan", "android": "https://dc.lft.to/lastmile_qr_scan"}, "lon": -77.00611616666667, "type": "electric_scooter", "fusion_lat": 0.0, "lat": 38.87475166666667, "name": "90b25308714fd73d64f39e27fbb41fa8", "fusion_lon": 0.0, "bike_id": "90b25308714fd73d64f39e27fbb41fa8", "is_disabled": 0, "is_reserved": 0}, {"rental_uris": {"ios": "https://dc.lft.to/lastmile_qr_scan", "android": "https://dc.lft.to/lastmile_qr_scan"}, "lon": -77.05041883333334, "type": "electric_scooter", "fusion_lat": 0.0, "lat": 38.92362633333333, "name": "d46e83872a4f66e4eaa85ea6898f2561", "fusion_lon": 0.0, "bike_id": "d46e83872a4f66e4eaa85ea6898f2561", "is_disabled": 0, "is_reserved": 0}, {"rental_uris": {"ios": "https://dc.lft.to/lastmile_qr_scan", "android": "https://dc.lft.to/lastmile_qr_scan"}, "lon": -76.94661883333333, "type": "electric_scooter", "fusion_lat": 0.0, "lat": 38.90341516666667, "name": "8c7b955ac730ce2c940926316240a7de", "fusion_lon": 0.0, "bike_id": "8c7b955ac730ce2c940926316240a7de", "is_disabled": 0, "is_reserved": 0}, {"rental_uris": {"ios": "https://dc.lft.to/lastmile_qr_scan", "android": "https://dc.lft.to/lastmile_qr_scan"}, "lon": -76.9951815, "type": "electric_scooter", "fusion_lat": 0.0, "lat": 38.89484983333333, "name": "f2123eeaaf048cd38f1d4d8e4c345efa", "fusion_lon": 0.0, "bike_id": "f2123eeaaf048cd38f1d4d8e4c345efa", "is_disabled": 0, "is_reserved": 0}, {"rental_uris": {"ios": "https://dc.lft.to/lastmile_qr_scan", "android": "https://dc.lft.to/lastmile_qr_scan"}, "lon": -76.99358516666666, "type": "electric_scooter", "fusion_lat": 0.0, "lat": 38.9004255, "name": "ce9ad7fce984cae3660248cf6c178ea9", "fusion_lon": 0.0, "bike_id": "ce9ad7fce984cae3660248cf6c178ea9", "is_disabled": 0, "is_reserved": 0}, {"rental_uris": {"ios": "https://dc.lft.to/lastmile_qr_scan", "android": "https://dc.lft.to/lastmile_qr_scan"}, "lon": -77.0029935, "type": "electric_bike", "fusion_lat": 0.0, "lat": 38.916188166666664, "name": "807042efe9b7fffa210ee8ac965f57b3", "fusion_lon": 0.0, "bike_id": "807042efe9b7fffa210ee8ac965f57b3", "is_disabled": 0, "is_reserved": 0}, {"rental_uris": {"ios": "https://dc.lft.to/lastmile_qr_scan", "android": "https://dc.lft.to/lastmile_qr_scan"}, "lon": -77.027334, "type": "electric_scooter", "fusion_lat": 0.0, "lat": 38.927731, "name": "29bfff71c9aef2508187b08f69c6014a", "fusion_lon": 0.0, "bike_id": "29bfff71c9aef2508187b08f69c6014a", "is_disabled": 0, "is_reserved": 0}, {"rental_uris": {"ios": "https://dc.lft.to/lastmile_qr_scan", "android": "https://dc.lft.to/lastmile_qr_scan"}, "lon": -77.07881083333334, "type": "electric_bike", "fusion_lat": 0.0, "lat": 38.912762, "name": "054ebf15949bf29d2653e9682519d3c8", "fusion_lon": 0.0, "bike_id": "054ebf15949bf29d2653e9682519d3c8", "is_disabled": 0, "is_reserved": 0}, {"rental_uris": {"ios": "https://dc.lft.to/lastmile_qr_scan", "android": "https://dc.lft.to/lastmile_qr_scan"}, "lon": -76.95751183333333, "type": "electric_bike", "fusion_lat": 0.0, "lat": 38.88425016666667, "name": "0380458451c1fcce5bd3fc30db9b33ea", "fusion_lon": 0.0, "bike_id": "0380458451c1fcce5bd3fc30db9b33ea", "is_disabled": 0, "is_reserved": 0}, {"rental_uris": {"ios": "https://dc.lft.to/lastmile_qr_scan", "android": "https://dc.lft.to/lastmile_qr_scan"}, "lon": -76.87818883333334, "type": "electric_bike", "fusion_lat": 0.0, "lat": 38.99230133333333, "name": "b9231746d67878a2c32ee1565f188ddc", "fusion_lon": 0.0, "bike_id": "b9231746d67878a2c32ee1565f188ddc", "is_disabled": 0, "is_reserved": 0}, {"rental_uris": {"ios": "https://dc.lft.to/lastmile_qr_scan", "android": "https://dc.lft.to/lastmile_qr_scan"}, "lon": -77.02622533333333, "type": "electric_scooter", "fusion_lat": 0.0, "lat": 38.8922325, "name": "ee2584e5d514131471c3790215da178e", "fusion_lon": 0.0, "bike_id": "ee2584e5d514131471c3790215da178e", "is_disabled": 0, "is_reserved": 0}, {"rental_uris": {"ios": "https://dc.lft.to/lastmile_qr_scan", "android": "https://dc.lft.to/lastmile_qr_scan"}, "lon": -77.04193483333333, "type": "electric_scooter", "fusion_lat": 0.0, "lat": 38.9167445, "name": "d50a94854247ddd92c13f7db7cce014c", "fusion_lon": 0.0, "bike_id": "d50a94854247ddd92c13f7db7cce014c", "is_disabled": 0, "is_reserved": 0}, {"rental_uris": {"ios": "https://dc.lft.to/lastmile_qr_scan", "android": "https://dc.lft.to/lastmile_qr_scan"}, "lon": -77.0317385, "type": "electric_scooter", "fusion_lat": 0.0, "lat": 38.909783, "name": "c34daf1436d7a3ce24c03a09ee86d50f", "fusion_lon": 0.0, "bike_id": "c34daf1436d7a3ce24c03a09ee86d50f", "is_disabled": 0, "is_reserved": 0}, {"rental_uris": {"ios": "https://dc.lft.to/lastmile_qr_scan", "android": "https://dc.lft.to/lastmile_qr_scan"}, "lon": -76.97214633333333, "type": "electric_bike", "fusion_lat": 0.0, "lat": 38.844837166666665, "name": "f43fadc2c364758f7fa8f92126f4ed8c", "fusion_lon": 0.0, "bike_id": "f43fadc2c364758f7fa8f92126f4ed8c", "is_disabled": 0, "is_reserved": 0}, {"rental_uris": {"ios": "https://dc.lft.to/lastmile_qr_scan", "android": "https://dc.lft.to/lastmile_qr_scan"}, "lon": -77.0483635, "type": "electric_scooter", "fusion_lat": 0.0, "lat": 38.903758333333336, "name": "a51ec355975b7ea938aceba19d6591dd", "fusion_lon": 0.0, "bike_id": "a51ec355975b7ea938aceba19d6591dd", "is_disabled": 0, "is_reserved": 0}, {"rental_uris": {"ios": "https://dc.lft.to/lastmile_qr_scan", "android": "https://dc.lft.to/lastmile_qr_scan"}, "lon": -76.94438383333333, "type": "electric_bike", "fusion_lat": 0.0, "lat": 38.902997166666665, "name": "ebf731fd31fba3e1220975a6e7a0250e", "fusion_lon": 0.0, "bike_id": "ebf731fd31fba3e1220975a6e7a0250e", "is_disabled": 0, "is_reserved": 0}, {"rental_uris": {"ios": "https://dc.lft.to/lastmile_qr_scan", "android": "https://dc.lft.to/lastmile_qr_scan"}, "lon": -77.04044716666667, "type": "electric_bike", "fusion_lat": 0.0, "lat": 38.90867566666667, "name": "c890e23ec34b15ec44b91f661ee59d15", "fusion_lon": 0.0, "bike_id": "c890e23ec34b15ec44b91f661ee59d15", "is_disabled": 0, "is_reserved": 0}, {"rental_uris": {"ios": "https://dc.lft.to/lastmile_qr_scan", "android": "https://dc.lft.to/lastmile_qr_scan"}, "lon": -77.03168333333333, "type": "electric_scooter", "fusion_lat": 0.0, "lat": 38.909745666666666, "name": "a131dd191e7734ed6953404be9b862fe", "fusion_lon": 0.0, "bike_id": "a131dd191e7734ed6953404be9b862fe", "is_disabled": 0, "is_reserved": 0}, {"rental_uris": {"ios": "https://dc.lft.to/lastmile_qr_scan", "android": "https://dc.lft.to/lastmile_qr_scan"}, "lon": -77.0112145, "type": "electric_scooter", "fusion_lat": 0.0, "lat": 38.9127085, "name": "2daa8f9bca6cfe727221ef607cedd61c", "fusion_lon": 0.0, "bike_id": "2daa8f9bca6cfe727221ef607cedd61c", "is_disabled": 0, "is_reserved": 0}, {"rental_uris": {"ios": "https://dc.lft.to/lastmile_qr_scan", "android": "https://dc.lft.to/lastmile_qr_scan"}, "lon": -77.03216, "type": "electric_scooter", "fusion_lat": 0.0, "lat": 38.93390383333333, "name": "9415054269e53ce2c7ca2aaa74575ee0", "fusion_lon": 0.0, "bike_id": "9415054269e53ce2c7ca2aaa74575ee0", "is_disabled": 0, "is_reserved": 0}, {"rental_uris": {"ios": "https://dc.lft.to/lastmile_qr_scan", "android": "https://dc.lft.to/lastmile_qr_scan"}, "lon": -77.03264483333334, "type": "electric_scooter", "fusion_lat": 0.0, "lat": 38.9366695, "name": "965625ab2003691849711fe8211a310b", "fusion_lon": 0.0, "bike_id": "965625ab2003691849711fe8211a310b", "is_disabled": 0, "is_reserved": 0}, {"rental_uris": {"ios": "https://dc.lft.to/lastmile_qr_scan", "android": "https://dc.lft.to/lastmile_qr_scan"}, "lon": -77.02477833333333, "type": "electric_scooter", "fusion_lat": 0.0, "lat": 38.93829566666667, "name": "2e2039dd35d3275a9c6ebaa9b9086857", "fusion_lon": 0.0, "bike_id": "2e2039dd35d3275a9c6ebaa9b9086857", "is_disabled": 0, "is_reserved": 0}, {"rental_uris": {"ios": "https://dc.lft.to/lastmile_qr_scan", "android": "https://dc.lft.to/lastmile_qr_scan"}, "lon": -77.00370133333334, "type": "electric_scooter", "fusion_lat": 0.0, "lat": 38.89900016666667, "name": "a18abdc91d958b0d1ab60f9256ad829f", "fusion_lon": 0.0, "bike_id": "a18abdc91d958b0d1ab60f9256ad829f", "is_disabled": 0, "is_reserved": 0}, {"rental_uris": {"ios": "https://dc.lft.to/lastmile_qr_scan", "android": "https://dc.lft.to/lastmile_qr_scan"}, "lon": -77.033889, "type": "electric_scooter", "fusion_lat": 0.0, "lat": 38.938507666666666, "name": "7940024cf5f41869c59ef97d0bc94253", "fusion_lon": 0.0, "bike_id": "7940024cf5f41869c59ef97d0bc94253", "is_disabled": 0, "is_reserved": 0}, {"rental_uris": {"ios": "https://dc.lft.to/lastmile_qr_scan", "android": "https://dc.lft.to/lastmile_qr_scan"}, "lon": -77.04749066666666, "type": "electric_scooter", "fusion_lat": 0.0, "lat": 38.91774683333333, "name": "175eecbcfe27cd8228616adca75a93ed", "fusion_lon": 0.0, "bike_id": "175eecbcfe27cd8228616adca75a93ed", "is_disabled": 0, "is_reserved": 0}, {"rental_uris": {"ios": "https://dc.lft.to/lastmile_qr_scan", "android": "https://dc.lft.to/lastmile_qr_scan"}, "lon": -77.01080616666667, "type": "electric_scooter", "fusion_lat": 0.0, "lat": 38.89402783333333, "name": "03fdf3d2052cf5952babd398f5607cf0", "fusion_lon": 0.0, "bike_id": "03fdf3d2052cf5952babd398f5607cf0", "is_disabled": 0, "is_reserved": 0}, {"rental_uris": {"ios": "https://dc.lft.to/lastmile_qr_scan", "android": "https://dc.lft.to/lastmile_qr_scan"}, "lon": -77.1012675, "type": "electric_bike", "fusion_lat": 0.0, "lat": 38.85210083333333, "name": "e72473f6155ac74d6f3a7a37395b7803", "fusion_lon": 0.0, "bike_id": "e72473f6155ac74d6f3a7a37395b7803", "is_disabled": 0, "is_reserved": 0}, {"rental_uris": {"ios": "https://dc.lft.to/lastmile_qr_scan", "android": "https://dc.lft.to/lastmile_qr_scan"}, "lon": -77.032173, "type": "electric_scooter", "fusion_lat": 0.0, "lat": 38.892216, "name": "07b1c4a285f5bb72b78f8a3e02971b44", "fusion_lon": 0.0, "bike_id": "07b1c4a285f5bb72b78f8a3e02971b44", "is_disabled": 0, "is_reserved": 0}, {"rental_uris": {"ios": "https://dc.lft.to/lastmile_qr_scan", "android": "https://dc.lft.to/lastmile_qr_scan"}, "lon": -77.03203666666667, "type": "electric_scooter", "fusion_lat": 0.0, "lat": 38.9196285, "name": "204cfd5d32e86350459df5ffff41492e", "fusion_lon": 0.0, "bike_id": "204cfd5d32e86350459df5ffff41492e", "is_disabled": 0, "is_reserved": 0}, {"rental_uris": {"ios": "https://dc.lft.to/lastmile_qr_scan", "android": "https://dc.lft.to/lastmile_qr_scan"}, "lon": -77.00187183333334, "type": "electric_scooter", "fusion_lat": 0.0, "lat": 38.8738275, "name": "4a8ffc81a18182dde6248ffdf1601db4", "fusion_lon": 0.0, "bike_id": "4a8ffc81a18182dde6248ffdf1601db4", "is_disabled": 0, "is_reserved": 0}, {"rental_uris": {"ios": "https://dc.lft.to/lastmile_qr_scan", "android": "https://dc.lft.to/lastmile_qr_scan"}, "lon": -77.06939266666667, "type": "electric_scooter", "fusion_lat": 0.0, "lat": 38.90507683333333, "name": "f40b641881ca12b87dbbeca3feedebce", "fusion_lon": 0.0, "bike_id": "f40b641881ca12b87dbbeca3feedebce", "is_disabled": 0, "is_reserved": 0}, {"rental_uris": {"ios": "https://dc.lft.to/lastmile_qr_scan", "android": "https://dc.lft.to/lastmile_qr_scan"}, "lon": -77.04334566666667, "type": "electric_scooter", "fusion_lat": 0.0, "lat": 38.892287, "name": "baef82f8c5207dc9eb069232013b190c", "fusion_lon": 0.0, "bike_id": "baef82f8c5207dc9eb069232013b190c", "is_disabled": 0, "is_reserved": 0}, {"rental_uris": {"ios": "https://dc.lft.to/lastmile_qr_scan", "android": "https://dc.lft.to/lastmile_qr_scan"}, "lon": -77.044418, "type": "electric_scooter", "fusion_lat": 0.0, "lat": 38.910207166666666, "name": "fb5d655101cb39ca26ae39f58ec809e6", "fusion_lon": 0.0, "bike_id": "fb5d655101cb39ca26ae39f58ec809e6", "is_disabled": 0, "is_reserved": 0}, {"rental_uris": {"ios": "https://dc.lft.to/lastmile_qr_scan", "android": "https://dc.lft.to/lastmile_qr_scan"}, "lon": -77.0368035, "type": "electric_scooter", "fusion_lat": 0.0, "lat": 38.91813766666667, "name": "dcbbabcc696c78a19f70d6ac6f0c736d", "fusion_lon": 0.0, "bike_id": "dcbbabcc696c78a19f70d6ac6f0c736d", "is_disabled": 0, "is_reserved": 0}, {"rental_uris": {"ios": "https://dc.lft.to/lastmile_qr_scan", "android": "https://dc.lft.to/lastmile_qr_scan"}, "lon": -77.0320965, "type": "electric_scooter", "fusion_lat": 0.0, "lat": 38.892325666666665, "name": "165ba0cb901f46bba16bb2fec1197587", "fusion_lon": 0.0, "bike_id": "165ba0cb901f46bba16bb2fec1197587", "is_disabled": 0, "is_reserved": 0}, {"rental_uris": {"ios": "https://dc.lft.to/lastmile_qr_scan", "android": "https://dc.lft.to/lastmile_qr_scan"}, "lon": -77.09863883333334, "type": "electric_bike", "fusion_lat": 0.0, "lat": 38.853810333333335, "name": "ea79d37b8c64e96ba80629bb8867aad1", "fusion_lon": 0.0, "bike_id": "ea79d37b8c64e96ba80629bb8867aad1", "is_disabled": 0, "is_reserved": 0}, {"rental_uris": {"ios": "https://dc.lft.to/lastmile_qr_scan", "android": "https://dc.lft.to/lastmile_qr_scan"}, "lon": -77.05021666666667, "type": "electric_scooter", "fusion_lat": 0.0, "lat": 38.9180005, "name": "24f500d8fb8440f411679be54d38beb6", "fusion_lon": 0.0, "bike_id": "24f500d8fb8440f411679be54d38beb6", "is_disabled": 0, "is_reserved": 0}, {"rental_uris": {"ios": "https://dc.lft.to/lastmile_qr_scan", "android": "https://dc.lft.to/lastmile_qr_scan"}, "lon": -77.0240375, "type": "electric_scooter", "fusion_lat": 0.0, "lat": 38.936940666666665, "name": "66c4847cf359f1aa5e8d5ce81e651356", "fusion_lon": 0.0, "bike_id": "66c4847cf359f1aa5e8d5ce81e651356", "is_disabled": 0, "is_reserved": 0}, {"rental_uris": {"ios": "https://dc.lft.to/lastmile_qr_scan", "android": "https://dc.lft.to/lastmile_qr_scan"}, "lon": -76.98340016666667, "type": "electric_scooter", "fusion_lat": 0.0, "lat": 38.915362, "name": "0e649530035ace37fd6a83fc77f49c42", "fusion_lon": 0.0, "bike_id": "0e649530035ace37fd6a83fc77f49c42", "is_disabled": 0, "is_reserved": 0}, {"rental_uris": {"ios": "https://dc.lft.to/lastmile_qr_scan", "android": "https://dc.lft.to/lastmile_qr_scan"}, "lon": -77.03227233333334, "type": "electric_scooter", "fusion_lat": 0.0, "lat": 38.92677483333333, "name": "e6cdfb5a0af37f59ead154223ee79415", "fusion_lon": 0.0, "bike_id": "e6cdfb5a0af37f59ead154223ee79415", "is_disabled": 0, "is_reserved": 0}, {"rental_uris": {"ios": "https://dc.lft.to/lastmile_qr_scan", "android": "https://dc.lft.to/lastmile_qr_scan"}, "lon": -77.0422015, "type": "electric_scooter", "fusion_lat": 0.0, "lat": 38.921084, "name": "6465981a7063a599324199dc4cada3cd", "fusion_lon": 0.0, "bike_id": "6465981a7063a599324199dc4cada3cd", "is_disabled": 0, "is_reserved": 0}, {"rental_uris": {"ios": "https://dc.lft.to/lastmile_qr_scan", "android": "https://dc.lft.to/lastmile_qr_scan"}, "lon": -77.064916, "type": "electric_bike", "fusion_lat": 0.0, "lat": 38.96497383333333, "name": "737d97a422f36d4171c2671efc0aa136", "fusion_lon": 0.0, "bike_id": "737d97a422f36d4171c2671efc0aa136", "is_disabled": 0, "is_reserved": 0}, {"rental_uris": {"ios": "https://dc.lft.to/lastmile_qr_scan", "android": "https://dc.lft.to/lastmile_qr_scan"}, "lon": -77.01622033333334, "type": "electric_scooter", "fusion_lat": 0.0, "lat": 38.9060175, "name": "20b4922c8203d1d1688fe3458738f28c", "fusion_lon": 0.0, "bike_id": "20b4922c8203d1d1688fe3458738f28c", "is_disabled": 0, "is_reserved": 0}, {"rental_uris": {"ios": "https://dc.lft.to/lastmile_qr_scan", "android": "https://dc.lft.to/lastmile_qr_scan"}, "lon": -77.0029075, "type": "electric_scooter", "fusion_lat": 0.0, "lat": 38.905617666666664, "name": "a3598c5595042838cdd740b8de78b8e2", "fusion_lon": 0.0, "bike_id": "a3598c5595042838cdd740b8de78b8e2", "is_disabled": 0, "is_reserved": 0}, {"rental_uris": {"ios": "https://dc.lft.to/lastmile_qr_scan", "android": "https://dc.lft.to/lastmile_qr_scan"}, "lon": -77.04866416666667, "type": "electric_scooter", "fusion_lat": 0.0, "lat": 38.90850116666667, "name": "2675ad2992d2332849c6071a80a54c95", "fusion_lon": 0.0, "bike_id": "2675ad2992d2332849c6071a80a54c95", "is_disabled": 0, "is_reserved": 0}, {"rental_uris": {"ios": "https://dc.lft.to/lastmile_qr_scan", "android": "https://dc.lft.to/lastmile_qr_scan"}, "lon": -76.94416766666667, "type": "electric_scooter", "fusion_lat": 0.0, "lat": 38.897951, "name": "9305043805398869a3a07c0bf35d589f", "fusion_lon": 0.0, "bike_id": "9305043805398869a3a07c0bf35d589f", "is_disabled": 0, "is_reserved": 0}, {"rental_uris": {"ios": "https://dc.lft.to/lastmile_qr_scan", "android": "https://dc.lft.to/lastmile_qr_scan"}, "lon": -77.01950983333333, "type": "electric_scooter", "fusion_lat": 0.0, "lat": 38.88595133333333, "name": "e65397ba8eb64cfc0413c31df99f2b2e", "fusion_lon": 0.0, "bike_id": "e65397ba8eb64cfc0413c31df99f2b2e", "is_disabled": 0, "is_reserved": 0}, {"rental_uris": {"ios": "https://dc.lft.to/lastmile_qr_scan", "android": "https://dc.lft.to/lastmile_qr_scan"}, "lon": -77.01059666666667, "type": "electric_scooter", "fusion_lat": 0.0, "lat": 38.87579233333334, "name": "cc629720100bdbe83dff7f00e52e44b8", "fusion_lon": 0.0, "bike_id": "cc629720100bdbe83dff7f00e52e44b8", "is_disabled": 0, "is_reserved": 0}, {"rental_uris": {"ios": "https://dc.lft.to/lastmile_qr_scan", "android": "https://dc.lft.to/lastmile_qr_scan"}, "lon": -77.1058305, "type": "electric_bike", "fusion_lat": 0.0, "lat": 38.885340166666666, "name": "2244d347deac87be94361e052ccb792b", "fusion_lon": 0.0, "bike_id": "2244d347deac87be94361e052ccb792b", "is_disabled": 0, "is_reserved": 0}, {"rental_uris": {"ios": "https://dc.lft.to/lastmile_qr_scan", "android": "https://dc.lft.to/lastmile_qr_scan"}, "lon": -77.11312483333333, "type": "electric_bike", "fusion_lat": 0.0, "lat": 38.855645, "name": "4fe960843da4247c4026bf39e4d1ebe5", "fusion_lon": 0.0, "bike_id": "4fe960843da4247c4026bf39e4d1ebe5", "is_disabled": 0, "is_reserved": 0}, {"rental_uris": {"ios": "https://dc.lft.to/lastmile_qr_scan", "android": "https://dc.lft.to/lastmile_qr_scan"}, "lon": -77.03224583333333, "type": "electric_scooter", "fusion_lat": 0.0, "lat": 38.90869266666667, "name": "a2f5c9e8f522a24aa3ec2bc762127ab1", "fusion_lon": 0.0, "bike_id": "a2f5c9e8f522a24aa3ec2bc762127ab1", "is_disabled": 0, "is_reserved": 0}, {"rental_uris": {"ios": "https://dc.lft.to/lastmile_qr_scan", "android": "https://dc.lft.to/lastmile_qr_scan"}, "lon": -77.03216066666667, "type": "electric_scooter", "fusion_lat": 0.0, "lat": 38.892207666666664, "name": "90cca0d6ecbe4dee57e1e311537d0091", "fusion_lon": 0.0, "bike_id": "90cca0d6ecbe4dee57e1e311537d0091", "is_disabled": 0, "is_reserved": 0}, {"rental_uris": {"ios": "https://dc.lft.to/lastmile_qr_scan", "android": "https://dc.lft.to/lastmile_qr_scan"}, "lon": -77.07083233333333, "type": "electric_bike", "fusion_lat": 0.0, "lat": 38.95559383333333, "name": "47d992fdeb5d074fb66c2c57c069cc76", "fusion_lon": 0.0, "bike_id": "47d992fdeb5d074fb66c2c57c069cc76", "is_disabled": 0, "is_reserved": 0}, {"rental_uris": {"ios": "https://dc.lft.to/lastmile_qr_scan", "android": "https://dc.lft.to/lastmile_qr_scan"}, "lon": -77.03009633333333, "type": "electric_scooter", "fusion_lat": 0.0, "lat": 38.91268633333333, "name": "4407b30ef30c45568dc1494ce958d236", "fusion_lon": 0.0, "bike_id": "4407b30ef30c45568dc1494ce958d236", "is_disabled": 0, "is_reserved": 0}, {"rental_uris": {"ios": "https://dc.lft.to/lastmile_qr_scan", "android": "https://dc.lft.to/lastmile_qr_scan"}, "lon": -76.9888815, "type": "electric_scooter", "fusion_lat": 0.0, "lat": 38.866635333333335, "name": "e8d15c278aad44b4fc9cbd954fa8eeac", "fusion_lon": 0.0, "bike_id": "e8d15c278aad44b4fc9cbd954fa8eeac", "is_disabled": 0, "is_reserved": 0}, {"rental_uris": {"ios": "https://dc.lft.to/lastmile_qr_scan", "android": "https://dc.lft.to/lastmile_qr_scan"}, "lon": -77.016107, "type": "electric_scooter", "fusion_lat": 0.0, "lat": 38.90042966666667, "name": "92035a1af0a7aa5d1fdc2fd2aeb6803b", "fusion_lon": 0.0, "bike_id": "92035a1af0a7aa5d1fdc2fd2aeb6803b", "is_disabled": 0, "is_reserved": 0}, {"rental_uris": {"ios": "https://dc.lft.to/lastmile_qr_scan", "android": "https://dc.lft.to/lastmile_qr_scan"}, "lon": -77.03824316666666, "type": "electric_scooter", "fusion_lat": 0.0, "lat": 38.93124066666667, "name": "822ca6f641ffbc3973b13aba5821f98b", "fusion_lon": 0.0, "bike_id": "822ca6f641ffbc3973b13aba5821f98b", "is_disabled": 0, "is_reserved": 0}, {"rental_uris": {"ios": "https://dc.lft.to/lastmile_qr_scan", "android": "https://dc.lft.to/lastmile_qr_scan"}, "lon": -76.98567333333334, "type": "electric_scooter", "fusion_lat": 0.0, "lat": 38.89957, "name": "ce4fabc9d182c2144ca8310619ba8700", "fusion_lon": 0.0, "bike_id": "ce4fabc9d182c2144ca8310619ba8700", "is_disabled": 0, "is_reserved": 0}, {"rental_uris": {"ios": "https://dc.lft.to/lastmile_qr_scan", "android": "https://dc.lft.to/lastmile_qr_scan"}, "lon": -77.02283066666666, "type": "electric_scooter", "fusion_lat": 0.0, "lat": 38.924208666666665, "name": "459bdfcd2eecbd0a5ba6da7b45934fb9", "fusion_lon": 0.0, "bike_id": "459bdfcd2eecbd0a5ba6da7b45934fb9", "is_disabled": 0, "is_reserved": 0}, {"rental_uris": {"ios": "https://dc.lft.to/lastmile_qr_scan", "android": "https://dc.lft.to/lastmile_qr_scan"}, "lon": -77.0320965, "type": "electric_scooter", "fusion_lat": 0.0, "lat": 38.911077666666664, "name": "1147e3c7d7fb3e9bd5da0c9ffa49f76e", "fusion_lon": 0.0, "bike_id": "1147e3c7d7fb3e9bd5da0c9ffa49f76e", "is_disabled": 0, "is_reserved": 0}, {"rental_uris": {"ios": "https://dc.lft.to/lastmile_qr_scan", "android": "https://dc.lft.to/lastmile_qr_scan"}, "lon": -77.0118575, "type": "electric_scooter", "fusion_lat": 0.0, "lat": 38.9111255, "name": "5bdc4e4630faa68e5cd095b832a98a90", "fusion_lon": 0.0, "bike_id": "5bdc4e4630faa68e5cd095b832a98a90", "is_disabled": 0, "is_reserved": 0}, {"rental_uris": {"ios": "https://dc.lft.to/lastmile_qr_scan", "android": "https://dc.lft.to/lastmile_qr_scan"}, "lon": -76.93176, "type": "electric_scooter", "fusion_lat": 0.0, "lat": 38.8988595, "name": "e7f013b3c325260359a029b085d27e13", "fusion_lon": 0.0, "bike_id": "e7f013b3c325260359a029b085d27e13", "is_disabled": 0, "is_reserved": 0}, {"rental_uris": {"ios": "https://dc.lft.to/lastmile_qr_scan", "android": "https://dc.lft.to/lastmile_qr_scan"}, "lon": -77.03339283333334, "type": "electric_scooter", "fusion_lat": 0.0, "lat": 38.89742616666667, "name": "d8884f7a234feb78bd2d4925dc67674c", "fusion_lon": 0.0, "bike_id": "d8884f7a234feb78bd2d4925dc67674c", "is_disabled": 0, "is_reserved": 0}, {"rental_uris": {"ios": "https://dc.lft.to/lastmile_qr_scan", "android": "https://dc.lft.to/lastmile_qr_scan"}, "lon": -77.03250883333334, "type": "electric_scooter", "fusion_lat": 0.0, "lat": 38.90959516666667, "name": "e321bad55cb5aa3c91cf405f98717b27", "fusion_lon": 0.0, "bike_id": "e321bad55cb5aa3c91cf405f98717b27", "is_disabled": 0, "is_reserved": 0}, {"rental_uris": {"ios": "https://dc.lft.to/lastmile_qr_scan", "android": "https://dc.lft.to/lastmile_qr_scan"}, "lon": -77.03658116666666, "type": "electric_scooter", "fusion_lat": 0.0, "lat": 38.936334333333335, "name": "c359ecb3ffb8f7675b6413d2483e4e79", "fusion_lon": 0.0, "bike_id": "c359ecb3ffb8f7675b6413d2483e4e79", "is_disabled": 0, "is_reserved": 0}, {"rental_uris": {"ios": "https://dc.lft.to/lastmile_qr_scan", "android": "https://dc.lft.to/lastmile_qr_scan"}, "lon": -77.02151733333334, "type": "electric_scooter", "fusion_lat": 0.0, "lat": 38.9423205, "name": "7463391a56ce18e18b9e98e35e795087", "fusion_lon": 0.0, "bike_id": "7463391a56ce18e18b9e98e35e795087", "is_disabled": 0, "is_reserved": 0}, {"rental_uris": {"ios": "https://dc.lft.to/lastmile_qr_scan", "android": "https://dc.lft.to/lastmile_qr_scan"}, "lon": -76.96527666666667, "type": "electric_bike", "fusion_lat": 0.0, "lat": 38.874811, "name": "fa46f3b5e71ef0e97a9c3405ea413a1c", "fusion_lon": 0.0, "bike_id": "fa46f3b5e71ef0e97a9c3405ea413a1c", "is_disabled": 0, "is_reserved": 0}, {"rental_uris": {"ios": "https://dc.lft.to/lastmile_qr_scan", "android": "https://dc.lft.to/lastmile_qr_scan"}, "lon": -77.0264945, "type": "electric_scooter", "fusion_lat": 0.0, "lat": 38.895679333333334, "name": "eddd61a2e2060b72726df2f2d6d81451", "fusion_lon": 0.0, "bike_id": "eddd61a2e2060b72726df2f2d6d81451", "is_disabled": 0, "is_reserved": 0}, {"rental_uris": {"ios": "https://dc.lft.to/lastmile_qr_scan", "android": "https://dc.lft.to/lastmile_qr_scan"}, "lon": -77.06296, "type": "electric_scooter", "fusion_lat": 0.0, "lat": 38.90699733333334, "name": "0e1007608f783f64a7a14f879718a795", "fusion_lon": 0.0, "bike_id": "0e1007608f783f64a7a14f879718a795", "is_disabled": 0, "is_reserved": 0}, {"rental_uris": {"ios": "https://dc.lft.to/lastmile_qr_scan", "android": "https://dc.lft.to/lastmile_qr_scan"}, "lon": -77.05001283333333, "type": "electric_scooter", "fusion_lat": 0.0, "lat": 38.8923215, "name": "73833b84e9173bc648da6bd9a56cdfed", "fusion_lon": 0.0, "bike_id": "73833b84e9173bc648da6bd9a56cdfed", "is_disabled": 0, "is_reserved": 0}, {"rental_uris": {"ios": "https://dc.lft.to/lastmile_qr_scan", "android": "https://dc.lft.to/lastmile_qr_scan"}, "lon": -77.02598216666667, "type": "electric_scooter", "fusion_lat": 0.0, "lat": 38.90526083333334, "name": "702aa43c947437d33f6c15523b9744f1", "fusion_lon": 0.0, "bike_id": "702aa43c947437d33f6c15523b9744f1", "is_disabled": 0, "is_reserved": 0}, {"rental_uris": {"ios": "https://dc.lft.to/lastmile_qr_scan", "android": "https://dc.lft.to/lastmile_qr_scan"}, "lon": -77.040007, "type": "electric_scooter", "fusion_lat": 0.0, "lat": 38.9003775, "name": "cac328f0f62de1c2c2f717c547894476", "fusion_lon": 0.0, "bike_id": "cac328f0f62de1c2c2f717c547894476", "is_disabled": 0, "is_reserved": 0}, {"rental_uris": {"ios": "https://dc.lft.to/lastmile_qr_scan", "android": "https://dc.lft.to/lastmile_qr_scan"}, "lon": -76.97210466666667, "type": "electric_scooter", "fusion_lat": 0.0, "lat": 38.854973666666666, "name": "12d2bb13c7d6ca7cdceed0d11240c777", "fusion_lon": 0.0, "bike_id": "12d2bb13c7d6ca7cdceed0d11240c777", "is_disabled": 0, "is_reserved": 0}, {"rental_uris": {"ios": "https://dc.lft.to/lastmile_qr_scan", "android": "https://dc.lft.to/lastmile_qr_scan"}, "lon": -77.02211766666667, "type": "electric_scooter", "fusion_lat": 0.0, "lat": 38.89617916666667, "name": "a17e82e2dd213fd7e233d3266eff45d6", "fusion_lon": 0.0, "bike_id": "a17e82e2dd213fd7e233d3266eff45d6", "is_disabled": 0, "is_reserved": 0}, {"rental_uris": {"ios": "https://dc.lft.to/lastmile_qr_scan", "android": "https://dc.lft.to/lastmile_qr_scan"}, "lon": -77.02934483333334, "type": "electric_scooter", "fusion_lat": 0.0, "lat": 38.895407166666665, "name": "475c49752dce6588e0758f953bab66fe", "fusion_lon": 0.0, "bike_id": "475c49752dce6588e0758f953bab66fe", "is_disabled": 0, "is_reserved": 0}, {"rental_uris": {"ios": "https://dc.lft.to/lastmile_qr_scan", "android": "https://dc.lft.to/lastmile_qr_scan"}, "lon": -77.04502683333334, "type": "electric_scooter", "fusion_lat": 0.0, "lat": 38.911900333333335, "name": "e10d42abcf3ec527a75c41168e2e49a4", "fusion_lon": 0.0, "bike_id": "e10d42abcf3ec527a75c41168e2e49a4", "is_disabled": 0, "is_reserved": 0}, {"rental_uris": {"ios": "https://dc.lft.to/lastmile_qr_scan", "android": "https://dc.lft.to/lastmile_qr_scan"}, "lon": -77.03915116666667, "type": "electric_scooter", "fusion_lat": 0.0, "lat": 38.89913883333333, "name": "e837a46bd07452e2fd4973689f44ad60", "fusion_lon": 0.0, "bike_id": "e837a46bd07452e2fd4973689f44ad60", "is_disabled": 0, "is_reserved": 0}, {"rental_uris": {"ios": "https://dc.lft.to/lastmile_qr_scan", "android": "https://dc.lft.to/lastmile_qr_scan"}, "lon": -76.99869883333334, "type": "electric_scooter", "fusion_lat": 0.0, "lat": 38.90754583333333, "name": "e762393dcf16d63afce740bf8b1c7345", "fusion_lon": 0.0, "bike_id": "e762393dcf16d63afce740bf8b1c7345", "is_disabled": 0, "is_reserved": 0}, {"rental_uris": {"ios": "https://dc.lft.to/lastmile_qr_scan", "android": "https://dc.lft.to/lastmile_qr_scan"}, "lon": -77.02628083333333, "type": "electric_scooter", "fusion_lat": 0.0, "lat": 38.89603733333333, "name": "ff7d73f8f1996ce961a2fbb01313a557", "fusion_lon": 0.0, "bike_id": "ff7d73f8f1996ce961a2fbb01313a557", "is_disabled": 0, "is_reserved": 0}, {"rental_uris": {"ios": "https://dc.lft.to/lastmile_qr_scan", "android": "https://dc.lft.to/lastmile_qr_scan"}, "lon": -77.043129, "type": "electric_scooter", "fusion_lat": 0.0, "lat": 38.908215166666665, "name": "9b2fa152724f086efa114ba2f10d8d5f", "fusion_lon": 0.0, "bike_id": "9b2fa152724f086efa114ba2f10d8d5f", "is_disabled": 0, "is_reserved": 0}, {"rental_uris": {"ios": "https://dc.lft.to/lastmile_qr_scan", "android": "https://dc.lft.to/lastmile_qr_scan"}, "lon": -76.94626983333333, "type": "electric_bike", "fusion_lat": 0.0, "lat": 38.946266666666666, "name": "90c9982b39701ade2e23a1d26ed6353e", "fusion_lon": 0.0, "bike_id": "90c9982b39701ade2e23a1d26ed6353e", "is_disabled": 0, "is_reserved": 0}, {"rental_uris": {"ios": "https://dc.lft.to/lastmile_qr_scan", "android": "https://dc.lft.to/lastmile_qr_scan"}, "lon": -77.110568, "type": "electric_bike", "fusion_lat": 0.0, "lat": 38.870790166666666, "name": "b6df92b6ff3569048f93ef655ed43606", "fusion_lon": 0.0, "bike_id": "b6df92b6ff3569048f93ef655ed43606", "is_disabled": 0, "is_reserved": 0}, {"rental_uris": {"ios": "https://dc.lft.to/lastmile_qr_scan", "android": "https://dc.lft.to/lastmile_qr_scan"}, "lon": -76.99820966666667, "type": "electric_scooter", "fusion_lat": 0.0, "lat": 38.9233585, "name": "96d380973093dbdea59266b6721ba0da", "fusion_lon": 0.0, "bike_id": "96d380973093dbdea59266b6721ba0da", "is_disabled": 0, "is_reserved": 0}, {"rental_uris": {"ios": "https://dc.lft.to/lastmile_qr_scan", "android": "https://dc.lft.to/lastmile_qr_scan"}, "lon": -76.97274566666667, "type": "electric_bike", "fusion_lat": 0.0, "lat": 38.919740166666664, "name": "a0a112e488a2bbd1e5dd03f91f7f8929", "fusion_lon": 0.0, "bike_id": "a0a112e488a2bbd1e5dd03f91f7f8929", "is_disabled": 0, "is_reserved": 0}, {"rental_uris": {"ios": "https://dc.lft.to/lastmile_qr_scan", "android": "https://dc.lft.to/lastmile_qr_scan"}, "lon": -77.00486666666667, "type": "electric_scooter", "fusion_lat": 0.0, "lat": 38.887708, "name": "9ccb424b5e2d0083d49753c553134a00", "fusion_lon": 0.0, "bike_id": "9ccb424b5e2d0083d49753c553134a00", "is_disabled": 0, "is_reserved": 0}, {"rental_uris": {"ios": "https://dc.lft.to/lastmile_qr_scan", "android": "https://dc.lft.to/lastmile_qr_scan"}, "lon": -77.01746666666666, "type": "electric_scooter", "fusion_lat": 0.0, "lat": 38.87721283333333, "name": "4da21fdcdb0325aa731c3c4a0c91ad6b", "fusion_lon": 0.0, "bike_id": "4da21fdcdb0325aa731c3c4a0c91ad6b", "is_disabled": 0, "is_reserved": 0}, {"rental_uris": {"ios": "https://dc.lft.to/lastmile_qr_scan", "android": "https://dc.lft.to/lastmile_qr_scan"}, "lon": -77.02370983333333, "type": "electric_scooter", "fusion_lat": 0.0, "lat": 38.936979666666666, "name": "8bbc6e1f03182dad3a5409cc95ddd3d0", "fusion_lon": 0.0, "bike_id": "8bbc6e1f03182dad3a5409cc95ddd3d0", "is_disabled": 0, "is_reserved": 0}, {"rental_uris": {"ios": "https://dc.lft.to/lastmile_qr_scan", "android": "https://dc.lft.to/lastmile_qr_scan"}, "lon": -77.04042, "type": "electric_scooter", "fusion_lat": 0.0, "lat": 38.92474583333333, "name": "c52fbd5995803602a797bdc42495de74", "fusion_lon": 0.0, "bike_id": "c52fbd5995803602a797bdc42495de74", "is_disabled": 0, "is_reserved": 0}, {"rental_uris": {"ios": "https://dc.lft.to/lastmile_qr_scan", "android": "https://dc.lft.to/lastmile_qr_scan"}, "lon": -77.03182316666667, "type": "electric_scooter", "fusion_lat": 0.0, "lat": 38.929631666666666, "name": "b2c416851d26742ae51d543f5199b96c", "fusion_lon": 0.0, "bike_id": "b2c416851d26742ae51d543f5199b96c", "is_disabled": 0, "is_reserved": 0}, {"rental_uris": {"ios": "https://dc.lft.to/lastmile_qr_scan", "android": "https://dc.lft.to/lastmile_qr_scan"}, "lon": -76.980196, "type": "electric_scooter", "fusion_lat": 0.0, "lat": 38.88769283333333, "name": "d07717e04563b73910869a4207be3b23", "fusion_lon": 0.0, "bike_id": "d07717e04563b73910869a4207be3b23", "is_disabled": 0, "is_reserved": 0}, {"rental_uris": {"ios": "https://dc.lft.to/lastmile_qr_scan", "android": "https://dc.lft.to/lastmile_qr_scan"}, "lon": -77.02971783333334, "type": "electric_scooter", "fusion_lat": 0.0, "lat": 38.91059833333333, "name": "650c43dfb238ae07930c29be4d1e54f5", "fusion_lon": 0.0, "bike_id": "650c43dfb238ae07930c29be4d1e54f5", "is_disabled": 0, "is_reserved": 0}, {"rental_uris": {"ios": "https://dc.lft.to/lastmile_qr_scan", "android": "https://dc.lft.to/lastmile_qr_scan"}, "lon": -77.03317716666666, "type": "electric_scooter", "fusion_lat": 0.0, "lat": 38.926609166666665, "name": "93bf0f697b0353ac19eae551f1b4cb41", "fusion_lon": 0.0, "bike_id": "93bf0f697b0353ac19eae551f1b4cb41", "is_disabled": 0, "is_reserved": 0}, {"rental_uris": {"ios": "https://dc.lft.to/lastmile_qr_scan", "android": "https://dc.lft.to/lastmile_qr_scan"}, "lon": -77.078579, "type": "electric_scooter", "fusion_lat": 0.0, "lat": 38.931683666666665, "name": "639aefc25b191041ee52a1e64168b2fe", "fusion_lon": 0.0, "bike_id": "639aefc25b191041ee52a1e64168b2fe", "is_disabled": 0, "is_reserved": 0}, {"rental_uris": {"ios": "https://dc.lft.to/lastmile_qr_scan", "android": "https://dc.lft.to/lastmile_qr_scan"}, "lon": -77.04189933333333, "type": "electric_scooter", "fusion_lat": 0.0, "lat": 38.90062183333333, "name": "cfc9a422ad4a5815ad7d78543a3c9fef", "fusion_lon": 0.0, "bike_id": "cfc9a422ad4a5815ad7d78543a3c9fef", "is_disabled": 0, "is_reserved": 0}, {"rental_uris": {"ios": "https://dc.lft.to/lastmile_qr_scan", "android": "https://dc.lft.to/lastmile_qr_scan"}, "lon": -77.01252833333334, "type": "electric_scooter", "fusion_lat": 0.0, "lat": 38.8996575, "name": "7c01a1f87e327905269718d12e32109b", "fusion_lon": 0.0, "bike_id": "7c01a1f87e327905269718d12e32109b", "is_disabled": 0, "is_reserved": 0}, {"rental_uris": {"ios": "https://dc.lft.to/lastmile_qr_scan", "android": "https://dc.lft.to/lastmile_qr_scan"}, "lon": -76.98718183333334, "type": "electric_scooter", "fusion_lat": 0.0, "lat": 38.86273833333333, "name": "9ad8bc391402a6c96fdc6e303945fe21", "fusion_lon": 0.0, "bike_id": "9ad8bc391402a6c96fdc6e303945fe21", "is_disabled": 0, "is_reserved": 0}, {"rental_uris": {"ios": "https://dc.lft.to/lastmile_qr_scan", "android": "https://dc.lft.to/lastmile_qr_scan"}, "lon": -77.01011066666666, "type": "electric_scooter", "fusion_lat": 0.0, "lat": 38.89491066666667, "name": "9e96b944fe9e8d37306248940ea1910a", "fusion_lon": 0.0, "bike_id": "9e96b944fe9e8d37306248940ea1910a", "is_disabled": 0, "is_reserved": 0}, {"rental_uris": {"ios": "https://dc.lft.to/lastmile_qr_scan", "android": "https://dc.lft.to/lastmile_qr_scan"}, "lon": -77.1359375, "type": "electric_bike", "fusion_lat": 0.0, "lat": 39.05347883333334, "name": "87c7e88ac2219648777f50d26c70ad67", "fusion_lon": 0.0, "bike_id": "87c7e88ac2219648777f50d26c70ad67", "is_disabled": 0, "is_reserved": 0}, {"rental_uris": {"ios": "https://dc.lft.to/lastmile_qr_scan", "android": "https://dc.lft.to/lastmile_qr_scan"}, "lon": -76.991455, "type": "electric_scooter", "fusion_lat": 0.0, "lat": 38.90037183333333, "name": "2822d3f7a58c3a5d0b162bd0f5125a75", "fusion_lon": 0.0, "bike_id": "2822d3f7a58c3a5d0b162bd0f5125a75", "is_disabled": 0, "is_reserved": 0}, {"rental_uris": {"ios": "https://dc.lft.to/lastmile_qr_scan", "android": "https://dc.lft.to/lastmile_qr_scan"}, "lon": -77.022066, "type": "electric_scooter", "fusion_lat": 0.0, "lat": 38.887372666666664, "name": "a47f436c0c3d1fdced6726015540d0af", "fusion_lon": 0.0, "bike_id": "a47f436c0c3d1fdced6726015540d0af", "is_disabled": 0, "is_reserved": 0}, {"rental_uris": {"ios": "https://dc.lft.to/lastmile_qr_scan", "android": "https://dc.lft.to/lastmile_qr_scan"}, "lon": -77.03407483333334, "type": "electric_scooter", "fusion_lat": 0.0, "lat": 38.92268333333333, "name": "710c79ad895672911a96e79065fb293e", "fusion_lon": 0.0, "bike_id": "710c79ad895672911a96e79065fb293e", "is_disabled": 0, "is_reserved": 0}, {"rental_uris": {"ios": "https://dc.lft.to/lastmile_qr_scan", "android": "https://dc.lft.to/lastmile_qr_scan"}, "lon": -77.04188733333334, "type": "electric_scooter", "fusion_lat": 0.0, "lat": 38.90351416666667, "name": "70ba8f9887ab5008f56875a2fbb6033e", "fusion_lon": 0.0, "bike_id": "70ba8f9887ab5008f56875a2fbb6033e", "is_disabled": 0, "is_reserved": 0}, {"rental_uris": {"ios": "https://dc.lft.to/lastmile_qr_scan", "android": "https://dc.lft.to/lastmile_qr_scan"}, "lon": -77.008612, "type": "electric_bike", "fusion_lat": 0.0, "lat": 38.82732033333333, "name": "1c2d3b6dbd00a91963839e322b563ea6", "fusion_lon": 0.0, "bike_id": "1c2d3b6dbd00a91963839e322b563ea6", "is_disabled": 0, "is_reserved": 0}, {"rental_uris": {"ios": "https://dc.lft.to/lastmile_qr_scan", "android": "https://dc.lft.to/lastmile_qr_scan"}, "lon": -77.04720116666667, "type": "electric_scooter", "fusion_lat": 0.0, "lat": 38.922441, "name": "c6da1c55ef4cbf387d0faffc9e91d9ea", "fusion_lon": 0.0, "bike_id": "c6da1c55ef4cbf387d0faffc9e91d9ea", "is_disabled": 0, "is_reserved": 0}, {"rental_uris": {"ios": "https://dc.lft.to/lastmile_qr_scan", "android": "https://dc.lft.to/lastmile_qr_scan"}, "lon": -77.0333715, "type": "electric_scooter", "fusion_lat": 0.0, "lat": 38.918093166666665, "name": "74daad8ebf102c20f91b5aaa87295b05", "fusion_lon": 0.0, "bike_id": "74daad8ebf102c20f91b5aaa87295b05", "is_disabled": 0, "is_reserved": 0}, {"rental_uris": {"ios": "https://dc.lft.to/lastmile_qr_scan", "android": "https://dc.lft.to/lastmile_qr_scan"}, "lon": -77.02820966666667, "type": "electric_scooter", "fusion_lat": 0.0, "lat": 38.88655983333334, "name": "50d074cb13ce16942ccb044a4466a417", "fusion_lon": 0.0, "bike_id": "50d074cb13ce16942ccb044a4466a417", "is_disabled": 0, "is_reserved": 0}, {"rental_uris": {"ios": "https://dc.lft.to/lastmile_qr_scan", "android": "https://dc.lft.to/lastmile_qr_scan"}, "lon": -76.9900025, "type": "electric_scooter", "fusion_lat": 0.0, "lat": 38.86503033333334, "name": "1139e68c98091981838d7e2f7f4b03d1", "fusion_lon": 0.0, "bike_id": "1139e68c98091981838d7e2f7f4b03d1", "is_disabled": 0, "is_reserved": 0}, {"rental_uris": {"ios": "https://dc.lft.to/lastmile_qr_scan", "android": "https://dc.lft.to/lastmile_qr_scan"}, "lon": -76.94890333333333, "type": "electric_scooter", "fusion_lat": 0.0, "lat": 38.89528933333333, "name": "a2b040976b62d4e9ee74d21e43916994", "fusion_lon": 0.0, "bike_id": "a2b040976b62d4e9ee74d21e43916994", "is_disabled": 0, "is_reserved": 0}, {"rental_uris": {"ios": "https://dc.lft.to/lastmile_qr_scan", "android": "https://dc.lft.to/lastmile_qr_scan"}, "lon": -77.0215565, "type": "electric_scooter", "fusion_lat": 0.0, "lat": 38.926063, "name": "f105ef2a69e230d65e47acadb9b27224", "fusion_lon": 0.0, "bike_id": "f105ef2a69e230d65e47acadb9b27224", "is_disabled": 0, "is_reserved": 0}, {"rental_uris": {"ios": "https://dc.lft.to/lastmile_qr_scan", "android": "https://dc.lft.to/lastmile_qr_scan"}, "lon": -77.02367433333333, "type": "electric_scooter", "fusion_lat": 0.0, "lat": 38.894887833333335, "name": "465795b80eb3d0330d96766c5d33e0ec", "fusion_lon": 0.0, "bike_id": "465795b80eb3d0330d96766c5d33e0ec", "is_disabled": 0, "is_reserved": 0}, {"rental_uris": {"ios": "https://dc.lft.to/lastmile_qr_scan", "android": "https://dc.lft.to/lastmile_qr_scan"}, "lon": -77.05434716666667, "type": "electric_scooter", "fusion_lat": 0.0, "lat": 38.923319666666664, "name": "d252b0081e668b33a04e4ac8bc02876b", "fusion_lon": 0.0, "bike_id": "d252b0081e668b33a04e4ac8bc02876b", "is_disabled": 0, "is_reserved": 0}, {"rental_uris": {"ios": "https://dc.lft.to/lastmile_qr_scan", "android": "https://dc.lft.to/lastmile_qr_scan"}, "lon": -77.05284716666667, "type": "electric_scooter", "fusion_lat": 0.0, "lat": 38.918944333333336, "name": "98e1fa6dc5affc208450c59200597569", "fusion_lon": 0.0, "bike_id": "98e1fa6dc5affc208450c59200597569", "is_disabled": 0, "is_reserved": 0}, {"rental_uris": {"ios": "https://dc.lft.to/lastmile_qr_scan", "android": "https://dc.lft.to/lastmile_qr_scan"}, "lon": -77.070685, "type": "electric_scooter", "fusion_lat": 0.0, "lat": 38.95220366666667, "name": "d4e445c69b6f448407d0e2bf035ef927", "fusion_lon": 0.0, "bike_id": "d4e445c69b6f448407d0e2bf035ef927", "is_disabled": 0, "is_reserved": 0}, {"rental_uris": {"ios": "https://dc.lft.to/lastmile_qr_scan", "android": "https://dc.lft.to/lastmile_qr_scan"}, "lon": -77.02225366666667, "type": "electric_scooter", "fusion_lat": 0.0, "lat": 38.892231333333335, "name": "722c1962eb8e66e87c9d913c35bc4ae2", "fusion_lon": 0.0, "bike_id": "722c1962eb8e66e87c9d913c35bc4ae2", "is_disabled": 0, "is_reserved": 0}, {"rental_uris": {"ios": "https://dc.lft.to/lastmile_qr_scan", "android": "https://dc.lft.to/lastmile_qr_scan"}, "lon": -77.05052416666666, "type": "electric_scooter", "fusion_lat": 0.0, "lat": 38.90384783333333, "name": "2b4bfddfabc2e7bbb9eb7cc7c6f043c4", "fusion_lon": 0.0, "bike_id": "2b4bfddfabc2e7bbb9eb7cc7c6f043c4", "is_disabled": 0, "is_reserved": 0}, {"rental_uris": {"ios": "https://dc.lft.to/lastmile_qr_scan", "android": "https://dc.lft.to/lastmile_qr_scan"}, "lon": -77.039981, "type": "electric_scooter", "fusion_lat": 0.0, "lat": 38.921898666666664, "name": "441943836ec5cc48bafa10cdcd75f326", "fusion_lon": 0.0, "bike_id": "441943836ec5cc48bafa10cdcd75f326", "is_disabled": 0, "is_reserved": 0}, {"rental_uris": {"ios": "https://dc.lft.to/lastmile_qr_scan", "android": "https://dc.lft.to/lastmile_qr_scan"}, "lon": -77.0699725, "type": "electric_bike", "fusion_lat": 0.0, "lat": 38.95505083333333, "name": "0d78c1e23f4e41c9263b0faa3ee259d8", "fusion_lon": 0.0, "bike_id": "0d78c1e23f4e41c9263b0faa3ee259d8", "is_disabled": 0, "is_reserved": 0}, {"rental_uris": {"ios": "https://dc.lft.to/lastmile_qr_scan", "android": "https://dc.lft.to/lastmile_qr_scan"}, "lon": -77.030922, "type": "electric_scooter", "fusion_lat": 0.0, "lat": 38.8957145, "name": "e67e93ba0726127ae048a792cf88fcc0", "fusion_lon": 0.0, "bike_id": "e67e93ba0726127ae048a792cf88fcc0", "is_disabled": 0, "is_reserved": 0}, {"rental_uris": {"ios": "https://dc.lft.to/lastmile_qr_scan", "android": "https://dc.lft.to/lastmile_qr_scan"}, "lon": -77.0294075, "type": "electric_scooter", "fusion_lat": 0.0, "lat": 38.904673333333335, "name": "0611c0b39d144a306eb3ab7f3bd4a57a", "fusion_lon": 0.0, "bike_id": "0611c0b39d144a306eb3ab7f3bd4a57a", "is_disabled": 0, "is_reserved": 0}, {"rental_uris": {"ios": "https://dc.lft.to/lastmile_qr_scan", "android": "https://dc.lft.to/lastmile_qr_scan"}, "lon": -77.1077775, "type": "electric_bike", "fusion_lat": 0.0, "lat": 38.892243666666666, "name": "406bf11acfba15f1d95e789e60039cd5", "fusion_lon": 0.0, "bike_id": "406bf11acfba15f1d95e789e60039cd5", "is_disabled": 0, "is_reserved": 0}, {"rental_uris": {"ios": "https://dc.lft.to/lastmile_qr_scan", "android": "https://dc.lft.to/lastmile_qr_scan"}, "lon": -77.00983533333333, "type": "electric_scooter", "fusion_lat": 0.0, "lat": 38.872994, "name": "f0c59a8e1ab530d6456361093dd6c0d4", "fusion_lon": 0.0, "bike_id": "f0c59a8e1ab530d6456361093dd6c0d4", "is_disabled": 0, "is_reserved": 0}, {"rental_uris": {"ios": "https://dc.lft.to/lastmile_qr_scan", "android": "https://dc.lft.to/lastmile_qr_scan"}, "lon": -77.03451933333334, "type": "electric_scooter", "fusion_lat": 0.0, "lat": 38.907397, "name": "cce60b239beaed6b5059a928a566214b", "fusion_lon": 0.0, "bike_id": "cce60b239beaed6b5059a928a566214b", "is_disabled": 0, "is_reserved": 0}, {"rental_uris": {"ios": "https://dc.lft.to/lastmile_qr_scan", "android": "https://dc.lft.to/lastmile_qr_scan"}, "lon": -77.0216725, "type": "electric_scooter", "fusion_lat": 0.0, "lat": 38.9429185, "name": "1677c882515868fd6896a73aa2b36f2f", "fusion_lon": 0.0, "bike_id": "1677c882515868fd6896a73aa2b36f2f", "is_disabled": 0, "is_reserved": 0}, {"rental_uris": {"ios": "https://dc.lft.to/lastmile_qr_scan", "android": "https://dc.lft.to/lastmile_qr_scan"}, "lon": -76.9889975, "type": "electric_scooter", "fusion_lat": 0.0, "lat": 38.866945333333334, "name": "ad928d733e9ea5b2e5dbba29d5894377", "fusion_lon": 0.0, "bike_id": "ad928d733e9ea5b2e5dbba29d5894377", "is_disabled": 0, "is_reserved": 0}, {"rental_uris": {"ios": "https://dc.lft.to/lastmile_qr_scan", "android": "https://dc.lft.to/lastmile_qr_scan"}, "lon": -77.04334283333333, "type": "electric_scooter", "fusion_lat": 0.0, "lat": 38.89226583333333, "name": "93e6baef9916725ec10687745c28f8d0", "fusion_lon": 0.0, "bike_id": "93e6baef9916725ec10687745c28f8d0", "is_disabled": 0, "is_reserved": 0}, {"rental_uris": {"ios": "https://dc.lft.to/lastmile_qr_scan", "android": "https://dc.lft.to/lastmile_qr_scan"}, "lon": -77.0615925, "type": "electric_scooter", "fusion_lat": 0.0, "lat": 38.91292133333334, "name": "d2234a4072dd17f281fe11d5b8294189", "fusion_lon": 0.0, "bike_id": "d2234a4072dd17f281fe11d5b8294189", "is_disabled": 0, "is_reserved": 0}, {"rental_uris": {"ios": "https://dc.lft.to/lastmile_qr_scan", "android": "https://dc.lft.to/lastmile_qr_scan"}, "lon": -76.98845033333333, "type": "electric_bike", "fusion_lat": 0.0, "lat": 38.8427425, "name": "f2b626dc8ed7ebebe3cf500727c7c50c", "fusion_lon": 0.0, "bike_id": "f2b626dc8ed7ebebe3cf500727c7c50c", "is_disabled": 0, "is_reserved": 0}, {"rental_uris": {"ios": "https://dc.lft.to/lastmile_qr_scan", "android": "https://dc.lft.to/lastmile_qr_scan"}, "lon": -77.04354266666667, "type": "electric_scooter", "fusion_lat": 0.0, "lat": 38.89231866666667, "name": "9f2b992786cca0c18652d201d91a941c", "fusion_lon": 0.0, "bike_id": "9f2b992786cca0c18652d201d91a941c", "is_disabled": 0, "is_reserved": 0}, {"rental_uris": {"ios": "https://dc.lft.to/lastmile_qr_scan", "android": "https://dc.lft.to/lastmile_qr_scan"}, "lon": -77.03216933333333, "type": "electric_scooter", "fusion_lat": 0.0, "lat": 38.9167875, "name": "33bb1fdf245ca84df6fe8d9d8778e65b", "fusion_lon": 0.0, "bike_id": "33bb1fdf245ca84df6fe8d9d8778e65b", "is_disabled": 0, "is_reserved": 0}, {"rental_uris": {"ios": "https://dc.lft.to/lastmile_qr_scan", "android": "https://dc.lft.to/lastmile_qr_scan"}, "lon": -77.012219, "type": "electric_scooter", "fusion_lat": 0.0, "lat": 38.9003935, "name": "d69f75a2f509a12bacc0af9545a11c6f", "fusion_lon": 0.0, "bike_id": "d69f75a2f509a12bacc0af9545a11c6f", "is_disabled": 0, "is_reserved": 0}, {"rental_uris": {"ios": "https://dc.lft.to/lastmile_qr_scan", "android": "https://dc.lft.to/lastmile_qr_scan"}, "lon": -77.03784533333334, "type": "electric_scooter", "fusion_lat": 0.0, "lat": 38.9262965, "name": "a75d488eaca2b2b359b4674047fa6f38", "fusion_lon": 0.0, "bike_id": "a75d488eaca2b2b359b4674047fa6f38", "is_disabled": 0, "is_reserved": 0}, {"rental_uris": {"ios": "https://dc.lft.to/lastmile_qr_scan", "android": "https://dc.lft.to/lastmile_qr_scan"}, "lon": -77.022427, "type": "electric_bike", "fusion_lat": 0.0, "lat": 38.9225295, "name": "c42765ad6fff3cb8845cb2d35799e8c6", "fusion_lon": 0.0, "bike_id": "c42765ad6fff3cb8845cb2d35799e8c6", "is_disabled": 0, "is_reserved": 0}, {"rental_uris": {"ios": "https://dc.lft.to/lastmile_qr_scan", "android": "https://dc.lft.to/lastmile_qr_scan"}, "lon": -77.015787, "type": "electric_scooter", "fusion_lat": 0.0, "lat": 38.876648833333334, "name": "12786e64dde80d6193fe9e5c71ed8f26", "fusion_lon": 0.0, "bike_id": "12786e64dde80d6193fe9e5c71ed8f26", "is_disabled": 0, "is_reserved": 0}, {"rental_uris": {"ios": "https://dc.lft.to/lastmile_qr_scan", "android": "https://dc.lft.to/lastmile_qr_scan"}, "lon": -77.07775066666666, "type": "electric_scooter", "fusion_lat": 0.0, "lat": 38.94563466666666, "name": "993defafd62caf17c635743db9008136", "fusion_lon": 0.0, "bike_id": "993defafd62caf17c635743db9008136", "is_disabled": 0, "is_reserved": 0}, {"rental_uris": {"ios": "https://dc.lft.to/lastmile_qr_scan", "android": "https://dc.lft.to/lastmile_qr_scan"}, "lon": -77.02416266666667, "type": "electric_scooter", "fusion_lat": 0.0, "lat": 38.92183383333333, "name": "5bd2972472ade57dc92cd9a7e8dd3c0b", "fusion_lon": 0.0, "bike_id": "5bd2972472ade57dc92cd9a7e8dd3c0b", "is_disabled": 0, "is_reserved": 0}, {"rental_uris": {"ios": "https://dc.lft.to/lastmile_qr_scan", "android": "https://dc.lft.to/lastmile_qr_scan"}, "lon": -77.0385965, "type": "electric_scooter", "fusion_lat": 0.0, "lat": 38.904799833333335, "name": "9fb1e6920536b4a735dfd8fd119c8db7", "fusion_lon": 0.0, "bike_id": "9fb1e6920536b4a735dfd8fd119c8db7", "is_disabled": 0, "is_reserved": 0}, {"rental_uris": {"ios": "https://dc.lft.to/lastmile_qr_scan", "android": "https://dc.lft.to/lastmile_qr_scan"}, "lon": -77.04904216666667, "type": "electric_scooter", "fusion_lat": 0.0, "lat": 38.9038125, "name": "c5f7ca683f758d504bbdd6ea2f70160e", "fusion_lon": 0.0, "bike_id": "c5f7ca683f758d504bbdd6ea2f70160e", "is_disabled": 0, "is_reserved": 0}, {"rental_uris": {"ios": "https://dc.lft.to/lastmile_qr_scan", "android": "https://dc.lft.to/lastmile_qr_scan"}, "lon": -77.03868766666666, "type": "electric_scooter", "fusion_lat": 0.0, "lat": 38.92153183333333, "name": "837097fd7e04ac8b0b8a053209eaedaf", "fusion_lon": 0.0, "bike_id": "837097fd7e04ac8b0b8a053209eaedaf", "is_disabled": 0, "is_reserved": 0}, {"rental_uris": {"ios": "https://dc.lft.to/lastmile_qr_scan", "android": "https://dc.lft.to/lastmile_qr_scan"}, "lon": -76.98950316666667, "type": "electric_scooter", "fusion_lat": 0.0, "lat": 38.901436333333336, "name": "f150fa67f953113ac84bf08a83e3b944", "fusion_lon": 0.0, "bike_id": "f150fa67f953113ac84bf08a83e3b944", "is_disabled": 0, "is_reserved": 0}, {"rental_uris": {"ios": "https://dc.lft.to/lastmile_qr_scan", "android": "https://dc.lft.to/lastmile_qr_scan"}, "lon": -77.000577, "type": "electric_scooter", "fusion_lat": 0.0, "lat": 38.907319666666666, "name": "dd758eec1e9e8d016a8730db98fd6633", "fusion_lon": 0.0, "bike_id": "dd758eec1e9e8d016a8730db98fd6633", "is_disabled": 0, "is_reserved": 0}, {"rental_uris": {"ios": "https://dc.lft.to/lastmile_qr_scan", "android": "https://dc.lft.to/lastmile_qr_scan"}, "lon": -76.93716816666667, "type": "electric_scooter", "fusion_lat": 0.0, "lat": 38.895928833333336, "name": "582566ab965efe38c848d47e706b721b", "fusion_lon": 0.0, "bike_id": "582566ab965efe38c848d47e706b721b", "is_disabled": 0, "is_reserved": 0}, {"rental_uris": {"ios": "https://dc.lft.to/lastmile_qr_scan", "android": "https://dc.lft.to/lastmile_qr_scan"}, "lon": -77.041131, "type": "electric_scooter", "fusion_lat": 0.0, "lat": 38.9245185, "name": "66b65d77c8d6e04d9f32e2df5089a8c5", "fusion_lon": 0.0, "bike_id": "66b65d77c8d6e04d9f32e2df5089a8c5", "is_disabled": 0, "is_reserved": 0}, {"rental_uris": {"ios": "https://dc.lft.to/lastmile_qr_scan", "android": "https://dc.lft.to/lastmile_qr_scan"}, "lon": -77.0608815, "type": "electric_scooter", "fusion_lat": 0.0, "lat": 38.91271866666666, "name": "f3bc555589c870a32408b67e8ac65e49", "fusion_lon": 0.0, "bike_id": "f3bc555589c870a32408b67e8ac65e49", "is_disabled": 0, "is_reserved": 0}, {"rental_uris": {"ios": "https://dc.lft.to/lastmile_qr_scan", "android": "https://dc.lft.to/lastmile_qr_scan"}, "lon": -76.97493133333333, "type": "electric_bike", "fusion_lat": 0.0, "lat": 38.9200825, "name": "282febf015c51b3c72db610a7082ff32", "fusion_lon": 0.0, "bike_id": "282febf015c51b3c72db610a7082ff32", "is_disabled": 0, "is_reserved": 0}, {"rental_uris": {"ios": "https://dc.lft.to/lastmile_qr_scan", "android": "https://dc.lft.to/lastmile_qr_scan"}, "lon": -77.02594816666667, "type": "electric_scooter", "fusion_lat": 0.0, "lat": 38.892675833333335, "name": "f45c4ec35485ca1c2bee7a2b86a35e67", "fusion_lon": 0.0, "bike_id": "f45c4ec35485ca1c2bee7a2b86a35e67", "is_disabled": 0, "is_reserved": 0}, {"rental_uris": {"ios": "https://dc.lft.to/lastmile_qr_scan", "android": "https://dc.lft.to/lastmile_qr_scan"}, "lon": -77.04867733333333, "type": "electric_scooter", "fusion_lat": 0.0, "lat": 38.90855366666667, "name": "22b494e02bfd66ddf225cccbd45c08ff", "fusion_lon": 0.0, "bike_id": "22b494e02bfd66ddf225cccbd45c08ff", "is_disabled": 0, "is_reserved": 0}, {"rental_uris": {"ios": "https://dc.lft.to/lastmile_qr_scan", "android": "https://dc.lft.to/lastmile_qr_scan"}, "lon": -77.0322195, "type": "electric_scooter", "fusion_lat": 0.0, "lat": 38.9267415, "name": "87af3a6eb1389f030c7dfae69ed77a1e", "fusion_lon": 0.0, "bike_id": "87af3a6eb1389f030c7dfae69ed77a1e", "is_disabled": 0, "is_reserved": 0}, {"rental_uris": {"ios": "https://dc.lft.to/lastmile_qr_scan", "android": "https://dc.lft.to/lastmile_qr_scan"}, "lon": -77.02484233333334, "type": "electric_scooter", "fusion_lat": 0.0, "lat": 38.91701716666667, "name": "1ebe694f5244c777565ad14b554adf13", "fusion_lon": 0.0, "bike_id": "1ebe694f5244c777565ad14b554adf13", "is_disabled": 0, "is_reserved": 0}, {"rental_uris": {"ios": "https://dc.lft.to/lastmile_qr_scan", "android": "https://dc.lft.to/lastmile_qr_scan"}, "lon": -77.023416, "type": "electric_scooter", "fusion_lat": 0.0, "lat": 38.92514716666667, "name": "0a2af6b68587dbc495c23f795f35387b", "fusion_lon": 0.0, "bike_id": "0a2af6b68587dbc495c23f795f35387b", "is_disabled": 0, "is_reserved": 0}, {"rental_uris": {"ios": "https://dc.lft.to/lastmile_qr_scan", "android": "https://dc.lft.to/lastmile_qr_scan"}, "lon": -77.058152, "type": "electric_scooter", "fusion_lat": 0.0, "lat": 38.934538, "name": "05a3fda99df7ff5f86e003ef73f357a8", "fusion_lon": 0.0, "bike_id": "05a3fda99df7ff5f86e003ef73f357a8", "is_disabled": 0, "is_reserved": 0}, {"rental_uris": {"ios": "https://dc.lft.to/lastmile_qr_scan", "android": "https://dc.lft.to/lastmile_qr_scan"}, "lon": -77.0560085, "type": "electric_bike", "fusion_lat": 0.0, "lat": 38.92420466666667, "name": "e335339b4455f9960ee470353e90c8e3", "fusion_lon": 0.0, "bike_id": "e335339b4455f9960ee470353e90c8e3", "is_disabled": 0, "is_reserved": 0}, {"rental_uris": {"ios": "https://dc.lft.to/lastmile_qr_scan", "android": "https://dc.lft.to/lastmile_qr_scan"}, "lon": -77.03516583333334, "type": "electric_scooter", "fusion_lat": 0.0, "lat": 38.93592483333333, "name": "22f35150584da1f3118d5925e1105571", "fusion_lon": 0.0, "bike_id": "22f35150584da1f3118d5925e1105571", "is_disabled": 0, "is_reserved": 0}, {"rental_uris": {"ios": "https://dc.lft.to/lastmile_qr_scan", "android": "https://dc.lft.to/lastmile_qr_scan"}, "lon": -76.974052, "type": "electric_scooter", "fusion_lat": 0.0, "lat": 38.9016, "name": "4a73220eb366d521a0db9ef1783015dc", "fusion_lon": 0.0, "bike_id": "4a73220eb366d521a0db9ef1783015dc", "is_disabled": 0, "is_reserved": 0}, {"rental_uris": {"ios": "https://dc.lft.to/lastmile_qr_scan", "android": "https://dc.lft.to/lastmile_qr_scan"}, "lon": -77.0819205, "type": "electric_bike", "fusion_lat": 0.0, "lat": 38.922071333333335, "name": "40d51d4316726843d72355e594cd1958", "fusion_lon": 0.0, "bike_id": "40d51d4316726843d72355e594cd1958", "is_disabled": 0, "is_reserved": 0}, {"rental_uris": {"ios": "https://dc.lft.to/lastmile_qr_scan", "android": "https://dc.lft.to/lastmile_qr_scan"}, "lon": -77.002269, "type": "electric_scooter", "fusion_lat": 0.0, "lat": 38.90034466666667, "name": "1389dde4fb9f0153206f2a9cb11f3457", "fusion_lon": 0.0, "bike_id": "1389dde4fb9f0153206f2a9cb11f3457", "is_disabled": 0, "is_reserved": 0}, {"rental_uris": {"ios": "https://dc.lft.to/lastmile_qr_scan", "android": "https://dc.lft.to/lastmile_qr_scan"}, "lon": -77.0110325, "type": "electric_scooter", "fusion_lat": 0.0, "lat": 38.9035865, "name": "731f154a7b1832e6cc8143fa1883d1f8", "fusion_lon": 0.0, "bike_id": "731f154a7b1832e6cc8143fa1883d1f8", "is_disabled": 0, "is_reserved": 0}, {"rental_uris": {"ios": "https://dc.lft.to/lastmile_qr_scan", "android": "https://dc.lft.to/lastmile_qr_scan"}, "lon": -77.06310883333333, "type": "electric_scooter", "fusion_lat": 0.0, "lat": 38.9437665, "name": "bf9047ca9a3767be53d3739604fa8079", "fusion_lon": 0.0, "bike_id": "bf9047ca9a3767be53d3739604fa8079", "is_disabled": 0, "is_reserved": 0}, {"rental_uris": {"ios": "https://dc.lft.to/lastmile_qr_scan", "android": "https://dc.lft.to/lastmile_qr_scan"}, "lon": -77.03657583333333, "type": "electric_scooter", "fusion_lat": 0.0, "lat": 38.9186925, "name": "42dccf6a62a34d6b2f6d9c4f6c4f2457", "fusion_lon": 0.0, "bike_id": "42dccf6a62a34d6b2f6d9c4f6c4f2457", "is_disabled": 0, "is_reserved": 0}, {"rental_uris": {"ios": "https://dc.lft.to/lastmile_qr_scan", "android": "https://dc.lft.to/lastmile_qr_scan"}, "lon": -77.044142, "type": "electric_scooter", "fusion_lat": 0.0, "lat": 38.91324183333333, "name": "13978a939fb9579b3f8856a841ed5eb8", "fusion_lon": 0.0, "bike_id": "13978a939fb9579b3f8856a841ed5eb8", "is_disabled": 0, "is_reserved": 0}, {"rental_uris": {"ios": "https://dc.lft.to/lastmile_qr_scan", "android": "https://dc.lft.to/lastmile_qr_scan"}, "lon": -76.95186033333333, "type": "electric_bike", "fusion_lat": 0.0, "lat": 38.90692266666667, "name": "c6462677c4bce977051540f16cbb7ec5", "fusion_lon": 0.0, "bike_id": "c6462677c4bce977051540f16cbb7ec5", "is_disabled": 0, "is_reserved": 0}, {"rental_uris": {"ios": "https://dc.lft.to/lastmile_qr_scan", "android": "https://dc.lft.to/lastmile_qr_scan"}, "lon": -76.931679, "type": "electric_scooter", "fusion_lat": 0.0, "lat": 38.89890533333333, "name": "ed632fe2665939d283780ff14612ab7a", "fusion_lon": 0.0, "bike_id": "ed632fe2665939d283780ff14612ab7a", "is_disabled": 0, "is_reserved": 0}, {"rental_uris": {"ios": "https://dc.lft.to/lastmile_qr_scan", "android": "https://dc.lft.to/lastmile_qr_scan"}, "lon": -77.04287533333333, "type": "electric_scooter", "fusion_lat": 0.0, "lat": 38.895371833333336, "name": "7f63f6b9117b21b9798fa726525ecfd1", "fusion_lon": 0.0, "bike_id": "7f63f6b9117b21b9798fa726525ecfd1", "is_disabled": 0, "is_reserved": 0}, {"rental_uris": {"ios": "https://dc.lft.to/lastmile_qr_scan", "android": "https://dc.lft.to/lastmile_qr_scan"}, "lon": -77.01367016666667, "type": "electric_scooter", "fusion_lat": 0.0, "lat": 38.886565166666664, "name": "5b103fabfea198a8d736e78c9efb1b1d", "fusion_lon": 0.0, "bike_id": "5b103fabfea198a8d736e78c9efb1b1d", "is_disabled": 0, "is_reserved": 0}, {"rental_uris": {"ios": "https://dc.lft.to/lastmile_qr_scan", "android": "https://dc.lft.to/lastmile_qr_scan"}, "lon": -77.05792283333334, "type": "electric_scooter", "fusion_lat": 0.0, "lat": 38.93477583333333, "name": "707642a404f00d0518c3c4b4a7fb208c", "fusion_lon": 0.0, "bike_id": "707642a404f00d0518c3c4b4a7fb208c", "is_disabled": 0, "is_reserved": 0}, {"rental_uris": {"ios": "https://dc.lft.to/lastmile_qr_scan", "android": "https://dc.lft.to/lastmile_qr_scan"}, "lon": -77.01968316666667, "type": "electric_scooter", "fusion_lat": 0.0, "lat": 38.9341845, "name": "45ebc54bf88e4e2cec687f5a78b44592", "fusion_lon": 0.0, "bike_id": "45ebc54bf88e4e2cec687f5a78b44592", "is_disabled": 0, "is_reserved": 0}, {"rental_uris": {"ios": "https://dc.lft.to/lastmile_qr_scan", "android": "https://dc.lft.to/lastmile_qr_scan"}, "lon": -77.023656, "type": "electric_scooter", "fusion_lat": 0.0, "lat": 38.895414833333334, "name": "d93c49e3ebca1ac8d4626cb623c8e5f0", "fusion_lon": 0.0, "bike_id": "d93c49e3ebca1ac8d4626cb623c8e5f0", "is_disabled": 0, "is_reserved": 0}, {"rental_uris": {"ios": "https://dc.lft.to/lastmile_qr_scan", "android": "https://dc.lft.to/lastmile_qr_scan"}, "lon": -77.0328275, "type": "electric_scooter", "fusion_lat": 0.0, "lat": 38.939007333333336, "name": "d7a1dda3f6da7e037d7b523e02938e02", "fusion_lon": 0.0, "bike_id": "d7a1dda3f6da7e037d7b523e02938e02", "is_disabled": 0, "is_reserved": 0}, {"rental_uris": {"ios": "https://dc.lft.to/lastmile_qr_scan", "android": "https://dc.lft.to/lastmile_qr_scan"}, "lon": -76.98160316666667, "type": "electric_scooter", "fusion_lat": 0.0, "lat": 38.93297916666667, "name": "b31c16578c8bdb360d82c7d0608cb542", "fusion_lon": 0.0, "bike_id": "b31c16578c8bdb360d82c7d0608cb542", "is_disabled": 0, "is_reserved": 0}, {"rental_uris": {"ios": "https://dc.lft.to/lastmile_qr_scan", "android": "https://dc.lft.to/lastmile_qr_scan"}, "lon": -76.98846966666666, "type": "electric_scooter", "fusion_lat": 0.0, "lat": 38.90197716666667, "name": "dbfbbf904f457ad719b75d9fbe33996e", "fusion_lon": 0.0, "bike_id": "dbfbbf904f457ad719b75d9fbe33996e", "is_disabled": 0, "is_reserved": 0}, {"rental_uris": {"ios": "https://dc.lft.to/lastmile_qr_scan", "android": "https://dc.lft.to/lastmile_qr_scan"}, "lon": -77.03997916666667, "type": "electric_scooter", "fusion_lat": 0.0, "lat": 38.91760633333333, "name": "1644906b0763d9eaa9645a2c6a629324", "fusion_lon": 0.0, "bike_id": "1644906b0763d9eaa9645a2c6a629324", "is_disabled": 0, "is_reserved": 0}, {"rental_uris": {"ios": "https://dc.lft.to/lastmile_qr_scan", "android": "https://dc.lft.to/lastmile_qr_scan"}, "lon": -77.0467665, "type": "electric_scooter", "fusion_lat": 0.0, "lat": 38.900641, "name": "be157428627aed058fc896ace19a55e5", "fusion_lon": 0.0, "bike_id": "be157428627aed058fc896ace19a55e5", "is_disabled": 0, "is_reserved": 0}, {"rental_uris": {"ios": "https://dc.lft.to/lastmile_qr_scan", "android": "https://dc.lft.to/lastmile_qr_scan"}, "lon": -77.02956416666666, "type": "electric_scooter", "fusion_lat": 0.0, "lat": 38.89733833333333, "name": "dff2cf23a9bcf1afce507be802e45d08", "fusion_lon": 0.0, "bike_id": "dff2cf23a9bcf1afce507be802e45d08", "is_disabled": 0, "is_reserved": 0}, {"rental_uris": {"ios": "https://dc.lft.to/lastmile_qr_scan", "android": "https://dc.lft.to/lastmile_qr_scan"}, "lon": -76.9978415, "type": "electric_scooter", "fusion_lat": 0.0, "lat": 38.908653, "name": "6070454a09e11574c4a47a0b4449ba4c", "fusion_lon": 0.0, "bike_id": "6070454a09e11574c4a47a0b4449ba4c", "is_disabled": 0, "is_reserved": 0}, {"rental_uris": {"ios": "https://dc.lft.to/lastmile_qr_scan", "android": "https://dc.lft.to/lastmile_qr_scan"}, "lon": -77.041107, "type": "electric_scooter", "fusion_lat": 0.0, "lat": 38.9212175, "name": "81692d7b0562fc6c38ad158d92c30e25", "fusion_lon": 0.0, "bike_id": "81692d7b0562fc6c38ad158d92c30e25", "is_disabled": 0, "is_reserved": 0}, {"rental_uris": {"ios": "https://dc.lft.to/lastmile_qr_scan", "android": "https://dc.lft.to/lastmile_qr_scan"}, "lon": -76.9043595, "type": "electric_bike", "fusion_lat": 0.0, "lat": 38.8978085, "name": "2b929acd01d2b4a7623c8b9da74bcf0a", "fusion_lon": 0.0, "bike_id": "2b929acd01d2b4a7623c8b9da74bcf0a", "is_disabled": 0, "is_reserved": 0}, {"rental_uris": {"ios": "https://dc.lft.to/lastmile_qr_scan", "android": "https://dc.lft.to/lastmile_qr_scan"}, "lon": -77.04687716666666, "type": "electric_scooter", "fusion_lat": 0.0, "lat": 38.892251333333334, "name": "229a56553e24035b3d1563a8e1794e68", "fusion_lon": 0.0, "bike_id": "229a56553e24035b3d1563a8e1794e68", "is_disabled": 0, "is_reserved": 0}, {"rental_uris": {"ios": "https://dc.lft.to/lastmile_qr_scan", "android": "https://dc.lft.to/lastmile_qr_scan"}, "lon": -77.02203366666667, "type": "electric_scooter", "fusion_lat": 0.0, "lat": 38.93004666666667, "name": "efd67c588ca16daf0e7f19e036e274a5", "fusion_lon": 0.0, "bike_id": "efd67c588ca16daf0e7f19e036e274a5", "is_disabled": 0, "is_reserved": 0}, {"rental_uris": {"ios": "https://dc.lft.to/lastmile_qr_scan", "android": "https://dc.lft.to/lastmile_qr_scan"}, "lon": -77.04833133333334, "type": "electric_scooter", "fusion_lat": 0.0, "lat": 38.920370166666665, "name": "90265d8cae0952c4b7f015fc65a44ce2", "fusion_lon": 0.0, "bike_id": "90265d8cae0952c4b7f015fc65a44ce2", "is_disabled": 0, "is_reserved": 0}, {"rental_uris": {"ios": "https://dc.lft.to/lastmile_qr_scan", "android": "https://dc.lft.to/lastmile_qr_scan"}, "lon": -77.040704, "type": "electric_scooter", "fusion_lat": 0.0, "lat": 38.92647566666667, "name": "5a4afb68b959a8013d79544e493f9a67", "fusion_lon": 0.0, "bike_id": "5a4afb68b959a8013d79544e493f9a67", "is_disabled": 0, "is_reserved": 0}, {"rental_uris": {"ios": "https://dc.lft.to/lastmile_qr_scan", "android": "https://dc.lft.to/lastmile_qr_scan"}, "lon": -77.02693666666667, "type": "electric_scooter", "fusion_lat": 0.0, "lat": 38.90359383333333, "name": "24eb727c893402de850c497a501373a4", "fusion_lon": 0.0, "bike_id": "24eb727c893402de850c497a501373a4", "is_disabled": 0, "is_reserved": 0}, {"rental_uris": {"ios": "https://dc.lft.to/lastmile_qr_scan", "android": "https://dc.lft.to/lastmile_qr_scan"}, "lon": -77.03254916666667, "type": "electric_scooter", "fusion_lat": 0.0, "lat": 38.907335333333336, "name": "0392848d6d46a0984a295808ed38a0c5", "fusion_lon": 0.0, "bike_id": "0392848d6d46a0984a295808ed38a0c5", "is_disabled": 0, "is_reserved": 0}, {"rental_uris": {"ios": "https://dc.lft.to/lastmile_qr_scan", "android": "https://dc.lft.to/lastmile_qr_scan"}, "lon": -77.04177266666666, "type": "electric_scooter", "fusion_lat": 0.0, "lat": 38.91970833333333, "name": "2a34063e0baa4bfd5fa2093725e77e49", "fusion_lon": 0.0, "bike_id": "2a34063e0baa4bfd5fa2093725e77e49", "is_disabled": 0, "is_reserved": 0}, {"rental_uris": {"ios": "https://dc.lft.to/lastmile_qr_scan", "android": "https://dc.lft.to/lastmile_qr_scan"}, "lon": -76.908134, "type": "electric_bike", "fusion_lat": 0.0, "lat": 38.99456416666666, "name": "685bc0fcfcca022845b14608f5e89c1f", "fusion_lon": 0.0, "bike_id": "685bc0fcfcca022845b14608f5e89c1f", "is_disabled": 0, "is_reserved": 0}, {"rental_uris": {"ios": "https://dc.lft.to/lastmile_qr_scan", "android": "https://dc.lft.to/lastmile_qr_scan"}, "lon": -77.04817633333333, "type": "electric_scooter", "fusion_lat": 0.0, "lat": 38.9133795, "name": "ec1d2ccd5a2d57401aeb2a31d67f4dc2", "fusion_lon": 0.0, "bike_id": "ec1d2ccd5a2d57401aeb2a31d67f4dc2", "is_disabled": 0, "is_reserved": 0}, {"rental_uris": {"ios": "https://dc.lft.to/lastmile_qr_scan", "android": "https://dc.lft.to/lastmile_qr_scan"}, "lon": -77.0268745, "type": "electric_scooter", "fusion_lat": 0.0, "lat": 38.926011833333334, "name": "c0991fd6d772b1b091171c5909146a8e", "fusion_lon": 0.0, "bike_id": "c0991fd6d772b1b091171c5909146a8e", "is_disabled": 0, "is_reserved": 0}, {"rental_uris": {"ios": "https://dc.lft.to/lastmile_qr_scan", "android": "https://dc.lft.to/lastmile_qr_scan"}, "lon": -77.08194, "type": "electric_scooter", "fusion_lat": 0.0, "lat": 38.94930216666667, "name": "31ca350887124475eb68e2f8a4e2fc9f", "fusion_lon": 0.0, "bike_id": "31ca350887124475eb68e2f8a4e2fc9f", "is_disabled": 0, "is_reserved": 0}, {"rental_uris": {"ios": "https://dc.lft.to/lastmile_qr_scan", "android": "https://dc.lft.to/lastmile_qr_scan"}, "lon": -77.038604, "type": "electric_scooter", "fusion_lat": 0.0, "lat": 38.93254066666667, "name": "5466d190cc74707ccc6cee878d508c19", "fusion_lon": 0.0, "bike_id": "5466d190cc74707ccc6cee878d508c19", "is_disabled": 0, "is_reserved": 0}, {"rental_uris": {"ios": "https://dc.lft.to/lastmile_qr_scan", "android": "https://dc.lft.to/lastmile_qr_scan"}, "lon": -77.01137566666667, "type": "electric_scooter", "fusion_lat": 0.0, "lat": 38.895194333333336, "name": "0e2c2a2779bfcc5c2136fbed29fb34a4", "fusion_lon": 0.0, "bike_id": "0e2c2a2779bfcc5c2136fbed29fb34a4", "is_disabled": 0, "is_reserved": 0}, {"rental_uris": {"ios": "https://dc.lft.to/lastmile_qr_scan", "android": "https://dc.lft.to/lastmile_qr_scan"}, "lon": -77.01094466666666, "type": "electric_bike", "fusion_lat": 0.0, "lat": 38.87305416666667, "name": "2136d8712692269305616fdffb9ab6d1", "fusion_lon": 0.0, "bike_id": "2136d8712692269305616fdffb9ab6d1", "is_disabled": 0, "is_reserved": 0}, {"rental_uris": {"ios": "https://dc.lft.to/lastmile_qr_scan", "android": "https://dc.lft.to/lastmile_qr_scan"}, "lon": -77.04139333333333, "type": "electric_scooter", "fusion_lat": 0.0, "lat": 38.923031333333334, "name": "5ecc6b3b6f455bf4bb3731ef721f20aa", "fusion_lon": 0.0, "bike_id": "5ecc6b3b6f455bf4bb3731ef721f20aa", "is_disabled": 0, "is_reserved": 0}, {"rental_uris": {"ios": "https://dc.lft.to/lastmile_qr_scan", "android": "https://dc.lft.to/lastmile_qr_scan"}, "lon": -76.93364583333333, "type": "electric_scooter", "fusion_lat": 0.0, "lat": 38.899183666666666, "name": "3745ea16a85f7b2aae99a130d60f60eb", "fusion_lon": 0.0, "bike_id": "3745ea16a85f7b2aae99a130d60f60eb", "is_disabled": 0, "is_reserved": 0}, {"rental_uris": {"ios": "https://dc.lft.to/lastmile_qr_scan", "android": "https://dc.lft.to/lastmile_qr_scan"}, "lon": -77.02921916666666, "type": "electric_scooter", "fusion_lat": 0.0, "lat": 38.895553166666666, "name": "f34d98246e5c67d2d8263220a71993c3", "fusion_lon": 0.0, "bike_id": "f34d98246e5c67d2d8263220a71993c3", "is_disabled": 0, "is_reserved": 0}, {"rental_uris": {"ios": "https://dc.lft.to/lastmile_qr_scan", "android": "https://dc.lft.to/lastmile_qr_scan"}, "lon": -77.032209, "type": "electric_scooter", "fusion_lat": 0.0, "lat": 38.892209666666666, "name": "c5d0ddd1c40bedcee1029a12304f27b7", "fusion_lon": 0.0, "bike_id": "c5d0ddd1c40bedcee1029a12304f27b7", "is_disabled": 0, "is_reserved": 0}, {"rental_uris": {"ios": "https://dc.lft.to/lastmile_qr_scan", "android": "https://dc.lft.to/lastmile_qr_scan"}, "lon": -77.048036, "type": "electric_scooter", "fusion_lat": 0.0, "lat": 38.91644983333333, "name": "b973dba43729244761b1f44e66bfc088", "fusion_lon": 0.0, "bike_id": "b973dba43729244761b1f44e66bfc088", "is_disabled": 0, "is_reserved": 0}, {"rental_uris": {"ios": "https://dc.lft.to/lastmile_qr_scan", "android": "https://dc.lft.to/lastmile_qr_scan"}, "lon": -77.00606033333334, "type": "electric_scooter", "fusion_lat": 0.0, "lat": 38.880153666666665, "name": "28d77aa7c5fec3fcfa034d662669f70c", "fusion_lon": 0.0, "bike_id": "28d77aa7c5fec3fcfa034d662669f70c", "is_disabled": 0, "is_reserved": 0}, {"rental_uris": {"ios": "https://dc.lft.to/lastmile_qr_scan", "android": "https://dc.lft.to/lastmile_qr_scan"}, "lon": -77.19908933333333, "type": "electric_bike", "fusion_lat": 0.0, "lat": 38.875370833333335, "name": "efd893bf83bc997beeccea91fc309113", "fusion_lon": 0.0, "bike_id": "efd893bf83bc997beeccea91fc309113", "is_disabled": 0, "is_reserved": 0}, {"rental_uris": {"ios": "https://dc.lft.to/lastmile_qr_scan", "android": "https://dc.lft.to/lastmile_qr_scan"}, "lon": -77.00322083333333, "type": "electric_scooter", "fusion_lat": 0.0, "lat": 38.908970333333336, "name": "9e57352f61503ec0543a5c1dc25c31d6", "fusion_lon": 0.0, "bike_id": "9e57352f61503ec0543a5c1dc25c31d6", "is_disabled": 0, "is_reserved": 0}, {"rental_uris": {"ios": "https://dc.lft.to/lastmile_qr_scan", "android": "https://dc.lft.to/lastmile_qr_scan"}, "lon": -77.00222966666666, "type": "electric_scooter", "fusion_lat": 0.0, "lat": 38.90568583333334, "name": "b431a12895e683727d03e68abd3ea208", "fusion_lon": 0.0, "bike_id": "b431a12895e683727d03e68abd3ea208", "is_disabled": 0, "is_reserved": 0}, {"rental_uris": {"ios": "https://dc.lft.to/lastmile_qr_scan", "android": "https://dc.lft.to/lastmile_qr_scan"}, "lon": -77.10516283333334, "type": "electric_bike", "fusion_lat": 0.0, "lat": 38.85175533333334, "name": "73ea48e81639570a8287248f32a526d3", "fusion_lon": 0.0, "bike_id": "73ea48e81639570a8287248f32a526d3", "is_disabled": 0, "is_reserved": 0}, {"rental_uris": {"ios": "https://dc.lft.to/lastmile_qr_scan", "android": "https://dc.lft.to/lastmile_qr_scan"}, "lon": -77.0283705, "type": "electric_scooter", "fusion_lat": 0.0, "lat": 38.931906833333336, "name": "daa4f047c20750d1d936424e3a768b66", "fusion_lon": 0.0, "bike_id": "daa4f047c20750d1d936424e3a768b66", "is_disabled": 0, "is_reserved": 0}, {"rental_uris": {"ios": "https://dc.lft.to/lastmile_qr_scan", "android": "https://dc.lft.to/lastmile_qr_scan"}, "lon": -77.04447033333334, "type": "electric_scooter", "fusion_lat": 0.0, "lat": 38.918075, "name": "4bf15da156ec6088a2cc2149628ee171", "fusion_lon": 0.0, "bike_id": "4bf15da156ec6088a2cc2149628ee171", "is_disabled": 0, "is_reserved": 0}, {"rental_uris": {"ios": "https://dc.lft.to/lastmile_qr_scan", "android": "https://dc.lft.to/lastmile_qr_scan"}, "lon": -76.96782233333333, "type": "electric_scooter", "fusion_lat": 0.0, "lat": 38.86146383333333, "name": "6c170f312143ae6be248d2645be6a932", "fusion_lon": 0.0, "bike_id": "6c170f312143ae6be248d2645be6a932", "is_disabled": 0, "is_reserved": 0}, {"rental_uris": {"ios": "https://dc.lft.to/lastmile_qr_scan", "android": "https://dc.lft.to/lastmile_qr_scan"}, "lon": -77.0229935, "type": "electric_scooter", "fusion_lat": 0.0, "lat": 38.91794066666667, "name": "04f12eda79b230f2e97361495b15ea14", "fusion_lon": 0.0, "bike_id": "04f12eda79b230f2e97361495b15ea14", "is_disabled": 0, "is_reserved": 0}, {"rental_uris": {"ios": "https://dc.lft.to/lastmile_qr_scan", "android": "https://dc.lft.to/lastmile_qr_scan"}, "lon": -77.002897, "type": "electric_scooter", "fusion_lat": 0.0, "lat": 38.9056065, "name": "354ddc221c8fbce43445578ee77b4f81", "fusion_lon": 0.0, "bike_id": "354ddc221c8fbce43445578ee77b4f81", "is_disabled": 0, "is_reserved": 0}, {"rental_uris": {"ios": "https://dc.lft.to/lastmile_qr_scan", "android": "https://dc.lft.to/lastmile_qr_scan"}, "lon": -76.9840935, "type": "electric_scooter", "fusion_lat": 0.0, "lat": 38.913869166666665, "name": "a4ce499568a98fdfb6f0353a5042a7dc", "fusion_lon": 0.0, "bike_id": "a4ce499568a98fdfb6f0353a5042a7dc", "is_disabled": 0, "is_reserved": 0}, {"rental_uris": {"ios": "https://dc.lft.to/lastmile_qr_scan", "android": "https://dc.lft.to/lastmile_qr_scan"}, "lon": -77.0334715, "type": "electric_scooter", "fusion_lat": 0.0, "lat": 38.91697116666667, "name": "e31066ada72f331f3e5d77d858c55d16", "fusion_lon": 0.0, "bike_id": "e31066ada72f331f3e5d77d858c55d16", "is_disabled": 0, "is_reserved": 0}, {"rental_uris": {"ios": "https://dc.lft.to/lastmile_qr_scan", "android": "https://dc.lft.to/lastmile_qr_scan"}, "lon": -77.00577583333333, "type": "electric_scooter", "fusion_lat": 0.0, "lat": 38.8449425, "name": "ee6051961876b2886b0f4060fa6b8596", "fusion_lon": 0.0, "bike_id": "ee6051961876b2886b0f4060fa6b8596", "is_disabled": 0, "is_reserved": 0}, {"rental_uris": {"ios": "https://dc.lft.to/lastmile_qr_scan", "android": "https://dc.lft.to/lastmile_qr_scan"}, "lon": -77.01110016666667, "type": "electric_scooter", "fusion_lat": 0.0, "lat": 38.907857, "name": "465c24c2d35ce0f9edb8d9d86f4e318d", "fusion_lon": 0.0, "bike_id": "465c24c2d35ce0f9edb8d9d86f4e318d", "is_disabled": 0, "is_reserved": 0}, {"rental_uris": {"ios": "https://dc.lft.to/lastmile_qr_scan", "android": "https://dc.lft.to/lastmile_qr_scan"}, "lon": -77.01292283333333, "type": "electric_bike", "fusion_lat": 0.0, "lat": 38.88126783333333, "name": "832e4772bac9c9e459254868bbfaa7c5", "fusion_lon": 0.0, "bike_id": "832e4772bac9c9e459254868bbfaa7c5", "is_disabled": 0, "is_reserved": 0}, {"rental_uris": {"ios": "https://dc.lft.to/lastmile_qr_scan", "android": "https://dc.lft.to/lastmile_qr_scan"}, "lon": -77.04162516666666, "type": "electric_scooter", "fusion_lat": 0.0, "lat": 38.901274, "name": "56f46a828bbd53536a430067001a41ea", "fusion_lon": 0.0, "bike_id": "56f46a828bbd53536a430067001a41ea", "is_disabled": 0, "is_reserved": 0}, {"rental_uris": {"ios": "https://dc.lft.to/lastmile_qr_scan", "android": "https://dc.lft.to/lastmile_qr_scan"}, "lon": -77.0229065, "type": "electric_scooter", "fusion_lat": 0.0, "lat": 38.8971455, "name": "3319bd0dd64c75f167577f0171f06220", "fusion_lon": 0.0, "bike_id": "3319bd0dd64c75f167577f0171f06220", "is_disabled": 0, "is_reserved": 0}, {"rental_uris": {"ios": "https://dc.lft.to/lastmile_qr_scan", "android": "https://dc.lft.to/lastmile_qr_scan"}, "lon": -77.04317816666666, "type": "electric_scooter", "fusion_lat": 0.0, "lat": 38.91880883333333, "name": "2c35f4913e67bdf950839993321eb134", "fusion_lon": 0.0, "bike_id": "2c35f4913e67bdf950839993321eb134", "is_disabled": 0, "is_reserved": 0}, {"rental_uris": {"ios": "https://dc.lft.to/lastmile_qr_scan", "android": "https://dc.lft.to/lastmile_qr_scan"}, "lon": -77.02154216666666, "type": "electric_scooter", "fusion_lat": 0.0, "lat": 38.9260605, "name": "4994a0859ea72bf5cbff0aa7ac84886f", "fusion_lon": 0.0, "bike_id": "4994a0859ea72bf5cbff0aa7ac84886f", "is_disabled": 0, "is_reserved": 0}, {"rental_uris": {"ios": "https://dc.lft.to/lastmile_qr_scan", "android": "https://dc.lft.to/lastmile_qr_scan"}, "lon": -77.01889066666666, "type": "electric_scooter", "fusion_lat": 0.0, "lat": 38.911963166666666, "name": "94ec5d9ad55f1dd877f9ffe3a88636af", "fusion_lon": 0.0, "bike_id": "94ec5d9ad55f1dd877f9ffe3a88636af", "is_disabled": 0, "is_reserved": 0}, {"rental_uris": {"ios": "https://dc.lft.to/lastmile_qr_scan", "android": "https://dc.lft.to/lastmile_qr_scan"}, "lon": -77.04170366666666, "type": "electric_scooter", "fusion_lat": 0.0, "lat": 38.911515333333334, "name": "845fa87ed1231ae89aecf0b428787646", "fusion_lon": 0.0, "bike_id": "845fa87ed1231ae89aecf0b428787646", "is_disabled": 0, "is_reserved": 0}, {"rental_uris": {"ios": "https://dc.lft.to/lastmile_qr_scan", "android": "https://dc.lft.to/lastmile_qr_scan"}, "lon": -76.988815, "type": "electric_scooter", "fusion_lat": 0.0, "lat": 38.86663516666667, "name": "478cc857fc7a7f0f5e3d58f7bb5946a9", "fusion_lon": 0.0, "bike_id": "478cc857fc7a7f0f5e3d58f7bb5946a9", "is_disabled": 0, "is_reserved": 0}, {"rental_uris": {"ios": "https://dc.lft.to/lastmile_qr_scan", "android": "https://dc.lft.to/lastmile_qr_scan"}, "lon": -77.03695933333333, "type": "electric_scooter", "fusion_lat": 0.0, "lat": 38.9264525, "name": "b683df840b2af9b99b18c89ad1065b38", "fusion_lon": 0.0, "bike_id": "b683df840b2af9b99b18c89ad1065b38", "is_disabled": 0, "is_reserved": 0}, {"rental_uris": {"ios": "https://dc.lft.to/lastmile_qr_scan", "android": "https://dc.lft.to/lastmile_qr_scan"}, "lon": -77.02403883333334, "type": "electric_scooter", "fusion_lat": 0.0, "lat": 38.90975816666667, "name": "1098fcc9b6d276982e4768c2c082109d", "fusion_lon": 0.0, "bike_id": "1098fcc9b6d276982e4768c2c082109d", "is_disabled": 0, "is_reserved": 0}, {"rental_uris": {"ios": "https://dc.lft.to/lastmile_qr_scan", "android": "https://dc.lft.to/lastmile_qr_scan"}, "lon": -77.0240795, "type": "electric_scooter", "fusion_lat": 0.0, "lat": 38.916040333333335, "name": "c1908f50b65fc66a26b226fa1e8b712f", "fusion_lon": 0.0, "bike_id": "c1908f50b65fc66a26b226fa1e8b712f", "is_disabled": 0, "is_reserved": 0}, {"rental_uris": {"ios": "https://dc.lft.to/lastmile_qr_scan", "android": "https://dc.lft.to/lastmile_qr_scan"}, "lon": -77.034614, "type": "electric_scooter", "fusion_lat": 0.0, "lat": 38.92152266666667, "name": "7857806e285219bdc9002d183bf0a9bf", "fusion_lon": 0.0, "bike_id": "7857806e285219bdc9002d183bf0a9bf", "is_disabled": 0, "is_reserved": 0}, {"rental_uris": {"ios": "https://dc.lft.to/lastmile_qr_scan", "android": "https://dc.lft.to/lastmile_qr_scan"}, "lon": -77.05712933333334, "type": "electric_scooter", "fusion_lat": 0.0, "lat": 38.90555783333333, "name": "72c80db34d4cfd5e806925be66f2a7f6", "fusion_lon": 0.0, "bike_id": "72c80db34d4cfd5e806925be66f2a7f6", "is_disabled": 0, "is_reserved": 0}, {"rental_uris": {"ios": "https://dc.lft.to/lastmile_qr_scan", "android": "https://dc.lft.to/lastmile_qr_scan"}, "lon": -77.06118833333333, "type": "electric_bike", "fusion_lat": 0.0, "lat": 38.90201966666667, "name": "697b70b92164f18c43311595cf47b748", "fusion_lon": 0.0, "bike_id": "697b70b92164f18c43311595cf47b748", "is_disabled": 0, "is_reserved": 0}, {"rental_uris": {"ios": "https://dc.lft.to/lastmile_qr_scan", "android": "https://dc.lft.to/lastmile_qr_scan"}, "lon": -77.02565316666667, "type": "electric_scooter", "fusion_lat": 0.0, "lat": 38.9053795, "name": "37ba67a7eadb5e29909bd64c01b30757", "fusion_lon": 0.0, "bike_id": "37ba67a7eadb5e29909bd64c01b30757", "is_disabled": 0, "is_reserved": 0}, {"rental_uris": {"ios": "https://dc.lft.to/lastmile_qr_scan", "android": "https://dc.lft.to/lastmile_qr_scan"}, "lon": -77.000709, "type": "electric_scooter", "fusion_lat": 0.0, "lat": 38.90719033333333, "name": "0d0e4c8b6434635048a3ad8b5f6d4d16", "fusion_lon": 0.0, "bike_id": "0d0e4c8b6434635048a3ad8b5f6d4d16", "is_disabled": 0, "is_reserved": 0}, {"rental_uris": {"ios": "https://dc.lft.to/lastmile_qr_scan", "android": "https://dc.lft.to/lastmile_qr_scan"}, "lon": -77.0553605, "type": "electric_scooter", "fusion_lat": 0.0, "lat": 38.927948, "name": "21a16523de25492ff8dc1bf5a765b958", "fusion_lon": 0.0, "bike_id": "21a16523de25492ff8dc1bf5a765b958", "is_disabled": 0, "is_reserved": 0}, {"rental_uris": {"ios": "https://dc.lft.to/lastmile_qr_scan", "android": "https://dc.lft.to/lastmile_qr_scan"}, "lon": -77.01741, "type": "electric_bike", "fusion_lat": 0.0, "lat": 39.0001665, "name": "14da3024fde5b1454361ce7e519d5a75", "fusion_lon": 0.0, "bike_id": "14da3024fde5b1454361ce7e519d5a75", "is_disabled": 0, "is_reserved": 0}, {"rental_uris": {"ios": "https://dc.lft.to/lastmile_qr_scan", "android": "https://dc.lft.to/lastmile_qr_scan"}, "lon": -77.02750383333333, "type": "electric_scooter", "fusion_lat": 0.0, "lat": 38.939664, "name": "da2e54e8ccd72742083c696432fc5532", "fusion_lon": 0.0, "bike_id": "da2e54e8ccd72742083c696432fc5532", "is_disabled": 0, "is_reserved": 0}, {"rental_uris": {"ios": "https://dc.lft.to/lastmile_qr_scan", "android": "https://dc.lft.to/lastmile_qr_scan"}, "lon": -77.021351, "type": "electric_scooter", "fusion_lat": 0.0, "lat": 38.8949795, "name": "fccaef5184657f05707b0eefb8fa7b74", "fusion_lon": 0.0, "bike_id": "fccaef5184657f05707b0eefb8fa7b74", "is_disabled": 0, "is_reserved": 0}, {"rental_uris": {"ios": "https://dc.lft.to/lastmile_qr_scan", "android": "https://dc.lft.to/lastmile_qr_scan"}, "lon": -77.03537516666667, "type": "electric_scooter", "fusion_lat": 0.0, "lat": 38.9328525, "name": "75965db83d870a5fbb07106e087df758", "fusion_lon": 0.0, "bike_id": "75965db83d870a5fbb07106e087df758", "is_disabled": 0, "is_reserved": 0}, {"rental_uris": {"ios": "https://dc.lft.to/lastmile_qr_scan", "android": "https://dc.lft.to/lastmile_qr_scan"}, "lon": -77.033499, "type": "electric_scooter", "fusion_lat": 0.0, "lat": 38.9342275, "name": "5dfcb22bddb30c9313919ef22e63e8a8", "fusion_lon": 0.0, "bike_id": "5dfcb22bddb30c9313919ef22e63e8a8", "is_disabled": 0, "is_reserved": 0}, {"rental_uris": {"ios": "https://dc.lft.to/lastmile_qr_scan", "android": "https://dc.lft.to/lastmile_qr_scan"}, "lon": -77.04004616666667, "type": "electric_scooter", "fusion_lat": 0.0, "lat": 38.9213885, "name": "5139e1b85784c9be84d120799d265fae", "fusion_lon": 0.0, "bike_id": "5139e1b85784c9be84d120799d265fae", "is_disabled": 0, "is_reserved": 0}, {"rental_uris": {"ios": "https://dc.lft.to/lastmile_qr_scan", "android": "https://dc.lft.to/lastmile_qr_scan"}, "lon": -77.04809633333333, "type": "electric_scooter", "fusion_lat": 0.0, "lat": 38.920460166666665, "name": "ba9e4c05c6c5ad5455ba2969ba4f544b", "fusion_lon": 0.0, "bike_id": "ba9e4c05c6c5ad5455ba2969ba4f544b", "is_disabled": 0, "is_reserved": 0}, {"rental_uris": {"ios": "https://dc.lft.to/lastmile_qr_scan", "android": "https://dc.lft.to/lastmile_qr_scan"}, "lon": -77.01287533333333, "type": "electric_scooter", "fusion_lat": 0.0, "lat": 38.900272333333334, "name": "fe51080598074095aabf9c07b9b0a2d5", "fusion_lon": 0.0, "bike_id": "fe51080598074095aabf9c07b9b0a2d5", "is_disabled": 0, "is_reserved": 0}, {"rental_uris": {"ios": "https://dc.lft.to/lastmile_qr_scan", "android": "https://dc.lft.to/lastmile_qr_scan"}, "lon": -77.02858133333334, "type": "electric_scooter", "fusion_lat": 0.0, "lat": 38.928214, "name": "6219e07cdf02e1051d5d10d5ad9459e4", "fusion_lon": 0.0, "bike_id": "6219e07cdf02e1051d5d10d5ad9459e4", "is_disabled": 0, "is_reserved": 0}, {"rental_uris": {"ios": "https://dc.lft.to/lastmile_qr_scan", "android": "https://dc.lft.to/lastmile_qr_scan"}, "lon": -77.023936, "type": "electric_scooter", "fusion_lat": 0.0, "lat": 38.9370485, "name": "d24a94c583e44aa5fb55373c8a9aa26a", "fusion_lon": 0.0, "bike_id": "d24a94c583e44aa5fb55373c8a9aa26a", "is_disabled": 0, "is_reserved": 0}, {"rental_uris": {"ios": "https://dc.lft.to/lastmile_qr_scan", "android": "https://dc.lft.to/lastmile_qr_scan"}, "lon": -77.02357433333333, "type": "electric_scooter", "fusion_lat": 0.0, "lat": 38.925146833333336, "name": "256bfe393c9ff8cb19f9f1b5042889a4", "fusion_lon": 0.0, "bike_id": "256bfe393c9ff8cb19f9f1b5042889a4", "is_disabled": 0, "is_reserved": 0}, {"rental_uris": {"ios": "https://dc.lft.to/lastmile_qr_scan", "android": "https://dc.lft.to/lastmile_qr_scan"}, "lon": -77.03418483333333, "type": "electric_scooter", "fusion_lat": 0.0, "lat": 38.93543833333333, "name": "e787e1e2c7e47b4be219d3ac5c9397e6", "fusion_lon": 0.0, "bike_id": "e787e1e2c7e47b4be219d3ac5c9397e6", "is_disabled": 0, "is_reserved": 0}, {"rental_uris": {"ios": "https://dc.lft.to/lastmile_qr_scan", "android": "https://dc.lft.to/lastmile_qr_scan"}, "lon": -77.01702383333334, "type": "electric_scooter", "fusion_lat": 0.0, "lat": 38.920360333333335, "name": "7f5bde213343174ef73e122199159b23", "fusion_lon": 0.0, "bike_id": "7f5bde213343174ef73e122199159b23", "is_disabled": 0, "is_reserved": 0}, {"rental_uris": {"ios": "https://dc.lft.to/lastmile_qr_scan", "android": "https://dc.lft.to/lastmile_qr_scan"}, "lon": -77.03773133333333, "type": "electric_scooter", "fusion_lat": 0.0, "lat": 38.9169635, "name": "8674f2e3af81ab72ce2fb31b9b269160", "fusion_lon": 0.0, "bike_id": "8674f2e3af81ab72ce2fb31b9b269160", "is_disabled": 0, "is_reserved": 0}, {"rental_uris": {"ios": "https://dc.lft.to/lastmile_qr_scan", "android": "https://dc.lft.to/lastmile_qr_scan"}, "lon": -76.965262, "type": "electric_scooter", "fusion_lat": 0.0, "lat": 38.8762715, "name": "17f1815dba634e93cd06c14d6ac467fd", "fusion_lon": 0.0, "bike_id": "17f1815dba634e93cd06c14d6ac467fd", "is_disabled": 0, "is_reserved": 0}, {"rental_uris": {"ios": "https://dc.lft.to/lastmile_qr_scan", "android": "https://dc.lft.to/lastmile_qr_scan"}, "lon": -77.09691533333333, "type": "electric_bike", "fusion_lat": 0.0, "lat": 38.9181825, "name": "aa05fb7af21be75c5b27ed04be5a86c7", "fusion_lon": 0.0, "bike_id": "aa05fb7af21be75c5b27ed04be5a86c7", "is_disabled": 0, "is_reserved": 0}, {"rental_uris": {"ios": "https://dc.lft.to/lastmile_qr_scan", "android": "https://dc.lft.to/lastmile_qr_scan"}, "lon": -77.04785716666666, "type": "electric_scooter", "fusion_lat": 0.0, "lat": 38.89773266666667, "name": "ebe6f5510c9af86f7cd32ceb9c61d457", "fusion_lon": 0.0, "bike_id": "ebe6f5510c9af86f7cd32ceb9c61d457", "is_disabled": 0, "is_reserved": 0}, {"rental_uris": {"ios": "https://dc.lft.to/lastmile_qr_scan", "android": "https://dc.lft.to/lastmile_qr_scan"}, "lon": -77.05965966666666, "type": "electric_scooter", "fusion_lat": 0.0, "lat": 38.91192133333333, "name": "1649bbcdf50e2775e270dd67ca3363f5", "fusion_lon": 0.0, "bike_id": "1649bbcdf50e2775e270dd67ca3363f5", "is_disabled": 0, "is_reserved": 0}, {"rental_uris": {"ios": "https://dc.lft.to/lastmile_qr_scan", "android": "https://dc.lft.to/lastmile_qr_scan"}, "lon": -77.06609416666667, "type": "electric_scooter", "fusion_lat": 0.0, "lat": 38.90539016666666, "name": "2d05a446d3fee227207a50d1b74195cb", "fusion_lon": 0.0, "bike_id": "2d05a446d3fee227207a50d1b74195cb", "is_disabled": 0, "is_reserved": 0}, {"rental_uris": {"ios": "https://dc.lft.to/lastmile_qr_scan", "android": "https://dc.lft.to/lastmile_qr_scan"}, "lon": -77.040919, "type": "electric_scooter", "fusion_lat": 0.0, "lat": 38.914873166666666, "name": "a12718884f2f4939bfe9fafce03b268b", "fusion_lon": 0.0, "bike_id": "a12718884f2f4939bfe9fafce03b268b", "is_disabled": 0, "is_reserved": 0}, {"rental_uris": {"ios": "https://dc.lft.to/lastmile_qr_scan", "android": "https://dc.lft.to/lastmile_qr_scan"}, "lon": -77.026832, "type": "electric_scooter", "fusion_lat": 0.0, "lat": 38.91833233333333, "name": "3e70037215fe91f2947897fb27d128db", "fusion_lon": 0.0, "bike_id": "3e70037215fe91f2947897fb27d128db", "is_disabled": 0, "is_reserved": 0}, {"rental_uris": {"ios": "https://dc.lft.to/lastmile_qr_scan", "android": "https://dc.lft.to/lastmile_qr_scan"}, "lon": -77.01976016666667, "type": "electric_scooter", "fusion_lat": 0.0, "lat": 38.8974925, "name": "a7e39b50a758639dca54090c61207c9b", "fusion_lon": 0.0, "bike_id": "a7e39b50a758639dca54090c61207c9b", "is_disabled": 0, "is_reserved": 0}, {"rental_uris": {"ios": "https://dc.lft.to/lastmile_qr_scan", "android": "https://dc.lft.to/lastmile_qr_scan"}, "lon": -77.05384616666667, "type": "electric_scooter", "fusion_lat": 0.0, "lat": 38.902612166666664, "name": "d4050f3077e507267bab1611338ca487", "fusion_lon": 0.0, "bike_id": "d4050f3077e507267bab1611338ca487", "is_disabled": 0, "is_reserved": 0}, {"rental_uris": {"ios": "https://dc.lft.to/lastmile_qr_scan", "android": "https://dc.lft.to/lastmile_qr_scan"}, "lon": -76.99272283333333, "type": "electric_scooter", "fusion_lat": 0.0, "lat": 38.921325833333334, "name": "cce557b109f6b98d25acff03217e0bab", "fusion_lon": 0.0, "bike_id": "cce557b109f6b98d25acff03217e0bab", "is_disabled": 0, "is_reserved": 0}, {"rental_uris": {"ios": "https://dc.lft.to/lastmile_qr_scan", "android": "https://dc.lft.to/lastmile_qr_scan"}, "lon": -77.01684333333333, "type": "electric_bike", "fusion_lat": 0.0, "lat": 38.97522333333333, "name": "1dbf0deea9c1f97731157b9ee92883f8", "fusion_lon": 0.0, "bike_id": "1dbf0deea9c1f97731157b9ee92883f8", "is_disabled": 0, "is_reserved": 0}, {"rental_uris": {"ios": "https://dc.lft.to/lastmile_qr_scan", "android": "https://dc.lft.to/lastmile_qr_scan"}, "lon": -77.0640175, "type": "electric_bike", "fusion_lat": 0.0, "lat": 38.843485666666666, "name": "238d3018e997be34cb223ad4777f1f2e", "fusion_lon": 0.0, "bike_id": "238d3018e997be34cb223ad4777f1f2e", "is_disabled": 0, "is_reserved": 0}, {"rental_uris": {"ios": "https://dc.lft.to/lastmile_qr_scan", "android": "https://dc.lft.to/lastmile_qr_scan"}, "lon": -77.0318795, "type": "electric_scooter", "fusion_lat": 0.0, "lat": 38.89967033333333, "name": "9c330cb046d693ee3f366e5eb4cf3958", "fusion_lon": 0.0, "bike_id": "9c330cb046d693ee3f366e5eb4cf3958", "is_disabled": 0, "is_reserved": 0}, {"rental_uris": {"ios": "https://dc.lft.to/lastmile_qr_scan", "android": "https://dc.lft.to/lastmile_qr_scan"}, "lon": -77.04266683333333, "type": "electric_scooter", "fusion_lat": 0.0, "lat": 38.895907, "name": "669d25f1acb607584ff50b2d42f8cdea", "fusion_lon": 0.0, "bike_id": "669d25f1acb607584ff50b2d42f8cdea", "is_disabled": 0, "is_reserved": 0}, {"rental_uris": {"ios": "https://dc.lft.to/lastmile_qr_scan", "android": "https://dc.lft.to/lastmile_qr_scan"}, "lon": -77.02422066666666, "type": "electric_scooter", "fusion_lat": 0.0, "lat": 38.92657583333333, "name": "15b880299901f5d831fc577a5308df89", "fusion_lon": 0.0, "bike_id": "15b880299901f5d831fc577a5308df89", "is_disabled": 0, "is_reserved": 0}, {"rental_uris": {"ios": "https://dc.lft.to/lastmile_qr_scan", "android": "https://dc.lft.to/lastmile_qr_scan"}, "lon": -76.98872616666667, "type": "electric_scooter", "fusion_lat": 0.0, "lat": 38.83222083333333, "name": "19ea2954af236b64874ce2895303ed9f", "fusion_lon": 0.0, "bike_id": "19ea2954af236b64874ce2895303ed9f", "is_disabled": 0, "is_reserved": 0}, {"rental_uris": {"ios": "https://dc.lft.to/lastmile_qr_scan", "android": "https://dc.lft.to/lastmile_qr_scan"}, "lon": -77.04141966666667, "type": "electric_scooter", "fusion_lat": 0.0, "lat": 38.9230165, "name": "3661a490743422e9033ff706fc59348d", "fusion_lon": 0.0, "bike_id": "3661a490743422e9033ff706fc59348d", "is_disabled": 0, "is_reserved": 0}, {"rental_uris": {"ios": "https://dc.lft.to/lastmile_qr_scan", "android": "https://dc.lft.to/lastmile_qr_scan"}, "lon": -77.00772316666666, "type": "electric_scooter", "fusion_lat": 0.0, "lat": 38.897323, "name": "741062a2726367dc4f2d7cd6ccf19bf9", "fusion_lon": 0.0, "bike_id": "741062a2726367dc4f2d7cd6ccf19bf9", "is_disabled": 0, "is_reserved": 0}, {"rental_uris": {"ios": "https://dc.lft.to/lastmile_qr_scan", "android": "https://dc.lft.to/lastmile_qr_scan"}, "lon": -77.02926333333333, "type": "electric_scooter", "fusion_lat": 0.0, "lat": 38.895502, "name": "5db6116c75dc206195b8b42672095f78", "fusion_lon": 0.0, "bike_id": "5db6116c75dc206195b8b42672095f78", "is_disabled": 0, "is_reserved": 0}, {"rental_uris": {"ios": "https://dc.lft.to/lastmile_qr_scan", "android": "https://dc.lft.to/lastmile_qr_scan"}, "lon": -77.04985933333333, "type": "electric_scooter", "fusion_lat": 0.0, "lat": 38.90113916666667, "name": "4cfcc764cd6d838849fc9af84eae564d", "fusion_lon": 0.0, "bike_id": "4cfcc764cd6d838849fc9af84eae564d", "is_disabled": 0, "is_reserved": 0}, {"rental_uris": {"ios": "https://dc.lft.to/lastmile_qr_scan", "android": "https://dc.lft.to/lastmile_qr_scan"}, "lon": -77.02069566666667, "type": "electric_scooter", "fusion_lat": 0.0, "lat": 38.915492, "name": "986b3ec27bf150d7d6d8387e27ec7796", "fusion_lon": 0.0, "bike_id": "986b3ec27bf150d7d6d8387e27ec7796", "is_disabled": 0, "is_reserved": 0}, {"rental_uris": {"ios": "https://dc.lft.to/lastmile_qr_scan", "android": "https://dc.lft.to/lastmile_qr_scan"}, "lon": -77.04367983333333, "type": "electric_scooter", "fusion_lat": 0.0, "lat": 38.92814116666667, "name": "3c7227cb1ec27cda385ed9d5590e802a", "fusion_lon": 0.0, "bike_id": "3c7227cb1ec27cda385ed9d5590e802a", "is_disabled": 0, "is_reserved": 0}, {"rental_uris": {"ios": "https://dc.lft.to/lastmile_qr_scan", "android": "https://dc.lft.to/lastmile_qr_scan"}, "lon": -76.99496866666667, "type": "electric_scooter", "fusion_lat": 0.0, "lat": 38.899603166666665, "name": "60f57dddead72931644de0d0b2edb908", "fusion_lon": 0.0, "bike_id": "60f57dddead72931644de0d0b2edb908", "is_disabled": 0, "is_reserved": 0}, {"rental_uris": {"ios": "https://dc.lft.to/lastmile_qr_scan", "android": "https://dc.lft.to/lastmile_qr_scan"}, "lon": -77.052999, "type": "electric_scooter", "fusion_lat": 0.0, "lat": 38.926166, "name": "8dccee8b8b68c5da6d27e880fcce2f76", "fusion_lon": 0.0, "bike_id": "8dccee8b8b68c5da6d27e880fcce2f76", "is_disabled": 0, "is_reserved": 0}, {"rental_uris": {"ios": "https://dc.lft.to/lastmile_qr_scan", "android": "https://dc.lft.to/lastmile_qr_scan"}, "lon": -76.93175083333334, "type": "electric_scooter", "fusion_lat": 0.0, "lat": 38.8988615, "name": "1a0b9628abcb9fb59a8609c438c375b6", "fusion_lon": 0.0, "bike_id": "1a0b9628abcb9fb59a8609c438c375b6", "is_disabled": 0, "is_reserved": 0}, {"rental_uris": {"ios": "https://dc.lft.to/lastmile_qr_scan", "android": "https://dc.lft.to/lastmile_qr_scan"}, "lon": -76.9750155, "type": "electric_scooter", "fusion_lat": 0.0, "lat": 38.8691855, "name": "664feaa305ab73f53b29384d3881732f", "fusion_lon": 0.0, "bike_id": "664feaa305ab73f53b29384d3881732f", "is_disabled": 0, "is_reserved": 0}, {"rental_uris": {"ios": "https://dc.lft.to/lastmile_qr_scan", "android": "https://dc.lft.to/lastmile_qr_scan"}, "lon": -76.96757533333333, "type": "electric_bike", "fusion_lat": 0.0, "lat": 38.875576, "name": "cba578aaa54515edebb48b6fcc6495c0", "fusion_lon": 0.0, "bike_id": "cba578aaa54515edebb48b6fcc6495c0", "is_disabled": 0, "is_reserved": 0}, {"rental_uris": {"ios": "https://dc.lft.to/lastmile_qr_scan", "android": "https://dc.lft.to/lastmile_qr_scan"}, "lon": -77.02215383333333, "type": "electric_scooter", "fusion_lat": 0.0, "lat": 38.90535416666667, "name": "414d41f9b0abb47b9875d09afc385a6c", "fusion_lon": 0.0, "bike_id": "414d41f9b0abb47b9875d09afc385a6c", "is_disabled": 0, "is_reserved": 0}, {"rental_uris": {"ios": "https://dc.lft.to/lastmile_qr_scan", "android": "https://dc.lft.to/lastmile_qr_scan"},