{"data": {"bikes": [{"rental_uris": {"android": "https://dc.lft.to/lastmile_qr_scan", "ios": "https://dc.lft.to/lastmile_qr_scan"}, "is_reserved": 0, "is_disabled": 0, "name": "05a94009b5d9c53d201aa09c618db971", "bike_id": "05a94009b5d9c53d201aa09c618db971", "fusion_lat": 0.0, "lon": -77.02350016666666, "type": "electric_scooter", "fusion_lon": 0.0, "lat": 38.942061}, {"rental_uris": {"android": "https://dc.lft.to/lastmile_qr_scan", "ios": "https://dc.lft.to/lastmile_qr_scan"}, "is_reserved": 0, "is_disabled": 0, "name": "d8cdaad4db2592fecd69c46d85afb9e3", "bike_id": "d8cdaad4db2592fecd69c46d85afb9e3", "fusion_lat": 0.0, "lon": -77.04632983333333, "type": "electric_scooter", "fusion_lon": 0.0, "lat": 38.9157655}, {"rental_uris": {"android": "https://dc.lft.to/lastmile_qr_scan", "ios": "https://dc.lft.to/lastmile_qr_scan"}, "is_reserved": 0, "is_disabled": 0, "name": "293f53bc1aa115c936a2cb295dbcc68d", "bike_id": "293f53bc1aa115c936a2cb295dbcc68d", "fusion_lat": 0.0, "lon": -77.02419183333333, "type": "electric_scooter", "fusion_lon": 0.0, "lat": 38.89225483333333}, {"rental_uris": {"android": "https://dc.lft.to/lastmile_qr_scan", "ios": "https://dc.lft.to/lastmile_qr_scan"}, "is_reserved": 0, "is_disabled": 0, "name": "b3a31f45c8880ab66d8b84924d63a7db", "bike_id": "b3a31f45c8880ab66d8b84924d63a7db", "fusion_lat": 0.0, "lon": -76.99701583333334, "type": "electric_scooter", "fusion_lon": 0.0, "lat": 38.88450383333333}, {"rental_uris": {"android": "https://dc.lft.to/lastmile_qr_scan", "ios": "https://dc.lft.to/lastmile_qr_scan"}, "is_reserved": 0, "is_disabled": 0, "name": "9bbcd6128bed2e6b7e279ffe8d3085d1", "bike_id": "9bbcd6128bed2e6b7e279ffe8d3085d1", "fusion_lat": 0.0, "lon": -77.00199316666667, "type": "electric_scooter", "fusion_lon": 0.0, "lat": 38.892184666666665}, {"rental_uris": {"android": "https://dc.lft.to/lastmile_qr_scan", "ios": "https://dc.lft.to/lastmile_qr_scan"}, "is_reserved": 0, "is_disabled": 0, "name": "89769086d3e7cde66c8d63a9a660d1be", "bike_id": "89769086d3e7cde66c8d63a9a660d1be", "fusion_lat": 0.0, "lon": -77.0033555, "type": "electric_scooter", "fusion_lon": 0.0, "lat": 38.893671}, {"rental_uris": {"android": "https://dc.lft.to/lastmile_qr_scan", "ios": "https://dc.lft.to/lastmile_qr_scan"}, "is_reserved": 0, "is_disabled": 0, "name": "ca7aa154c0df325a9bedfb967747e95d", "bike_id": "ca7aa154c0df325a9bedfb967747e95d", "fusion_lat": 0.0, "lon": -77.02335766666667, "type": "electric_scooter", "fusion_lon": 0.0, "lat": 38.930562}, {"rental_uris": {"android": "https://dc.lft.to/lastmile_qr_scan", "ios": "https://dc.lft.to/lastmile_qr_scan"}, "is_reserved": 0, "is_disabled": 0, "name": "a02d25fed429e4e0d3ad0873594976bf", "bike_id": "a02d25fed429e4e0d3ad0873594976bf", "fusion_lat": 0.0, "lon": -77.042194, "type": "electric_scooter", "fusion_lon": 0.0, "lat": 38.909286}, {"rental_uris": {"android": "https://dc.lft.to/lastmile_qr_scan", "ios": "https://dc.lft.to/lastmile_qr_scan"}, "is_reserved": 0, "is_disabled": 0, "name": "5be673c897253938d9647fcf6b4423d0", "bike_id": "5be673c897253938d9647fcf6b4423d0", "fusion_lat": 0.0, "lon": -77.0237285, "type": "electric_scooter", "fusion_lon": 0.0, "lat": 38.90226066666666}, {"rental_uris": {"android": "https://dc.lft.to/lastmile_qr_scan", "ios": "https://dc.lft.to/lastmile_qr_scan"}, "is_reserved": 0, "is_disabled": 0, "name": "ddf50daa1f859bed947187dadb0aeff9", "bike_id": "ddf50daa1f859bed947187dadb0aeff9", "fusion_lat": 0.0, "lon": -77.06364633333334, "type": "electric_scooter", "fusion_lon": 0.0, "lat": 38.920234666666666}, {"rental_uris": {"android": "https://dc.lft.to/lastmile_qr_scan", "ios": "https://dc.lft.to/lastmile_qr_scan"}, "is_reserved": 0, "is_disabled": 0, "name": "f62480f2deebfcb0d939806279f532c5", "bike_id": "f62480f2deebfcb0d939806279f532c5", "fusion_lat": 0.0, "lon": -76.96265666666666, "type": "electric_bike", "fusion_lon": 0.0, "lat": 38.967835666666666}, {"rental_uris": {"android": "https://dc.lft.to/lastmile_qr_scan", "ios": "https://dc.lft.to/lastmile_qr_scan"}, "is_reserved": 0, "is_disabled": 0, "name": "d049ce121a5a565d26304a8cc5cbb3a3", "bike_id": "d049ce121a5a565d26304a8cc5cbb3a3", "fusion_lat": 0.0, "lon": -76.96092633333333, "type": "electric_bike", "fusion_lon": 0.0, "lat": 38.9185845}, {"rental_uris": {"android": "https://dc.lft.to/lastmile_qr_scan", "ios": "https://dc.lft.to/lastmile_qr_scan"}, "is_reserved": 0, "is_disabled": 0, "name": "9fa7de035b89fb516496d4d042e6d592", "bike_id": "9fa7de035b89fb516496d4d042e6d592", "fusion_lat": 0.0, "lon": -76.988211, "type": "electric_bike", "fusion_lon": 0.0, "lat": 38.842730333333336}, {"rental_uris": {"android": "https://dc.lft.to/lastmile_qr_scan", "ios": "https://dc.lft.to/lastmile_qr_scan"}, "is_reserved": 0, "is_disabled": 0, "name": "228d4d4cacb39121932ebde2df8e7272", "bike_id": "228d4d4cacb39121932ebde2df8e7272", "fusion_lat": 0.0, "lon": -77.0373135, "type": "electric_scooter", "fusion_lon": 0.0, "lat": 38.90250433333333}, {"rental_uris": {"android": "https://dc.lft.to/lastmile_qr_scan", "ios": "https://dc.lft.to/lastmile_qr_scan"}, "is_reserved": 0, "is_disabled": 0, "name": "1b3380a0858400ecc030111e8ab59f35", "bike_id": "1b3380a0858400ecc030111e8ab59f35", "fusion_lat": 0.0, "lon": -77.026412, "type": "electric_scooter", "fusion_lon": 0.0, "lat": 38.95188383333333}, {"rental_uris": {"android": "https://dc.lft.to/lastmile_qr_scan", "ios": "https://dc.lft.to/lastmile_qr_scan"}, "is_reserved": 0, "is_disabled": 0, "name": "ded63f24cb7c5ebd871334393396339a", "bike_id": "ded63f24cb7c5ebd871334393396339a", "fusion_lat": 0.0, "lon": -77.1021495, "type": "electric_bike", "fusion_lon": 0.0, "lat": 38.919979}, {"rental_uris": {"android": "https://dc.lft.to/lastmile_qr_scan", "ios": "https://dc.lft.to/lastmile_qr_scan"}, "is_reserved": 0, "is_disabled": 0, "name": "c564db350f352e03748818e7b1fe0a5d", "bike_id": "c564db350f352e03748818e7b1fe0a5d", "fusion_lat": 0.0, "lon": -77.08622383333334, "type": "electric_bike", "fusion_lon": 0.0, "lat": 38.931336333333334}, {"rental_uris": {"android": "https://dc.lft.to/lastmile_qr_scan", "ios": "https://dc.lft.to/lastmile_qr_scan"}, "is_reserved": 0, "is_disabled": 0, "name": "1b868cc7a1830c3da9a759a6757b63f0", "bike_id": "1b868cc7a1830c3da9a759a6757b63f0", "fusion_lat": 0.0, "lon": -77.03090933333333, "type": "electric_scooter", "fusion_lon": 0.0, "lat": 38.916259333333336}, {"rental_uris": {"android": "https://dc.lft.to/lastmile_qr_scan", "ios": "https://dc.lft.to/lastmile_qr_scan"}, "is_reserved": 0, "is_disabled": 0, "name": "076afeb6c9b045eac3d7b8aec64630bb", "bike_id": "076afeb6c9b045eac3d7b8aec64630bb", "fusion_lat": 0.0, "lon": -77.03067416666667, "type": "electric_scooter", "fusion_lon": 0.0, "lat": 38.92250816666667}, {"rental_uris": {"android": "https://dc.lft.to/lastmile_qr_scan", "ios": "https://dc.lft.to/lastmile_qr_scan"}, "is_reserved": 0, "is_disabled": 0, "name": "28bb3b653b3b20ea7def3398832a7252", "bike_id": "28bb3b653b3b20ea7def3398832a7252", "fusion_lat": 0.0, "lon": -77.00676666666666, "type": "electric_scooter", "fusion_lon": 0.0, "lat": 38.90031533333333}, {"rental_uris": {"android": "https://dc.lft.to/lastmile_qr_scan", "ios": "https://dc.lft.to/lastmile_qr_scan"}, "is_reserved": 0, "is_disabled": 0, "name": "006fbf6ab8746007eec5a3830af639fb", "bike_id": "006fbf6ab8746007eec5a3830af639fb", "fusion_lat": 0.0, "lon": -77.046867, "type": "electric_scooter", "fusion_lon": 0.0, "lat": 38.8960775}, {"rental_uris": {"android": "https://dc.lft.to/lastmile_qr_scan", "ios": "https://dc.lft.to/lastmile_qr_scan"}, "is_reserved": 0, "is_disabled": 0, "name": "9368b5f0cf3fbccb8c7e8ce64da9a054", "bike_id": "9368b5f0cf3fbccb8c7e8ce64da9a054", "fusion_lat": 0.0, "lon": -77.022611, "type": "electric_bike", "fusion_lon": 0.0, "lat": 38.966894333333336}, {"rental_uris": {"android": "https://dc.lft.to/lastmile_qr_scan", "ios": "https://dc.lft.to/lastmile_qr_scan"}, "is_reserved": 0, "is_disabled": 0, "name": "dd51022d1dfe913d7956b92a30ac0ef8", "bike_id": "dd51022d1dfe913d7956b92a30ac0ef8", "fusion_lat": 0.0, "lon": -77.005794, "type": "electric_scooter", "fusion_lon": 0.0, "lat": 38.8767635}, {"rental_uris": {"android": "https://dc.lft.to/lastmile_qr_scan", "ios": "https://dc.lft.to/lastmile_qr_scan"}, "is_reserved": 0, "is_disabled": 0, "name": "7624b57f2b800671f53e285c99419ff0", "bike_id": "7624b57f2b800671f53e285c99419ff0", "fusion_lat": 0.0, "lon": -76.986917, "type": "electric_bike", "fusion_lon": 0.0, "lat": 38.9447745}, {"rental_uris": {"android": "https://dc.lft.to/lastmile_qr_scan", "ios": "https://dc.lft.to/lastmile_qr_scan"}, "is_reserved": 0, "is_disabled": 0, "name": "0a29d30f83b915c7252b6287a4f52e9e", "bike_id": "0a29d30f83b915c7252b6287a4f52e9e", "fusion_lat": 0.0, "lon": -77.04301583333333, "type": "electric_bike", "fusion_lon": 0.0, "lat": 38.900172833333336}, {"rental_uris": {"android": "https://dc.lft.to/lastmile_qr_scan", "ios": "https://dc.lft.to/lastmile_qr_scan"}, "is_reserved": 0, "is_disabled": 0, "name": "873f72b57f716a9e7b8aff1bdf2ea032", "bike_id": "873f72b57f716a9e7b8aff1bdf2ea032", "fusion_lat": 0.0, "lon": -77.04113483333333, "type": "electric_bike", "fusion_lon": 0.0, "lat": 38.89921566666666}, {"rental_uris": {"android": "https://dc.lft.to/lastmile_qr_scan", "ios": "https://dc.lft.to/lastmile_qr_scan"}, "is_reserved": 0, "is_disabled": 0, "name": "c834a8e0688c5f83921cedf0e6662ee4", "bike_id": "c834a8e0688c5f83921cedf0e6662ee4", "fusion_lat": 0.0, "lon": -77.038755, "type": "electric_scooter", "fusion_lon": 0.0, "lat": 38.90336516666667}, {"rental_uris": {"android": "https://dc.lft.to/lastmile_qr_scan", "ios": "https://dc.lft.to/lastmile_qr_scan"}, "is_reserved": 0, "is_disabled": 0, "name": "cac930ad654e5bc97b98b7e560dae993", "bike_id": "cac930ad654e5bc97b98b7e560dae993", "fusion_lat": 0.0, "lon": -76.92369116666667, "type": "electric_scooter", "fusion_lon": 0.0, "lat": 38.892488}, {"rental_uris": {"android": "https://dc.lft.to/lastmile_qr_scan", "ios": "https://dc.lft.to/lastmile_qr_scan"}, "is_reserved": 0, "is_disabled": 0, "name": "234bd9f16551feeee64debe210ddad21", "bike_id": "234bd9f16551feeee64debe210ddad21", "fusion_lat": 0.0, "lon": -77.05118216666666, "type": "electric_scooter", "fusion_lon": 0.0, "lat": 38.923421}, {"rental_uris": {"android": "https://dc.lft.to/lastmile_qr_scan", "ios": "https://dc.lft.to/lastmile_qr_scan"}, "is_reserved": 0, "is_disabled": 0, "name": "33bdb0c24047890d372178af5e01b4aa", "bike_id": "33bdb0c24047890d372178af5e01b4aa", "fusion_lat": 0.0, "lon": -77.02475133333333, "type": "electric_scooter", "fusion_lon": 0.0, "lat": 38.918162}, {"rental_uris": {"android": "https://dc.lft.to/lastmile_qr_scan", "ios": "https://dc.lft.to/lastmile_qr_scan"}, "is_reserved": 0, "is_disabled": 0, "name": "59cce22b478d8a3e3534fa05e6257e6e", "bike_id": "59cce22b478d8a3e3534fa05e6257e6e", "fusion_lat": 0.0, "lon": -77.04595033333334, "type": "electric_scooter", "fusion_lon": 0.0, "lat": 38.91431516666667}, {"rental_uris": {"android": "https://dc.lft.to/lastmile_qr_scan", "ios": "https://dc.lft.to/lastmile_qr_scan"}, "is_reserved": 0, "is_disabled": 0, "name": "0e071d7efbf906c726cf3f7e188259cc", "bike_id": "0e071d7efbf906c726cf3f7e188259cc", "fusion_lat": 0.0, "lon": -76.95827583333333, "type": "electric_bike", "fusion_lon": 0.0, "lat": 38.8506745}, {"rental_uris": {"android": "https://dc.lft.to/lastmile_qr_scan", "ios": "https://dc.lft.to/lastmile_qr_scan"}, "is_reserved": 0, "is_disabled": 0, "name": "901dcf21e9ce4691ae0dc5fe6b7f592f", "bike_id": "901dcf21e9ce4691ae0dc5fe6b7f592f", "fusion_lat": 0.0, "lon": -76.98798016666667, "type": "electric_scooter", "fusion_lon": 0.0, "lat": 38.90031716666667}, {"rental_uris": {"android": "https://dc.lft.to/lastmile_qr_scan", "ios": "https://dc.lft.to/lastmile_qr_scan"}, "is_reserved": 0, "is_disabled": 0, "name": "eb8ce95b046324096418e6e67051f47f", "bike_id": "eb8ce95b046324096418e6e67051f47f", "fusion_lat": 0.0, "lon": -77.021616, "type": "electric_scooter", "fusion_lon": 0.0, "lat": 38.92615633333333}, {"rental_uris": {"android": "https://dc.lft.to/lastmile_qr_scan", "ios": "https://dc.lft.to/lastmile_qr_scan"}, "is_reserved": 0, "is_disabled": 0, "name": "7eb2b5511fa2a3523f17bc46b14bdc63", "bike_id": "7eb2b5511fa2a3523f17bc46b14bdc63", "fusion_lat": 0.0, "lon": -77.0258175, "type": "electric_scooter", "fusion_lon": 0.0, "lat": 38.9171305}, {"rental_uris": {"android": "https://dc.lft.to/lastmile_qr_scan", "ios": "https://dc.lft.to/lastmile_qr_scan"}, "is_reserved": 0, "is_disabled": 0, "name": "0f1ed02d40a657e1623d0e9a078c5e04", "bike_id": "0f1ed02d40a657e1623d0e9a078c5e04", "fusion_lat": 0.0, "lon": -77.03180166666667, "type": "electric_scooter", "fusion_lon": 0.0, "lat": 38.9192135}, {"rental_uris": {"android": "https://dc.lft.to/lastmile_qr_scan", "ios": "https://dc.lft.to/lastmile_qr_scan"}, "is_reserved": 0, "is_disabled": 0, "name": "63a8bb08f1d830075e63e88592619338", "bike_id": "63a8bb08f1d830075e63e88592619338", "fusion_lat": 0.0, "lon": -77.0297865, "type": "electric_scooter", "fusion_lon": 0.0, "lat": 38.896145833333335}, {"rental_uris": {"android": "https://dc.lft.to/lastmile_qr_scan", "ios": "https://dc.lft.to/lastmile_qr_scan"}, "is_reserved": 0, "is_disabled": 0, "name": "f9a05f0a7b7b6c63f83c97aef7e2f3f3", "bike_id": "f9a05f0a7b7b6c63f83c97aef7e2f3f3", "fusion_lat": 0.0, "lon": -77.03379883333334, "type": "electric_scooter", "fusion_lon": 0.0, "lat": 38.92471833333333}, {"rental_uris": {"android": "https://dc.lft.to/lastmile_qr_scan", "ios": "https://dc.lft.to/lastmile_qr_scan"}, "is_reserved": 0, "is_disabled": 0, "name": "c67b6c0a9aac772715cc6b7cc8633295", "bike_id": "c67b6c0a9aac772715cc6b7cc8633295", "fusion_lat": 0.0, "lon": -77.00141233333333, "type": "electric_scooter", "fusion_lon": 0.0, "lat": 38.894706166666666}, {"rental_uris": {"android": "https://dc.lft.to/lastmile_qr_scan", "ios": "https://dc.lft.to/lastmile_qr_scan"}, "is_reserved": 0, "is_disabled": 0, "name": "2f253e4fd76214e86e41f695b38067fd", "bike_id": "2f253e4fd76214e86e41f695b38067fd", "fusion_lat": 0.0, "lon": -76.98372283333333, "type": "electric_scooter", "fusion_lon": 0.0, "lat": 38.892677666666664}, {"rental_uris": {"android": "https://dc.lft.to/lastmile_qr_scan", "ios": "https://dc.lft.to/lastmile_qr_scan"}, "is_reserved": 0, "is_disabled": 0, "name": "af984fdb3c1302a95c559d213843fa2a", "bike_id": "af984fdb3c1302a95c559d213843fa2a", "fusion_lat": 0.0, "lon": -77.07753433333333, "type": "electric_bike", "fusion_lon": 0.0, "lat": 38.841945833333334}, {"rental_uris": {"android": "https://dc.lft.to/lastmile_qr_scan", "ios": "https://dc.lft.to/lastmile_qr_scan"}, "is_reserved": 0, "is_disabled": 0, "name": "93aab98695cebb6f09edd4a0458de915", "bike_id": "93aab98695cebb6f09edd4a0458de915", "fusion_lat": 0.0, "lon": -77.07168216666666, "type": "electric_scooter", "fusion_lon": 0.0, "lat": 38.90870266666667}, {"rental_uris": {"android": "https://dc.lft.to/lastmile_qr_scan", "ios": "https://dc.lft.to/lastmile_qr_scan"}, "is_reserved": 0, "is_disabled": 0, "name": "efa4b7f1733efb73980403ea43bf64ea", "bike_id": "efa4b7f1733efb73980403ea43bf64ea", "fusion_lat": 0.0, "lon": -76.95740783333333, "type": "electric_scooter", "fusion_lon": 0.0, "lat": 38.883919}, {"rental_uris": {"android": "https://dc.lft.to/lastmile_qr_scan", "ios": "https://dc.lft.to/lastmile_qr_scan"}, "is_reserved": 0, "is_disabled": 0, "name": "7a8e0252def516c505d7d8e823d44abf", "bike_id": "7a8e0252def516c505d7d8e823d44abf", "fusion_lat": 0.0, "lon": -77.04330483333334, "type": "electric_scooter", "fusion_lon": 0.0, "lat": 38.892246}, {"rental_uris": {"android": "https://dc.lft.to/lastmile_qr_scan", "ios": "https://dc.lft.to/lastmile_qr_scan"}, "is_reserved": 0, "is_disabled": 0, "name": "ebbbff3e91944d66e84d038d8023ac55", "bike_id": "ebbbff3e91944d66e84d038d8023ac55", "fusion_lat": 0.0, "lon": -77.044994, "type": "electric_scooter", "fusion_lon": 0.0, "lat": 38.899496666666664}, {"rental_uris": {"android": "https://dc.lft.to/lastmile_qr_scan", "ios": "https://dc.lft.to/lastmile_qr_scan"}, "is_reserved": 0, "is_disabled": 0, "name": "71d2ac81e5beb127318b13fbc7eebdae", "bike_id": "71d2ac81e5beb127318b13fbc7eebdae", "fusion_lat": 0.0, "lon": -77.04137466666667, "type": "electric_scooter", "fusion_lon": 0.0, "lat": 38.9090715}, {"rental_uris": {"android": "https://dc.lft.to/lastmile_qr_scan", "ios": "https://dc.lft.to/lastmile_qr_scan"}, "is_reserved": 0, "is_disabled": 0, "name": "88cc087c2b5a4b302f3737fd0a1bd13e", "bike_id": "88cc087c2b5a4b302f3737fd0a1bd13e", "fusion_lat": 0.0, "lon": -77.050072, "type": "electric_scooter", "fusion_lon": 0.0, "lat": 38.899173833333336}, {"rental_uris": {"android": "https://dc.lft.to/lastmile_qr_scan", "ios": "https://dc.lft.to/lastmile_qr_scan"}, "is_reserved": 0, "is_disabled": 0, "name": "37c00c39eabb0ac6f64997cd92ed2653", "bike_id": "37c00c39eabb0ac6f64997cd92ed2653", "fusion_lat": 0.0, "lon": -77.04069766666667, "type": "electric_scooter", "fusion_lon": 0.0, "lat": 38.92669316666667}, {"rental_uris": {"android": "https://dc.lft.to/lastmile_qr_scan", "ios": "https://dc.lft.to/lastmile_qr_scan"}, "is_reserved": 0, "is_disabled": 0, "name": "95007232c360db5d70b4eeb66f5458d9", "bike_id": "95007232c360db5d70b4eeb66f5458d9", "fusion_lat": 0.0, "lon": -77.022088, "type": "electric_scooter", "fusion_lon": 0.0, "lat": 38.893894833333334}, {"rental_uris": {"android": "https://dc.lft.to/lastmile_qr_scan", "ios": "https://dc.lft.to/lastmile_qr_scan"}, "is_reserved": 0, "is_disabled": 0, "name": "9a5531b3b8a15c5ab97c9a53f3c4077d", "bike_id": "9a5531b3b8a15c5ab97c9a53f3c4077d", "fusion_lat": 0.0, "lon": -77.02829733333333, "type": "electric_scooter", "fusion_lon": 0.0, "lat": 38.90274383333333}, {"rental_uris": {"android": "https://dc.lft.to/lastmile_qr_scan", "ios": "https://dc.lft.to/lastmile_qr_scan"}, "is_reserved": 0, "is_disabled": 0, "name": "83925525e3a60e67a0a333718b925b66", "bike_id": "83925525e3a60e67a0a333718b925b66", "fusion_lat": 0.0, "lon": -77.016911, "type": "electric_scooter", "fusion_lon": 0.0, "lat": 38.90644233333333}, {"rental_uris": {"android": "https://dc.lft.to/lastmile_qr_scan", "ios": "https://dc.lft.to/lastmile_qr_scan"}, "is_reserved": 0, "is_disabled": 0, "name": "256585bb2d948c668d13276a1df0da3a", "bike_id": "256585bb2d948c668d13276a1df0da3a", "fusion_lat": 0.0, "lon": -77.06523983333334, "type": "electric_scooter", "fusion_lon": 0.0, "lat": 38.905966666666664}, {"rental_uris": {"android": "https://dc.lft.to/lastmile_qr_scan", "ios": "https://dc.lft.to/lastmile_qr_scan"}, "is_reserved": 0, "is_disabled": 0, "name": "54862c1389165998913883769cd44975", "bike_id": "54862c1389165998913883769cd44975", "fusion_lat": 0.0, "lon": -77.0308515, "type": "electric_scooter", "fusion_lon": 0.0, "lat": 38.8982815}, {"rental_uris": {"android": "https://dc.lft.to/lastmile_qr_scan", "ios": "https://dc.lft.to/lastmile_qr_scan"}, "is_reserved": 0, "is_disabled": 0, "name": "71879ddad6c7d4ede0a6e2165f7f18ca", "bike_id": "71879ddad6c7d4ede0a6e2165f7f18ca", "fusion_lat": 0.0, "lon": -77.03169483333333, "type": "electric_scooter", "fusion_lon": 0.0, "lat": 38.892207166666665}, {"rental_uris": {"android": "https://dc.lft.to/lastmile_qr_scan", "ios": "https://dc.lft.to/lastmile_qr_scan"}, "is_reserved": 0, "is_disabled": 0, "name": "f15d218fc12c58cd8dfe15bdfe6ba984", "bike_id": "f15d218fc12c58cd8dfe15bdfe6ba984", "fusion_lat": 0.0, "lon": -77.02825066666666, "type": "electric_scooter", "fusion_lon": 0.0, "lat": 38.8873665}, {"rental_uris": {"android": "https://dc.lft.to/lastmile_qr_scan", "ios": "https://dc.lft.to/lastmile_qr_scan"}, "is_reserved": 0, "is_disabled": 0, "name": "774b9f57aae61bdf003b8a7f79c9d73f", "bike_id": "774b9f57aae61bdf003b8a7f79c9d73f", "fusion_lat": 0.0, "lon": -76.92504933333333, "type": "electric_scooter", "fusion_lon": 0.0, "lat": 38.88604483333334}, {"rental_uris": {"android": "https://dc.lft.to/lastmile_qr_scan", "ios": "https://dc.lft.to/lastmile_qr_scan"}, "is_reserved": 0, "is_disabled": 0, "name": "dc4945636c6dc778dbdb44953d1d5476", "bike_id": "dc4945636c6dc778dbdb44953d1d5476", "fusion_lat": 0.0, "lon": -76.98357583333333, "type": "electric_scooter", "fusion_lon": 0.0, "lat": 38.88734933333333}, {"rental_uris": {"android": "https://dc.lft.to/lastmile_qr_scan", "ios": "https://dc.lft.to/lastmile_qr_scan"}, "is_reserved": 0, "is_disabled": 0, "name": "aa33ebf213c7010ad493ffe5e3aae248", "bike_id": "aa33ebf213c7010ad493ffe5e3aae248", "fusion_lat": 0.0, "lon": -77.06454783333334, "type": "electric_scooter", "fusion_lon": 0.0, "lat": 38.948845}, {"rental_uris": {"android": "https://dc.lft.to/lastmile_qr_scan", "ios": "https://dc.lft.to/lastmile_qr_scan"}, "is_reserved": 0, "is_disabled": 0, "name": "0275c79643706fd17ceb4de85744e5fd", "bike_id": "0275c79643706fd17ceb4de85744e5fd", "fusion_lat": 0.0, "lon": -77.05071716666667, "type": "electric_scooter", "fusion_lon": 0.0, "lat": 38.911323}, {"rental_uris": {"android": "https://dc.lft.to/lastmile_qr_scan", "ios": "https://dc.lft.to/lastmile_qr_scan"}, "is_reserved": 0, "is_disabled": 0, "name": "33004f1cfda280b4e3c39e1045ba66f5", "bike_id": "33004f1cfda280b4e3c39e1045ba66f5", "fusion_lat": 0.0, "lon": -77.04500116666667, "type": "electric_scooter", "fusion_lon": 0.0, "lat": 38.8923005}, {"rental_uris": {"android": "https://dc.lft.to/lastmile_qr_scan", "ios": "https://dc.lft.to/lastmile_qr_scan"}, "is_reserved": 0, "is_disabled": 0, "name": "3dcc9a249817889f8ed797680bd92271", "bike_id": "3dcc9a249817889f8ed797680bd92271", "fusion_lat": 0.0, "lon": -77.01268616666667, "type": "electric_scooter", "fusion_lon": 0.0, "lat": 38.90048266666667}, {"rental_uris": {"android": "https://dc.lft.to/lastmile_qr_scan", "ios": "https://dc.lft.to/lastmile_qr_scan"}, "is_reserved": 0, "is_disabled": 0, "name": "db52a0901b94b4412aab3ea83f2432a2", "bike_id": "db52a0901b94b4412aab3ea83f2432a2", "fusion_lat": 0.0, "lon": -77.03383616666666, "type": "electric_scooter", "fusion_lon": 0.0, "lat": 38.901334}, {"rental_uris": {"android": "https://dc.lft.to/lastmile_qr_scan", "ios": "https://dc.lft.to/lastmile_qr_scan"}, "is_reserved": 0, "is_disabled": 0, "name": "b075f8fca2cff3ef819cb8a7cb8c40b3", "bike_id": "b075f8fca2cff3ef819cb8a7cb8c40b3", "fusion_lat": 0.0, "lon": -77.02866566666667, "type": "electric_scooter", "fusion_lon": 0.0, "lat": 38.91712733333333}, {"rental_uris": {"android": "https://dc.lft.to/lastmile_qr_scan", "ios": "https://dc.lft.to/lastmile_qr_scan"}, "is_reserved": 0, "is_disabled": 0, "name": "8636de196f5f50b1149e3c3c70cdc22c", "bike_id": "8636de196f5f50b1149e3c3c70cdc22c", "fusion_lat": 0.0, "lon": -77.02829283333334, "type": "electric_scooter", "fusion_lon": 0.0, "lat": 38.93884766666667}, {"rental_uris": {"android": "https://dc.lft.to/lastmile_qr_scan", "ios": "https://dc.lft.to/lastmile_qr_scan"}, "is_reserved": 0, "is_disabled": 0, "name": "a953b961ef08271c7165d2c13697dcaa", "bike_id": "a953b961ef08271c7165d2c13697dcaa", "fusion_lat": 0.0, "lon": -76.98690533333334, "type": "electric_bike", "fusion_lon": 0.0, "lat": 38.944768833333335}, {"rental_uris": {"android": "https://dc.lft.to/lastmile_qr_scan", "ios": "https://dc.lft.to/lastmile_qr_scan"}, "is_reserved": 0, "is_disabled": 0, "name": "cecff118c43fd3a21f0db734ce666503", "bike_id": "cecff118c43fd3a21f0db734ce666503", "fusion_lat": 0.0, "lon": -77.027918, "type": "electric_scooter", "fusion_lon": 0.0, "lat": 38.898332333333336}, {"rental_uris": {"android": "https://dc.lft.to/lastmile_qr_scan", "ios": "https://dc.lft.to/lastmile_qr_scan"}, "is_reserved": 0, "is_disabled": 0, "name": "881c339a586046e1c2575d8030a06b26", "bike_id": "881c339a586046e1c2575d8030a06b26", "fusion_lat": 0.0, "lon": -77.0385845, "type": "electric_scooter", "fusion_lon": 0.0, "lat": 38.9171355}, {"rental_uris": {"android": "https://dc.lft.to/lastmile_qr_scan", "ios": "https://dc.lft.to/lastmile_qr_scan"}, "is_reserved": 0, "is_disabled": 0, "name": "11a6210ebb41517dc5921f0c93d51c4e", "bike_id": "11a6210ebb41517dc5921f0c93d51c4e", "fusion_lat": 0.0, "lon": -77.03845516666667, "type": "electric_scooter", "fusion_lon": 0.0, "lat": 38.9069455}, {"rental_uris": {"android": "https://dc.lft.to/lastmile_qr_scan", "ios": "https://dc.lft.to/lastmile_qr_scan"}, "is_reserved": 0, "is_disabled": 0, "name": "3293a134948e968497ff0c70d7e5fd5c", "bike_id": "3293a134948e968497ff0c70d7e5fd5c", "fusion_lat": 0.0, "lon": -77.024064, "type": "electric_scooter", "fusion_lon": 0.0, "lat": 38.900528}, {"rental_uris": {"android": "https://dc.lft.to/lastmile_qr_scan", "ios": "https://dc.lft.to/lastmile_qr_scan"}, "is_reserved": 0, "is_disabled": 0, "name": "30c2d397787e459f062f06275f541260", "bike_id": "30c2d397787e459f062f06275f541260", "fusion_lat": 0.0, "lon": -77.01622016666667, "type": "electric_scooter", "fusion_lon": 0.0, "lat": 38.89972066666667}, {"rental_uris": {"android": "https://dc.lft.to/lastmile_qr_scan", "ios": "https://dc.lft.to/lastmile_qr_scan"}, "is_reserved": 0, "is_disabled": 0, "name": "468d8c2231607af291caa7593a642677", "bike_id": "468d8c2231607af291caa7593a642677", "fusion_lat": 0.0, "lon": -77.04688433333334, "type": "electric_scooter", "fusion_lon": 0.0, "lat": 38.896072}, {"rental_uris": {"android": "https://dc.lft.to/lastmile_qr_scan", "ios": "https://dc.lft.to/lastmile_qr_scan"}, "is_reserved": 0, "is_disabled": 0, "name": "291b84a9ccaa14ab525e50ffe9b1d513", "bike_id": "291b84a9ccaa14ab525e50ffe9b1d513", "fusion_lat": 0.0, "lon": -77.05123033333334, "type": "electric_scooter", "fusion_lon": 0.0, "lat": 38.92347916666667}, {"rental_uris": {"android": "https://dc.lft.to/lastmile_qr_scan", "ios": "https://dc.lft.to/lastmile_qr_scan"}, "is_reserved": 0, "is_disabled": 0, "name": "8c1b1829a219c0d9f58dbaedc1c3c3af", "bike_id": "8c1b1829a219c0d9f58dbaedc1c3c3af", "fusion_lat": 0.0, "lon": -77.033217, "type": "electric_scooter", "fusion_lon": 0.0, "lat": 38.92157916666667}, {"rental_uris": {"android": "https://dc.lft.to/lastmile_qr_scan", "ios": "https://dc.lft.to/lastmile_qr_scan"}, "is_reserved": 0, "is_disabled": 0, "name": "06c5d7d5b1911a2e60862622dc7b7034", "bike_id": "06c5d7d5b1911a2e60862622dc7b7034", "fusion_lat": 0.0, "lon": -77.02256583333333, "type": "electric_scooter", "fusion_lon": 0.0, "lat": 38.896165333333336}, {"rental_uris": {"android": "https://dc.lft.to/lastmile_qr_scan", "ios": "https://dc.lft.to/lastmile_qr_scan"}, "is_reserved": 0, "is_disabled": 0, "name": "b5a5c3e2980dfb03f7d961a549a3c696", "bike_id": "b5a5c3e2980dfb03f7d961a549a3c696", "fusion_lat": 0.0, "lon": -77.033805, "type": "electric_scooter", "fusion_lon": 0.0, "lat": 38.921505333333336}, {"rental_uris": {"android": "https://dc.lft.to/lastmile_qr_scan", "ios": "https://dc.lft.to/lastmile_qr_scan"}, "is_reserved": 0, "is_disabled": 0, "name": "083d1311d1aecb6aa97723bbe055d4c3", "bike_id": "083d1311d1aecb6aa97723bbe055d4c3", "fusion_lat": 0.0, "lon": -77.0802565, "type": "electric_bike", "fusion_lon": 0.0, "lat": 38.957784333333336}, {"rental_uris": {"android": "https://dc.lft.to/lastmile_qr_scan", "ios": "https://dc.lft.to/lastmile_qr_scan"}, "is_reserved": 0, "is_disabled": 0, "name": "4f6da7aaf229be3b210991b82b05c4c2", "bike_id": "4f6da7aaf229be3b210991b82b05c4c2", "fusion_lat": 0.0, "lon": -77.04276366666667, "type": "electric_scooter", "fusion_lon": 0.0, "lat": 38.9178445}, {"rental_uris": {"android": "https://dc.lft.to/lastmile_qr_scan", "ios": "https://dc.lft.to/lastmile_qr_scan"}, "is_reserved": 0, "is_disabled": 0, "name": "4836456407a6573da676cbc7f2311477", "bike_id": "4836456407a6573da676cbc7f2311477", "fusion_lat": 0.0, "lon": -77.0982735, "type": "electric_bike", "fusion_lon": 0.0, "lat": 38.850230833333335}, {"rental_uris": {"android": "https://dc.lft.to/lastmile_qr_scan", "ios": "https://dc.lft.to/lastmile_qr_scan"}, "is_reserved": 0, "is_disabled": 0, "name": "b382f59a6dcf62430522e1cccd2a9581", "bike_id": "b382f59a6dcf62430522e1cccd2a9581", "fusion_lat": 0.0, "lon": -76.932154, "type": "electric_scooter", "fusion_lon": 0.0, "lat": 38.896669833333334}, {"rental_uris": {"android": "https://dc.lft.to/lastmile_qr_scan", "ios": "https://dc.lft.to/lastmile_qr_scan"}, "is_reserved": 0, "is_disabled": 0, "name": "15a105827f56e4446a175cebef726682", "bike_id": "15a105827f56e4446a175cebef726682", "fusion_lat": 0.0, "lon": -76.98633383333333, "type": "electric_scooter", "fusion_lon": 0.0, "lat": 38.880438833333336}, {"rental_uris": {"android": "https://dc.lft.to/lastmile_qr_scan", "ios": "https://dc.lft.to/lastmile_qr_scan"}, "is_reserved": 0, "is_disabled": 0, "name": "d9c85ce9d759960b8323c22711bf641f", "bike_id": "d9c85ce9d759960b8323c22711bf641f", "fusion_lat": 0.0, "lon": -77.0278555, "type": "electric_scooter", "fusion_lon": 0.0, "lat": 38.9622315}, {"rental_uris": {"android": "https://dc.lft.to/lastmile_qr_scan", "ios": "https://dc.lft.to/lastmile_qr_scan"}, "is_reserved": 0, "is_disabled": 0, "name": "fdb9668c6c628809a8d72bfb84c3286a", "bike_id": "fdb9668c6c628809a8d72bfb84c3286a", "fusion_lat": 0.0, "lon": -76.99093616666667, "type": "electric_bike", "fusion_lon": 0.0, "lat": 38.80485483333333}, {"rental_uris": {"android": "https://dc.lft.to/lastmile_qr_scan", "ios": "https://dc.lft.to/lastmile_qr_scan"}, "is_reserved": 0, "is_disabled": 0, "name": "bac990f032598f603f3d0723995c4f5f", "bike_id": "bac990f032598f603f3d0723995c4f5f", "fusion_lat": 0.0, "lon": -76.98689783333333, "type": "electric_bike", "fusion_lon": 0.0, "lat": 38.9447275}, {"rental_uris": {"android": "https://dc.lft.to/lastmile_qr_scan", "ios": "https://dc.lft.to/lastmile_qr_scan"}, "is_reserved": 0, "is_disabled": 0, "name": "a10e9db088c9ec22bf9013b22d776665", "bike_id": "a10e9db088c9ec22bf9013b22d776665", "fusion_lat": 0.0, "lon": -77.0071355, "type": "electric_bike", "fusion_lon": 0.0, "lat": 38.945985666666665}, {"rental_uris": {"android": "https://dc.lft.to/lastmile_qr_scan", "ios": "https://dc.lft.to/lastmile_qr_scan"}, "is_reserved": 0, "is_disabled": 0, "name": "b0227e91fca3ebbc2f77e0f80f86002e", "bike_id": "b0227e91fca3ebbc2f77e0f80f86002e", "fusion_lat": 0.0, "lon": -77.04528233333333, "type": "electric_scooter", "fusion_lon": 0.0, "lat": 38.89965566666667}, {"rental_uris": {"android": "https://dc.lft.to/lastmile_qr_scan", "ios": "https://dc.lft.to/lastmile_qr_scan"}, "is_reserved": 0, "is_disabled": 0, "name": "88d46a8038ee6f1a6227a1fcc29020ea", "bike_id": "88d46a8038ee6f1a6227a1fcc29020ea", "fusion_lat": 0.0, "lon": -77.04671083333334, "type": "electric_bike", "fusion_lon": 0.0, "lat": 38.901296333333335}, {"rental_uris": {"android": "https://dc.lft.to/lastmile_qr_scan", "ios": "https://dc.lft.to/lastmile_qr_scan"}, "is_reserved": 0, "is_disabled": 0, "name": "5656ef31d7d82e0c7f9a25b2f14fd408", "bike_id": "5656ef31d7d82e0c7f9a25b2f14fd408", "fusion_lat": 0.0, "lon": -77.031997, "type": "electric_scooter", "fusion_lon": 0.0, "lat": 38.91790783333333}, {"rental_uris": {"android": "https://dc.lft.to/lastmile_qr_scan", "ios": "https://dc.lft.to/lastmile_qr_scan"}, "is_reserved": 0, "is_disabled": 0, "name": "e53a3ac00a0c54f1269aedd89774cbf4", "bike_id": "e53a3ac00a0c54f1269aedd89774cbf4", "fusion_lat": 0.0, "lon": -77.044961, "type": "electric_scooter", "fusion_lon": 0.0, "lat": 38.91429733333333}, {"rental_uris": {"android": "https://dc.lft.to/lastmile_qr_scan", "ios": "https://dc.lft.to/lastmile_qr_scan"}, "is_reserved": 0, "is_disabled": 0, "name": "089ac00a89d1b4efd21d7f686670e312", "bike_id": "089ac00a89d1b4efd21d7f686670e312", "fusion_lat": 0.0, "lon": -77.053344, "type": "electric_scooter", "fusion_lon": 0.0, "lat": 38.90433483333333}, {"rental_uris": {"android": "https://dc.lft.to/lastmile_qr_scan", "ios": "https://dc.lft.to/lastmile_qr_scan"}, "is_reserved": 0, "is_disabled": 0, "name": "71a93fc7f4038e7ecb3c5379791b0323", "bike_id": "71a93fc7f4038e7ecb3c5379791b0323", "fusion_lat": 0.0, "lon": -77.0060635, "type": "electric_scooter", "fusion_lon": 0.0, "lat": 38.90657866666667}, {"rental_uris": {"android": "https://dc.lft.to/lastmile_qr_scan", "ios": "https://dc.lft.to/lastmile_qr_scan"}, "is_reserved": 0, "is_disabled": 0, "name": "9e029ad8a24339941a85f1fd3f8eb52d", "bike_id": "9e029ad8a24339941a85f1fd3f8eb52d", "fusion_lat": 0.0, "lon": -77.06598133333334, "type": "electric_scooter", "fusion_lon": 0.0, "lat": 38.904094666666666}, {"rental_uris": {"android": "https://dc.lft.to/lastmile_qr_scan", "ios": "https://dc.lft.to/lastmile_qr_scan"}, "is_reserved": 0, "is_disabled": 0, "name": "efcc8ac73be07d5e3bbcc2852240e7f9", "bike_id": "efcc8ac73be07d5e3bbcc2852240e7f9", "fusion_lat": 0.0, "lon": -77.049333, "type": "electric_scooter", "fusion_lon": 0.0, "lat": 38.8955045}, {"rental_uris": {"android": "https://dc.lft.to/lastmile_qr_scan", "ios": "https://dc.lft.to/lastmile_qr_scan"}, "is_reserved": 0, "is_disabled": 0, "name": "7a9501a4b6538f9b820d5b67b936810f", "bike_id": "7a9501a4b6538f9b820d5b67b936810f", "fusion_lat": 0.0, "lon": -77.04492033333334, "type": "electric_scooter", "fusion_lon": 0.0, "lat": 38.9034375}, {"rental_uris": {"android": "https://dc.lft.to/lastmile_qr_scan", "ios": "https://dc.lft.to/lastmile_qr_scan"}, "is_reserved": 0, "is_disabled": 0, "name": "57be6d46435c9f5e03825a563c74e2b7", "bike_id": "57be6d46435c9f5e03825a563c74e2b7", "fusion_lat": 0.0, "lon": -77.05520366666667, "type": "electric_scooter", "fusion_lon": 0.0, "lat": 38.94409533333334}, {"rental_uris": {"android": "https://dc.lft.to/lastmile_qr_scan", "ios": "https://dc.lft.to/lastmile_qr_scan"}, "is_reserved": 0, "is_disabled": 0, "name": "6d3847a4dea563b4ea3bfc1484ee5147", "bike_id": "6d3847a4dea563b4ea3bfc1484ee5147", "fusion_lat": 0.0, "lon": -76.98338666666666, "type": "electric_scooter", "fusion_lon": 0.0, "lat": 38.900935}, {"rental_uris": {"android": "https://dc.lft.to/lastmile_qr_scan", "ios": "https://dc.lft.to/lastmile_qr_scan"}, "is_reserved": 0, "is_disabled": 0, "name": "c79cdb8cfa9078055d2f9ee18fc3c641", "bike_id": "c79cdb8cfa9078055d2f9ee18fc3c641", "fusion_lat": 0.0, "lon": -77.02164383333333, "type": "electric_scooter", "fusion_lon": 0.0, "lat": 38.926078333333336}, {"rental_uris": {"android": "https://dc.lft.to/lastmile_qr_scan", "ios": "https://dc.lft.to/lastmile_qr_scan"}, "is_reserved": 0, "is_disabled": 0, "name": "ae4ea20267d941ce0d1cf6659170cf11", "bike_id": "ae4ea20267d941ce0d1cf6659170cf11", "fusion_lat": 0.0, "lon": -77.00209033333333, "type": "electric_scooter", "fusion_lon": 0.0, "lat": 38.90283816666667}, {"rental_uris": {"android": "https://dc.lft.to/lastmile_qr_scan", "ios": "https://dc.lft.to/lastmile_qr_scan"}, "is_reserved": 0, "is_disabled": 0, "name": "32f5d0eebb2a05df02d0ad88c574c72c", "bike_id": "32f5d0eebb2a05df02d0ad88c574c72c", "fusion_lat": 0.0, "lon": -76.98547433333333, "type": "electric_bike", "fusion_lon": 0.0, "lat": 38.87972283333333}, {"rental_uris": {"android": "https://dc.lft.to/lastmile_qr_scan", "ios": "https://dc.lft.to/lastmile_qr_scan"}, "is_reserved": 0, "is_disabled": 0, "name": "f67d213a86159df945fd26314a53aabb", "bike_id": "f67d213a86159df945fd26314a53aabb", "fusion_lat": 0.0, "lon": -77.01759283333334, "type": "electric_scooter", "fusion_lon": 0.0, "lat": 38.87692916666666}, {"rental_uris": {"android": "https://dc.lft.to/lastmile_qr_scan", "ios": "https://dc.lft.to/lastmile_qr_scan"}, "is_reserved": 0, "is_disabled": 0, "name": "e62e5bf8191797b89e0f2e89e0853bd2", "bike_id": "e62e5bf8191797b89e0f2e89e0853bd2", "fusion_lat": 0.0, "lon": -77.07749033333333, "type": "electric_bike", "fusion_lon": 0.0, "lat": 38.943718833333335}, {"rental_uris": {"android": "https://dc.lft.to/lastmile_qr_scan", "ios": "https://dc.lft.to/lastmile_qr_scan"}, "is_reserved": 0, "is_disabled": 0, "name": "d0a4663b0f39d24ad404648d2d92130f", "bike_id": "d0a4663b0f39d24ad404648d2d92130f", "fusion_lat": 0.0, "lon": -77.01958533333334, "type": "electric_scooter", "fusion_lon": 0.0, "lat": 38.92328716666667}, {"rental_uris": {"android": "https://dc.lft.to/lastmile_qr_scan", "ios": "https://dc.lft.to/lastmile_qr_scan"}, "is_reserved": 0, "is_disabled": 0, "name": "c16cb19816c1270e8330dd334a20858a", "bike_id": "c16cb19816c1270e8330dd334a20858a", "fusion_lat": 0.0, "lon": -77.04514416666666, "type": "electric_scooter", "fusion_lon": 0.0, "lat": 38.90394216666667}, {"rental_uris": {"android": "https://dc.lft.to/lastmile_qr_scan", "ios": "https://dc.lft.to/lastmile_qr_scan"}, "is_reserved": 0, "is_disabled": 0, "name": "09428210d9642ff58f7b115addadfa50", "bike_id": "09428210d9642ff58f7b115addadfa50", "fusion_lat": 0.0, "lon": -77.00606016666667, "type": "electric_scooter", "fusion_lon": 0.0, "lat": 38.87184716666667}, {"rental_uris": {"android": "https://dc.lft.to/lastmile_qr_scan", "ios": "https://dc.lft.to/lastmile_qr_scan"}, "is_reserved": 0, "is_disabled": 0, "name": "0d59db064ce6127bc3b0ad876279a0c9", "bike_id": "0d59db064ce6127bc3b0ad876279a0c9", "fusion_lat": 0.0, "lon": -77.02032766666666, "type": "electric_scooter", "fusion_lon": 0.0, "lat": 38.924240166666664}, {"rental_uris": {"android": "https://dc.lft.to/lastmile_qr_scan", "ios": "https://dc.lft.to/lastmile_qr_scan"}, "is_reserved": 0, "is_disabled": 0, "name": "5b832c1d469b92370f2c02129ddb0e76", "bike_id": "5b832c1d469b92370f2c02129ddb0e76", "fusion_lat": 0.0, "lon": -77.04657966666667, "type": "electric_scooter", "fusion_lon": 0.0, "lat": 38.900493166666664}, {"rental_uris": {"android": "https://dc.lft.to/lastmile_qr_scan", "ios": "https://dc.lft.to/lastmile_qr_scan"}, "is_reserved": 0, "is_disabled": 0, "name": "bce3c398e3e2aff677c8ecac5925ddab", "bike_id": "bce3c398e3e2aff677c8ecac5925ddab", "fusion_lat": 0.0, "lon": -77.021949, "type": "electric_scooter", "fusion_lon": 0.0, "lat": 38.89638883333333}, {"rental_uris": {"android": "https://dc.lft.to/lastmile_qr_scan", "ios": "https://dc.lft.to/lastmile_qr_scan"}, "is_reserved": 0, "is_disabled": 0, "name": "1787f0b56b9bc17e2f1e918182e07376", "bike_id": "1787f0b56b9bc17e2f1e918182e07376", "fusion_lat": 0.0, "lon": -77.04177066666666, "type": "electric_scooter", "fusion_lon": 0.0, "lat": 38.91606383333333}, {"rental_uris": {"android": "https://dc.lft.to/lastmile_qr_scan", "ios": "https://dc.lft.to/lastmile_qr_scan"}, "is_reserved": 0, "is_disabled": 0, "name": "93f95f1b17c3313f2f4b623cfee5ab04", "bike_id": "93f95f1b17c3313f2f4b623cfee5ab04", "fusion_lat": 0.0, "lon": -76.99503933333334, "type": "electric_scooter", "fusion_lon": 0.0, "lat": 38.8625205}, {"rental_uris": {"android": "https://dc.lft.to/lastmile_qr_scan", "ios": "https://dc.lft.to/lastmile_qr_scan"}, "is_reserved": 0, "is_disabled": 0, "name": "1d8cf4fe43efb989af8eaed8d7348681", "bike_id": "1d8cf4fe43efb989af8eaed8d7348681", "fusion_lat": 0.0, "lon": -77.03211933333333, "type": "electric_scooter", "fusion_lon": 0.0, "lat": 38.91609016666666}, {"rental_uris": {"android": "https://dc.lft.to/lastmile_qr_scan", "ios": "https://dc.lft.to/lastmile_qr_scan"}, "is_reserved": 0, "is_disabled": 0, "name": "cc38477a5fbef17d0253338d5237b163", "bike_id": "cc38477a5fbef17d0253338d5237b163", "fusion_lat": 0.0, "lon": -77.05149133333333, "type": "electric_scooter", "fusion_lon": 0.0, "lat": 38.906471}, {"rental_uris": {"android": "https://dc.lft.to/lastmile_qr_scan", "ios": "https://dc.lft.to/lastmile_qr_scan"}, "is_reserved": 0, "is_disabled": 0, "name": "43b2914a29a133d1172810c67cdd8206", "bike_id": "43b2914a29a133d1172810c67cdd8206", "fusion_lat": 0.0, "lon": -77.03397033333333, "type": "electric_scooter", "fusion_lon": 0.0, "lat": 38.9418035}, {"rental_uris": {"android": "https://dc.lft.to/lastmile_qr_scan", "ios": "https://dc.lft.to/lastmile_qr_scan"}, "is_reserved": 0, "is_disabled": 0, "name": "51428d9a3cd29bc2b7cf9b098fb083af", "bike_id": "51428d9a3cd29bc2b7cf9b098fb083af", "fusion_lat": 0.0, "lon": -77.00574266666666, "type": "electric_scooter", "fusion_lon": 0.0, "lat": 38.885084666666664}, {"rental_uris": {"android": "https://dc.lft.to/lastmile_qr_scan", "ios": "https://dc.lft.to/lastmile_qr_scan"}, "is_reserved": 0, "is_disabled": 0, "name": "f11f427efca53b21c8333d164f14bb88", "bike_id": "f11f427efca53b21c8333d164f14bb88", "fusion_lat": 0.0, "lon": -77.04367766666667, "type": "electric_scooter", "fusion_lon": 0.0, "lat": 38.9001135}, {"rental_uris": {"android": "https://dc.lft.to/lastmile_qr_scan", "ios": "https://dc.lft.to/lastmile_qr_scan"}, "is_reserved": 0, "is_disabled": 0, "name": "0b790eea738edcf7a6454f31a8c569cf", "bike_id": "0b790eea738edcf7a6454f31a8c569cf", "fusion_lat": 0.0, "lon": -77.02143466666666, "type": "electric_scooter", "fusion_lon": 0.0, "lat": 38.90489016666667}, {"rental_uris": {"android": "https://dc.lft.to/lastmile_qr_scan", "ios": "https://dc.lft.to/lastmile_qr_scan"}, "is_reserved": 0, "is_disabled": 0, "name": "c024a06215ed5e4f8176b7e32c05e685", "bike_id": "c024a06215ed5e4f8176b7e32c05e685", "fusion_lat": 0.0, "lon": -77.03433266666667, "type": "electric_scooter", "fusion_lon": 0.0, "lat": 38.905596833333334}, {"rental_uris": {"android": "https://dc.lft.to/lastmile_qr_scan", "ios": "https://dc.lft.to/lastmile_qr_scan"}, "is_reserved": 0, "is_disabled": 0, "name": "774f022cae77b5e16d5bdf0a0a616166", "bike_id": "774f022cae77b5e16d5bdf0a0a616166", "fusion_lat": 0.0, "lon": -77.02120666666667, "type": "electric_scooter", "fusion_lon": 0.0, "lat": 38.92368033333333}, {"rental_uris": {"android": "https://dc.lft.to/lastmile_qr_scan", "ios": "https://dc.lft.to/lastmile_qr_scan"}, "is_reserved": 0, "is_disabled": 0, "name": "a9dd8ca214609eb18bf28f68e5b4572d", "bike_id": "a9dd8ca214609eb18bf28f68e5b4572d", "fusion_lat": 0.0, "lon": -77.033161, "type": "electric_scooter", "fusion_lon": 0.0, "lat": 38.90029466666667}, {"rental_uris": {"android": "https://dc.lft.to/lastmile_qr_scan", "ios": "https://dc.lft.to/lastmile_qr_scan"}, "is_reserved": 0, "is_disabled": 0, "name": "4c59d77a4053ade4d7540e4d7defa7f6", "bike_id": "4c59d77a4053ade4d7540e4d7defa7f6", "fusion_lat": 0.0, "lon": -77.0269785, "type": "electric_scooter", "fusion_lon": 0.0, "lat": 38.949796}, {"rental_uris": {"android": "https://dc.lft.to/lastmile_qr_scan", "ios": "https://dc.lft.to/lastmile_qr_scan"}, "is_reserved": 0, "is_disabled": 0, "name": "002229504fbf7c3a2dcef9e08c1c24be", "bike_id": "002229504fbf7c3a2dcef9e08c1c24be", "fusion_lat": 0.0, "lon": -77.03356616666666, "type": "electric_scooter", "fusion_lon": 0.0, "lat": 38.90287133333333}, {"rental_uris": {"android": "https://dc.lft.to/lastmile_qr_scan", "ios": "https://dc.lft.to/lastmile_qr_scan"}, "is_reserved": 0, "is_disabled": 0, "name": "2ec6a7208f558a7403be57a52762ab16", "bike_id": "2ec6a7208f558a7403be57a52762ab16", "fusion_lat": 0.0, "lon": -77.03857583333334, "type": "electric_scooter", "fusion_lon": 0.0, "lat": 38.903488}, {"rental_uris": {"android": "https://dc.lft.to/lastmile_qr_scan", "ios": "https://dc.lft.to/lastmile_qr_scan"}, "is_reserved": 0, "is_disabled": 0, "name": "0ea9d24ddfaf9142ceab3a220bffbe99", "bike_id": "0ea9d24ddfaf9142ceab3a220bffbe99", "fusion_lat": 0.0, "lon": -77.02094183333334, "type": "electric_scooter", "fusion_lon": 0.0, "lat": 38.927131833333334}, {"rental_uris": {"android": "https://dc.lft.to/lastmile_qr_scan", "ios": "https://dc.lft.to/lastmile_qr_scan"}, "is_reserved": 0, "is_disabled": 0, "name": "ff8f336d2d34db3771f187552bd3fa72", "bike_id": "ff8f336d2d34db3771f187552bd3fa72", "fusion_lat": 0.0, "lon": -77.12739083333334, "type": "electric_bike", "fusion_lon": 0.0, "lat": 38.89566283333333}, {"rental_uris": {"android": "https://dc.lft.to/lastmile_qr_scan", "ios": "https://dc.lft.to/lastmile_qr_scan"}, "is_reserved": 0, "is_disabled": 0, "name": "5ef43fe5f7f851e44629d45d2a2af32d", "bike_id": "5ef43fe5f7f851e44629d45d2a2af32d", "fusion_lat": 0.0, "lon": -77.0118235, "type": "electric_scooter", "fusion_lon": 0.0, "lat": 38.89658566666667}, {"rental_uris": {"android": "https://dc.lft.to/lastmile_qr_scan", "ios": "https://dc.lft.to/lastmile_qr_scan"}, "is_reserved": 0, "is_disabled": 0, "name": "76a26f3f9d24a039fd54e9900bfa6009", "bike_id": "76a26f3f9d24a039fd54e9900bfa6009", "fusion_lat": 0.0, "lon": -77.02283983333334, "type": "electric_scooter", "fusion_lon": 0.0, "lat": 38.89845666666667}, {"rental_uris": {"android": "https://dc.lft.to/lastmile_qr_scan", "ios": "https://dc.lft.to/lastmile_qr_scan"}, "is_reserved": 0, "is_disabled": 0, "name": "e3f2de56625979be5390824b2a116c2b", "bike_id": "e3f2de56625979be5390824b2a116c2b", "fusion_lat": 0.0, "lon": -77.022002, "type": "electric_scooter", "fusion_lon": 0.0, "lat": 38.895210666666664}, {"rental_uris": {"android": "https://dc.lft.to/lastmile_qr_scan", "ios": "https://dc.lft.to/lastmile_qr_scan"}, "is_reserved": 0, "is_disabled": 0, "name": "6e0ea3aac554fe4d90bb3c1f1ac28c55", "bike_id": "6e0ea3aac554fe4d90bb3c1f1ac28c55", "fusion_lat": 0.0, "lon": -76.945863, "type": "electric_scooter", "fusion_lon": 0.0, "lat": 38.899259}, {"rental_uris": {"android": "https://dc.lft.to/lastmile_qr_scan", "ios": "https://dc.lft.to/lastmile_qr_scan"}, "is_reserved": 0, "is_disabled": 0, "name": "b9635b2c15484827e35a4f9e3da70068", "bike_id": "b9635b2c15484827e35a4f9e3da70068", "fusion_lat": 0.0, "lon": -77.03881383333334, "type": "electric_bike", "fusion_lon": 0.0, "lat": 39.02627666666667}, {"rental_uris": {"android": "https://dc.lft.to/lastmile_qr_scan", "ios": "https://dc.lft.to/lastmile_qr_scan"}, "is_reserved": 0, "is_disabled": 0, "name": "54fe95c22e1db8a7400e21a461751666", "bike_id": "54fe95c22e1db8a7400e21a461751666", "fusion_lat": 0.0, "lon": -77.00582616666667, "type": "electric_bike", "fusion_lon": 0.0, "lat": 38.90005683333333}, {"rental_uris": {"android": "https://dc.lft.to/lastmile_qr_scan", "ios": "https://dc.lft.to/lastmile_qr_scan"}, "is_reserved": 0, "is_disabled": 0, "name": "d2b53c8151e0826c51e2000c4832f71d", "bike_id": "d2b53c8151e0826c51e2000c4832f71d", "fusion_lat": 0.0, "lon": -77.02384183333334, "type": "electric_scooter", "fusion_lon": 0.0, "lat": 38.89199766666667}, {"rental_uris": {"android": "https://dc.lft.to/lastmile_qr_scan", "ios": "https://dc.lft.to/lastmile_qr_scan"}, "is_reserved": 0, "is_disabled": 0, "name": "2b1fdc7d318b180d25e3b766e61e86b7", "bike_id": "2b1fdc7d318b180d25e3b766e61e86b7", "fusion_lat": 0.0, "lon": -76.99874416666667, "type": "electric_bike", "fusion_lon": 0.0, "lat": 38.942927}, {"rental_uris": {"android": "https://dc.lft.to/lastmile_qr_scan", "ios": "https://dc.lft.to/lastmile_qr_scan"}, "is_reserved": 0, "is_disabled": 0, "name": "924a7cfb4b749778b3eb65ca35f4159d", "bike_id": "924a7cfb4b749778b3eb65ca35f4159d", "fusion_lat": 0.0, "lon": -77.00212083333334, "type": "electric_scooter", "fusion_lon": 0.0, "lat": 38.904738333333334}, {"rental_uris": {"android": "https://dc.lft.to/lastmile_qr_scan", "ios": "https://dc.lft.to/lastmile_qr_scan"}, "is_reserved": 0, "is_disabled": 0, "name": "9724a6f153c1638220d6bd215ca42e23", "bike_id": "9724a6f153c1638220d6bd215ca42e23", "fusion_lat": 0.0, "lon": -77.04546066666667, "type": "electric_scooter", "fusion_lon": 0.0, "lat": 38.90146416666666}, {"rental_uris": {"android": "https://dc.lft.to/lastmile_qr_scan", "ios": "https://dc.lft.to/lastmile_qr_scan"}, "is_reserved": 0, "is_disabled": 0, "name": "dc8a9818530cbeedaf070a729c3f1d99", "bike_id": "dc8a9818530cbeedaf070a729c3f1d99", "fusion_lat": 0.0, "lon": -77.0450785, "type": "electric_scooter", "fusion_lon": 0.0, "lat": 38.900195}, {"rental_uris": {"android": "https://dc.lft.to/lastmile_qr_scan", "ios": "https://dc.lft.to/lastmile_qr_scan"}, "is_reserved": 0, "is_disabled": 0, "name": "4124ad76c32fe9d3b5cec31ac12ddcb9", "bike_id": "4124ad76c32fe9d3b5cec31ac12ddcb9", "fusion_lat": 0.0, "lon": -77.041761, "type": "electric_scooter", "fusion_lon": 0.0, "lat": 38.905598166666664}, {"rental_uris": {"android": "https://dc.lft.to/lastmile_qr_scan", "ios": "https://dc.lft.to/lastmile_qr_scan"}, "is_reserved": 0, "is_disabled": 0, "name": "a6dc77c214e7730bedcaaa1cfab14405", "bike_id": "a6dc77c214e7730bedcaaa1cfab14405", "fusion_lat": 0.0, "lon": -77.04739633333334, "type": "electric_scooter", "fusion_lon": 0.0, "lat": 38.90047633333333}, {"rental_uris": {"android": "https://dc.lft.to/lastmile_qr_scan", "ios": "https://dc.lft.to/lastmile_qr_scan"}, "is_reserved": 0, "is_disabled": 0, "name": "ab6a9ad7f05787aca0c13cfe7c7b7d93", "bike_id": "ab6a9ad7f05787aca0c13cfe7c7b7d93", "fusion_lat": 0.0, "lon": -77.02111533333333, "type": "electric_scooter", "fusion_lon": 0.0, "lat": 38.90602616666666}, {"rental_uris": {"android": "https://dc.lft.to/lastmile_qr_scan", "ios": "https://dc.lft.to/lastmile_qr_scan"}, "is_reserved": 0, "is_disabled": 0, "name": "002f6b49c06809fe0f8782c7a2bb791c", "bike_id": "002f6b49c06809fe0f8782c7a2bb791c", "fusion_lat": 0.0, "lon": -77.04348233333333, "type": "electric_scooter", "fusion_lon": 0.0, "lat": 38.90405966666667}, {"rental_uris": {"android": "https://dc.lft.to/lastmile_qr_scan", "ios": "https://dc.lft.to/lastmile_qr_scan"}, "is_reserved": 0, "is_disabled": 0, "name": "8f7db15c6357d30eeca340fb157788d7", "bike_id": "8f7db15c6357d30eeca340fb157788d7", "fusion_lat": 0.0, "lon": -77.02131783333333, "type": "electric_scooter", "fusion_lon": 0.0, "lat": 38.8874635}, {"rental_uris": {"android": "https://dc.lft.to/lastmile_qr_scan", "ios": "https://dc.lft.to/lastmile_qr_scan"}, "is_reserved": 0, "is_disabled": 0, "name": "b41bf6c8fdc57366fa5a5026d377cc20", "bike_id": "b41bf6c8fdc57366fa5a5026d377cc20", "fusion_lat": 0.0, "lon": -77.02788116666666, "type": "electric_scooter", "fusion_lon": 0.0, "lat": 38.962218}, {"rental_uris": {"android": "https://dc.lft.to/lastmile_qr_scan", "ios": "https://dc.lft.to/lastmile_qr_scan"}, "is_reserved": 0, "is_disabled": 0, "name": "996180a26cf7d1466e6c4c8fef01eeab", "bike_id": "996180a26cf7d1466e6c4c8fef01eeab", "fusion_lat": 0.0, "lon": -77.0440145, "type": "electric_scooter", "fusion_lon": 0.0, "lat": 38.901378666666666}, {"rental_uris": {"android": "https://dc.lft.to/lastmile_qr_scan", "ios": "https://dc.lft.to/lastmile_qr_scan"}, "is_reserved": 0, "is_disabled": 0, "name": "89a5fbdf0a4d8c61781678b8167148fc", "bike_id": "89a5fbdf0a4d8c61781678b8167148fc", "fusion_lat": 0.0, "lon": -77.0722325, "type": "electric_scooter", "fusion_lon": 0.0, "lat": 38.907600333333335}, {"rental_uris": {"android": "https://dc.lft.to/lastmile_qr_scan", "ios": "https://dc.lft.to/lastmile_qr_scan"}, "is_reserved": 0, "is_disabled": 0, "name": "92fdd9dc64a9cf6c88c8aad9fe1eb306", "bike_id": "92fdd9dc64a9cf6c88c8aad9fe1eb306", "fusion_lat": 0.0, "lon": -77.02048983333333, "type": "electric_scooter", "fusion_lon": 0.0, "lat": 38.9218045}, {"rental_uris": {"android": "https://dc.lft.to/lastmile_qr_scan", "ios": "https://dc.lft.to/lastmile_qr_scan"}, "is_reserved": 0, "is_disabled": 0, "name": "2ccb52accbece94a437a6b7ad162ec07", "bike_id": "2ccb52accbece94a437a6b7ad162ec07", "fusion_lat": 0.0, "lon": -77.03197116666666, "type": "electric_scooter", "fusion_lon": 0.0, "lat": 38.898341}, {"rental_uris": {"android": "https://dc.lft.to/lastmile_qr_scan", "ios": "https://dc.lft.to/lastmile_qr_scan"}, "is_reserved": 0, "is_disabled": 0, "name": "52a03bee894c9b62f50bea7f18bad48e", "bike_id": "52a03bee894c9b62f50bea7f18bad48e", "fusion_lat": 0.0, "lon": -77.026966, "type": "electric_scooter", "fusion_lon": 0.0, "lat": 38.9498235}, {"rental_uris": {"android": "https://dc.lft.to/lastmile_qr_scan", "ios": "https://dc.lft.to/lastmile_qr_scan"}, "is_reserved": 0, "is_disabled": 0, "name": "1f58d242930644f894bb91c6a882332d", "bike_id": "1f58d242930644f894bb91c6a882332d", "fusion_lat": 0.0, "lon": -77.03304716666666, "type": "electric_scooter", "fusion_lon": 0.0, "lat": 38.9287925}, {"rental_uris": {"android": "https://dc.lft.to/lastmile_qr_scan", "ios": "https://dc.lft.to/lastmile_qr_scan"}, "is_reserved": 0, "is_disabled": 0, "name": "2baa2ab63d7962869a1100c03b0326f3", "bike_id": "2baa2ab63d7962869a1100c03b0326f3", "fusion_lat": 0.0, "lon": -77.04108716666667, "type": "electric_scooter", "fusion_lon": 0.0, "lat": 38.9012405}, {"rental_uris": {"android": "https://dc.lft.to/lastmile_qr_scan", "ios": "https://dc.lft.to/lastmile_qr_scan"}, "is_reserved": 0, "is_disabled": 0, "name": "c9809fb2e41514a1fae52fcc15c7c6ce", "bike_id": "c9809fb2e41514a1fae52fcc15c7c6ce", "fusion_lat": 0.0, "lon": -77.00301116666667, "type": "electric_scooter", "fusion_lon": 0.0, "lat": 38.89204816666667}, {"rental_uris": {"android": "https://dc.lft.to/lastmile_qr_scan", "ios": "https://dc.lft.to/lastmile_qr_scan"}, "is_reserved": 0, "is_disabled": 0, "name": "d653bbc0b2ff7e974df238ff67d714d0", "bike_id": "d653bbc0b2ff7e974df238ff67d714d0", "fusion_lat": 0.0, "lon": -77.05338966666666, "type": "electric_scooter", "fusion_lon": 0.0, "lat": 38.901603}, {"rental_uris": {"android": "https://dc.lft.to/lastmile_qr_scan", "ios": "https://dc.lft.to/lastmile_qr_scan"}, "is_reserved": 0, "is_disabled": 0, "name": "9780bbdf67fa93c1d7940d16e78e9925", "bike_id": "9780bbdf67fa93c1d7940d16e78e9925", "fusion_lat": 0.0, "lon": -77.02292366666667, "type": "electric_scooter", "fusion_lon": 0.0, "lat": 38.91681416666667}, {"rental_uris": {"android": "https://dc.lft.to/lastmile_qr_scan", "ios": "https://dc.lft.to/lastmile_qr_scan"}, "is_reserved": 0, "is_disabled": 0, "name": "40127fe87c5bba1ff742090a5807c5ec", "bike_id": "40127fe87c5bba1ff742090a5807c5ec", "fusion_lat": 0.0, "lon": -76.98846133333333, "type": "electric_scooter", "fusion_lon": 0.0, "lat": 38.90026533333333}, {"rental_uris": {"android": "https://dc.lft.to/lastmile_qr_scan", "ios": "https://dc.lft.to/lastmile_qr_scan"}, "is_reserved": 0, "is_disabled": 0, "name": "916c914fb78623b26c45cf82796319e5", "bike_id": "916c914fb78623b26c45cf82796319e5", "fusion_lat": 0.0, "lon": -77.234111, "type": "electric_bike", "fusion_lon": 0.0, "lat": 38.87578883333333}, {"rental_uris": {"android": "https://dc.lft.to/lastmile_qr_scan", "ios": "https://dc.lft.to/lastmile_qr_scan"}, "is_reserved": 0, "is_disabled": 0, "name": "bb1388c915e84e40fc84ddf8f1fd74e7", "bike_id": "bb1388c915e84e40fc84ddf8f1fd74e7", "fusion_lat": 0.0, "lon": -76.968157, "type": "electric_scooter", "fusion_lon": 0.0, "lat": 38.847171833333334}, {"rental_uris": {"android": "https://dc.lft.to/lastmile_qr_scan", "ios": "https://dc.lft.to/lastmile_qr_scan"}, "is_reserved": 0, "is_disabled": 0, "name": "aa0f2c3cc3ee08629d3d475a48e19c61", "bike_id": "aa0f2c3cc3ee08629d3d475a48e19c61", "fusion_lat": 0.0, "lon": -77.03037766666667, "type": "electric_scooter", "fusion_lon": 0.0, "lat": 38.90382266666667}, {"rental_uris": {"android": "https://dc.lft.to/lastmile_qr_scan", "ios": "https://dc.lft.to/lastmile_qr_scan"}, "is_reserved": 0, "is_disabled": 0, "name": "706ab0dccbbef5a44470eba3e3fa13b7", "bike_id": "706ab0dccbbef5a44470eba3e3fa13b7", "fusion_lat": 0.0, "lon": -77.06122, "type": "electric_scooter", "fusion_lon": 0.0, "lat": 38.9024675}, {"rental_uris": {"android": "https://dc.lft.to/lastmile_qr_scan", "ios": "https://dc.lft.to/lastmile_qr_scan"}, "is_reserved": 0, "is_disabled": 0, "name": "1cd5b8672a8de6b3d18cde39edbb324e", "bike_id": "1cd5b8672a8de6b3d18cde39edbb324e", "fusion_lat": 0.0, "lon": -76.9454665, "type": "electric_bike", "fusion_lon": 0.0, "lat": 38.983189333333335}, {"rental_uris": {"android": "https://dc.lft.to/lastmile_qr_scan", "ios": "https://dc.lft.to/lastmile_qr_scan"}, "is_reserved": 0, "is_disabled": 0, "name": "b93b0215c2df976ac82d61d0fcdb125e", "bike_id": "b93b0215c2df976ac82d61d0fcdb125e", "fusion_lat": 0.0, "lon": -77.04004166666667, "type": "electric_scooter", "fusion_lon": 0.0, "lat": 38.89849133333333}, {"rental_uris": {"android": "https://dc.lft.to/lastmile_qr_scan", "ios": "https://dc.lft.to/lastmile_qr_scan"}, "is_reserved": 0, "is_disabled": 0, "name": "ca460e220a60837bfd0778c6c3849483", "bike_id": "ca460e220a60837bfd0778c6c3849483", "fusion_lat": 0.0, "lon": -77.00909266666666, "type": "electric_scooter", "fusion_lon": 0.0, "lat": 38.90048383333333}, {"rental_uris": {"android": "https://dc.lft.to/lastmile_qr_scan", "ios": "https://dc.lft.to/lastmile_qr_scan"}, "is_reserved": 0, "is_disabled": 0, "name": "59b316a180b82a7cd356e15fca47fce0", "bike_id": "59b316a180b82a7cd356e15fca47fce0", "fusion_lat": 0.0, "lon": -77.02895816666667, "type": "electric_scooter", "fusion_lon": 0.0, "lat": 38.9140395}, {"rental_uris": {"android": "https://dc.lft.to/lastmile_qr_scan", "ios": "https://dc.lft.to/lastmile_qr_scan"}, "is_reserved": 0, "is_disabled": 0, "name": "d91cecd957c67e94180874030dcbadf4", "bike_id": "d91cecd957c67e94180874030dcbadf4", "fusion_lat": 0.0, "lon": -77.00071466666667, "type": "electric_scooter", "fusion_lon": 0.0, "lat": 38.87658916666667}, {"rental_uris": {"android": "https://dc.lft.to/lastmile_qr_scan", "ios": "https://dc.lft.to/lastmile_qr_scan"}, "is_reserved": 0, "is_disabled": 0, "name": "7a4460ee34d44bc3f09569396c029f11", "bike_id": "7a4460ee34d44bc3f09569396c029f11", "fusion_lat": 0.0, "lon": -76.93758916666667, "type": "electric_scooter", "fusion_lon": 0.0, "lat": 38.87864016666666}, {"rental_uris": {"android": "https://dc.lft.to/lastmile_qr_scan", "ios": "https://dc.lft.to/lastmile_qr_scan"}, "is_reserved": 0, "is_disabled": 0, "name": "7074dac73f320286f093b2c7ea3eb0f7", "bike_id": "7074dac73f320286f093b2c7ea3eb0f7", "fusion_lat": 0.0, "lon": -77.003134, "type": "electric_scooter", "fusion_lon": 0.0, "lat": 38.889927}, {"rental_uris": {"android": "https://dc.lft.to/lastmile_qr_scan", "ios": "https://dc.lft.to/lastmile_qr_scan"}, "is_reserved": 0, "is_disabled": 0, "name": "c4c4b7c852dbb7075293fdd1e39a0bd1", "bike_id": "c4c4b7c852dbb7075293fdd1e39a0bd1", "fusion_lat": 0.0, "lon": -77.027972, "type": "electric_scooter", "fusion_lon": 0.0, "lat": 38.9540685}, {"rental_uris": {"android": "https://dc.lft.to/lastmile_qr_scan", "ios": "https://dc.lft.to/lastmile_qr_scan"}, "is_reserved": 0, "is_disabled": 0, "name": "7661ba26c30c623a6e69c8b49e4541be", "bike_id": "7661ba26c30c623a6e69c8b49e4541be", "fusion_lat": 0.0, "lon": -77.0393935, "type": "electric_bike", "fusion_lon": 0.0, "lat": 38.80167683333333}, {"rental_uris": {"android": "https://dc.lft.to/lastmile_qr_scan", "ios": "https://dc.lft.to/lastmile_qr_scan"}, "is_reserved": 0, "is_disabled": 0, "name": "6489ce995fea17d6b71a0dd017275d44", "bike_id": "6489ce995fea17d6b71a0dd017275d44", "fusion_lat": 0.0, "lon": -77.02870683333333, "type": "electric_bike", "fusion_lon": 0.0, "lat": 38.921408166666666}, {"rental_uris": {"android": "https://dc.lft.to/lastmile_qr_scan", "ios": "https://dc.lft.to/lastmile_qr_scan"}, "is_reserved": 0, "is_disabled": 0, "name": "d13f32371a8971516e84693072071d2d", "bike_id": "d13f32371a8971516e84693072071d2d", "fusion_lat": 0.0, "lon": -77.0321605, "type": "electric_bike", "fusion_lon": 0.0, "lat": 38.899710166666665}, {"rental_uris": {"android": "https://dc.lft.to/lastmile_qr_scan", "ios": "https://dc.lft.to/lastmile_qr_scan"}, "is_reserved": 0, "is_disabled": 0, "name": "e92010b689dd98b3d6cc71224c5eb507", "bike_id": "e92010b689dd98b3d6cc71224c5eb507", "fusion_lat": 0.0, "lon": -77.04478566666667, "type": "electric_scooter", "fusion_lon": 0.0, "lat": 38.90256516666667}, {"rental_uris": {"android": "https://dc.lft.to/lastmile_qr_scan", "ios": "https://dc.lft.to/lastmile_qr_scan"}, "is_reserved": 0, "is_disabled": 0, "name": "0fa0b53ce3bc4df0fac74a22b1f80a0e", "bike_id": "0fa0b53ce3bc4df0fac74a22b1f80a0e", "fusion_lat": 0.0, "lon": -77.01657583333333, "type": "electric_scooter", "fusion_lon": 0.0, "lat": 38.8771965}, {"rental_uris": {"android": "https://dc.lft.to/lastmile_qr_scan", "ios": "https://dc.lft.to/lastmile_qr_scan"}, "is_reserved": 0, "is_disabled": 0, "name": "45b9bbfbcbaa8fe35a05e0e9d7a241a8", "bike_id": "45b9bbfbcbaa8fe35a05e0e9d7a241a8", "fusion_lat": 0.0, "lon": -77.00761933333334, "type": "electric_bike", "fusion_lon": 0.0, "lat": 38.997816666666665}, {"rental_uris": {"android": "https://dc.lft.to/lastmile_qr_scan", "ios": "https://dc.lft.to/lastmile_qr_scan"}, "is_reserved": 0, "is_disabled": 0, "name": "6ade4a6798167b5e097ac772a8a6a3a1", "bike_id": "6ade4a6798167b5e097ac772a8a6a3a1", "fusion_lat": 0.0, "lon": -76.9524745, "type": "electric_bike", "fusion_lon": 0.0, "lat": 38.884693666666664}, {"rental_uris": {"android": "https://dc.lft.to/lastmile_qr_scan", "ios": "https://dc.lft.to/lastmile_qr_scan"}, "is_reserved": 0, "is_disabled": 0, "name": "faaf91cde9a45777d82e0de7d20f549b", "bike_id": "faaf91cde9a45777d82e0de7d20f549b", "fusion_lat": 0.0, "lon": -77.01382233333334, "type": "electric_scooter", "fusion_lon": 0.0, "lat": 38.87612516666667}, {"rental_uris": {"android": "https://dc.lft.to/lastmile_qr_scan", "ios": "https://dc.lft.to/lastmile_qr_scan"}, "is_reserved": 0, "is_disabled": 0, "name": "9d6d9a74c84d19f4f866d472fd13a3be", "bike_id": "9d6d9a74c84d19f4f866d472fd13a3be", "fusion_lat": 0.0, "lon": -77.00377933333333, "type": "electric_bike", "fusion_lon": 0.0, "lat": 38.836102833333335}, {"rental_uris": {"android": "https://dc.lft.to/lastmile_qr_scan", "ios": "https://dc.lft.to/lastmile_qr_scan"}, "is_reserved": 0, "is_disabled": 0, "name": "e1bd56de753a51ed78976ac934d3bce8", "bike_id": "e1bd56de753a51ed78976ac934d3bce8", "fusion_lat": 0.0, "lon": -77.002798, "type": "electric_bike", "fusion_lon": 0.0, "lat": 38.83803533333333}, {"rental_uris": {"android": "https://dc.lft.to/lastmile_qr_scan", "ios": "https://dc.lft.to/lastmile_qr_scan"}, "is_reserved": 0, "is_disabled": 0, "name": "d83f37689734ecca09a255f25511b5e3", "bike_id": "d83f37689734ecca09a255f25511b5e3", "fusion_lat": 0.0, "lon": -77.019418, "type": "electric_scooter", "fusion_lon": 0.0, "lat": 38.92417866666667}, {"rental_uris": {"android": "https://dc.lft.to/lastmile_qr_scan", "ios": "https://dc.lft.to/lastmile_qr_scan"}, "is_reserved": 0, "is_disabled": 0, "name": "a4e4fa2f8e82823fc075fb1e398fb859", "bike_id": "a4e4fa2f8e82823fc075fb1e398fb859", "fusion_lat": 0.0, "lon": -77.02751883333333, "type": "electric_scooter", "fusion_lon": 0.0, "lat": 38.966495}, {"rental_uris": {"android": "https://dc.lft.to/lastmile_qr_scan", "ios": "https://dc.lft.to/lastmile_qr_scan"}, "is_reserved": 0, "is_disabled": 0, "name": "7f00138e6b67d70f242343d1c9b8561f", "bike_id": "7f00138e6b67d70f242343d1c9b8561f", "fusion_lat": 0.0, "lon": -76.98534233333334, "type": "electric_scooter", "fusion_lon": 0.0, "lat": 38.900150833333335}, {"rental_uris": {"android": "https://dc.lft.to/lastmile_qr_scan", "ios": "https://dc.lft.to/lastmile_qr_scan"}, "is_reserved": 0, "is_disabled": 0, "name": "16e9727a2bf7cbc31e9a92ec75dd72b4", "bike_id": "16e9727a2bf7cbc31e9a92ec75dd72b4", "fusion_lat": 0.0, "lon": -77.0345685, "type": "electric_scooter", "fusion_lon": 0.0, "lat": 38.921580666666664}, {"rental_uris": {"android": "https://dc.lft.to/lastmile_qr_scan", "ios": "https://dc.lft.to/lastmile_qr_scan"}, "is_reserved": 0, "is_disabled": 0, "name": "7b0cf4e9ab074caac603ed08d3c57c8a", "bike_id": "7b0cf4e9ab074caac603ed08d3c57c8a", "fusion_lat": 0.0, "lon": -77.03432166666667, "type": "electric_scooter", "fusion_lon": 0.0, "lat": 38.919308}, {"rental_uris": {"android": "https://dc.lft.to/lastmile_qr_scan", "ios": "https://dc.lft.to/lastmile_qr_scan"}, "is_reserved": 0, "is_disabled": 0, "name": "802a2c66ffa9ab8eb24bdcb78965a334", "bike_id": "802a2c66ffa9ab8eb24bdcb78965a334", "fusion_lat": 0.0, "lon": -77.035873, "type": "electric_bike", "fusion_lon": 0.0, "lat": 38.992318}, {"rental_uris": {"android": "https://dc.lft.to/lastmile_qr_scan", "ios": "https://dc.lft.to/lastmile_qr_scan"}, "is_reserved": 0, "is_disabled": 0, "name": "ac490e19bb66f1d2f54ce350463536f5", "bike_id": "ac490e19bb66f1d2f54ce350463536f5", "fusion_lat": 0.0, "lon": -77.01857416666667, "type": "electric_scooter", "fusion_lon": 0.0, "lat": 38.949214}, {"rental_uris": {"android": "https://dc.lft.to/lastmile_qr_scan", "ios": "https://dc.lft.to/lastmile_qr_scan"}, "is_reserved": 0, "is_disabled": 0, "name": "4a9a7d2f969bd1d5e3c81dd49575c625", "bike_id": "4a9a7d2f969bd1d5e3c81dd49575c625", "fusion_lat": 0.0, "lon": -77.03303716666667, "type": "electric_scooter", "fusion_lon": 0.0, "lat": 38.89911883333333}, {"rental_uris": {"android": "https://dc.lft.to/lastmile_qr_scan", "ios": "https://dc.lft.to/lastmile_qr_scan"}, "is_reserved": 0, "is_disabled": 0, "name": "4031b67f38da93ababb9ddbea7514271", "bike_id": "4031b67f38da93ababb9ddbea7514271", "fusion_lat": 0.0, "lon": -77.02956083333333, "type": "electric_scooter", "fusion_lon": 0.0, "lat": 38.94309916666667}, {"rental_uris": {"android": "https://dc.lft.to/lastmile_qr_scan", "ios": "https://dc.lft.to/lastmile_qr_scan"}, "is_reserved": 0, "is_disabled": 0, "name": "919b98000635ab97221250e9fa41fa95", "bike_id": "919b98000635ab97221250e9fa41fa95", "fusion_lat": 0.0, "lon": -77.02441366666666, "type": "electric_scooter", "fusion_lon": 0.0, "lat": 38.90001}, {"rental_uris": {"android": "https://dc.lft.to/lastmile_qr_scan", "ios": "https://dc.lft.to/lastmile_qr_scan"}, "is_reserved": 0, "is_disabled": 0, "name": "2edeac12d129dbfe65aea731b9d2a979", "bike_id": "2edeac12d129dbfe65aea731b9d2a979", "fusion_lat": 0.0, "lon": -77.0332075, "type": "electric_scooter", "fusion_lon": 0.0, "lat": 38.900364333333336}, {"rental_uris": {"android": "https://dc.lft.to/lastmile_qr_scan", "ios": "https://dc.lft.to/lastmile_qr_scan"}, "is_reserved": 0, "is_disabled": 0, "name": "ce5850b5acd53b9485e0f0e0379e5dfc", "bike_id": "ce5850b5acd53b9485e0f0e0379e5dfc", "fusion_lat": 0.0, "lon": -77.02794183333333, "type": "electric_scooter", "fusion_lon": 0.0, "lat": 38.89962083333333}, {"rental_uris": {"android": "https://dc.lft.to/lastmile_qr_scan", "ios": "https://dc.lft.to/lastmile_qr_scan"}, "is_reserved": 0, "is_disabled": 0, "name": "fb5227b0aa815fdb057ad36dbebc971a", "bike_id": "fb5227b0aa815fdb057ad36dbebc971a", "fusion_lat": 0.0, "lon": -77.02823466666666, "type": "electric_scooter", "fusion_lon": 0.0, "lat": 38.89820233333333}, {"rental_uris": {"android": "https://dc.lft.to/lastmile_qr_scan", "ios": "https://dc.lft.to/lastmile_qr_scan"}, "is_reserved": 0, "is_disabled": 0, "name": "168a88091fff45a96a3910d7b1778f2d", "bike_id": "168a88091fff45a96a3910d7b1778f2d", "fusion_lat": 0.0, "lon": -77.02373016666667, "type": "electric_scooter", "fusion_lon": 0.0, "lat": 38.902195166666665}, {"rental_uris": {"android": "https://dc.lft.to/lastmile_qr_scan", "ios": "https://dc.lft.to/lastmile_qr_scan"}, "is_reserved": 0, "is_disabled": 0, "name": "2f03a183401edf06e328965c7db8ff13", "bike_id": "2f03a183401edf06e328965c7db8ff13", "fusion_lat": 0.0, "lon": -76.96325266666666, "type": "electric_bike", "fusion_lon": 0.0, "lat": 38.93896216666667}, {"rental_uris": {"android": "https://dc.lft.to/lastmile_qr_scan", "ios": "https://dc.lft.to/lastmile_qr_scan"}, "is_reserved": 0, "is_disabled": 0, "name": "4b116191df7c99144053339d2621680d", "bike_id": "4b116191df7c99144053339d2621680d", "fusion_lat": 0.0, "lon": -76.97722383333333, "type": "electric_scooter", "fusion_lon": 0.0, "lat": 38.88822316666667}, {"rental_uris": {"android": "https://dc.lft.to/lastmile_qr_scan", "ios": "https://dc.lft.to/lastmile_qr_scan"}, "is_reserved": 0, "is_disabled": 0, "name": "21af542d5b606274d2addf90fafc8281", "bike_id": "21af542d5b606274d2addf90fafc8281", "fusion_lat": 0.0, "lon": -77.04990616666667, "type": "electric_scooter", "fusion_lon": 0.0, "lat": 38.898393}, {"rental_uris": {"android": "https://dc.lft.to/lastmile_qr_scan", "ios": "https://dc.lft.to/lastmile_qr_scan"}, "is_reserved": 0, "is_disabled": 0, "name": "12b1e1ec78c8181555d337a0d42ba9e3", "bike_id": "12b1e1ec78c8181555d337a0d42ba9e3", "fusion_lat": 0.0, "lon": -77.04229516666666, "type": "electric_scooter", "fusion_lon": 0.0, "lat": 38.899904166666666}, {"rental_uris": {"android": "https://dc.lft.to/lastmile_qr_scan", "ios": "https://dc.lft.to/lastmile_qr_scan"}, "is_reserved": 0, "is_disabled": 0, "name": "1cbf92b721533a203a679ef34310e320", "bike_id": "1cbf92b721533a203a679ef34310e320", "fusion_lat": 0.0, "lon": -77.04351666666666, "type": "electric_scooter", "fusion_lon": 0.0, "lat": 38.8989695}, {"rental_uris": {"android": "https://dc.lft.to/lastmile_qr_scan", "ios": "https://dc.lft.to/lastmile_qr_scan"}, "is_reserved": 0, "is_disabled": 0, "name": "1f8e38025aaac6c96d2d097becaf6a2e", "bike_id": "1f8e38025aaac6c96d2d097becaf6a2e", "fusion_lat": 0.0, "lon": -76.983589, "type": "electric_scooter", "fusion_lon": 0.0, "lat": 38.8873115}, {"rental_uris": {"android": "https://dc.lft.to/lastmile_qr_scan", "ios": "https://dc.lft.to/lastmile_qr_scan"}, "is_reserved": 0, "is_disabled": 0, "name": "03db548ac3b17cbfbc8397c4ba248eef", "bike_id": "03db548ac3b17cbfbc8397c4ba248eef", "fusion_lat": 0.0, "lon": -77.03678083333334, "type": "electric_scooter", "fusion_lon": 0.0, "lat": 38.9156505}, {"rental_uris": {"android": "https://dc.lft.to/lastmile_qr_scan", "ios": "https://dc.lft.to/lastmile_qr_scan"}, "is_reserved": 0, "is_disabled": 0, "name": "51c692f9d683991783b4c94bc5f37844", "bike_id": "51c692f9d683991783b4c94bc5f37844", "fusion_lat": 0.0, "lon": -77.05894566666667, "type": "electric_scooter", "fusion_lon": 0.0, "lat": 38.936059166666666}, {"rental_uris": {"android": "https://dc.lft.to/lastmile_qr_scan", "ios": "https://dc.lft.to/lastmile_qr_scan"}, "is_reserved": 0, "is_disabled": 0, "name": "9a36ffa25045144444a35fc72d6b54d7", "bike_id": "9a36ffa25045144444a35fc72d6b54d7", "fusion_lat": 0.0, "lon": -77.0234565, "type": "electric_scooter", "fusion_lon": 0.0, "lat": 38.8814105}, {"rental_uris": {"android": "https://dc.lft.to/lastmile_qr_scan", "ios": "https://dc.lft.to/lastmile_qr_scan"}, "is_reserved": 0, "is_disabled": 0, "name": "d988a21e689dd9d8e502acdf7a57987e", "bike_id": "d988a21e689dd9d8e502acdf7a57987e", "fusion_lat": 0.0, "lon": -77.04570733333334, "type": "electric_scooter", "fusion_lon": 0.0, "lat": 38.90067366666667}, {"rental_uris": {"android": "https://dc.lft.to/lastmile_qr_scan", "ios": "https://dc.lft.to/lastmile_qr_scan"}, "is_reserved": 0, "is_disabled": 0, "name": "f6c7c2174cb50fcc7c8dd7565d6dc7a3", "bike_id": "f6c7c2174cb50fcc7c8dd7565d6dc7a3", "fusion_lat": 0.0, "lon": -77.044047, "type": "electric_scooter", "fusion_lon": 0.0, "lat": 38.929546}, {"rental_uris": {"android": "https://dc.lft.to/lastmile_qr_scan", "ios": "https://dc.lft.to/lastmile_qr_scan"}, "is_reserved": 0, "is_disabled": 0, "name": "ecd515a5465e59e8d17d91e960ca1818", "bike_id": "ecd515a5465e59e8d17d91e960ca1818", "fusion_lat": 0.0, "lon": -77.02663516666667, "type": "electric_scooter", "fusion_lon": 0.0, "lat": 38.93881483333333}, {"rental_uris": {"android": "https://dc.lft.to/lastmile_qr_scan", "ios": "https://dc.lft.to/lastmile_qr_scan"}, "is_reserved": 0, "is_disabled": 0, "name": "eeac2fc7753bf0eb9f5bbab32f76682e", "bike_id": "eeac2fc7753bf0eb9f5bbab32f76682e", "fusion_lat": 0.0, "lon": -77.02681633333333, "type": "electric_scooter", "fusion_lon": 0.0, "lat": 38.9026275}, {"rental_uris": {"android": "https://dc.lft.to/lastmile_qr_scan", "ios": "https://dc.lft.to/lastmile_qr_scan"}, "is_reserved": 0, "is_disabled": 0, "name": "3837a7a478a678aaa1d0a063f18240c6", "bike_id": "3837a7a478a678aaa1d0a063f18240c6", "fusion_lat": 0.0, "lon": -77.0271005, "type": "electric_scooter", "fusion_lon": 0.0, "lat": 38.9066815}, {"rental_uris": {"android": "https://dc.lft.to/lastmile_qr_scan", "ios": "https://dc.lft.to/lastmile_qr_scan"}, "is_reserved": 0, "is_disabled": 0, "name": "c0f828be82d876db9a8a2be36ce29225", "bike_id": "c0f828be82d876db9a8a2be36ce29225", "fusion_lat": 0.0, "lon": -77.01432383333334, "type": "electric_scooter", "fusion_lon": 0.0, "lat": 38.928199166666666}, {"rental_uris": {"android": "https://dc.lft.to/lastmile_qr_scan", "ios": "https://dc.lft.to/lastmile_qr_scan"}, "is_reserved": 0, "is_disabled": 0, "name": "d7dae0e20efd5976dd0920d96612d787", "bike_id": "d7dae0e20efd5976dd0920d96612d787", "fusion_lat": 0.0, "lon": -77.0191415, "type": "electric_scooter", "fusion_lon": 0.0, "lat": 38.921729166666665}, {"rental_uris": {"android": "https://dc.lft.to/lastmile_qr_scan", "ios": "https://dc.lft.to/lastmile_qr_scan"}, "is_reserved": 0, "is_disabled": 0, "name": "033e8e34d4665b0484154fa46bda3229", "bike_id": "033e8e34d4665b0484154fa46bda3229", "fusion_lat": 0.0, "lon": -77.03952983333333, "type": "electric_scooter", "fusion_lon": 0.0, "lat": 38.90825683333333}, {"rental_uris": {"android": "https://dc.lft.to/lastmile_qr_scan", "ios": "https://dc.lft.to/lastmile_qr_scan"}, "is_reserved": 0, "is_disabled": 0, "name": "a04a89d5cef8f2139dfc82dff391deb4", "bike_id": "a04a89d5cef8f2139dfc82dff391deb4", "fusion_lat": 0.0, "lon": -77.0436125, "type": "electric_bike", "fusion_lon": 0.0, "lat": 38.895185166666664}, {"rental_uris": {"android": "https://dc.lft.to/lastmile_qr_scan", "ios": "https://dc.lft.to/lastmile_qr_scan"}, "is_reserved": 0, "is_disabled": 0, "name": "6b7eca456d7783321ac3970228fdad1f", "bike_id": "6b7eca456d7783321ac3970228fdad1f", "fusion_lat": 0.0, "lon": -77.00486516666666, "type": "electric_scooter", "fusion_lon": 0.0, "lat": 38.874600666666666}, {"rental_uris": {"android": "https://dc.lft.to/lastmile_qr_scan", "ios": "https://dc.lft.to/lastmile_qr_scan"}, "is_reserved": 0, "is_disabled": 0, "name": "5ca383561251d6bbd1a586b0a6e79c1f", "bike_id": "5ca383561251d6bbd1a586b0a6e79c1f", "fusion_lat": 0.0, "lon": -77.0272075, "type": "electric_scooter", "fusion_lon": 0.0, "lat": 38.94086516666667}, {"rental_uris": {"android": "https://dc.lft.to/lastmile_qr_scan", "ios": "https://dc.lft.to/lastmile_qr_scan"}, "is_reserved": 0, "is_disabled": 0, "name": "50f53bd954b6da2097bc53bb6a3bdccf", "bike_id": "50f53bd954b6da2097bc53bb6a3bdccf", "fusion_lat": 0.0, "lon": -77.0297725, "type": "electric_scooter", "fusion_lon": 0.0, "lat": 38.89641183333333}, {"rental_uris": {"android": "https://dc.lft.to/lastmile_qr_scan", "ios": "https://dc.lft.to/lastmile_qr_scan"}, "is_reserved": 0, "is_disabled": 0, "name": "2990ab9229f0dc75730d086bde8b6319", "bike_id": "2990ab9229f0dc75730d086bde8b6319", "fusion_lat": 0.0, "lon": -77.017491, "type": "electric_scooter", "fusion_lon": 0.0, "lat": 38.900333}, {"rental_uris": {"android": "https://dc.lft.to/lastmile_qr_scan", "ios": "https://dc.lft.to/lastmile_qr_scan"}, "is_reserved": 0, "is_disabled": 0, "name": "670f38366fa91ac9f935454ae0e6c81d", "bike_id": "670f38366fa91ac9f935454ae0e6c81d", "fusion_lat": 0.0, "lon": -77.02415033333334, "type": "electric_scooter", "fusion_lon": 0.0, "lat": 38.901899}, {"rental_uris": {"android": "https://dc.lft.to/lastmile_qr_scan", "ios": "https://dc.lft.to/lastmile_qr_scan"}, "is_reserved": 0, "is_disabled": 0, "name": "16250a1137f0cd8b2a701575286d4ef0", "bike_id": "16250a1137f0cd8b2a701575286d4ef0", "fusion_lat": 0.0, "lon": -77.0268825, "type": "electric_scooter", "fusion_lon": 0.0, "lat": 38.899367833333336}, {"rental_uris": {"android": "https://dc.lft.to/lastmile_qr_scan", "ios": "https://dc.lft.to/lastmile_qr_scan"}, "is_reserved": 0, "is_disabled": 0, "name": "8868d9191d40e97c86835e4aeec6c48b", "bike_id": "8868d9191d40e97c86835e4aeec6c48b", "fusion_lat": 0.0, "lon": -77.03465616666666, "type": "electric_scooter", "fusion_lon": 0.0, "lat": 38.90267716666666}, {"rental_uris": {"android": "https://dc.lft.to/lastmile_qr_scan", "ios": "https://dc.lft.to/lastmile_qr_scan"}, "is_reserved": 0, "is_disabled": 0, "name": "045056b28116ec3a30735814ac455956", "bike_id": "045056b28116ec3a30735814ac455956", "fusion_lat": 0.0, "lon": -77.03332616666667, "type": "electric_scooter", "fusion_lon": 0.0, "lat": 38.89891183333334}, {"rental_uris": {"android": "https://dc.lft.to/lastmile_qr_scan", "ios": "https://dc.lft.to/lastmile_qr_scan"}, "is_reserved": 0, "is_disabled": 0, "name": "37f2ec088c8faf6649668e9cee00d503", "bike_id": "37f2ec088c8faf6649668e9cee00d503", "fusion_lat": 0.0, "lon": -77.0363, "type": "electric_scooter", "fusion_lon": 0.0, "lat": 38.9285435}, {"rental_uris": {"android": "https://dc.lft.to/lastmile_qr_scan", "ios": "https://dc.lft.to/lastmile_qr_scan"}, "is_reserved": 0, "is_disabled": 0, "name": "fbed5b5985576ec7093d5ca352e5b20f", "bike_id": "fbed5b5985576ec7093d5ca352e5b20f", "fusion_lat": 0.0, "lon": -77.02552433333334, "type": "electric_scooter", "fusion_lon": 0.0, "lat": 38.892003833333334}, {"rental_uris": {"android": "https://dc.lft.to/lastmile_qr_scan", "ios": "https://dc.lft.to/lastmile_qr_scan"}, "is_reserved": 0, "is_disabled": 0, "name": "14b70a24c62b3b02bbdcf369016ca67b", "bike_id": "14b70a24c62b3b02bbdcf369016ca67b", "fusion_lat": 0.0, "lon": -77.0009625, "type": "electric_scooter", "fusion_lon": 0.0, "lat": 38.9255345}, {"rental_uris": {"android": "https://dc.lft.to/lastmile_qr_scan", "ios": "https://dc.lft.to/lastmile_qr_scan"}, "is_reserved": 0, "is_disabled": 0, "name": "c232d19bfc755abde44bcf3e3698be9c", "bike_id": "c232d19bfc755abde44bcf3e3698be9c", "fusion_lat": 0.0, "lon": -77.01189033333333, "type": "electric_scooter", "fusion_lon": 0.0, "lat": 38.900133333333336}, {"rental_uris": {"android": "https://dc.lft.to/lastmile_qr_scan", "ios": "https://dc.lft.to/lastmile_qr_scan"}, "is_reserved": 0, "is_disabled": 0, "name": "22515e4c45680cd6b91d1862faf2ba23", "bike_id": "22515e4c45680cd6b91d1862faf2ba23", "fusion_lat": 0.0, "lon": -77.01753, "type": "electric_scooter", "fusion_lon": 0.0, "lat": 38.9205205}, {"rental_uris": {"android": "https://dc.lft.to/lastmile_qr_scan", "ios": "https://dc.lft.to/lastmile_qr_scan"}, "is_reserved": 0, "is_disabled": 0, "name": "05e71078c7204ba648bd90becadee1cc", "bike_id": "05e71078c7204ba648bd90becadee1cc", "fusion_lat": 0.0, "lon": -77.0407995, "type": "electric_bike", "fusion_lon": 0.0, "lat": 38.8306945}, {"rental_uris": {"android": "https://dc.lft.to/lastmile_qr_scan", "ios": "https://dc.lft.to/lastmile_qr_scan"}, "is_reserved": 0, "is_disabled": 0, "name": "0aaf1b8fbb14096e9dc2ab90cde92390", "bike_id": "0aaf1b8fbb14096e9dc2ab90cde92390", "fusion_lat": 0.0, "lon": -76.99114883333333, "type": "electric_scooter", "fusion_lon": 0.0, "lat": 38.90027833333333}, {"rental_uris": {"android": "https://dc.lft.to/lastmile_qr_scan", "ios": "https://dc.lft.to/lastmile_qr_scan"}, "is_reserved": 0, "is_disabled": 0, "name": "768c52c6d4a9b9e1a2298befed72079b", "bike_id": "768c52c6d4a9b9e1a2298befed72079b", "fusion_lat": 0.0, "lon": -77.03189216666667, "type": "electric_scooter", "fusion_lon": 0.0, "lat": 38.901105}, {"rental_uris": {"android": "https://dc.lft.to/lastmile_qr_scan", "ios": "https://dc.lft.to/lastmile_qr_scan"}, "is_reserved": 0, "is_disabled": 0, "name": "2a283fd72162e0cb9a0ba534934d932a", "bike_id": "2a283fd72162e0cb9a0ba534934d932a", "fusion_lat": 0.0, "lon": -77.02178783333333, "type": "electric_scooter", "fusion_lon": 0.0, "lat": 38.901919}, {"rental_uris": {"android": "https://dc.lft.to/lastmile_qr_scan", "ios": "https://dc.lft.to/lastmile_qr_scan"}, "is_reserved": 0, "is_disabled": 0, "name": "b4f9a7204ea022b97f90199874dd8c9d", "bike_id": "b4f9a7204ea022b97f90199874dd8c9d", "fusion_lat": 0.0, "lon": -77.05043516666667, "type": "electric_scooter", "fusion_lon": 0.0, "lat": 38.923641333333336}, {"rental_uris": {"android": "https://dc.lft.to/lastmile_qr_scan", "ios": "https://dc.lft.to/lastmile_qr_scan"}, "is_reserved": 0, "is_disabled": 0, "name": "a67628f7cca9876c706bd90ed0144e95", "bike_id": "a67628f7cca9876c706bd90ed0144e95", "fusion_lat": 0.0, "lon": -77.01918216666667, "type": "electric_scooter", "fusion_lon": 0.0, "lat": 38.923672833333335}, {"rental_uris": {"android": "https://dc.lft.to/lastmile_qr_scan", "ios": "https://dc.lft.to/lastmile_qr_scan"}, "is_reserved": 0, "is_disabled": 0, "name": "a2dbfdff09c736c840f81bcdd03e8bf2", "bike_id": "a2dbfdff09c736c840f81bcdd03e8bf2", "fusion_lat": 0.0, "lon": -77.043354, "type": "electric_scooter", "fusion_lon": 0.0, "lat": 38.89835866666667}, {"rental_uris": {"android": "https://dc.lft.to/lastmile_qr_scan", "ios": "https://dc.lft.to/lastmile_qr_scan"}, "is_reserved": 0, "is_disabled": 0, "name": "f9ca569d4cd8c85131e8314541ecd136", "bike_id": "f9ca569d4cd8c85131e8314541ecd136", "fusion_lat": 0.0, "lon": -77.03210133333333, "type": "electric_scooter", "fusion_lon": 0.0, "lat": 38.92584}, {"rental_uris": {"android": "https://dc.lft.to/lastmile_qr_scan", "ios": "https://dc.lft.to/lastmile_qr_scan"}, "is_reserved": 0, "is_disabled": 0, "name": "99932f9a045cce94beb9a459829196eb", "bike_id": "99932f9a045cce94beb9a459829196eb", "fusion_lat": 0.0, "lon": -77.00649816666666, "type": "electric_scooter", "fusion_lon": 0.0, "lat": 38.90981383333333}, {"rental_uris": {"android": "https://dc.lft.to/lastmile_qr_scan", "ios": "https://dc.lft.to/lastmile_qr_scan"}, "is_reserved": 0, "is_disabled": 0, "name": "a027047aff8b909149641c655e289039", "bike_id": "a027047aff8b909149641c655e289039", "fusion_lat": 0.0, "lon": -77.0384705, "type": "electric_scooter", "fusion_lon": 0.0, "lat": 38.92165383333333}, {"rental_uris": {"android": "https://dc.lft.to/lastmile_qr_scan", "ios": "https://dc.lft.to/lastmile_qr_scan"}, "is_reserved": 0, "is_disabled": 0, "name": "869a65ab011ba87876fd6c44bca5a897", "bike_id": "869a65ab011ba87876fd6c44bca5a897", "fusion_lat": 0.0, "lon": -77.0451185, "type": "electric_scooter", "fusion_lon": 0.0, "lat": 38.90786216666667}, {"rental_uris": {"android": "https://dc.lft.to/lastmile_qr_scan", "ios": "https://dc.lft.to/lastmile_qr_scan"}, "is_reserved": 0, "is_disabled": 0, "name": "5f63dd86617c03ed5b218d0a3e412c7e", "bike_id": "5f63dd86617c03ed5b218d0a3e412c7e", "fusion_lat": 0.0, "lon": -76.93361183333333, "type": "electric_scooter", "fusion_lon": 0.0, "lat": 38.89828716666667}, {"rental_uris": {"android": "https://dc.lft.to/lastmile_qr_scan", "ios": "https://dc.lft.to/lastmile_qr_scan"}, "is_reserved": 0, "is_disabled": 0, "name": "be06446aa6c6acff2132c5ed185ed169", "bike_id": "be06446aa6c6acff2132c5ed185ed169", "fusion_lat": 0.0, "lon": -77.01954283333333, "type": "electric_scooter", "fusion_lon": 0.0, "lat": 38.9233735}, {"rental_uris": {"android": "https://dc.lft.to/lastmile_qr_scan", "ios": "https://dc.lft.to/lastmile_qr_scan"}, "is_reserved": 0, "is_disabled": 0, "name": "3839cf5112e436906de1c414e01fd9e0", "bike_id": "3839cf5112e436906de1c414e01fd9e0", "fusion_lat": 0.0, "lon": -77.07914216666667, "type": "electric_bike", "fusion_lon": 0.0, "lat": 38.8383545}, {"rental_uris": {"android": "https://dc.lft.to/lastmile_qr_scan", "ios": "https://dc.lft.to/lastmile_qr_scan"}, "is_reserved": 0, "is_disabled": 0, "name": "e704e8758128795064991d24d978630e", "bike_id": "e704e8758128795064991d24d978630e", "fusion_lat": 0.0, "lon": -77.07241666666667, "type": "electric_scooter", "fusion_lon": 0.0, "lat": 38.9345935}, {"rental_uris": {"android": "https://dc.lft.to/lastmile_qr_scan", "ios": "https://dc.lft.to/lastmile_qr_scan"}, "is_reserved": 0, "is_disabled": 0, "name": "9c07b2986af195908efa841dab9562dc", "bike_id": "9c07b2986af195908efa841dab9562dc", "fusion_lat": 0.0, "lon": -77.0217745, "type": "electric_scooter", "fusion_lon": 0.0, "lat": 38.892269}, {"rental_uris": {"android": "https://dc.lft.to/lastmile_qr_scan", "ios": "https://dc.lft.to/lastmile_qr_scan"}, "is_reserved": 0, "is_disabled": 0, "name": "c9ef889aaf32af75cace8bb6572a9440", "bike_id": "c9ef889aaf32af75cace8bb6572a9440", "fusion_lat": 0.0, "lon": -77.0145565, "type": "electric_scooter", "fusion_lon": 0.0, "lat": 38.958145333333334}, {"rental_uris": {"android": "https://dc.lft.to/lastmile_qr_scan", "ios": "https://dc.lft.to/lastmile_qr_scan"}, "is_reserved": 0, "is_disabled": 0, "name": "e02bc3b83ed4a8f28572e46120f6c35e", "bike_id": "e02bc3b83ed4a8f28572e46120f6c35e", "fusion_lat": 0.0, "lon": -77.0336005, "type": "electric_scooter", "fusion_lon": 0.0, "lat": 38.935922166666664}, {"rental_uris": {"android": "https://dc.lft.to/lastmile_qr_scan", "ios": "https://dc.lft.to/lastmile_qr_scan"}, "is_reserved": 0, "is_disabled": 0, "name": "dc28209baa115c35648eda04c00dda4b", "bike_id": "dc28209baa115c35648eda04c00dda4b", "fusion_lat": 0.0, "lon": -77.02976683333333, "type": "electric_scooter", "fusion_lon": 0.0, "lat": 38.89579066666667}, {"rental_uris": {"android": "https://dc.lft.to/lastmile_qr_scan", "ios": "https://dc.lft.to/lastmile_qr_scan"}, "is_reserved": 0, "is_disabled": 0, "name": "0fd2a2094d46d9fdc3888768c402c1cd", "bike_id": "0fd2a2094d46d9fdc3888768c402c1cd", "fusion_lat": 0.0, "lon": -77.06271483333333, "type": "electric_bike", "fusion_lon": 0.0, "lat": 38.944141333333334}, {"rental_uris": {"android": "https://dc.lft.to/lastmile_qr_scan", "ios": "https://dc.lft.to/lastmile_qr_scan"}, "is_reserved": 0, "is_disabled": 0, "name": "a28624586ae2e8e9e9b24667eaf08bd3", "bike_id": "a28624586ae2e8e9e9b24667eaf08bd3", "fusion_lat": 0.0, "lon": -77.04197166666667, "type": "electric_scooter", "fusion_lon": 0.0, "lat": 38.920550666666664}, {"rental_uris": {"android": "https://dc.lft.to/lastmile_qr_scan", "ios": "https://dc.lft.to/lastmile_qr_scan"}, "is_reserved": 0, "is_disabled": 0, "name": "380b0d624490dd99296f504c6ec51756", "bike_id": "380b0d624490dd99296f504c6ec51756", "fusion_lat": 0.0, "lon": -77.03642083333334, "type": "electric_scooter", "fusion_lon": 0.0, "lat": 38.9234655}, {"rental_uris": {"android": "https://dc.lft.to/lastmile_qr_scan", "ios": "https://dc.lft.to/lastmile_qr_scan"}, "is_reserved": 0, "is_disabled": 0, "name": "d838ff1a1f67282d2274ae8aa01bd176", "bike_id": "d838ff1a1f67282d2274ae8aa01bd176", "fusion_lat": 0.0, "lon": -77.04163583333333, "type": "electric_scooter", "fusion_lon": 0.0, "lat": 38.916532333333336}, {"rental_uris": {"android": "https://dc.lft.to/lastmile_qr_scan", "ios": "https://dc.lft.to/lastmile_qr_scan"}, "is_reserved": 0, "is_disabled": 0, "name": "2ac2d7bfd63f733a702819e98629caef", "bike_id": "2ac2d7bfd63f733a702819e98629caef", "fusion_lat": 0.0, "lon": -77.02089066666667, "type": "electric_scooter", "fusion_lon": 0.0, "lat": 38.92162183333333}, {"rental_uris": {"android": "https://dc.lft.to/lastmile_qr_scan", "ios": "https://dc.lft.to/lastmile_qr_scan"}, "is_reserved": 0, "is_disabled": 0, "name": "71490d5220bb1f45fee15ff2538ea053", "bike_id": "71490d5220bb1f45fee15ff2538ea053", "fusion_lat": 0.0, "lon": -77.23176183333334, "type": "electric_bike", "fusion_lon": 0.0, "lat": 38.92899083333333}, {"rental_uris": {"android": "https://dc.lft.to/lastmile_qr_scan", "ios": "https://dc.lft.to/lastmile_qr_scan"}, "is_reserved": 0, "is_disabled": 0, "name": "b1cde588a5b338fef7a4484f75dce138", "bike_id": "b1cde588a5b338fef7a4484f75dce138", "fusion_lat": 0.0, "lon": -77.07257033333333, "type": "electric_scooter", "fusion_lon": 0.0, "lat": 38.90782383333333}, {"rental_uris": {"android": "https://dc.lft.to/lastmile_qr_scan", "ios": "https://dc.lft.to/lastmile_qr_scan"}, "is_reserved": 0, "is_disabled": 0, "name": "09355fad9a20aefd641ebf6ff58011c2", "bike_id": "09355fad9a20aefd641ebf6ff58011c2", "fusion_lat": 0.0, "lon": -77.04082783333334, "type": "electric_scooter", "fusion_lon": 0.0, "lat": 38.9072635}, {"rental_uris": {"android": "https://dc.lft.to/lastmile_qr_scan", "ios": "https://dc.lft.to/lastmile_qr_scan"}, "is_reserved": 0, "is_disabled": 0, "name": "811ae38ab85cd894cb9da422a97cf63a", "bike_id": "811ae38ab85cd894cb9da422a97cf63a", "fusion_lat": 0.0, "lon": -77.01024433333333, "type": "electric_scooter", "fusion_lon": 0.0, "lat": 38.91402583333333}, {"rental_uris": {"android": "https://dc.lft.to/lastmile_qr_scan", "ios": "https://dc.lft.to/lastmile_qr_scan"}, "is_reserved": 0, "is_disabled": 0, "name": "c90d55e994a13935cb4627a292c8aed5", "bike_id": "c90d55e994a13935cb4627a292c8aed5", "fusion_lat": 0.0, "lon": -77.05343933333333, "type": "electric_scooter", "fusion_lon": 0.0, "lat": 38.90647633333333}, {"rental_uris": {"android": "https://dc.lft.to/lastmile_qr_scan", "ios": "https://dc.lft.to/lastmile_qr_scan"}, "is_reserved": 0, "is_disabled": 0, "name": "cee4e521ecf4cff8fdde747201441028", "bike_id": "cee4e521ecf4cff8fdde747201441028", "fusion_lat": 0.0, "lon": -77.0229365, "type": "electric_scooter", "fusion_lon": 0.0, "lat": 38.917289833333335}, {"rental_uris": {"android": "https://dc.lft.to/lastmile_qr_scan", "ios": "https://dc.lft.to/lastmile_qr_scan"}, "is_reserved": 0, "is_disabled": 0, "name": "aa000751b379b5988ed7d7e342de00c7", "bike_id": "aa000751b379b5988ed7d7e342de00c7", "fusion_lat": 0.0, "lon": -77.0567275, "type": "electric_scooter", "fusion_lon": 0.0, "lat": 38.92329216666667}, {"rental_uris": {"android": "https://dc.lft.to/lastmile_qr_scan", "ios": "https://dc.lft.to/lastmile_qr_scan"}, "is_reserved": 0, "is_disabled": 0, "name": "4f29c74fedcc52fde06e38d5dfc6fb8c", "bike_id": "4f29c74fedcc52fde06e38d5dfc6fb8c", "fusion_lat": 0.0, "lon": -77.02389916666667, "type": "electric_scooter", "fusion_lon": 0.0, "lat": 38.9196865}, {"rental_uris": {"android": "https://dc.lft.to/lastmile_qr_scan", "ios": "https://dc.lft.to/lastmile_qr_scan"}, "is_reserved": 0, "is_disabled": 0, "name": "897b20e94aaa5c542bebbccbc10cdb7f", "bike_id": "897b20e94aaa5c542bebbccbc10cdb7f", "fusion_lat": 0.0, "lon": -76.968413, "type": "electric_bike", "fusion_lon": 0.0, "lat": 38.9554005}, {"rental_uris": {"android": "https://dc.lft.to/lastmile_qr_scan", "ios": "https://dc.lft.to/lastmile_qr_scan"}, "is_reserved": 0, "is_disabled": 0, "name": "55d71211415ee3a5940b0cc97c80c4c0", "bike_id": "55d71211415ee3a5940b0cc97c80c4c0", "fusion_lat": 0.0, "lon": -77.0298615, "type": "electric_scooter", "fusion_lon": 0.0, "lat": 38.901499}, {"rental_uris": {"android": "https://dc.lft.to/lastmile_qr_scan", "ios": "https://dc.lft.to/lastmile_qr_scan"}, "is_reserved": 0, "is_disabled": 0, "name": "ea2a6380ad9eb017f28de5b71c901d9b", "bike_id": "ea2a6380ad9eb017f28de5b71c901d9b", "fusion_lat": 0.0, "lon": -76.9855735, "type": "electric_scooter", "fusion_lon": 0.0, "lat": 38.8961765}, {"rental_uris": {"android": "https://dc.lft.to/lastmile_qr_scan", "ios": "https://dc.lft.to/lastmile_qr_scan"}, "is_reserved": 0, "is_disabled": 0, "name": "d35dd9900e7ec2abf7aec50abff9e7fc", "bike_id": "d35dd9900e7ec2abf7aec50abff9e7fc", "fusion_lat": 0.0, "lon": -77.0276445, "type": "electric_scooter", "fusion_lon": 0.0, "lat": 38.95423066666667}, {"rental_uris": {"android": "https://dc.lft.to/lastmile_qr_scan", "ios": "https://dc.lft.to/lastmile_qr_scan"}, "is_reserved": 0, "is_disabled": 0, "name": "78cf6d7fde1ddd0f95f32d47bd1a2860", "bike_id": "78cf6d7fde1ddd0f95f32d47bd1a2860", "fusion_lat": 0.0, "lon": -77.034412, "type": "electric_scooter", "fusion_lon": 0.0, "lat": 38.909802166666665}, {"rental_uris": {"android": "https://dc.lft.to/lastmile_qr_scan", "ios": "https://dc.lft.to/lastmile_qr_scan"}, "is_reserved": 0, "is_disabled": 0, "name": "e3970b5403356e842c855abff5d679d1", "bike_id": "e3970b5403356e842c855abff5d679d1", "fusion_lat": 0.0, "lon": -77.040226, "type": "electric_scooter", "fusion_lon": 0.0, "lat": 38.89824333333333}, {"rental_uris": {"android": "https://dc.lft.to/lastmile_qr_scan", "ios": "https://dc.lft.to/lastmile_qr_scan"}, "is_reserved": 0, "is_disabled": 0, "name": "851f7958bc50cef0741fd30db850d15f", "bike_id": "851f7958bc50cef0741fd30db850d15f", "fusion_lat": 0.0, "lon": -77.0219375, "type": "electric_scooter", "fusion_lon": 0.0, "lat": 38.887308166666664}, {"rental_uris": {"android": "https://dc.lft.to/lastmile_qr_scan", "ios": "https://dc.lft.to/lastmile_qr_scan"}, "is_reserved": 0, "is_disabled": 0, "name": "866087211874fef6627419c8768a0b03", "bike_id": "866087211874fef6627419c8768a0b03", "fusion_lat": 0.0, "lon": -77.00347083333334, "type": "electric_scooter", "fusion_lon": 0.0, "lat": 38.87678616666667}, {"rental_uris": {"android": "https://dc.lft.to/lastmile_qr_scan", "ios": "https://dc.lft.to/lastmile_qr_scan"}, "is_reserved": 0, "is_disabled": 0, "name": "8e3b09e8dc262799d923e9690b7bc5cc", "bike_id": "8e3b09e8dc262799d923e9690b7bc5cc", "fusion_lat": 0.0, "lon": -77.02574766666666, "type": "electric_scooter", "fusion_lon": 0.0, "lat": 38.912656166666665}, {"rental_uris": {"android": "https://dc.lft.to/lastmile_qr_scan", "ios": "https://dc.lft.to/lastmile_qr_scan"}, "is_reserved": 0, "is_disabled": 0, "name": "5f71207b71c823a399ecb5b5040167f2", "bike_id": "5f71207b71c823a399ecb5b5040167f2", "fusion_lat": 0.0, "lon": -77.01863433333334, "type": "electric_scooter", "fusion_lon": 0.0, "lat": 38.97370566666667}, {"rental_uris": {"android": "https://dc.lft.to/lastmile_qr_scan", "ios": "https://dc.lft.to/lastmile_qr_scan"}, "is_reserved": 0, "is_disabled": 0, "name": "acbb1026d6116a1b2d33fde1759a3840", "bike_id": "acbb1026d6116a1b2d33fde1759a3840", "fusion_lat": 0.0, "lon": -77.03213783333334, "type": "electric_scooter", "fusion_lon": 0.0, "lat": 38.908952}, {"rental_uris": {"android": "https://dc.lft.to/lastmile_qr_scan", "ios": "https://dc.lft.to/lastmile_qr_scan"}, "is_reserved": 0, "is_disabled": 0, "name": "2a96745d3f312bd70e437e6fbe3ea3e4", "bike_id": "2a96745d3f312bd70e437e6fbe3ea3e4", "fusion_lat": 0.0, "lon": -76.96545383333333, "type": "electric_scooter", "fusion_lon": 0.0, "lat": 38.918587333333335}, {"rental_uris": {"android": "https://dc.lft.to/lastmile_qr_scan", "ios": "https://dc.lft.to/lastmile_qr_scan"}, "is_reserved": 0, "is_disabled": 0, "name": "6385eedbbc5eb3d6e5f7ebf3c9399d43", "bike_id": "6385eedbbc5eb3d6e5f7ebf3c9399d43", "fusion_lat": 0.0, "lon": -77.027702, "type": "electric_scooter", "fusion_lon": 0.0, "lat": 38.9341885}, {"rental_uris": {"android": "https://dc.lft.to/lastmile_qr_scan", "ios": "https://dc.lft.to/lastmile_qr_scan"}, "is_reserved": 0, "is_disabled": 0, "name": "e31d4eec0472776d870436aa12693c55", "bike_id": "e31d4eec0472776d870436aa12693c55", "fusion_lat": 0.0, "lon": -76.995401, "type": "electric_bike", "fusion_lon": 0.0, "lat": 38.95633183333333}, {"rental_uris": {"android": "https://dc.lft.to/lastmile_qr_scan", "ios": "https://dc.lft.to/lastmile_qr_scan"}, "is_reserved": 0, "is_disabled": 0, "name": "231b5425d824989f265d186e3e1fbdfe", "bike_id": "231b5425d824989f265d186e3e1fbdfe", "fusion_lat": 0.0, "lon": -77.02133, "type": "electric_scooter", "fusion_lon": 0.0, "lat": 38.92277416666667}, {"rental_uris": {"android": "https://dc.lft.to/lastmile_qr_scan", "ios": "https://dc.lft.to/lastmile_qr_scan"}, "is_reserved": 0, "is_disabled": 0, "name": "0763a574d82417e07ed38bb96490b674", "bike_id": "0763a574d82417e07ed38bb96490b674", "fusion_lat": 0.0, "lon": -77.00601866666666, "type": "electric_scooter", "fusion_lon": 0.0, "lat": 38.871847}, {"rental_uris": {"android": "https://dc.lft.to/lastmile_qr_scan", "ios": "https://dc.lft.to/lastmile_qr_scan"}, "is_reserved": 0, "is_disabled": 0, "name": "78144b44af5b578432766b765c04a966", "bike_id": "78144b44af5b578432766b765c04a966", "fusion_lat": 0.0, "lon": -77.03042133333334, "type": "electric_scooter", "fusion_lon": 0.0, "lat": 38.9508955}, {"rental_uris": {"android": "https://dc.lft.to/lastmile_qr_scan", "ios": "https://dc.lft.to/lastmile_qr_scan"}, "is_reserved": 0, "is_disabled": 0, "name": "8383d8571c16db1fdfbf0d9f002b595d", "bike_id": "8383d8571c16db1fdfbf0d9f002b595d", "fusion_lat": 0.0, "lon": -77.0068395, "type": "electric_scooter", "fusion_lon": 0.0, "lat": 38.9002995}, {"rental_uris": {"android": "https://dc.lft.to/lastmile_qr_scan", "ios": "https://dc.lft.to/lastmile_qr_scan"}, "is_reserved": 0, "is_disabled": 0, "name": "39844d59c89c3ae0921ff4ffc939870b", "bike_id": "39844d59c89c3ae0921ff4ffc939870b", "fusion_lat": 0.0, "lon": -76.96709383333334, "type": "electric_scooter", "fusion_lon": 0.0, "lat": 38.85972316666667}, {"rental_uris": {"android": "https://dc.lft.to/lastmile_qr_scan", "ios": "https://dc.lft.to/lastmile_qr_scan"}, "is_reserved": 0, "is_disabled": 0, "name": "7fe978e12a152d2aeb96e04742f57a02", "bike_id": "7fe978e12a152d2aeb96e04742f57a02", "fusion_lat": 0.0, "lon": -77.04234116666667, "type": "electric_scooter", "fusion_lon": 0.0, "lat": 38.9341495}, {"rental_uris": {"android": "https://dc.lft.to/lastmile_qr_scan", "ios": "https://dc.lft.to/lastmile_qr_scan"}, "is_reserved": 0, "is_disabled": 0, "name": "f11a43acf0bb853b3d03486a34280a09", "bike_id": "f11a43acf0bb853b3d03486a34280a09", "fusion_lat": 0.0, "lon": -77.04148133333334, "type": "electric_scooter", "fusion_lon": 0.0, "lat": 38.909056166666666}, {"rental_uris": {"android": "https://dc.lft.to/lastmile_qr_scan", "ios": "https://dc.lft.to/lastmile_qr_scan"}, "is_reserved": 0, "is_disabled": 0, "name": "e09fe8ec3ed6cf7d38ee285f9ef0587d", "bike_id": "e09fe8ec3ed6cf7d38ee285f9ef0587d", "fusion_lat": 0.0, "lon": -77.06947966666667, "type": "electric_bike", "fusion_lon": 0.0, "lat": 38.836335}, {"rental_uris": {"android": "https://dc.lft.to/lastmile_qr_scan", "ios": "https://dc.lft.to/lastmile_qr_scan"}, "is_reserved": 0, "is_disabled": 0, "name": "5b82f7fb38f9b9e1f6d8691b570ac04a", "bike_id": "5b82f7fb38f9b9e1f6d8691b570ac04a", "fusion_lat": 0.0, "lon": -77.03642616666667, "type": "electric_scooter", "fusion_lon": 0.0, "lat": 38.917368833333335}, {"rental_uris": {"android": "https://dc.lft.to/lastmile_qr_scan", "ios": "https://dc.lft.to/lastmile_qr_scan"}, "is_reserved": 0, "is_disabled": 0, "name": "e9d8f3a53c6b1b987add6f86295f581b", "bike_id": "e9d8f3a53c6b1b987add6f86295f581b", "fusion_lat": 0.0, "lon": -77.038103, "type": "electric_scooter", "fusion_lon": 0.0, "lat": 38.9068035}, {"rental_uris": {"android": "https://dc.lft.to/lastmile_qr_scan", "ios": "https://dc.lft.to/lastmile_qr_scan"}, "is_reserved": 0, "is_disabled": 0, "name": "1e086050f3b6795bc3252f7682d4382e", "bike_id": "1e086050f3b6795bc3252f7682d4382e", "fusion_lat": 0.0, "lon": -77.048861, "type": "electric_scooter", "fusion_lon": 0.0, "lat": 38.89884166666667}, {"rental_uris": {"android": "https://dc.lft.to/lastmile_qr_scan", "ios": "https://dc.lft.to/lastmile_qr_scan"}, "is_reserved": 0, "is_disabled": 0, "name": "b5d686e001a78c2f23e85fe57ad5a19c", "bike_id": "b5d686e001a78c2f23e85fe57ad5a19c", "fusion_lat": 0.0, "lon": -77.013532, "type": "electric_scooter", "fusion_lon": 0.0, "lat": 38.941945}, {"rental_uris": {"android": "https://dc.lft.to/lastmile_qr_scan", "ios": "https://dc.lft.to/lastmile_qr_scan"}, "is_reserved": 0, "is_disabled": 0, "name": "e6a2b22a08c41da41ecaef89c87be5fe", "bike_id": "e6a2b22a08c41da41ecaef89c87be5fe", "fusion_lat": 0.0, "lon": -77.00021066666666, "type": "electric_scooter", "fusion_lon": 0.0, "lat": 38.91982216666667}, {"rental_uris": {"android": "https://dc.lft.to/lastmile_qr_scan", "ios": "https://dc.lft.to/lastmile_qr_scan"}, "is_reserved": 0, "is_disabled": 0, "name": "7fbd8b55897ee687f4b2ab6f72aa3475", "bike_id": "7fbd8b55897ee687f4b2ab6f72aa3475", "fusion_lat": 0.0, "lon": -77.05825316666666, "type": "electric_scooter", "fusion_lon": 0.0, "lat": 38.935303166666664}, {"rental_uris": {"android": "https://dc.lft.to/lastmile_qr_scan", "ios": "https://dc.lft.to/lastmile_qr_scan"}, "is_reserved": 0, "is_disabled": 0, "name": "24ba74d3144e88b518642814be1ae3b3", "bike_id": "24ba74d3144e88b518642814be1ae3b3", "fusion_lat": 0.0, "lon": -77.024665, "type": "electric_scooter", "fusion_lon": 0.0, "lat": 38.957778166666664}, {"rental_uris": {"android": "https://dc.lft.to/lastmile_qr_scan", "ios": "https://dc.lft.to/lastmile_qr_scan"}, "is_reserved": 0, "is_disabled": 0, "name": "00db04776b0244b55a0798ba432d4716", "bike_id": "00db04776b0244b55a0798ba432d4716", "fusion_lat": 0.0, "lon": -77.0244645, "type": "electric_scooter", "fusion_lon": 0.0, "lat": 38.949777}, {"rental_uris": {"android": "https://dc.lft.to/lastmile_qr_scan", "ios": "https://dc.lft.to/lastmile_qr_scan"}, "is_reserved": 0, "is_disabled": 0, "name": "33ddd58cb16469f9b17edba7e2859956", "bike_id": "33ddd58cb16469f9b17edba7e2859956", "fusion_lat": 0.0, "lon": -77.0571095, "type": "electric_scooter", "fusion_lon": 0.0, "lat": 38.905538666666665}, {"rental_uris": {"android": "https://dc.lft.to/lastmile_qr_scan", "ios": "https://dc.lft.to/lastmile_qr_scan"}, "is_reserved": 0, "is_disabled": 0, "name": "b6142159f68755d94ce72261422263ca", "bike_id": "b6142159f68755d94ce72261422263ca", "fusion_lat": 0.0, "lon": -77.033686, "type": "electric_scooter", "fusion_lon": 0.0, "lat": 38.90049783333333}, {"rental_uris": {"android": "https://dc.lft.to/lastmile_qr_scan", "ios": "https://dc.lft.to/lastmile_qr_scan"}, "is_reserved": 0, "is_disabled": 0, "name": "2706cf653e92439c9e87df6351656cba", "bike_id": "2706cf653e92439c9e87df6351656cba", "fusion_lat": 0.0, "lon": -77.027143, "type": "electric_bike", "fusion_lon": 0.0, "lat": 38.896169}, {"rental_uris": {"android": "https://dc.lft.to/lastmile_qr_scan", "ios": "https://dc.lft.to/lastmile_qr_scan"},