{"data": {"bikes": [{"rental_uris": {"ios": "https://dc.lft.to/lastmile_qr_scan", "android": "https://dc.lft.to/lastmile_qr_scan"}, "lon": -77.00591266666666, "type": "electric_scooter", "fusion_lat": 0.0, "lat": 38.88026766666667, "name": "b49b19ec49ab208575adb7ae71d6d094", "fusion_lon": 0.0, "bike_id": "b49b19ec49ab208575adb7ae71d6d094", "is_disabled": 0, "is_reserved": 0}, {"rental_uris": {"ios": "https://dc.lft.to/lastmile_qr_scan", "android": "https://dc.lft.to/lastmile_qr_scan"}, "lon": -77.19906166666667, "type": "electric_bike", "fusion_lat": 0.0, "lat": 38.875283, "name": "a710ad48b23026891aa3654d9d23c0f0", "fusion_lon": 0.0, "bike_id": "a710ad48b23026891aa3654d9d23c0f0", "is_disabled": 0, "is_reserved": 0}, {"rental_uris": {"ios": "https://dc.lft.to/lastmile_qr_scan", "android": "https://dc.lft.to/lastmile_qr_scan"}, "lon": -76.93365283333333, "type": "electric_scooter", "fusion_lat": 0.0, "lat": 38.899164999999996, "name": "a2847c9d628f67c33f1f053f4f58faaf", "fusion_lon": 0.0, "bike_id": "a2847c9d628f67c33f1f053f4f58faaf", "is_disabled": 0, "is_reserved": 0}, {"rental_uris": {"ios": "https://dc.lft.to/lastmile_qr_scan", "android": "https://dc.lft.to/lastmile_qr_scan"}, "lon": -77.01786116666666, "type": "electric_scooter", "fusion_lat": 0.0, "lat": 38.90125366666667, "name": "7e342c6d4614ca7bc601981bc4823991", "fusion_lon": 0.0, "bike_id": "7e342c6d4614ca7bc601981bc4823991", "is_disabled": 0, "is_reserved": 0}, {"rental_uris": {"ios": "https://dc.lft.to/lastmile_qr_scan", "android": "https://dc.lft.to/lastmile_qr_scan"}, "lon": -77.117978, "type": "electric_bike", "fusion_lat": 0.0, "lat": 38.898343833333335, "name": "09506e505d8fdfded2a3cdf82ddd4112", "fusion_lon": 0.0, "bike_id": "09506e505d8fdfded2a3cdf82ddd4112", "is_disabled": 0, "is_reserved": 0}, {"rental_uris": {"ios": "https://dc.lft.to/lastmile_qr_scan", "android": "https://dc.lft.to/lastmile_qr_scan"}, "lon": -77.03204333333333, "type": "electric_scooter", "fusion_lat": 0.0, "lat": 38.91242066666667, "name": "94d00d9fd97c1aeedb7ac1a9afabef9d", "fusion_lon": 0.0, "bike_id": "94d00d9fd97c1aeedb7ac1a9afabef9d", "is_disabled": 0, "is_reserved": 0}, {"rental_uris": {"ios": "https://dc.lft.to/lastmile_qr_scan", "android": "https://dc.lft.to/lastmile_qr_scan"}, "lon": -77.03207666666667, "type": "electric_scooter", "fusion_lat": 0.0, "lat": 38.9002665, "name": "e5c6e386dda0592823b63bb0f1b1e8c6", "fusion_lon": 0.0, "bike_id": "e5c6e386dda0592823b63bb0f1b1e8c6", "is_disabled": 0, "is_reserved": 0}, {"rental_uris": {"ios": "https://dc.lft.to/lastmile_qr_scan", "android": "https://dc.lft.to/lastmile_qr_scan"}, "lon": -76.97457516666667, "type": "electric_scooter", "fusion_lat": 0.0, "lat": 38.865353666666664, "name": "20b624c9dfe6c1f4f054a3dfcab27c7f", "fusion_lon": 0.0, "bike_id": "20b624c9dfe6c1f4f054a3dfcab27c7f", "is_disabled": 0, "is_reserved": 0}, {"rental_uris": {"ios": "https://dc.lft.to/lastmile_qr_scan", "android": "https://dc.lft.to/lastmile_qr_scan"}, "lon": -77.00937366666666, "type": "electric_scooter", "fusion_lat": 0.0, "lat": 38.87193033333333, "name": "0495e0f9055e2ac11e643410fd0fb4aa", "fusion_lon": 0.0, "bike_id": "0495e0f9055e2ac11e643410fd0fb4aa", "is_disabled": 0, "is_reserved": 0}, {"rental_uris": {"ios": "https://dc.lft.to/lastmile_qr_scan", "android": "https://dc.lft.to/lastmile_qr_scan"}, "lon": -76.9906165, "type": "electric_scooter", "fusion_lat": 0.0, "lat": 38.863577, "name": "93f2431f32359fa26980c750d0848d80", "fusion_lon": 0.0, "bike_id": "93f2431f32359fa26980c750d0848d80", "is_disabled": 0, "is_reserved": 0}, {"rental_uris": {"ios": "https://dc.lft.to/lastmile_qr_scan", "android": "https://dc.lft.to/lastmile_qr_scan"}, "lon": -77.041631, "type": "electric_scooter", "fusion_lat": 0.0, "lat": 38.91612883333333, "name": "5c389f2c27aa3bc79674bc2adc28e37f", "fusion_lon": 0.0, "bike_id": "5c389f2c27aa3bc79674bc2adc28e37f", "is_disabled": 0, "is_reserved": 0}, {"rental_uris": {"ios": "https://dc.lft.to/lastmile_qr_scan", "android": "https://dc.lft.to/lastmile_qr_scan"}, "lon": -77.007578, "type": "electric_scooter", "fusion_lat": 0.0, "lat": 38.9073635, "name": "cb3cab75fccbeedbdf8f9f3dce6472f1", "fusion_lon": 0.0, "bike_id": "cb3cab75fccbeedbdf8f9f3dce6472f1", "is_disabled": 0, "is_reserved": 0}, {"rental_uris": {"ios": "https://dc.lft.to/lastmile_qr_scan", "android": "https://dc.lft.to/lastmile_qr_scan"}, "lon": -77.02962516666666, "type": "electric_scooter", "fusion_lat": 0.0, "lat": 38.9256585, "name": "5582fabd8b9b420d59131b4530fb9af4", "fusion_lon": 0.0, "bike_id": "5582fabd8b9b420d59131b4530fb9af4", "is_disabled": 0, "is_reserved": 0}, {"rental_uris": {"ios": "https://dc.lft.to/lastmile_qr_scan", "android": "https://dc.lft.to/lastmile_qr_scan"}, "lon": -77.01241816666666, "type": "electric_scooter", "fusion_lat": 0.0, "lat": 38.917093666666666, "name": "8974d7017c9ce8321db20badbf61524d", "fusion_lon": 0.0, "bike_id": "8974d7017c9ce8321db20badbf61524d", "is_disabled": 0, "is_reserved": 0}, {"rental_uris": {"ios": "https://dc.lft.to/lastmile_qr_scan", "android": "https://dc.lft.to/lastmile_qr_scan"}, "lon": -77.04163583333333, "type": "electric_scooter", "fusion_lat": 0.0, "lat": 38.90979383333333, "name": "99f547331610beef6396b701426e3da5", "fusion_lon": 0.0, "bike_id": "99f547331610beef6396b701426e3da5", "is_disabled": 0, "is_reserved": 0}, {"rental_uris": {"ios": "https://dc.lft.to/lastmile_qr_scan", "android": "https://dc.lft.to/lastmile_qr_scan"}, "lon": -77.05228766666667, "type": "electric_scooter", "fusion_lat": 0.0, "lat": 38.898062333333336, "name": "aa4d9273214882bff6ba10e4b20cc7a3", "fusion_lon": 0.0, "bike_id": "aa4d9273214882bff6ba10e4b20cc7a3", "is_disabled": 0, "is_reserved": 0}, {"rental_uris": {"ios": "https://dc.lft.to/lastmile_qr_scan", "android": "https://dc.lft.to/lastmile_qr_scan"}, "lon": -77.05980633333333, "type": "electric_scooter", "fusion_lat": 0.0, "lat": 38.935444333333336, "name": "e499bcb34e16c79c545d4b395bcdf6dd", "fusion_lon": 0.0, "bike_id": "e499bcb34e16c79c545d4b395bcdf6dd", "is_disabled": 0, "is_reserved": 0}, {"rental_uris": {"ios": "https://dc.lft.to/lastmile_qr_scan", "android": "https://dc.lft.to/lastmile_qr_scan"}, "lon": -77.015129, "type": "electric_scooter", "fusion_lat": 0.0, "lat": 38.88736983333333, "name": "c48ba2734b624dbf3fd9e7fc8846eafd", "fusion_lon": 0.0, "bike_id": "c48ba2734b624dbf3fd9e7fc8846eafd", "is_disabled": 0, "is_reserved": 0}, {"rental_uris": {"ios": "https://dc.lft.to/lastmile_qr_scan", "android": "https://dc.lft.to/lastmile_qr_scan"}, "lon": -77.02696666666667, "type": "electric_scooter", "fusion_lat": 0.0, "lat": 38.916274666666666, "name": "fb361c5e10eb0f20898a2ba464101a20", "fusion_lon": 0.0, "bike_id": "fb361c5e10eb0f20898a2ba464101a20", "is_disabled": 0, "is_reserved": 0}, {"rental_uris": {"ios": "https://dc.lft.to/lastmile_qr_scan", "android": "https://dc.lft.to/lastmile_qr_scan"}, "lon": -76.98787583333333, "type": "electric_bike", "fusion_lat": 0.0, "lat": 38.9041535, "name": "139876b95e46836a81c76dd6614e5930", "fusion_lon": 0.0, "bike_id": "139876b95e46836a81c76dd6614e5930", "is_disabled": 0, "is_reserved": 0}, {"rental_uris": {"ios": "https://dc.lft.to/lastmile_qr_scan", "android": "https://dc.lft.to/lastmile_qr_scan"}, "lon": -76.95463016666666, "type": "electric_bike", "fusion_lat": 0.0, "lat": 38.8864095, "name": "6cddeded26e996603a8b42c6ab6a9b83", "fusion_lon": 0.0, "bike_id": "6cddeded26e996603a8b42c6ab6a9b83", "is_disabled": 0, "is_reserved": 0}, {"rental_uris": {"ios": "https://dc.lft.to/lastmile_qr_scan", "android": "https://dc.lft.to/lastmile_qr_scan"}, "lon": -76.93174133333333, "type": "electric_scooter", "fusion_lat": 0.0, "lat": 38.89883716666667, "name": "4f8148579dfaca1a370aee8cb1fb0346", "fusion_lon": 0.0, "bike_id": "4f8148579dfaca1a370aee8cb1fb0346", "is_disabled": 0, "is_reserved": 0}, {"rental_uris": {"ios": "https://dc.lft.to/lastmile_qr_scan", "android": "https://dc.lft.to/lastmile_qr_scan"}, "lon": -77.01370466666667, "type": "electric_scooter", "fusion_lat": 0.0, "lat": 38.886503, "name": "9ba4c46df8b02b4a18da1b9e6ead19b9", "fusion_lon": 0.0, "bike_id": "9ba4c46df8b02b4a18da1b9e6ead19b9", "is_disabled": 0, "is_reserved": 0}, {"rental_uris": {"ios": "https://dc.lft.to/lastmile_qr_scan", "android": "https://dc.lft.to/lastmile_qr_scan"}, "lon": -77.04287816666667, "type": "electric_scooter", "fusion_lat": 0.0, "lat": 38.89532416666667, "name": "246cda87bbfcc9bbc62e1a18f21fb162", "fusion_lon": 0.0, "bike_id": "246cda87bbfcc9bbc62e1a18f21fb162", "is_disabled": 0, "is_reserved": 0}, {"rental_uris": {"ios": "https://dc.lft.to/lastmile_qr_scan", "android": "https://dc.lft.to/lastmile_qr_scan"}, "lon": -77.05788933333334, "type": "electric_scooter", "fusion_lat": 0.0, "lat": 38.934754833333336, "name": "9888150dbaa22321e2c37648239818fe", "fusion_lon": 0.0, "bike_id": "9888150dbaa22321e2c37648239818fe", "is_disabled": 0, "is_reserved": 0}, {"rental_uris": {"ios": "https://dc.lft.to/lastmile_qr_scan", "android": "https://dc.lft.to/lastmile_qr_scan"}, "lon": -77.08200433333333, "type": "electric_bike", "fusion_lat": 0.0, "lat": 38.92203083333333, "name": "17416100171c11db5ec5221b3d10133b", "fusion_lon": 0.0, "bike_id": "17416100171c11db5ec5221b3d10133b", "is_disabled": 0, "is_reserved": 0}, {"rental_uris": {"ios": "https://dc.lft.to/lastmile_qr_scan", "android": "https://dc.lft.to/lastmile_qr_scan"}, "lon": -77.04893366666667, "type": "electric_scooter", "fusion_lat": 0.0, "lat": 38.90594183333333, "name": "63d1143774976c1d2bbb548953fb6d08", "fusion_lon": 0.0, "bike_id": "63d1143774976c1d2bbb548953fb6d08", "is_disabled": 0, "is_reserved": 0}, {"rental_uris": {"ios": "https://dc.lft.to/lastmile_qr_scan", "android": "https://dc.lft.to/lastmile_qr_scan"}, "lon": -77.0019365, "type": "electric_scooter", "fusion_lat": 0.0, "lat": 38.900361, "name": "ff076321e8d2cc21e47e97f43aa81df6", "fusion_lon": 0.0, "bike_id": "ff076321e8d2cc21e47e97f43aa81df6", "is_disabled": 0, "is_reserved": 0}, {"rental_uris": {"ios": "https://dc.lft.to/lastmile_qr_scan", "android": "https://dc.lft.to/lastmile_qr_scan"}, "lon": -77.01120366666666, "type": "electric_scooter", "fusion_lat": 0.0, "lat": 38.903497, "name": "85a78503bcc8ab43c1382e9f83890450", "fusion_lon": 0.0, "bike_id": "85a78503bcc8ab43c1382e9f83890450", "is_disabled": 0, "is_reserved": 0}, {"rental_uris": {"ios": "https://dc.lft.to/lastmile_qr_scan", "android": "https://dc.lft.to/lastmile_qr_scan"}, "lon": -76.95183416666667, "type": "electric_bike", "fusion_lat": 0.0, "lat": 38.90681333333333, "name": "2b0666e3cbbfaf3c8942fa057deb60c3", "fusion_lon": 0.0, "bike_id": "2b0666e3cbbfaf3c8942fa057deb60c3", "is_disabled": 0, "is_reserved": 0}, {"rental_uris": {"ios": "https://dc.lft.to/lastmile_qr_scan", "android": "https://dc.lft.to/lastmile_qr_scan"}, "lon": -77.06311866666667, "type": "electric_scooter", "fusion_lat": 0.0, "lat": 38.9437145, "name": "c3da78707ba517d022f6ae7003cdfe0a", "fusion_lon": 0.0, "bike_id": "c3da78707ba517d022f6ae7003cdfe0a", "is_disabled": 0, "is_reserved": 0}, {"rental_uris": {"ios": "https://dc.lft.to/lastmile_qr_scan", "android": "https://dc.lft.to/lastmile_qr_scan"}, "lon": -77.03676033333333, "type": "electric_scooter", "fusion_lat": 0.0, "lat": 38.9186735, "name": "a6be30fa6caaf34011eb1890ad21237c", "fusion_lon": 0.0, "bike_id": "a6be30fa6caaf34011eb1890ad21237c", "is_disabled": 0, "is_reserved": 0}, {"rental_uris": {"ios": "https://dc.lft.to/lastmile_qr_scan", "android": "https://dc.lft.to/lastmile_qr_scan"}, "lon": -77.04421016666667, "type": "electric_scooter", "fusion_lat": 0.0, "lat": 38.91313533333334, "name": "defae4d3edf31b4ee6a5e59ef61c2dbd", "fusion_lon": 0.0, "bike_id": "defae4d3edf31b4ee6a5e59ef61c2dbd", "is_disabled": 0, "is_reserved": 0}, {"rental_uris": {"ios": "https://dc.lft.to/lastmile_qr_scan", "android": "https://dc.lft.to/lastmile_qr_scan"}, "lon": -76.95901266666667, "type": "electric_scooter", "fusion_lat": 0.0, "lat": 38.926891, "name": "4110e8afda259d896dfceee542057723", "fusion_lon": 0.0, "bike_id": "4110e8afda259d896dfceee542057723", "is_disabled": 0, "is_reserved": 0}, {"rental_uris": {"ios": "https://dc.lft.to/lastmile_qr_scan", "android": "https://dc.lft.to/lastmile_qr_scan"}, "lon": -77.02582266666667, "type": "electric_scooter", "fusion_lat": 0.0, "lat": 38.882302, "name": "900ffdd18c978ac372a87512a966cff2", "fusion_lon": 0.0, "bike_id": "900ffdd18c978ac372a87512a966cff2", "is_disabled": 0, "is_reserved": 0}, {"rental_uris": {"ios": "https://dc.lft.to/lastmile_qr_scan", "android": "https://dc.lft.to/lastmile_qr_scan"}, "lon": -76.99521316666667, "type": "electric_scooter", "fusion_lat": 0.0, "lat": 38.86258, "name": "83e513f34c94fb61b7a53b4e62bbf10a", "fusion_lon": 0.0, "bike_id": "83e513f34c94fb61b7a53b4e62bbf10a", "is_disabled": 0, "is_reserved": 0}, {"rental_uris": {"ios": "https://dc.lft.to/lastmile_qr_scan", "android": "https://dc.lft.to/lastmile_qr_scan"}, "lon": -77.01086133333334, "type": "electric_scooter", "fusion_lat": 0.0, "lat": 38.916323166666665, "name": "d546c6b7c37055e109fda4ec93b824b3", "fusion_lon": 0.0, "bike_id": "d546c6b7c37055e109fda4ec93b824b3", "is_disabled": 0, "is_reserved": 0}, {"rental_uris": {"ios": "https://dc.lft.to/lastmile_qr_scan", "android": "https://dc.lft.to/lastmile_qr_scan"}, "lon": -77.04273483333333, "type": "electric_scooter", "fusion_lat": 0.0, "lat": 38.9169135, "name": "2d56a827ed38e15742b8509249678c66", "fusion_lon": 0.0, "bike_id": "2d56a827ed38e15742b8509249678c66", "is_disabled": 0, "is_reserved": 0}, {"rental_uris": {"ios": "https://dc.lft.to/lastmile_qr_scan", "android": "https://dc.lft.to/lastmile_qr_scan"}, "lon": -77.00410133333334, "type": "electric_scooter", "fusion_lat": 0.0, "lat": 38.87926683333333, "name": "63cc8405aa7324f0e583e60ecea462a6", "fusion_lon": 0.0, "bike_id": "63cc8405aa7324f0e583e60ecea462a6", "is_disabled": 0, "is_reserved": 0}, {"rental_uris": {"ios": "https://dc.lft.to/lastmile_qr_scan", "android": "https://dc.lft.to/lastmile_qr_scan"}, "lon": -77.02978416666667, "type": "electric_scooter", "fusion_lat": 0.0, "lat": 38.96226883333333, "name": "01eb85495102e3f857dbed7d56cdc649", "fusion_lon": 0.0, "bike_id": "01eb85495102e3f857dbed7d56cdc649", "is_disabled": 0, "is_reserved": 0}, {"rental_uris": {"ios": "https://dc.lft.to/lastmile_qr_scan", "android": "https://dc.lft.to/lastmile_qr_scan"}, "lon": -77.0180485, "type": "electric_scooter", "fusion_lat": 0.0, "lat": 38.94199183333333, "name": "a833fa55780f0f90414184a95e0b711f", "fusion_lon": 0.0, "bike_id": "a833fa55780f0f90414184a95e0b711f", "is_disabled": 0, "is_reserved": 0}, {"rental_uris": {"ios": "https://dc.lft.to/lastmile_qr_scan", "android": "https://dc.lft.to/lastmile_qr_scan"}, "lon": -77.03643666666666, "type": "electric_scooter", "fusion_lat": 0.0, "lat": 38.917293666666666, "name": "1585b7f9a39d279f8a5ff70d1fa2c817", "fusion_lon": 0.0, "bike_id": "1585b7f9a39d279f8a5ff70d1fa2c817", "is_disabled": 0, "is_reserved": 0}, {"rental_uris": {"ios": "https://dc.lft.to/lastmile_qr_scan", "android": "https://dc.lft.to/lastmile_qr_scan"}, "lon": -77.05143383333333, "type": "electric_scooter", "fusion_lat": 0.0, "lat": 38.9023605, "name": "c78e8634266461f744155dfd275681bb", "fusion_lon": 0.0, "bike_id": "c78e8634266461f744155dfd275681bb", "is_disabled": 0, "is_reserved": 0}, {"rental_uris": {"ios": "https://dc.lft.to/lastmile_qr_scan", "android": "https://dc.lft.to/lastmile_qr_scan"}, "lon": -77.032561, "type": "electric_scooter", "fusion_lat": 0.0, "lat": 38.93873116666666, "name": "b4770f68bbd9d45fd42e24b9549f3875", "fusion_lon": 0.0, "bike_id": "b4770f68bbd9d45fd42e24b9549f3875", "is_disabled": 0, "is_reserved": 0}, {"rental_uris": {"ios": "https://dc.lft.to/lastmile_qr_scan", "android": "https://dc.lft.to/lastmile_qr_scan"}, "lon": -77.0353545, "type": "electric_scooter", "fusion_lat": 0.0, "lat": 38.92410666666667, "name": "72be4acf08c5bde075e99947d6b8d7d9", "fusion_lon": 0.0, "bike_id": "72be4acf08c5bde075e99947d6b8d7d9", "is_disabled": 0, "is_reserved": 0}, {"rental_uris": {"ios": "https://dc.lft.to/lastmile_qr_scan", "android": "https://dc.lft.to/lastmile_qr_scan"}, "lon": -77.02811516666667, "type": "electric_scooter", "fusion_lat": 0.0, "lat": 38.8817705, "name": "e6e37966213732aa150f200456615794", "fusion_lon": 0.0, "bike_id": "e6e37966213732aa150f200456615794", "is_disabled": 0, "is_reserved": 0}, {"rental_uris": {"ios": "https://dc.lft.to/lastmile_qr_scan", "android": "https://dc.lft.to/lastmile_qr_scan"}, "lon": -77.01062816666666, "type": "electric_scooter", "fusion_lat": 0.0, "lat": 38.90736033333334, "name": "9b58dd65faa071436f08b0ec9f700618", "fusion_lon": 0.0, "bike_id": "9b58dd65faa071436f08b0ec9f700618", "is_disabled": 0, "is_reserved": 0}, {"rental_uris": {"ios": "https://dc.lft.to/lastmile_qr_scan", "android": "https://dc.lft.to/lastmile_qr_scan"}, "lon": -77.03173133333334, "type": "electric_scooter", "fusion_lat": 0.0, "lat": 38.91927166666667, "name": "f90c12eb03f4f03000cf29185901a355", "fusion_lon": 0.0, "bike_id": "f90c12eb03f4f03000cf29185901a355", "is_disabled": 0, "is_reserved": 0}, {"rental_uris": {"ios": "https://dc.lft.to/lastmile_qr_scan", "android": "https://dc.lft.to/lastmile_qr_scan"}, "lon": -77.02914466666667, "type": "electric_scooter", "fusion_lat": 0.0, "lat": 38.8955005, "name": "d0829fc7ac739e265d9a7cca2e9d6064", "fusion_lon": 0.0, "bike_id": "d0829fc7ac739e265d9a7cca2e9d6064", "is_disabled": 0, "is_reserved": 0}, {"rental_uris": {"ios": "https://dc.lft.to/lastmile_qr_scan", "android": "https://dc.lft.to/lastmile_qr_scan"}, "lon": -77.00843866666666, "type": "electric_bike", "fusion_lat": 0.0, "lat": 38.949204, "name": "9c1b93153fb8239a1a5bc69057895a9f", "fusion_lon": 0.0, "bike_id": "9c1b93153fb8239a1a5bc69057895a9f", "is_disabled": 0, "is_reserved": 0}, {"rental_uris": {"ios": "https://dc.lft.to/lastmile_qr_scan", "android": "https://dc.lft.to/lastmile_qr_scan"}, "lon": -77.0168285, "type": "electric_bike", "fusion_lat": 0.0, "lat": 38.930741833333336, "name": "41d63ae8d98e1a8c4a5ca99b7e4fd214", "fusion_lon": 0.0, "bike_id": "41d63ae8d98e1a8c4a5ca99b7e4fd214", "is_disabled": 0, "is_reserved": 0}, {"rental_uris": {"ios": "https://dc.lft.to/lastmile_qr_scan", "android": "https://dc.lft.to/lastmile_qr_scan"}, "lon": -77.02970666666667, "type": "electric_scooter", "fusion_lat": 0.0, "lat": 38.8971015, "name": "5ae0f7aa27b89b89a580a040f088a463", "fusion_lon": 0.0, "bike_id": "5ae0f7aa27b89b89a580a040f088a463", "is_disabled": 0, "is_reserved": 0}, {"rental_uris": {"ios": "https://dc.lft.to/lastmile_qr_scan", "android": "https://dc.lft.to/lastmile_qr_scan"}, "lon": -77.03986, "type": "electric_scooter", "fusion_lat": 0.0, "lat": 38.892174833333335, "name": "d08e6c8c1f6b8caf2db841770361e5a0", "fusion_lon": 0.0, "bike_id": "d08e6c8c1f6b8caf2db841770361e5a0", "is_disabled": 0, "is_reserved": 0}, {"rental_uris": {"ios": "https://dc.lft.to/lastmile_qr_scan", "android": "https://dc.lft.to/lastmile_qr_scan"}, "lon": -77.02198716666666, "type": "electric_scooter", "fusion_lat": 0.0, "lat": 38.929998499999996, "name": "3230050f8d77214c1ffe11b2babcd103", "fusion_lon": 0.0, "bike_id": "3230050f8d77214c1ffe11b2babcd103", "is_disabled": 0, "is_reserved": 0}, {"rental_uris": {"ios": "https://dc.lft.to/lastmile_qr_scan", "android": "https://dc.lft.to/lastmile_qr_scan"}, "lon": -77.04688816666666, "type": "electric_scooter", "fusion_lat": 0.0, "lat": 38.89220783333333, "name": "8df92067beb38e5202d9d02543bf983a", "fusion_lon": 0.0, "bike_id": "8df92067beb38e5202d9d02543bf983a", "is_disabled": 0, "is_reserved": 0}, {"rental_uris": {"ios": "https://dc.lft.to/lastmile_qr_scan", "android": "https://dc.lft.to/lastmile_qr_scan"}, "lon": -76.994905, "type": "electric_scooter", "fusion_lat": 0.0, "lat": 38.92265066666667, "name": "578b0742e732fb6720d386d3328c8891", "fusion_lon": 0.0, "bike_id": "578b0742e732fb6720d386d3328c8891", "is_disabled": 0, "is_reserved": 0}, {"rental_uris": {"ios": "https://dc.lft.to/lastmile_qr_scan", "android": "https://dc.lft.to/lastmile_qr_scan"}, "lon": -77.04832666666667, "type": "electric_scooter", "fusion_lat": 0.0, "lat": 38.92033433333334, "name": "792729f099dea0775054ca5dc6cc9b85", "fusion_lon": 0.0, "bike_id": "792729f099dea0775054ca5dc6cc9b85", "is_disabled": 0, "is_reserved": 0}, {"rental_uris": {"ios": "https://dc.lft.to/lastmile_qr_scan", "android": "https://dc.lft.to/lastmile_qr_scan"}, "lon": -76.990787, "type": "electric_scooter", "fusion_lat": 0.0, "lat": 38.89348916666667, "name": "5ae6e9ef3a956ce91ba88b64ba914b35", "fusion_lon": 0.0, "bike_id": "5ae6e9ef3a956ce91ba88b64ba914b35", "is_disabled": 0, "is_reserved": 0}, {"rental_uris": {"ios": "https://dc.lft.to/lastmile_qr_scan", "android": "https://dc.lft.to/lastmile_qr_scan"}, "lon": -77.027035, "type": "electric_scooter", "fusion_lat": 0.0, "lat": 38.90355783333333, "name": "b17f336363223d10b26a22c6fc4681a4", "fusion_lon": 0.0, "bike_id": "b17f336363223d10b26a22c6fc4681a4", "is_disabled": 0, "is_reserved": 0}, {"rental_uris": {"ios": "https://dc.lft.to/lastmile_qr_scan", "android": "https://dc.lft.to/lastmile_qr_scan"}, "lon": -77.01967983333333, "type": "electric_scooter", "fusion_lat": 0.0, "lat": 38.934112166666665, "name": "46e39bb1be8f7666ac80236da2876452", "fusion_lon": 0.0, "bike_id": "46e39bb1be8f7666ac80236da2876452", "is_disabled": 0, "is_reserved": 0}, {"rental_uris": {"ios": "https://dc.lft.to/lastmile_qr_scan", "android": "https://dc.lft.to/lastmile_qr_scan"}, "lon": -77.02203283333333, "type": "electric_scooter", "fusion_lat": 0.0, "lat": 38.89765333333333, "name": "6d86710513582d11fa4ccead652f42d3", "fusion_lon": 0.0, "bike_id": "6d86710513582d11fa4ccead652f42d3", "is_disabled": 0, "is_reserved": 0}, {"rental_uris": {"ios": "https://dc.lft.to/lastmile_qr_scan", "android": "https://dc.lft.to/lastmile_qr_scan"}, "lon": -77.03279733333333, "type": "electric_scooter", "fusion_lat": 0.0, "lat": 38.938959, "name": "aa4a56a2e7ca6a4c551be86a4ca65005", "fusion_lon": 0.0, "bike_id": "aa4a56a2e7ca6a4c551be86a4ca65005", "is_disabled": 0, "is_reserved": 0}, {"rental_uris": {"ios": "https://dc.lft.to/lastmile_qr_scan", "android": "https://dc.lft.to/lastmile_qr_scan"}, "lon": -76.98161283333333, "type": "electric_scooter", "fusion_lat": 0.0, "lat": 38.932969666666665, "name": "06bfb27059babc5bd0822b7a34065ed1", "fusion_lon": 0.0, "bike_id": "06bfb27059babc5bd0822b7a34065ed1", "is_disabled": 0, "is_reserved": 0}, {"rental_uris": {"ios": "https://dc.lft.to/lastmile_qr_scan", "android": "https://dc.lft.to/lastmile_qr_scan"}, "lon": -77.03987616666667, "type": "electric_scooter", "fusion_lat": 0.0, "lat": 38.9176055, "name": "ce7452d25ea0356c1142a6ef307f22e2", "fusion_lon": 0.0, "bike_id": "ce7452d25ea0356c1142a6ef307f22e2", "is_disabled": 0, "is_reserved": 0}, {"rental_uris": {"ios": "https://dc.lft.to/lastmile_qr_scan", "android": "https://dc.lft.to/lastmile_qr_scan"}, "lon": -77.04676233333333, "type": "electric_scooter", "fusion_lat": 0.0, "lat": 38.90066133333333, "name": "a563ccb770237abc464844e276ac91cc", "fusion_lon": 0.0, "bike_id": "a563ccb770237abc464844e276ac91cc", "is_disabled": 0, "is_reserved": 0}, {"rental_uris": {"ios": "https://dc.lft.to/lastmile_qr_scan", "android": "https://dc.lft.to/lastmile_qr_scan"}, "lon": -76.90443416666666, "type": "electric_bike", "fusion_lat": 0.0, "lat": 38.89777433333333, "name": "23f0f50ff6fed02020023ea79e2aba75", "fusion_lon": 0.0, "bike_id": "23f0f50ff6fed02020023ea79e2aba75", "is_disabled": 0, "is_reserved": 0}, {"rental_uris": {"ios": "https://dc.lft.to/lastmile_qr_scan", "android": "https://dc.lft.to/lastmile_qr_scan"}, "lon": -77.04355083333333, "type": "electric_scooter", "fusion_lat": 0.0, "lat": 38.923426166666665, "name": "010c5ce505c9d582c39329805f5ad24a", "fusion_lon": 0.0, "bike_id": "010c5ce505c9d582c39329805f5ad24a", "is_disabled": 0, "is_reserved": 0}, {"rental_uris": {"ios": "https://dc.lft.to/lastmile_qr_scan", "android": "https://dc.lft.to/lastmile_qr_scan"}, "lon": -76.989947, "type": "electric_scooter", "fusion_lat": 0.0, "lat": 38.90388316666667, "name": "fe8e00db43c00c2aa4b0e385f67be66d", "fusion_lon": 0.0, "bike_id": "fe8e00db43c00c2aa4b0e385f67be66d", "is_disabled": 0, "is_reserved": 0}, {"rental_uris": {"ios": "https://dc.lft.to/lastmile_qr_scan", "android": "https://dc.lft.to/lastmile_qr_scan"}, "lon": -77.0283855, "type": "electric_scooter", "fusion_lat": 0.0, "lat": 38.9285655, "name": "b7da6c9f64754d4853cdeb926102817b", "fusion_lon": 0.0, "bike_id": "b7da6c9f64754d4853cdeb926102817b", "is_disabled": 0, "is_reserved": 0}, {"rental_uris": {"ios": "https://dc.lft.to/lastmile_qr_scan", "android": "https://dc.lft.to/lastmile_qr_scan"}, "lon": -77.0101595, "type": "electric_scooter", "fusion_lat": 0.0, "lat": 38.91810383333333, "name": "87a6900feef01f37f52e5bc6ebeb33d3", "fusion_lon": 0.0, "bike_id": "87a6900feef01f37f52e5bc6ebeb33d3", "is_disabled": 0, "is_reserved": 0}, {"rental_uris": {"ios": "https://dc.lft.to/lastmile_qr_scan", "android": "https://dc.lft.to/lastmile_qr_scan"}, "lon": -77.0246465, "type": "electric_scooter", "fusion_lat": 0.0, "lat": 38.937123166666666, "name": "63eecef96b9512c1e607351fc8433124", "fusion_lon": 0.0, "bike_id": "63eecef96b9512c1e607351fc8433124", "is_disabled": 0, "is_reserved": 0}, {"rental_uris": {"ios": "https://dc.lft.to/lastmile_qr_scan", "android": "https://dc.lft.to/lastmile_qr_scan"}, "lon": -77.03562533333333, "type": "electric_scooter", "fusion_lat": 0.0, "lat": 38.9274355, "name": "37c5eff1cfee8a5050359cc5d3bdf83b", "fusion_lon": 0.0, "bike_id": "37c5eff1cfee8a5050359cc5d3bdf83b", "is_disabled": 0, "is_reserved": 0}, {"rental_uris": {"ios": "https://dc.lft.to/lastmile_qr_scan", "android": "https://dc.lft.to/lastmile_qr_scan"}, "lon": -77.0537535, "type": "electric_scooter", "fusion_lat": 0.0, "lat": 38.90248233333333, "name": "ba08f777540843d78f17e3cb56484b61", "fusion_lon": 0.0, "bike_id": "ba08f777540843d78f17e3cb56484b61", "is_disabled": 0, "is_reserved": 0}, {"rental_uris": {"ios": "https://dc.lft.to/lastmile_qr_scan", "android": "https://dc.lft.to/lastmile_qr_scan"}, "lon": -77.03552866666666, "type": "electric_scooter", "fusion_lat": 0.0, "lat": 38.908388333333335, "name": "f0b956cb737aaa5a94b5822cc35f9d2d", "fusion_lon": 0.0, "bike_id": "f0b956cb737aaa5a94b5822cc35f9d2d", "is_disabled": 0, "is_reserved": 0}, {"rental_uris": {"ios": "https://dc.lft.to/lastmile_qr_scan", "android": "https://dc.lft.to/lastmile_qr_scan"}, "lon": -77.03198033333334, "type": "electric_scooter", "fusion_lat": 0.0, "lat": 38.89945766666666, "name": "5ba6a21f1c4ae0410d9e72592adb6a7e", "fusion_lon": 0.0, "bike_id": "5ba6a21f1c4ae0410d9e72592adb6a7e", "is_disabled": 0, "is_reserved": 0}, {"rental_uris": {"ios": "https://dc.lft.to/lastmile_qr_scan", "android": "https://dc.lft.to/lastmile_qr_scan"}, "lon": -77.02673583333333, "type": "electric_scooter", "fusion_lat": 0.0, "lat": 38.91696316666667, "name": "9f390f04e927a303826a8748ad0a3b26", "fusion_lon": 0.0, "bike_id": "9f390f04e927a303826a8748ad0a3b26", "is_disabled": 0, "is_reserved": 0}, {"rental_uris": {"ios": "https://dc.lft.to/lastmile_qr_scan", "android": "https://dc.lft.to/lastmile_qr_scan"}, "lon": -76.98883883333333, "type": "electric_scooter", "fusion_lat": 0.0, "lat": 38.83218983333333, "name": "3db7402139702039479a40014a2097ef", "fusion_lon": 0.0, "bike_id": "3db7402139702039479a40014a2097ef", "is_disabled": 0, "is_reserved": 0}, {"rental_uris": {"ios": "https://dc.lft.to/lastmile_qr_scan", "android": "https://dc.lft.to/lastmile_qr_scan"}, "lon": -77.0168305, "type": "electric_bike", "fusion_lat": 0.0, "lat": 38.97518983333333, "name": "2c7739e6b6558427fe3090e38bd03e73", "fusion_lon": 0.0, "bike_id": "2c7739e6b6558427fe3090e38bd03e73", "is_disabled": 0, "is_reserved": 0}, {"rental_uris": {"ios": "https://dc.lft.to/lastmile_qr_scan", "android": "https://dc.lft.to/lastmile_qr_scan"}, "lon": -76.992762, "type": "electric_scooter", "fusion_lat": 0.0, "lat": 38.921316166666664, "name": "247d9612cbe54b6f68f98572baac7be4", "fusion_lon": 0.0, "bike_id": "247d9612cbe54b6f68f98572baac7be4", "is_disabled": 0, "is_reserved": 0}, {"rental_uris": {"ios": "https://dc.lft.to/lastmile_qr_scan", "android": "https://dc.lft.to/lastmile_qr_scan"}, "lon": -77.06400233333333, "type": "electric_bike", "fusion_lat": 0.0, "lat": 38.843449166666666, "name": "a9284d2dcc219059a6c92542fb6be513", "fusion_lon": 0.0, "bike_id": "a9284d2dcc219059a6c92542fb6be513", "is_disabled": 0, "is_reserved": 0}, {"rental_uris": {"ios": "https://dc.lft.to/lastmile_qr_scan", "android": "https://dc.lft.to/lastmile_qr_scan"}, "lon": -77.0318405, "type": "electric_scooter", "fusion_lat": 0.0, "lat": 38.9084605, "name": "41de9411ace2879a5db92046177f1cd3", "fusion_lon": 0.0, "bike_id": "41de9411ace2879a5db92046177f1cd3", "is_disabled": 0, "is_reserved": 0}, {"rental_uris": {"ios": "https://dc.lft.to/lastmile_qr_scan", "android": "https://dc.lft.to/lastmile_qr_scan"}, "lon": -77.0481705, "type": "electric_scooter", "fusion_lat": 0.0, "lat": 38.92036133333333, "name": "89dcb0a33eb14664297d4cdfbe6ed132", "fusion_lon": 0.0, "bike_id": "89dcb0a33eb14664297d4cdfbe6ed132", "is_disabled": 0, "is_reserved": 0}, {"rental_uris": {"ios": "https://dc.lft.to/lastmile_qr_scan", "android": "https://dc.lft.to/lastmile_qr_scan"}, "lon": -77.0371605, "type": "electric_scooter", "fusion_lat": 0.0, "lat": 38.91042216666666, "name": "d9f1708cd7cdfdef7f54e6d6474710b5", "fusion_lon": 0.0, "bike_id": "d9f1708cd7cdfdef7f54e6d6474710b5", "is_disabled": 0, "is_reserved": 0}, {"rental_uris": {"ios": "https://dc.lft.to/lastmile_qr_scan", "android": "https://dc.lft.to/lastmile_qr_scan"}, "lon": -77.0240125, "type": "electric_scooter", "fusion_lat": 0.0, "lat": 38.93702966666667, "name": "66f6fd76853d756797e082fd83c7dc9b", "fusion_lon": 0.0, "bike_id": "66f6fd76853d756797e082fd83c7dc9b", "is_disabled": 0, "is_reserved": 0}, {"rental_uris": {"ios": "https://dc.lft.to/lastmile_qr_scan", "android": "https://dc.lft.to/lastmile_qr_scan"}, "lon": -76.99816966666667, "type": "electric_bike", "fusion_lat": 0.0, "lat": 38.844303333333336, "name": "b03c076c2fccb8634d84b616bbb8f552", "fusion_lon": 0.0, "bike_id": "b03c076c2fccb8634d84b616bbb8f552", "is_disabled": 0, "is_reserved": 0}, {"rental_uris": {"ios": "https://dc.lft.to/lastmile_qr_scan", "android": "https://dc.lft.to/lastmile_qr_scan"}, "lon": -77.04013783333333, "type": "electric_scooter", "fusion_lat": 0.0, "lat": 38.932459333333334, "name": "8d8202cf3e5acadfe18f779be57f09b9", "fusion_lon": 0.0, "bike_id": "8d8202cf3e5acadfe18f779be57f09b9", "is_disabled": 0, "is_reserved": 0}, {"rental_uris": {"ios": "https://dc.lft.to/lastmile_qr_scan", "android": "https://dc.lft.to/lastmile_qr_scan"}, "lon": -77.02115383333333, "type": "electric_scooter", "fusion_lat": 0.0, "lat": 38.91422266666667, "name": "9f646d21032206b00efeb42679ee807b", "fusion_lon": 0.0, "bike_id": "9f646d21032206b00efeb42679ee807b", "is_disabled": 0, "is_reserved": 0}, {"rental_uris": {"ios": "https://dc.lft.to/lastmile_qr_scan", "android": "https://dc.lft.to/lastmile_qr_scan"}, "lon": -76.99669166666666, "type": "electric_scooter", "fusion_lat": 0.0, "lat": 38.900405166666665, "name": "fe271c392594132dc0c20024b291ac19", "fusion_lon": 0.0, "bike_id": "fe271c392594132dc0c20024b291ac19", "is_disabled": 0, "is_reserved": 0}, {"rental_uris": {"ios": "https://dc.lft.to/lastmile_qr_scan", "android": "https://dc.lft.to/lastmile_qr_scan"}, "lon": -77.01447333333333, "type": "electric_scooter", "fusion_lat": 0.0, "lat": 38.9298105, "name": "d2b7c925bb6a03e59a9bb71eb869a455", "fusion_lon": 0.0, "bike_id": "d2b7c925bb6a03e59a9bb71eb869a455", "is_disabled": 0, "is_reserved": 0}, {"rental_uris": {"ios": "https://dc.lft.to/lastmile_qr_scan", "android": "https://dc.lft.to/lastmile_qr_scan"}, "lon": -77.0026625, "type": "electric_scooter", "fusion_lat": 0.0, "lat": 38.88753466666667, "name": "5a8470b6a6c0cf6ed9171dd15faebcce", "fusion_lon": 0.0, "bike_id": "5a8470b6a6c0cf6ed9171dd15faebcce", "is_disabled": 0, "is_reserved": 0}, {"rental_uris": {"ios": "https://dc.lft.to/lastmile_qr_scan", "android": "https://dc.lft.to/lastmile_qr_scan"}, "lon": -77.0318125, "type": "electric_scooter", "fusion_lat": 0.0, "lat": 38.91819983333333, "name": "e5fbeb5385341b51244e28850f5c65f6", "fusion_lon": 0.0, "bike_id": "e5fbeb5385341b51244e28850f5c65f6", "is_disabled": 0, "is_reserved": 0}, {"rental_uris": {"ios": "https://dc.lft.to/lastmile_qr_scan", "android": "https://dc.lft.to/lastmile_qr_scan"}, "lon": -77.0296245, "type": "electric_scooter", "fusion_lat": 0.0, "lat": 38.92688366666667, "name": "83602392134f3dcc0138dd34584c8bf5", "fusion_lon": 0.0, "bike_id": "83602392134f3dcc0138dd34584c8bf5", "is_disabled": 0, "is_reserved": 0}, {"rental_uris": {"ios": "https://dc.lft.to/lastmile_qr_scan", "android": "https://dc.lft.to/lastmile_qr_scan"}, "lon": -77.02154983333334, "type": "electric_scooter", "fusion_lat": 0.0, "lat": 38.926062, "name": "5a2566a67506eb932a744e5e65c6e385", "fusion_lon": 0.0, "bike_id": "5a2566a67506eb932a744e5e65c6e385", "is_disabled": 0, "is_reserved": 0}, {"rental_uris": {"ios": "https://dc.lft.to/lastmile_qr_scan", "android": "https://dc.lft.to/lastmile_qr_scan"}, "lon": -76.9900135, "type": "electric_scooter", "fusion_lat": 0.0, "lat": 38.865031, "name": "daf15591edcda31272952175b9de4871", "fusion_lon": 0.0, "bike_id": "daf15591edcda31272952175b9de4871", "is_disabled": 0, "is_reserved": 0}, {"rental_uris": {"ios": "https://dc.lft.to/lastmile_qr_scan", "android": "https://dc.lft.to/lastmile_qr_scan"}, "lon": -77.052872, "type": "electric_scooter", "fusion_lat": 0.0, "lat": 38.9189535, "name": "39d771d7e64b4931d3d457ed33014b8c", "fusion_lon": 0.0, "bike_id": "39d771d7e64b4931d3d457ed33014b8c", "is_disabled": 0, "is_reserved": 0}, {"rental_uris": {"ios": "https://dc.lft.to/lastmile_qr_scan", "android": "https://dc.lft.to/lastmile_qr_scan"}, "lon": -77.07063516666666, "type": "electric_scooter", "fusion_lat": 0.0, "lat": 38.9521905, "name": "d5da01d4b8c2499d1a3b84f038bb4c1d", "fusion_lon": 0.0, "bike_id": "d5da01d4b8c2499d1a3b84f038bb4c1d", "is_disabled": 0, "is_reserved": 0}, {"rental_uris": {"ios": "https://dc.lft.to/lastmile_qr_scan", "android": "https://dc.lft.to/lastmile_qr_scan"}, "lon": -77.00861266666666, "type": "electric_bike", "fusion_lat": 0.0, "lat": 38.82722666666667, "name": "6cc9c0f33dee5548cf37b0652822822a", "fusion_lon": 0.0, "bike_id": "6cc9c0f33dee5548cf37b0652822822a", "is_disabled": 0, "is_reserved": 0}, {"rental_uris": {"ios": "https://dc.lft.to/lastmile_qr_scan", "android": "https://dc.lft.to/lastmile_qr_scan"}, "lon": -77.04193983333333, "type": "electric_scooter", "fusion_lat": 0.0, "lat": 38.9034655, "name": "c428290347765b0a90cf2ee70a346f00", "fusion_lon": 0.0, "bike_id": "c428290347765b0a90cf2ee70a346f00", "is_disabled": 0, "is_reserved": 0}, {"rental_uris": {"ios": "https://dc.lft.to/lastmile_qr_scan", "android": "https://dc.lft.to/lastmile_qr_scan"}, "lon": -77.05405116666667, "type": "electric_scooter", "fusion_lat": 0.0, "lat": 38.90271116666667, "name": "dd0a8b44136713818063120dfb329684", "fusion_lon": 0.0, "bike_id": "dd0a8b44136713818063120dfb329684", "is_disabled": 0, "is_reserved": 0}, {"rental_uris": {"ios": "https://dc.lft.to/lastmile_qr_scan", "android": "https://dc.lft.to/lastmile_qr_scan"}, "lon": -77.0471385, "type": "electric_scooter", "fusion_lat": 0.0, "lat": 38.92236333333334, "name": "6a5b0edbc051fd8ebdf11e6dea17611f", "fusion_lon": 0.0, "bike_id": "6a5b0edbc051fd8ebdf11e6dea17611f", "is_disabled": 0, "is_reserved": 0}, {"rental_uris": {"ios": "https://dc.lft.to/lastmile_qr_scan", "android": "https://dc.lft.to/lastmile_qr_scan"}, "lon": -77.03404483333334, "type": "electric_scooter", "fusion_lat": 0.0, "lat": 38.922664166666664, "name": "cb5f0e58a604b6cb29fc817e0118e9f7", "fusion_lon": 0.0, "bike_id": "cb5f0e58a604b6cb29fc817e0118e9f7", "is_disabled": 0, "is_reserved": 0}, {"rental_uris": {"ios": "https://dc.lft.to/lastmile_qr_scan", "android": "https://dc.lft.to/lastmile_qr_scan"}, "lon": -77.02803833333333, "type": "electric_scooter", "fusion_lat": 0.0, "lat": 38.8982635, "name": "c0ed523cb191bd958ba3be2b6f760f93", "fusion_lon": 0.0, "bike_id": "c0ed523cb191bd958ba3be2b6f760f93", "is_disabled": 0, "is_reserved": 0}, {"rental_uris": {"ios": "https://dc.lft.to/lastmile_qr_scan", "android": "https://dc.lft.to/lastmile_qr_scan"}, "lon": -77.02828766666667, "type": "electric_scooter", "fusion_lat": 0.0, "lat": 38.886511666666664, "name": "b5c92be6bc6e66d0ee3f361c4e490183", "fusion_lon": 0.0, "bike_id": "b5c92be6bc6e66d0ee3f361c4e490183", "is_disabled": 0, "is_reserved": 0}, {"rental_uris": {"ios": "https://dc.lft.to/lastmile_qr_scan", "android": "https://dc.lft.to/lastmile_qr_scan"}, "lon": -77.05500233333333, "type": "electric_scooter", "fusion_lat": 0.0, "lat": 38.92974433333333, "name": "22329179728755dd2bb3c1d889599b06", "fusion_lon": 0.0, "bike_id": "22329179728755dd2bb3c1d889599b06", "is_disabled": 0, "is_reserved": 0}, {"rental_uris": {"ios": "https://dc.lft.to/lastmile_qr_scan", "android": "https://dc.lft.to/lastmile_qr_scan"}, "lon": -76.9488975, "type": "electric_scooter", "fusion_lat": 0.0, "lat": 38.89526016666667, "name": "90396b7549bb7d61c4d3396ec3daf757", "fusion_lon": 0.0, "bike_id": "90396b7549bb7d61c4d3396ec3daf757", "is_disabled": 0, "is_reserved": 0}, {"rental_uris": {"ios": "https://dc.lft.to/lastmile_qr_scan", "android": "https://dc.lft.to/lastmile_qr_scan"}, "lon": -76.93169533333334, "type": "electric_scooter", "fusion_lat": 0.0, "lat": 38.89884166666667, "name": "e5d87ef0858f69d6f1fb7f8d80b81a5b", "fusion_lon": 0.0, "bike_id": "e5d87ef0858f69d6f1fb7f8d80b81a5b", "is_disabled": 0, "is_reserved": 0}, {"rental_uris": {"ios": "https://dc.lft.to/lastmile_qr_scan", "android": "https://dc.lft.to/lastmile_qr_scan"}, "lon": -77.02210766666667, "type": "electric_scooter", "fusion_lat": 0.0, "lat": 38.92229483333333, "name": "a12b3a268dc6e7f8fbe15cab24e051e7", "fusion_lon": 0.0, "bike_id": "a12b3a268dc6e7f8fbe15cab24e051e7", "is_disabled": 0, "is_reserved": 0}, {"rental_uris": {"ios": "https://dc.lft.to/lastmile_qr_scan", "android": "https://dc.lft.to/lastmile_qr_scan"}, "lon": -76.91917033333333, "type": "electric_scooter", "fusion_lat": 0.0, "lat": 38.900422666666664, "name": "cf4cc8fbe3e33a4c0cc8d463ad819509", "fusion_lon": 0.0, "bike_id": "cf4cc8fbe3e33a4c0cc8d463ad819509", "is_disabled": 0, "is_reserved": 0}, {"rental_uris": {"ios": "https://dc.lft.to/lastmile_qr_scan", "android": "https://dc.lft.to/lastmile_qr_scan"}, "lon": -76.9985875, "type": "electric_scooter", "fusion_lat": 0.0, "lat": 38.9077935, "name": "412d436d979e120cce2b71dd173d97ad", "fusion_lon": 0.0, "bike_id": "412d436d979e120cce2b71dd173d97ad", "is_disabled": 0, "is_reserved": 0}, {"rental_uris": {"ios": "https://dc.lft.to/lastmile_qr_scan", "android": "https://dc.lft.to/lastmile_qr_scan"}, "lon": -76.98713416666666, "type": "electric_scooter", "fusion_lat": 0.0, "lat": 38.8669865, "name": "f4c5f4af24fb9139935b1a529721f8fd", "fusion_lon": 0.0, "bike_id": "f4c5f4af24fb9139935b1a529721f8fd", "is_disabled": 0, "is_reserved": 0}, {"rental_uris": {"ios": "https://dc.lft.to/lastmile_qr_scan", "android": "https://dc.lft.to/lastmile_qr_scan"}, "lon": -77.03198066666667, "type": "electric_scooter", "fusion_lat": 0.0, "lat": 38.912471333333336, "name": "f8eb3e56e92ba6c6b8fce637705c30ac", "fusion_lon": 0.0, "bike_id": "f8eb3e56e92ba6c6b8fce637705c30ac", "is_disabled": 0, "is_reserved": 0}, {"rental_uris": {"ios": "https://dc.lft.to/lastmile_qr_scan", "android": "https://dc.lft.to/lastmile_qr_scan"}, "lon": -77.043839, "type": "electric_scooter", "fusion_lat": 0.0, "lat": 38.9213045, "name": "9032d790468b7042cf1fd0b7dc05370c", "fusion_lon": 0.0, "bike_id": "9032d790468b7042cf1fd0b7dc05370c", "is_disabled": 0, "is_reserved": 0}, {"rental_uris": {"ios": "https://dc.lft.to/lastmile_qr_scan", "android": "https://dc.lft.to/lastmile_qr_scan"}, "lon": -76.9841225, "type": "electric_scooter", "fusion_lat": 0.0, "lat": 38.913842833333334, "name": "22e81e1ecaacb7624031a5d518039f83", "fusion_lon": 0.0, "bike_id": "22e81e1ecaacb7624031a5d518039f83", "is_disabled": 0, "is_reserved": 0}, {"rental_uris": {"ios": "https://dc.lft.to/lastmile_qr_scan", "android": "https://dc.lft.to/lastmile_qr_scan"}, "lon": -77.03172233333333, "type": "electric_scooter", "fusion_lat": 0.0, "lat": 38.917077166666665, "name": "4d0a48f025195daabb8cde8159811389", "fusion_lon": 0.0, "bike_id": "4d0a48f025195daabb8cde8159811389", "is_disabled": 0, "is_reserved": 0}, {"rental_uris": {"ios": "https://dc.lft.to/lastmile_qr_scan", "android": "https://dc.lft.to/lastmile_qr_scan"}, "lon": -77.10523433333333, "type": "electric_bike", "fusion_lat": 0.0, "lat": 38.851645166666664, "name": "3b56a55ff412d66024ee36f15992fa4c", "fusion_lon": 0.0, "bike_id": "3b56a55ff412d66024ee36f15992fa4c", "is_disabled": 0, "is_reserved": 0}, {"rental_uris": {"ios": "https://dc.lft.to/lastmile_qr_scan", "android": "https://dc.lft.to/lastmile_qr_scan"}, "lon": -77.002953, "type": "electric_scooter", "fusion_lat": 0.0, "lat": 38.90914383333333, "name": "21ed998241450ee5cefef307f4dd09dc", "fusion_lon": 0.0, "bike_id": "21ed998241450ee5cefef307f4dd09dc", "is_disabled": 0, "is_reserved": 0}, {"rental_uris": {"ios": "https://dc.lft.to/lastmile_qr_scan", "android": "https://dc.lft.to/lastmile_qr_scan"}, "lon": -76.9938225, "type": "electric_scooter", "fusion_lat": 0.0, "lat": 38.88718183333334, "name": "97d770e4fec7e0579b6a84106f698e3c", "fusion_lon": 0.0, "bike_id": "97d770e4fec7e0579b6a84106f698e3c", "is_disabled": 0, "is_reserved": 0}, {"rental_uris": {"ios": "https://dc.lft.to/lastmile_qr_scan", "android": "https://dc.lft.to/lastmile_qr_scan"}, "lon": -77.00224883333334, "type": "electric_scooter", "fusion_lat": 0.0, "lat": 38.9056955, "name": "d67b3c2b4e4b76fe8dc92108c04f5ca9", "fusion_lon": 0.0, "bike_id": "d67b3c2b4e4b76fe8dc92108c04f5ca9", "is_disabled": 0, "is_reserved": 0}, {"rental_uris": {"ios": "https://dc.lft.to/lastmile_qr_scan", "android": "https://dc.lft.to/lastmile_qr_scan"}, "lon": -76.96788116666667, "type": "electric_scooter", "fusion_lat": 0.0, "lat": 38.861372333333335, "name": "edf4af6a4ed8936299216423559c1eb8", "fusion_lon": 0.0, "bike_id": "edf4af6a4ed8936299216423559c1eb8", "is_disabled": 0, "is_reserved": 0}, {"rental_uris": {"ios": "https://dc.lft.to/lastmile_qr_scan", "android": "https://dc.lft.to/lastmile_qr_scan"}, "lon": -77.0561985, "type": "electric_bike", "fusion_lat": 0.0, "lat": 38.92415, "name": "2fa7a3eb1c21fc0fadfdbab381e7502b", "fusion_lon": 0.0, "bike_id": "2fa7a3eb1c21fc0fadfdbab381e7502b", "is_disabled": 0, "is_reserved": 0}, {"rental_uris": {"ios": "https://dc.lft.to/lastmile_qr_scan", "android": "https://dc.lft.to/lastmile_qr_scan"}, "lon": -77.02341866666667, "type": "electric_scooter", "fusion_lat": 0.0, "lat": 38.925130333333335, "name": "1404cc5e55a33ab0126fae3df5940753", "fusion_lon": 0.0, "bike_id": "1404cc5e55a33ab0126fae3df5940753", "is_disabled": 0, "is_reserved": 0}, {"rental_uris": {"ios": "https://dc.lft.to/lastmile_qr_scan", "android": "https://dc.lft.to/lastmile_qr_scan"}, "lon": -77.04864133333334, "type": "electric_scooter", "fusion_lat": 0.0, "lat": 38.90849433333333, "name": "29bd7c9fefad8180d821407b74f10dae", "fusion_lon": 0.0, "bike_id": "29bd7c9fefad8180d821407b74f10dae", "is_disabled": 0, "is_reserved": 0}, {"rental_uris": {"ios": "https://dc.lft.to/lastmile_qr_scan", "android": "https://dc.lft.to/lastmile_qr_scan"}, "lon": -77.03223733333333, "type": "electric_scooter", "fusion_lat": 0.0, "lat": 38.9266925, "name": "71c906bbfb7e925d60030ad127441743", "fusion_lon": 0.0, "bike_id": "71c906bbfb7e925d60030ad127441743", "is_disabled": 0, "is_reserved": 0}, {"rental_uris": {"ios": "https://dc.lft.to/lastmile_qr_scan", "android": "https://dc.lft.to/lastmile_qr_scan"}, "lon": -77.0581365, "type": "electric_scooter", "fusion_lat": 0.0, "lat": 38.934471333333335, "name": "ed83d68121b1d6b7c46525ad5d1a6723", "fusion_lon": 0.0, "bike_id": "ed83d68121b1d6b7c46525ad5d1a6723", "is_disabled": 0, "is_reserved": 0}, {"rental_uris": {"ios": "https://dc.lft.to/lastmile_qr_scan", "android": "https://dc.lft.to/lastmile_qr_scan"}, "lon": -76.97404316666666, "type": "electric_scooter", "fusion_lat": 0.0, "lat": 38.901563333333335, "name": "9ef6abd8533e5f07022502dc793b5e97", "fusion_lon": 0.0, "bike_id": "9ef6abd8533e5f07022502dc793b5e97", "is_disabled": 0, "is_reserved": 0}, {"rental_uris": {"ios": "https://dc.lft.to/lastmile_qr_scan", "android": "https://dc.lft.to/lastmile_qr_scan"}, "lon": -76.974897, "type": "electric_bike", "fusion_lat": 0.0, "lat": 38.920041499999996, "name": "1ee47b7576e5d951c6d5ef66d33bf78c", "fusion_lon": 0.0, "bike_id": "1ee47b7576e5d951c6d5ef66d33bf78c", "is_disabled": 0, "is_reserved": 0}, {"rental_uris": {"ios": "https://dc.lft.to/lastmile_qr_scan", "android": "https://dc.lft.to/lastmile_qr_scan"}, "lon": -77.04264533333334, "type": "electric_scooter", "fusion_lat": 0.0, "lat": 38.908099166666666, "name": "95e6d0c89ce5a7083460662ef1fe5323", "fusion_lon": 0.0, "bike_id": "95e6d0c89ce5a7083460662ef1fe5323", "is_disabled": 0, "is_reserved": 0}, {"rental_uris": {"ios": "https://dc.lft.to/lastmile_qr_scan", "android": "https://dc.lft.to/lastmile_qr_scan"}, "lon": -76.93718933333334, "type": "electric_scooter", "fusion_lat": 0.0, "lat": 38.89588633333334, "name": "b8deb8f41d0c9d360cf579b8e3ae4c09", "fusion_lon": 0.0, "bike_id": "b8deb8f41d0c9d360cf579b8e3ae4c09", "is_disabled": 0, "is_reserved": 0}, {"rental_uris": {"ios": "https://dc.lft.to/lastmile_qr_scan", "android": "https://dc.lft.to/lastmile_qr_scan"}, "lon": -77.0410965, "type": "electric_scooter", "fusion_lat": 0.0, "lat": 38.924434, "name": "da7752a7ba6dacb1097c83ec003e29cd", "fusion_lon": 0.0, "bike_id": "da7752a7ba6dacb1097c83ec003e29cd", "is_disabled": 0, "is_reserved": 0}, {"rental_uris": {"ios": "https://dc.lft.to/lastmile_qr_scan", "android": "https://dc.lft.to/lastmile_qr_scan"}, "lon": -77.03412966666667, "type": "electric_scooter", "fusion_lat": 0.0, "lat": 38.935386333333334, "name": "bd918c6f055ca52b0b6ddda99758e1ad", "fusion_lon": 0.0, "bike_id": "bd918c6f055ca52b0b6ddda99758e1ad", "is_disabled": 0, "is_reserved": 0}, {"rental_uris": {"ios": "https://dc.lft.to/lastmile_qr_scan", "android": "https://dc.lft.to/lastmile_qr_scan"}, "lon": -77.0065165, "type": "electric_scooter", "fusion_lat": 0.0, "lat": 38.871788, "name": "ee8df6f8f50f6850e4f91fc44ab528f7", "fusion_lon": 0.0, "bike_id": "ee8df6f8f50f6850e4f91fc44ab528f7", "is_disabled": 0, "is_reserved": 0}, {"rental_uris": {"ios": "https://dc.lft.to/lastmile_qr_scan", "android": "https://dc.lft.to/lastmile_qr_scan"}, "lon": -77.0259955, "type": "electric_scooter", "fusion_lat": 0.0, "lat": 38.892611333333335, "name": "63cf731843ec1fcd8d96d417c3498192", "fusion_lon": 0.0, "bike_id": "63cf731843ec1fcd8d96d417c3498192", "is_disabled": 0, "is_reserved": 0}, {"rental_uris": {"ios": "https://dc.lft.to/lastmile_qr_scan", "android": "https://dc.lft.to/lastmile_qr_scan"}, "lon": -77.0322775, "type": "electric_scooter", "fusion_lat": 0.0, "lat": 38.92995966666667, "name": "197188be21557a05fb3e490c6f0be6f3", "fusion_lon": 0.0, "bike_id": "197188be21557a05fb3e490c6f0be6f3", "is_disabled": 0, "is_reserved": 0}, {"rental_uris": {"ios": "https://dc.lft.to/lastmile_qr_scan", "android": "https://dc.lft.to/lastmile_qr_scan"}, "lon": -76.99700816666666, "type": "electric_scooter", "fusion_lat": 0.0, "lat": 38.907922666666664, "name": "31b82e12eaf64929103eb056b55cd023", "fusion_lon": 0.0, "bike_id": "31b82e12eaf64929103eb056b55cd023", "is_disabled": 0, "is_reserved": 0}, {"rental_uris": {"ios": "https://dc.lft.to/lastmile_qr_scan", "android": "https://dc.lft.to/lastmile_qr_scan"}, "lon": -77.04623333333333, "type": "electric_scooter", "fusion_lat": 0.0, "lat": 38.9151855, "name": "32106077f352892fddb3c5bf6413e8b8", "fusion_lon": 0.0, "bike_id": "32106077f352892fddb3c5bf6413e8b8", "is_disabled": 0, "is_reserved": 0}, {"rental_uris": {"ios": "https://dc.lft.to/lastmile_qr_scan", "android": "https://dc.lft.to/lastmile_qr_scan"}, "lon": -77.03839116666667, "type": "electric_scooter", "fusion_lat": 0.0, "lat": 38.931074, "name": "c9b5da80ce03a8ea12bb90068f10e7ac", "fusion_lon": 0.0, "bike_id": "c9b5da80ce03a8ea12bb90068f10e7ac", "is_disabled": 0, "is_reserved": 0}, {"rental_uris": {"ios": "https://dc.lft.to/lastmile_qr_scan", "android": "https://dc.lft.to/lastmile_qr_scan"}, "lon": -77.01642766666667, "type": "electric_scooter", "fusion_lat": 0.0, "lat": 38.9293625, "name": "1694ac77c0594b00b36c4bedb056d776", "fusion_lon": 0.0, "bike_id": "1694ac77c0594b00b36c4bedb056d776", "is_disabled": 0, "is_reserved": 0}, {"rental_uris": {"ios": "https://dc.lft.to/lastmile_qr_scan", "android": "https://dc.lft.to/lastmile_qr_scan"}, "lon": -77.0636325, "type": "electric_scooter", "fusion_lat": 0.0, "lat": 38.909315666666664, "name": "0512532917481a0bfe91492bbab9e8ef", "fusion_lon": 0.0, "bike_id": "0512532917481a0bfe91492bbab9e8ef", "is_disabled": 0, "is_reserved": 0}, {"rental_uris": {"ios": "https://dc.lft.to/lastmile_qr_scan", "android": "https://dc.lft.to/lastmile_qr_scan"}, "lon": -77.069346, "type": "electric_scooter", "fusion_lat": 0.0, "lat": 38.905127666666665, "name": "7de135cbc3c6ebb6295567143995ef3e", "fusion_lon": 0.0, "bike_id": "7de135cbc3c6ebb6295567143995ef3e", "is_disabled": 0, "is_reserved": 0}, {"rental_uris": {"ios": "https://dc.lft.to/lastmile_qr_scan", "android": "https://dc.lft.to/lastmile_qr_scan"}, "lon": -77.0217245, "type": "electric_bike", "fusion_lat": 0.0, "lat": 38.892508666666664, "name": "8be4c5e4e5630dfc3bb85cc4b9dd1d60", "fusion_lon": 0.0, "bike_id": "8be4c5e4e5630dfc3bb85cc4b9dd1d60", "is_disabled": 0, "is_reserved": 0}, {"rental_uris": {"ios": "https://dc.lft.to/lastmile_qr_scan", "android": "https://dc.lft.to/lastmile_qr_scan"}, "lon": -77.03843333333333, "type": "electric_scooter", "fusion_lat": 0.0, "lat": 38.9108475, "name": "351fc247a8cb2e1180a7aaeb8d44b8aa", "fusion_lon": 0.0, "bike_id": "351fc247a8cb2e1180a7aaeb8d44b8aa", "is_disabled": 0, "is_reserved": 0}, {"rental_uris": {"ios": "https://dc.lft.to/lastmile_qr_scan", "android": "https://dc.lft.to/lastmile_qr_scan"}, "lon": -77.06943766666667, "type": "electric_scooter", "fusion_lat": 0.0, "lat": 38.9051565, "name": "8aec00a9b5eb3ca7d30a950fd73c01c3", "fusion_lon": 0.0, "bike_id": "8aec00a9b5eb3ca7d30a950fd73c01c3", "is_disabled": 0, "is_reserved": 0}, {"rental_uris": {"ios": "https://dc.lft.to/lastmile_qr_scan", "android": "https://dc.lft.to/lastmile_qr_scan"}, "lon": -77.04202616666667, "type": "electric_scooter", "fusion_lat": 0.0, "lat": 38.9110025, "name": "c57e871bfd72753ae01cfd4689fc8ae1", "fusion_lon": 0.0, "bike_id": "c57e871bfd72753ae01cfd4689fc8ae1", "is_disabled": 0, "is_reserved": 0}, {"rental_uris": {"ios": "https://dc.lft.to/lastmile_qr_scan", "android": "https://dc.lft.to/lastmile_qr_scan"}, "lon": -77.03020516666666, "type": "electric_scooter", "fusion_lat": 0.0, "lat": 38.904855166666664, "name": "fd6780464520370f02276c763d15727d", "fusion_lon": 0.0, "bike_id": "fd6780464520370f02276c763d15727d", "is_disabled": 0, "is_reserved": 0}, {"rental_uris": {"ios": "https://dc.lft.to/lastmile_qr_scan", "android": "https://dc.lft.to/lastmile_qr_scan"}, "lon": -77.03974533333333, "type": "electric_scooter", "fusion_lat": 0.0, "lat": 38.8922185, "name": "854b23c81a35a3bdd07b75aa557cf46b", "fusion_lon": 0.0, "bike_id": "854b23c81a35a3bdd07b75aa557cf46b", "is_disabled": 0, "is_reserved": 0}, {"rental_uris": {"ios": "https://dc.lft.to/lastmile_qr_scan", "android": "https://dc.lft.to/lastmile_qr_scan"}, "lon": -77.03280666666667, "type": "electric_scooter", "fusion_lat": 0.0, "lat": 38.92768516666667, "name": "a624c0b78726e36d852aa52d7c6dd913", "fusion_lon": 0.0, "bike_id": "a624c0b78726e36d852aa52d7c6dd913", "is_disabled": 0, "is_reserved": 0}, {"rental_uris": {"ios": "https://dc.lft.to/lastmile_qr_scan", "android": "https://dc.lft.to/lastmile_qr_scan"}, "lon": -77.0077475, "type": "electric_scooter", "fusion_lat": 0.0, "lat": 38.90657783333333, "name": "bdc9192bef455816cfdfbeb3e705472e", "fusion_lon": 0.0, "bike_id": "bdc9192bef455816cfdfbeb3e705472e", "is_disabled": 0, "is_reserved": 0}, {"rental_uris": {"ios": "https://dc.lft.to/lastmile_qr_scan", "android": "https://dc.lft.to/lastmile_qr_scan"}, "lon": -77.0356145, "type": "electric_scooter", "fusion_lat": 0.0, "lat": 38.9180555, "name": "3cfdbe30bc89d2dfba6a9faa1fee86bd", "fusion_lon": 0.0, "bike_id": "3cfdbe30bc89d2dfba6a9faa1fee86bd", "is_disabled": 0, "is_reserved": 0}, {"rental_uris": {"ios": "https://dc.lft.to/lastmile_qr_scan", "android": "https://dc.lft.to/lastmile_qr_scan"}, "lon": -77.01363383333333, "type": "electric_scooter", "fusion_lat": 0.0, "lat": 38.86368083333333, "name": "a06c544be72a515bf1d8773de08f83c0", "fusion_lon": 0.0, "bike_id": "a06c544be72a515bf1d8773de08f83c0", "is_disabled": 0, "is_reserved": 0}, {"rental_uris": {"ios": "https://dc.lft.to/lastmile_qr_scan", "android": "https://dc.lft.to/lastmile_qr_scan"}, "lon": -77.03642666666667, "type": "electric_scooter", "fusion_lat": 0.0, "lat": 38.902842166666666, "name": "4b9151ace666ebfcd8c51b18fbaa6cf6", "fusion_lon": 0.0, "bike_id": "4b9151ace666ebfcd8c51b18fbaa6cf6", "is_disabled": 0, "is_reserved": 0}, {"rental_uris": {"ios": "https://dc.lft.to/lastmile_qr_scan", "android": "https://dc.lft.to/lastmile_qr_scan"}, "lon": -77.01139116666667, "type": "electric_scooter", "fusion_lat": 0.0, "lat": 38.89517683333333, "name": "082804de2bcec28170327e9dd05a15db", "fusion_lon": 0.0, "bike_id": "082804de2bcec28170327e9dd05a15db", "is_disabled": 0, "is_reserved": 0}, {"rental_uris": {"ios": "https://dc.lft.to/lastmile_qr_scan", "android": "https://dc.lft.to/lastmile_qr_scan"}, "lon": -76.98348733333333, "type": "electric_bike", "fusion_lat": 0.0, "lat": 38.91552766666667, "name": "a742ba91f2d25f9224f5cd2b07944ab6", "fusion_lon": 0.0, "bike_id": "a742ba91f2d25f9224f5cd2b07944ab6", "is_disabled": 0, "is_reserved": 0}, {"rental_uris": {"ios": "https://dc.lft.to/lastmile_qr_scan", "android": "https://dc.lft.to/lastmile_qr_scan"}, "lon": -77.032037, "type": "electric_scooter", "fusion_lat": 0.0, "lat": 38.9153655, "name": "ed2242f0fb3c1b15cfe265abf200e56a", "fusion_lon": 0.0, "bike_id": "ed2242f0fb3c1b15cfe265abf200e56a", "is_disabled": 0, "is_reserved": 0}, {"rental_uris": {"ios": "https://dc.lft.to/lastmile_qr_scan", "android": "https://dc.lft.to/lastmile_qr_scan"}, "lon": -77.007522, "type": "electric_scooter", "fusion_lat": 0.0, "lat": 38.898223, "name": "f9c466757245cfb68082fc5252bf2e62", "fusion_lon": 0.0, "bike_id": "f9c466757245cfb68082fc5252bf2e62", "is_disabled": 0, "is_reserved": 0}, {"rental_uris": {"ios": "https://dc.lft.to/lastmile_qr_scan", "android": "https://dc.lft.to/lastmile_qr_scan"}, "lon": -76.9081575, "type": "electric_bike", "fusion_lat": 0.0, "lat": 38.994555166666665, "name": "b17a846ec1b1c816ea14124311037e34", "fusion_lon": 0.0, "bike_id": "b17a846ec1b1c816ea14124311037e34", "is_disabled": 0, "is_reserved": 0}, {"rental_uris": {"ios": "https://dc.lft.to/lastmile_qr_scan", "android": "https://dc.lft.to/lastmile_qr_scan"}, "lon": -76.9602005, "type": "electric_bike", "fusion_lat": 0.0, "lat": 38.87010733333334, "name": "26f7d9901a544dad1d441d625f4e736d", "fusion_lon": 0.0, "bike_id": "26f7d9901a544dad1d441d625f4e736d", "is_disabled": 0, "is_reserved": 0}, {"rental_uris": {"ios": "https://dc.lft.to/lastmile_qr_scan", "android": "https://dc.lft.to/lastmile_qr_scan"}, "lon": -77.04362416666666, "type": "electric_scooter", "fusion_lat": 0.0, "lat": 38.923500833333335, "name": "564f9df54fb14bc0eb567ed391567d3b", "fusion_lon": 0.0, "bike_id": "564f9df54fb14bc0eb567ed391567d3b", "is_disabled": 0, "is_reserved": 0}, {"rental_uris": {"ios": "https://dc.lft.to/lastmile_qr_scan", "android": "https://dc.lft.to/lastmile_qr_scan"}, "lon": -77.04818016666667, "type": "electric_scooter", "fusion_lat": 0.0, "lat": 38.913296333333335, "name": "bb8196365ee184041a89e82f00949fb8", "fusion_lon": 0.0, "bike_id": "bb8196365ee184041a89e82f00949fb8", "is_disabled": 0, "is_reserved": 0}, {"rental_uris": {"ios": "https://dc.lft.to/lastmile_qr_scan", "android": "https://dc.lft.to/lastmile_qr_scan"}, "lon": -77.02577516666666, "type": "electric_scooter", "fusion_lat": 0.0, "lat": 38.88733633333333, "name": "9b6f02bec915cce8e0a55574b6a5597e", "fusion_lon": 0.0, "bike_id": "9b6f02bec915cce8e0a55574b6a5597e", "is_disabled": 0, "is_reserved": 0}, {"rental_uris": {"ios": "https://dc.lft.to/lastmile_qr_scan", "android": "https://dc.lft.to/lastmile_qr_scan"}, "lon": -77.02695933333334, "type": "electric_scooter", "fusion_lat": 0.0, "lat": 38.92594283333333, "name": "0e8e0c68a9728e628c0dd76cbdc7abb6", "fusion_lon": 0.0, "bike_id": "0e8e0c68a9728e628c0dd76cbdc7abb6", "is_disabled": 0, "is_reserved": 0}, {"rental_uris": {"ios": "https://dc.lft.to/lastmile_qr_scan", "android": "https://dc.lft.to/lastmile_qr_scan"}, "lon": -77.04174616666667, "type": "electric_scooter", "fusion_lat": 0.0, "lat": 38.911977666666665, "name": "418cb6e349ed906e3109b9fd7b20c8a1", "fusion_lon": 0.0, "bike_id": "418cb6e349ed906e3109b9fd7b20c8a1", "is_disabled": 0, "is_reserved": 0}, {"rental_uris": {"ios": "https://dc.lft.to/lastmile_qr_scan", "android": "https://dc.lft.to/lastmile_qr_scan"}, "lon": -77.08195916666666, "type": "electric_scooter", "fusion_lat": 0.0, "lat": 38.949267166666665, "name": "c4d3af27c78e5f6546cd4736d17bbc42", "fusion_lon": 0.0, "bike_id": "c4d3af27c78e5f6546cd4736d17bbc42", "is_disabled": 0, "is_reserved": 0}, {"rental_uris": {"ios": "https://dc.lft.to/lastmile_qr_scan", "android": "https://dc.lft.to/lastmile_qr_scan"}, "lon": -77.03860866666666, "type": "electric_scooter", "fusion_lat": 0.0, "lat": 38.932559833333336, "name": "0f39ad524c3ba580a8eeb8ce8e9b56cd", "fusion_lon": 0.0, "bike_id": "0f39ad524c3ba580a8eeb8ce8e9b56cd", "is_disabled": 0, "is_reserved": 0}, {"rental_uris": {"ios": "https://dc.lft.to/lastmile_qr_scan", "android": "https://dc.lft.to/lastmile_qr_scan"}, "lon": -77.03443616666667, "type": "electric_scooter", "fusion_lat": 0.0, "lat": 38.907354833333336, "name": "cda56957724dcbce0318d9ff60469898", "fusion_lon": 0.0, "bike_id": "cda56957724dcbce0318d9ff60469898", "is_disabled": 0, "is_reserved": 0}, {"rental_uris": {"ios": "https://dc.lft.to/lastmile_qr_scan", "android": "https://dc.lft.to/lastmile_qr_scan"}, "lon": -77.009823, "type": "electric_scooter", "fusion_lat": 0.0, "lat": 38.87288083333333, "name": "25bcadf8a50ff3b4a32cf5476f8e6a73", "fusion_lon": 0.0, "bike_id": "25bcadf8a50ff3b4a32cf5476f8e6a73", "is_disabled": 0, "is_reserved": 0}, {"rental_uris": {"ios": "https://dc.lft.to/lastmile_qr_scan", "android": "https://dc.lft.to/lastmile_qr_scan"}, "lon": -77.02977116666666, "type": "electric_scooter", "fusion_lat": 0.0, "lat": 38.91680366666667, "name": "eab6ba77fe33c2c50836695376aab68a", "fusion_lon": 0.0, "bike_id": "eab6ba77fe33c2c50836695376aab68a", "is_disabled": 0, "is_reserved": 0}, {"rental_uris": {"ios": "https://dc.lft.to/lastmile_qr_scan", "android": "https://dc.lft.to/lastmile_qr_scan"}, "lon": -77.0216945, "type": "electric_scooter", "fusion_lat": 0.0, "lat": 38.94289633333333, "name": "40aafb38059a7edf71a9bf7011b0bd2b", "fusion_lon": 0.0, "bike_id": "40aafb38059a7edf71a9bf7011b0bd2b", "is_disabled": 0, "is_reserved": 0}, {"rental_uris": {"ios": "https://dc.lft.to/lastmile_qr_scan", "android": "https://dc.lft.to/lastmile_qr_scan"}, "lon": -76.98907533333333, "type": "electric_scooter", "fusion_lat": 0.0, "lat": 38.86689033333333, "name": "93833b69f68fa5b5945e9d9446969a78", "fusion_lon": 0.0, "bike_id": "93833b69f68fa5b5945e9d9446969a78", "is_disabled": 0, "is_reserved": 0}, {"rental_uris": {"ios": "https://dc.lft.to/lastmile_qr_scan", "android": "https://dc.lft.to/lastmile_qr_scan"}, "lon": -77.0222575, "type": "electric_scooter", "fusion_lat": 0.0, "lat": 38.8921755, "name": "7b1f9d9a913e7b0349b22cf75fe5f280", "fusion_lon": 0.0, "bike_id": "7b1f9d9a913e7b0349b22cf75fe5f280", "is_disabled": 0, "is_reserved": 0}, {"rental_uris": {"ios": "https://dc.lft.to/lastmile_qr_scan", "android": "https://dc.lft.to/lastmile_qr_scan"}, "lon": -77.04012533333334, "type": "electric_scooter", "fusion_lat": 0.0, "lat": 38.921866666666666, "name": "73aa544504f5f7e9dccad4def185c216", "fusion_lon": 0.0, "bike_id": "73aa544504f5f7e9dccad4def185c216", "is_disabled": 0, "is_reserved": 0}, {"rental_uris": {"ios": "https://dc.lft.to/lastmile_qr_scan", "android": "https://dc.lft.to/lastmile_qr_scan"}, "lon": -77.039773, "type": "electric_scooter", "fusion_lat": 0.0, "lat": 38.892245, "name": "93fe5dac565d9d99f9fedcc5990a25b6", "fusion_lon": 0.0, "bike_id": "93fe5dac565d9d99f9fedcc5990a25b6", "is_disabled": 0, "is_reserved": 0}, {"rental_uris": {"ios": "https://dc.lft.to/lastmile_qr_scan", "android": "https://dc.lft.to/lastmile_qr_scan"}, "lon": -77.05050733333333, "type": "electric_scooter", "fusion_lat": 0.0, "lat": 38.9037745, "name": "ab0ad1d6fe46edc523ffeb12c3af2285", "fusion_lon": 0.0, "bike_id": "ab0ad1d6fe46edc523ffeb12c3af2285", "is_disabled": 0, "is_reserved": 0}, {"rental_uris": {"ios": "https://dc.lft.to/lastmile_qr_scan", "android": "https://dc.lft.to/lastmile_qr_scan"}, "lon": -77.06996466666666, "type": "electric_bike", "fusion_lat": 0.0, "lat": 38.954990333333335, "name": "676be84d6ab637574a3da35a06d2e8e7", "fusion_lon": 0.0, "bike_id": "676be84d6ab637574a3da35a06d2e8e7", "is_disabled": 0, "is_reserved": 0}, {"rental_uris": {"ios": "https://dc.lft.to/lastmile_qr_scan", "android": "https://dc.lft.to/lastmile_qr_scan"}, "lon": -77.107782, "type": "electric_bike", "fusion_lat": 0.0, "lat": 38.892162166666665, "name": "43f61a0941f7790168ac3fde8e8c6373", "fusion_lon": 0.0, "bike_id": "43f61a0941f7790168ac3fde8e8c6373", "is_disabled": 0, "is_reserved": 0}, {"rental_uris": {"ios": "https://dc.lft.to/lastmile_qr_scan", "android": "https://dc.lft.to/lastmile_qr_scan"}, "lon": -77.02936833333334, "type": "electric_scooter", "fusion_lat": 0.0, "lat": 38.904601166666666, "name": "914649516d5d620a2a99513d482b6ae3", "fusion_lon": 0.0, "bike_id": "914649516d5d620a2a99513d482b6ae3", "is_disabled": 0, "is_reserved": 0}, {"rental_uris": {"ios": "https://dc.lft.to/lastmile_qr_scan", "android": "https://dc.lft.to/lastmile_qr_scan"}, "lon": -77.03563516666667, "type": "electric_scooter", "fusion_lat": 0.0, "lat": 38.91800816666667, "name": "a33c5c0cb89a386e096873caf8638a14", "fusion_lon": 0.0, "bike_id": "a33c5c0cb89a386e096873caf8638a14", "is_disabled": 0, "is_reserved": 0}, {"rental_uris": {"ios": "https://dc.lft.to/lastmile_qr_scan", "android": "https://dc.lft.to/lastmile_qr_scan"}, "lon": -76.99975666666667, "type": "electric_scooter", "fusion_lat": 0.0, "lat": 38.83835633333333, "name": "ae51fef721fdbd1e4bf6d74f6a4996d4", "fusion_lon": 0.0, "bike_id": "ae51fef721fdbd1e4bf6d74f6a4996d4", "is_disabled": 0, "is_reserved": 0}, {"rental_uris": {"ios": "https://dc.lft.to/lastmile_qr_scan", "android": "https://dc.lft.to/lastmile_qr_scan"}, "lon": -77.001882, "type": "electric_scooter", "fusion_lat": 0.0, "lat": 38.90029466666667, "name": "94aa941a609109b2879107dd3a1fc916", "fusion_lon": 0.0, "bike_id": "94aa941a609109b2879107dd3a1fc916", "is_disabled": 0, "is_reserved": 0}, {"rental_uris": {"ios": "https://dc.lft.to/lastmile_qr_scan", "android": "https://dc.lft.to/lastmile_qr_scan"}, "lon": -77.06987966666667, "type": "electric_scooter", "fusion_lat": 0.0, "lat": 38.954818833333334, "name": "25f2ad1844021cfe4f087d4c232de498", "fusion_lon": 0.0, "bike_id": "25f2ad1844021cfe4f087d4c232de498", "is_disabled": 0, "is_reserved": 0}, {"rental_uris": {"ios": "https://dc.lft.to/lastmile_qr_scan", "android": "https://dc.lft.to/lastmile_qr_scan"}, "lon": -77.0396255, "type": "electric_scooter", "fusion_lat": 0.0, "lat": 38.895315833333335, "name": "f928207d1a6c8fc596769216434dd04c", "fusion_lon": 0.0, "bike_id": "f928207d1a6c8fc596769216434dd04c", "is_disabled": 0, "is_reserved": 0}, {"rental_uris": {"ios": "https://dc.lft.to/lastmile_qr_scan", "android": "https://dc.lft.to/lastmile_qr_scan"}, "lon": -76.9949825, "type": "electric_bike", "fusion_lat": 0.0, "lat": 38.9999695, "name": "2689b3ae8578a375c060cfc56d2b462f", "fusion_lon": 0.0, "bike_id": "2689b3ae8578a375c060cfc56d2b462f", "is_disabled": 0, "is_reserved": 0}, {"rental_uris": {"ios": "https://dc.lft.to/lastmile_qr_scan", "android": "https://dc.lft.to/lastmile_qr_scan"}, "lon": -77.0040135, "type": "electric_scooter", "fusion_lat": 0.0, "lat": 38.90560266666667, "name": "de42bf81993d00d5001cdba60ad4e385", "fusion_lon": 0.0, "bike_id": "de42bf81993d00d5001cdba60ad4e385", "is_disabled": 0, "is_reserved": 0}, {"rental_uris": {"ios": "https://dc.lft.to/lastmile_qr_scan", "android": "https://dc.lft.to/lastmile_qr_scan"}, "lon": -77.051501, "type": "electric_scooter", "fusion_lat": 0.0, "lat": 38.901213, "name": "362f78960e7bffad14e10ef833f5fbe4", "fusion_lon": 0.0, "bike_id": "362f78960e7bffad14e10ef833f5fbe4", "is_disabled": 0, "is_reserved": 0}, {"rental_uris": {"ios": "https://dc.lft.to/lastmile_qr_scan", "android": "https://dc.lft.to/lastmile_qr_scan"}, "lon": -77.04706266666666, "type": "electric_scooter", "fusion_lat": 0.0, "lat": 38.90972333333333, "name": "f71a3d3e66966d44047b142ee2c2fe57", "fusion_lon": 0.0, "bike_id": "f71a3d3e66966d44047b142ee2c2fe57", "is_disabled": 0, "is_reserved": 0}, {"rental_uris": {"ios": "https://dc.lft.to/lastmile_qr_scan", "android": "https://dc.lft.to/lastmile_qr_scan"}, "lon": -76.93097283333333, "type": "electric_scooter", "fusion_lat": 0.0, "lat": 38.90140533333334, "name": "fdecd70bb8f301a7a635018a03ea869b", "fusion_lon": 0.0, "bike_id": "fdecd70bb8f301a7a635018a03ea869b", "is_disabled": 0, "is_reserved": 0}, {"rental_uris": {"ios": "https://dc.lft.to/lastmile_qr_scan", "android": "https://dc.lft.to/lastmile_qr_scan"}, "lon": -77.03158716666667, "type": "electric_scooter", "fusion_lat": 0.0, "lat": 38.912553333333335, "name": "06208165ff91cd90068fdcb8243dbb6f", "fusion_lon": 0.0, "bike_id": "06208165ff91cd90068fdcb8243dbb6f", "is_disabled": 0, "is_reserved": 0}, {"rental_uris": {"ios": "https://dc.lft.to/lastmile_qr_scan", "android": "https://dc.lft.to/lastmile_qr_scan"}, "lon": -77.00921016666666, "type": "electric_scooter", "fusion_lat": 0.0, "lat": 38.910923, "name": "80b4871ab04ce8f7a7aa8d16e1972efe", "fusion_lon": 0.0, "bike_id": "80b4871ab04ce8f7a7aa8d16e1972efe", "is_disabled": 0, "is_reserved": 0}, {"rental_uris": {"ios": "https://dc.lft.to/lastmile_qr_scan", "android": "https://dc.lft.to/lastmile_qr_scan"}, "lon": -77.053503, "type": "electric_scooter", "fusion_lat": 0.0, "lat": 38.90269116666666, "name": "8e14facdb7319934d626b829998e3d06", "fusion_lon": 0.0, "bike_id": "8e14facdb7319934d626b829998e3d06", "is_disabled": 0, "is_reserved": 0}, {"rental_uris": {"ios": "https://dc.lft.to/lastmile_qr_scan", "android": "https://dc.lft.to/lastmile_qr_scan"}, "lon": -77.03282616666667, "type": "electric_scooter", "fusion_lat": 0.0, "lat": 38.928670333333336, "name": "2f897d101191849d8b1b131fe9cd9fe8", "fusion_lon": 0.0, "bike_id": "2f897d101191849d8b1b131fe9cd9fe8", "is_disabled": 0, "is_reserved": 0}, {"rental_uris": {"ios": "https://dc.lft.to/lastmile_qr_scan", "android": "https://dc.lft.to/lastmile_qr_scan"}, "lon": -77.05286383333333, "type": "electric_scooter", "fusion_lat": 0.0, "lat": 38.927806333333336, "name": "78ddbad0a83edbace7d997d01b619f97", "fusion_lon": 0.0, "bike_id": "78ddbad0a83edbace7d997d01b619f97", "is_disabled": 0, "is_reserved": 0}, {"rental_uris": {"ios": "https://dc.lft.to/lastmile_qr_scan", "android": "https://dc.lft.to/lastmile_qr_scan"}, "lon": -77.0676945, "type": "electric_bike", "fusion_lat": 0.0, "lat": 38.915445166666665, "name": "d680ed22c374222a5443f542c620a7d2", "fusion_lon": 0.0, "bike_id": "d680ed22c374222a5443f542c620a7d2", "is_disabled": 0, "is_reserved": 0}, {"rental_uris": {"ios": "https://dc.lft.to/lastmile_qr_scan", "android": "https://dc.lft.to/lastmile_qr_scan"}, "lon": -77.0322425, "type": "electric_scooter", "fusion_lat": 0.0, "lat": 38.926682, "name": "1f4b980cc091a66a03dde028ba1a2d56", "fusion_lon": 0.0, "bike_id": "1f4b980cc091a66a03dde028ba1a2d56", "is_disabled": 0, "is_reserved": 0}, {"rental_uris": {"ios": "https://dc.lft.to/lastmile_qr_scan", "android": "https://dc.lft.to/lastmile_qr_scan"}, "lon": -76.98950283333333, "type": "electric_scooter", "fusion_lat": 0.0, "lat": 38.900368666666665, "name": "8e8771804548c56333009a83bac67d58", "fusion_lon": 0.0, "bike_id": "8e8771804548c56333009a83bac67d58", "is_disabled": 0, "is_reserved": 0}, {"rental_uris": {"ios": "https://dc.lft.to/lastmile_qr_scan", "android": "https://dc.lft.to/lastmile_qr_scan"}, "lon": -77.1289965, "type": "electric_bike", "fusion_lat": 0.0, "lat": 38.8637535, "name": "63c0fe133f9f85888c11882768fc7cf2", "fusion_lon": 0.0, "bike_id": "63c0fe133f9f85888c11882768fc7cf2", "is_disabled": 0, "is_reserved": 0}, {"rental_uris": {"ios": "https://dc.lft.to/lastmile_qr_scan", "android": "https://dc.lft.to/lastmile_qr_scan"}, "lon": -77.0596945, "type": "electric_scooter", "fusion_lat": 0.0, "lat": 38.905251666666665, "name": "8e46ebc18bc84bfbfdc4f306cefcf456", "fusion_lon": 0.0, "bike_id": "8e46ebc18bc84bfbfdc4f306cefcf456", "is_disabled": 0, "is_reserved": 0}, {"rental_uris": {"ios": "https://dc.lft.to/lastmile_qr_scan", "android": "https://dc.lft.to/lastmile_qr_scan"}, "lon": -77.03177966666667, "type": "electric_scooter", "fusion_lat": 0.0, "lat": 38.88731933333333, "name": "1ca8f5cebb128cf32112520dbc22cf31", "fusion_lon": 0.0, "bike_id": "1ca8f5cebb128cf32112520dbc22cf31", "is_disabled": 0, "is_reserved": 0}, {"rental_uris": {"ios": "https://dc.lft.to/lastmile_qr_scan", "android": "https://dc.lft.to/lastmile_qr_scan"}, "lon": -77.05008916666667, "type": "electric_scooter", "fusion_lat": 0.0, "lat": 38.9073155, "name": "21e3eaa80d49e503ab04737bed1caab4", "fusion_lon": 0.0, "bike_id": "21e3eaa80d49e503ab04737bed1caab4", "is_disabled": 0, "is_reserved": 0}, {"rental_uris": {"ios": "https://dc.lft.to/lastmile_qr_scan", "android": "https://dc.lft.to/lastmile_qr_scan"}, "lon": -77.0400665, "type": "electric_scooter", "fusion_lat": 0.0, "lat": 38.932533166666666, "name": "a095611b7ded34953d0f9aafea71b8ce", "fusion_lon": 0.0, "bike_id": "a095611b7ded34953d0f9aafea71b8ce", "is_disabled": 0, "is_reserved": 0}, {"rental_uris": {"ios": "https://dc.lft.to/lastmile_qr_scan", "android": "https://dc.lft.to/lastmile_qr_scan"}, "lon": -77.04877416666666, "type": "electric_scooter", "fusion_lat": 0.0, "lat": 38.9101905, "name": "b599367455bcbb06efc82eedbc5d6d20", "fusion_lon": 0.0, "bike_id": "b599367455bcbb06efc82eedbc5d6d20", "is_disabled": 0, "is_reserved": 0}, {"rental_uris": {"ios": "https://dc.lft.to/lastmile_qr_scan", "android": "https://dc.lft.to/lastmile_qr_scan"}, "lon": -77.020203, "type": "electric_scooter", "fusion_lat": 0.0, "lat": 38.916464500000004, "name": "eb7ab1946d95b12530bba81ec3a6b9b3", "fusion_lon": 0.0, "bike_id": "eb7ab1946d95b12530bba81ec3a6b9b3", "is_disabled": 0, "is_reserved": 0}, {"rental_uris": {"ios": "https://dc.lft.to/lastmile_qr_scan", "android": "https://dc.lft.to/lastmile_qr_scan"}, "lon": -76.967532, "type": "electric_bike", "fusion_lat": 0.0, "lat": 38.8754735, "name": "aec5953ae80a17e1a01bae673a930407", "fusion_lon": 0.0, "bike_id": "aec5953ae80a17e1a01bae673a930407", "is_disabled": 0, "is_reserved": 0}, {"rental_uris": {"ios": "https://dc.lft.to/lastmile_qr_scan", "android": "https://dc.lft.to/lastmile_qr_scan"}, "lon": -77.0321155, "type": "electric_scooter", "fusion_lat": 0.0, "lat": 38.91792016666667, "name": "8599a89e54158a63e4cd6fa2914bd2cb", "fusion_lon": 0.0, "bike_id": "8599a89e54158a63e4cd6fa2914bd2cb", "is_disabled": 0, "is_reserved": 0}, {"rental_uris": {"ios": "https://dc.lft.to/lastmile_qr_scan", "android": "https://dc.lft.to/lastmile_qr_scan"}, "lon": -77.0348035, "type": "electric_scooter", "fusion_lat": 0.0, "lat": 38.919939666666664, "name": "1878ccd07ffbdb45786fa2f25c14a144", "fusion_lon": 0.0, "bike_id": "1878ccd07ffbdb45786fa2f25c14a144", "is_disabled": 0, "is_reserved": 0}, {"rental_uris": {"ios": "https://dc.lft.to/lastmile_qr_scan", "android": "https://dc.lft.to/lastmile_qr_scan"}, "lon": -76.99383, "type": "electric_scooter", "fusion_lat": 0.0, "lat": 38.897434, "name": "24cf171fc69a9c6975c829f283ba204a", "fusion_lon": 0.0, "bike_id": "24cf171fc69a9c6975c829f283ba204a", "is_disabled": 0, "is_reserved": 0}, {"rental_uris": {"ios": "https://dc.lft.to/lastmile_qr_scan", "android": "https://dc.lft.to/lastmile_qr_scan"}, "lon": -77.01098733333333, "type": "electric_scooter", "fusion_lat": 0.0, "lat": 38.899994, "name": "c339ec53f054a637c6aa5af07a35b031", "fusion_lon": 0.0, "bike_id": "c339ec53f054a637c6aa5af07a35b031", "is_disabled": 0, "is_reserved": 0}, {"rental_uris": {"ios": "https://dc.lft.to/lastmile_qr_scan", "android": "https://dc.lft.to/lastmile_qr_scan"}, "lon": -77.03251883333333, "type": "electric_bike", "fusion_lat": 0.0, "lat": 38.888543166666665, "name": "e1faf86dc5fa29d1b74ff60cc1ed95f1", "fusion_lon": 0.0, "bike_id": "e1faf86dc5fa29d1b74ff60cc1ed95f1", "is_disabled": 0, "is_reserved": 0}, {"rental_uris": {"ios": "https://dc.lft.to/lastmile_qr_scan", "android": "https://dc.lft.to/lastmile_qr_scan"}, "lon": -77.0543625, "type": "electric_scooter", "fusion_lat": 0.0, "lat": 38.896076, "name": "7942827ed5da14f50d371e50797efbc2", "fusion_lon": 0.0, "bike_id": "7942827ed5da14f50d371e50797efbc2", "is_disabled": 0, "is_reserved": 0}, {"rental_uris": {"ios": "https://dc.lft.to/lastmile_qr_scan", "android": "https://dc.lft.to/lastmile_qr_scan"}, "lon": -77.04409683333333, "type": "electric_scooter", "fusion_lat": 0.0, "lat": 38.9056605, "name": "001be2f11d75a56e8a302054e21cba55", "fusion_lon": 0.0, "bike_id": "001be2f11d75a56e8a302054e21cba55", "is_disabled": 0, "is_reserved": 0}, {"rental_uris": {"ios": "https://dc.lft.to/lastmile_qr_scan", "android": "https://dc.lft.to/lastmile_qr_scan"}, "lon": -77.033408, "type": "electric_bike", "fusion_lat": 0.0, "lat": 38.96803233333333, "name": "a2ad66242688b53e18fd6a96aa2d178f", "fusion_lon": 0.0, "bike_id": "a2ad66242688b53e18fd6a96aa2d178f", "is_disabled": 0, "is_reserved": 0}, {"rental_uris": {"ios": "https://dc.lft.to/lastmile_qr_scan", "android": "https://dc.lft.to/lastmile_qr_scan"}, "lon": -77.04689966666666, "type": "electric_scooter", "fusion_lat": 0.0, "lat": 38.89609683333333, "name": "1f6e80d49d6734ac5ddfdd00613490bd", "fusion_lon": 0.0, "bike_id": "1f6e80d49d6734ac5ddfdd00613490bd", "is_disabled": 0, "is_reserved": 0}, {"rental_uris": {"ios": "https://dc.lft.to/lastmile_qr_scan", "android": "https://dc.lft.to/lastmile_qr_scan"}, "lon": -76.9867765, "type": "electric_scooter", "fusion_lat": 0.0, "lat": 38.8821615, "name": "4e592b5a2deca3a87e3809f5d20b4a3b", "fusion_lon": 0.0, "bike_id": "4e592b5a2deca3a87e3809f5d20b4a3b", "is_disabled": 0, "is_reserved": 0}, {"rental_uris": {"ios": "https://dc.lft.to/lastmile_qr_scan", "android": "https://dc.lft.to/lastmile_qr_scan"}, "lon": -76.99495366666666, "type": "electric_scooter", "fusion_lat": 0.0, "lat": 38.862427, "name": "85a6f28a4614d52607846a83f78d8fbc", "fusion_lon": 0.0, "bike_id": "85a6f28a4614d52607846a83f78d8fbc", "is_disabled": 0, "is_reserved": 0}, {"rental_uris": {"ios": "https://dc.lft.to/lastmile_qr_scan", "android": "https://dc.lft.to/lastmile_qr_scan"}, "lon": -77.01838866666667, "type": "electric_scooter", "fusion_lat": 0.0, "lat": 38.91105683333333, "name": "c161c6f70f1b951c73ff9d4543653a4b", "fusion_lon": 0.0, "bike_id": "c161c6f70f1b951c73ff9d4543653a4b", "is_disabled": 0, "is_reserved": 0}, {"rental_uris": {"ios": "https://dc.lft.to/lastmile_qr_scan", "android": "https://dc.lft.to/lastmile_qr_scan"}, "lon": -77.00198916666666, "type": "electric_bike", "fusion_lat": 0.0, "lat": 38.8830405, "name": "6234ff24b95e05fde28e80fa9583caf9", "fusion_lon": 0.0, "bike_id": "6234ff24b95e05fde28e80fa9583caf9", "is_disabled": 0, "is_reserved": 0}, {"rental_uris": {"ios": "https://dc.lft.to/lastmile_qr_scan", "android": "https://dc.lft.to/lastmile_qr_scan"}, "lon": -77.05029216666667, "type": "electric_scooter", "fusion_lat": 0.0, "lat": 38.900757666666664, "name": "8b9c5438b0c5f9495386e5e8f2e4c602", "fusion_lon": 0.0, "bike_id": "8b9c5438b0c5f9495386e5e8f2e4c602", "is_disabled": 0, "is_reserved": 0}, {"rental_uris": {"ios": "https://dc.lft.to/lastmile_qr_scan", "android": "https://dc.lft.to/lastmile_qr_scan"}, "lon": -77.03869066666667, "type": "electric_scooter", "fusion_lat": 0.0, "lat": 38.909673166666664, "name": "16ebc76c71766f713f53723090da23be", "fusion_lon": 0.0, "bike_id": "16ebc76c71766f713f53723090da23be", "is_disabled": 0, "is_reserved": 0}, {"rental_uris": {"ios": "https://dc.lft.to/lastmile_qr_scan", "android": "https://dc.lft.to/lastmile_qr_scan"}, "lon": -77.03112316666666, "type": "electric_scooter", "fusion_lat": 0.0, "lat": 38.91339, "name": "72f03f89fb5333a248ed013b30ca14dd", "fusion_lon": 0.0, "bike_id": "72f03f89fb5333a248ed013b30ca14dd", "is_disabled": 0, "is_reserved": 0}, {"rental_uris": {"ios": "https://dc.lft.to/lastmile_qr_scan", "android": "https://dc.lft.to/lastmile_qr_scan"}, "lon": -76.985602, "type": "electric_scooter", "fusion_lat": 0.0, "lat": 38.886680166666665, "name": "a5d51e665fb553a584fe32af7f674004", "fusion_lon": 0.0, "bike_id": "a5d51e665fb553a584fe32af7f674004", "is_disabled": 0, "is_reserved": 0}, {"rental_uris": {"ios": "https://dc.lft.to/lastmile_qr_scan", "android": "https://dc.lft.to/lastmile_qr_scan"}, "lon": -77.028946, "type": "electric_scooter", "fusion_lat": 0.0, "lat": 38.925694166666666, "name": "d966ac6afae9f4e0fb2d1f9f5ae0d3a1", "fusion_lon": 0.0, "bike_id": "d966ac6afae9f4e0fb2d1f9f5ae0d3a1", "is_disabled": 0, "is_reserved": 0}, {"rental_uris": {"ios": "https://dc.lft.to/lastmile_qr_scan", "android": "https://dc.lft.to/lastmile_qr_scan"}, "lon": -77.05885466666666, "type": "electric_scooter", "fusion_lat": 0.0, "lat": 38.936312, "name": "68477a3c63e44e9d2ff6ec1cc5838d65", "fusion_lon": 0.0, "bike_id": "68477a3c63e44e9d2ff6ec1cc5838d65", "is_disabled": 0, "is_reserved": 0}, {"rental_uris": {"ios": "https://dc.lft.to/lastmile_qr_scan", "android": "https://dc.lft.to/lastmile_qr_scan"}, "lon": -77.04500916666667, "type": "electric_scooter", "fusion_lat": 0.0, "lat": 38.912129666666665, "name": "fc2c4e1c110df720c05016308a6515c7", "fusion_lon": 0.0, "bike_id": "fc2c4e1c110df720c05016308a6515c7", "is_disabled": 0, "is_reserved": 0}, {"rental_uris": {"ios": "https://dc.lft.to/lastmile_qr_scan", "android": "https://dc.lft.to/lastmile_qr_scan"}, "lon": -76.9986885, "type": "electric_scooter", "fusion_lat": 0.0, "lat": 38.900251833333336, "name": "1f57a1f48a9d7f361cbb774082e24852", "fusion_lon": 0.0, "bike_id": "1f57a1f48a9d7f361cbb774082e24852", "is_disabled": 0, "is_reserved": 0}, {"rental_uris": {"ios": "https://dc.lft.to/lastmile_qr_scan", "android": "https://dc.lft.to/lastmile_qr_scan"}, "lon": -77.05685283333334, "type": "electric_scooter", "fusion_lat": 0.0, "lat": 38.93700466666667, "name": "292d14c1fd15ffc7afa2096e76a53d39", "fusion_lon": 0.0, "bike_id": "292d14c1fd15ffc7afa2096e76a53d39", "is_disabled": 0, "is_reserved": 0}, {"rental_uris": {"ios": "https://dc.lft.to/lastmile_qr_scan", "android": "https://dc.lft.to/lastmile_qr_scan"}, "lon": -76.935428, "type": "electric_bike", "fusion_lat": 0.0, "lat": 38.95184016666666, "name": "755d4e488fbea4bf9c26a6fe9af6b6f6", "fusion_lon": 0.0, "bike_id": "755d4e488fbea4bf9c26a6fe9af6b6f6", "is_disabled": 0, "is_reserved": 0}, {"rental_uris": {"ios": "https://dc.lft.to/lastmile_qr_scan", "android": "https://dc.lft.to/lastmile_qr_scan"}, "lon": -77.0356175, "type": "electric_scooter", "fusion_lat": 0.0, "lat": 38.9180695, "name": "be02c352b3e0798e173e05daabd1b60e", "fusion_lon": 0.0, "bike_id": "be02c352b3e0798e173e05daabd1b60e", "is_disabled": 0, "is_reserved": 0}, {"rental_uris": {"ios": "https://dc.lft.to/lastmile_qr_scan", "android": "https://dc.lft.to/lastmile_qr_scan"}, "lon": -77.04804833333333, "type": "electric_scooter", "fusion_lat": 0.0, "lat": 38.897457833333334, "name": "eb9aee0a85a8dba32d1abe64cec14dc9", "fusion_lon": 0.0, "bike_id": "eb9aee0a85a8dba32d1abe64cec14dc9", "is_disabled": 0, "is_reserved": 0}, {"rental_uris": {"ios": "https://dc.lft.to/lastmile_qr_scan", "android": "https://dc.lft.to/lastmile_qr_scan"}, "lon": -76.99546866666667, "type": "electric_scooter", "fusion_lat": 0.0, "lat": 38.92313866666667, "name": "032d39b1449e3516b5a1f217b4ea4cb9", "fusion_lon": 0.0, "bike_id": "032d39b1449e3516b5a1f217b4ea4cb9", "is_disabled": 0, "is_reserved": 0}, {"rental_uris": {"ios": "https://dc.lft.to/lastmile_qr_scan", "android": "https://dc.lft.to/lastmile_qr_scan"}, "lon": -77.05811966666667, "type": "electric_scooter", "fusion_lat": 0.0, "lat": 38.902971, "name": "169759bf4e673680ef8260d660c3c051", "fusion_lon": 0.0, "bike_id": "169759bf4e673680ef8260d660c3c051", "is_disabled": 0, "is_reserved": 0}, {"rental_uris": {"ios": "https://dc.lft.to/lastmile_qr_scan", "android": "https://dc.lft.to/lastmile_qr_scan"}, "lon": -76.97331616666666, "type": "electric_scooter", "fusion_lat": 0.0, "lat": 38.904778, "name": "31c621dd5b7c5d8c05fc560995333533", "fusion_lon": 0.0, "bike_id": "31c621dd5b7c5d8c05fc560995333533", "is_disabled": 0, "is_reserved": 0}, {"rental_uris": {"ios": "https://dc.lft.to/lastmile_qr_scan", "android": "https://dc.lft.to/lastmile_qr_scan"}, "lon": -77.04353, "type": "electric_scooter", "fusion_lat": 0.0, "lat": 38.907989, "name": "e68b4d097b9af0ae190224363f2f9df5", "fusion_lon": 0.0, "bike_id": "e68b4d097b9af0ae190224363f2f9df5", "is_disabled": 0, "is_reserved": 0}, {"rental_uris": {"ios": "https://dc.lft.to/lastmile_qr_scan", "android": "https://dc.lft.to/lastmile_qr_scan"}, "lon": -77.03941983333333, "type": "electric_scooter", "fusion_lat": 0.0, "lat": 38.8990695, "name": "1af4790ddfdb3c5c51013637c6198853", "fusion_lon": 0.0, "bike_id": "1af4790ddfdb3c5c51013637c6198853", "is_disabled": 0, "is_reserved": 0}, {"rental_uris": {"ios": "https://dc.lft.to/lastmile_qr_scan", "android": "https://dc.lft.to/lastmile_qr_scan"}, "lon": -76.9463005, "type": "electric_bike", "fusion_lat": 0.0, "lat": 38.946228833333336, "name": "1162e82eb5477076ad9a47336321ef8e", "fusion_lon": 0.0, "bike_id": "1162e82eb5477076ad9a47336321ef8e", "is_disabled": 0, "is_reserved": 0}, {"rental_uris": {"ios": "https://dc.lft.to/lastmile_qr_scan", "android": "https://dc.lft.to/lastmile_qr_scan"}, "lon": -77.02646933333334, "type": "electric_scooter", "fusion_lat": 0.0, "lat": 38.89617233333333, "name": "1ab2a46e9a2a0570c3b0119941d545d1", "fusion_lon": 0.0, "bike_id": "1ab2a46e9a2a0570c3b0119941d545d1", "is_disabled": 0, "is_reserved": 0}, {"rental_uris": {"ios": "https://dc.lft.to/lastmile_qr_scan", "android": "https://dc.lft.to/lastmile_qr_scan"}, "lon": -77.03246833333333, "type": "electric_scooter", "fusion_lat": 0.0, "lat": 38.909761333333336, "name": "de8d20fdcb6971142951eab99e76bfba", "fusion_lon": 0.0, "bike_id": "de8d20fdcb6971142951eab99e76bfba", "is_disabled": 0, "is_reserved": 0}, {"rental_uris": {"ios": "https://dc.lft.to/lastmile_qr_scan", "android": "https://dc.lft.to/lastmile_qr_scan"}, "lon": -77.029178, "type": "electric_scooter", "fusion_lat": 0.0, "lat": 38.89548883333333, "name": "77b3be0f6c107ba129fefd04dfffac16", "fusion_lon": 0.0, "bike_id": "77b3be0f6c107ba129fefd04dfffac16", "is_disabled": 0, "is_reserved": 0}, {"rental_uris": {"ios": "https://dc.lft.to/lastmile_qr_scan", "android": "https://dc.lft.to/lastmile_qr_scan"}, "lon": -76.99878166666667, "type": "electric_scooter", "fusion_lat": 0.0, "lat": 38.90750283333333, "name": "147c62e9458b1e59fbdb4fab01dc9db7", "fusion_lon": 0.0, "bike_id": "147c62e9458b1e59fbdb4fab01dc9db7", "is_disabled": 0, "is_reserved": 0}, {"rental_uris": {"ios": "https://dc.lft.to/lastmile_qr_scan", "android": "https://dc.lft.to/lastmile_qr_scan"}, "lon": -77.06309533333334, "type": "electric_scooter", "fusion_lat": 0.0, "lat": 38.906927333333336, "name": "037e8e9e7c3f34454006c656e2107bf3", "fusion_lon": 0.0, "bike_id": "037e8e9e7c3f34454006c656e2107bf3", "is_disabled": 0, "is_reserved": 0}, {"rental_uris": {"ios": "https://dc.lft.to/lastmile_qr_scan", "android": "https://dc.lft.to/lastmile_qr_scan"}, "lon": -77.05001433333334, "type": "electric_scooter", "fusion_lat": 0.0, "lat": 38.8922965, "name": "328e0419d36849806b43b219d45d05b6", "fusion_lon": 0.0, "bike_id": "328e0419d36849806b43b219d45d05b6", "is_disabled": 0, "is_reserved": 0}, {"rental_uris": {"ios": "https://dc.lft.to/lastmile_qr_scan", "android": "https://dc.lft.to/lastmile_qr_scan"}, "lon": -76.972098, "type": "electric_scooter", "fusion_lat": 0.0, "lat": 38.854961333333335, "name": "38e2bd8060e73796d7f1232292dde15c", "fusion_lon": 0.0, "bike_id": "38e2bd8060e73796d7f1232292dde15c", "is_disabled": 0, "is_reserved": 0}, {"rental_uris": {"ios": "https://dc.lft.to/lastmile_qr_scan", "android": "https://dc.lft.to/lastmile_qr_scan"}, "lon": -77.03973716666667, "type": "electric_scooter", "fusion_lat": 0.0, "lat": 38.900119, "name": "7b8606966c857894ff1aec2ed20660f6", "fusion_lon": 0.0, "bike_id": "7b8606966c857894ff1aec2ed20660f6", "is_disabled": 0, "is_reserved": 0}, {"rental_uris": {"ios": "https://dc.lft.to/lastmile_qr_scan", "android": "https://dc.lft.to/lastmile_qr_scan"}, "lon": -77.02210533333333, "type": "electric_scooter", "fusion_lat": 0.0, "lat": 38.8960865, "name": "5a9a7559a410f4e92e30d708961eeb4f", "fusion_lon": 0.0, "bike_id": "5a9a7559a410f4e92e30d708961eeb4f", "is_disabled": 0, "is_reserved": 0}, {"rental_uris": {"ios": "https://dc.lft.to/lastmile_qr_scan", "android": "https://dc.lft.to/lastmile_qr_scan"}, "lon": -77.04683566666667, "type": "electric_scooter", "fusion_lat": 0.0, "lat": 38.90372433333334, "name": "bb522179d5c75adbe7d68f2504e3ca56", "fusion_lon": 0.0, "bike_id": "bb522179d5c75adbe7d68f2504e3ca56", "is_disabled": 0, "is_reserved": 0}, {"rental_uris": {"ios": "https://dc.lft.to/lastmile_qr_scan", "android": "https://dc.lft.to/lastmile_qr_scan"}, "lon": -77.04488816666667, "type": "electric_scooter", "fusion_lat": 0.0, "lat": 38.91192516666667, "name": "221e15d66dd470e3ec8d5a2d10fb11b3", "fusion_lon": 0.0, "bike_id": "221e15d66dd470e3ec8d5a2d10fb11b3", "is_disabled": 0, "is_reserved": 0}, {"rental_uris": {"ios": "https://dc.lft.to/lastmile_qr_scan", "android": "https://dc.lft.to/lastmile_qr_scan"}, "lon": -76.9994905, "type": "electric_scooter", "fusion_lat": 0.0, "lat": 38.842926166666665, "name": "cc594425f2c7dae72b1288a9a48a5b7d", "fusion_lon": 0.0, "bike_id": "cc594425f2c7dae72b1288a9a48a5b7d", "is_disabled": 0, "is_reserved": 0}, {"rental_uris": {"ios": "https://dc.lft.to/lastmile_qr_scan", "android": "https://dc.lft.to/lastmile_qr_scan"}, "lon": -77.02181766666666, "type": "electric_bike", "fusion_lat": 0.0, "lat": 38.89251683333333, "name": "31cb526f44e150dfba559b219f0eb7f3", "fusion_lon": 0.0, "bike_id": "31cb526f44e150dfba559b219f0eb7f3", "is_disabled": 0, "is_reserved": 0}, {"rental_uris": {"ios": "https://dc.lft.to/lastmile_qr_scan", "android": "https://dc.lft.to/lastmile_qr_scan"}, "lon": -77.04058816666667, "type": "electric_scooter", "fusion_lat": 0.0, "lat": 38.92644883333333, "name": "5f7305beae1d218c272fbb1dfe44277e", "fusion_lon": 0.0, "bike_id": "5f7305beae1d218c272fbb1dfe44277e", "is_disabled": 0, "is_reserved": 0}, {"rental_uris": {"ios": "https://dc.lft.to/lastmile_qr_scan", "android": "https://dc.lft.to/lastmile_qr_scan"}, "lon": -77.0093155, "type": "electric_scooter", "fusion_lat": 0.0, "lat": 38.871924666666665, "name": "70db695a4352685b27a37df51bacf037", "fusion_lon": 0.0, "bike_id": "70db695a4352685b27a37df51bacf037", "is_disabled": 0, "is_reserved": 0}, {"rental_uris": {"ios": "https://dc.lft.to/lastmile_qr_scan", "android": "https://dc.lft.to/lastmile_qr_scan"}, "lon": -77.04331716666667, "type": "electric_scooter", "fusion_lat": 0.0, "lat": 38.892244166666664, "name": "228731abe7446e39e91f74ae9651bea8", "fusion_lon": 0.0, "bike_id": "228731abe7446e39e91f74ae9651bea8", "is_disabled": 0, "is_reserved": 0}, {"rental_uris": {"ios": "https://dc.lft.to/lastmile_qr_scan", "android": "https://dc.lft.to/lastmile_qr_scan"}, "lon": -77.06534916666666, "type": "electric_scooter", "fusion_lat": 0.0, "lat": 38.9053215, "name": "0cb54de0020e75520ca22d8ef7b8afd5", "fusion_lon": 0.0, "bike_id": "0cb54de0020e75520ca22d8ef7b8afd5", "is_disabled": 0, "is_reserved": 0}, {"rental_uris": {"ios": "https://dc.lft.to/lastmile_qr_scan", "android": "https://dc.lft.to/lastmile_qr_scan"}, "lon": -77.0436915, "type": "electric_scooter", "fusion_lat": 0.0, "lat": 38.91105783333333, "name": "fc132acfdf8fec636116f036d838d98e", "fusion_lon": 0.0, "bike_id": "fc132acfdf8fec636116f036d838d98e", "is_disabled": 0, "is_reserved": 0}, {"rental_uris": {"ios": "https://dc.lft.to/lastmile_qr_scan", "android": "https://dc.lft.to/lastmile_qr_scan"}, "lon": -77.06364116666667, "type": "electric_scooter", "fusion_lat": 0.0, "lat": 38.909286, "name": "b5b9b341c17a453a143b21c054969a08", "fusion_lon": 0.0, "bike_id": "b5b9b341c17a453a143b21c054969a08", "is_disabled": 0, "is_reserved": 0}, {"rental_uris": {"ios": "https://dc.lft.to/lastmile_qr_scan", "android": "https://dc.lft.to/lastmile_qr_scan"}, "lon": -77.04128833333333, "type": "electric_scooter", "fusion_lat": 0.0, "lat": 38.922106166666666, "name": "06afdedf5c075595dbc979cce03c6418", "fusion_lon": 0.0, "bike_id": "06afdedf5c075595dbc979cce03c6418", "is_disabled": 0, "is_reserved": 0}, {"rental_uris": {"ios": "https://dc.lft.to/lastmile_qr_scan", "android": "https://dc.lft.to/lastmile_qr_scan"}, "lon": -77.04348316666666, "type": "electric_scooter", "fusion_lat": 0.0, "lat": 38.910516666666666, "name": "c3c6a24e22a3958fbb64d168cbbb0d74", "fusion_lon": 0.0, "bike_id": "c3c6a24e22a3958fbb64d168cbbb0d74", "is_disabled": 0, "is_reserved": 0}, {"rental_uris": {"ios": "https://dc.lft.to/lastmile_qr_scan", "android": "https://dc.lft.to/lastmile_qr_scan"}, "lon": -77.0704335, "type": "electric_bike", "fusion_lat": 0.0, "lat": 38.824435, "name": "fcd1efd554a01281b1782cef715dc32a", "fusion_lon": 0.0, "bike_id": "fcd1efd554a01281b1782cef715dc32a", "is_disabled": 0, "is_reserved": 0}, {"rental_uris": {"ios": "https://dc.lft.to/lastmile_qr_scan", "android": "https://dc.lft.to/lastmile_qr_scan"}, "lon": -77.06884533333333, "type": "electric_scooter", "fusion_lat": 0.0, "lat": 38.940277, "name": "f5dcfe72ae948ace2c5e0df086e1a21c", "fusion_lon": 0.0, "bike_id": "f5dcfe72ae948ace2c5e0df086e1a21c", "is_disabled": 0, "is_reserved": 0}, {"rental_uris": {"ios": "https://dc.lft.to/lastmile_qr_scan", "android": "https://dc.lft.to/lastmile_qr_scan"}, "lon": -77.024039, "type": "electric_scooter", "fusion_lat": 0.0, "lat": 38.9097775, "name": "f9fcd1aab6f34557d5177486a67a0507", "fusion_lon": 0.0, "bike_id": "f9fcd1aab6f34557d5177486a67a0507", "is_disabled": 0, "is_reserved": 0}, {"rental_uris": {"ios": "https://dc.lft.to/lastmile_qr_scan", "android": "https://dc.lft.to/lastmile_qr_scan"}, "lon": -77.02688116666667, "type": "electric_bike", "fusion_lat": 0.0, "lat": 38.911247833333334, "name": "63c2a6991d40e666e35c558925f09252", "fusion_lon": 0.0, "bike_id": "63c2a6991d40e666e35c558925f09252", "is_disabled": 0, "is_reserved": 0}, {"rental_uris": {"ios": "https://dc.lft.to/lastmile_qr_scan", "android": "https://dc.lft.to/lastmile_qr_scan"}, "lon": -76.98886283333333, "type": "electric_scooter", "fusion_lat": 0.0, "lat": 38.86659616666667, "name": "d932f3da947a86a49030dd74bbbd5ff8", "fusion_lon": 0.0, "bike_id": "d932f3da947a86a49030dd74bbbd5ff8", "is_disabled": 0, "is_reserved": 0}, {"rental_uris": {"ios": "https://dc.lft.to/lastmile_qr_scan", "android": "https://dc.lft.to/lastmile_qr_scan"}, "lon": -77.04174066666667, "type": "electric_scooter", "fusion_lat": 0.0, "lat": 38.91144933333333, "name": "205c37807bcd7c34410e18d71e3428ab", "fusion_lon": 0.0, "bike_id": "205c37807bcd7c34410e18d71e3428ab", "is_disabled": 0, "is_reserved": 0}, {"rental_uris": {"ios": "https://dc.lft.to/lastmile_qr_scan", "android": "https://dc.lft.to/lastmile_qr_scan"}, "lon": -77.04172216666667, "type": "electric_scooter", "fusion_lat": 0.0, "lat": 38.913934, "name": "4345ce11a50e3149776f42c042dcf4fd", "fusion_lon": 0.0, "bike_id": "4345ce11a50e3149776f42c042dcf4fd", "is_disabled": 0, "is_reserved": 0}, {"rental_uris": {"ios": "https://dc.lft.to/lastmile_qr_scan", "android": "https://dc.lft.to/lastmile_qr_scan"}, "lon": -77.03858433333333, "type": "electric_scooter", "fusion_lat": 0.0, "lat": 38.932564666666664, "name": "da96d7798770524ed10acb0817f5342e", "fusion_lon": 0.0, "bike_id": "da96d7798770524ed10acb0817f5342e", "is_disabled": 0, "is_reserved": 0}, {"rental_uris": {"ios": "https://dc.lft.to/lastmile_qr_scan", "android": "https://dc.lft.to/lastmile_qr_scan"}, "lon": -77.02760116666667, "type": "electric_scooter", "fusion_lat": 0.0, "lat": 38.915487666666664, "name": "468044c6186a4fa1871b3a3085b5d970", "fusion_lon": 0.0, "bike_id": "468044c6186a4fa1871b3a3085b5d970", "is_disabled": 0, "is_reserved": 0}, {"rental_uris": {"ios": "https://dc.lft.to/lastmile_qr_scan", "android": "https://dc.lft.to/lastmile_qr_scan"}, "lon": -77.12499216666667, "type": "electric_bike", "fusion_lat": 0.0, "lat": 39.02416633333333, "name": "14f43dcd1f37ff724918686dcad3d8f8", "fusion_lon": 0.0, "bike_id": "14f43dcd1f37ff724918686dcad3d8f8", "is_disabled": 0, "is_reserved": 0}, {"rental_uris": {"ios": "https://dc.lft.to/lastmile_qr_scan", "android": "https://dc.lft.to/lastmile_qr_scan"}, "lon": -77.00196533333333, "type": "electric_scooter", "fusion_lat": 0.0, "lat": 38.900398333333335, "name": "ebbd68e115b5facdeeeca668172bd3b6", "fusion_lon": 0.0, "bike_id": "ebbd68e115b5facdeeeca668172bd3b6", "is_disabled": 0, "is_reserved": 0}, {"rental_uris": {"ios": "https://dc.lft.to/lastmile_qr_scan", "android": "https://dc.lft.to/lastmile_qr_scan"}, "lon": -77.005895, "type": "electric_scooter", "fusion_lat": 0.0, "lat": 38.915659166666664, "name": "aefa587d0f1efab1036036f36f7c5438", "fusion_lon": 0.0, "bike_id": "aefa587d0f1efab1036036f36f7c5438", "is_disabled": 0, "is_reserved": 0}, {"rental_uris": {"ios": "https://dc.lft.to/lastmile_qr_scan", "android": "https://dc.lft.to/lastmile_qr_scan"}, "lon": -77.0247805, "type": "electric_scooter", "fusion_lat": 0.0, "lat": 38.938502166666666, "name": "fdde0afd9c15597997f90794409cd926", "fusion_lon": 0.0, "bike_id": "fdde0afd9c15597997f90794409cd926", "is_disabled": 0, "is_reserved": 0}, {"rental_uris": {"ios": "https://dc.lft.to/lastmile_qr_scan", "android": "https://dc.lft.to/lastmile_qr_scan"}, "lon": -77.01641983333333, "type": "electric_scooter", "fusion_lat": 0.0, "lat": 38.90242716666667, "name": "fc0872ab3d35526655242fa554b1b71a", "fusion_lon": 0.0, "bike_id": "fc0872ab3d35526655242fa554b1b71a", "is_disabled": 0, "is_reserved": 0}, {"rental_uris": {"ios": "https://dc.lft.to/lastmile_qr_scan", "android": "https://dc.lft.to/lastmile_qr_scan"}, "lon": -77.02469916666666, "type": "electric_scooter", "fusion_lat": 0.0, "lat": 38.9310085, "name": "aaafa7fc5b9fd3245da94d2a9f67521d", "fusion_lon": 0.0, "bike_id": "aaafa7fc5b9fd3245da94d2a9f67521d", "is_disabled": 0, "is_reserved": 0}, {"rental_uris": {"ios": "https://dc.lft.to/lastmile_qr_scan", "android": "https://dc.lft.to/lastmile_qr_scan"}, "lon": -77.022182, "type": "electric_scooter", "fusion_lat": 0.0, "lat": 38.892195666666666, "name": "96cc347bbcbadc2eff32917c02ebeb59", "fusion_lon": 0.0, "bike_id": "96cc347bbcbadc2eff32917c02ebeb59", "is_disabled": 0, "is_reserved": 0}, {"rental_uris": {"ios": "https://dc.lft.to/lastmile_qr_scan", "android": "https://dc.lft.to/lastmile_qr_scan"}, "lon": -77.04693766666666, "type": "electric_scooter", "fusion_lat": 0.0, "lat": 38.8974125, "name": "a78fcc455623d0d0913acb2d4307691e", "fusion_lon": 0.0, "bike_id": "a78fcc455623d0d0913acb2d4307691e", "is_disabled": 0, "is_reserved": 0}, {"rental_uris": {"ios": "https://dc.lft.to/lastmile_qr_scan", "android": "https://dc.lft.to/lastmile_qr_scan"}, "lon": -77.03869783333333, "type": "electric_scooter", "fusion_lat": 0.0, "lat": 38.90281783333333, "name": "6deab801750765d431657d3cb858ee35", "fusion_lon": 0.0, "bike_id": "6deab801750765d431657d3cb858ee35", "is_disabled": 0, "is_reserved": 0}, {"rental_uris": {"ios": "https://dc.lft.to/lastmile_qr_scan", "android": "https://dc.lft.to/lastmile_qr_scan"}, "lon": -77.04516883333334, "type": "electric_scooter", "fusion_lat": 0.0, "lat": 38.912878, "name": "833ceb347c8c109c8c077d3d10e60e5b", "fusion_lon": 0.0, "bike_id": "833ceb347c8c109c8c077d3d10e60e5b", "is_disabled": 0, "is_reserved": 0}, {"rental_uris": {"ios": "https://dc.lft.to/lastmile_qr_scan", "android": "https://dc.lft.to/lastmile_qr_scan"}, "lon": -77.038501, "type": "electric_scooter", "fusion_lat": 0.0, "lat": 38.91657466666667, "name": "a208838229511e6bdb284cef6941abb5", "fusion_lon": 0.0, "bike_id": "a208838229511e6bdb284cef6941abb5", "is_disabled": 0, "is_reserved": 0}, {"rental_uris": {"ios": "https://dc.lft.to/lastmile_qr_scan", "android": "https://dc.lft.to/lastmile_qr_scan"}, "lon": -77.0416615, "type": "electric_scooter", "fusion_lat": 0.0, "lat": 38.91201483333333, "name": "e663fea2a69be1544c87f38e0a8c3aa8", "fusion_lon": 0.0, "bike_id": "e663fea2a69be1544c87f38e0a8c3aa8", "is_disabled": 0, "is_reserved": 0}, {"rental_uris": {"ios": "https://dc.lft.to/lastmile_qr_scan", "android": "https://dc.lft.to/lastmile_qr_scan"}, "lon": -77.01434233333333, "type": "electric_scooter", "fusion_lat": 0.0, "lat": 38.92989333333333, "name": "7dcfe15aa4a8e60d3e771e4faba56621", "fusion_lon": 0.0, "bike_id": "7dcfe15aa4a8e60d3e771e4faba56621", "is_disabled": 0, "is_reserved": 0}, {"rental_uris": {"ios": "https://dc.lft.to/lastmile_qr_scan", "android": "https://dc.lft.to/lastmile_qr_scan"}, "lon": -77.00198866666666, "type": "electric_scooter", "fusion_lat": 0.0, "lat": 38.89984533333333, "name": "299e371d16a0462bb68b24b82b1cf7c5", "fusion_lon": 0.0, "bike_id": "299e371d16a0462bb68b24b82b1cf7c5", "is_disabled": 0, "is_reserved": 0}, {"rental_uris": {"ios": "https://dc.lft.to/lastmile_qr_scan", "android": "https://dc.lft.to/lastmile_qr_scan"}, "lon": -76.9889865, "type": "electric_scooter", "fusion_lat": 0.0, "lat": 38.8669025, "name": "87f418b41db59af89876f384bb5a3226", "fusion_lon": 0.0, "bike_id": "87f418b41db59af89876f384bb5a3226", "is_disabled": 0, "is_reserved": 0}, {"rental_uris": {"ios": "https://dc.lft.to/lastmile_qr_scan", "android": "https://dc.lft.to/lastmile_qr_scan"}, "lon": -76.95355166666667, "type": "electric_bike", "fusion_lat": 0.0, "lat": 38.939494, "name": "9bd709fb952e158f9e966cb8ad02556f", "fusion_lon": 0.0, "bike_id": "9bd709fb952e158f9e966cb8ad02556f", "is_disabled": 0, "is_reserved": 0}, {"rental_uris": {"ios": "https://dc.lft.to/lastmile_qr_scan", "android": "https://dc.lft.to/lastmile_qr_scan"}, "lon": -77.04859983333333, "type": "electric_scooter", "fusion_lat": 0.0, "lat": 38.90847266666667, "name": "b9c0c402d160c719f92211f412222edf", "fusion_lon": 0.0, "bike_id": "b9c0c402d160c719f92211f412222edf", "is_disabled": 0, "is_reserved": 0}, {"rental_uris": {"ios": "https://dc.lft.to/lastmile_qr_scan", "android": "https://dc.lft.to/lastmile_qr_scan"}, "lon": -77.1784235, "type": "electric_bike", "fusion_lat": 0.0, "lat": 39.08858466666667, "name": "99e3c8d5ac9845d97c37ef8c5ab71f2c", "fusion_lon": 0.0, "bike_id": "99e3c8d5ac9845d97c37ef8c5ab71f2c", "is_disabled": 0, "is_reserved": 0}, {"rental_uris": {"ios": "https://dc.lft.to/lastmile_qr_scan", "android": "https://dc.lft.to/lastmile_qr_scan"}, "lon": -77.04334066666667, "type": "electric_scooter", "fusion_lat": 0.0, "lat": 38.892240666666666, "name": "7107ea3517a7c73f0227b7fd1045e356", "fusion_lon": 0.0, "bike_id": "7107ea3517a7c73f0227b7fd1045e356", "is_disabled": 0, "is_reserved": 0}, {"rental_uris": {"ios": "https://dc.lft.to/lastmile_qr_scan", "android": "https://dc.lft.to/lastmile_qr_scan"}, "lon": -77.02126816666667, "type": "electric_scooter", "fusion_lat": 0.0, "lat": 38.916078666666664, "name": "5e99519f98f9ac908e12651631d26312", "fusion_lon": 0.0, "bike_id": "5e99519f98f9ac908e12651631d26312", "is_disabled": 0, "is_reserved": 0}, {"rental_uris": {"ios": "https://dc.lft.to/lastmile_qr_scan", "android": "https://dc.lft.to/lastmile_qr_scan"},