{"data": {"bikes": [{"fusion_lat": 0.0, "name": "697dce0f70ed19ad526e69fa11857d28", "is_disabled": 0, "rental_uris": {"android": "https://dc.lft.to/lastmile_qr_scan", "ios": "https://dc.lft.to/lastmile_qr_scan"}, "fusion_lon": 0.0, "lat": 38.91987533333333, "bike_id": "697dce0f70ed19ad526e69fa11857d28", "type": "electric_scooter", "is_reserved": 0, "lon": -77.02375933333333}, {"fusion_lat": 0.0, "name": "787a984098dcc2f1a854522f65de0bfe", "is_disabled": 0, "rental_uris": {"android": "https://dc.lft.to/lastmile_qr_scan", "ios": "https://dc.lft.to/lastmile_qr_scan"}, "fusion_lon": 0.0, "lat": 38.884020666666665, "bike_id": "787a984098dcc2f1a854522f65de0bfe", "type": "electric_bike", "is_reserved": 0, "lon": -76.96055533333333}, {"fusion_lat": 0.0, "name": "020c863f2d8fcb9f1b6a4338f8ac3422", "is_disabled": 0, "rental_uris": {"android": "https://dc.lft.to/lastmile_qr_scan", "ios": "https://dc.lft.to/lastmile_qr_scan"}, "fusion_lon": 0.0, "lat": 38.928039, "bike_id": "020c863f2d8fcb9f1b6a4338f8ac3422", "type": "electric_scooter", "is_reserved": 0, "lon": -77.023921}, {"fusion_lat": 0.0, "name": "8745ba67cced8cd314fdade05a87f769", "is_disabled": 0, "rental_uris": {"android": "https://dc.lft.to/lastmile_qr_scan", "ios": "https://dc.lft.to/lastmile_qr_scan"}, "fusion_lon": 0.0, "lat": 38.888993, "bike_id": "8745ba67cced8cd314fdade05a87f769", "type": "electric_scooter", "is_reserved": 0, "lon": -76.97731983333334}, {"fusion_lat": 0.0, "name": "26a816855de838765f5b3a399ebac063", "is_disabled": 0, "rental_uris": {"android": "https://dc.lft.to/lastmile_qr_scan", "ios": "https://dc.lft.to/lastmile_qr_scan"}, "fusion_lon": 0.0, "lat": 38.87377383333333, "bike_id": "26a816855de838765f5b3a399ebac063", "type": "electric_scooter", "is_reserved": 0, "lon": -77.0006225}, {"fusion_lat": 0.0, "name": "0a468ab8a432946be01a46ef52c4576d", "is_disabled": 0, "rental_uris": {"android": "https://dc.lft.to/lastmile_qr_scan", "ios": "https://dc.lft.to/lastmile_qr_scan"}, "fusion_lon": 0.0, "lat": 38.905593, "bike_id": "0a468ab8a432946be01a46ef52c4576d", "type": "electric_scooter", "is_reserved": 0, "lon": -77.03473016666666}, {"fusion_lat": 0.0, "name": "f8c56c5be01af6cd38f6ab41c60ccaba", "is_disabled": 0, "rental_uris": {"android": "https://dc.lft.to/lastmile_qr_scan", "ios": "https://dc.lft.to/lastmile_qr_scan"}, "fusion_lon": 0.0, "lat": 38.867610666666664, "bike_id": "f8c56c5be01af6cd38f6ab41c60ccaba", "type": "electric_scooter", "is_reserved": 0, "lon": -76.98270183333334}, {"fusion_lat": 0.0, "name": "268a4cd632fc3627810f7370dc6465e1", "is_disabled": 0, "rental_uris": {"android": "https://dc.lft.to/lastmile_qr_scan", "ios": "https://dc.lft.to/lastmile_qr_scan"}, "fusion_lon": 0.0, "lat": 38.90504683333333, "bike_id": "268a4cd632fc3627810f7370dc6465e1", "type": "electric_scooter", "is_reserved": 0, "lon": -77.0296535}, {"fusion_lat": 0.0, "name": "796300e252fd0382f7025d3d13b4a4ff", "is_disabled": 0, "rental_uris": {"android": "https://dc.lft.to/lastmile_qr_scan", "ios": "https://dc.lft.to/lastmile_qr_scan"}, "fusion_lon": 0.0, "lat": 38.91642266666667, "bike_id": "796300e252fd0382f7025d3d13b4a4ff", "type": "electric_scooter", "is_reserved": 0, "lon": -77.045301}, {"fusion_lat": 0.0, "name": "a5a3663cf10734d9a1258e7f381f436d", "is_disabled": 0, "rental_uris": {"android": "https://dc.lft.to/lastmile_qr_scan", "ios": "https://dc.lft.to/lastmile_qr_scan"}, "fusion_lon": 0.0, "lat": 38.91270016666667, "bike_id": "a5a3663cf10734d9a1258e7f381f436d", "type": "electric_scooter", "is_reserved": 0, "lon": -77.038709}, {"fusion_lat": 0.0, "name": "d565d44acd842cd45761ff3a9edf422e", "is_disabled": 0, "rental_uris": {"android": "https://dc.lft.to/lastmile_qr_scan", "ios": "https://dc.lft.to/lastmile_qr_scan"}, "fusion_lon": 0.0, "lat": 38.89640466666667, "bike_id": "d565d44acd842cd45761ff3a9edf422e", "type": "electric_scooter", "is_reserved": 0, "lon": -77.02659066666666}, {"fusion_lat": 0.0, "name": "7fcaa83e0f315e3e301abb0bdea0a655", "is_disabled": 0, "rental_uris": {"android": "https://dc.lft.to/lastmile_qr_scan", "ios": "https://dc.lft.to/lastmile_qr_scan"}, "fusion_lon": 0.0, "lat": 38.957452333333336, "bike_id": "7fcaa83e0f315e3e301abb0bdea0a655", "type": "electric_bike", "is_reserved": 0, "lon": -76.97256116666667}, {"fusion_lat": 0.0, "name": "03a666813ae6b787af6339bccf30965d", "is_disabled": 0, "rental_uris": {"android": "https://dc.lft.to/lastmile_qr_scan", "ios": "https://dc.lft.to/lastmile_qr_scan"}, "fusion_lon": 0.0, "lat": 38.9506505, "bike_id": "03a666813ae6b787af6339bccf30965d", "type": "electric_bike", "is_reserved": 0, "lon": -77.0722865}, {"fusion_lat": 0.0, "name": "b2b9ff469208024cff083667a0af5611", "is_disabled": 0, "rental_uris": {"android": "https://dc.lft.to/lastmile_qr_scan", "ios": "https://dc.lft.to/lastmile_qr_scan"}, "fusion_lon": 0.0, "lat": 38.90519033333333, "bike_id": "b2b9ff469208024cff083667a0af5611", "type": "electric_scooter", "is_reserved": 0, "lon": -77.02950733333333}, {"fusion_lat": 0.0, "name": "efa32135be446b5b10156c91669a92ed", "is_disabled": 0, "rental_uris": {"android": "https://dc.lft.to/lastmile_qr_scan", "ios": "https://dc.lft.to/lastmile_qr_scan"}, "fusion_lon": 0.0, "lat": 38.91323466666667, "bike_id": "efa32135be446b5b10156c91669a92ed", "type": "electric_scooter", "is_reserved": 0, "lon": -77.02952816666667}, {"fusion_lat": 0.0, "name": "902e5e05bab3871c651face09d4c97c2", "is_disabled": 0, "rental_uris": {"android": "https://dc.lft.to/lastmile_qr_scan", "ios": "https://dc.lft.to/lastmile_qr_scan"}, "fusion_lon": 0.0, "lat": 38.911123333333336, "bike_id": "902e5e05bab3871c651face09d4c97c2", "type": "electric_scooter", "is_reserved": 0, "lon": -77.0115205}, {"fusion_lat": 0.0, "name": "974800ca45536a8456b4f05cf4d83ebb", "is_disabled": 0, "rental_uris": {"android": "https://dc.lft.to/lastmile_qr_scan", "ios": "https://dc.lft.to/lastmile_qr_scan"}, "fusion_lon": 0.0, "lat": 38.95635883333333, "bike_id": "974800ca45536a8456b4f05cf4d83ebb", "type": "electric_scooter", "is_reserved": 0, "lon": -77.03308233333334}, {"fusion_lat": 0.0, "name": "67dfb6f7763abcdaf4951cfe9f30c274", "is_disabled": 0, "rental_uris": {"android": "https://dc.lft.to/lastmile_qr_scan", "ios": "https://dc.lft.to/lastmile_qr_scan"}, "fusion_lon": 0.0, "lat": 38.922268833333334, "bike_id": "67dfb6f7763abcdaf4951cfe9f30c274", "type": "electric_scooter", "is_reserved": 0, "lon": -76.99353916666666}, {"fusion_lat": 0.0, "name": "2814bc90dc7990fb4b9d65da2bf5d01d", "is_disabled": 0, "rental_uris": {"android": "https://dc.lft.to/lastmile_qr_scan", "ios": "https://dc.lft.to/lastmile_qr_scan"}, "fusion_lon": 0.0, "lat": 38.95877316666667, "bike_id": "2814bc90dc7990fb4b9d65da2bf5d01d", "type": "electric_bike", "is_reserved": 0, "lon": -76.970529}, {"fusion_lat": 0.0, "name": "b9f994eb4ea7db59845c19bd10eafc23", "is_disabled": 0, "rental_uris": {"android": "https://dc.lft.to/lastmile_qr_scan", "ios": "https://dc.lft.to/lastmile_qr_scan"}, "fusion_lon": 0.0, "lat": 38.91406283333333, "bike_id": "b9f994eb4ea7db59845c19bd10eafc23", "type": "electric_scooter", "is_reserved": 0, "lon": -77.04414333333334}, {"fusion_lat": 0.0, "name": "1166ca4e005d598942df9cd13531dc72", "is_disabled": 0, "rental_uris": {"android": "https://dc.lft.to/lastmile_qr_scan", "ios": "https://dc.lft.to/lastmile_qr_scan"}, "fusion_lon": 0.0, "lat": 38.9266465, "bike_id": "1166ca4e005d598942df9cd13531dc72", "type": "electric_bike", "is_reserved": 0, "lon": -77.0985085}, {"fusion_lat": 0.0, "name": "3414e394a1f05455771ea56e142ee40a", "is_disabled": 0, "rental_uris": {"android": "https://dc.lft.to/lastmile_qr_scan", "ios": "https://dc.lft.to/lastmile_qr_scan"}, "fusion_lon": 0.0, "lat": 38.920882166666665, "bike_id": "3414e394a1f05455771ea56e142ee40a", "type": "electric_scooter", "is_reserved": 0, "lon": -77.07372433333333}, {"fusion_lat": 0.0, "name": "169f717f2268482fa34f659f67d848c6", "is_disabled": 0, "rental_uris": {"android": "https://dc.lft.to/lastmile_qr_scan", "ios": "https://dc.lft.to/lastmile_qr_scan"}, "fusion_lon": 0.0, "lat": 38.91786616666667, "bike_id": "169f717f2268482fa34f659f67d848c6", "type": "electric_scooter", "is_reserved": 0, "lon": -77.02697616666667}, {"fusion_lat": 0.0, "name": "4eb29eb534a597d20240002cfad82b92", "is_disabled": 0, "rental_uris": {"android": "https://dc.lft.to/lastmile_qr_scan", "ios": "https://dc.lft.to/lastmile_qr_scan"}, "fusion_lon": 0.0, "lat": 38.917065, "bike_id": "4eb29eb534a597d20240002cfad82b92", "type": "electric_scooter", "is_reserved": 0, "lon": -77.04151316666666}, {"fusion_lat": 0.0, "name": "937cbdea2b2e476db0695593e0635a8b", "is_disabled": 0, "rental_uris": {"android": "https://dc.lft.to/lastmile_qr_scan", "ios": "https://dc.lft.to/lastmile_qr_scan"}, "fusion_lon": 0.0, "lat": 38.798551, "bike_id": "937cbdea2b2e476db0695593e0635a8b", "type": "electric_bike", "is_reserved": 0, "lon": -77.06309766666666}, {"fusion_lat": 0.0, "name": "531997b839dc3b165fac58005049df64", "is_disabled": 0, "rental_uris": {"android": "https://dc.lft.to/lastmile_qr_scan", "ios": "https://dc.lft.to/lastmile_qr_scan"}, "fusion_lon": 0.0, "lat": 38.93249133333333, "bike_id": "531997b839dc3b165fac58005049df64", "type": "electric_scooter", "is_reserved": 0, "lon": -77.03420433333334}, {"fusion_lat": 0.0, "name": "2de851f6e87b43f70550e176a919d2fb", "is_disabled": 0, "rental_uris": {"android": "https://dc.lft.to/lastmile_qr_scan", "ios": "https://dc.lft.to/lastmile_qr_scan"}, "fusion_lon": 0.0, "lat": 38.94755383333333, "bike_id": "2de851f6e87b43f70550e176a919d2fb", "type": "electric_scooter", "is_reserved": 0, "lon": -77.00720716666666}, {"fusion_lat": 0.0, "name": "f2bbde3ba56567cb5911110c81ab54c8", "is_disabled": 0, "rental_uris": {"android": "https://dc.lft.to/lastmile_qr_scan", "ios": "https://dc.lft.to/lastmile_qr_scan"}, "fusion_lon": 0.0, "lat": 38.88206666666667, "bike_id": "f2bbde3ba56567cb5911110c81ab54c8", "type": "electric_scooter", "is_reserved": 0, "lon": -77.028534}, {"fusion_lat": 0.0, "name": "771e250cfd153253af026768f8cc848f", "is_disabled": 0, "rental_uris": {"android": "https://dc.lft.to/lastmile_qr_scan", "ios": "https://dc.lft.to/lastmile_qr_scan"}, "fusion_lon": 0.0, "lat": 38.898568, "bike_id": "771e250cfd153253af026768f8cc848f", "type": "electric_scooter", "is_reserved": 0, "lon": -76.976735}, {"fusion_lat": 0.0, "name": "510e27d3ecc9678becf0d4696d73aa30", "is_disabled": 0, "rental_uris": {"android": "https://dc.lft.to/lastmile_qr_scan", "ios": "https://dc.lft.to/lastmile_qr_scan"}, "fusion_lon": 0.0, "lat": 38.897439, "bike_id": "510e27d3ecc9678becf0d4696d73aa30", "type": "electric_scooter", "is_reserved": 0, "lon": -77.0496125}, {"fusion_lat": 0.0, "name": "3bde60ea55a3c6c3f6e15ad41dd24d7d", "is_disabled": 0, "rental_uris": {"android": "https://dc.lft.to/lastmile_qr_scan", "ios": "https://dc.lft.to/lastmile_qr_scan"}, "fusion_lon": 0.0, "lat": 38.87987433333333, "bike_id": "3bde60ea55a3c6c3f6e15ad41dd24d7d", "type": "electric_scooter", "is_reserved": 0, "lon": -77.0240925}, {"fusion_lat": 0.0, "name": "283a95004558a3bfc5e5c7024748ceb6", "is_disabled": 0, "rental_uris": {"android": "https://dc.lft.to/lastmile_qr_scan", "ios": "https://dc.lft.to/lastmile_qr_scan"}, "fusion_lon": 0.0, "lat": 38.920738666666665, "bike_id": "283a95004558a3bfc5e5c7024748ceb6", "type": "electric_scooter", "is_reserved": 0, "lon": -77.02396916666666}, {"fusion_lat": 0.0, "name": "1949b13ed04ff2309eecc2ef7c74d441", "is_disabled": 0, "rental_uris": {"android": "https://dc.lft.to/lastmile_qr_scan", "ios": "https://dc.lft.to/lastmile_qr_scan"}, "fusion_lon": 0.0, "lat": 38.890917333333334, "bike_id": "1949b13ed04ff2309eecc2ef7c74d441", "type": "electric_scooter", "is_reserved": 0, "lon": -76.91931466666666}, {"fusion_lat": 0.0, "name": "c2ad6f93bfe863069eb3a0111244f067", "is_disabled": 0, "rental_uris": {"android": "https://dc.lft.to/lastmile_qr_scan", "ios": "https://dc.lft.to/lastmile_qr_scan"}, "fusion_lon": 0.0, "lat": 38.924707833333336, "bike_id": "c2ad6f93bfe863069eb3a0111244f067", "type": "electric_scooter", "is_reserved": 0, "lon": -77.03860766666666}, {"fusion_lat": 0.0, "name": "7aad34b919fcf78073c687c6647cd08b", "is_disabled": 0, "rental_uris": {"android": "https://dc.lft.to/lastmile_qr_scan", "ios": "https://dc.lft.to/lastmile_qr_scan"}, "fusion_lon": 0.0, "lat": 38.9443115, "bike_id": "7aad34b919fcf78073c687c6647cd08b", "type": "electric_bike", "is_reserved": 0, "lon": -77.02604666666667}, {"fusion_lat": 0.0, "name": "e2b5ba961f4c22ecb97c6457f039ab45", "is_disabled": 0, "rental_uris": {"android": "https://dc.lft.to/lastmile_qr_scan", "ios": "https://dc.lft.to/lastmile_qr_scan"}, "fusion_lon": 0.0, "lat": 38.9071375, "bike_id": "e2b5ba961f4c22ecb97c6457f039ab45", "type": "electric_scooter", "is_reserved": 0, "lon": -77.05134533333333}, {"fusion_lat": 0.0, "name": "35b28e2b4ad838aad40e5f699cb2fa46", "is_disabled": 0, "rental_uris": {"android": "https://dc.lft.to/lastmile_qr_scan", "ios": "https://dc.lft.to/lastmile_qr_scan"}, "fusion_lon": 0.0, "lat": 38.914571, "bike_id": "35b28e2b4ad838aad40e5f699cb2fa46", "type": "electric_scooter", "is_reserved": 0, "lon": -77.00644033333333}, {"fusion_lat": 0.0, "name": "27a92e509e49570a619dc4e3ad863555", "is_disabled": 0, "rental_uris": {"android": "https://dc.lft.to/lastmile_qr_scan", "ios": "https://dc.lft.to/lastmile_qr_scan"}, "fusion_lon": 0.0, "lat": 38.9140235, "bike_id": "27a92e509e49570a619dc4e3ad863555", "type": "electric_scooter", "is_reserved": 0, "lon": -77.04869066666667}, {"fusion_lat": 0.0, "name": "22ef9753a6f7a91f284b3f6ea86f6656", "is_disabled": 0, "rental_uris": {"android": "https://dc.lft.to/lastmile_qr_scan", "ios": "https://dc.lft.to/lastmile_qr_scan"}, "fusion_lon": 0.0, "lat": 38.933034166666665, "bike_id": "22ef9753a6f7a91f284b3f6ea86f6656", "type": "electric_scooter", "is_reserved": 0, "lon": -77.0307475}, {"fusion_lat": 0.0, "name": "8ca359a1d5ebb45e2f7cbd9767703cf9", "is_disabled": 0, "rental_uris": {"android": "https://dc.lft.to/lastmile_qr_scan", "ios": "https://dc.lft.to/lastmile_qr_scan"}, "fusion_lon": 0.0, "lat": 38.8996335, "bike_id": "8ca359a1d5ebb45e2f7cbd9767703cf9", "type": "electric_scooter", "is_reserved": 0, "lon": -77.04159233333333}, {"fusion_lat": 0.0, "name": "29a87106bfc0e3a19dd7ac47d7f54eb1", "is_disabled": 0, "rental_uris": {"android": "https://dc.lft.to/lastmile_qr_scan", "ios": "https://dc.lft.to/lastmile_qr_scan"}, "fusion_lon": 0.0, "lat": 38.900447666666665, "bike_id": "29a87106bfc0e3a19dd7ac47d7f54eb1", "type": "electric_scooter", "is_reserved": 0, "lon": -77.039935}, {"fusion_lat": 0.0, "name": "67d807bf334fb156c341a2d281ba104b", "is_disabled": 0, "rental_uris": {"android": "https://dc.lft.to/lastmile_qr_scan", "ios": "https://dc.lft.to/lastmile_qr_scan"}, "fusion_lon": 0.0, "lat": 38.909615333333335, "bike_id": "67d807bf334fb156c341a2d281ba104b", "type": "electric_scooter", "is_reserved": 0, "lon": -77.035673}, {"fusion_lat": 0.0, "name": "d68ee148dc15696bf251f1219d805229", "is_disabled": 0, "rental_uris": {"android": "https://dc.lft.to/lastmile_qr_scan", "ios": "https://dc.lft.to/lastmile_qr_scan"}, "fusion_lon": 0.0, "lat": 38.89204983333333, "bike_id": "d68ee148dc15696bf251f1219d805229", "type": "electric_scooter", "is_reserved": 0, "lon": -76.97703916666667}, {"fusion_lat": 0.0, "name": "1c0f3f042d78e1125edc8a8cc06cb57d", "is_disabled": 0, "rental_uris": {"android": "https://dc.lft.to/lastmile_qr_scan", "ios": "https://dc.lft.to/lastmile_qr_scan"}, "fusion_lon": 0.0, "lat": 38.89637583333333, "bike_id": "1c0f3f042d78e1125edc8a8cc06cb57d", "type": "electric_scooter", "is_reserved": 0, "lon": -77.01165266666666}, {"fusion_lat": 0.0, "name": "ccad56b1892000b30eb43d3d8e14e025", "is_disabled": 0, "rental_uris": {"android": "https://dc.lft.to/lastmile_qr_scan", "ios": "https://dc.lft.to/lastmile_qr_scan"}, "fusion_lon": 0.0, "lat": 38.904108, "bike_id": "ccad56b1892000b30eb43d3d8e14e025", "type": "electric_scooter", "is_reserved": 0, "lon": -76.97330366666667}, {"fusion_lat": 0.0, "name": "26ac44d046b17016c461e136d556aa12", "is_disabled": 0, "rental_uris": {"android": "https://dc.lft.to/lastmile_qr_scan", "ios": "https://dc.lft.to/lastmile_qr_scan"}, "fusion_lon": 0.0, "lat": 38.87788116666667, "bike_id": "26ac44d046b17016c461e136d556aa12", "type": "electric_scooter", "is_reserved": 0, "lon": -76.99415816666667}, {"fusion_lat": 0.0, "name": "787ecec8f1929cd3eb96b59a26a8b2b3", "is_disabled": 0, "rental_uris": {"android": "https://dc.lft.to/lastmile_qr_scan", "ios": "https://dc.lft.to/lastmile_qr_scan"}, "fusion_lon": 0.0, "lat": 38.922886, "bike_id": "787ecec8f1929cd3eb96b59a26a8b2b3", "type": "electric_scooter", "is_reserved": 0, "lon": -77.01993383333334}, {"fusion_lat": 0.0, "name": "9a505ddc9a446f5df6ecc75a8be25982", "is_disabled": 0, "rental_uris": {"android": "https://dc.lft.to/lastmile_qr_scan", "ios": "https://dc.lft.to/lastmile_qr_scan"}, "fusion_lon": 0.0, "lat": 38.8841605, "bike_id": "9a505ddc9a446f5df6ecc75a8be25982", "type": "electric_scooter", "is_reserved": 0, "lon": -77.02189133333333}, {"fusion_lat": 0.0, "name": "918dc242d10c29bacde3992d8213a0cc", "is_disabled": 0, "rental_uris": {"android": "https://dc.lft.to/lastmile_qr_scan", "ios": "https://dc.lft.to/lastmile_qr_scan"}, "fusion_lon": 0.0, "lat": 38.935326833333335, "bike_id": "918dc242d10c29bacde3992d8213a0cc", "type": "electric_scooter", "is_reserved": 0, "lon": -77.02354766666667}, {"fusion_lat": 0.0, "name": "85155e8047e135ff2d155a2c6ad2616d", "is_disabled": 0, "rental_uris": {"android": "https://dc.lft.to/lastmile_qr_scan", "ios": "https://dc.lft.to/lastmile_qr_scan"}, "fusion_lon": 0.0, "lat": 38.933983166666664, "bike_id": "85155e8047e135ff2d155a2c6ad2616d", "type": "electric_scooter", "is_reserved": 0, "lon": -77.05745916666666}, {"fusion_lat": 0.0, "name": "e7d9bddfb148306d89a37df8d45f668d", "is_disabled": 0, "rental_uris": {"android": "https://dc.lft.to/lastmile_qr_scan", "ios": "https://dc.lft.to/lastmile_qr_scan"}, "fusion_lon": 0.0, "lat": 38.962038666666665, "bike_id": "e7d9bddfb148306d89a37df8d45f668d", "type": "electric_scooter", "is_reserved": 0, "lon": -77.02231333333333}, {"fusion_lat": 0.0, "name": "e063a450d8aa5641ea4290273d633d98", "is_disabled": 0, "rental_uris": {"android": "https://dc.lft.to/lastmile_qr_scan", "ios": "https://dc.lft.to/lastmile_qr_scan"}, "fusion_lon": 0.0, "lat": 38.887187833333336, "bike_id": "e063a450d8aa5641ea4290273d633d98", "type": "electric_scooter", "is_reserved": 0, "lon": -77.01329183333333}, {"fusion_lat": 0.0, "name": "e2a0e61b6ae0a81a6393a6abd8e39f3b", "is_disabled": 0, "rental_uris": {"android": "https://dc.lft.to/lastmile_qr_scan", "ios": "https://dc.lft.to/lastmile_qr_scan"}, "fusion_lon": 0.0, "lat": 38.9050175, "bike_id": "e2a0e61b6ae0a81a6393a6abd8e39f3b", "type": "electric_scooter", "is_reserved": 0, "lon": -77.01787733333333}, {"fusion_lat": 0.0, "name": "64a8e3c4c1389dd10f4c7d20f7c08ec4", "is_disabled": 0, "rental_uris": {"android": "https://dc.lft.to/lastmile_qr_scan", "ios": "https://dc.lft.to/lastmile_qr_scan"}, "fusion_lon": 0.0, "lat": 38.902918166666666, "bike_id": "64a8e3c4c1389dd10f4c7d20f7c08ec4", "type": "electric_scooter", "is_reserved": 0, "lon": -76.97633683333333}, {"fusion_lat": 0.0, "name": "c53d114cd317e0149ae2c1e8ffa75301", "is_disabled": 0, "rental_uris": {"android": "https://dc.lft.to/lastmile_qr_scan", "ios": "https://dc.lft.to/lastmile_qr_scan"}, "fusion_lon": 0.0, "lat": 38.938607166666664, "bike_id": "c53d114cd317e0149ae2c1e8ffa75301", "type": "electric_scooter", "is_reserved": 0, "lon": -77.02327683333333}, {"fusion_lat": 0.0, "name": "ccd5a91b1bd441f96157ab5b401d8738", "is_disabled": 0, "rental_uris": {"android": "https://dc.lft.to/lastmile_qr_scan", "ios": "https://dc.lft.to/lastmile_qr_scan"}, "fusion_lon": 0.0, "lat": 38.89621783333333, "bike_id": "ccd5a91b1bd441f96157ab5b401d8738", "type": "electric_scooter", "is_reserved": 0, "lon": -77.03167533333334}, {"fusion_lat": 0.0, "name": "897d92041c65ef4347347ed895d544d3", "is_disabled": 0, "rental_uris": {"android": "https://dc.lft.to/lastmile_qr_scan", "ios": "https://dc.lft.to/lastmile_qr_scan"}, "fusion_lon": 0.0, "lat": 38.99772816666667, "bike_id": "897d92041c65ef4347347ed895d544d3", "type": "electric_bike", "is_reserved": 0, "lon": -77.04718066666666}, {"fusion_lat": 0.0, "name": "c7d3c8eb136d71ae9b7eb8f1f9fcdd51", "is_disabled": 0, "rental_uris": {"android": "https://dc.lft.to/lastmile_qr_scan", "ios": "https://dc.lft.to/lastmile_qr_scan"}, "fusion_lon": 0.0, "lat": 38.90305866666667, "bike_id": "c7d3c8eb136d71ae9b7eb8f1f9fcdd51", "type": "electric_bike", "is_reserved": 0, "lon": -76.976528}, {"fusion_lat": 0.0, "name": "f94f7e64d028b79924085f5f70c81dbc", "is_disabled": 0, "rental_uris": {"android": "https://dc.lft.to/lastmile_qr_scan", "ios": "https://dc.lft.to/lastmile_qr_scan"}, "fusion_lon": 0.0, "lat": 38.9182875, "bike_id": "f94f7e64d028b79924085f5f70c81dbc", "type": "electric_scooter", "is_reserved": 0, "lon": -77.03636266666666}, {"fusion_lat": 0.0, "name": "e39c4a60d08ce376619c2b59f3cb1809", "is_disabled": 0, "rental_uris": {"android": "https://dc.lft.to/lastmile_qr_scan", "ios": "https://dc.lft.to/lastmile_qr_scan"}, "fusion_lon": 0.0, "lat": 38.941589666666665, "bike_id": "e39c4a60d08ce376619c2b59f3cb1809", "type": "electric_scooter", "is_reserved": 0, "lon": -77.02624783333333}, {"fusion_lat": 0.0, "name": "67bbb753d08b06411b0ae5f09db78b49", "is_disabled": 0, "rental_uris": {"android": "https://dc.lft.to/lastmile_qr_scan", "ios": "https://dc.lft.to/lastmile_qr_scan"}, "fusion_lon": 0.0, "lat": 38.91915, "bike_id": "67bbb753d08b06411b0ae5f09db78b49", "type": "electric_scooter", "is_reserved": 0, "lon": -77.02622}, {"fusion_lat": 0.0, "name": "86ba49bdd59f4bc2c63128ffa9a4f615", "is_disabled": 0, "rental_uris": {"android": "https://dc.lft.to/lastmile_qr_scan", "ios": "https://dc.lft.to/lastmile_qr_scan"}, "fusion_lon": 0.0, "lat": 38.8963435, "bike_id": "86ba49bdd59f4bc2c63128ffa9a4f615", "type": "electric_scooter", "is_reserved": 0, "lon": -77.02665533333334}, {"fusion_lat": 0.0, "name": "4bb905fa4b40ee5f5b12cd361642a158", "is_disabled": 0, "rental_uris": {"android": "https://dc.lft.to/lastmile_qr_scan", "ios": "https://dc.lft.to/lastmile_qr_scan"}, "fusion_lon": 0.0, "lat": 38.88349616666667, "bike_id": "4bb905fa4b40ee5f5b12cd361642a158", "type": "electric_scooter", "is_reserved": 0, "lon": -77.01741466666667}, {"fusion_lat": 0.0, "name": "26aa298b082900c08a02ea9280001437", "is_disabled": 0, "rental_uris": {"android": "https://dc.lft.to/lastmile_qr_scan", "ios": "https://dc.lft.to/lastmile_qr_scan"}, "fusion_lon": 0.0, "lat": 38.952488, "bike_id": "26aa298b082900c08a02ea9280001437", "type": "electric_scooter", "is_reserved": 0, "lon": -77.02377733333333}, {"fusion_lat": 0.0, "name": "b2de78b09dc539866c45bc8be9c3682f", "is_disabled": 0, "rental_uris": {"android": "https://dc.lft.to/lastmile_qr_scan", "ios": "https://dc.lft.to/lastmile_qr_scan"}, "fusion_lon": 0.0, "lat": 38.96728983333333, "bike_id": "b2de78b09dc539866c45bc8be9c3682f", "type": "electric_scooter", "is_reserved": 0, "lon": -77.00917783333334}, {"fusion_lat": 0.0, "name": "70bb4ae887b920c65af320d837941640", "is_disabled": 0, "rental_uris": {"android": "https://dc.lft.to/lastmile_qr_scan", "ios": "https://dc.lft.to/lastmile_qr_scan"}, "fusion_lon": 0.0, "lat": 38.8754625, "bike_id": "70bb4ae887b920c65af320d837941640", "type": "electric_scooter", "is_reserved": 0, "lon": -77.00536183333334}, {"fusion_lat": 0.0, "name": "8f9518cc61348eedbcd9fefc4271e136", "is_disabled": 0, "rental_uris": {"android": "https://dc.lft.to/lastmile_qr_scan", "ios": "https://dc.lft.to/lastmile_qr_scan"}, "fusion_lon": 0.0, "lat": 38.898787666666664, "bike_id": "8f9518cc61348eedbcd9fefc4271e136", "type": "electric_scooter", "is_reserved": 0, "lon": -77.046501}, {"fusion_lat": 0.0, "name": "53b31e002db43f707d065ae5d5d352fe", "is_disabled": 0, "rental_uris": {"android": "https://dc.lft.to/lastmile_qr_scan", "ios": "https://dc.lft.to/lastmile_qr_scan"}, "fusion_lon": 0.0, "lat": 38.893474, "bike_id": "53b31e002db43f707d065ae5d5d352fe", "type": "electric_scooter", "is_reserved": 0, "lon": -77.00070883333333}, {"fusion_lat": 0.0, "name": "921fdac0933b4a88c5bc6f8dd396a0aa", "is_disabled": 0, "rental_uris": {"android": "https://dc.lft.to/lastmile_qr_scan", "ios": "https://dc.lft.to/lastmile_qr_scan"}, "fusion_lon": 0.0, "lat": 38.8925875, "bike_id": "921fdac0933b4a88c5bc6f8dd396a0aa", "type": "electric_bike", "is_reserved": 0, "lon": -76.951154}, {"fusion_lat": 0.0, "name": "2c1a6cd75e02d5450f94cead96290700", "is_disabled": 0, "rental_uris": {"android": "https://dc.lft.to/lastmile_qr_scan", "ios": "https://dc.lft.to/lastmile_qr_scan"}, "fusion_lon": 0.0, "lat": 38.92465133333334, "bike_id": "2c1a6cd75e02d5450f94cead96290700", "type": "electric_scooter", "is_reserved": 0, "lon": -77.08034916666666}, {"fusion_lat": 0.0, "name": "785b87e2263f274efc4176d1a2fc93b4", "is_disabled": 0, "rental_uris": {"android": "https://dc.lft.to/lastmile_qr_scan", "ios": "https://dc.lft.to/lastmile_qr_scan"}, "fusion_lon": 0.0, "lat": 38.946276166666664, "bike_id": "785b87e2263f274efc4176d1a2fc93b4", "type": "electric_scooter", "is_reserved": 0, "lon": -77.032798}, {"fusion_lat": 0.0, "name": "b7f7d273d901640dcabd8bbeb3ac307b", "is_disabled": 0, "rental_uris": {"android": "https://dc.lft.to/lastmile_qr_scan", "ios": "https://dc.lft.to/lastmile_qr_scan"}, "fusion_lon": 0.0, "lat": 38.9204555, "bike_id": "b7f7d273d901640dcabd8bbeb3ac307b", "type": "electric_scooter", "is_reserved": 0, "lon": -77.00208533333333}, {"fusion_lat": 0.0, "name": "8a67b06c33ea8d2acc6cff744618dbce", "is_disabled": 0, "rental_uris": {"android": "https://dc.lft.to/lastmile_qr_scan", "ios": "https://dc.lft.to/lastmile_qr_scan"}, "fusion_lon": 0.0, "lat": 38.89642516666667, "bike_id": "8a67b06c33ea8d2acc6cff744618dbce", "type": "electric_scooter", "is_reserved": 0, "lon": -77.01144466666666}, {"fusion_lat": 0.0, "name": "6d05ccda07b4661cd88e0fd5d3db3368", "is_disabled": 0, "rental_uris": {"android": "https://dc.lft.to/lastmile_qr_scan", "ios": "https://dc.lft.to/lastmile_qr_scan"}, "fusion_lon": 0.0, "lat": 38.9490815, "bike_id": "6d05ccda07b4661cd88e0fd5d3db3368", "type": "electric_bike", "is_reserved": 0, "lon": -77.03804033333333}, {"fusion_lat": 0.0, "name": "c5afaf94bf5ac7098e8a9d8dcf8a3ee6", "is_disabled": 0, "rental_uris": {"android": "https://dc.lft.to/lastmile_qr_scan", "ios": "https://dc.lft.to/lastmile_qr_scan"}, "fusion_lon": 0.0, "lat": 38.888746833333336, "bike_id": "c5afaf94bf5ac7098e8a9d8dcf8a3ee6", "type": "electric_scooter", "is_reserved": 0, "lon": -76.98452083333333}, {"fusion_lat": 0.0, "name": "7e557afc791448ae8d7fc810fed2e3ca", "is_disabled": 0, "rental_uris": {"android": "https://dc.lft.to/lastmile_qr_scan", "ios": "https://dc.lft.to/lastmile_qr_scan"}, "fusion_lon": 0.0, "lat": 38.887463, "bike_id": "7e557afc791448ae8d7fc810fed2e3ca", "type": "electric_scooter", "is_reserved": 0, "lon": -77.02364216666666}, {"fusion_lat": 0.0, "name": "bd69abee9e5d5b9d810244f9a8313ab5", "is_disabled": 0, "rental_uris": {"android": "https://dc.lft.to/lastmile_qr_scan", "ios": "https://dc.lft.to/lastmile_qr_scan"}, "fusion_lon": 0.0, "lat": 38.92634816666666, "bike_id": "bd69abee9e5d5b9d810244f9a8313ab5", "type": "electric_scooter", "is_reserved": 0, "lon": -77.03399766666666}, {"fusion_lat": 0.0, "name": "0cde5452e37c9bfcc518c2c0a17d6719", "is_disabled": 0, "rental_uris": {"android": "https://dc.lft.to/lastmile_qr_scan", "ios": "https://dc.lft.to/lastmile_qr_scan"}, "fusion_lon": 0.0, "lat": 38.90660783333333, "bike_id": "0cde5452e37c9bfcc518c2c0a17d6719", "type": "electric_scooter", "is_reserved": 0, "lon": -77.03528}, {"fusion_lat": 0.0, "name": "062979665736d97a84ae8d0252bbddd7", "is_disabled": 0, "rental_uris": {"android": "https://dc.lft.to/lastmile_qr_scan", "ios": "https://dc.lft.to/lastmile_qr_scan"}, "fusion_lon": 0.0, "lat": 38.901886833333336, "bike_id": "062979665736d97a84ae8d0252bbddd7", "type": "electric_scooter", "is_reserved": 0, "lon": -76.92900566666667}, {"fusion_lat": 0.0, "name": "8da88b29a5054578e9fdb7a50051acdc", "is_disabled": 0, "rental_uris": {"android": "https://dc.lft.to/lastmile_qr_scan", "ios": "https://dc.lft.to/lastmile_qr_scan"}, "fusion_lon": 0.0, "lat": 38.88627116666667, "bike_id": "8da88b29a5054578e9fdb7a50051acdc", "type": "electric_scooter", "is_reserved": 0, "lon": -76.92592033333334}, {"fusion_lat": 0.0, "name": "679b33c74ad6086c5f5e1a9151bdbd94", "is_disabled": 0, "rental_uris": {"android": "https://dc.lft.to/lastmile_qr_scan", "ios": "https://dc.lft.to/lastmile_qr_scan"}, "fusion_lon": 0.0, "lat": 38.85511183333333, "bike_id": "679b33c74ad6086c5f5e1a9151bdbd94", "type": "electric_bike", "is_reserved": 0, "lon": -77.10540316666666}, {"fusion_lat": 0.0, "name": "b4970dcb1bf70fdb6f5c38c4975597d9", "is_disabled": 0, "rental_uris": {"android": "https://dc.lft.to/lastmile_qr_scan", "ios": "https://dc.lft.to/lastmile_qr_scan"}, "fusion_lon": 0.0, "lat": 38.88344283333333, "bike_id": "b4970dcb1bf70fdb6f5c38c4975597d9", "type": "electric_scooter", "is_reserved": 0, "lon": -76.99504783333333}, {"fusion_lat": 0.0, "name": "970f78debf9e2eba725f8decedb03bcd", "is_disabled": 0, "rental_uris": {"android": "https://dc.lft.to/lastmile_qr_scan", "ios": "https://dc.lft.to/lastmile_qr_scan"}, "fusion_lon": 0.0, "lat": 38.91969316666667, "bike_id": "970f78debf9e2eba725f8decedb03bcd", "type": "electric_scooter", "is_reserved": 0, "lon": -77.00114}, {"fusion_lat": 0.0, "name": "186d6a76b5b8676c46b529a0bd32e28f", "is_disabled": 0, "rental_uris": {"android": "https://dc.lft.to/lastmile_qr_scan", "ios": "https://dc.lft.to/lastmile_qr_scan"}, "fusion_lon": 0.0, "lat": 38.928282333333335, "bike_id": "186d6a76b5b8676c46b529a0bd32e28f", "type": "electric_scooter", "is_reserved": 0, "lon": -77.05437966666666}, {"fusion_lat": 0.0, "name": "e6e5b042c75c1b5f7810e655b1363254", "is_disabled": 0, "rental_uris": {"android": "https://dc.lft.to/lastmile_qr_scan", "ios": "https://dc.lft.to/lastmile_qr_scan"}, "fusion_lon": 0.0, "lat": 38.90573333333333, "bike_id": "e6e5b042c75c1b5f7810e655b1363254", "type": "electric_scooter", "is_reserved": 0, "lon": -77.0306105}, {"fusion_lat": 0.0, "name": "080d393c790a3b67a4cb46d94a01ad0a", "is_disabled": 0, "rental_uris": {"android": "https://dc.lft.to/lastmile_qr_scan", "ios": "https://dc.lft.to/lastmile_qr_scan"}, "fusion_lon": 0.0, "lat": 38.903154, "bike_id": "080d393c790a3b67a4cb46d94a01ad0a", "type": "electric_scooter", "is_reserved": 0, "lon": -76.97795033333334}, {"fusion_lat": 0.0, "name": "872428cf57eb43e5987436088423b06c", "is_disabled": 0, "rental_uris": {"android": "https://dc.lft.to/lastmile_qr_scan", "ios": "https://dc.lft.to/lastmile_qr_scan"}, "fusion_lon": 0.0, "lat": 38.920930166666665, "bike_id": "872428cf57eb43e5987436088423b06c", "type": "electric_scooter", "is_reserved": 0, "lon": -76.9946255}, {"fusion_lat": 0.0, "name": "100287bf826f65ddc4f5e3d59d0bd3c4", "is_disabled": 0, "rental_uris": {"android": "https://dc.lft.to/lastmile_qr_scan", "ios": "https://dc.lft.to/lastmile_qr_scan"}, "fusion_lon": 0.0, "lat": 38.921206, "bike_id": "100287bf826f65ddc4f5e3d59d0bd3c4", "type": "electric_scooter", "is_reserved": 0, "lon": -77.0120765}, {"fusion_lat": 0.0, "name": "00bab4756f603e3ef8772b6a2ee2b051", "is_disabled": 0, "rental_uris": {"android": "https://dc.lft.to/lastmile_qr_scan", "ios": "https://dc.lft.to/lastmile_qr_scan"}, "fusion_lon": 0.0, "lat": 38.88734683333333, "bike_id": "00bab4756f603e3ef8772b6a2ee2b051", "type": "electric_scooter", "is_reserved": 0, "lon": -77.0258605}, {"fusion_lat": 0.0, "name": "e41fff544dad2cad0194988ef717aadb", "is_disabled": 0, "rental_uris": {"android": "https://dc.lft.to/lastmile_qr_scan", "ios": "https://dc.lft.to/lastmile_qr_scan"}, "fusion_lon": 0.0, "lat": 38.92389083333333, "bike_id": "e41fff544dad2cad0194988ef717aadb", "type": "electric_scooter", "is_reserved": 0, "lon": -77.02599066666667}, {"fusion_lat": 0.0, "name": "aafcbee235be67399e3855d0d730276d", "is_disabled": 0, "rental_uris": {"android": "https://dc.lft.to/lastmile_qr_scan", "ios": "https://dc.lft.to/lastmile_qr_scan"}, "fusion_lon": 0.0, "lat": 38.980601166666666, "bike_id": "aafcbee235be67399e3855d0d730276d", "type": "electric_bike", "is_reserved": 0, "lon": -77.09570283333333}, {"fusion_lat": 0.0, "name": "6935cbed0d6e0f75388c9e1b7b4a68cc", "is_disabled": 0, "rental_uris": {"android": "https://dc.lft.to/lastmile_qr_scan", "ios": "https://dc.lft.to/lastmile_qr_scan"}, "fusion_lon": 0.0, "lat": 38.926862666666665, "bike_id": "6935cbed0d6e0f75388c9e1b7b4a68cc", "type": "electric_scooter", "is_reserved": 0, "lon": -77.02306733333333}, {"fusion_lat": 0.0, "name": "4f18a909e6136bb88fb65c91653c24f9", "is_disabled": 0, "rental_uris": {"android": "https://dc.lft.to/lastmile_qr_scan", "ios": "https://dc.lft.to/lastmile_qr_scan"}, "fusion_lon": 0.0, "lat": 38.91544716666667, "bike_id": "4f18a909e6136bb88fb65c91653c24f9", "type": "electric_scooter", "is_reserved": 0, "lon": -77.0055445}, {"fusion_lat": 0.0, "name": "80fd017ef8a9d885491b0c5b7c263404", "is_disabled": 0, "rental_uris": {"android": "https://dc.lft.to/lastmile_qr_scan", "ios": "https://dc.lft.to/lastmile_qr_scan"}, "fusion_lon": 0.0, "lat": 38.89361183333333, "bike_id": "80fd017ef8a9d885491b0c5b7c263404", "type": "electric_scooter", "is_reserved": 0, "lon": -76.92592766666667}, {"fusion_lat": 0.0, "name": "56ebf4c1cbbde45ebf1023811d3a889c", "is_disabled": 0, "rental_uris": {"android": "https://dc.lft.to/lastmile_qr_scan", "ios": "https://dc.lft.to/lastmile_qr_scan"}, "fusion_lon": 0.0, "lat": 38.908638333333336, "bike_id": "56ebf4c1cbbde45ebf1023811d3a889c", "type": "electric_scooter", "is_reserved": 0, "lon": -77.08591066666666}, {"fusion_lat": 0.0, "name": "76d6e2dd150e85b5d2a043d6680097d0", "is_disabled": 0, "rental_uris": {"android": "https://dc.lft.to/lastmile_qr_scan", "ios": "https://dc.lft.to/lastmile_qr_scan"}, "fusion_lon": 0.0, "lat": 38.876796666666664, "bike_id": "76d6e2dd150e85b5d2a043d6680097d0", "type": "electric_scooter", "is_reserved": 0, "lon": -77.00765966666667}, {"fusion_lat": 0.0, "name": "68af9f514ab1b68d06e50b270e5d8c4d", "is_disabled": 0, "rental_uris": {"android": "https://dc.lft.to/lastmile_qr_scan", "ios": "https://dc.lft.to/lastmile_qr_scan"}, "fusion_lon": 0.0, "lat": 38.913007666666665, "bike_id": "68af9f514ab1b68d06e50b270e5d8c4d", "type": "electric_scooter", "is_reserved": 0, "lon": -76.98462416666666}, {"fusion_lat": 0.0, "name": "23551aa3a1b5174f232bd18bda1b5a4d", "is_disabled": 0, "rental_uris": {"android": "https://dc.lft.to/lastmile_qr_scan", "ios": "https://dc.lft.to/lastmile_qr_scan"}, "fusion_lon": 0.0, "lat": 38.8587605, "bike_id": "23551aa3a1b5174f232bd18bda1b5a4d", "type": "electric_bike", "is_reserved": 0, "lon": -77.0955955}, {"fusion_lat": 0.0, "name": "f3765f0248f45c90c3531cee1c3338ff", "is_disabled": 0, "rental_uris": {"android": "https://dc.lft.to/lastmile_qr_scan", "ios": "https://dc.lft.to/lastmile_qr_scan"}, "fusion_lon": 0.0, "lat": 38.92539933333333, "bike_id": "f3765f0248f45c90c3531cee1c3338ff", "type": "electric_scooter", "is_reserved": 0, "lon": -77.03472583333334}, {"fusion_lat": 0.0, "name": "17b93c4b39949675bcf31a2dc8df1b8f", "is_disabled": 0, "rental_uris": {"android": "https://dc.lft.to/lastmile_qr_scan", "ios": "https://dc.lft.to/lastmile_qr_scan"}, "fusion_lon": 0.0, "lat": 38.896143, "bike_id": "17b93c4b39949675bcf31a2dc8df1b8f", "type": "electric_scooter", "is_reserved": 0, "lon": -76.94814416666667}, {"fusion_lat": 0.0, "name": "18313e73a9b40eac80c91e9af3095d0a", "is_disabled": 0, "rental_uris": {"android": "https://dc.lft.to/lastmile_qr_scan", "ios": "https://dc.lft.to/lastmile_qr_scan"}, "fusion_lon": 0.0, "lat": 38.8975505, "bike_id": "18313e73a9b40eac80c91e9af3095d0a", "type": "electric_scooter", "is_reserved": 0, "lon": -77.03351933333333}, {"fusion_lat": 0.0, "name": "f78a943418b80d03bf9d705e5300c8e2", "is_disabled": 0, "rental_uris": {"android": "https://dc.lft.to/lastmile_qr_scan", "ios": "https://dc.lft.to/lastmile_qr_scan"}, "fusion_lon": 0.0, "lat": 38.923096666666666, "bike_id": "f78a943418b80d03bf9d705e5300c8e2", "type": "electric_scooter", "is_reserved": 0, "lon": -77.0410985}, {"fusion_lat": 0.0, "name": "462f668db94ca0706354ddf44152c69c", "is_disabled": 0, "rental_uris": {"android": "https://dc.lft.to/lastmile_qr_scan", "ios": "https://dc.lft.to/lastmile_qr_scan"}, "fusion_lon": 0.0, "lat": 38.961652, "bike_id": "462f668db94ca0706354ddf44152c69c", "type": "electric_scooter", "is_reserved": 0, "lon": -77.073425}, {"fusion_lat": 0.0, "name": "fd7692c1d45a3b946e20b21750539869", "is_disabled": 0, "rental_uris": {"android": "https://dc.lft.to/lastmile_qr_scan", "ios": "https://dc.lft.to/lastmile_qr_scan"}, "fusion_lon": 0.0, "lat": 38.923896166666665, "bike_id": "fd7692c1d45a3b946e20b21750539869", "type": "electric_scooter", "is_reserved": 0, "lon": -77.03658466666667}, {"fusion_lat": 0.0, "name": "a0eead6f6511b0fc19852cb4d1b89773", "is_disabled": 0, "rental_uris": {"android": "https://dc.lft.to/lastmile_qr_scan", "ios": "https://dc.lft.to/lastmile_qr_scan"}, "fusion_lon": 0.0, "lat": 38.904222, "bike_id": "a0eead6f6511b0fc19852cb4d1b89773", "type": "electric_scooter", "is_reserved": 0, "lon": -77.00139733333333}, {"fusion_lat": 0.0, "name": "d9ac65b9277e87b94dc698c61b1c557b", "is_disabled": 0, "rental_uris": {"android": "https://dc.lft.to/lastmile_qr_scan", "ios": "https://dc.lft.to/lastmile_qr_scan"}, "fusion_lon": 0.0, "lat": 38.887607333333335, "bike_id": "d9ac65b9277e87b94dc698c61b1c557b", "type": "electric_scooter", "is_reserved": 0, "lon": -76.97759083333334}, {"fusion_lat": 0.0, "name": "42eadaaba2ab6924cc0dcb015b406c52", "is_disabled": 0, "rental_uris": {"android": "https://dc.lft.to/lastmile_qr_scan", "ios": "https://dc.lft.to/lastmile_qr_scan"}, "fusion_lon": 0.0, "lat": 38.91701833333333, "bike_id": "42eadaaba2ab6924cc0dcb015b406c52", "type": "electric_scooter", "is_reserved": 0, "lon": -77.04219533333334}, {"fusion_lat": 0.0, "name": "0506dc69cc21b26b78add85a011a697f", "is_disabled": 0, "rental_uris": {"android": "https://dc.lft.to/lastmile_qr_scan", "ios": "https://dc.lft.to/lastmile_qr_scan"}, "fusion_lon": 0.0, "lat": 38.90951466666667, "bike_id": "0506dc69cc21b26b78add85a011a697f", "type": "electric_scooter", "is_reserved": 0, "lon": -76.98539666666667}, {"fusion_lat": 0.0, "name": "4f121069309a28d4c49485a12f88e5a9", "is_disabled": 0, "rental_uris": {"android": "https://dc.lft.to/lastmile_qr_scan", "ios": "https://dc.lft.to/lastmile_qr_scan"}, "fusion_lon": 0.0, "lat": 38.89987133333333, "bike_id": "4f121069309a28d4c49485a12f88e5a9", "type": "electric_scooter", "is_reserved": 0, "lon": -77.00680966666667}, {"fusion_lat": 0.0, "name": "089db18515b2662373b5d91627e39e0b", "is_disabled": 0, "rental_uris": {"android": "https://dc.lft.to/lastmile_qr_scan", "ios": "https://dc.lft.to/lastmile_qr_scan"}, "fusion_lon": 0.0, "lat": 38.8973375, "bike_id": "089db18515b2662373b5d91627e39e0b", "type": "electric_scooter", "is_reserved": 0, "lon": -77.04612583333333}, {"fusion_lat": 0.0, "name": "8143e93340e235e40c983716f0c39ee8", "is_disabled": 0, "rental_uris": {"android": "https://dc.lft.to/lastmile_qr_scan", "ios": "https://dc.lft.to/lastmile_qr_scan"}, "fusion_lon": 0.0, "lat": 38.912585, "bike_id": "8143e93340e235e40c983716f0c39ee8", "type": "electric_scooter", "is_reserved": 0, "lon": -77.04840166666666}, {"fusion_lat": 0.0, "name": "1e258397b5e44d90ce362b29cb391699", "is_disabled": 0, "rental_uris": {"android": "https://dc.lft.to/lastmile_qr_scan", "ios": "https://dc.lft.to/lastmile_qr_scan"}, "fusion_lon": 0.0, "lat": 38.9213035, "bike_id": "1e258397b5e44d90ce362b29cb391699", "type": "electric_bike", "is_reserved": 0, "lon": -77.01083333333334}, {"fusion_lat": 0.0, "name": "267b349f3defa339320a6c101da3b401", "is_disabled": 0, "rental_uris": {"android": "https://dc.lft.to/lastmile_qr_scan", "ios": "https://dc.lft.to/lastmile_qr_scan"}, "fusion_lon": 0.0, "lat": 38.91365566666666, "bike_id": "267b349f3defa339320a6c101da3b401", "type": "electric_scooter", "is_reserved": 0, "lon": -77.04552733333334}, {"fusion_lat": 0.0, "name": "cac4e832cfd1e5feca0102fe1ad4634b", "is_disabled": 0, "rental_uris": {"android": "https://dc.lft.to/lastmile_qr_scan", "ios": "https://dc.lft.to/lastmile_qr_scan"}, "fusion_lon": 0.0, "lat": 38.824589, "bike_id": "cac4e832cfd1e5feca0102fe1ad4634b", "type": "electric_bike", "is_reserved": 0, "lon": -77.0079515}, {"fusion_lat": 0.0, "name": "dd0787863e6d694fc910f81e40186a0c", "is_disabled": 0, "rental_uris": {"android": "https://dc.lft.to/lastmile_qr_scan", "ios": "https://dc.lft.to/lastmile_qr_scan"}, "fusion_lon": 0.0, "lat": 38.91192433333333, "bike_id": "dd0787863e6d694fc910f81e40186a0c", "type": "electric_scooter", "is_reserved": 0, "lon": -77.04245}, {"fusion_lat": 0.0, "name": "a25aa435a4c7bf5f94c1e487b426a19a", "is_disabled": 0, "rental_uris": {"android": "https://dc.lft.to/lastmile_qr_scan", "ios": "https://dc.lft.to/lastmile_qr_scan"}, "fusion_lon": 0.0, "lat": 38.986670833333335, "bike_id": "a25aa435a4c7bf5f94c1e487b426a19a", "type": "electric_bike", "is_reserved": 0, "lon": -77.00000233333333}, {"fusion_lat": 0.0, "name": "78240b1f2fb569559952ca56e0cf5cbd", "is_disabled": 0, "rental_uris": {"android": "https://dc.lft.to/lastmile_qr_scan", "ios": "https://dc.lft.to/lastmile_qr_scan"}, "fusion_lon": 0.0, "lat": 38.90422783333333, "bike_id": "78240b1f2fb569559952ca56e0cf5cbd", "type": "electric_scooter", "is_reserved": 0, "lon": -77.00134983333334}, {"fusion_lat": 0.0, "name": "c23b2b6f0170ed7e42240d0e990c81c2", "is_disabled": 0, "rental_uris": {"android": "https://dc.lft.to/lastmile_qr_scan", "ios": "https://dc.lft.to/lastmile_qr_scan"}, "fusion_lon": 0.0, "lat": 38.8923335, "bike_id": "c23b2b6f0170ed7e42240d0e990c81c2", "type": "electric_scooter", "is_reserved": 0, "lon": -77.031787}, {"fusion_lat": 0.0, "name": "2d3e60933b833fa799d3a6e90b5f8e36", "is_disabled": 0, "rental_uris": {"android": "https://dc.lft.to/lastmile_qr_scan", "ios": "https://dc.lft.to/lastmile_qr_scan"}, "fusion_lon": 0.0, "lat": 38.93545433333333, "bike_id": "2d3e60933b833fa799d3a6e90b5f8e36", "type": "electric_scooter", "is_reserved": 0, "lon": -77.03261816666667}, {"fusion_lat": 0.0, "name": "835ee9bbd31cef74a9ff5f113ec256f0", "is_disabled": 0, "rental_uris": {"android": "https://dc.lft.to/lastmile_qr_scan", "ios": "https://dc.lft.to/lastmile_qr_scan"}, "fusion_lon": 0.0, "lat": 38.916967166666666, "bike_id": "835ee9bbd31cef74a9ff5f113ec256f0", "type": "electric_scooter", "is_reserved": 0, "lon": -77.02514183333334}, {"fusion_lat": 0.0, "name": "f61a99fc8fa0db9cd3222189f7c810be", "is_disabled": 0, "rental_uris": {"android": "https://dc.lft.to/lastmile_qr_scan", "ios": "https://dc.lft.to/lastmile_qr_scan"}, "fusion_lon": 0.0, "lat": 38.871174833333335, "bike_id": "f61a99fc8fa0db9cd3222189f7c810be", "type": "electric_scooter", "is_reserved": 0, "lon": -76.96588683333333}, {"fusion_lat": 0.0, "name": "98684fc71e94258c5bceb9afb49bcf41", "is_disabled": 0, "rental_uris": {"android": "https://dc.lft.to/lastmile_qr_scan", "ios": "https://dc.lft.to/lastmile_qr_scan"}, "fusion_lon": 0.0, "lat": 38.922476833333334, "bike_id": "98684fc71e94258c5bceb9afb49bcf41", "type": "electric_scooter", "is_reserved": 0, "lon": -77.03065733333334}, {"fusion_lat": 0.0, "name": "2eba0386ce3ef096b0db2296c67e8acd", "is_disabled": 0, "rental_uris": {"android": "https://dc.lft.to/lastmile_qr_scan", "ios": "https://dc.lft.to/lastmile_qr_scan"}, "fusion_lon": 0.0, "lat": 38.902031, "bike_id": "2eba0386ce3ef096b0db2296c67e8acd", "type": "electric_scooter", "is_reserved": 0, "lon": -77.06122466666666}, {"fusion_lat": 0.0, "name": "ec21677faccda8573584bf3486ac6cc6", "is_disabled": 0, "rental_uris": {"android": "https://dc.lft.to/lastmile_qr_scan", "ios": "https://dc.lft.to/lastmile_qr_scan"}, "fusion_lon": 0.0, "lat": 38.99446183333333, "bike_id": "ec21677faccda8573584bf3486ac6cc6", "type": "electric_bike", "is_reserved": 0, "lon": -76.99589616666667}, {"fusion_lat": 0.0, "name": "e60da95043081543deddfa8f7e0539c5", "is_disabled": 0, "rental_uris": {"android": "https://dc.lft.to/lastmile_qr_scan", "ios": "https://dc.lft.to/lastmile_qr_scan"}, "fusion_lon": 0.0, "lat": 38.9078915, "bike_id": "e60da95043081543deddfa8f7e0539c5", "type": "electric_scooter", "is_reserved": 0, "lon": -77.00366533333333}, {"fusion_lat": 0.0, "name": "f01f6ec09d26b7b3bc7184c5ed647d11", "is_disabled": 0, "rental_uris": {"android": "https://dc.lft.to/lastmile_qr_scan", "ios": "https://dc.lft.to/lastmile_qr_scan"}, "fusion_lon": 0.0, "lat": 38.8947665, "bike_id": "f01f6ec09d26b7b3bc7184c5ed647d11", "type": "electric_scooter", "is_reserved": 0, "lon": -77.03954883333333}, {"fusion_lat": 0.0, "name": "2f15e94946b0a482dff06b86b3641509", "is_disabled": 0, "rental_uris": {"android": "https://dc.lft.to/lastmile_qr_scan", "ios": "https://dc.lft.to/lastmile_qr_scan"}, "fusion_lon": 0.0, "lat": 38.90523616666667, "bike_id": "2f15e94946b0a482dff06b86b3641509", "type": "electric_scooter", "is_reserved": 0, "lon": -77.02958183333334}, {"fusion_lat": 0.0, "name": "dcc7c789a6eac0a7cef69b94c9275cae", "is_disabled": 0, "rental_uris": {"android": "https://dc.lft.to/lastmile_qr_scan", "ios": "https://dc.lft.to/lastmile_qr_scan"}, "fusion_lon": 0.0, "lat": 38.91668516666667, "bike_id": "dcc7c789a6eac0a7cef69b94c9275cae", "type": "electric_scooter", "is_reserved": 0, "lon": -77.03467416666666}, {"fusion_lat": 0.0, "name": "09e0e2989e5f6bb0996e575b740c50e2", "is_disabled": 0, "rental_uris": {"android": "https://dc.lft.to/lastmile_qr_scan", "ios": "https://dc.lft.to/lastmile_qr_scan"}, "fusion_lon": 0.0, "lat": 38.90256383333333, "bike_id": "09e0e2989e5f6bb0996e575b740c50e2", "type": "electric_scooter", "is_reserved": 0, "lon": -77.04448183333334}, {"fusion_lat": 0.0, "name": "2f75b8e1d0ddd287c0104b2d8d7ed377", "is_disabled": 0, "rental_uris": {"android": "https://dc.lft.to/lastmile_qr_scan", "ios": "https://dc.lft.to/lastmile_qr_scan"}, "fusion_lon": 0.0, "lat": 38.918493833333336, "bike_id": "2f75b8e1d0ddd287c0104b2d8d7ed377", "type": "electric_scooter", "is_reserved": 0, "lon": -77.044894}, {"fusion_lat": 0.0, "name": "20b06661b6ffa7d2365895fa2798fa63", "is_disabled": 0, "rental_uris": {"android": "https://dc.lft.to/lastmile_qr_scan", "ios": "https://dc.lft.to/lastmile_qr_scan"}, "fusion_lon": 0.0, "lat": 38.900408666666664, "bike_id": "20b06661b6ffa7d2365895fa2798fa63", "type": "electric_scooter", "is_reserved": 0, "lon": -77.002035}, {"fusion_lat": 0.0, "name": "a616325adf26b4edffc3d8fc3d2ff497", "is_disabled": 0, "rental_uris": {"android": "https://dc.lft.to/lastmile_qr_scan", "ios": "https://dc.lft.to/lastmile_qr_scan"}, "fusion_lon": 0.0, "lat": 38.80681333333333, "bike_id": "a616325adf26b4edffc3d8fc3d2ff497", "type": "electric_bike", "is_reserved": 0, "lon": -77.06921583333333}, {"fusion_lat": 0.0, "name": "8549920b9a0b5c133d2babaed5b843d6", "is_disabled": 0, "rental_uris": {"android": "https://dc.lft.to/lastmile_qr_scan", "ios": "https://dc.lft.to/lastmile_qr_scan"}, "fusion_lon": 0.0, "lat": 38.907892833333335, "bike_id": "8549920b9a0b5c133d2babaed5b843d6", "type": "electric_scooter", "is_reserved": 0, "lon": -77.00971566666666}, {"fusion_lat": 0.0, "name": "57adc665a226138af10c251e4fe41363", "is_disabled": 0, "rental_uris": {"android": "https://dc.lft.to/lastmile_qr_scan", "ios": "https://dc.lft.to/lastmile_qr_scan"}, "fusion_lon": 0.0, "lat": 38.92053966666667, "bike_id": "57adc665a226138af10c251e4fe41363", "type": "electric_scooter", "is_reserved": 0, "lon": -76.99886233333334}, {"fusion_lat": 0.0, "name": "30868079550d613aae53c109a29bb084", "is_disabled": 0, "rental_uris": {"android": "https://dc.lft.to/lastmile_qr_scan", "ios": "https://dc.lft.to/lastmile_qr_scan"}, "fusion_lon": 0.0, "lat": 38.925027666666665, "bike_id": "30868079550d613aae53c109a29bb084", "type": "electric_bike", "is_reserved": 0, "lon": -77.05752333333334}, {"fusion_lat": 0.0, "name": "b22bc7a2f78587f62970f293ef22fb04", "is_disabled": 0, "rental_uris": {"android": "https://dc.lft.to/lastmile_qr_scan", "ios": "https://dc.lft.to/lastmile_qr_scan"}, "fusion_lon": 0.0, "lat": 38.884502499999996, "bike_id": "b22bc7a2f78587f62970f293ef22fb04", "type": "electric_scooter", "is_reserved": 0, "lon": -76.99389883333333}, {"fusion_lat": 0.0, "name": "68f33f82560ea2841da1fdd977807886", "is_disabled": 0, "rental_uris": {"android": "https://dc.lft.to/lastmile_qr_scan", "ios": "https://dc.lft.to/lastmile_qr_scan"}, "fusion_lon": 0.0, "lat": 38.88749633333333, "bike_id": "68f33f82560ea2841da1fdd977807886", "type": "electric_scooter", "is_reserved": 0, "lon": -76.99836383333333}, {"fusion_lat": 0.0, "name": "2b7267a41ef107ce25aa595542d1fcab", "is_disabled": 0, "rental_uris": {"android": "https://dc.lft.to/lastmile_qr_scan", "ios": "https://dc.lft.to/lastmile_qr_scan"}, "fusion_lon": 0.0, "lat": 38.95881816666667, "bike_id": "2b7267a41ef107ce25aa595542d1fcab", "type": "electric_scooter", "is_reserved": 0, "lon": -77.01165883333333}, {"fusion_lat": 0.0, "name": "f745f4610d4c96f10b1d5465dda2c586", "is_disabled": 0, "rental_uris": {"android": "https://dc.lft.to/lastmile_qr_scan", "ios": "https://dc.lft.to/lastmile_qr_scan"}, "fusion_lon": 0.0, "lat": 38.91903333333333, "bike_id": "f745f4610d4c96f10b1d5465dda2c586", "type": "electric_scooter", "is_reserved": 0, "lon": -77.02382183333333}, {"fusion_lat": 0.0, "name": "9f554bd887b07907bdaddf21f8f42438", "is_disabled": 0, "rental_uris": {"android": "https://dc.lft.to/lastmile_qr_scan", "ios": "https://dc.lft.to/lastmile_qr_scan"}, "fusion_lon": 0.0, "lat": 38.91558033333333, "bike_id": "9f554bd887b07907bdaddf21f8f42438", "type": "electric_scooter", "is_reserved": 0, "lon": -77.03227516666666}, {"fusion_lat": 0.0, "name": "50e2834f485fc0ca2c483dd92005a90d", "is_disabled": 0, "rental_uris": {"android": "https://dc.lft.to/lastmile_qr_scan", "ios": "https://dc.lft.to/lastmile_qr_scan"}, "fusion_lon": 0.0, "lat": 38.876563166666664, "bike_id": "50e2834f485fc0ca2c483dd92005a90d", "type": "electric_scooter", "is_reserved": 0, "lon": -77.00918433333334}, {"fusion_lat": 0.0, "name": "61ed11b90c8379df20da459e8f681ee2", "is_disabled": 0, "rental_uris": {"android": "https://dc.lft.to/lastmile_qr_scan", "ios": "https://dc.lft.to/lastmile_qr_scan"}, "fusion_lon": 0.0, "lat": 38.90977783333334, "bike_id": "61ed11b90c8379df20da459e8f681ee2", "type": "electric_scooter", "is_reserved": 0, "lon": -77.0229105}, {"fusion_lat": 0.0, "name": "cc38f3f41e73c13234b6b4e6273b2cec", "is_disabled": 0, "rental_uris": {"android": "https://dc.lft.to/lastmile_qr_scan", "ios": "https://dc.lft.to/lastmile_qr_scan"}, "fusion_lon": 0.0, "lat": 38.92485883333333, "bike_id": "cc38f3f41e73c13234b6b4e6273b2cec", "type": "electric_scooter", "is_reserved": 0, "lon": -77.0254755}, {"fusion_lat": 0.0, "name": "0d21700d9b381c8dff4d772a8b079640", "is_disabled": 0, "rental_uris": {"android": "https://dc.lft.to/lastmile_qr_scan", "ios": "https://dc.lft.to/lastmile_qr_scan"}, "fusion_lon": 0.0, "lat": 38.915579666666666, "bike_id": "0d21700d9b381c8dff4d772a8b079640", "type": "electric_scooter", "is_reserved": 0, "lon": -77.032218}, {"fusion_lat": 0.0, "name": "a9f40a2f67285ea47392f3fc2c448d86", "is_disabled": 0, "rental_uris": {"android": "https://dc.lft.to/lastmile_qr_scan", "ios": "https://dc.lft.to/lastmile_qr_scan"}, "fusion_lon": 0.0, "lat": 38.8823235, "bike_id": "a9f40a2f67285ea47392f3fc2c448d86", "type": "electric_scooter", "is_reserved": 0, "lon": -77.0261755}, {"fusion_lat": 0.0, "name": "c4b9cc7cd7ade0d2929c99732939416b", "is_disabled": 0, "rental_uris": {"android": "https://dc.lft.to/lastmile_qr_scan", "ios": "https://dc.lft.to/lastmile_qr_scan"}, "fusion_lon": 0.0, "lat": 38.87912633333333, "bike_id": "c4b9cc7cd7ade0d2929c99732939416b", "type": "electric_scooter", "is_reserved": 0, "lon": -77.00889266666667}, {"fusion_lat": 0.0, "name": "1c97caf63c66daed4d80d5e601340435", "is_disabled": 0, "rental_uris": {"android": "https://dc.lft.to/lastmile_qr_scan", "ios": "https://dc.lft.to/lastmile_qr_scan"}, "fusion_lon": 0.0, "lat": 38.92478533333333, "bike_id": "1c97caf63c66daed4d80d5e601340435", "type": "electric_scooter", "is_reserved": 0, "lon": -77.02652483333334}, {"fusion_lat": 0.0, "name": "97777fe5961ea841eb2d46e8c4130aaf", "is_disabled": 0, "rental_uris": {"android": "https://dc.lft.to/lastmile_qr_scan", "ios": "https://dc.lft.to/lastmile_qr_scan"}, "fusion_lon": 0.0, "lat": 38.93259416666667, "bike_id": "97777fe5961ea841eb2d46e8c4130aaf", "type": "electric_scooter", "is_reserved": 0, "lon": -77.03272766666667}, {"fusion_lat": 0.0, "name": "9d16a1cf54aa1cca569a4831b48eb9dc", "is_disabled": 0, "rental_uris": {"android": "https://dc.lft.to/lastmile_qr_scan", "ios": "https://dc.lft.to/lastmile_qr_scan"}, "fusion_lon": 0.0, "lat": 38.901385, "bike_id": "9d16a1cf54aa1cca569a4831b48eb9dc", "type": "electric_scooter", "is_reserved": 0, "lon": -76.99049233333334}, {"fusion_lat": 0.0, "name": "a619b9d53805c8d2c457c78d85cc244b", "is_disabled": 0, "rental_uris": {"android": "https://dc.lft.to/lastmile_qr_scan", "ios": "https://dc.lft.to/lastmile_qr_scan"}, "fusion_lon": 0.0, "lat": 38.93715533333334, "bike_id": "a619b9d53805c8d2c457c78d85cc244b", "type": "electric_scooter", "is_reserved": 0, "lon": -77.02521283333333}, {"fusion_lat": 0.0, "name": "024d3f5a5d676575140af164cf8ffedc", "is_disabled": 0, "rental_uris": {"android": "https://dc.lft.to/lastmile_qr_scan", "ios": "https://dc.lft.to/lastmile_qr_scan"}, "fusion_lon": 0.0, "lat": 38.9152455, "bike_id": "024d3f5a5d676575140af164cf8ffedc", "type": "electric_scooter", "is_reserved": 0, "lon": -77.013293}, {"fusion_lat": 0.0, "name": "f0b1496976d099e9db6d50e613e1661f", "is_disabled": 0, "rental_uris": {"android": "https://dc.lft.to/lastmile_qr_scan", "ios": "https://dc.lft.to/lastmile_qr_scan"}, "fusion_lon": 0.0, "lat": 38.92632116666667, "bike_id": "f0b1496976d099e9db6d50e613e1661f", "type": "electric_scooter", "is_reserved": 0, "lon": -77.05196783333334}, {"fusion_lat": 0.0, "name": "af107452fd86d3bc58542014cca4a1ee", "is_disabled": 0, "rental_uris": {"android": "https://dc.lft.to/lastmile_qr_scan", "ios": "https://dc.lft.to/lastmile_qr_scan"}, "fusion_lon": 0.0, "lat": 38.92230033333333, "bike_id": "af107452fd86d3bc58542014cca4a1ee", "type": "electric_scooter", "is_reserved": 0, "lon": -77.04650033333333}, {"fusion_lat": 0.0, "name": "2e4301c9a19767ec0496800fc89e1e5d", "is_disabled": 0, "rental_uris": {"android": "https://dc.lft.to/lastmile_qr_scan", "ios": "https://dc.lft.to/lastmile_qr_scan"}, "fusion_lon": 0.0, "lat": 38.992264, "bike_id": "2e4301c9a19767ec0496800fc89e1e5d", "type": "electric_bike", "is_reserved": 0, "lon": -76.94415}, {"fusion_lat": 0.0, "name": "ba73ea05f309cc15efc44b194394d83d", "is_disabled": 0, "rental_uris": {"android": "https://dc.lft.to/lastmile_qr_scan", "ios": "https://dc.lft.to/lastmile_qr_scan"}, "fusion_lon": 0.0, "lat": 38.9125455, "bike_id": "ba73ea05f309cc15efc44b194394d83d", "type": "electric_scooter", "is_reserved": 0, "lon": -77.00777633333334}, {"fusion_lat": 0.0, "name": "b65b924e8bf8a08caec0911288d4e424", "is_disabled": 0, "rental_uris": {"android": "https://dc.lft.to/lastmile_qr_scan", "ios": "https://dc.lft.to/lastmile_qr_scan"}, "fusion_lon": 0.0, "lat": 38.85526683333333, "bike_id": "b65b924e8bf8a08caec0911288d4e424", "type": "electric_bike", "is_reserved": 0, "lon": -77.12059483333333}, {"fusion_lat": 0.0, "name": "31a6641f06f1e281975cf84360a213e2", "is_disabled": 0, "rental_uris": {"android": "https://dc.lft.to/lastmile_qr_scan", "ios": "https://dc.lft.to/lastmile_qr_scan"}, "fusion_lon": 0.0, "lat": 38.90504516666667, "bike_id": "31a6641f06f1e281975cf84360a213e2", "type": "electric_scooter", "is_reserved": 0, "lon": -76.97955116666667}, {"fusion_lat": 0.0, "name": "47e627737215018a8c2ad7e508ad910c", "is_disabled": 0, "rental_uris": {"android": "https://dc.lft.to/lastmile_qr_scan", "ios": "https://dc.lft.to/lastmile_qr_scan"}, "fusion_lon": 0.0, "lat": 38.94294133333333, "bike_id": "47e627737215018a8c2ad7e508ad910c", "type": "electric_scooter", "is_reserved": 0, "lon": -77.02171433333334}, {"fusion_lat": 0.0, "name": "863fd010361984b7abb62b04acaa040f", "is_disabled": 0, "rental_uris": {"android": "https://dc.lft.to/lastmile_qr_scan", "ios": "https://dc.lft.to/lastmile_qr_scan"}, "fusion_lon": 0.0, "lat": 38.907359166666666, "bike_id": "863fd010361984b7abb62b04acaa040f", "type": "electric_scooter", "is_reserved": 0, "lon": -77.0344685}, {"fusion_lat": 0.0, "name": "ca7424e934422a0b4c6a15e75a52ebae", "is_disabled": 0, "rental_uris": {"android": "https://dc.lft.to/lastmile_qr_scan", "ios": "https://dc.lft.to/lastmile_qr_scan"}, "fusion_lon": 0.0, "lat": 38.920590833333335, "bike_id": "ca7424e934422a0b4c6a15e75a52ebae", "type": "electric_scooter", "is_reserved": 0, "lon": -77.02387066666667}, {"fusion_lat": 0.0, "name": "88ba544c8df4031c6cadb3129949c155", "is_disabled": 0, "rental_uris": {"android": "https://dc.lft.to/lastmile_qr_scan", "ios": "https://dc.lft.to/lastmile_qr_scan"}, "fusion_lon": 0.0, "lat": 38.861372, "bike_id": "88ba544c8df4031c6cadb3129949c155", "type": "electric_bike", "is_reserved": 0, "lon": -76.971661}, {"fusion_lat": 0.0, "name": "819208e153d67cc5c30087e4584010a5", "is_disabled": 0, "rental_uris": {"android": "https://dc.lft.to/lastmile_qr_scan", "ios": "https://dc.lft.to/lastmile_qr_scan"}, "fusion_lon": 0.0, "lat": 38.92654783333333, "bike_id": "819208e153d67cc5c30087e4584010a5", "type": "electric_scooter", "is_reserved": 0, "lon": -77.0242345}, {"fusion_lat": 0.0, "name": "93cb0847c76496ce140d6555ed5eaf81", "is_disabled": 0, "rental_uris": {"android": "https://dc.lft.to/lastmile_qr_scan", "ios": "https://dc.lft.to/lastmile_qr_scan"}, "fusion_lon": 0.0, "lat": 38.941835166666664, "bike_id": "93cb0847c76496ce140d6555ed5eaf81", "type": "electric_scooter", "is_reserved": 0, "lon": -77.02406033333334}, {"fusion_lat": 0.0, "name": "1dfa7b9216045443a7a71b164a2390ab", "is_disabled": 0, "rental_uris": {"android": "https://dc.lft.to/lastmile_qr_scan", "ios": "https://dc.lft.to/lastmile_qr_scan"}, "fusion_lon": 0.0, "lat": 38.911696666666664, "bike_id": "1dfa7b9216045443a7a71b164a2390ab", "type": "electric_scooter", "is_reserved": 0, "lon": -77.068597}, {"fusion_lat": 0.0, "name": "8c0347af9eb966fc7f11f0c7fd7f4ef0", "is_disabled": 0, "rental_uris": {"android": "https://dc.lft.to/lastmile_qr_scan", "ios": "https://dc.lft.to/lastmile_qr_scan"}, "fusion_lon": 0.0, "lat": 38.96601883333334, "bike_id": "8c0347af9eb966fc7f11f0c7fd7f4ef0", "type": "electric_bike", "is_reserved": 0, "lon": -77.02806066666666}, {"fusion_lat": 0.0, "name": "0bd557371f15ee62575c76ce36376cf5", "is_disabled": 0, "rental_uris": {"android": "https://dc.lft.to/lastmile_qr_scan", "ios": "https://dc.lft.to/lastmile_qr_scan"}, "fusion_lon": 0.0, "lat": 38.90212866666667, "bike_id": "0bd557371f15ee62575c76ce36376cf5", "type": "electric_scooter", "is_reserved": 0, "lon": -76.97509616666666}, {"fusion_lat": 0.0, "name": "26d055fe3a82474e30a266b0aae83991", "is_disabled": 0, "rental_uris": {"android": "https://dc.lft.to/lastmile_qr_scan", "ios": "https://dc.lft.to/lastmile_qr_scan"}, "fusion_lon": 0.0, "lat": 38.90036083333333, "bike_id": "26d055fe3a82474e30a266b0aae83991", "type": "electric_scooter", "is_reserved": 0, "lon": -76.99262816666666}, {"fusion_lat": 0.0, "name": "1c62363d386cda650a993e9d3f073352", "is_disabled": 0, "rental_uris": {"android": "https://dc.lft.to/lastmile_qr_scan", "ios": "https://dc.lft.to/lastmile_qr_scan"}, "fusion_lon": 0.0, "lat": 38.9185975, "bike_id": "1c62363d386cda650a993e9d3f073352", "type": "electric_scooter", "is_reserved": 0, "lon": -77.04600333333333}, {"fusion_lat": 0.0, "name": "31073d8b7fc06ddbe14f8e80cbc84c26", "is_disabled": 0, "rental_uris": {"android": "https://dc.lft.to/lastmile_qr_scan", "ios": "https://dc.lft.to/lastmile_qr_scan"}, "fusion_lon": 0.0, "lat": 38.902251166666666, "bike_id": "31073d8b7fc06ddbe14f8e80cbc84c26", "type": "electric_scooter", "is_reserved": 0, "lon": -77.02368366666667}, {"fusion_lat": 0.0, "name": "b1024ccee750d32736fa8bea506c2c4d", "is_disabled": 0, "rental_uris": {"android": "https://dc.lft.to/lastmile_qr_scan", "ios": "https://dc.lft.to/lastmile_qr_scan"}, "fusion_lon": 0.0, "lat": 38.932175, "bike_id": "b1024ccee750d32736fa8bea506c2c4d", "type": "electric_scooter", "is_reserved": 0, "lon": -77.03352533333333}, {"fusion_lat": 0.0, "name": "a0385eaebce589bb42c1b720aa93815c", "is_disabled": 0, "rental_uris": {"android": "https://dc.lft.to/lastmile_qr_scan", "ios": "https://dc.lft.to/lastmile_qr_scan"}, "fusion_lon": 0.0, "lat": 38.92488183333333, "bike_id": "a0385eaebce589bb42c1b720aa93815c", "type": "electric_scooter", "is_reserved": 0, "lon": -77.02662183333334}, {"fusion_lat": 0.0, "name": "90801730916ed94aec46a992926a632b", "is_disabled": 0, "rental_uris": {"android": "https://dc.lft.to/lastmile_qr_scan", "ios": "https://dc.lft.to/lastmile_qr_scan"}, "fusion_lon": 0.0, "lat": 38.889874666666664, "bike_id": "90801730916ed94aec46a992926a632b", "type": "electric_scooter", "is_reserved": 0, "lon": -76.98412133333333}, {"fusion_lat": 0.0, "name": "29243bc2ccdf601eb6a0ced011c28c74", "is_disabled": 0, "rental_uris": {"android": "https://dc.lft.to/lastmile_qr_scan", "ios": "https://dc.lft.to/lastmile_qr_scan"}, "fusion_lon": 0.0, "lat": 38.92802783333333, "bike_id": "29243bc2ccdf601eb6a0ced011c28c74", "type": "electric_scooter", "is_reserved": 0, "lon": -77.055283}, {"fusion_lat": 0.0, "name": "9cf720f51bb122f76744251aa731b463", "is_disabled": 0, "rental_uris": {"android": "https://dc.lft.to/lastmile_qr_scan", "ios": "https://dc.lft.to/lastmile_qr_scan"}, "fusion_lon": 0.0, "lat": 38.8963115, "bike_id": "9cf720f51bb122f76744251aa731b463", "type": "electric_scooter", "is_reserved": 0, "lon": -77.00919633333334}, {"fusion_lat": 0.0, "name": "62ae807d215b4f5b3ec9a385768ae424", "is_disabled": 0, "rental_uris": {"android": "https://dc.lft.to/lastmile_qr_scan", "ios": "https://dc.lft.to/lastmile_qr_scan"}, "fusion_lon": 0.0, "lat": 38.907312833333336, "bike_id": "62ae807d215b4f5b3ec9a385768ae424", "type": "electric_scooter", "is_reserved": 0, "lon": -77.02826266666666}, {"fusion_lat": 0.0, "name": "4c400d3e220a3a85d1a5b3b94dbf43cb", "is_disabled": 0, "rental_uris": {"android": "https://dc.lft.to/lastmile_qr_scan", "ios": "https://dc.lft.to/lastmile_qr_scan"}, "fusion_lon": 0.0, "lat": 38.92063016666667, "bike_id": "4c400d3e220a3a85d1a5b3b94dbf43cb", "type": "electric_scooter", "is_reserved": 0, "lon": -77.03268016666667}, {"fusion_lat": 0.0, "name": "58c7bb82239602f47163ddde0bc830a1", "is_disabled": 0, "rental_uris": {"android": "https://dc.lft.to/lastmile_qr_scan", "ios": "https://dc.lft.to/lastmile_qr_scan"}, "fusion_lon": 0.0, "lat": 38.856964833333336, "bike_id": "58c7bb82239602f47163ddde0bc830a1", "type": "electric_scooter", "is_reserved": 0, "lon": -76.995988}, {"fusion_lat": 0.0, "name": "7d883394534fde38b7f3736542fa7ad3", "is_disabled": 0, "rental_uris": {"android": "https://dc.lft.to/lastmile_qr_scan", "ios": "https://dc.lft.to/lastmile_qr_scan"}, "fusion_lon": 0.0, "lat": 38.901796, "bike_id": "7d883394534fde38b7f3736542fa7ad3", "type": "electric_scooter", "is_reserved": 0, "lon": -77.02198666666666}, {"fusion_lat": 0.0, "name": "12f41090a22656598b574fdfe559ee14", "is_disabled": 0, "rental_uris": {"android": "https://dc.lft.to/lastmile_qr_scan", "ios": "https://dc.lft.to/lastmile_qr_scan"}, "fusion_lon": 0.0, "lat": 38.915805666666664, "bike_id": "12f41090a22656598b574fdfe559ee14", "type": "electric_scooter", "is_reserved": 0, "lon": -77.03780783333333}, {"fusion_lat": 0.0, "name": "c91632e818539b4f6a379456488f08fb", "is_disabled": 0, "rental_uris": {"android": "https://dc.lft.to/lastmile_qr_scan", "ios": "https://dc.lft.to/lastmile_qr_scan"}, "fusion_lon": 0.0, "lat": 38.8973285, "bike_id": "c91632e818539b4f6a379456488f08fb", "type": "electric_scooter", "is_reserved": 0, "lon": -77.031897}, {"fusion_lat": 0.0, "name": "48be21424e222d048f951ed9996f7f94", "is_disabled": 0, "rental_uris": {"android": "https://dc.lft.to/lastmile_qr_scan", "ios": "https://dc.lft.to/lastmile_qr_scan"}, "fusion_lon": 0.0, "lat": 38.90410683333333, "bike_id": "48be21424e222d048f951ed9996f7f94", "type": "electric_scooter", "is_reserved": 0, "lon": -76.97328966666667}, {"fusion_lat": 0.0, "name": "bc585147ba94e42a914a51e4ca081ca3", "is_disabled": 0, "rental_uris": {"android": "https://dc.lft.to/lastmile_qr_scan", "ios": "https://dc.lft.to/lastmile_qr_scan"}, "fusion_lon": 0.0, "lat": 38.91694416666667, "bike_id": "bc585147ba94e42a914a51e4ca081ca3", "type": "electric_scooter", "is_reserved": 0, "lon": -77.01166483333333}, {"fusion_lat": 0.0, "name": "f7601c09e41128d70f1d1d2974133b91", "is_disabled": 0, "rental_uris": {"android": "https://dc.lft.to/lastmile_qr_scan", "ios": "https://dc.lft.to/lastmile_qr_scan"}, "fusion_lon": 0.0, "lat": 38.911017333333334, "bike_id": "f7601c09e41128d70f1d1d2974133b91", "type": "electric_scooter", "is_reserved": 0, "lon": -77.015293}, {"fusion_lat": 0.0, "name": "051c77e481188153f48649387edfbe31", "is_disabled": 0, "rental_uris": {"android": "https://dc.lft.to/lastmile_qr_scan", "ios": "https://dc.lft.to/lastmile_qr_scan"}, "fusion_lon": 0.0, "lat": 38.845057, "bike_id": "051c77e481188153f48649387edfbe31", "type": "electric_bike", "is_reserved": 0, "lon": -76.99354616666666}, {"fusion_lat": 0.0, "name": "0729681bc28a656ab0fb7312b2d0fed5", "is_disabled": 0, "rental_uris": {"android": "https://dc.lft.to/lastmile_qr_scan", "ios": "https://dc.lft.to/lastmile_qr_scan"}, "fusion_lon": 0.0, "lat": 38.920606166666666, "bike_id": "0729681bc28a656ab0fb7312b2d0fed5", "type": "electric_scooter", "is_reserved": 0, "lon": -77.02538566666666}, {"fusion_lat": 0.0, "name": "3e856cab28282c47f5558c20015fb072", "is_disabled": 0, "rental_uris": {"android": "https://dc.lft.to/lastmile_qr_scan", "ios": "https://dc.lft.to/lastmile_qr_scan"}, "fusion_lon": 0.0, "lat": 38.923825666666666, "bike_id": "3e856cab28282c47f5558c20015fb072", "type": "electric_scooter", "is_reserved": 0, "lon": -77.07533766666667}, {"fusion_lat": 0.0, "name": "b7aa522e57960490782ac290cbee9bb4", "is_disabled": 0, "rental_uris": {"android": "https://dc.lft.to/lastmile_qr_scan", "ios": "https://dc.lft.to/lastmile_qr_scan"}, "fusion_lon": 0.0, "lat": 38.91119166666667, "bike_id": "b7aa522e57960490782ac290cbee9bb4", "type": "electric_scooter", "is_reserved": 0, "lon": -77.0382825}, {"fusion_lat": 0.0, "name": "521e3229bebe91180abc8b14aece8ab2", "is_disabled": 0, "rental_uris": {"android": "https://dc.lft.to/lastmile_qr_scan", "ios": "https://dc.lft.to/lastmile_qr_scan"}, "fusion_lon": 0.0, "lat": 38.905216, "bike_id": "521e3229bebe91180abc8b14aece8ab2", "type": "electric_scooter", "is_reserved": 0, "lon": -77.02952983333333}, {"fusion_lat": 0.0, "name": "2cc2b5c0909849b46618db2ab7a900f9", "is_disabled": 0, "rental_uris": {"android": "https://dc.lft.to/lastmile_qr_scan", "ios": "https://dc.lft.to/lastmile_qr_scan"}, "fusion_lon": 0.0, "lat": 38.916172833333334, "bike_id": "2cc2b5c0909849b46618db2ab7a900f9", "type": "electric_scooter", "is_reserved": 0, "lon": -77.03207766666667}, {"fusion_lat": 0.0, "name": "4abfc50da9e8a87422b665a3cf916062", "is_disabled": 0, "rental_uris": {"android": "https://dc.lft.to/lastmile_qr_scan", "ios": "https://dc.lft.to/lastmile_qr_scan"}, "fusion_lon": 0.0, "lat": 38.9225805, "bike_id": "4abfc50da9e8a87422b665a3cf916062", "type": "electric_scooter", "is_reserved": 0, "lon": -77.00916466666666}, {"fusion_lat": 0.0, "name": "c05398935f3e3abca2986b06f9e1dc2e", "is_disabled": 0, "rental_uris": {"android": "https://dc.lft.to/lastmile_qr_scan", "ios": "https://dc.lft.to/lastmile_qr_scan"}, "fusion_lon": 0.0, "lat": 38.92960183333334, "bike_id": "c05398935f3e3abca2986b06f9e1dc2e", "type": "electric_scooter", "is_reserved": 0, "lon": -76.99173983333333}, {"fusion_lat": 0.0, "name": "fea1e1c1aa144d8d613de461d3785512", "is_disabled": 0, "rental_uris": {"android": "https://dc.lft.to/lastmile_qr_scan", "ios": "https://dc.lft.to/lastmile_qr_scan"}, "fusion_lon": 0.0, "lat": 38.907630166666664, "bike_id": "fea1e1c1aa144d8d613de461d3785512", "type": "electric_scooter", "is_reserved": 0, "lon": -77.03861816666667}, {"fusion_lat": 0.0, "name": "249d4e3df18a3607a5fa085987dad811", "is_disabled": 0, "rental_uris": {"android": "https://dc.lft.to/lastmile_qr_scan", "ios": "https://dc.lft.to/lastmile_qr_scan"}, "fusion_lon": 0.0, "lat": 38.93865566666667, "bike_id": "249d4e3df18a3607a5fa085987dad811", "type": "electric_scooter", "is_reserved": 0, "lon": -77.02556016666666}, {"fusion_lat": 0.0, "name": "372ad3c7912de2e577afc3dd7008abfb", "is_disabled": 0, "rental_uris": {"android": "https://dc.lft.to/lastmile_qr_scan", "ios": "https://dc.lft.to/lastmile_qr_scan"}, "fusion_lon": 0.0, "lat": 38.900339333333335, "bike_id": "372ad3c7912de2e577afc3dd7008abfb", "type": "electric_bike", "is_reserved": 0, "lon": -76.97226683333334}, {"fusion_lat": 0.0, "name": "e8ad87456275c3fb079c0110cd7ca490", "is_disabled": 0, "rental_uris": {"android": "https://dc.lft.to/lastmile_qr_scan", "ios": "https://dc.lft.to/lastmile_qr_scan"}, "fusion_lon": 0.0, "lat": 38.90565816666667, "bike_id": "e8ad87456275c3fb079c0110cd7ca490", "type": "electric_scooter", "is_reserved": 0, "lon": -77.03473266666667}, {"fusion_lat": 0.0, "name": "20dd963e9112a348b33fd314ce9cab94", "is_disabled": 0, "rental_uris": {"android": "https://dc.lft.to/lastmile_qr_scan", "ios": "https://dc.lft.to/lastmile_qr_scan"}, "fusion_lon": 0.0, "lat": 38.90771633333333, "bike_id": "20dd963e9112a348b33fd314ce9cab94", "type": "electric_scooter", "is_reserved": 0, "lon": -77.038531}, {"fusion_lat": 0.0, "name": "1a9284bc1f41cf57a1884c071acce21b", "is_disabled": 0, "rental_uris": {"android": "https://dc.lft.to/lastmile_qr_scan", "ios": "https://dc.lft.to/lastmile_qr_scan"}, "fusion_lon": 0.0, "lat": 38.83204283333333, "bike_id": "1a9284bc1f41cf57a1884c071acce21b", "type": "electric_bike", "is_reserved": 0, "lon": -76.99674733333333}, {"fusion_lat": 0.0, "name": "7fe71a31a70e42fed0b236d30591d129", "is_disabled": 0, "rental_uris": {"android": "https://dc.lft.to/lastmile_qr_scan", "ios": "https://dc.lft.to/lastmile_qr_scan"}, "fusion_lon": 0.0, "lat": 38.90404766666666, "bike_id": "7fe71a31a70e42fed0b236d30591d129", "type": "electric_scooter", "is_reserved": 0, "lon": -77.04878216666667}, {"fusion_lat": 0.0, "name": "b10eeaae9d9fe7df9d1d0206e87023ee", "is_disabled": 0, "rental_uris": {"android": "https://dc.lft.to/lastmile_qr_scan", "ios": "https://dc.lft.to/lastmile_qr_scan"}, "fusion_lon": 0.0, "lat": 38.924751, "bike_id": "b10eeaae9d9fe7df9d1d0206e87023ee", "type": "electric_scooter", "is_reserved": 0, "lon": -77.02211533333333}, {"fusion_lat": 0.0, "name": "5328d02fefef4a442506f8a1775a27ce", "is_disabled": 0, "rental_uris": {"android": "https://dc.lft.to/lastmile_qr_scan", "ios": "https://dc.lft.to/lastmile_qr_scan"}, "fusion_lon": 0.0, "lat": 38.931715833333335, "bike_id": "5328d02fefef4a442506f8a1775a27ce", "type": "electric_scooter", "is_reserved": 0, "lon": -77.03793116666667}, {"fusion_lat": 0.0, "name": "30efeea82e1f39507154182d52d8ee0b", "is_disabled": 0, "rental_uris": {"android": "https://dc.lft.to/lastmile_qr_scan", "ios": "https://dc.lft.to/lastmile_qr_scan"}, "fusion_lon": 0.0, "lat": 38.966757333333334, "bike_id": "30efeea82e1f39507154182d52d8ee0b", "type": "electric_bike", "is_reserved": 0, "lon": -77.02303183333333}, {"fusion_lat": 0.0, "name": "8936aed685f5d9e1d3b319a151c9ab16", "is_disabled": 0, "rental_uris": {"android": "https://dc.lft.to/lastmile_qr_scan", "ios": "https://dc.lft.to/lastmile_qr_scan"}, "fusion_lon": 0.0, "lat": 38.91154383333333, "bike_id": "8936aed685f5d9e1d3b319a151c9ab16", "type": "electric_scooter", "is_reserved": 0, "lon": -76.99693883333333}, {"fusion_lat": 0.0, "name": "cf17dfc903895b25922e5eb8ad083d6a", "is_disabled": 0, "rental_uris": {"android": "https://dc.lft.to/lastmile_qr_scan", "ios": "https://dc.lft.to/lastmile_qr_scan"}, "fusion_lon": 0.0, "lat": 38.87707016666667, "bike_id": "cf17dfc903895b25922e5eb8ad083d6a", "type": "electric_scooter", "is_reserved": 0, "lon": -77.00401383333333}, {"fusion_lat": 0.0, "name": "21085e6cc2abf7cb0f6fbf823ad4c283", "is_disabled": 0, "rental_uris": {"android": "https://dc.lft.to/lastmile_qr_scan", "ios": "https://dc.lft.to/lastmile_qr_scan"}, "fusion_lon": 0.0, "lat": 38.90738733333333, "bike_id": "21085e6cc2abf7cb0f6fbf823ad4c283", "type": "electric_scooter", "is_reserved": 0, "lon": -77.03447933333334}, {"fusion_lat": 0.0, "name": "f97334785e51bc336c447e3b78436707", "is_disabled": 0, "rental_uris": {"android": "https://dc.lft.to/lastmile_qr_scan", "ios": "https://dc.lft.to/lastmile_qr_scan"}, "fusion_lon": 0.0, "lat": 38.91437616666666, "bike_id": "f97334785e51bc336c447e3b78436707", "type": "electric_scooter", "is_reserved": 0, "lon": -76.99354266666667}, {"fusion_lat": 0.0, "name": "cdbc60868d5e66d8f7d15432cbc738bd", "is_disabled": 0, "rental_uris": {"android": "https://dc.lft.to/lastmile_qr_scan", "ios": "https://dc.lft.to/lastmile_qr_scan"}, "fusion_lon": 0.0, "lat": 38.892199166666664, "bike_id": "cdbc60868d5e66d8f7d15432cbc738bd", "type": "electric_scooter", "is_reserved": 0, "lon": -77.0201345}, {"fusion_lat": 0.0, "name": "f08959c2c9805153f568da319d1233cb", "is_disabled": 0, "rental_uris": {"android": "https://dc.lft.to/lastmile_qr_scan", "ios": "https://dc.lft.to/lastmile_qr_scan"}, "fusion_lon": 0.0, "lat": 38.92248166666667, "bike_id": "f08959c2c9805153f568da319d1233cb", "type": "electric_scooter", "is_reserved": 0, "lon": -77.08080233333334}, {"fusion_lat": 0.0, "name": "87f1690d8212d32c9ea9b5bd71941370", "is_disabled": 0, "rental_uris": {"android": "https://dc.lft.to/lastmile_qr_scan", "ios": "https://dc.lft.to/lastmile_qr_scan"}, "fusion_lon": 0.0, "lat": 38.91553916666667, "bike_id": "87f1690d8212d32c9ea9b5bd71941370", "type": "electric_scooter", "is_reserved": 0, "lon": -77.04117416666666}, {"fusion_lat": 0.0, "name": "ecd26fac73870ea519d63c6a7f9bd36d", "is_disabled": 0, "rental_uris": {"android": "https://dc.lft.to/lastmile_qr_scan", "ios": "https://dc.lft.to/lastmile_qr_scan"}, "fusion_lon": 0.0, "lat": 38.8965435, "bike_id": "ecd26fac73870ea519d63c6a7f9bd36d", "type": "electric_scooter", "is_reserved": 0, "lon": -77.04995933333333}, {"fusion_lat": 0.0, "name": "223b492fb5fcea0bf89ace9bb29a1165", "is_disabled": 0, "rental_uris": {"android": "https://dc.lft.to/lastmile_qr_scan", "ios": "https://dc.lft.to/lastmile_qr_scan"}, "fusion_lon": 0.0, "lat": 38.896697, "bike_id": "223b492fb5fcea0bf89ace9bb29a1165", "type": "electric_scooter", "is_reserved": 0, "lon": -77.00515666666666}, {"fusion_lat": 0.0, "name": "d9dbf4200e9ba5eb93c260f97b7caef4", "is_disabled": 0, "rental_uris": {"android": "https://dc.lft.to/lastmile_qr_scan", "ios": "https://dc.lft.to/lastmile_qr_scan"}, "fusion_lon": 0.0, "lat": 38.813337, "bike_id": "d9dbf4200e9ba5eb93c260f97b7caef4", "type": "electric_bike", "is_reserved": 0, "lon": -77.0508885}, {"fusion_lat": 0.0, "name": "f73360aab6b8274ea7eeee598b776faa", "is_disabled": 0, "rental_uris": {"android": "https://dc.lft.to/lastmile_qr_scan", "ios": "https://dc.lft.to/lastmile_qr_scan"}, "fusion_lon": 0.0, "lat": 38.95889316666667, "bike_id": "f73360aab6b8274ea7eeee598b776faa", "type": "electric_scooter", "is_reserved": 0, "lon": -77.027788}, {"fusion_lat": 0.0, "name": "f76d75ee7fa8449007f4d415ff6db81f", "is_disabled": 0, "rental_uris": {"android": "https://dc.lft.to/lastmile_qr_scan", "ios": "https://dc.lft.to/lastmile_qr_scan"}, "fusion_lon": 0.0, "lat": 38.90884366666667, "bike_id": "f76d75ee7fa8449007f4d415ff6db81f", "type": "electric_scooter", "is_reserved": 0, "lon": -77.04483366666666}, {"fusion_lat": 0.0, "name": "5ea497e39a7055c657ad05ed1362869c", "is_disabled": 0, "rental_uris": {"android": "https://dc.lft.to/lastmile_qr_scan", "ios": "https://dc.lft.to/lastmile_qr_scan"}, "fusion_lon": 0.0, "lat": 38.90524283333333, "bike_id": "5ea497e39a7055c657ad05ed1362869c", "type": "electric_scooter", "is_reserved": 0, "lon": -77.03477116666667}, {"fusion_lat": 0.0, "name": "468d4cf08b8bd45b2c1188245cd0a97c", "is_disabled": 0, "rental_uris": {"android": "https://dc.lft.to/lastmile_qr_scan", "ios": "https://dc.lft.to/lastmile_qr_scan"}, "fusion_lon": 0.0, "lat": 38.88399966666667, "bike_id": "468d4cf08b8bd45b2c1188245cd0a97c", "type": "electric_scooter", "is_reserved": 0, "lon": -76.930413}, {"fusion_lat": 0.0, "name": "f522c7e2951b14d59cb4ff6f2a8a3e84", "is_disabled": 0, "rental_uris": {"android": "https://dc.lft.to/lastmile_qr_scan", "ios": "https://dc.lft.to/lastmile_qr_scan"}, "fusion_lon": 0.0, "lat": 38.90381083333333, "bike_id": "f522c7e2951b14d59cb4ff6f2a8a3e84", "type": "electric_scooter", "is_reserved": 0, "lon": -77.067154}, {"fusion_lat": 0.0, "name": "1cfc7105a9a830f62e564074bc910d08", "is_disabled": 0, "rental_uris": {"android": "https://dc.lft.to/lastmile_qr_scan", "ios": "https://dc.lft.to/lastmile_qr_scan"}, "fusion_lon": 0.0, "lat": 38.9105455, "bike_id": "1cfc7105a9a830f62e564074bc910d08", "type": "electric_scooter", "is_reserved": 0, "lon": -76.98518183333333}, {"fusion_lat": 0.0, "name": "04aec122a2a8fb5dc4f2cfda4537fa24", "is_disabled": 0, "rental_uris": {"android": "https://dc.lft.to/lastmile_qr_scan", "ios": "https://dc.lft.to/lastmile_qr_scan"}, "fusion_lon": 0.0, "lat": 38.9179335, "bike_id": "04aec122a2a8fb5dc4f2cfda4537fa24", "type": "electric_scooter", "is_reserved": 0, "lon": -77.02308866666667}, {"fusion_lat": 0.0, "name": "9af402641018703772aee17cc92cb34c", "is_disabled": 0, "rental_uris": {"android": "https://dc.lft.to/lastmile_qr_scan", "ios": "https://dc.lft.to/lastmile_qr_scan"}, "fusion_lon": 0.0, "lat": 38.90728083333333, "bike_id": "9af402641018703772aee17cc92cb34c", "type": "electric_scooter", "is_reserved": 0, "lon": -77.01114116666666}, {"fusion_lat": 0.0, "name": "7a667470a25b89c02e3752d10206e568", "is_disabled": 0, "rental_uris": {"android": "https://dc.lft.to/lastmile_qr_scan", "ios": "https://dc.lft.to/lastmile_qr_scan"}, "fusion_lon": 0.0, "lat": 38.887687166666666, "bike_id": "7a667470a25b89c02e3752d10206e568", "type": "electric_scooter", "is_reserved": 0, "lon": -76.97748733333333}, {"fusion_lat": 0.0, "name": "5e5fb3e9f7ac130323e1859ce09979d3", "is_disabled": 0, "rental_uris": {"android": "https://dc.lft.to/lastmile_qr_scan", "ios": "https://dc.lft.to/lastmile_qr_scan"}, "fusion_lon": 0.0, "lat": 38.90151266666667, "bike_id": "5e5fb3e9f7ac130323e1859ce09979d3", "type": "electric_scooter", "is_reserved": 0, "lon": -76.93065766666666}, {"fusion_lat": 0.0, "name": "84d7bf5f565496c5bbdb5ff82811d39e", "is_disabled": 0, "rental_uris": {"android": "https://dc.lft.to/lastmile_qr_scan", "ios": "https://dc.lft.to/lastmile_qr_scan"}, "fusion_lon": 0.0, "lat": 38.984608, "bike_id": "84d7bf5f565496c5bbdb5ff82811d39e", "type": "electric_bike", "is_reserved": 0, "lon": -76.97058}, {"fusion_lat": 0.0, "name": "95e1eeb3e8e064d8053522cf62c62283", "is_disabled": 0, "rental_uris": {"android": "https://dc.lft.to/lastmile_qr_scan", "ios": "https://dc.lft.to/lastmile_qr_scan"}, "fusion_lon": 0.0, "lat": 38.905767833333336, "bike_id": "95e1eeb3e8e064d8053522cf62c62283", "type": "electric_scooter", "is_reserved": 0, "lon": -77.0442635}, {"fusion_lat": 0.0, "name": "3dc67b1539aaaf0a8c1b78846ce0ae63", "is_disabled": 0, "rental_uris": {"android": "https://dc.lft.to/lastmile_qr_scan", "ios": "https://dc.lft.to/lastmile_qr_scan"}, "fusion_lon": 0.0, "lat": 38.9068365, "bike_id": "3dc67b1539aaaf0a8c1b78846ce0ae63", "type": "electric_bike", "is_reserved": 0, "lon": -76.94494516666667}, {"fusion_lat": 0.0, "name": "02de11b3cb6083a67cc745e2831cf327", "is_disabled": 0, "rental_uris": {"android": "https://dc.lft.to/lastmile_qr_scan", "ios": "https://dc.lft.to/lastmile_qr_scan"}, "fusion_lon": 0.0, "lat": 38.898226666666666, "bike_id": "02de11b3cb6083a67cc745e2831cf327", "type": "electric_scooter", "is_reserved": 0, "lon": -77.00745616666667}, {"fusion_lat": 0.0, "name": "cad893fab119b3c98c94806ac2144d87", "is_disabled": 0, "rental_uris": {"android": "https://dc.lft.to/lastmile_qr_scan", "ios": "https://dc.lft.to/lastmile_qr_scan"}, "fusion_lon": 0.0, "lat": 38.8784795, "bike_id": "cad893fab119b3c98c94806ac2144d87", "type": "electric_bike", "is_reserved": 0, "lon": -77.03020933333333}, {"fusion_lat": 0.0, "name": "37b297daff0e182353d787f13ff23d79", "is_disabled": 0, "rental_uris": {"android": "https://dc.lft.to/lastmile_qr_scan", "ios": "https://dc.lft.to/lastmile_qr_scan"}, "fusion_lon": 0.0, "lat": 38.92059183333333, "bike_id": "37b297daff0e182353d787f13ff23d79", "type": "electric_scooter", "is_reserved": 0, "lon": -77.024222}, {"fusion_lat": 0.0, "name": "01ef0f6d2a7f7f6038f26637039b0d17", "is_disabled": 0, "rental_uris": {"android": "https://dc.lft.to/lastmile_qr_scan", "ios": "https://dc.lft.to/lastmile_qr_scan"}, "fusion_lon": 0.0, "lat": 38.92256666666667, "bike_id": "01ef0f6d2a7f7f6038f26637039b0d17", "type": "electric_bike", "is_reserved": 0, "lon": -77.0221835}, {"fusion_lat": 0.0, "name": "a11b17c884fddc9cd1f95d2abcf1045f", "is_disabled": 0, "rental_uris": {"android": "https://dc.lft.to/lastmile_qr_scan", "ios": "https://dc.lft.to/lastmile_qr_scan"}, "fusion_lon": 0.0, "lat": 38.98828566666667, "bike_id": "a11b17c884fddc9cd1f95d2abcf1045f", "type": "electric_bike", "is_reserved": 0, "lon": -76.99651833333333}, {"fusion_lat": 0.0, "name": "d69c3e752764ae98a898be46c6ad8bf4", "is_disabled": 0, "rental_uris": {"android": "https://dc.lft.to/lastmile_qr_scan", "ios": "https://dc.lft.to/lastmile_qr_scan"}, "fusion_lon": 0.0, "lat": 38.891621, "bike_id": "d69c3e752764ae98a898be46c6ad8bf4", "type": "electric_bike", "is_reserved": 0, "lon": -77.00468133333334}, {"fusion_lat": 0.0, "name": "17a6a1dc7db71572f2f45e459816626e", "is_disabled": 0, "rental_uris": {"android": "https://dc.lft.to/lastmile_qr_scan", "ios": "https://dc.lft.to/lastmile_qr_scan"}, "fusion_lon": 0.0, "lat": 38.900369, "bike_id": "17a6a1dc7db71572f2f45e459816626e", "type": "electric_scooter", "is_reserved": 0, "lon": -77.01184966666666}, {"fusion_lat": 0.0, "name": "c24586e4ce493479144466c84ce6b736", "is_disabled": 0, "rental_uris": {"android": "https://dc.lft.to/lastmile_qr_scan", "ios": "https://dc.lft.to/lastmile_qr_scan"}, "fusion_lon": 0.0, "lat": 38.945123333333335, "bike_id": "c24586e4ce493479144466c84ce6b736", "type": "electric_bike", "is_reserved": 0, "lon": -77.00679716666667}, {"fusion_lat": 0.0, "name": "2a0c23960b92cb931ec44b51bb4d2006", "is_disabled": 0, "rental_uris": {"android": "https://dc.lft.to/lastmile_qr_scan", "ios": "https://dc.lft.to/lastmile_qr_scan"}, "fusion_lon": 0.0, "lat": 38.88740083333333, "bike_id": "2a0c23960b92cb931ec44b51bb4d2006", "type": "electric_scooter", "is_reserved": 0, "lon": -77.02585066666667}, {"fusion_lat": 0.0, "name": "1268558e3a35a1ca10ad3b4c797dc086", "is_disabled": 0, "rental_uris": {"android": "https://dc.lft.to/lastmile_qr_scan", "ios": "https://dc.lft.to/lastmile_qr_scan"}, "fusion_lon": 0.0, "lat": 38.934596, "bike_id": "1268558e3a35a1ca10ad3b4c797dc086", "type": "electric_scooter", "is_reserved": 0, "lon": -77.07268966666666}, {"fusion_lat": 0.0, "name": "3e7aff69ad11c47ec50c7e7ce5a5cc43", "is_disabled": 0, "rental_uris": {"android": "https://dc.lft.to/lastmile_qr_scan", "ios": "https://dc.lft.to/lastmile_qr_scan"}, "fusion_lon": 0.0, "lat": 38.95733716666667, "bike_id": "3e7aff69ad11c47ec50c7e7ce5a5cc43", "type": "electric_scooter", "is_reserved": 0, "lon": -77.02404866666667}, {"fusion_lat": 0.0, "name": "58aeb12e8388a785ad08041dde080d86", "is_disabled": 0, "rental_uris": {"android": "https://dc.lft.to/lastmile_qr_scan", "ios": "https://dc.lft.to/lastmile_qr_scan"}, "fusion_lon": 0.0, "lat": 38.918289, "bike_id": "58aeb12e8388a785ad08041dde080d86", "type": "electric_scooter", "is_reserved": 0, "lon": -77.02405316666666}, {"fusion_lat": 0.0, "name": "4ee5b7fbda1ad8e9b7980340f4947071", "is_disabled": 0, "rental_uris": {"android": "https://dc.lft.to/lastmile_qr_scan", "ios": "https://dc.lft.to/lastmile_qr_scan"}, "fusion_lon": 0.0, "lat": 38.90176533333333, "bike_id": "4ee5b7fbda1ad8e9b7980340f4947071", "type": "electric_scooter", "is_reserved": 0, "lon": -76.94144666666666}, {"fusion_lat": 0.0, "name": "0a9847698137722a3e08b587ffe6a2c2", "is_disabled": 0, "rental_uris": {"android": "https://dc.lft.to/lastmile_qr_scan", "ios": "https://dc.lft.to/lastmile_qr_scan"}, "fusion_lon": 0.0, "lat": 38.945977666666664, "bike_id": "0a9847698137722a3e08b587ffe6a2c2", "type": "electric_scooter", "is_reserved": 0, "lon": -77.02983466666667}, {"fusion_lat": 0.0, "name": "f555ba54a749788bddeb2a914decb8b4", "is_disabled": 0, "rental_uris": {"android": "https://dc.lft.to/lastmile_qr_scan", "ios": "https://dc.lft.to/lastmile_qr_scan"}, "fusion_lon": 0.0, "lat": 38.89740183333333, "bike_id": "f555ba54a749788bddeb2a914decb8b4", "type": "electric_scooter", "is_reserved": 0, "lon": -77.00003966666667}, {"fusion_lat": 0.0, "name": "ec6b2222afdedc7482d2104363c8a2cf", "is_disabled": 0, "rental_uris": {"android": "https://dc.lft.to/lastmile_qr_scan", "ios": "https://dc.lft.to/lastmile_qr_scan"}, "fusion_lon": 0.0, "lat": 38.881227, "bike_id": "ec6b2222afdedc7482d2104363c8a2cf", "type": "electric_scooter", "is_reserved": 0, "lon": -76.99282}, {"fusion_lat": 0.0, "name": "af7b334b0e269964490617b4de31e92a", "is_disabled": 0, "rental_uris": {"android": "https://dc.lft.to/lastmile_qr_scan", "ios": "https://dc.lft.to/lastmile_qr_scan"}, "fusion_lon": 0.0, "lat": 38.90520633333333, "bike_id": "af7b334b0e269964490617b4de31e92a", "type": "electric_scooter", "is_reserved": 0, "lon": -77.0348205}, {"fusion_lat": 0.0, "name": "cd630173b748aeab84a7a25313a75d13", "is_disabled": 0, "rental_uris": {"android": "https://dc.lft.to/lastmile_qr_scan", "ios": "https://dc.lft.to/lastmile_qr_scan"}, "fusion_lon": 0.0, "lat": 38.916352333333336, "bike_id": "cd630173b748aeab84a7a25313a75d13", "type": "electric_scooter", "is_reserved": 0, "lon": -77.04814066666667}, {"fusion_lat": 0.0, "name": "153040647bfb75257781c8533b06bf53", "is_disabled": 0, "rental_uris": {"android": "https://dc.lft.to/lastmile_qr_scan", "ios": "https://dc.lft.to/lastmile_qr_scan"}, "fusion_lon": 0.0, "lat": 38.87653616666667, "bike_id": "153040647bfb75257781c8533b06bf53", "type": "electric_scooter", "is_reserved": 0, "lon": -77.001185}, {"fusion_lat": 0.0, "name": "e950e3b4a8b7a4d23e93a5b88c390e43", "is_disabled": 0, "rental_uris": {"android": "https://dc.lft.to/lastmile_qr_scan", "ios": "https://dc.lft.to/lastmile_qr_scan"}, "fusion_lon": 0.0, "lat": 38.901927, "bike_id": "e950e3b4a8b7a4d23e93a5b88c390e43", "type": "electric_scooter", "is_reserved": 0, "lon": -76.98846333333333}, {"fusion_lat": 0.0, "name": "2002567513e0059e3ec49300d156e061", "is_disabled": 0, "rental_uris": {"android": "https://dc.lft.to/lastmile_qr_scan", "ios": "https://dc.lft.to/lastmile_qr_scan"}, "fusion_lon": 0.0, "lat": 38.92031633333333, "bike_id": "2002567513e0059e3ec49300d156e061", "type": "electric_scooter", "is_reserved": 0, "lon": -77.01788666666667}, {"fusion_lat": 0.0, "name": "47d4cf2ba33cdc0e765f8f8aa02d2453", "is_disabled": 0, "rental_uris": {"android": "https://dc.lft.to/lastmile_qr_scan", "ios": "https://dc.lft.to/lastmile_qr_scan"}, "fusion_lon": 0.0, "lat": 38.91107266666667, "bike_id": "47d4cf2ba33cdc0e765f8f8aa02d2453", "type": "electric_scooter", "is_reserved": 0, "lon": -77.02181383333334}, {"fusion_lat": 0.0, "name": "cb022d88be5d9d80a03e1b5e5aaabbd5", "is_disabled": 0, "rental_uris": {"android": "https://dc.lft.to/lastmile_qr_scan", "ios": "https://dc.lft.to/lastmile_qr_scan"}, "fusion_lon": 0.0, "lat": 38.91064033333333, "bike_id": "cb022d88be5d9d80a03e1b5e5aaabbd5", "type": "electric_scooter", "is_reserved": 0, "lon": -77.05274866666667}, {"fusion_lat": 0.0, "name": "34deccffc9c2e4a3ffe29c305a0d5f5c", "is_disabled": 0, "rental_uris": {"android": "https://dc.lft.to/lastmile_qr_scan", "ios": "https://dc.lft.to/lastmile_qr_scan"}, "fusion_lon": 0.0, "lat": 38.9002425, "bike_id": "34deccffc9c2e4a3ffe29c305a0d5f5c", "type": "electric_scooter", "is_reserved": 0, "lon": -77.00030283333334}, {"fusion_lat": 0.0, "name": "e37f3fdd5564ab7256ec7a8d0157af64", "is_disabled": 0, "rental_uris": {"android": "https://dc.lft.to/lastmile_qr_scan", "ios": "https://dc.lft.to/lastmile_qr_scan"}, "fusion_lon": 0.0, "lat": 38.900624, "bike_id": "e37f3fdd5564ab7256ec7a8d0157af64", "type": "electric_scooter", "is_reserved": 0, "lon": -76.98558516666667}, {"fusion_lat": 0.0, "name": "0f2c90f9217a3c8999359550b56d3b00", "is_disabled": 0, "rental_uris": {"android": "https://dc.lft.to/lastmile_qr_scan", "ios": "https://dc.lft.to/lastmile_qr_scan"}, "fusion_lon": 0.0, "lat": 38.907281, "bike_id": "0f2c90f9217a3c8999359550b56d3b00", "type": "electric_scooter", "is_reserved": 0, "lon": -77.02973316666667}, {"fusion_lat": 0.0, "name": "b13c4835a6793fbf1494786a9640afa1", "is_disabled": 0, "rental_uris": {"android": "https://dc.lft.to/lastmile_qr_scan", "ios": "https://dc.lft.to/lastmile_qr_scan"}, "fusion_lon": 0.0, "lat": 38.94331733333333, "bike_id": "b13c4835a6793fbf1494786a9640afa1", "type": "electric_scooter", "is_reserved": 0, "lon": -77.02690533333333}, {"fusion_lat": 0.0, "name": "f3dcd2bbf0f829a37e5fcee8aba19bec", "is_disabled": 0, "rental_uris": {"android": "https://dc.lft.to/lastmile_qr_scan", "ios": "https://dc.lft.to/lastmile_qr_scan"}, "fusion_lon": 0.0, "lat": 38.91703616666667, "bike_id": "f3dcd2bbf0f829a37e5fcee8aba19bec", "type": "electric_scooter", "is_reserved": 0, "lon": -77.00117816666666}, {"fusion_lat": 0.0, "name": "0022daed4c70b00c3a970cc88f7375e5", "is_disabled": 0, "rental_uris": {"android": "https://dc.lft.to/lastmile_qr_scan", "ios": "https://dc.lft.to/lastmile_qr_scan"}, "fusion_lon": 0.0, "lat": 38.92873783333334, "bike_id": "0022daed4c70b00c3a970cc88f7375e5", "type": "electric_scooter", "is_reserved": 0, "lon": -77.0379295}, {"fusion_lat": 0.0, "name": "9e89a3b05418ad54ee737c630f928bd9", "is_disabled": 0, "rental_uris": {"android": "https://dc.lft.to/lastmile_qr_scan", "ios": "https://dc.lft.to/lastmile_qr_scan"}, "fusion_lon": 0.0, "lat": 38.898497666666664, "bike_id": "9e89a3b05418ad54ee737c630f928bd9", "type": "electric_scooter", "is_reserved": 0, "lon": -76.99030316666666}, {"fusion_lat": 0.0, "name": "6cdc21fc59048dd7c7da2b2c5eafb122", "is_disabled": 0, "rental_uris": {"android": "https://dc.lft.to/lastmile_qr_scan", "ios": "https://dc.lft.to/lastmile_qr_scan"}, "fusion_lon": 0.0, "lat": 38.920629, "bike_id": "6cdc21fc59048dd7c7da2b2c5eafb122", "type": "electric_scooter", "is_reserved": 0, "lon": -77.0253345}, {"fusion_lat": 0.0, "name": "826065ababef9175bf223ed46d7bd982", "is_disabled": 0, "rental_uris": {"android": "https://dc.lft.to/lastmile_qr_scan", "ios": "https://dc.lft.to/lastmile_qr_scan"}, "fusion_lon": 0.0, "lat": 38.899234666666665, "bike_id": "826065ababef9175bf223ed46d7bd982", "type": "electric_scooter", "is_reserved": 0, "lon": -77.071922}, {"fusion_lat": 0.0, "name": "b2db82c5080f3f8ab9e97cf930161d52", "is_disabled": 0, "rental_uris": {"android": "https://dc.lft.to/lastmile_qr_scan", "ios": "https://dc.lft.to/lastmile_qr_scan"}, "fusion_lon": 0.0, "lat": 38.910478833333336, "bike_id": "b2db82c5080f3f8ab9e97cf930161d52", "type": "electric_scooter", "is_reserved": 0, "lon": -77.03335383333334}, {"fusion_lat": 0.0, "name": "1c018c5d31a25d90907f71a3c04b0e93", "is_disabled": 0, "rental_uris": {"android": "https://dc.lft.to/lastmile_qr_scan", "ios": "https://dc.lft.to/lastmile_qr_scan"}, "fusion_lon": 0.0, "lat": 38.942918, "bike_id": "1c018c5d31a25d90907f71a3c04b0e93", "type": "electric_scooter", "is_reserved": 0, "lon": -77.02172916666666}, {"fusion_lat": 0.0, "name": "ad1ab32d8c5667b66708395a1c895be1", "is_disabled": 0, "rental_uris": {"android": "https://dc.lft.to/lastmile_qr_scan", "ios": "https://dc.lft.to/lastmile_qr_scan"}, "fusion_lon": 0.0, "lat": 38.8830385, "bike_id": "ad1ab32d8c5667b66708395a1c895be1", "type": "electric_scooter", "is_reserved": 0, "lon": -76.94856}, {"fusion_lat": 0.0, "name": "940cd9964a530af91c6cc54d5b2dc69e", "is_disabled": 0, "rental_uris": {"android": "https://dc.lft.to/lastmile_qr_scan", "ios": "https://dc.lft.to/lastmile_qr_scan"}, "fusion_lon": 0.0, "lat": 38.884282166666665, "bike_id": "940cd9964a530af91c6cc54d5b2dc69e", "type": "electric_scooter", "is_reserved": 0, "lon": -76.95759216666667}, {"fusion_lat": 0.0, "name": "08dd5c52f3a587b5cecc579e50d492cb", "is_disabled": 0, "rental_uris": {"android": "https://dc.lft.to/lastmile_qr_scan", "ios": "https://dc.lft.to/lastmile_qr_scan"}, "fusion_lon": 0.0, "lat": 38.9127035, "bike_id": "08dd5c52f3a587b5cecc579e50d492cb", "type": "electric_scooter", "is_reserved": 0, "lon": -77.03867716666667}, {"fusion_lat": 0.0, "name": "d708f0d7c832187c184f5934acdbd255", "is_disabled": 0, "rental_uris": {"android": "https://dc.lft.to/lastmile_qr_scan", "ios": "https://dc.lft.to/lastmile_qr_scan"}, "fusion_lon": 0.0, "lat": 38.924165, "bike_id": "d708f0d7c832187c184f5934acdbd255", "type": "electric_scooter", "is_reserved": 0, "lon": -76.9962545}, {"fusion_lat": 0.0, "name": "789253ab5fd31d6e1ace9c27da0dffc5", "is_disabled": 0, "rental_uris": {"android": "https://dc.lft.to/lastmile_qr_scan", "ios": "https://dc.lft.to/lastmile_qr_scan"}, "fusion_lon": 0.0, "lat": 38.89842216666667, "bike_id": "789253ab5fd31d6e1ace9c27da0dffc5", "type": "electric_scooter", "is_reserved": 0, "lon": -77.013321}, {"fusion_lat": 0.0, "name": "fc5e7652f43b22306226a86ad75dc133", "is_disabled": 0, "rental_uris": {"android": "https://dc.lft.to/lastmile_qr_scan", "ios": "https://dc.lft.to/lastmile_qr_scan"}, "fusion_lon": 0.0, "lat": 38.88775233333333, "bike_id": "fc5e7652f43b22306226a86ad75dc133", "type": "electric_scooter", "is_reserved": 0, "lon": -77.0330595}, {"fusion_lat": 0.0, "name": "bc0f69726543923ec5f0f3f7ff5af367", "is_disabled": 0, "rental_uris": {"android": "https://dc.lft.to/lastmile_qr_scan", "ios": "https://dc.lft.to/lastmile_qr_scan"}, "fusion_lon": 0.0, "lat": 38.93578266666667, "bike_id": "bc0f69726543923ec5f0f3f7ff5af367", "type": "electric_scooter", "is_reserved": 0, "lon": -77.028463}, {"fusion_lat": 0.0, "name": "a72461699df54200de70ef0ba0f97133", "is_disabled": 0, "rental_uris": {"android": "https://dc.lft.to/lastmile_qr_scan", "ios": "https://dc.lft.to/lastmile_qr_scan"}, "fusion_lon": 0.0, "lat": 38.92509883333334, "bike_id": "a72461699df54200de70ef0ba0f97133", "type": "electric_scooter", "is_reserved": 0, "lon": -77.022901}, {"fusion_lat": 0.0, "name": "faf5835e3696ea2669fe15d777068c1f", "is_disabled": 0, "rental_uris": {"android": "https://dc.lft.to/lastmile_qr_scan", "ios": "https://dc.lft.to/lastmile_qr_scan"}, "fusion_lon": 0.0, "lat": 38.90772833333333, "bike_id": "faf5835e3696ea2669fe15d777068c1f", "type": "electric_scooter", "is_reserved": 0, "lon": -77.05603766666667}, {"fusion_lat": 0.0, "name": "09b0d983806fb4ceedd5ce89fe803619", "is_disabled": 0, "rental_uris": {"android": "https://dc.lft.to/lastmile_qr_scan", "ios": "https://dc.lft.to/lastmile_qr_scan"}, "fusion_lon": 0.0, "lat": 38.854252833333334, "bike_id": "09b0d983806fb4ceedd5ce89fe803619", "type": "electric_bike", "is_reserved": 0, "lon": -77.12078916666667}, {"fusion_lat": 0.0, "name": "fed1c17372f47c5211038063b27598a6", "is_disabled": 0, "rental_uris": {"android": "https://dc.lft.to/lastmile_qr_scan", "ios": "https://dc.lft.to/lastmile_qr_scan"}, "fusion_lon": 0.0, "lat": 38.952247666666665, "bike_id": "fed1c17372f47c5211038063b27598a6", "type": "electric_scooter", "is_reserved": 0, "lon": -77.08217766666667}, {"fusion_lat": 0.0, "name": "fd95499859caebc1ce394f8ad675dba4", "is_disabled": 0, "rental_uris": {"android": "https://dc.lft.to/lastmile_qr_scan", "ios": "https://dc.lft.to/lastmile_qr_scan"}, "fusion_lon": 0.0, "lat": 38.919977, "bike_id": "fd95499859caebc1ce394f8ad675dba4", "type": "electric_scooter", "is_reserved": 0, "lon": -77.07191183333333}, {"fusion_lat": 0.0, "name": "bbfa4e73383b9eab6bda4cee1f3aa88f", "is_disabled": 0, "rental_uris": {"android": "https://dc.lft.to/lastmile_qr_scan", "ios": "https://dc.lft.to/lastmile_qr_scan"}, "fusion_lon": 0.0, "lat": 38.908669, "bike_id": "bbfa4e73383b9eab6bda4cee1f3aa88f", "type": "electric_scooter", "is_reserved": 0, "lon": -77.04483566666667}, {"fusion_lat": 0.0, "name": "1f3f51c8ca4fa39725f3135c20e2ba54", "is_disabled": 0, "rental_uris": {"android": "https://dc.lft.to/lastmile_qr_scan", "ios": "https://dc.lft.to/lastmile_qr_scan"}, "fusion_lon": 0.0, "lat": 38.90036333333333, "bike_id": "1f3f51c8ca4fa39725f3135c20e2ba54", "type": "electric_scooter", "is_reserved": 0, "lon": -77.03505983333334}, {"fusion_lat": 0.0, "name": "297695fb629d054a477583262e6c763e", "is_disabled": 0, "rental_uris": {"android": "https://dc.lft.to/lastmile_qr_scan", "ios": "https://dc.lft.to/lastmile_qr_scan"}, "fusion_lon": 0.0, "lat": 38.92108916666667, "bike_id": "297695fb629d054a477583262e6c763e", "type": "electric_scooter", "is_reserved": 0, "lon": -76.99462266666667}, {"fusion_lat": 0.0, "name": "ba432aef53995057f2b562d414cc58ab", "is_disabled": 0, "rental_uris": {"android": "https://dc.lft.to/lastmile_qr_scan", "ios": "https://dc.lft.to/lastmile_qr_scan"}, "fusion_lon": 0.0, "lat": 38.985468833333336, "bike_id": "ba432aef53995057f2b562d414cc58ab", "type": "electric_bike", "is_reserved": 0, "lon": -77.0040355}, {"fusion_lat": 0.0, "name": "14915836f49c971e1e55f262801e7e7d", "is_disabled": 0, "rental_uris": {"android": "https://dc.lft.to/lastmile_qr_scan", "ios": "https://dc.lft.to/lastmile_qr_scan"}, "fusion_lon": 0.0, "lat": 38.87849383333333, "bike_id": "14915836f49c971e1e55f262801e7e7d", "type": "electric_bike", "is_reserved": 0, "lon": -77.0302445}, {"fusion_lat": 0.0, "name": "54d8aee374f126da7ca3e9acc4b085e4", "is_disabled": 0, "rental_uris": {"android": "https://dc.lft.to/lastmile_qr_scan", "ios": "https://dc.lft.to/lastmile_qr_scan"}, "fusion_lon": 0.0, "lat": 38.819928833333336, "bike_id": "54d8aee374f126da7ca3e9acc4b085e4", "type": "electric_bike", "is_reserved": 0, "lon": -76.99811666666666}, {"fusion_lat": 0.0, "name": "4eea0de8995052a5f049bfa35a6caa46", "is_disabled": 0, "rental_uris": {"android": "https://dc.lft.to/lastmile_qr_scan", "ios": "https://dc.lft.to/lastmile_qr_scan"}, "fusion_lon": 0.0, "lat": 38.8762185, "bike_id": "4eea0de8995052a5f049bfa35a6caa46", "type": "electric_scooter", "is_reserved": 0, "lon": -77.0065115}, {"fusion_lat": 0.0, "name": "2bbcad73f0dd10f7fcafc30a42089c2e", "is_disabled": 0, "rental_uris": {"android": "https://dc.lft.to/lastmile_qr_scan", "ios": "https://dc.lft.to/lastmile_qr_scan"}, "fusion_lon": 0.0, "lat": 38.876696, "bike_id": "2bbcad73f0dd10f7fcafc30a42089c2e", "type": "electric_bike", "is_reserved": 0, "lon": -77.01442083333333}, {"fusion_lat": 0.0, "name": "4c288b941080fecc1ca0f1e087860050", "is_disabled": 0, "rental_uris": {"android": "https://dc.lft.to/lastmile_qr_scan", "ios": "https://dc.lft.to/lastmile_qr_scan"}, "fusion_lon": 0.0, "lat": 38.9089505, "bike_id": "4c288b941080fecc1ca0f1e087860050", "type": "electric_scooter", "is_reserved": 0, "lon": -77.00265016666667}, {"fusion_lat": 0.0, "name": "7f46b7cc31d6e89e8cda53c8b216af79", "is_disabled": 0, "rental_uris": {"android": "https://dc.lft.to/lastmile_qr_scan", "ios": "https://dc.lft.to/lastmile_qr_scan"}, "fusion_lon": 0.0, "lat": 38.90937233333333, "bike_id": "7f46b7cc31d6e89e8cda53c8b216af79", "type": "electric_scooter", "is_reserved": 0, "lon": -77.03858016666666}, {"fusion_lat": 0.0, "name": "8b9ed051d09ac91c0fc168385f46489c", "is_disabled": 0, "rental_uris": {"android": "https://dc.lft.to/lastmile_qr_scan", "ios": "https://dc.lft.to/lastmile_qr_scan"}, "fusion_lon": 0.0, "lat": 38.916680666666664, "bike_id": "8b9ed051d09ac91c0fc168385f46489c", "type": "electric_scooter", "is_reserved": 0, "lon": -77.02973883333334}, {"fusion_lat": 0.0, "name": "d9bfb82f733b9e8d43364e27a00c71ae", "is_disabled": 0, "rental_uris": {"android": "https://dc.lft.to/lastmile_qr_scan", "ios": "https://dc.lft.to/lastmile_qr_scan"}, "fusion_lon": 0.0, "lat": 38.949755833333334, "bike_id": "d9bfb82f733b9e8d43364e27a00c71ae", "type": "electric_scooter", "is_reserved": 0, "lon": -77.0663155},