{"data": {"bikes": [{"rental_uris": {"android": "https://dc.lft.to/lastmile_qr_scan", "ios": "https://dc.lft.to/lastmile_qr_scan"}, "is_reserved": 0, "is_disabled": 0, "name": "1ba1a892dedbac135afc3a7b02d367dd", "bike_id": "1ba1a892dedbac135afc3a7b02d367dd", "fusion_lat": 0.0, "lon": -77.00677483333334, "type": "electric_scooter", "fusion_lon": 0.0, "lat": 38.8999745}, {"rental_uris": {"android": "https://dc.lft.to/lastmile_qr_scan", "ios": "https://dc.lft.to/lastmile_qr_scan"}, "is_reserved": 0, "is_disabled": 0, "name": "771a7677dcc7032fc89d90fd3851c0d2", "bike_id": "771a7677dcc7032fc89d90fd3851c0d2", "fusion_lat": 0.0, "lon": -76.99536516666667, "type": "electric_bike", "fusion_lon": 0.0, "lat": 38.956361666666666}, {"rental_uris": {"android": "https://dc.lft.to/lastmile_qr_scan", "ios": "https://dc.lft.to/lastmile_qr_scan"}, "is_reserved": 0, "is_disabled": 0, "name": "7d03db2f659c64b5afeba666d943c28e", "bike_id": "7d03db2f659c64b5afeba666d943c28e", "fusion_lat": 0.0, "lon": -77.0060355, "type": "electric_scooter", "fusion_lon": 0.0, "lat": 38.871855}, {"rental_uris": {"android": "https://dc.lft.to/lastmile_qr_scan", "ios": "https://dc.lft.to/lastmile_qr_scan"}, "is_reserved": 0, "is_disabled": 0, "name": "0a1139b999bf557e2f86727cfa74b96a", "bike_id": "0a1139b999bf557e2f86727cfa74b96a", "fusion_lat": 0.0, "lon": -77.03037916666666, "type": "electric_scooter", "fusion_lon": 0.0, "lat": 38.95088283333333}, {"rental_uris": {"android": "https://dc.lft.to/lastmile_qr_scan", "ios": "https://dc.lft.to/lastmile_qr_scan"}, "is_reserved": 0, "is_disabled": 0, "name": "b89b8268f9279032884af7fa91373001", "bike_id": "b89b8268f9279032884af7fa91373001", "fusion_lat": 0.0, "lon": -77.04003966666667, "type": "electric_scooter", "fusion_lon": 0.0, "lat": 38.93431833333333}, {"rental_uris": {"android": "https://dc.lft.to/lastmile_qr_scan", "ios": "https://dc.lft.to/lastmile_qr_scan"}, "is_reserved": 0, "is_disabled": 0, "name": "64ce0c01b5af8812c4b60d49ed090c25", "bike_id": "64ce0c01b5af8812c4b60d49ed090c25", "fusion_lat": 0.0, "lon": -77.032232, "type": "electric_scooter", "fusion_lon": 0.0, "lat": 38.897287666666664}, {"rental_uris": {"android": "https://dc.lft.to/lastmile_qr_scan", "ios": "https://dc.lft.to/lastmile_qr_scan"}, "is_reserved": 0, "is_disabled": 0, "name": "04fd799b7722ffb7173e6da9859a73f2", "bike_id": "04fd799b7722ffb7173e6da9859a73f2", "fusion_lat": 0.0, "lon": -77.026908, "type": "electric_scooter", "fusion_lon": 0.0, "lat": 38.91228316666667}, {"rental_uris": {"android": "https://dc.lft.to/lastmile_qr_scan", "ios": "https://dc.lft.to/lastmile_qr_scan"}, "is_reserved": 0, "is_disabled": 0, "name": "5d516161a04196083b8b043e2a14f975", "bike_id": "5d516161a04196083b8b043e2a14f975", "fusion_lat": 0.0, "lon": -76.96710766666666, "type": "electric_scooter", "fusion_lon": 0.0, "lat": 38.8597015}, {"rental_uris": {"android": "https://dc.lft.to/lastmile_qr_scan", "ios": "https://dc.lft.to/lastmile_qr_scan"}, "is_reserved": 0, "is_disabled": 0, "name": "0462a4ae2308e05e76f002841198c6fa", "bike_id": "0462a4ae2308e05e76f002841198c6fa", "fusion_lat": 0.0, "lon": -76.96543916666667, "type": "electric_scooter", "fusion_lon": 0.0, "lat": 38.918618}, {"rental_uris": {"android": "https://dc.lft.to/lastmile_qr_scan", "ios": "https://dc.lft.to/lastmile_qr_scan"}, "is_reserved": 0, "is_disabled": 0, "name": "240b32017672b497623b868f6b79491d", "bike_id": "240b32017672b497623b868f6b79491d", "fusion_lat": 0.0, "lon": -77.04014333333333, "type": "electric_scooter", "fusion_lon": 0.0, "lat": 38.89844383333333}, {"rental_uris": {"android": "https://dc.lft.to/lastmile_qr_scan", "ios": "https://dc.lft.to/lastmile_qr_scan"}, "is_reserved": 0, "is_disabled": 0, "name": "9cc60521b5c418469c5b1a63c6335edf", "bike_id": "9cc60521b5c418469c5b1a63c6335edf", "fusion_lat": 0.0, "lon": -77.0032455, "type": "electric_scooter", "fusion_lon": 0.0, "lat": 38.87672466666667}, {"rental_uris": {"android": "https://dc.lft.to/lastmile_qr_scan", "ios": "https://dc.lft.to/lastmile_qr_scan"}, "is_reserved": 0, "is_disabled": 0, "name": "c63e5ef7872f6a5ebe305661059c32f6", "bike_id": "c63e5ef7872f6a5ebe305661059c32f6", "fusion_lat": 0.0, "lon": -77.02175333333334, "type": "electric_scooter", "fusion_lon": 0.0, "lat": 38.88717616666667}, {"rental_uris": {"android": "https://dc.lft.to/lastmile_qr_scan", "ios": "https://dc.lft.to/lastmile_qr_scan"}, "is_reserved": 0, "is_disabled": 0, "name": "b69c03f89824d274c3d3ed95020671bb", "bike_id": "b69c03f89824d274c3d3ed95020671bb", "fusion_lat": 0.0, "lon": -77.01738883333333, "type": "electric_scooter", "fusion_lon": 0.0, "lat": 38.975166333333334}, {"rental_uris": {"android": "https://dc.lft.to/lastmile_qr_scan", "ios": "https://dc.lft.to/lastmile_qr_scan"}, "is_reserved": 0, "is_disabled": 0, "name": "e4fb36c1d33c8b040af7c7a91fe89fbf", "bike_id": "e4fb36c1d33c8b040af7c7a91fe89fbf", "fusion_lat": 0.0, "lon": -77.027722, "type": "electric_scooter", "fusion_lon": 0.0, "lat": 38.934157}, {"rental_uris": {"android": "https://dc.lft.to/lastmile_qr_scan", "ios": "https://dc.lft.to/lastmile_qr_scan"}, "is_reserved": 0, "is_disabled": 0, "name": "898ff971aa6cadddc3d770a7902bba34", "bike_id": "898ff971aa6cadddc3d770a7902bba34", "fusion_lat": 0.0, "lon": -77.04155366666667, "type": "electric_scooter", "fusion_lon": 0.0, "lat": 38.909086333333335}, {"rental_uris": {"android": "https://dc.lft.to/lastmile_qr_scan", "ios": "https://dc.lft.to/lastmile_qr_scan"}, "is_reserved": 0, "is_disabled": 0, "name": "9f8393bf5b6682204cd1b40b21adc18e", "bike_id": "9f8393bf5b6682204cd1b40b21adc18e", "fusion_lat": 0.0, "lon": -77.02132216666666, "type": "electric_scooter", "fusion_lon": 0.0, "lat": 38.92277416666667}, {"rental_uris": {"android": "https://dc.lft.to/lastmile_qr_scan", "ios": "https://dc.lft.to/lastmile_qr_scan"}, "is_reserved": 0, "is_disabled": 0, "name": "ee5d9e05bbbc1cbf93f571513e6167af", "bike_id": "ee5d9e05bbbc1cbf93f571513e6167af", "fusion_lat": 0.0, "lon": -76.9985275, "type": "electric_scooter", "fusion_lon": 0.0, "lat": 38.89626666666667}, {"rental_uris": {"android": "https://dc.lft.to/lastmile_qr_scan", "ios": "https://dc.lft.to/lastmile_qr_scan"}, "is_reserved": 0, "is_disabled": 0, "name": "4d1f0cadec663db5dc931b074b4cbca4", "bike_id": "4d1f0cadec663db5dc931b074b4cbca4", "fusion_lat": 0.0, "lon": -77.0454445, "type": "electric_scooter", "fusion_lon": 0.0, "lat": 38.89831133333333}, {"rental_uris": {"android": "https://dc.lft.to/lastmile_qr_scan", "ios": "https://dc.lft.to/lastmile_qr_scan"}, "is_reserved": 0, "is_disabled": 0, "name": "fb74e5d30c269cd87575e01ee36f1ec4", "bike_id": "fb74e5d30c269cd87575e01ee36f1ec4", "fusion_lat": 0.0, "lon": -76.99518, "type": "electric_scooter", "fusion_lon": 0.0, "lat": 38.88379166666667}, {"rental_uris": {"android": "https://dc.lft.to/lastmile_qr_scan", "ios": "https://dc.lft.to/lastmile_qr_scan"}, "is_reserved": 0, "is_disabled": 0, "name": "6976a58995d69d2d27f6dc22d8734f62", "bike_id": "6976a58995d69d2d27f6dc22d8734f62", "fusion_lat": 0.0, "lon": -77.05209183333334, "type": "electric_scooter", "fusion_lon": 0.0, "lat": 38.90271033333333}, {"rental_uris": {"android": "https://dc.lft.to/lastmile_qr_scan", "ios": "https://dc.lft.to/lastmile_qr_scan"}, "is_reserved": 0, "is_disabled": 0, "name": "c5a99e262ced5dfc1ece8d37cb1afefb", "bike_id": "c5a99e262ced5dfc1ece8d37cb1afefb", "fusion_lat": 0.0, "lon": -77.041543, "type": "electric_scooter", "fusion_lon": 0.0, "lat": 38.91421016666666}, {"rental_uris": {"android": "https://dc.lft.to/lastmile_qr_scan", "ios": "https://dc.lft.to/lastmile_qr_scan"}, "is_reserved": 0, "is_disabled": 0, "name": "a03ac249d7182a83b091c8cf5839ac74", "bike_id": "a03ac249d7182a83b091c8cf5839ac74", "fusion_lat": 0.0, "lon": -77.06561866666667, "type": "electric_bike", "fusion_lon": 0.0, "lat": 38.932694833333336}, {"rental_uris": {"android": "https://dc.lft.to/lastmile_qr_scan", "ios": "https://dc.lft.to/lastmile_qr_scan"}, "is_reserved": 0, "is_disabled": 0, "name": "aa194a84fc2cad35ff7093a983dcfba8", "bike_id": "aa194a84fc2cad35ff7093a983dcfba8", "fusion_lat": 0.0, "lon": -77.05357116666667, "type": "electric_scooter", "fusion_lon": 0.0, "lat": 38.9052215}, {"rental_uris": {"android": "https://dc.lft.to/lastmile_qr_scan", "ios": "https://dc.lft.to/lastmile_qr_scan"}, "is_reserved": 0, "is_disabled": 0, "name": "90498f49d5f95f8b292417ab616e6093", "bike_id": "90498f49d5f95f8b292417ab616e6093", "fusion_lat": 0.0, "lon": -77.0449425, "type": "electric_scooter", "fusion_lon": 0.0, "lat": 38.90385283333333}, {"rental_uris": {"android": "https://dc.lft.to/lastmile_qr_scan", "ios": "https://dc.lft.to/lastmile_qr_scan"}, "is_reserved": 0, "is_disabled": 0, "name": "0ae451106ce9da05905be11a300e3eeb", "bike_id": "0ae451106ce9da05905be11a300e3eeb", "fusion_lat": 0.0, "lon": -77.04592433333333, "type": "electric_scooter", "fusion_lon": 0.0, "lat": 38.913882666666666}, {"rental_uris": {"android": "https://dc.lft.to/lastmile_qr_scan", "ios": "https://dc.lft.to/lastmile_qr_scan"}, "is_reserved": 0, "is_disabled": 0, "name": "4b3ee606e7b9b3939b1d31b1b759358f", "bike_id": "4b3ee606e7b9b3939b1d31b1b759358f", "fusion_lat": 0.0, "lon": -77.03235166666667, "type": "electric_scooter", "fusion_lon": 0.0, "lat": 38.92999366666667}, {"rental_uris": {"android": "https://dc.lft.to/lastmile_qr_scan", "ios": "https://dc.lft.to/lastmile_qr_scan"}, "is_reserved": 0, "is_disabled": 0, "name": "96f60d0746aa1a720882da6b9e1ce470", "bike_id": "96f60d0746aa1a720882da6b9e1ce470", "fusion_lat": 0.0, "lon": -77.0262945, "type": "electric_scooter", "fusion_lon": 0.0, "lat": 38.93032083333333}, {"rental_uris": {"android": "https://dc.lft.to/lastmile_qr_scan", "ios": "https://dc.lft.to/lastmile_qr_scan"}, "is_reserved": 0, "is_disabled": 0, "name": "e3671bd3500eddf254c197fd99ec6c63", "bike_id": "e3671bd3500eddf254c197fd99ec6c63", "fusion_lat": 0.0, "lon": -77.03208183333334, "type": "electric_scooter", "fusion_lon": 0.0, "lat": 38.897845333333336}, {"rental_uris": {"android": "https://dc.lft.to/lastmile_qr_scan", "ios": "https://dc.lft.to/lastmile_qr_scan"}, "is_reserved": 0, "is_disabled": 0, "name": "75332a4b728be3e48b9f7d8a38576c92", "bike_id": "75332a4b728be3e48b9f7d8a38576c92", "fusion_lat": 0.0, "lon": -77.03655366666666, "type": "electric_scooter", "fusion_lon": 0.0, "lat": 38.927632833333334}, {"rental_uris": {"android": "https://dc.lft.to/lastmile_qr_scan", "ios": "https://dc.lft.to/lastmile_qr_scan"}, "is_reserved": 0, "is_disabled": 0, "name": "7254509d87eaae6e480c2cbd2a7da77e", "bike_id": "7254509d87eaae6e480c2cbd2a7da77e", "fusion_lat": 0.0, "lon": -77.05913083333333, "type": "electric_scooter", "fusion_lon": 0.0, "lat": 38.903564833333334}, {"rental_uris": {"android": "https://dc.lft.to/lastmile_qr_scan", "ios": "https://dc.lft.to/lastmile_qr_scan"}, "is_reserved": 0, "is_disabled": 0, "name": "98fd70c1e30702648472462db13591cb", "bike_id": "98fd70c1e30702648472462db13591cb", "fusion_lat": 0.0, "lon": -77.0310045, "type": "electric_scooter", "fusion_lon": 0.0, "lat": 38.903457333333336}, {"rental_uris": {"android": "https://dc.lft.to/lastmile_qr_scan", "ios": "https://dc.lft.to/lastmile_qr_scan"}, "is_reserved": 0, "is_disabled": 0, "name": "450cb08b02ef1e7141f9260ac043734e", "bike_id": "450cb08b02ef1e7141f9260ac043734e", "fusion_lat": 0.0, "lon": -77.04542883333333, "type": "electric_scooter", "fusion_lon": 0.0, "lat": 38.902797}, {"rental_uris": {"android": "https://dc.lft.to/lastmile_qr_scan", "ios": "https://dc.lft.to/lastmile_qr_scan"}, "is_reserved": 0, "is_disabled": 0, "name": "3a5b7f050f4275cb20d8aed53598577f", "bike_id": "3a5b7f050f4275cb20d8aed53598577f", "fusion_lat": 0.0, "lon": -77.03423833333333, "type": "electric_scooter", "fusion_lon": 0.0, "lat": 38.902679666666664}, {"rental_uris": {"android": "https://dc.lft.to/lastmile_qr_scan", "ios": "https://dc.lft.to/lastmile_qr_scan"}, "is_reserved": 0, "is_disabled": 0, "name": "f116bc3f0a9badc8feded90f0bcb9b27", "bike_id": "f116bc3f0a9badc8feded90f0bcb9b27", "fusion_lat": 0.0, "lon": -77.01515183333333, "type": "electric_scooter", "fusion_lon": 0.0, "lat": 38.89574783333333}, {"rental_uris": {"android": "https://dc.lft.to/lastmile_qr_scan", "ios": "https://dc.lft.to/lastmile_qr_scan"}, "is_reserved": 0, "is_disabled": 0, "name": "51f2c31d8db318f04a2c2b026e551157", "bike_id": "51f2c31d8db318f04a2c2b026e551157", "fusion_lat": 0.0, "lon": -77.0260945, "type": "electric_scooter", "fusion_lon": 0.0, "lat": 38.900383166666664}, {"rental_uris": {"android": "https://dc.lft.to/lastmile_qr_scan", "ios": "https://dc.lft.to/lastmile_qr_scan"}, "is_reserved": 0, "is_disabled": 0, "name": "ebd9e22c378fff1e432b0ad569698c6a", "bike_id": "ebd9e22c378fff1e432b0ad569698c6a", "fusion_lat": 0.0, "lon": -77.00884283333333, "type": "electric_scooter", "fusion_lon": 0.0, "lat": 38.899054666666665}, {"rental_uris": {"android": "https://dc.lft.to/lastmile_qr_scan", "ios": "https://dc.lft.to/lastmile_qr_scan"}, "is_reserved": 0, "is_disabled": 0, "name": "fdf9b9568ae451dfd0f24d95f9f107af", "bike_id": "fdf9b9568ae451dfd0f24d95f9f107af", "fusion_lat": 0.0, "lon": -77.05947483333334, "type": "electric_scooter", "fusion_lon": 0.0, "lat": 38.901817333333334}, {"rental_uris": {"android": "https://dc.lft.to/lastmile_qr_scan", "ios": "https://dc.lft.to/lastmile_qr_scan"}, "is_reserved": 0, "is_disabled": 0, "name": "6d6d8f324e497fffd8aa1cff1987cca7", "bike_id": "6d6d8f324e497fffd8aa1cff1987cca7", "fusion_lat": 0.0, "lon": -77.05320466666667, "type": "electric_scooter", "fusion_lon": 0.0, "lat": 38.90513116666666}, {"rental_uris": {"android": "https://dc.lft.to/lastmile_qr_scan", "ios": "https://dc.lft.to/lastmile_qr_scan"}, "is_reserved": 0, "is_disabled": 0, "name": "e58832e8df8e569f3b42742eae4e0d23", "bike_id": "e58832e8df8e569f3b42742eae4e0d23", "fusion_lat": 0.0, "lon": -77.026854, "type": "electric_scooter", "fusion_lon": 0.0, "lat": 38.9025125}, {"rental_uris": {"android": "https://dc.lft.to/lastmile_qr_scan", "ios": "https://dc.lft.to/lastmile_qr_scan"}, "is_reserved": 0, "is_disabled": 0, "name": "50d8c5cf40ae9346dabf55a8edbaf5a4", "bike_id": "50d8c5cf40ae9346dabf55a8edbaf5a4", "fusion_lat": 0.0, "lon": -76.94085, "type": "electric_scooter", "fusion_lon": 0.0, "lat": 38.891233666666665}, {"rental_uris": {"android": "https://dc.lft.to/lastmile_qr_scan", "ios": "https://dc.lft.to/lastmile_qr_scan"}, "is_reserved": 0, "is_disabled": 0, "name": "a7c641f50c1b2734a8b61cf17ba54144", "bike_id": "a7c641f50c1b2734a8b61cf17ba54144", "fusion_lat": 0.0, "lon": -77.0405165, "type": "electric_scooter", "fusion_lon": 0.0, "lat": 38.90876733333333}, {"rental_uris": {"android": "https://dc.lft.to/lastmile_qr_scan", "ios": "https://dc.lft.to/lastmile_qr_scan"}, "is_reserved": 0, "is_disabled": 0, "name": "a006cdc8da70ccadf9e903a659c4c6e2", "bike_id": "a006cdc8da70ccadf9e903a659c4c6e2", "fusion_lat": 0.0, "lon": -77.02380566666666, "type": "electric_scooter", "fusion_lon": 0.0, "lat": 38.9527635}, {"rental_uris": {"android": "https://dc.lft.to/lastmile_qr_scan", "ios": "https://dc.lft.to/lastmile_qr_scan"}, "is_reserved": 0, "is_disabled": 0, "name": "36edffc479812d29d636ad0f95928c01", "bike_id": "36edffc479812d29d636ad0f95928c01", "fusion_lat": 0.0, "lon": -77.04061416666667, "type": "electric_scooter", "fusion_lon": 0.0, "lat": 38.903787333333334}, {"rental_uris": {"android": "https://dc.lft.to/lastmile_qr_scan", "ios": "https://dc.lft.to/lastmile_qr_scan"}, "is_reserved": 0, "is_disabled": 0, "name": "a293e8e055e11e589043d4bb88d58ce8", "bike_id": "a293e8e055e11e589043d4bb88d58ce8", "fusion_lat": 0.0, "lon": -77.021914, "type": "electric_scooter", "fusion_lon": 0.0, "lat": 38.900243333333336}, {"rental_uris": {"android": "https://dc.lft.to/lastmile_qr_scan", "ios": "https://dc.lft.to/lastmile_qr_scan"}, "is_reserved": 0, "is_disabled": 0, "name": "137956dda118ee3d54f427e2796b5bbe", "bike_id": "137956dda118ee3d54f427e2796b5bbe", "fusion_lat": 0.0, "lon": -77.06323883333333, "type": "electric_scooter", "fusion_lon": 0.0, "lat": 38.943768}, {"rental_uris": {"android": "https://dc.lft.to/lastmile_qr_scan", "ios": "https://dc.lft.to/lastmile_qr_scan"}, "is_reserved": 0, "is_disabled": 0, "name": "1bd1614125c977380dfafdbe36e1fdf2", "bike_id": "1bd1614125c977380dfafdbe36e1fdf2", "fusion_lat": 0.0, "lon": -77.0409715, "type": "electric_scooter", "fusion_lon": 0.0, "lat": 38.90390283333333}, {"rental_uris": {"android": "https://dc.lft.to/lastmile_qr_scan", "ios": "https://dc.lft.to/lastmile_qr_scan"}, "is_reserved": 0, "is_disabled": 0, "name": "4eb89ad0a06d4bfac509fdeeb784f018", "bike_id": "4eb89ad0a06d4bfac509fdeeb784f018", "fusion_lat": 0.0, "lon": -77.0224995, "type": "electric_scooter", "fusion_lon": 0.0, "lat": 38.902065666666665}, {"rental_uris": {"android": "https://dc.lft.to/lastmile_qr_scan", "ios": "https://dc.lft.to/lastmile_qr_scan"}, "is_reserved": 0, "is_disabled": 0, "name": "ae401bfc94392d8150d9b7cf6f8bc5c8", "bike_id": "ae401bfc94392d8150d9b7cf6f8bc5c8", "fusion_lat": 0.0, "lon": -77.02716433333333, "type": "electric_scooter", "fusion_lon": 0.0, "lat": 38.91377083333333}, {"rental_uris": {"android": "https://dc.lft.to/lastmile_qr_scan", "ios": "https://dc.lft.to/lastmile_qr_scan"}, "is_reserved": 0, "is_disabled": 0, "name": "cb805f14cdccc210187c35b372e315db", "bike_id": "cb805f14cdccc210187c35b372e315db", "fusion_lat": 0.0, "lon": -77.024462, "type": "electric_scooter", "fusion_lon": 0.0, "lat": 38.94983216666667}, {"rental_uris": {"android": "https://dc.lft.to/lastmile_qr_scan", "ios": "https://dc.lft.to/lastmile_qr_scan"}, "is_reserved": 0, "is_disabled": 0, "name": "742a669870b4616b868749d451ea2865", "bike_id": "742a669870b4616b868749d451ea2865", "fusion_lat": 0.0, "lon": -77.0456755, "type": "electric_scooter", "fusion_lon": 0.0, "lat": 38.903810166666666}, {"rental_uris": {"android": "https://dc.lft.to/lastmile_qr_scan", "ios": "https://dc.lft.to/lastmile_qr_scan"}, "is_reserved": 0, "is_disabled": 0, "name": "e82d7cfdd4ae5de2eee8698af1bcc366", "bike_id": "e82d7cfdd4ae5de2eee8698af1bcc366", "fusion_lat": 0.0, "lon": -77.03256916666666, "type": "electric_scooter", "fusion_lon": 0.0, "lat": 38.920678333333335}, {"rental_uris": {"android": "https://dc.lft.to/lastmile_qr_scan", "ios": "https://dc.lft.to/lastmile_qr_scan"}, "is_reserved": 0, "is_disabled": 0, "name": "468b87c99f3f46e809f9ab4926185545", "bike_id": "468b87c99f3f46e809f9ab4926185545", "fusion_lat": 0.0, "lon": -77.04674483333334, "type": "electric_scooter", "fusion_lon": 0.0, "lat": 38.8974125}, {"rental_uris": {"android": "https://dc.lft.to/lastmile_qr_scan", "ios": "https://dc.lft.to/lastmile_qr_scan"}, "is_reserved": 0, "is_disabled": 0, "name": "7927d02a97a623d71f9801f59bcb626c", "bike_id": "7927d02a97a623d71f9801f59bcb626c", "fusion_lat": 0.0, "lon": -77.02221083333333, "type": "electric_scooter", "fusion_lon": 0.0, "lat": 38.92476883333333}, {"rental_uris": {"android": "https://dc.lft.to/lastmile_qr_scan", "ios": "https://dc.lft.to/lastmile_qr_scan"}, "is_reserved": 0, "is_disabled": 0, "name": "e2f9c8eb646d020c581dd68588ec42e2", "bike_id": "e2f9c8eb646d020c581dd68588ec42e2", "fusion_lat": 0.0, "lon": -77.00904783333333, "type": "electric_scooter", "fusion_lon": 0.0, "lat": 38.90081166666667}, {"rental_uris": {"android": "https://dc.lft.to/lastmile_qr_scan", "ios": "https://dc.lft.to/lastmile_qr_scan"}, "is_reserved": 0, "is_disabled": 0, "name": "8ce0ee826a9ea5c6dcf6855c6051d693", "bike_id": "8ce0ee826a9ea5c6dcf6855c6051d693", "fusion_lat": 0.0, "lon": -77.03268366666667, "type": "electric_scooter", "fusion_lon": 0.0, "lat": 38.919959666666664}, {"rental_uris": {"android": "https://dc.lft.to/lastmile_qr_scan", "ios": "https://dc.lft.to/lastmile_qr_scan"}, "is_reserved": 0, "is_disabled": 0, "name": "eb78bedc9838a97c1d04a7257836812d", "bike_id": "eb78bedc9838a97c1d04a7257836812d", "fusion_lat": 0.0, "lon": -77.00338616666667, "type": "electric_scooter", "fusion_lon": 0.0, "lat": 38.87668333333333}, {"rental_uris": {"android": "https://dc.lft.to/lastmile_qr_scan", "ios": "https://dc.lft.to/lastmile_qr_scan"}, "is_reserved": 0, "is_disabled": 0, "name": "6324fe68b0e5be14c6571fb8005bfe63", "bike_id": "6324fe68b0e5be14c6571fb8005bfe63", "fusion_lat": 0.0, "lon": -77.01823283333333, "type": "electric_scooter", "fusion_lon": 0.0, "lat": 38.909728333333334}, {"rental_uris": {"android": "https://dc.lft.to/lastmile_qr_scan", "ios": "https://dc.lft.to/lastmile_qr_scan"}, "is_reserved": 0, "is_disabled": 0, "name": "2ea6692030b9af6ed3c204eb166763ca", "bike_id": "2ea6692030b9af6ed3c204eb166763ca", "fusion_lat": 0.0, "lon": -77.023848, "type": "electric_bike", "fusion_lon": 0.0, "lat": 38.8822485}, {"rental_uris": {"android": "https://dc.lft.to/lastmile_qr_scan", "ios": "https://dc.lft.to/lastmile_qr_scan"}, "is_reserved": 0, "is_disabled": 0, "name": "dd7e86927f82c6533b7d4762cabd9351", "bike_id": "dd7e86927f82c6533b7d4762cabd9351", "fusion_lat": 0.0, "lon": -77.01123583333333, "type": "electric_scooter", "fusion_lon": 0.0, "lat": 38.9000245}, {"rental_uris": {"android": "https://dc.lft.to/lastmile_qr_scan", "ios": "https://dc.lft.to/lastmile_qr_scan"}, "is_reserved": 0, "is_disabled": 0, "name": "54cedacdf6bb90582c466c6f773ca44c", "bike_id": "54cedacdf6bb90582c466c6f773ca44c", "fusion_lat": 0.0, "lon": -77.039559, "type": "electric_scooter", "fusion_lon": 0.0, "lat": 38.892485}, {"rental_uris": {"android": "https://dc.lft.to/lastmile_qr_scan", "ios": "https://dc.lft.to/lastmile_qr_scan"}, "is_reserved": 0, "is_disabled": 0, "name": "c0285dd1deddb5a44b49126528d73a79", "bike_id": "c0285dd1deddb5a44b49126528d73a79", "fusion_lat": 0.0, "lon": -77.044701, "type": "electric_scooter", "fusion_lon": 0.0, "lat": 38.9027825}, {"rental_uris": {"android": "https://dc.lft.to/lastmile_qr_scan", "ios": "https://dc.lft.to/lastmile_qr_scan"}, "is_reserved": 0, "is_disabled": 0, "name": "a1e9977829fbe73ee6dc356855ca505f", "bike_id": "a1e9977829fbe73ee6dc356855ca505f", "fusion_lat": 0.0, "lon": -76.99769316666666, "type": "electric_scooter", "fusion_lon": 0.0, "lat": 38.901357833333336}, {"rental_uris": {"android": "https://dc.lft.to/lastmile_qr_scan", "ios": "https://dc.lft.to/lastmile_qr_scan"}, "is_reserved": 0, "is_disabled": 0, "name": "7c3dbe625ea16b278fa98591bddc2fb2", "bike_id": "7c3dbe625ea16b278fa98591bddc2fb2", "fusion_lat": 0.0, "lon": -77.03637383333333, "type": "electric_scooter", "fusion_lon": 0.0, "lat": 38.90287133333333}, {"rental_uris": {"android": "https://dc.lft.to/lastmile_qr_scan", "ios": "https://dc.lft.to/lastmile_qr_scan"}, "is_reserved": 0, "is_disabled": 0, "name": "8d8925346630ad46639084ff7e03c3a3", "bike_id": "8d8925346630ad46639084ff7e03c3a3", "fusion_lat": 0.0, "lon": -77.02185883333334, "type": "electric_scooter", "fusion_lon": 0.0, "lat": 38.920533}, {"rental_uris": {"android": "https://dc.lft.to/lastmile_qr_scan", "ios": "https://dc.lft.to/lastmile_qr_scan"}, "is_reserved": 0, "is_disabled": 0, "name": "388a20a724a5fe4245ba76d3d31b6511", "bike_id": "388a20a724a5fe4245ba76d3d31b6511", "fusion_lat": 0.0, "lon": -77.04463083333333, "type": "electric_scooter", "fusion_lon": 0.0, "lat": 38.90136116666667}, {"rental_uris": {"android": "https://dc.lft.to/lastmile_qr_scan", "ios": "https://dc.lft.to/lastmile_qr_scan"}, "is_reserved": 0, "is_disabled": 0, "name": "5a1bad0e68a3fb261367985e9e10f644", "bike_id": "5a1bad0e68a3fb261367985e9e10f644", "fusion_lat": 0.0, "lon": -77.00574933333333, "type": "electric_scooter", "fusion_lon": 0.0, "lat": 38.88517566666667}, {"rental_uris": {"android": "https://dc.lft.to/lastmile_qr_scan", "ios": "https://dc.lft.to/lastmile_qr_scan"}, "is_reserved": 0, "is_disabled": 0, "name": "55f8564541fa001273e835cc556d6881", "bike_id": "55f8564541fa001273e835cc556d6881", "fusion_lat": 0.0, "lon": -77.04754966666667, "type": "electric_scooter", "fusion_lon": 0.0, "lat": 38.900954666666664}, {"rental_uris": {"android": "https://dc.lft.to/lastmile_qr_scan", "ios": "https://dc.lft.to/lastmile_qr_scan"}, "is_reserved": 0, "is_disabled": 0, "name": "b7534a86eb1f946c60c204784c5eb041", "bike_id": "b7534a86eb1f946c60c204784c5eb041", "fusion_lat": 0.0, "lon": -77.01911283333334, "type": "electric_scooter", "fusion_lon": 0.0, "lat": 38.917226}, {"rental_uris": {"android": "https://dc.lft.to/lastmile_qr_scan", "ios": "https://dc.lft.to/lastmile_qr_scan"}, "is_reserved": 0, "is_disabled": 0, "name": "bf1ec9080fdfaae8bcfa09da9fe65d5c", "bike_id": "bf1ec9080fdfaae8bcfa09da9fe65d5c", "fusion_lat": 0.0, "lon": -77.02255366666667, "type": "electric_scooter", "fusion_lon": 0.0, "lat": 38.896168333333335}, {"rental_uris": {"android": "https://dc.lft.to/lastmile_qr_scan", "ios": "https://dc.lft.to/lastmile_qr_scan"}, "is_reserved": 0, "is_disabled": 0, "name": "75b1f3d15862f34382907445aa0c0c1a", "bike_id": "75b1f3d15862f34382907445aa0c0c1a", "fusion_lat": 0.0, "lon": -77.029373, "type": "electric_scooter", "fusion_lon": 0.0, "lat": 38.942804833333334}, {"rental_uris": {"android": "https://dc.lft.to/lastmile_qr_scan", "ios": "https://dc.lft.to/lastmile_qr_scan"}, "is_reserved": 0, "is_disabled": 0, "name": "46e6ee73f4875c3dbf773de0895387fe", "bike_id": "46e6ee73f4875c3dbf773de0895387fe", "fusion_lat": 0.0, "lon": -77.03359716666667, "type": "electric_scooter", "fusion_lon": 0.0, "lat": 38.9014105}, {"rental_uris": {"android": "https://dc.lft.to/lastmile_qr_scan", "ios": "https://dc.lft.to/lastmile_qr_scan"}, "is_reserved": 0, "is_disabled": 0, "name": "b3a5f83dc9c5b874628001442c21b48c", "bike_id": "b3a5f83dc9c5b874628001442c21b48c", "fusion_lat": 0.0, "lon": -77.0060395, "type": "electric_scooter", "fusion_lon": 0.0, "lat": 38.871840666666664}, {"rental_uris": {"android": "https://dc.lft.to/lastmile_qr_scan", "ios": "https://dc.lft.to/lastmile_qr_scan"}, "is_reserved": 0, "is_disabled": 0, "name": "cba8a9184b1349b920d9de4b17fd230f", "bike_id": "cba8a9184b1349b920d9de4b17fd230f", "fusion_lat": 0.0, "lon": -77.04226483333333, "type": "electric_scooter", "fusion_lon": 0.0, "lat": 38.9216015}, {"rental_uris": {"android": "https://dc.lft.to/lastmile_qr_scan", "ios": "https://dc.lft.to/lastmile_qr_scan"}, "is_reserved": 0, "is_disabled": 0, "name": "9d884db8a2d67ec945c88365c55fdef0", "bike_id": "9d884db8a2d67ec945c88365c55fdef0", "fusion_lat": 0.0, "lon": -77.015602, "type": "electric_scooter", "fusion_lon": 0.0, "lat": 38.883301}, {"rental_uris": {"android": "https://dc.lft.to/lastmile_qr_scan", "ios": "https://dc.lft.to/lastmile_qr_scan"}, "is_reserved": 0, "is_disabled": 0, "name": "0ed7e5b634b4af3cc775fdb45ac0a569", "bike_id": "0ed7e5b634b4af3cc775fdb45ac0a569", "fusion_lat": 0.0, "lon": -77.04480283333334, "type": "electric_scooter", "fusion_lon": 0.0, "lat": 38.91362016666667}, {"rental_uris": {"android": "https://dc.lft.to/lastmile_qr_scan", "ios": "https://dc.lft.to/lastmile_qr_scan"}, "is_reserved": 0, "is_disabled": 0, "name": "52c8b3a829297868134662af92187453", "bike_id": "52c8b3a829297868134662af92187453", "fusion_lat": 0.0, "lon": -77.01317316666666, "type": "electric_scooter", "fusion_lon": 0.0, "lat": 38.897456166666665}, {"rental_uris": {"android": "https://dc.lft.to/lastmile_qr_scan", "ios": "https://dc.lft.to/lastmile_qr_scan"}, "is_reserved": 0, "is_disabled": 0, "name": "59a399639fccf583a89cf82ce213b454", "bike_id": "59a399639fccf583a89cf82ce213b454", "fusion_lat": 0.0, "lon": -76.95063533333334, "type": "electric_bike", "fusion_lon": 0.0, "lat": 39.0851335}, {"rental_uris": {"android": "https://dc.lft.to/lastmile_qr_scan", "ios": "https://dc.lft.to/lastmile_qr_scan"}, "is_reserved": 0, "is_disabled": 0, "name": "81c3c4c7680eec61aa9dc9402aa5f1a3", "bike_id": "81c3c4c7680eec61aa9dc9402aa5f1a3", "fusion_lat": 0.0, "lon": -77.0121205, "type": "electric_scooter", "fusion_lon": 0.0, "lat": 38.915422166666666}, {"rental_uris": {"android": "https://dc.lft.to/lastmile_qr_scan", "ios": "https://dc.lft.to/lastmile_qr_scan"}, "is_reserved": 0, "is_disabled": 0, "name": "56c0f07d8acd1e224eb9118b49f2ad01", "bike_id": "56c0f07d8acd1e224eb9118b49f2ad01", "fusion_lat": 0.0, "lon": -77.03549166666667, "type": "electric_scooter", "fusion_lon": 0.0, "lat": 38.904819833333335}, {"rental_uris": {"android": "https://dc.lft.to/lastmile_qr_scan", "ios": "https://dc.lft.to/lastmile_qr_scan"}, "is_reserved": 0, "is_disabled": 0, "name": "3cedc53601053e079ddd158cabd7513f", "bike_id": "3cedc53601053e079ddd158cabd7513f", "fusion_lat": 0.0, "lon": -77.08016366666666, "type": "electric_scooter", "fusion_lon": 0.0, "lat": 38.9461445}, {"rental_uris": {"android": "https://dc.lft.to/lastmile_qr_scan", "ios": "https://dc.lft.to/lastmile_qr_scan"}, "is_reserved": 0, "is_disabled": 0, "name": "5e30ce0a42537928a047f1062c6fa0e3", "bike_id": "5e30ce0a42537928a047f1062c6fa0e3", "fusion_lat": 0.0, "lon": -77.04572266666666, "type": "electric_scooter", "fusion_lon": 0.0, "lat": 38.8989525}, {"rental_uris": {"android": "https://dc.lft.to/lastmile_qr_scan", "ios": "https://dc.lft.to/lastmile_qr_scan"}, "is_reserved": 0, "is_disabled": 0, "name": "d0726973fd1572bc87574486dc44db13", "bike_id": "d0726973fd1572bc87574486dc44db13", "fusion_lat": 0.0, "lon": -77.01486966666667, "type": "electric_scooter", "fusion_lon": 0.0, "lat": 38.893148}, {"rental_uris": {"android": "https://dc.lft.to/lastmile_qr_scan", "ios": "https://dc.lft.to/lastmile_qr_scan"}, "is_reserved": 0, "is_disabled": 0, "name": "2ec96939fe1e2f5b9e3be0865f71a528", "bike_id": "2ec96939fe1e2f5b9e3be0865f71a528", "fusion_lat": 0.0, "lon": -77.04657266666666, "type": "electric_scooter", "fusion_lon": 0.0, "lat": 38.900037166666664}, {"rental_uris": {"android": "https://dc.lft.to/lastmile_qr_scan", "ios": "https://dc.lft.to/lastmile_qr_scan"}, "is_reserved": 0, "is_disabled": 0, "name": "734e064b6e5640846454b3e7c46e6f1e", "bike_id": "734e064b6e5640846454b3e7c46e6f1e", "fusion_lat": 0.0, "lon": -77.01968, "type": "electric_scooter", "fusion_lon": 0.0, "lat": 38.9012775}, {"rental_uris": {"android": "https://dc.lft.to/lastmile_qr_scan", "ios": "https://dc.lft.to/lastmile_qr_scan"}, "is_reserved": 0, "is_disabled": 0, "name": "506d66681feb16d04c1d648395aae2e0", "bike_id": "506d66681feb16d04c1d648395aae2e0", "fusion_lat": 0.0, "lon": -77.034494, "type": "electric_scooter", "fusion_lon": 0.0, "lat": 38.90125466666667}, {"rental_uris": {"android": "https://dc.lft.to/lastmile_qr_scan", "ios": "https://dc.lft.to/lastmile_qr_scan"}, "is_reserved": 0, "is_disabled": 0, "name": "9c2de421ddc7282241712d5a665f3b31", "bike_id": "9c2de421ddc7282241712d5a665f3b31", "fusion_lat": 0.0, "lon": -77.04499883333334, "type": "electric_scooter", "fusion_lon": 0.0, "lat": 38.89748866666667}, {"rental_uris": {"android": "https://dc.lft.to/lastmile_qr_scan", "ios": "https://dc.lft.to/lastmile_qr_scan"}, "is_reserved": 0, "is_disabled": 0, "name": "3b48a1440981b44212a36281bdf124b3", "bike_id": "3b48a1440981b44212a36281bdf124b3", "fusion_lat": 0.0, "lon": -77.02418916666667, "type": "electric_scooter", "fusion_lon": 0.0, "lat": 38.892252166666665}, {"rental_uris": {"android": "https://dc.lft.to/lastmile_qr_scan", "ios": "https://dc.lft.to/lastmile_qr_scan"}, "is_reserved": 0, "is_disabled": 0, "name": "336842a07b576ad538a5f9fdb9231c08", "bike_id": "336842a07b576ad538a5f9fdb9231c08", "fusion_lat": 0.0, "lon": -77.04477266666666, "type": "electric_scooter", "fusion_lon": 0.0, "lat": 38.902857}, {"rental_uris": {"android": "https://dc.lft.to/lastmile_qr_scan", "ios": "https://dc.lft.to/lastmile_qr_scan"}, "is_reserved": 0, "is_disabled": 0, "name": "3455c3db7df07d25289487b131e1f55c", "bike_id": "3455c3db7df07d25289487b131e1f55c", "fusion_lat": 0.0, "lon": -77.03522033333333, "type": "electric_scooter", "fusion_lon": 0.0, "lat": 38.9234905}, {"rental_uris": {"android": "https://dc.lft.to/lastmile_qr_scan", "ios": "https://dc.lft.to/lastmile_qr_scan"}, "is_reserved": 0, "is_disabled": 0, "name": "a1a2e48ac76ae4740dec4436d9ecb73d", "bike_id": "a1a2e48ac76ae4740dec4436d9ecb73d", "fusion_lat": 0.0, "lon": -77.02988916666666, "type": "electric_scooter", "fusion_lon": 0.0, "lat": 38.8832715}, {"rental_uris": {"android": "https://dc.lft.to/lastmile_qr_scan", "ios": "https://dc.lft.to/lastmile_qr_scan"}, "is_reserved": 0, "is_disabled": 0, "name": "3823c2183625019d558d0c1b6b87dff4", "bike_id": "3823c2183625019d558d0c1b6b87dff4", "fusion_lat": 0.0, "lon": -77.0256735, "type": "electric_scooter", "fusion_lon": 0.0, "lat": 38.88744916666667}, {"rental_uris": {"android": "https://dc.lft.to/lastmile_qr_scan", "ios": "https://dc.lft.to/lastmile_qr_scan"}, "is_reserved": 0, "is_disabled": 0, "name": "893b5033b1ac9f4e3eb2e5c46be90bee", "bike_id": "893b5033b1ac9f4e3eb2e5c46be90bee", "fusion_lat": 0.0, "lon": -77.04414033333333, "type": "electric_scooter", "fusion_lon": 0.0, "lat": 38.92578566666667}, {"rental_uris": {"android": "https://dc.lft.to/lastmile_qr_scan", "ios": "https://dc.lft.to/lastmile_qr_scan"}, "is_reserved": 0, "is_disabled": 0, "name": "79c93d0969532b45f5e251d85b791152", "bike_id": "79c93d0969532b45f5e251d85b791152", "fusion_lat": 0.0, "lon": -77.00663116666666, "type": "electric_scooter", "fusion_lon": 0.0, "lat": 38.90609366666666}, {"rental_uris": {"android": "https://dc.lft.to/lastmile_qr_scan", "ios": "https://dc.lft.to/lastmile_qr_scan"}, "is_reserved": 0, "is_disabled": 0, "name": "4452f16e64f37361b99c01e0b20dc674", "bike_id": "4452f16e64f37361b99c01e0b20dc674", "fusion_lat": 0.0, "lon": -77.01732983333333, "type": "electric_scooter", "fusion_lon": 0.0, "lat": 38.91419416666667}, {"rental_uris": {"android": "https://dc.lft.to/lastmile_qr_scan", "ios": "https://dc.lft.to/lastmile_qr_scan"}, "is_reserved": 0, "is_disabled": 0, "name": "3f7ec66040817c5676d4f49dbbdd16ec", "bike_id": "3f7ec66040817c5676d4f49dbbdd16ec", "fusion_lat": 0.0, "lon": -77.041745, "type": "electric_scooter", "fusion_lon": 0.0, "lat": 38.92015383333333}, {"rental_uris": {"android": "https://dc.lft.to/lastmile_qr_scan", "ios": "https://dc.lft.to/lastmile_qr_scan"}, "is_reserved": 0, "is_disabled": 0, "name": "83ec56b4ede60142388663d10369e8f3", "bike_id": "83ec56b4ede60142388663d10369e8f3", "fusion_lat": 0.0, "lon": -77.04923616666666, "type": "electric_scooter", "fusion_lon": 0.0, "lat": 38.90086016666667}, {"rental_uris": {"android": "https://dc.lft.to/lastmile_qr_scan", "ios": "https://dc.lft.to/lastmile_qr_scan"}, "is_reserved": 0, "is_disabled": 0, "name": "f4deeecdd80979965812ab34cdfdd285", "bike_id": "f4deeecdd80979965812ab34cdfdd285", "fusion_lat": 0.0, "lon": -77.03165016666667, "type": "electric_scooter", "fusion_lon": 0.0, "lat": 38.892179666666664}, {"rental_uris": {"android": "https://dc.lft.to/lastmile_qr_scan", "ios": "https://dc.lft.to/lastmile_qr_scan"}, "is_reserved": 0, "is_disabled": 0, "name": "51cfdd176e6dbf66d4f6fce1afec1e50", "bike_id": "51cfdd176e6dbf66d4f6fce1afec1e50", "fusion_lat": 0.0, "lon": -77.04658083333334, "type": "electric_scooter", "fusion_lon": 0.0, "lat": 38.91370383333334}, {"rental_uris": {"android": "https://dc.lft.to/lastmile_qr_scan", "ios": "https://dc.lft.to/lastmile_qr_scan"}, "is_reserved": 0, "is_disabled": 0, "name": "e541e2c5b6585c34d6a5e3a3185f60de", "bike_id": "e541e2c5b6585c34d6a5e3a3185f60de", "fusion_lat": 0.0, "lon": -77.03007666666667, "type": "electric_scooter", "fusion_lon": 0.0, "lat": 38.8954655}, {"rental_uris": {"android": "https://dc.lft.to/lastmile_qr_scan", "ios": "https://dc.lft.to/lastmile_qr_scan"}, "is_reserved": 0, "is_disabled": 0, "name": "2b1c611cfda8175a5d2adb353bf7b0fb", "bike_id": "2b1c611cfda8175a5d2adb353bf7b0fb", "fusion_lat": 0.0, "lon": -77.046742, "type": "electric_scooter", "fusion_lon": 0.0, "lat": 38.89746783333333}, {"rental_uris": {"android": "https://dc.lft.to/lastmile_qr_scan", "ios": "https://dc.lft.to/lastmile_qr_scan"}, "is_reserved": 0, "is_disabled": 0, "name": "6d80a61abc5e65020dc1bd9a9e9cbe83", "bike_id": "6d80a61abc5e65020dc1bd9a9e9cbe83", "fusion_lat": 0.0, "lon": -77.008909, "type": "electric_scooter", "fusion_lon": 0.0, "lat": 38.924817}, {"rental_uris": {"android": "https://dc.lft.to/lastmile_qr_scan", "ios": "https://dc.lft.to/lastmile_qr_scan"}, "is_reserved": 0, "is_disabled": 0, "name": "f27c182c59fa2fe499ba1f2d3895b857", "bike_id": "f27c182c59fa2fe499ba1f2d3895b857", "fusion_lat": 0.0, "lon": -77.02582316666667, "type": "electric_scooter", "fusion_lon": 0.0, "lat": 38.9035725}, {"rental_uris": {"android": "https://dc.lft.to/lastmile_qr_scan", "ios": "https://dc.lft.to/lastmile_qr_scan"}, "is_reserved": 0, "is_disabled": 0, "name": "40ca27ab8257b0f76e01129a8b9129c9", "bike_id": "40ca27ab8257b0f76e01129a8b9129c9", "fusion_lat": 0.0, "lon": -77.02827583333334, "type": "electric_scooter", "fusion_lon": 0.0, "lat": 38.9327885}, {"rental_uris": {"android": "https://dc.lft.to/lastmile_qr_scan", "ios": "https://dc.lft.to/lastmile_qr_scan"}, "is_reserved": 0, "is_disabled": 0, "name": "44ba2e70dbe62b1e109598aea126f54a", "bike_id": "44ba2e70dbe62b1e109598aea126f54a", "fusion_lat": 0.0, "lon": -77.02968083333333, "type": "electric_scooter", "fusion_lon": 0.0, "lat": 38.91882783333333}, {"rental_uris": {"android": "https://dc.lft.to/lastmile_qr_scan", "ios": "https://dc.lft.to/lastmile_qr_scan"}, "is_reserved": 0, "is_disabled": 0, "name": "c56b44fadb8a605b767709ff371574ca", "bike_id": "c56b44fadb8a605b767709ff371574ca", "fusion_lat": 0.0, "lon": -77.0221535, "type": "electric_scooter", "fusion_lon": 0.0, "lat": 38.899922833333335}, {"rental_uris": {"android": "https://dc.lft.to/lastmile_qr_scan", "ios": "https://dc.lft.to/lastmile_qr_scan"}, "is_reserved": 0, "is_disabled": 0, "name": "130c63ac7b428a970fccf5bef7e19352", "bike_id": "130c63ac7b428a970fccf5bef7e19352", "fusion_lat": 0.0, "lon": -76.9544585, "type": "electric_scooter", "fusion_lon": 0.0, "lat": 38.883907666666666}, {"rental_uris": {"android": "https://dc.lft.to/lastmile_qr_scan", "ios": "https://dc.lft.to/lastmile_qr_scan"}, "is_reserved": 0, "is_disabled": 0, "name": "3ac28e319f4f665379286b3bff5ac6fb", "bike_id": "3ac28e319f4f665379286b3bff5ac6fb", "fusion_lat": 0.0, "lon": -77.003026, "type": "electric_scooter", "fusion_lon": 0.0, "lat": 38.876601666666666}, {"rental_uris": {"android": "https://dc.lft.to/lastmile_qr_scan", "ios": "https://dc.lft.to/lastmile_qr_scan"}, "is_reserved": 0, "is_disabled": 0, "name": "847eca9658f6791741592c2298d65949", "bike_id": "847eca9658f6791741592c2298d65949", "fusion_lat": 0.0, "lon": -76.98703433333333, "type": "electric_scooter", "fusion_lon": 0.0, "lat": 38.85963183333333}, {"rental_uris": {"android": "https://dc.lft.to/lastmile_qr_scan", "ios": "https://dc.lft.to/lastmile_qr_scan"}, "is_reserved": 0, "is_disabled": 0, "name": "f649d05bd5efab658888c338a6a198b2", "bike_id": "f649d05bd5efab658888c338a6a198b2", "fusion_lat": 0.0, "lon": -76.989885, "type": "electric_scooter", "fusion_lon": 0.0, "lat": 38.864300666666665}, {"rental_uris": {"android": "https://dc.lft.to/lastmile_qr_scan", "ios": "https://dc.lft.to/lastmile_qr_scan"}, "is_reserved": 0, "is_disabled": 0, "name": "e765d976289cddf4ce32230ad1202237", "bike_id": "e765d976289cddf4ce32230ad1202237", "fusion_lat": 0.0, "lon": -76.99055466666667, "type": "electric_bike", "fusion_lon": 0.0, "lat": 38.93758566666666}, {"rental_uris": {"android": "https://dc.lft.to/lastmile_qr_scan", "ios": "https://dc.lft.to/lastmile_qr_scan"}, "is_reserved": 0, "is_disabled": 0, "name": "ae3479bd3986357d27602fafb92ffe4c", "bike_id": "ae3479bd3986357d27602fafb92ffe4c", "fusion_lat": 0.0, "lon": -77.02303633333334, "type": "electric_scooter", "fusion_lon": 0.0, "lat": 38.91782833333333}, {"rental_uris": {"android": "https://dc.lft.to/lastmile_qr_scan", "ios": "https://dc.lft.to/lastmile_qr_scan"}, "is_reserved": 0, "is_disabled": 0, "name": "9e341310292acd75a318ae51b6b53848", "bike_id": "9e341310292acd75a318ae51b6b53848", "fusion_lat": 0.0, "lon": -77.0342785, "type": "electric_scooter", "fusion_lon": 0.0, "lat": 38.93100333333334}, {"rental_uris": {"android": "https://dc.lft.to/lastmile_qr_scan", "ios": "https://dc.lft.to/lastmile_qr_scan"}, "is_reserved": 0, "is_disabled": 0, "name": "9e04c459997b339c6e736e14a5223d17", "bike_id": "9e04c459997b339c6e736e14a5223d17", "fusion_lat": 0.0, "lon": -77.04868616666667, "type": "electric_scooter", "fusion_lon": 0.0, "lat": 38.899569666666665}, {"rental_uris": {"android": "https://dc.lft.to/lastmile_qr_scan", "ios": "https://dc.lft.to/lastmile_qr_scan"}, "is_reserved": 0, "is_disabled": 0, "name": "17db8582f26ecfa4f973fca8d8cde4ae", "bike_id": "17db8582f26ecfa4f973fca8d8cde4ae", "fusion_lat": 0.0, "lon": -77.02465566666666, "type": "electric_scooter", "fusion_lon": 0.0, "lat": 38.91814866666667}, {"rental_uris": {"android": "https://dc.lft.to/lastmile_qr_scan", "ios": "https://dc.lft.to/lastmile_qr_scan"}, "is_reserved": 0, "is_disabled": 0, "name": "c523b50e17e529ac607132199109203e", "bike_id": "c523b50e17e529ac607132199109203e", "fusion_lat": 0.0, "lon": -76.98234266666667, "type": "electric_scooter", "fusion_lon": 0.0, "lat": 38.86902966666667}, {"rental_uris": {"android": "https://dc.lft.to/lastmile_qr_scan", "ios": "https://dc.lft.to/lastmile_qr_scan"}, "is_reserved": 0, "is_disabled": 0, "name": "4dea7d196844ce4ee1e51d704938155c", "bike_id": "4dea7d196844ce4ee1e51d704938155c", "fusion_lat": 0.0, "lon": -76.94667466666667, "type": "electric_scooter", "fusion_lon": 0.0, "lat": 38.898705}, {"rental_uris": {"android": "https://dc.lft.to/lastmile_qr_scan", "ios": "https://dc.lft.to/lastmile_qr_scan"}, "is_reserved": 0, "is_disabled": 0, "name": "c74907ee90cf447ff788459be296ab11", "bike_id": "c74907ee90cf447ff788459be296ab11", "fusion_lat": 0.0, "lon": -77.04088266666666, "type": "electric_scooter", "fusion_lon": 0.0, "lat": 38.901225}, {"rental_uris": {"android": "https://dc.lft.to/lastmile_qr_scan", "ios": "https://dc.lft.to/lastmile_qr_scan"}, "is_reserved": 0, "is_disabled": 0, "name": "72f3b95799b1a1dbf2aca94bd0a86ac0", "bike_id": "72f3b95799b1a1dbf2aca94bd0a86ac0", "fusion_lat": 0.0, "lon": -77.0383935, "type": "electric_scooter", "fusion_lon": 0.0, "lat": 38.90283066666667}, {"rental_uris": {"android": "https://dc.lft.to/lastmile_qr_scan", "ios": "https://dc.lft.to/lastmile_qr_scan"}, "is_reserved": 0, "is_disabled": 0, "name": "3dd1980bbced7d11fd8b4f5ad6711a93", "bike_id": "3dd1980bbced7d11fd8b4f5ad6711a93", "fusion_lat": 0.0, "lon": -77.01539, "type": "electric_scooter", "fusion_lon": 0.0, "lat": 38.88326466666667}, {"rental_uris": {"android": "https://dc.lft.to/lastmile_qr_scan", "ios": "https://dc.lft.to/lastmile_qr_scan"}, "is_reserved": 0, "is_disabled": 0, "name": "6dca6a7ae199c54f0c28e320cc8e9982", "bike_id": "6dca6a7ae199c54f0c28e320cc8e9982", "fusion_lat": 0.0, "lon": -77.04314533333333, "type": "electric_scooter", "fusion_lon": 0.0, "lat": 38.90043216666667}, {"rental_uris": {"android": "https://dc.lft.to/lastmile_qr_scan", "ios": "https://dc.lft.to/lastmile_qr_scan"}, "is_reserved": 0, "is_disabled": 0, "name": "c256cdaa584f8139bb4734527e419f25", "bike_id": "c256cdaa584f8139bb4734527e419f25", "fusion_lat": 0.0, "lon": -77.04155533333333, "type": "electric_scooter", "fusion_lon": 0.0, "lat": 38.917145}, {"rental_uris": {"android": "https://dc.lft.to/lastmile_qr_scan", "ios": "https://dc.lft.to/lastmile_qr_scan"}, "is_reserved": 0, "is_disabled": 0, "name": "c8d2f94dc1ee0ac86f3998ebc361ff2f", "bike_id": "c8d2f94dc1ee0ac86f3998ebc361ff2f", "fusion_lat": 0.0, "lon": -76.988315, "type": "electric_scooter", "fusion_lon": 0.0, "lat": 38.900369166666664}, {"rental_uris": {"android": "https://dc.lft.to/lastmile_qr_scan", "ios": "https://dc.lft.to/lastmile_qr_scan"}, "is_reserved": 0, "is_disabled": 0, "name": "d583b01483bb776e792cbe53fe5ccd9b", "bike_id": "d583b01483bb776e792cbe53fe5ccd9b", "fusion_lat": 0.0, "lon": -77.0465115, "type": "electric_scooter", "fusion_lon": 0.0, "lat": 38.899998}, {"rental_uris": {"android": "https://dc.lft.to/lastmile_qr_scan", "ios": "https://dc.lft.to/lastmile_qr_scan"}, "is_reserved": 0, "is_disabled": 0, "name": "d9db118488955157b7bb598f7c8d8f5a", "bike_id": "d9db118488955157b7bb598f7c8d8f5a", "fusion_lat": 0.0, "lon": -77.02164883333333, "type": "electric_scooter", "fusion_lon": 0.0, "lat": 38.926134}, {"rental_uris": {"android": "https://dc.lft.to/lastmile_qr_scan", "ios": "https://dc.lft.to/lastmile_qr_scan"}, "is_reserved": 0, "is_disabled": 0, "name": "c71d45b9e1c0b1bcd3f7dd10533e9f86", "bike_id": "c71d45b9e1c0b1bcd3f7dd10533e9f86", "fusion_lat": 0.0, "lon": -77.005919, "type": "electric_scooter", "fusion_lon": 0.0, "lat": 38.9064965}, {"rental_uris": {"android": "https://dc.lft.to/lastmile_qr_scan", "ios": "https://dc.lft.to/lastmile_qr_scan"}, "is_reserved": 0, "is_disabled": 0, "name": "f73c88bf5d3b91e7ed42a02d799cbc35", "bike_id": "f73c88bf5d3b91e7ed42a02d799cbc35", "fusion_lat": 0.0, "lon": -77.01762116666667, "type": "electric_scooter", "fusion_lon": 0.0, "lat": 38.876888}, {"rental_uris": {"android": "https://dc.lft.to/lastmile_qr_scan", "ios": "https://dc.lft.to/lastmile_qr_scan"}, "is_reserved": 0, "is_disabled": 0, "name": "61c6b06cfd3c6fb9fbd76502ca38dd87", "bike_id": "61c6b06cfd3c6fb9fbd76502ca38dd87", "fusion_lat": 0.0, "lon": -77.02782183333333, "type": "electric_scooter", "fusion_lon": 0.0, "lat": 38.8986945}, {"rental_uris": {"android": "https://dc.lft.to/lastmile_qr_scan", "ios": "https://dc.lft.to/lastmile_qr_scan"}, "is_reserved": 0, "is_disabled": 0, "name": "151e4f3202f18c5f5457d51046d1e9e1", "bike_id": "151e4f3202f18c5f5457d51046d1e9e1", "fusion_lat": 0.0, "lon": -77.01852816666667, "type": "electric_scooter", "fusion_lon": 0.0, "lat": 38.92911133333333}, {"rental_uris": {"android": "https://dc.lft.to/lastmile_qr_scan", "ios": "https://dc.lft.to/lastmile_qr_scan"}, "is_reserved": 0, "is_disabled": 0, "name": "63615124bcff5c95f2372aa6a76c5028", "bike_id": "63615124bcff5c95f2372aa6a76c5028", "fusion_lat": 0.0, "lon": -77.0400525, "type": "electric_scooter", "fusion_lon": 0.0, "lat": 38.90731}, {"rental_uris": {"android": "https://dc.lft.to/lastmile_qr_scan", "ios": "https://dc.lft.to/lastmile_qr_scan"}, "is_reserved": 0, "is_disabled": 0, "name": "e5610624d2b33439033876b1056dd78f", "bike_id": "e5610624d2b33439033876b1056dd78f", "fusion_lat": 0.0, "lon": -77.04308116666667, "type": "electric_bike", "fusion_lon": 0.0, "lat": 39.0342215}, {"rental_uris": {"android": "https://dc.lft.to/lastmile_qr_scan", "ios": "https://dc.lft.to/lastmile_qr_scan"}, "is_reserved": 0, "is_disabled": 0, "name": "31c17d47d649937b35e64adfb3400f20", "bike_id": "31c17d47d649937b35e64adfb3400f20", "fusion_lat": 0.0, "lon": -77.00345616666667, "type": "electric_scooter", "fusion_lon": 0.0, "lat": 38.88713583333333}, {"rental_uris": {"android": "https://dc.lft.to/lastmile_qr_scan", "ios": "https://dc.lft.to/lastmile_qr_scan"}, "is_reserved": 0, "is_disabled": 0, "name": "45ddd4b372248995fe41e2c27b0e19d0", "bike_id": "45ddd4b372248995fe41e2c27b0e19d0", "fusion_lat": 0.0, "lon": -77.00629983333333, "type": "electric_scooter", "fusion_lon": 0.0, "lat": 38.871739}, {"rental_uris": {"android": "https://dc.lft.to/lastmile_qr_scan", "ios": "https://dc.lft.to/lastmile_qr_scan"}, "is_reserved": 0, "is_disabled": 0, "name": "0bc2f34d431a83a186d65d77a8d2e432", "bike_id": "0bc2f34d431a83a186d65d77a8d2e432", "fusion_lat": 0.0, "lon": -77.00675316666667, "type": "electric_scooter", "fusion_lon": 0.0, "lat": 38.91122516666667}, {"rental_uris": {"android": "https://dc.lft.to/lastmile_qr_scan", "ios": "https://dc.lft.to/lastmile_qr_scan"}, "is_reserved": 0, "is_disabled": 0, "name": "af01f1e6774e59e2b54a9461cc3fb898", "bike_id": "af01f1e6774e59e2b54a9461cc3fb898", "fusion_lat": 0.0, "lon": -76.99072583333333, "type": "electric_bike", "fusion_lon": 0.0, "lat": 38.9426565}, {"rental_uris": {"android": "https://dc.lft.to/lastmile_qr_scan", "ios": "https://dc.lft.to/lastmile_qr_scan"}, "is_reserved": 0, "is_disabled": 0, "name": "1c74f556bfb775e0626e0ca0061a273e", "bike_id": "1c74f556bfb775e0626e0ca0061a273e", "fusion_lat": 0.0, "lon": -77.00585133333334, "type": "electric_scooter", "fusion_lon": 0.0, "lat": 38.905790333333336}, {"rental_uris": {"android": "https://dc.lft.to/lastmile_qr_scan", "ios": "https://dc.lft.to/lastmile_qr_scan"}, "is_reserved": 0, "is_disabled": 0, "name": "2e38733e9deb2cb2057459057fd7ecdd", "bike_id": "2e38733e9deb2cb2057459057fd7ecdd", "fusion_lat": 0.0, "lon": -77.07454716666666, "type": "electric_scooter", "fusion_lon": 0.0, "lat": 38.93783283333333}, {"rental_uris": {"android": "https://dc.lft.to/lastmile_qr_scan", "ios": "https://dc.lft.to/lastmile_qr_scan"}, "is_reserved": 0, "is_disabled": 0, "name": "a7b0104774a1e8b6aaa7348b61cbb49e", "bike_id": "a7b0104774a1e8b6aaa7348b61cbb49e", "fusion_lat": 0.0, "lon": -77.10101616666667, "type": "electric_bike", "fusion_lon": 0.0, "lat": 38.9895075}, {"rental_uris": {"android": "https://dc.lft.to/lastmile_qr_scan", "ios": "https://dc.lft.to/lastmile_qr_scan"}, "is_reserved": 0, "is_disabled": 0, "name": "6570404cd9efebfc310cd739f3b5400d", "bike_id": "6570404cd9efebfc310cd739f3b5400d", "fusion_lat": 0.0, "lon": -77.026877, "type": "electric_scooter", "fusion_lon": 0.0, "lat": 38.912756333333334}, {"rental_uris": {"android": "https://dc.lft.to/lastmile_qr_scan", "ios": "https://dc.lft.to/lastmile_qr_scan"}, "is_reserved": 0, "is_disabled": 0, "name": "9d2011c1a4eb0e4ef60df1c4645e491c", "bike_id": "9d2011c1a4eb0e4ef60df1c4645e491c", "fusion_lat": 0.0, "lon": -77.0299005, "type": "electric_scooter", "fusion_lon": 0.0, "lat": 38.89746316666667}, {"rental_uris": {"android": "https://dc.lft.to/lastmile_qr_scan", "ios": "https://dc.lft.to/lastmile_qr_scan"}, "is_reserved": 0, "is_disabled": 0, "name": "d2965b326820ac55529501c4f6c6a993", "bike_id": "d2965b326820ac55529501c4f6c6a993", "fusion_lat": 0.0, "lon": -77.00118133333334, "type": "electric_scooter", "fusion_lon": 0.0, "lat": 38.87661966666667}, {"rental_uris": {"android": "https://dc.lft.to/lastmile_qr_scan", "ios": "https://dc.lft.to/lastmile_qr_scan"}, "is_reserved": 0, "is_disabled": 0, "name": "5d59091fd72945df8ef80cdd09ec0526", "bike_id": "5d59091fd72945df8ef80cdd09ec0526", "fusion_lat": 0.0, "lon": -77.000518, "type": "electric_scooter", "fusion_lon": 0.0, "lat": 38.878847}, {"rental_uris": {"android": "https://dc.lft.to/lastmile_qr_scan", "ios": "https://dc.lft.to/lastmile_qr_scan"}, "is_reserved": 0, "is_disabled": 0, "name": "6def24175c05bbc825c5ba4bc540bcb0", "bike_id": "6def24175c05bbc825c5ba4bc540bcb0", "fusion_lat": 0.0, "lon": -77.02174583333333, "type": "electric_scooter", "fusion_lon": 0.0, "lat": 38.924931}, {"rental_uris": {"android": "https://dc.lft.to/lastmile_qr_scan", "ios": "https://dc.lft.to/lastmile_qr_scan"}, "is_reserved": 0, "is_disabled": 0, "name": "22966db62a191073f351b2d3e5b8cb3b", "bike_id": "22966db62a191073f351b2d3e5b8cb3b", "fusion_lat": 0.0, "lon": -77.0337045, "type": "electric_scooter", "fusion_lon": 0.0, "lat": 38.90138833333334}, {"rental_uris": {"android": "https://dc.lft.to/lastmile_qr_scan", "ios": "https://dc.lft.to/lastmile_qr_scan"}, "is_reserved": 0, "is_disabled": 0, "name": "065ddbed8447ade980072feb92737b7e", "bike_id": "065ddbed8447ade980072feb92737b7e", "fusion_lat": 0.0, "lon": -76.94185783333333, "type": "electric_scooter", "fusion_lon": 0.0, "lat": 38.897656833333336}, {"rental_uris": {"android": "https://dc.lft.to/lastmile_qr_scan", "ios": "https://dc.lft.to/lastmile_qr_scan"}, "is_reserved": 0, "is_disabled": 0, "name": "81641a2fc790c640f3a721beec440c54", "bike_id": "81641a2fc790c640f3a721beec440c54", "fusion_lat": 0.0, "lon": -77.03793566666667, "type": "electric_scooter", "fusion_lon": 0.0, "lat": 38.925933666666666}, {"rental_uris": {"android": "https://dc.lft.to/lastmile_qr_scan", "ios": "https://dc.lft.to/lastmile_qr_scan"}, "is_reserved": 0, "is_disabled": 0, "name": "1fc0bccc8da7e308b8d4994b45cd0786", "bike_id": "1fc0bccc8da7e308b8d4994b45cd0786", "fusion_lat": 0.0, "lon": -76.97815533333333, "type": "electric_scooter", "fusion_lon": 0.0, "lat": 38.8939985}, {"rental_uris": {"android": "https://dc.lft.to/lastmile_qr_scan", "ios": "https://dc.lft.to/lastmile_qr_scan"}, "is_reserved": 0, "is_disabled": 0, "name": "0235c80db9c64d1cfc138e260add8a4b", "bike_id": "0235c80db9c64d1cfc138e260add8a4b", "fusion_lat": 0.0, "lon": -77.0163015, "type": "electric_scooter", "fusion_lon": 0.0, "lat": 38.88120833333333}, {"rental_uris": {"android": "https://dc.lft.to/lastmile_qr_scan", "ios": "https://dc.lft.to/lastmile_qr_scan"}, "is_reserved": 0, "is_disabled": 0, "name": "b3df0cc85d96e8188c5f333f3703b59b", "bike_id": "b3df0cc85d96e8188c5f333f3703b59b", "fusion_lat": 0.0, "lon": -77.01606766666667, "type": "electric_scooter", "fusion_lon": 0.0, "lat": 38.917615}, {"rental_uris": {"android": "https://dc.lft.to/lastmile_qr_scan", "ios": "https://dc.lft.to/lastmile_qr_scan"}, "is_reserved": 0, "is_disabled": 0, "name": "f5e635f8c3ffcc4ee47bb33f6b382798", "bike_id": "f5e635f8c3ffcc4ee47bb33f6b382798", "fusion_lat": 0.0, "lon": -77.03703616666667, "type": "electric_scooter", "fusion_lon": 0.0, "lat": 38.92636433333333}, {"rental_uris": {"android": "https://dc.lft.to/lastmile_qr_scan", "ios": "https://dc.lft.to/lastmile_qr_scan"}, "is_reserved": 0, "is_disabled": 0, "name": "75ba7ae88888ab3e76921fecbbf14cec", "bike_id": "75ba7ae88888ab3e76921fecbbf14cec", "fusion_lat": 0.0, "lon": -77.07659916666667, "type": "electric_bike", "fusion_lon": 0.0, "lat": 38.809784}, {"rental_uris": {"android": "https://dc.lft.to/lastmile_qr_scan", "ios": "https://dc.lft.to/lastmile_qr_scan"}, "is_reserved": 0, "is_disabled": 0, "name": "1144fe6b4651f5519e98b58b2cb045f5", "bike_id": "1144fe6b4651f5519e98b58b2cb045f5", "fusion_lat": 0.0, "lon": -77.03556533333334, "type": "electric_scooter", "fusion_lon": 0.0, "lat": 38.92477266666667}, {"rental_uris": {"android": "https://dc.lft.to/lastmile_qr_scan", "ios": "https://dc.lft.to/lastmile_qr_scan"}, "is_reserved": 0, "is_disabled": 0, "name": "aca78681c85fa18904731d494b118f2c", "bike_id": "aca78681c85fa18904731d494b118f2c", "fusion_lat": 0.0, "lon": -77.0488905, "type": "electric_scooter", "fusion_lon": 0.0, "lat": 38.898102}, {"rental_uris": {"android": "https://dc.lft.to/lastmile_qr_scan", "ios": "https://dc.lft.to/lastmile_qr_scan"}, "is_reserved": 0, "is_disabled": 0, "name": "ac2b333c2016e60fa17455630f93982e", "bike_id": "ac2b333c2016e60fa17455630f93982e", "fusion_lat": 0.0, "lon": -77.02960033333333, "type": "electric_scooter", "fusion_lon": 0.0, "lat": 38.91705483333333}, {"rental_uris": {"android": "https://dc.lft.to/lastmile_qr_scan", "ios": "https://dc.lft.to/lastmile_qr_scan"}, "is_reserved": 0, "is_disabled": 0, "name": "8db2c19009870e244317ec4eb69c96a4", "bike_id": "8db2c19009870e244317ec4eb69c96a4", "fusion_lat": 0.0, "lon": -77.02300616666666, "type": "electric_scooter", "fusion_lon": 0.0, "lat": 38.92416733333334}, {"rental_uris": {"android": "https://dc.lft.to/lastmile_qr_scan", "ios": "https://dc.lft.to/lastmile_qr_scan"}, "is_reserved": 0, "is_disabled": 0, "name": "4d532a5a860b3affc1471ba37fe69e3c", "bike_id": "4d532a5a860b3affc1471ba37fe69e3c", "fusion_lat": 0.0, "lon": -77.04073866666667, "type": "electric_scooter", "fusion_lon": 0.0, "lat": 38.896241333333336}, {"rental_uris": {"android": "https://dc.lft.to/lastmile_qr_scan", "ios": "https://dc.lft.to/lastmile_qr_scan"}, "is_reserved": 0, "is_disabled": 0, "name": "09c7e082c7501f084d86942da66b8881", "bike_id": "09c7e082c7501f084d86942da66b8881", "fusion_lat": 0.0, "lon": -77.01508333333334, "type": "electric_scooter", "fusion_lon": 0.0, "lat": 38.88739616666667}, {"rental_uris": {"android": "https://dc.lft.to/lastmile_qr_scan", "ios": "https://dc.lft.to/lastmile_qr_scan"}, "is_reserved": 0, "is_disabled": 0, "name": "1fa64d401f466260a1648a2fc0e47a3b", "bike_id": "1fa64d401f466260a1648a2fc0e47a3b", "fusion_lat": 0.0, "lon": -77.04464533333334, "type": "electric_scooter", "fusion_lon": 0.0, "lat": 38.90386516666667}, {"rental_uris": {"android": "https://dc.lft.to/lastmile_qr_scan", "ios": "https://dc.lft.to/lastmile_qr_scan"}, "is_reserved": 0, "is_disabled": 0, "name": "a975c81a54b7c6f645256204df57d45e", "bike_id": "a975c81a54b7c6f645256204df57d45e", "fusion_lat": 0.0, "lon": -77.046569, "type": "electric_scooter", "fusion_lon": 0.0, "lat": 38.89339016666667}, {"rental_uris": {"android": "https://dc.lft.to/lastmile_qr_scan", "ios": "https://dc.lft.to/lastmile_qr_scan"}, "is_reserved": 0, "is_disabled": 0, "name": "0bf142999b8b31c4e3f5e5ba59ac9fe3", "bike_id": "0bf142999b8b31c4e3f5e5ba59ac9fe3", "fusion_lat": 0.0, "lon": -77.046515, "type": "electric_scooter", "fusion_lon": 0.0, "lat": 38.905840166666664}, {"rental_uris": {"android": "https://dc.lft.to/lastmile_qr_scan", "ios": "https://dc.lft.to/lastmile_qr_scan"}, "is_reserved": 0, "is_disabled": 0, "name": "289e9c4f273ab016e52db3bb3350dd96", "bike_id": "289e9c4f273ab016e52db3bb3350dd96", "fusion_lat": 0.0, "lon": -77.00196383333333, "type": "electric_scooter", "fusion_lon": 0.0, "lat": 38.90238733333333}, {"rental_uris": {"android": "https://dc.lft.to/lastmile_qr_scan", "ios": "https://dc.lft.to/lastmile_qr_scan"}, "is_reserved": 0, "is_disabled": 0, "name": "664b2129b30691a6e76167655f8a949b", "bike_id": "664b2129b30691a6e76167655f8a949b", "fusion_lat": 0.0, "lon": -77.03283733333333, "type": "electric_scooter", "fusion_lon": 0.0, "lat": 38.8990595}, {"rental_uris": {"android": "https://dc.lft.to/lastmile_qr_scan", "ios": "https://dc.lft.to/lastmile_qr_scan"}, "is_reserved": 0, "is_disabled": 0, "name": "25ddf2e7f05b87322af58fd3334f2435", "bike_id": "25ddf2e7f05b87322af58fd3334f2435", "fusion_lat": 0.0, "lon": -77.0388555, "type": "electric_scooter", "fusion_lon": 0.0, "lat": 38.91851966666667}, {"rental_uris": {"android": "https://dc.lft.to/lastmile_qr_scan", "ios": "https://dc.lft.to/lastmile_qr_scan"}, "is_reserved": 0, "is_disabled": 0, "name": "8b3f96b83b13021c2b7bc2b7bffeb507", "bike_id": "8b3f96b83b13021c2b7bc2b7bffeb507", "fusion_lat": 0.0, "lon": -77.04224516666666, "type": "electric_scooter", "fusion_lon": 0.0, "lat": 38.90387583333333}, {"rental_uris": {"android": "https://dc.lft.to/lastmile_qr_scan", "ios": "https://dc.lft.to/lastmile_qr_scan"}, "is_reserved": 0, "is_disabled": 0, "name": "57bd64e5a722aba7779b3540bd86cbf6", "bike_id": "57bd64e5a722aba7779b3540bd86cbf6", "fusion_lat": 0.0, "lon": -77.034669, "type": "electric_scooter", "fusion_lon": 0.0, "lat": 38.902318333333334}, {"rental_uris": {"android": "https://dc.lft.to/lastmile_qr_scan", "ios": "https://dc.lft.to/lastmile_qr_scan"}, "is_reserved": 0, "is_disabled": 0, "name": "3f049b265f4433800f3ed39264a7029d", "bike_id": "3f049b265f4433800f3ed39264a7029d", "fusion_lat": 0.0, "lon": -77.02260633333333, "type": "electric_scooter", "fusion_lon": 0.0, "lat": 38.928234333333336}, {"rental_uris": {"android": "https://dc.lft.to/lastmile_qr_scan", "ios": "https://dc.lft.to/lastmile_qr_scan"}, "is_reserved": 0, "is_disabled": 0, "name": "ac609acdc7cabd1f6020090f66e3ad96", "bike_id": "ac609acdc7cabd1f6020090f66e3ad96", "fusion_lat": 0.0, "lon": -77.04720533333334, "type": "electric_scooter", "fusion_lon": 0.0, "lat": 38.90047666666667}, {"rental_uris": {"android": "https://dc.lft.to/lastmile_qr_scan", "ios": "https://dc.lft.to/lastmile_qr_scan"}, "is_reserved": 0, "is_disabled": 0, "name": "572de98fc53373508a8480d21b18a626", "bike_id": "572de98fc53373508a8480d21b18a626", "fusion_lat": 0.0, "lon": -77.02046183333333, "type": "electric_scooter", "fusion_lon": 0.0, "lat": 38.921776333333334}, {"rental_uris": {"android": "https://dc.lft.to/lastmile_qr_scan", "ios": "https://dc.lft.to/lastmile_qr_scan"}, "is_reserved": 0, "is_disabled": 0, "name": "aed284c7fce710aed1112d8d4ff5978c", "bike_id": "aed284c7fce710aed1112d8d4ff5978c", "fusion_lat": 0.0, "lon": -77.071789, "type": "electric_scooter", "fusion_lon": 0.0, "lat": 38.9076575}, {"rental_uris": {"android": "https://dc.lft.to/lastmile_qr_scan", "ios": "https://dc.lft.to/lastmile_qr_scan"}, "is_reserved": 0, "is_disabled": 0, "name": "b39aee436e6eb53cb2f51e2cf2f429e5", "bike_id": "b39aee436e6eb53cb2f51e2cf2f429e5", "fusion_lat": 0.0, "lon": -77.03312283333334, "type": "electric_scooter", "fusion_lon": 0.0, "lat": 38.92894533333333}, {"rental_uris": {"android": "https://dc.lft.to/lastmile_qr_scan", "ios": "https://dc.lft.to/lastmile_qr_scan"}, "is_reserved": 0, "is_disabled": 0, "name": "4e896ab233eac200f960a1b27e655f03", "bike_id": "4e896ab233eac200f960a1b27e655f03", "fusion_lat": 0.0, "lon": -77.04471683333334, "type": "electric_scooter", "fusion_lon": 0.0, "lat": 38.90014566666667}, {"rental_uris": {"android": "https://dc.lft.to/lastmile_qr_scan", "ios": "https://dc.lft.to/lastmile_qr_scan"}, "is_reserved": 0, "is_disabled": 0, "name": "d5b126561530c820469b085a15a71ed4", "bike_id": "d5b126561530c820469b085a15a71ed4", "fusion_lat": 0.0, "lon": -77.04170416666666, "type": "electric_scooter", "fusion_lon": 0.0, "lat": 38.905279666666665}, {"rental_uris": {"android": "https://dc.lft.to/lastmile_qr_scan", "ios": "https://dc.lft.to/lastmile_qr_scan"}, "is_reserved": 0, "is_disabled": 0, "name": "a30369345e55bb3661cec7e087e401ca", "bike_id": "a30369345e55bb3661cec7e087e401ca", "fusion_lat": 0.0, "lon": -77.02699483333333, "type": "electric_scooter", "fusion_lon": 0.0, "lat": 38.94980433333333}, {"rental_uris": {"android": "https://dc.lft.to/lastmile_qr_scan", "ios": "https://dc.lft.to/lastmile_qr_scan"}, "is_reserved": 0, "is_disabled": 0, "name": "d57456d98f7512a0720b2ab87ceec0ef", "bike_id": "d57456d98f7512a0720b2ab87ceec0ef", "fusion_lat": 0.0, "lon": -77.02128633333334, "type": "electric_scooter", "fusion_lon": 0.0, "lat": 38.887509666666666}, {"rental_uris": {"android": "https://dc.lft.to/lastmile_qr_scan", "ios": "https://dc.lft.to/lastmile_qr_scan"}, "is_reserved": 0, "is_disabled": 0, "name": "bf3e3b6941b81d99b01f59d7c4413cb3", "bike_id": "bf3e3b6941b81d99b01f59d7c4413cb3", "fusion_lat": 0.0, "lon": -77.0320435, "type": "electric_scooter", "fusion_lon": 0.0, "lat": 38.898279}, {"rental_uris": {"android": "https://dc.lft.to/lastmile_qr_scan", "ios": "https://dc.lft.to/lastmile_qr_scan"}, "is_reserved": 0, "is_disabled": 0, "name": "b7e27999957ed41a063f7eb792ac5452", "bike_id": "b7e27999957ed41a063f7eb792ac5452", "fusion_lat": 0.0, "lon": -77.021103, "type": "electric_scooter", "fusion_lon": 0.0, "lat": 38.90605466666667}, {"rental_uris": {"android": "https://dc.lft.to/lastmile_qr_scan", "ios": "https://dc.lft.to/lastmile_qr_scan"}, "is_reserved": 0, "is_disabled": 0, "name": "9c3e56b86acdde74f45f88c61f4fcb95", "bike_id": "9c3e56b86acdde74f45f88c61f4fcb95", "fusion_lat": 0.0, "lon": -77.02773466666666, "type": "electric_scooter", "fusion_lon": 0.0, "lat": 38.962179166666665}, {"rental_uris": {"android": "https://dc.lft.to/lastmile_qr_scan", "ios": "https://dc.lft.to/lastmile_qr_scan"}, "is_reserved": 0, "is_disabled": 0, "name": "1b3c3b3975f915ea5cfc135abb2c7a22", "bike_id": "1b3c3b3975f915ea5cfc135abb2c7a22", "fusion_lat": 0.0, "lon": -77.04338933333334, "type": "electric_scooter", "fusion_lon": 0.0, "lat": 38.90417433333333}, {"rental_uris": {"android": "https://dc.lft.to/lastmile_qr_scan", "ios": "https://dc.lft.to/lastmile_qr_scan"}, "is_reserved": 0, "is_disabled": 0, "name": "9e6e6f8c4d4f4c34b911c610604eea11", "bike_id": "9e6e6f8c4d4f4c34b911c610604eea11", "fusion_lat": 0.0, "lon": -77.01811716666667, "type": "electric_scooter", "fusion_lon": 0.0, "lat": 38.9138015}, {"rental_uris": {"android": "https://dc.lft.to/lastmile_qr_scan", "ios": "https://dc.lft.to/lastmile_qr_scan"}, "is_reserved": 0, "is_disabled": 0, "name": "84c64eab9051934b40ac1dfe28edcb7e", "bike_id": "84c64eab9051934b40ac1dfe28edcb7e", "fusion_lat": 0.0, "lon": -77.04395116666667, "type": "electric_scooter", "fusion_lon": 0.0, "lat": 38.9013745}, {"rental_uris": {"android": "https://dc.lft.to/lastmile_qr_scan", "ios": "https://dc.lft.to/lastmile_qr_scan"}, "is_reserved": 0, "is_disabled": 0, "name": "ae08811e3ad09d89da7a1113a57565e4", "bike_id": "ae08811e3ad09d89da7a1113a57565e4", "fusion_lat": 0.0, "lon": -77.01145033333333, "type": "electric_scooter", "fusion_lon": 0.0, "lat": 38.90034166666667}, {"rental_uris": {"android": "https://dc.lft.to/lastmile_qr_scan", "ios": "https://dc.lft.to/lastmile_qr_scan"}, "is_reserved": 0, "is_disabled": 0, "name": "5a1e6a38667d6dc2214777be0f2257d6", "bike_id": "5a1e6a38667d6dc2214777be0f2257d6", "fusion_lat": 0.0, "lon": -77.09521016666666, "type": "electric_bike", "fusion_lon": 0.0, "lat": 38.838092833333334}, {"rental_uris": {"android": "https://dc.lft.to/lastmile_qr_scan", "ios": "https://dc.lft.to/lastmile_qr_scan"}, "is_reserved": 0, "is_disabled": 0, "name": "3d406ca3fe96009eea8cbc0cd96e0500", "bike_id": "3d406ca3fe96009eea8cbc0cd96e0500", "fusion_lat": 0.0, "lon": -77.0434475, "type": "electric_scooter", "fusion_lon": 0.0, "lat": 38.90110683333333}, {"rental_uris": {"android": "https://dc.lft.to/lastmile_qr_scan", "ios": "https://dc.lft.to/lastmile_qr_scan"}, "is_reserved": 0, "is_disabled": 0, "name": "8dad8280f128917ffd59d8c5826c54f0", "bike_id": "8dad8280f128917ffd59d8c5826c54f0", "fusion_lat": 0.0, "lon": -76.94378966666666, "type": "electric_scooter", "fusion_lon": 0.0, "lat": 38.89123}, {"rental_uris": {"android": "https://dc.lft.to/lastmile_qr_scan", "ios": "https://dc.lft.to/lastmile_qr_scan"}, "is_reserved": 0, "is_disabled": 0, "name": "dac73084fcbc5195e0332708dcd0b313", "bike_id": "dac73084fcbc5195e0332708dcd0b313", "fusion_lat": 0.0, "lon": -77.06104633333334, "type": "electric_scooter", "fusion_lon": 0.0, "lat": 38.90529133333333}, {"rental_uris": {"android": "https://dc.lft.to/lastmile_qr_scan", "ios": "https://dc.lft.to/lastmile_qr_scan"}, "is_reserved": 0, "is_disabled": 0, "name": "715c7441b7d8fc01bb1451433c2dce56", "bike_id": "715c7441b7d8fc01bb1451433c2dce56", "fusion_lat": 0.0, "lon": -77.04489716666667, "type": "electric_scooter", "fusion_lon": 0.0, "lat": 38.915198333333336}, {"rental_uris": {"android": "https://dc.lft.to/lastmile_qr_scan", "ios": "https://dc.lft.to/lastmile_qr_scan"}, "is_reserved": 0, "is_disabled": 0, "name": "39470222bec609ccd92821b757605ec0", "bike_id": "39470222bec609ccd92821b757605ec0", "fusion_lat": 0.0, "lon": -77.005866, "type": "electric_scooter", "fusion_lon": 0.0, "lat": 38.905569}, {"rental_uris": {"android": "https://dc.lft.to/lastmile_qr_scan", "ios": "https://dc.lft.to/lastmile_qr_scan"}, "is_reserved": 0, "is_disabled": 0, "name": "ae9d4de3152f9c7d2c3f7478ae8b96b2", "bike_id": "ae9d4de3152f9c7d2c3f7478ae8b96b2", "fusion_lat": 0.0, "lon": -77.02192433333333, "type": "electric_scooter", "fusion_lon": 0.0, "lat": 38.90188066666666}, {"rental_uris": {"android": "https://dc.lft.to/lastmile_qr_scan", "ios": "https://dc.lft.to/lastmile_qr_scan"}, "is_reserved": 0, "is_disabled": 0, "name": "f3e222f561a88544d55d643f90ee9321", "bike_id": "f3e222f561a88544d55d643f90ee9321", "fusion_lat": 0.0, "lon": -76.92458183333333, "type": "electric_scooter", "fusion_lon": 0.0, "lat": 38.8852405}, {"rental_uris": {"android": "https://dc.lft.to/lastmile_qr_scan", "ios": "https://dc.lft.to/lastmile_qr_scan"}, "is_reserved": 0, "is_disabled": 0, "name": "7bea2508d370213ba59d7b528eebcfb8", "bike_id": "7bea2508d370213ba59d7b528eebcfb8", "fusion_lat": 0.0, "lon": -77.02050266666667, "type": "electric_scooter", "fusion_lon": 0.0, "lat": 38.895674166666666}, {"rental_uris": {"android": "https://dc.lft.to/lastmile_qr_scan", "ios": "https://dc.lft.to/lastmile_qr_scan"}, "is_reserved": 0, "is_disabled": 0, "name": "117e6379ee868f3d82891bf011b5afc4", "bike_id": "117e6379ee868f3d82891bf011b5afc4", "fusion_lat": 0.0, "lon": -77.01508016666666, "type": "electric_scooter", "fusion_lon": 0.0, "lat": 38.89116466666667}, {"rental_uris": {"android": "https://dc.lft.to/lastmile_qr_scan", "ios": "https://dc.lft.to/lastmile_qr_scan"}, "is_reserved": 0, "is_disabled": 0, "name": "f726866087613b563e522706695cf19e", "bike_id": "f726866087613b563e522706695cf19e", "fusion_lat": 0.0, "lon": -77.025866, "type": "electric_scooter", "fusion_lon": 0.0, "lat": 38.90346066666667}, {"rental_uris": {"android": "https://dc.lft.to/lastmile_qr_scan", "ios": "https://dc.lft.to/lastmile_qr_scan"}, "is_reserved": 0, "is_disabled": 0, "name": "63b547636a91fdd1703280ca6ce4af26", "bike_id": "63b547636a91fdd1703280ca6ce4af26", "fusion_lat": 0.0, "lon": -77.02895933333333, "type": "electric_scooter", "fusion_lon": 0.0, "lat": 38.9225065}, {"rental_uris": {"android": "https://dc.lft.to/lastmile_qr_scan", "ios": "https://dc.lft.to/lastmile_qr_scan"}, "is_reserved": 0, "is_disabled": 0, "name": "9cb882eaa2ee98572489f2b6dd649c3c", "bike_id": "9cb882eaa2ee98572489f2b6dd649c3c", "fusion_lat": 0.0, "lon": -77.02505116666667, "type": "electric_scooter", "fusion_lon": 0.0, "lat": 38.90436533333333}, {"rental_uris": {"android": "https://dc.lft.to/lastmile_qr_scan", "ios": "https://dc.lft.to/lastmile_qr_scan"}, "is_reserved": 0, "is_disabled": 0, "name": "14f76007a67d2e7515d5a41ecbfa15d2", "bike_id": "14f76007a67d2e7515d5a41ecbfa15d2", "fusion_lat": 0.0, "lon": -76.9074785, "type": "electric_bike", "fusion_lon": 0.0, "lat": 38.89623016666667}, {"rental_uris": {"android": "https://dc.lft.to/lastmile_qr_scan", "ios": "https://dc.lft.to/lastmile_qr_scan"}, "is_reserved": 0, "is_disabled": 0, "name": "8590106c9d8812fad410beedd87fd818", "bike_id": "8590106c9d8812fad410beedd87fd818", "fusion_lat": 0.0, "lon": -77.01802416666666, "type": "electric_scooter", "fusion_lon": 0.0, "lat": 38.902669333333336}, {"rental_uris": {"android": "https://dc.lft.to/lastmile_qr_scan", "ios": "https://dc.lft.to/lastmile_qr_scan"}, "is_reserved": 0, "is_disabled": 0, "name": "b3c11ead27da2e027597a4c232924246", "bike_id": "b3c11ead27da2e027597a4c232924246", "fusion_lat": 0.0, "lon": -77.03374783333334, "type": "electric_scooter", "fusion_lon": 0.0, "lat": 38.9306935}, {"rental_uris": {"android": "https://dc.lft.to/lastmile_qr_scan", "ios": "https://dc.lft.to/lastmile_qr_scan"}, "is_reserved": 0, "is_disabled": 0, "name": "a2ac8bf8f2e8ada7286eb1f1475e8e24", "bike_id": "a2ac8bf8f2e8ada7286eb1f1475e8e24", "fusion_lat": 0.0, "lon": -77.02175733333333, "type": "electric_scooter", "fusion_lon": 0.0, "lat": 38.88717366666667}, {"rental_uris": {"android": "https://dc.lft.to/lastmile_qr_scan", "ios": "https://dc.lft.to/lastmile_qr_scan"}, "is_reserved": 0, "is_disabled": 0, "name": "63d7f192f6bf6f289789ac205479e5f5", "bike_id": "63d7f192f6bf6f289789ac205479e5f5", "fusion_lat": 0.0, "lon": -77.05614016666667, "type": "electric_scooter", "fusion_lon": 0.0, "lat": 38.931186}, {"rental_uris": {"android": "https://dc.lft.to/lastmile_qr_scan", "ios": "https://dc.lft.to/lastmile_qr_scan"}, "is_reserved": 0, "is_disabled": 0, "name": "30af9126cfe5cd1a791832bca1b67470", "bike_id": "30af9126cfe5cd1a791832bca1b67470", "fusion_lat": 0.0, "lon": -77.03258483333333, "type": "electric_scooter", "fusion_lon": 0.0, "lat": 38.940764333333334}, {"rental_uris": {"android": "https://dc.lft.to/lastmile_qr_scan", "ios": "https://dc.lft.to/lastmile_qr_scan"}, "is_reserved": 0, "is_disabled": 0, "name": "b36dd54dc26b72854f6a265637452446", "bike_id": "b36dd54dc26b72854f6a265637452446", "fusion_lat": 0.0, "lon": -76.97224383333334, "type": "electric_bike", "fusion_lon": 0.0, "lat": 38.900489}, {"rental_uris": {"android": "https://dc.lft.to/lastmile_qr_scan", "ios": "https://dc.lft.to/lastmile_qr_scan"}, "is_reserved": 0, "is_disabled": 0, "name": "094cddf3b217f6239375bc4e43554a06", "bike_id": "094cddf3b217f6239375bc4e43554a06", "fusion_lat": 0.0, "lon": -77.046206, "type": "electric_scooter", "fusion_lon": 0.0, "lat": 38.89356016666667}, {"rental_uris": {"android": "https://dc.lft.to/lastmile_qr_scan", "ios": "https://dc.lft.to/lastmile_qr_scan"}, "is_reserved": 0, "is_disabled": 0, "name": "6ffd090b03ccacab37d1ea606eb6a7ee", "bike_id": "6ffd090b03ccacab37d1ea606eb6a7ee", "fusion_lat": 0.0, "lon": -77.029252, "type": "electric_scooter", "fusion_lon": 0.0, "lat": 38.8998125}, {"rental_uris": {"android": "https://dc.lft.to/lastmile_qr_scan", "ios": "https://dc.lft.to/lastmile_qr_scan"}, "is_reserved": 0, "is_disabled": 0, "name": "9cc638349acbfc73b51652232e0b328d", "bike_id": "9cc638349acbfc73b51652232e0b328d", "fusion_lat": 0.0, "lon": -77.02780133333333, "type": "electric_scooter", "fusion_lon": 0.0, "lat": 38.929589}, {"rental_uris": {"android": "https://dc.lft.to/lastmile_qr_scan", "ios": "https://dc.lft.to/lastmile_qr_scan"}, "is_reserved": 0, "is_disabled": 0, "name": "10936e6b79babde8230b2adf2f29af34", "bike_id": "10936e6b79babde8230b2adf2f29af34", "fusion_lat": 0.0, "lon": -77.04460933333333, "type": "electric_scooter", "fusion_lon": 0.0, "lat": 38.902989166666664}, {"rental_uris": {"android": "https://dc.lft.to/lastmile_qr_scan", "ios": "https://dc.lft.to/lastmile_qr_scan"}, "is_reserved": 0, "is_disabled": 0, "name": "31689535dc8ff728d135135b195d0e01", "bike_id": "31689535dc8ff728d135135b195d0e01", "fusion_lat": 0.0, "lon": -77.12933, "type": "electric_bike", "fusion_lon": 0.0, "lat": 38.86582083333333}, {"rental_uris": {"android": "https://dc.lft.to/lastmile_qr_scan", "ios": "https://dc.lft.to/lastmile_qr_scan"}, "is_reserved": 0, "is_disabled": 0, "name": "e8d5a864737f61e2430e56af7d6646ca", "bike_id": "e8d5a864737f61e2430e56af7d6646ca", "fusion_lat": 0.0, "lon": -77.01951366666667, "type": "electric_scooter", "fusion_lon": 0.0, "lat": 38.9236615}, {"rental_uris": {"android": "https://dc.lft.to/lastmile_qr_scan", "ios": "https://dc.lft.to/lastmile_qr_scan"}, "is_reserved": 0, "is_disabled": 0, "name": "2c32a83cd37290958a144dfa3b259e3b", "bike_id": "2c32a83cd37290958a144dfa3b259e3b", "fusion_lat": 0.0, "lon": -76.99484766666667, "type": "electric_scooter", "fusion_lon": 0.0, "lat": 38.8623}, {"rental_uris": {"android": "https://dc.lft.to/lastmile_qr_scan", "ios": "https://dc.lft.to/lastmile_qr_scan"}, "is_reserved": 0, "is_disabled": 0, "name": "019789dfc14d6e08d0a8330bd47c234c", "bike_id": "019789dfc14d6e08d0a8330bd47c234c", "fusion_lat": 0.0, "lon": -77.03341733333333, "type": "electric_scooter", "fusion_lon": 0.0, "lat": 38.902542833333335}, {"rental_uris": {"android": "https://dc.lft.to/lastmile_qr_scan", "ios": "https://dc.lft.to/lastmile_qr_scan"}, "is_reserved": 0, "is_disabled": 0, "name": "c84e39dac4ef15275ef47bf91ab1b756", "bike_id": "c84e39dac4ef15275ef47bf91ab1b756", "fusion_lat": 0.0, "lon": -77.02722, "type": "electric_scooter", "fusion_lon": 0.0, "lat": 38.89865316666667}, {"rental_uris": {"android": "https://dc.lft.to/lastmile_qr_scan", "ios": "https://dc.lft.to/lastmile_qr_scan"}, "is_reserved": 0, "is_disabled": 0, "name": "e5949ea3b986e2452218ad8f0cc854bd", "bike_id": "e5949ea3b986e2452218ad8f0cc854bd", "fusion_lat": 0.0, "lon": -76.92963833333333, "type": "electric_scooter", "fusion_lon": 0.0, "lat": 38.89635366666667}, {"rental_uris": {"android": "https://dc.lft.to/lastmile_qr_scan", "ios": "https://dc.lft.to/lastmile_qr_scan"}, "is_reserved": 0, "is_disabled": 0, "name": "ef47cc75ff5e48526044bd7a9c4a545f", "bike_id": "ef47cc75ff5e48526044bd7a9c4a545f", "fusion_lat": 0.0, "lon": -77.00620933333333, "type": "electric_scooter", "fusion_lon": 0.0, "lat": 38.8717245}, {"rental_uris": {"android": "https://dc.lft.to/lastmile_qr_scan", "ios": "https://dc.lft.to/lastmile_qr_scan"}, "is_reserved": 0, "is_disabled": 0, "name": "934b1d0cfbde7dfadd40d2f63286717e", "bike_id": "934b1d0cfbde7dfadd40d2f63286717e", "fusion_lat": 0.0, "lon": -77.02229216666667, "type": "electric_scooter", "fusion_lon": 0.0, "lat": 38.9141375}, {"rental_uris": {"android": "https://dc.lft.to/lastmile_qr_scan", "ios": "https://dc.lft.to/lastmile_qr_scan"}, "is_reserved": 0, "is_disabled": 0, "name": "e4f9f23237c82afcf23275ef9b2cbd8a", "bike_id": "e4f9f23237c82afcf23275ef9b2cbd8a", "fusion_lat": 0.0, "lon": -77.04013866666666, "type": "electric_bike", "fusion_lon": 0.0, "lat": 38.923842666666665}, {"rental_uris": {"android": "https://dc.lft.to/lastmile_qr_scan", "ios": "https://dc.lft.to/lastmile_qr_scan"}, "is_reserved": 0, "is_disabled": 0, "name": "a544a64902321ecc63b8a33c12c70599", "bike_id": "a544a64902321ecc63b8a33c12c70599", "fusion_lat": 0.0, "lon": -77.00329683333334, "type": "electric_scooter", "fusion_lon": 0.0, "lat": 38.89367383333333}, {"rental_uris": {"android": "https://dc.lft.to/lastmile_qr_scan", "ios": "https://dc.lft.to/lastmile_qr_scan"}, "is_reserved": 0, "is_disabled": 0, "name": "9e9c2f074ec78b3be4442b45e5aff5af", "bike_id": "9e9c2f074ec78b3be4442b45e5aff5af", "fusion_lat": 0.0, "lon": -76.95155583333333, "type": "electric_bike", "fusion_lon": 0.0, "lat": 39.08444316666667}, {"rental_uris": {"android": "https://dc.lft.to/lastmile_qr_scan", "ios": "https://dc.lft.to/lastmile_qr_scan"}, "is_reserved": 0, "is_disabled": 0, "name": "ab9d0ba1dce5d6929021a0ecf96465c6", "bike_id": "ab9d0ba1dce5d6929021a0ecf96465c6", "fusion_lat": 0.0, "lon": -77.0325645, "type": "electric_scooter", "fusion_lon": 0.0, "lat": 38.929697833333336}, {"rental_uris": {"android": "https://dc.lft.to/lastmile_qr_scan", "ios": "https://dc.lft.to/lastmile_qr_scan"}, "is_reserved": 0, "is_disabled": 0, "name": "9c182fa8b243786ae819ca8273e1be0a", "bike_id": "9c182fa8b243786ae819ca8273e1be0a", "fusion_lat": 0.0, "lon": -77.03070183333334, "type": "electric_scooter", "fusion_lon": 0.0, "lat": 38.898409}, {"rental_uris": {"android": "https://dc.lft.to/lastmile_qr_scan", "ios": "https://dc.lft.to/lastmile_qr_scan"}, "is_reserved": 0, "is_disabled": 0, "name": "528b597615bd862b107ef420d2c81f15", "bike_id": "528b597615bd862b107ef420d2c81f15", "fusion_lat": 0.0, "lon": -77.0500355, "type": "electric_scooter", "fusion_lon": 0.0, "lat": 38.89228466666667}, {"rental_uris": {"android": "https://dc.lft.to/lastmile_qr_scan", "ios": "https://dc.lft.to/lastmile_qr_scan"}, "is_reserved": 0, "is_disabled": 0, "name": "1763f5e36a66afe2ce9c410d28ff67fb", "bike_id": "1763f5e36a66afe2ce9c410d28ff67fb", "fusion_lat": 0.0, "lon": -77.06427166666667, "type": "electric_scooter", "fusion_lon": 0.0, "lat": 38.93565783333333}, {"rental_uris": {"android": "https://dc.lft.to/lastmile_qr_scan", "ios": "https://dc.lft.to/lastmile_qr_scan"}, "is_reserved": 0, "is_disabled": 0, "name": "4c1a3341ca3364a630171a57b4e47843", "bike_id": "4c1a3341ca3364a630171a57b4e47843", "fusion_lat": 0.0, "lon": -77.02716466666666, "type": "electric_scooter", "fusion_lon": 0.0, "lat": 38.89658766666667}, {"rental_uris": {"android": "https://dc.lft.to/lastmile_qr_scan", "ios": "https://dc.lft.to/lastmile_qr_scan"}, "is_reserved": 0, "is_disabled": 0, "name": "994461e8ae213c422bd431e2f746f2c1", "bike_id": "994461e8ae213c422bd431e2f746f2c1", "fusion_lat": 0.0, "lon": -77.002973, "type": "electric_scooter", "fusion_lon": 0.0, "lat": 38.89204983333333}, {"rental_uris": {"android": "https://dc.lft.to/lastmile_qr_scan", "ios": "https://dc.lft.to/lastmile_qr_scan"}, "is_reserved": 0, "is_disabled": 0, "name": "71b1e09c3f998f965c299f45dd4d9659", "bike_id": "71b1e09c3f998f965c299f45dd4d9659", "fusion_lat": 0.0, "lon": -77.00285433333333, "type": "electric_scooter", "fusion_lon": 0.0, "lat": 38.903734}, {"rental_uris": {"android": "https://dc.lft.to/lastmile_qr_scan", "ios": "https://dc.lft.to/lastmile_qr_scan"}, "is_reserved": 0, "is_disabled": 0, "name": "d86e30afb087cff512128fac636dcbd4", "bike_id": "d86e30afb087cff512128fac636dcbd4", "fusion_lat": 0.0, "lon": -77.03637433333333, "type": "electric_scooter", "fusion_lon": 0.0, "lat": 38.90286716666667}, {"rental_uris": {"android": "https://dc.lft.to/lastmile_qr_scan", "ios": "https://dc.lft.to/lastmile_qr_scan"}, "is_reserved": 0, "is_disabled": 0, "name": "66625f8b25dda7287cbf392f394b8afe", "bike_id": "66625f8b25dda7287cbf392f394b8afe", "fusion_lat": 0.0, "lon": -76.93595033333334, "type": "electric_scooter", "fusion_lon": 0.0, "lat": 38.909498}, {"rental_uris": {"android": "https://dc.lft.to/lastmile_qr_scan", "ios": "https://dc.lft.to/lastmile_qr_scan"}, "is_reserved": 0, "is_disabled": 0, "name": "c7eec97ef6cdb4420bc7e81cdd5b362e", "bike_id": "c7eec97ef6cdb4420bc7e81cdd5b362e", "fusion_lat": 0.0, "lon": -77.01209866666666, "type": "electric_scooter", "fusion_lon": 0.0, "lat": 38.91824366666667}, {"rental_uris": {"android": "https://dc.lft.to/lastmile_qr_scan", "ios": "https://dc.lft.to/lastmile_qr_scan"}, "is_reserved": 0, "is_disabled": 0, "name": "80c13b23ea6016230058f2d3931e951f", "bike_id": "80c13b23ea6016230058f2d3931e951f", "fusion_lat": 0.0, "lon": -77.02487883333333, "type": "electric_scooter", "fusion_lon": 0.0, "lat": 38.91922316666667}, {"rental_uris": {"android": "https://dc.lft.to/lastmile_qr_scan", "ios": "https://dc.lft.to/lastmile_qr_scan"}, "is_reserved": 0, "is_disabled": 0, "name": "fc729555bd2a2720cd131c06fd59bd0b", "bike_id": "fc729555bd2a2720cd131c06fd59bd0b", "fusion_lat": 0.0, "lon": -77.03187866666667, "type": "electric_scooter", "fusion_lon": 0.0, "lat": 38.908121666666666}, {"rental_uris": {"android": "https://dc.lft.to/lastmile_qr_scan", "ios": "https://dc.lft.to/lastmile_qr_scan"}, "is_reserved": 0, "is_disabled": 0, "name": "5810f8439dd01da3564ffed03f01fdd4", "bike_id": "5810f8439dd01da3564ffed03f01fdd4", "fusion_lat": 0.0, "lon": -77.03445966666666, "type": "electric_scooter", "fusion_lon": 0.0, "lat": 38.9094945}, {"rental_uris": {"android": "https://dc.lft.to/lastmile_qr_scan", "ios": "https://dc.lft.to/lastmile_qr_scan"}, "is_reserved": 0, "is_disabled": 0, "name": "c0296bcb53030fd4e829949fb3984fa9", "bike_id": "c0296bcb53030fd4e829949fb3984fa9", "fusion_lat": 0.0, "lon": -76.989411, "type": "electric_scooter", "fusion_lon": 0.0, "lat": 38.90400233333333}, {"rental_uris": {"android": "https://dc.lft.to/lastmile_qr_scan", "ios": "https://dc.lft.to/lastmile_qr_scan"}, "is_reserved": 0, "is_disabled": 0, "name": "f610e0d7cf8f758ccd858a8e3871ff92", "bike_id": "f610e0d7cf8f758ccd858a8e3871ff92", "fusion_lat": 0.0, "lon": -77.060121, "type": "electric_scooter", "fusion_lon": 0.0, "lat": 38.90504}, {"rental_uris": {"android": "https://dc.lft.to/lastmile_qr_scan", "ios": "https://dc.lft.to/lastmile_qr_scan"}, "is_reserved": 0, "is_disabled": 0, "name": "710485d4ac1d9cebce3a4b825fdd66c6", "bike_id": "710485d4ac1d9cebce3a4b825fdd66c6", "fusion_lat": 0.0, "lon": -77.16235483333334, "type": "electric_bike", "fusion_lon": 0.0, "lat": 38.88687916666667}, {"rental_uris": {"android": "https://dc.lft.to/lastmile_qr_scan", "ios": "https://dc.lft.to/lastmile_qr_scan"}, "is_reserved": 0, "is_disabled": 0, "name": "32a2283b08d34b20c05f30a22808ef03", "bike_id": "32a2283b08d34b20c05f30a22808ef03", "fusion_lat": 0.0, "lon": -76.941793, "type": "electric_scooter", "fusion_lon": 0.0, "lat": 38.89274116666667}, {"rental_uris": {"android": "https://dc.lft.to/lastmile_qr_scan", "ios": "https://dc.lft.to/lastmile_qr_scan"}, "is_reserved": 0, "is_disabled": 0, "name": "724af9ac70a12de6fb7a937f4e7e3ff6", "bike_id": "724af9ac70a12de6fb7a937f4e7e3ff6", "fusion_lat": 0.0, "lon": -77.0186835, "type": "electric_scooter", "fusion_lon": 0.0, "lat": 38.9291475}, {"rental_uris": {"android": "https://dc.lft.to/lastmile_qr_scan", "ios": "https://dc.lft.to/lastmile_qr_scan"}, "is_reserved": 0, "is_disabled": 0, "name": "23696591b24fa708ec6ba5c27dfc7db7", "bike_id": "23696591b24fa708ec6ba5c27dfc7db7", "fusion_lat": 0.0, "lon": -77.03637633333334, "type": "electric_scooter", "fusion_lon": 0.0, "lat": 38.917999333333334}, {"rental_uris": {"android": "https://dc.lft.to/lastmile_qr_scan", "ios": "https://dc.lft.to/lastmile_qr_scan"}, "is_reserved": 0, "is_disabled": 0, "name": "33053ec9755d24790a55f6ad16ac73b1", "bike_id": "33053ec9755d24790a55f6ad16ac73b1", "fusion_lat": 0.0, "lon": -77.01943716666666, "type": "electric_scooter", "fusion_lon": 0.0, "lat": 38.92420033333333}, {"rental_uris": {"android": "https://dc.lft.to/lastmile_qr_scan", "ios": "https://dc.lft.to/lastmile_qr_scan"}, "is_reserved": 0, "is_disabled": 0, "name": "c497861468ef237e28d8c670d6420fea", "bike_id": "c497861468ef237e28d8c670d6420fea", "fusion_lat": 0.0, "lon": -77.02411216666667, "type": "electric_scooter", "fusion_lon": 0.0, "lat": 38.89225183333333}, {"rental_uris": {"android": "https://dc.lft.to/lastmile_qr_scan", "ios": "https://dc.lft.to/lastmile_qr_scan"}, "is_reserved": 0, "is_disabled": 0, "name": "c1aa00662b9c9ee51f2a63a7f0222eb1", "bike_id": "c1aa00662b9c9ee51f2a63a7f0222eb1", "fusion_lat": 0.0, "lon": -77.03279466666666, "type": "electric_scooter", "fusion_lon": 0.0, "lat": 38.89889016666667}, {"rental_uris": {"android": "https://dc.lft.to/lastmile_qr_scan", "ios": "https://dc.lft.to/lastmile_qr_scan"}, "is_reserved": 0, "is_disabled": 0, "name": "0d798e555be87023dc1cf1bdd710f86c", "bike_id": "0d798e555be87023dc1cf1bdd710f86c", "fusion_lat": 0.0, "lon": -77.0901285, "type": "electric_bike", "fusion_lon": 0.0, "lat": 38.926482666666665}, {"rental_uris": {"android": "https://dc.lft.to/lastmile_qr_scan", "ios": "https://dc.lft.to/lastmile_qr_scan"}, "is_reserved": 0, "is_disabled": 0, "name": "b9a336605937e36393c3de3a796c04eb", "bike_id": "b9a336605937e36393c3de3a796c04eb", "fusion_lat": 0.0, "lon": -77.02945633333333, "type": "electric_scooter", "fusion_lon": 0.0, "lat": 38.94310883333333}, {"rental_uris": {"android": "https://dc.lft.to/lastmile_qr_scan", "ios": "https://dc.lft.to/lastmile_qr_scan"}, "is_reserved": 0, "is_disabled": 0, "name": "1a11543f116ef79249815dc63a059156", "bike_id": "1a11543f116ef79249815dc63a059156", "fusion_lat": 0.0, "lon": -77.036936, "type": "electric_scooter", "fusion_lon": 0.0, "lat": 38.9170505}, {"rental_uris": {"android": "https://dc.lft.to/lastmile_qr_scan", "ios": "https://dc.lft.to/lastmile_qr_scan"}, "is_reserved": 0, "is_disabled": 0, "name": "31940ea6ec721b72ee6c2872f665ba98", "bike_id": "31940ea6ec721b72ee6c2872f665ba98", "fusion_lat": 0.0, "lon": -76.95697566666666, "type": "electric_bike", "fusion_lon": 0.0, "lat": 38.85094216666667}, {"rental_uris": {"android": "https://dc.lft.to/lastmile_qr_scan", "ios": "https://dc.lft.to/lastmile_qr_scan"}, "is_reserved": 0, "is_disabled": 0, "name": "5a19213467ac9073f3940915ce0e5147", "bike_id": "5a19213467ac9073f3940915ce0e5147", "fusion_lat": 0.0, "lon": -77.02578233333334, "type": "electric_scooter", "fusion_lon": 0.0, "lat": 38.89594116666667}, {"rental_uris": {"android": "https://dc.lft.to/lastmile_qr_scan", "ios": "https://dc.lft.to/lastmile_qr_scan"}, "is_reserved": 0, "is_disabled": 0, "name": "5b7dd62e3c9b72a0e3cb7210ad1628e3", "bike_id": "5b7dd62e3c9b72a0e3cb7210ad1628e3", "fusion_lat": 0.0, "lon": -77.008238, "type": "electric_scooter", "fusion_lon": 0.0, "lat": 38.876517}, {"rental_uris": {"android": "https://dc.lft.to/lastmile_qr_scan", "ios": "https://dc.lft.to/lastmile_qr_scan"}, "is_reserved": 0, "is_disabled": 0, "name": "42536c1270403fbf9a0fd32125debf55", "bike_id": "42536c1270403fbf9a0fd32125debf55", "fusion_lat": 0.0, "lon": -77.046529, "type": "electric_scooter", "fusion_lon": 0.0, "lat": 38.909505333333335}, {"rental_uris": {"android": "https://dc.lft.to/lastmile_qr_scan", "ios": "https://dc.lft.to/lastmile_qr_scan"}, "is_reserved": 0, "is_disabled": 0, "name": "13015b6c17c6613edf94f93131f85471", "bike_id": "13015b6c17c6613edf94f93131f85471", "fusion_lat": 0.0, "lon": -77.0272555, "type": "electric_scooter", "fusion_lon": 0.0, "lat": 38.898509833333335}, {"rental_uris": {"android": "https://dc.lft.to/lastmile_qr_scan", "ios": "https://dc.lft.to/lastmile_qr_scan"}, "is_reserved": 0, "is_disabled": 0, "name": "97333a92439c7c944fd75ab597d4b271", "bike_id": "97333a92439c7c944fd75ab597d4b271", "fusion_lat": 0.0, "lon": -77.02404133333333, "type": "electric_scooter", "fusion_lon": 0.0, "lat": 38.901869833333336}, {"rental_uris": {"android": "https://dc.lft.to/lastmile_qr_scan", "ios": "https://dc.lft.to/lastmile_qr_scan"}, "is_reserved": 0, "is_disabled": 0, "name": "3c008675ccac4a681276b9e1e9e468cf", "bike_id": "3c008675ccac4a681276b9e1e9e468cf", "fusion_lat": 0.0, "lon": -76.98830666666667, "type": "electric_scooter", "fusion_lon": 0.0, "lat": 38.900418333333334}, {"rental_uris": {"android": "https://dc.lft.to/lastmile_qr_scan", "ios": "https://dc.lft.to/lastmile_qr_scan"}, "is_reserved": 0, "is_disabled": 0, "name": "17ac899d234c2946783214b5f929b707", "bike_id": "17ac899d234c2946783214b5f929b707", "fusion_lat": 0.0, "lon": -77.03212833333333, "type": "electric_scooter", "fusion_lon": 0.0, "lat": 38.89238733333333}, {"rental_uris": {"android": "https://dc.lft.to/lastmile_qr_scan", "ios": "https://dc.lft.to/lastmile_qr_scan"}, "is_reserved": 0, "is_disabled": 0, "name": "c10b9da8b61fdc4688302c0f7efe1157", "bike_id": "c10b9da8b61fdc4688302c0f7efe1157", "fusion_lat": 0.0, "lon": -77.0652585, "type": "electric_bike", "fusion_lon": 0.0, "lat": 38.992327833333334}, {"rental_uris": {"android": "https://dc.lft.to/lastmile_qr_scan", "ios": "https://dc.lft.to/lastmile_qr_scan"}, "is_reserved": 0, "is_disabled": 0, "name": "5445de7153a86d4a32d6060d187d4ea7", "bike_id": "5445de7153a86d4a32d6060d187d4ea7", "fusion_lat": 0.0, "lon": -77.02495183333333, "type": "electric_scooter", "fusion_lon": 0.0, "lat": 38.925945666666664}, {"rental_uris": {"android": "https://dc.lft.to/lastmile_qr_scan", "ios": "https://dc.lft.to/lastmile_qr_scan"}, "is_reserved": 0, "is_disabled": 0, "name": "760e4d0c4222940ca705e91a772465a2", "bike_id": "760e4d0c4222940ca705e91a772465a2", "fusion_lat": 0.0, "lon": -76.9792255, "type": "electric_scooter", "fusion_lon": 0.0, "lat": 38.902584833333336}, {"rental_uris": {"android": "https://dc.lft.to/lastmile_qr_scan", "ios": "https://dc.lft.to/lastmile_qr_scan"}, "is_reserved": 0, "is_disabled": 0, "name": "403a00c82a487eb358fac8d81b358276", "bike_id": "403a00c82a487eb358fac8d81b358276", "fusion_lat": 0.0, "lon": -76.98239816666667, "type": "electric_scooter", "fusion_lon": 0.0, "lat": 38.908925333333336}, {"rental_uris": {"android": "https://dc.lft.to/lastmile_qr_scan", "ios": "https://dc.lft.to/lastmile_qr_scan"}, "is_reserved": 0, "is_disabled": 0, "name": "0f28b8908c4eab941fda09c311862ba4", "bike_id": "0f28b8908c4eab941fda09c311862ba4", "fusion_lat": 0.0, "lon": -77.016549, "type": "electric_bike", "fusion_lon": 0.0, "lat": 38.88126183333333}, {"rental_uris": {"android": "https://dc.lft.to/lastmile_qr_scan", "ios": "https://dc.lft.to/lastmile_qr_scan"}, "is_reserved": 0, "is_disabled": 0, "name": "1544856995154b1278ee5a7ac3576a8b", "bike_id": "1544856995154b1278ee5a7ac3576a8b", "fusion_lat": 0.0, "lon": -76.9321685, "type": "electric_scooter", "fusion_lon": 0.0, "lat": 38.880569666666666}, {"rental_uris": {"android": "https://dc.lft.to/lastmile_qr_scan", "ios": "https://dc.lft.to/lastmile_qr_scan"}, "is_reserved": 0, "is_disabled": 0, "name": "25750c166cd95a67f8716986c5a9183b", "bike_id": "25750c166cd95a67f8716986c5a9183b", "fusion_lat": 0.0, "lon": -77.03171366666666, "type": "electric_scooter", "fusion_lon": 0.0, "lat": 38.915652333333334}, {"rental_uris": {"android": "https://dc.lft.to/lastmile_qr_scan", "ios": "https://dc.lft.to/lastmile_qr_scan"}, "is_reserved": 0, "is_disabled": 0, "name": "4bb9567801a4aa2b9736656271195132", "bike_id": "4bb9567801a4aa2b9736656271195132", "fusion_lat": 0.0, "lon": -77.0082175, "type": "electric_scooter", "fusion_lon": 0.0, "lat": 38.876521833333335}, {"rental_uris": {"android": "https://dc.lft.to/lastmile_qr_scan", "ios": "https://dc.lft.to/lastmile_qr_scan"}, "is_reserved": 0, "is_disabled": 0, "name": "1510b7617be7fbe99e2a957276b9e9f4", "bike_id": "1510b7617be7fbe99e2a957276b9e9f4", "fusion_lat": 0.0, "lon": -77.04983533333333, "type": "electric_scooter", "fusion_lon": 0.0, "lat": 38.897292666666665}, {"rental_uris": {"android": "https://dc.lft.to/lastmile_qr_scan", "ios": "https://dc.lft.to/lastmile_qr_scan"}, "is_reserved": 0, "is_disabled": 0, "name": "255e342fd53426a81d3f76f8bb9614ac", "bike_id": "255e342fd53426a81d3f76f8bb9614ac", "fusion_lat": 0.0, "lon": -77.04014833333333, "type": "electric_scooter", "fusion_lon": 0.0, "lat": 38.9180505}, {"rental_uris": {"android": "https://dc.lft.to/lastmile_qr_scan", "ios": "https://dc.lft.to/lastmile_qr_scan"}, "is_reserved": 0, "is_disabled": 0, "name": "e8c13a52f8b5816e9c2fdeda4e0e5a88", "bike_id": "e8c13a52f8b5816e9c2fdeda4e0e5a88", "fusion_lat": 0.0, "lon": -77.03166016666667, "type": "electric_scooter", "fusion_lon": 0.0, "lat": 38.911234}, {"rental_uris": {"android": "https://dc.lft.to/lastmile_qr_scan", "ios": "https://dc.lft.to/lastmile_qr_scan"}, "is_reserved": 0, "is_disabled": 0, "name": "1c6ce058ced44554d0522c96cb4a9f1d", "bike_id": "1c6ce058ced44554d0522c96cb4a9f1d", "fusion_lat": 0.0, "lon": -77.07164116666667, "type": "electric_scooter", "fusion_lon": 0.0, "lat": 38.907773166666665}, {"rental_uris": {"android": "https://dc.lft.to/lastmile_qr_scan", "ios": "https://dc.lft.to/lastmile_qr_scan"}, "is_reserved": 0, "is_disabled": 0, "name": "888c1b8a0398829f58659af3fcb9ecdb", "bike_id": "888c1b8a0398829f58659af3fcb9ecdb", "fusion_lat": 0.0, "lon": -77.03458883333333, "type": "electric_scooter", "fusion_lon": 0.0, "lat": 38.902514833333335}, {"rental_uris": {"android": "https://dc.lft.to/lastmile_qr_scan", "ios": "https://dc.lft.to/lastmile_qr_scan"}, "is_reserved": 0, "is_disabled": 0, "name": "8b3d3dc8da67277e01ca55906539c418", "bike_id": "8b3d3dc8da67277e01ca55906539c418", "fusion_lat": 0.0, "lon": -76.96088666666667, "type": "electric_bike", "fusion_lon": 0.0, "lat": 38.918684}, {"rental_uris": {"android": "https://dc.lft.to/lastmile_qr_scan", "ios": "https://dc.lft.to/lastmile_qr_scan"}, "is_reserved": 0, "is_disabled": 0, "name": "c0a5aa12f942cd3ff924c8bf253d95e5", "bike_id": "c0a5aa12f942cd3ff924c8bf253d95e5", "fusion_lat": 0.0, "lon": -77.02555533333333, "type": "electric_scooter", "fusion_lon": 0.0, "lat": 38.95393583333333}, {"rental_uris": {"android": "https://dc.lft.to/lastmile_qr_scan", "ios": "https://dc.lft.to/lastmile_qr_scan"}, "is_reserved": 0, "is_disabled": 0, "name": "a79ff655aaaa4800fb251fd46edf9570", "bike_id": "a79ff655aaaa4800fb251fd46edf9570", "fusion_lat": 0.0, "lon": -77.02181133333333, "type": "electric_scooter", "fusion_lon": 0.0, "lat": 38.892297}, {"rental_uris": {"android": "https://dc.lft.to/lastmile_qr_scan", "ios": "https://dc.lft.to/lastmile_qr_scan"}, "is_reserved": 0, "is_disabled": 0, "name": "ac158a5e64f79c4b4acc4526eb34b630", "bike_id": "ac158a5e64f79c4b4acc4526eb34b630", "fusion_lat": 0.0, "lon": -76.92946366666666, "type": "electric_scooter", "fusion_lon": 0.0, "lat": 38.903530833333335}, {"rental_uris": {"android": "https://dc.lft.to/lastmile_qr_scan", "ios": "https://dc.lft.to/lastmile_qr_scan"}, "is_reserved": 0, "is_disabled": 0, "name": "fee8970e671e69813f6e0eeb992c91ec", "bike_id": "fee8970e671e69813f6e0eeb992c91ec", "fusion_lat": 0.0, "lon": -77.03452566666667, "type": "electric_scooter", "fusion_lon": 0.0, "lat": 38.90641316666667}, {"rental_uris": {"android": "https://dc.lft.to/lastmile_qr_scan", "ios": "https://dc.lft.to/lastmile_qr_scan"}, "is_reserved": 0, "is_disabled": 0, "name": "15035d3ef477ed7b97c043081ea40dc6", "bike_id": "15035d3ef477ed7b97c043081ea40dc6", "fusion_lat": 0.0, "lon": -77.02706166666667, "type": "electric_scooter", "fusion_lon": 0.0, "lat": 38.919653333333336}, {"rental_uris": {"android": "https://dc.lft.to/lastmile_qr_scan", "ios": "https://dc.lft.to/lastmile_qr_scan"}, "is_reserved": 0, "is_disabled": 0, "name": "c2417459068e5b8cf162d470ca425b36", "bike_id": "c2417459068e5b8cf162d470ca425b36", "fusion_lat": 0.0, "lon": -77.04758583333333, "type": "electric_scooter", "fusion_lon": 0.0, "lat": 38.91763733333333}, {"rental_uris": {"android": "https://dc.lft.to/lastmile_qr_scan", "ios": "https://dc.lft.to/lastmile_qr_scan"}, "is_reserved": 0, "is_disabled": 0, "name": "097a852e5f0df4f31bfbc14275676dbf", "bike_id": "097a852e5f0df4f31bfbc14275676dbf", "fusion_lat": 0.0, "lon": -77.043156, "type": "electric_scooter", "fusion_lon": 0.0, "lat": 38.90179666666667}, {"rental_uris": {"android": "https://dc.lft.to/lastmile_qr_scan", "ios": "https://dc.lft.to/lastmile_qr_scan"}, "is_reserved": 0, "is_disabled": 0, "name": "c089c9519718267def9f8fab0d7409c5", "bike_id": "c089c9519718267def9f8fab0d7409c5", "fusion_lat": 0.0, "lon": -77.02184983333333, "type": "electric_scooter", "fusion_lon": 0.0, "lat": 38.920195666666665}, {"rental_uris": {"android": "https://dc.lft.to/lastmile_qr_scan", "ios": "https://dc.lft.to/lastmile_qr_scan"}, "is_reserved": 0, "is_disabled": 0, "name": "eeb9260fc465eca837d9c1432958c6a6", "bike_id": "eeb9260fc465eca837d9c1432958c6a6", "fusion_lat": 0.0, "lon": -77.02235433333334, "type": "electric_scooter", "fusion_lon": 0.0, "lat": 38.9141435}, {"rental_uris": {"android": "https://dc.lft.to/lastmile_qr_scan", "ios": "https://dc.lft.to/lastmile_qr_scan"}, "is_reserved": 0, "is_disabled": 0, "name": "6846d83299c8f4922b85f2194ca6d3b8", "bike_id": "6846d83299c8f4922b85f2194ca6d3b8", "fusion_lat": 0.0, "lon": -76.99869266666667, "type": "electric_bike", "fusion_lon": 0.0, "lat": 38.942929}, {"rental_uris": {"android": "https://dc.lft.to/lastmile_qr_scan", "ios": "https://dc.lft.to/lastmile_qr_scan"}, "is_reserved": 0, "is_disabled": 0, "name": "891a4ea4daf39178c41c0cd3cce184c0", "bike_id": "891a4ea4daf39178c41c0cd3cce184c0", "fusion_lat": 0.0, "lon": -77.00213483333333, "type": "electric_scooter", "fusion_lon": 0.0, "lat": 38.9048275}, {"rental_uris": {"android": "https://dc.lft.to/lastmile_qr_scan", "ios": "https://dc.lft.to/lastmile_qr_scan"}, "is_reserved": 0, "is_disabled": 0, "name": "ed402565d10cd7a33ee770b1d4274116", "bike_id": "ed402565d10cd7a33ee770b1d4274116", "fusion_lat": 0.0, "lon": -77.02276833333333, "type": "electric_scooter", "fusion_lon": 0.0, "lat": 38.89845666666667}, {"rental_uris": {"android": "https://dc.lft.to/lastmile_qr_scan", "ios": "https://dc.lft.to/lastmile_qr_scan"}, "is_reserved": 0, "is_disabled": 0, "name": "aa9387378e5f4805fc286d6b555e2e0c", "bike_id": "aa9387378e5f4805fc286d6b555e2e0c", "fusion_lat": 0.0, "lon": -77.02383916666666, "type": "electric_scooter", "fusion_lon": 0.0, "lat": 38.891999166666665}, {"rental_uris": {"android": "https://dc.lft.to/lastmile_qr_scan", "ios": "https://dc.lft.to/lastmile_qr_scan"}, "is_reserved": 0, "is_disabled": 0, "name": "b80fbf87678dd5db330545e94ceb6338", "bike_id": "b80fbf87678dd5db330545e94ceb6338", "fusion_lat": 0.0, "lon": -77.04540333333334, "type": "electric_scooter", "fusion_lon": 0.0, "lat": 38.90141116666667}, {"rental_uris": {"android": "https://dc.lft.to/lastmile_qr_scan", "ios": "https://dc.lft.to/lastmile_qr_scan"}, "is_reserved": 0, "is_disabled": 0, "name": "39dfd7bb4f37a23caebc3e939d187909", "bike_id": "39dfd7bb4f37a23caebc3e939d187909", "fusion_lat": 0.0, "lon": -77.0267005, "type": "electric_scooter", "fusion_lon": 0.0, "lat": 38.9248325}, {"rental_uris": {"android": "https://dc.lft.to/lastmile_qr_scan", "ios": "https://dc.lft.to/lastmile_qr_scan"}, "is_reserved": 0, "is_disabled": 0, "name": "14de7f022b59cf6158860701361e3d30", "bike_id": "14de7f022b59cf6158860701361e3d30", "fusion_lat": 0.0, "lon": -77.12736866666667, "type": "electric_bike", "fusion_lon": 0.0, "lat": 38.895691}, {"rental_uris": {"android": "https://dc.lft.to/lastmile_qr_scan", "ios": "https://dc.lft.to/lastmile_qr_scan"}, "is_reserved": 0, "is_disabled": 0, "name": "c16274a843a0cab9910b2182192aeba9", "bike_id": "c16274a843a0cab9910b2182192aeba9", "fusion_lat": 0.0, "lon": -77.05916616666667, "type": "electric_scooter", "fusion_lon": 0.0, "lat": 38.902271999999996}, {"rental_uris": {"android": "https://dc.lft.to/lastmile_qr_scan", "ios": "https://dc.lft.to/lastmile_qr_scan"}, "is_reserved": 0, "is_disabled": 0, "name": "738caaa7a599ca9b8d6ce22a331ae738", "bike_id": "738caaa7a599ca9b8d6ce22a331ae738", "fusion_lat": 0.0, "lon": -77.02188066666666, "type": "electric_scooter", "fusion_lon": 0.0, "lat": 38.895329333333336}, {"rental_uris": {"android": "https://dc.lft.to/lastmile_qr_scan", "ios": "https://dc.lft.to/lastmile_qr_scan"}, "is_reserved": 0, "is_disabled": 0, "name": "c3d377315aaad35abb93a83c1297e75d", "bike_id": "c3d377315aaad35abb93a83c1297e75d", "fusion_lat": 0.0, "lon": -77.00586183333333, "type": "electric_bike", "fusion_lon": 0.0, "lat": 38.90024533333333}, {"rental_uris": {"android": "https://dc.lft.to/lastmile_qr_scan", "ios": "https://dc.lft.to/lastmile_qr_scan"}, "is_reserved": 0, "is_disabled": 0, "name": "e92b58535a4482de220daf5ec1dd9795", "bike_id": "e92b58535a4482de220daf5ec1dd9795", "fusion_lat": 0.0, "lon": -76.94584833333333, "type": "electric_scooter", "fusion_lon": 0.0, "lat": 38.89934866666667},