{"data": {"bikes": [{"fusion_lat": 0.0, "name": "0425f1052284c808fb275e14a6ec9dc7", "is_disabled": 0, "rental_uris": {"android": "https://dc.lft.to/lastmile_qr_scan", "ios": "https://dc.lft.to/lastmile_qr_scan"}, "fusion_lon": 0.0, "lat": 38.91945833333333, "bike_id": "0425f1052284c808fb275e14a6ec9dc7", "type": "electric_scooter", "is_reserved": 0, "lon": -77.04170716666667}, {"fusion_lat": 0.0, "name": "761ed2057a21c75f8155bcca8ab1bd64", "is_disabled": 0, "rental_uris": {"android": "https://dc.lft.to/lastmile_qr_scan", "ios": "https://dc.lft.to/lastmile_qr_scan"}, "fusion_lon": 0.0, "lat": 38.924307666666664, "bike_id": "761ed2057a21c75f8155bcca8ab1bd64", "type": "electric_scooter", "is_reserved": 0, "lon": -77.0201175}, {"fusion_lat": 0.0, "name": "0ceb7190e155c5ff6af9f015941e4135", "is_disabled": 0, "rental_uris": {"android": "https://dc.lft.to/lastmile_qr_scan", "ios": "https://dc.lft.to/lastmile_qr_scan"}, "fusion_lon": 0.0, "lat": 38.914039, "bike_id": "0ceb7190e155c5ff6af9f015941e4135", "type": "electric_scooter", "is_reserved": 0, "lon": -77.022087}, {"fusion_lat": 0.0, "name": "8722ce02e5967e04fc2d14b65b071d07", "is_disabled": 0, "rental_uris": {"android": "https://dc.lft.to/lastmile_qr_scan", "ios": "https://dc.lft.to/lastmile_qr_scan"}, "fusion_lon": 0.0, "lat": 38.99229, "bike_id": "8722ce02e5967e04fc2d14b65b071d07", "type": "electric_bike", "is_reserved": 0, "lon": -76.94416466666667}, {"fusion_lat": 0.0, "name": "dff89b2917e0d86d1dfcf5ff4f9b09f7", "is_disabled": 0, "rental_uris": {"android": "https://dc.lft.to/lastmile_qr_scan", "ios": "https://dc.lft.to/lastmile_qr_scan"}, "fusion_lon": 0.0, "lat": 38.9164735, "bike_id": "dff89b2917e0d86d1dfcf5ff4f9b09f7", "type": "electric_scooter", "is_reserved": 0, "lon": -77.021762}, {"fusion_lat": 0.0, "name": "51fe73e20de380400ba773b34145a30d", "is_disabled": 0, "rental_uris": {"android": "https://dc.lft.to/lastmile_qr_scan", "ios": "https://dc.lft.to/lastmile_qr_scan"}, "fusion_lon": 0.0, "lat": 38.92136933333333, "bike_id": "51fe73e20de380400ba773b34145a30d", "type": "electric_scooter", "is_reserved": 0, "lon": -77.00405766666667}, {"fusion_lat": 0.0, "name": "82d441c36c8dbb5a7a965132a6d6b459", "is_disabled": 0, "rental_uris": {"android": "https://dc.lft.to/lastmile_qr_scan", "ios": "https://dc.lft.to/lastmile_qr_scan"}, "fusion_lon": 0.0, "lat": 38.908058833333335, "bike_id": "82d441c36c8dbb5a7a965132a6d6b459", "type": "electric_scooter", "is_reserved": 0, "lon": -77.0294705}, {"fusion_lat": 0.0, "name": "2e19ea88607a10265413ce0cf901323a", "is_disabled": 0, "rental_uris": {"android": "https://dc.lft.to/lastmile_qr_scan", "ios": "https://dc.lft.to/lastmile_qr_scan"}, "fusion_lon": 0.0, "lat": 38.903566, "bike_id": "2e19ea88607a10265413ce0cf901323a", "type": "electric_scooter", "is_reserved": 0, "lon": -77.03636666666667}, {"fusion_lat": 0.0, "name": "bb9c78c73b2162d729b903688eae24e6", "is_disabled": 0, "rental_uris": {"android": "https://dc.lft.to/lastmile_qr_scan", "ios": "https://dc.lft.to/lastmile_qr_scan"}, "fusion_lon": 0.0, "lat": 38.9260195, "bike_id": "bb9c78c73b2162d729b903688eae24e6", "type": "electric_bike", "is_reserved": 0, "lon": -77.06424983333334}, {"fusion_lat": 0.0, "name": "462e2973ff794bdb0531f14d40556597", "is_disabled": 0, "rental_uris": {"android": "https://dc.lft.to/lastmile_qr_scan", "ios": "https://dc.lft.to/lastmile_qr_scan"}, "fusion_lon": 0.0, "lat": 38.987907166666666, "bike_id": "462e2973ff794bdb0531f14d40556597", "type": "electric_scooter", "is_reserved": 0, "lon": -77.0241795}, {"fusion_lat": 0.0, "name": "a90f6b9be3334e1fa20b2d576fb5eb0d", "is_disabled": 0, "rental_uris": {"android": "https://dc.lft.to/lastmile_qr_scan", "ios": "https://dc.lft.to/lastmile_qr_scan"}, "fusion_lon": 0.0, "lat": 38.926517833333335, "bike_id": "a90f6b9be3334e1fa20b2d576fb5eb0d", "type": "electric_scooter", "is_reserved": 0, "lon": -77.0259495}, {"fusion_lat": 0.0, "name": "e75b79dc3a73b134e29d858592317d3f", "is_disabled": 0, "rental_uris": {"android": "https://dc.lft.to/lastmile_qr_scan", "ios": "https://dc.lft.to/lastmile_qr_scan"}, "fusion_lon": 0.0, "lat": 38.877395166666666, "bike_id": "e75b79dc3a73b134e29d858592317d3f", "type": "electric_scooter", "is_reserved": 0, "lon": -76.9703425}, {"fusion_lat": 0.0, "name": "f51d7893c92f0f82db3b3a726dc3d6cc", "is_disabled": 0, "rental_uris": {"android": "https://dc.lft.to/lastmile_qr_scan", "ios": "https://dc.lft.to/lastmile_qr_scan"}, "fusion_lon": 0.0, "lat": 38.904003, "bike_id": "f51d7893c92f0f82db3b3a726dc3d6cc", "type": "electric_scooter", "is_reserved": 0, "lon": -77.04891566666667}, {"fusion_lat": 0.0, "name": "4bfc9eb2e025931d54a2be37d62a3866", "is_disabled": 0, "rental_uris": {"android": "https://dc.lft.to/lastmile_qr_scan", "ios": "https://dc.lft.to/lastmile_qr_scan"}, "fusion_lon": 0.0, "lat": 38.8923455, "bike_id": "4bfc9eb2e025931d54a2be37d62a3866", "type": "electric_scooter", "is_reserved": 0, "lon": -77.04872033333334}, {"fusion_lat": 0.0, "name": "aeed4d8ecde2935f9948674336879730", "is_disabled": 0, "rental_uris": {"android": "https://dc.lft.to/lastmile_qr_scan", "ios": "https://dc.lft.to/lastmile_qr_scan"}, "fusion_lon": 0.0, "lat": 38.929885166666665, "bike_id": "aeed4d8ecde2935f9948674336879730", "type": "electric_scooter", "is_reserved": 0, "lon": -77.03663033333333}, {"fusion_lat": 0.0, "name": "115ff96aea2443f0603d91637049165b", "is_disabled": 0, "rental_uris": {"android": "https://dc.lft.to/lastmile_qr_scan", "ios": "https://dc.lft.to/lastmile_qr_scan"}, "fusion_lon": 0.0, "lat": 38.91818166666667, "bike_id": "115ff96aea2443f0603d91637049165b", "type": "electric_scooter", "is_reserved": 0, "lon": -77.040027}, {"fusion_lat": 0.0, "name": "8a02962fe95bf9734cd59137456ef048", "is_disabled": 0, "rental_uris": {"android": "https://dc.lft.to/lastmile_qr_scan", "ios": "https://dc.lft.to/lastmile_qr_scan"}, "fusion_lon": 0.0, "lat": 38.912678166666666, "bike_id": "8a02962fe95bf9734cd59137456ef048", "type": "electric_scooter", "is_reserved": 0, "lon": -77.02822883333333}, {"fusion_lat": 0.0, "name": "e5ee3b829a4c0350906c61715ffe17ed", "is_disabled": 0, "rental_uris": {"android": "https://dc.lft.to/lastmile_qr_scan", "ios": "https://dc.lft.to/lastmile_qr_scan"}, "fusion_lon": 0.0, "lat": 38.9560505, "bike_id": "e5ee3b829a4c0350906c61715ffe17ed", "type": "electric_scooter", "is_reserved": 0, "lon": -77.033563}, {"fusion_lat": 0.0, "name": "36f4192dfd0309e564ea549507cae446", "is_disabled": 0, "rental_uris": {"android": "https://dc.lft.to/lastmile_qr_scan", "ios": "https://dc.lft.to/lastmile_qr_scan"}, "fusion_lon": 0.0, "lat": 38.898418666666664, "bike_id": "36f4192dfd0309e564ea549507cae446", "type": "electric_scooter", "is_reserved": 0, "lon": -77.02966516666666}, {"fusion_lat": 0.0, "name": "cd333386b39942c7d76829a259379f15", "is_disabled": 0, "rental_uris": {"android": "https://dc.lft.to/lastmile_qr_scan", "ios": "https://dc.lft.to/lastmile_qr_scan"}, "fusion_lon": 0.0, "lat": 38.93778266666666, "bike_id": "cd333386b39942c7d76829a259379f15", "type": "electric_scooter", "is_reserved": 0, "lon": -77.032671}, {"fusion_lat": 0.0, "name": "f6b7576e40fc18274eb0554ae40512c6", "is_disabled": 0, "rental_uris": {"android": "https://dc.lft.to/lastmile_qr_scan", "ios": "https://dc.lft.to/lastmile_qr_scan"}, "fusion_lon": 0.0, "lat": 38.95097883333333, "bike_id": "f6b7576e40fc18274eb0554ae40512c6", "type": "electric_scooter", "is_reserved": 0, "lon": -77.029633}, {"fusion_lat": 0.0, "name": "191941b46112f75fa31bf418bbc126ba", "is_disabled": 0, "rental_uris": {"android": "https://dc.lft.to/lastmile_qr_scan", "ios": "https://dc.lft.to/lastmile_qr_scan"}, "fusion_lon": 0.0, "lat": 38.91192783333334, "bike_id": "191941b46112f75fa31bf418bbc126ba", "type": "electric_scooter", "is_reserved": 0, "lon": -77.03759033333333}, {"fusion_lat": 0.0, "name": "e8f58bfd7a63f70cf48762b6e9db42b2", "is_disabled": 0, "rental_uris": {"android": "https://dc.lft.to/lastmile_qr_scan", "ios": "https://dc.lft.to/lastmile_qr_scan"}, "fusion_lon": 0.0, "lat": 38.892156, "bike_id": "e8f58bfd7a63f70cf48762b6e9db42b2", "type": "electric_scooter", "is_reserved": 0, "lon": -76.99576316666666}, {"fusion_lat": 0.0, "name": "93f674a5966fd2fa8de1f7ab5d3f2558", "is_disabled": 0, "rental_uris": {"android": "https://dc.lft.to/lastmile_qr_scan", "ios": "https://dc.lft.to/lastmile_qr_scan"}, "fusion_lon": 0.0, "lat": 38.9310515, "bike_id": "93f674a5966fd2fa8de1f7ab5d3f2558", "type": "electric_scooter", "is_reserved": 0, "lon": -77.02376133333334}, {"fusion_lat": 0.0, "name": "d1aa0d018179eb45909d13f3d02641c4", "is_disabled": 0, "rental_uris": {"android": "https://dc.lft.to/lastmile_qr_scan", "ios": "https://dc.lft.to/lastmile_qr_scan"}, "fusion_lon": 0.0, "lat": 38.92758116666667, "bike_id": "d1aa0d018179eb45909d13f3d02641c4", "type": "electric_scooter", "is_reserved": 0, "lon": -77.02427166666666}, {"fusion_lat": 0.0, "name": "96ffe69a721ca6ce6d35d8cd94d541fa", "is_disabled": 0, "rental_uris": {"android": "https://dc.lft.to/lastmile_qr_scan", "ios": "https://dc.lft.to/lastmile_qr_scan"}, "fusion_lon": 0.0, "lat": 38.901217, "bike_id": "96ffe69a721ca6ce6d35d8cd94d541fa", "type": "electric_scooter", "is_reserved": 0, "lon": -77.00210516666667}, {"fusion_lat": 0.0, "name": "643a2e58e112cdae553e54090fa70610", "is_disabled": 0, "rental_uris": {"android": "https://dc.lft.to/lastmile_qr_scan", "ios": "https://dc.lft.to/lastmile_qr_scan"}, "fusion_lon": 0.0, "lat": 38.91697, "bike_id": "643a2e58e112cdae553e54090fa70610", "type": "electric_scooter", "is_reserved": 0, "lon": -77.03769283333334}, {"fusion_lat": 0.0, "name": "fc46b3dd9f0aa64a8c968df8658b0d47", "is_disabled": 0, "rental_uris": {"android": "https://dc.lft.to/lastmile_qr_scan", "ios": "https://dc.lft.to/lastmile_qr_scan"}, "fusion_lon": 0.0, "lat": 38.875339833333335, "bike_id": "fc46b3dd9f0aa64a8c968df8658b0d47", "type": "electric_scooter", "is_reserved": 0, "lon": -77.00505983333333}, {"fusion_lat": 0.0, "name": "9f633347cf42343855d95bcdb7661b3c", "is_disabled": 0, "rental_uris": {"android": "https://dc.lft.to/lastmile_qr_scan", "ios": "https://dc.lft.to/lastmile_qr_scan"}, "fusion_lon": 0.0, "lat": 38.89543183333333, "bike_id": "9f633347cf42343855d95bcdb7661b3c", "type": "electric_scooter", "is_reserved": 0, "lon": -76.94955833333333}, {"fusion_lat": 0.0, "name": "6e2a87224c05d9298e0ae236c4ca7665", "is_disabled": 0, "rental_uris": {"android": "https://dc.lft.to/lastmile_qr_scan", "ios": "https://dc.lft.to/lastmile_qr_scan"}, "fusion_lon": 0.0, "lat": 38.871819333333335, "bike_id": "6e2a87224c05d9298e0ae236c4ca7665", "type": "electric_scooter", "is_reserved": 0, "lon": -77.0061285}, {"fusion_lat": 0.0, "name": "b74814d2b79ce05598827a8d62331938", "is_disabled": 0, "rental_uris": {"android": "https://dc.lft.to/lastmile_qr_scan", "ios": "https://dc.lft.to/lastmile_qr_scan"}, "fusion_lon": 0.0, "lat": 38.937026833333334, "bike_id": "b74814d2b79ce05598827a8d62331938", "type": "electric_scooter", "is_reserved": 0, "lon": -77.05597916666666}, {"fusion_lat": 0.0, "name": "40d0f90f917bdc25a80e6697ddbd16b7", "is_disabled": 0, "rental_uris": {"android": "https://dc.lft.to/lastmile_qr_scan", "ios": "https://dc.lft.to/lastmile_qr_scan"}, "fusion_lon": 0.0, "lat": 38.89659433333333, "bike_id": "40d0f90f917bdc25a80e6697ddbd16b7", "type": "electric_scooter", "is_reserved": 0, "lon": -77.03351233333333}, {"fusion_lat": 0.0, "name": "a6086aeb164a062071c7080fc6eeb931", "is_disabled": 0, "rental_uris": {"android": "https://dc.lft.to/lastmile_qr_scan", "ios": "https://dc.lft.to/lastmile_qr_scan"}, "fusion_lon": 0.0, "lat": 38.88771216666667, "bike_id": "a6086aeb164a062071c7080fc6eeb931", "type": "electric_scooter", "is_reserved": 0, "lon": -77.023731}, {"fusion_lat": 0.0, "name": "1b6a9759d3a7d4657b316727b748dc44", "is_disabled": 0, "rental_uris": {"android": "https://dc.lft.to/lastmile_qr_scan", "ios": "https://dc.lft.to/lastmile_qr_scan"}, "fusion_lon": 0.0, "lat": 38.885395833333334, "bike_id": "1b6a9759d3a7d4657b316727b748dc44", "type": "electric_scooter", "is_reserved": 0, "lon": -76.9826905}, {"fusion_lat": 0.0, "name": "41233c152e7964feac53f61a24c1eca2", "is_disabled": 0, "rental_uris": {"android": "https://dc.lft.to/lastmile_qr_scan", "ios": "https://dc.lft.to/lastmile_qr_scan"}, "fusion_lon": 0.0, "lat": 38.88741866666667, "bike_id": "41233c152e7964feac53f61a24c1eca2", "type": "electric_scooter", "is_reserved": 0, "lon": -77.01513916666667}, {"fusion_lat": 0.0, "name": "3f11fed4b3c6ad658ba1010da529fa9a", "is_disabled": 0, "rental_uris": {"android": "https://dc.lft.to/lastmile_qr_scan", "ios": "https://dc.lft.to/lastmile_qr_scan"}, "fusion_lon": 0.0, "lat": 38.921269, "bike_id": "3f11fed4b3c6ad658ba1010da529fa9a", "type": "electric_scooter", "is_reserved": 0, "lon": -77.047024}, {"fusion_lat": 0.0, "name": "1fee6c6cdbf221450125e751a197da9d", "is_disabled": 0, "rental_uris": {"android": "https://dc.lft.to/lastmile_qr_scan", "ios": "https://dc.lft.to/lastmile_qr_scan"}, "fusion_lon": 0.0, "lat": 38.89199383333333, "bike_id": "1fee6c6cdbf221450125e751a197da9d", "type": "electric_scooter", "is_reserved": 0, "lon": -77.02220083333333}, {"fusion_lat": 0.0, "name": "a4d4b47b46a20095040686ddbe23ee59", "is_disabled": 0, "rental_uris": {"android": "https://dc.lft.to/lastmile_qr_scan", "ios": "https://dc.lft.to/lastmile_qr_scan"}, "fusion_lon": 0.0, "lat": 38.887288833333336, "bike_id": "a4d4b47b46a20095040686ddbe23ee59", "type": "electric_scooter", "is_reserved": 0, "lon": -77.01767016666666}, {"fusion_lat": 0.0, "name": "e01a75b373fe3a0fb30591ec8f42871f", "is_disabled": 0, "rental_uris": {"android": "https://dc.lft.to/lastmile_qr_scan", "ios": "https://dc.lft.to/lastmile_qr_scan"}, "fusion_lon": 0.0, "lat": 38.90064266666667, "bike_id": "e01a75b373fe3a0fb30591ec8f42871f", "type": "electric_scooter", "is_reserved": 0, "lon": -76.92747233333333}, {"fusion_lat": 0.0, "name": "49c043a98e3105aa2d88528780ba15c4", "is_disabled": 0, "rental_uris": {"android": "https://dc.lft.to/lastmile_qr_scan", "ios": "https://dc.lft.to/lastmile_qr_scan"}, "fusion_lon": 0.0, "lat": 38.807609, "bike_id": "49c043a98e3105aa2d88528780ba15c4", "type": "electric_bike", "is_reserved": 0, "lon": -77.1298565}, {"fusion_lat": 0.0, "name": "3c5fba149f425ebb50afe506cfd9adaa", "is_disabled": 0, "rental_uris": {"android": "https://dc.lft.to/lastmile_qr_scan", "ios": "https://dc.lft.to/lastmile_qr_scan"}, "fusion_lon": 0.0, "lat": 38.905620666666664, "bike_id": "3c5fba149f425ebb50afe506cfd9adaa", "type": "electric_scooter", "is_reserved": 0, "lon": -77.0058815}, {"fusion_lat": 0.0, "name": "7a10a3896b1190f32811866dd45af6fb", "is_disabled": 0, "rental_uris": {"android": "https://dc.lft.to/lastmile_qr_scan", "ios": "https://dc.lft.to/lastmile_qr_scan"}, "fusion_lon": 0.0, "lat": 38.9575805, "bike_id": "7a10a3896b1190f32811866dd45af6fb", "type": "electric_scooter", "is_reserved": 0, "lon": -77.02061483333334}, {"fusion_lat": 0.0, "name": "2b1c9fed6ace317e3981eba606baf4b0", "is_disabled": 0, "rental_uris": {"android": "https://dc.lft.to/lastmile_qr_scan", "ios": "https://dc.lft.to/lastmile_qr_scan"}, "fusion_lon": 0.0, "lat": 38.9615395, "bike_id": "2b1c9fed6ace317e3981eba606baf4b0", "type": "electric_scooter", "is_reserved": 0, "lon": -77.03237233333333}, {"fusion_lat": 0.0, "name": "9269a1874217a7bb64579dde8c84d9ca", "is_disabled": 0, "rental_uris": {"android": "https://dc.lft.to/lastmile_qr_scan", "ios": "https://dc.lft.to/lastmile_qr_scan"}, "fusion_lon": 0.0, "lat": 38.896666833333335, "bike_id": "9269a1874217a7bb64579dde8c84d9ca", "type": "electric_scooter", "is_reserved": 0, "lon": -77.05096816666666}, {"fusion_lat": 0.0, "name": "e135ab375caa735ba172c62afc4b8fc9", "is_disabled": 0, "rental_uris": {"android": "https://dc.lft.to/lastmile_qr_scan", "ios": "https://dc.lft.to/lastmile_qr_scan"}, "fusion_lon": 0.0, "lat": 38.92362816666667, "bike_id": "e135ab375caa735ba172c62afc4b8fc9", "type": "electric_scooter", "is_reserved": 0, "lon": -77.05050666666666}, {"fusion_lat": 0.0, "name": "9759a3285d8f2d58e10add335feaecad", "is_disabled": 0, "rental_uris": {"android": "https://dc.lft.to/lastmile_qr_scan", "ios": "https://dc.lft.to/lastmile_qr_scan"}, "fusion_lon": 0.0, "lat": 38.955544833333335, "bike_id": "9759a3285d8f2d58e10add335feaecad", "type": "electric_bike", "is_reserved": 0, "lon": -76.999761}, {"fusion_lat": 0.0, "name": "70f1120b761bdcb4903a8b78c9e5732e", "is_disabled": 0, "rental_uris": {"android": "https://dc.lft.to/lastmile_qr_scan", "ios": "https://dc.lft.to/lastmile_qr_scan"}, "fusion_lon": 0.0, "lat": 38.919934, "bike_id": "70f1120b761bdcb4903a8b78c9e5732e", "type": "electric_bike", "is_reserved": 0, "lon": -77.04760316666666}, {"fusion_lat": 0.0, "name": "7e706022eb6ad039b2692bf4eb89c005", "is_disabled": 0, "rental_uris": {"android": "https://dc.lft.to/lastmile_qr_scan", "ios": "https://dc.lft.to/lastmile_qr_scan"}, "fusion_lon": 0.0, "lat": 38.887476666666664, "bike_id": "7e706022eb6ad039b2692bf4eb89c005", "type": "electric_scooter", "is_reserved": 0, "lon": -77.0278125}, {"fusion_lat": 0.0, "name": "d9303b0950fb54e32a5225160150ecb0", "is_disabled": 0, "rental_uris": {"android": "https://dc.lft.to/lastmile_qr_scan", "ios": "https://dc.lft.to/lastmile_qr_scan"}, "fusion_lon": 0.0, "lat": 38.89909083333333, "bike_id": "d9303b0950fb54e32a5225160150ecb0", "type": "electric_scooter", "is_reserved": 0, "lon": -76.93350116666667}, {"fusion_lat": 0.0, "name": "df1552fb8f84176a3c5b4351f2af5a6d", "is_disabled": 0, "rental_uris": {"android": "https://dc.lft.to/lastmile_qr_scan", "ios": "https://dc.lft.to/lastmile_qr_scan"}, "fusion_lon": 0.0, "lat": 38.923458333333336, "bike_id": "df1552fb8f84176a3c5b4351f2af5a6d", "type": "electric_scooter", "is_reserved": 0, "lon": -77.051815}, {"fusion_lat": 0.0, "name": "eccf79256c949954936576701330763d", "is_disabled": 0, "rental_uris": {"android": "https://dc.lft.to/lastmile_qr_scan", "ios": "https://dc.lft.to/lastmile_qr_scan"}, "fusion_lon": 0.0, "lat": 38.9013305, "bike_id": "eccf79256c949954936576701330763d", "type": "electric_scooter", "is_reserved": 0, "lon": -77.02605}, {"fusion_lat": 0.0, "name": "de86e7dfca57e4baef4f2b51fe016143", "is_disabled": 0, "rental_uris": {"android": "https://dc.lft.to/lastmile_qr_scan", "ios": "https://dc.lft.to/lastmile_qr_scan"}, "fusion_lon": 0.0, "lat": 38.938989666666664, "bike_id": "de86e7dfca57e4baef4f2b51fe016143", "type": "electric_scooter", "is_reserved": 0, "lon": -77.08487166666667}, {"fusion_lat": 0.0, "name": "8e29f678a009dd644f5b2271d3dbaa15", "is_disabled": 0, "rental_uris": {"android": "https://dc.lft.to/lastmile_qr_scan", "ios": "https://dc.lft.to/lastmile_qr_scan"}, "fusion_lon": 0.0, "lat": 39.052509666666666, "bike_id": "8e29f678a009dd644f5b2271d3dbaa15", "type": "electric_bike", "is_reserved": 0, "lon": -77.080694}, {"fusion_lat": 0.0, "name": "f3754e509f4c68597bc9292d4a4cc2ce", "is_disabled": 0, "rental_uris": {"android": "https://dc.lft.to/lastmile_qr_scan", "ios": "https://dc.lft.to/lastmile_qr_scan"}, "fusion_lon": 0.0, "lat": 38.9033695, "bike_id": "f3754e509f4c68597bc9292d4a4cc2ce", "type": "electric_scooter", "is_reserved": 0, "lon": -77.06279983333333}, {"fusion_lat": 0.0, "name": "5c4f07038ea61c86a0eacd22b6c53e56", "is_disabled": 0, "rental_uris": {"android": "https://dc.lft.to/lastmile_qr_scan", "ios": "https://dc.lft.to/lastmile_qr_scan"}, "fusion_lon": 0.0, "lat": 38.89545916666667, "bike_id": "5c4f07038ea61c86a0eacd22b6c53e56", "type": "electric_scooter", "is_reserved": 0, "lon": -76.98097183333333}, {"fusion_lat": 0.0, "name": "123ee80e75a6e62c0d3cd653b95f578b", "is_disabled": 0, "rental_uris": {"android": "https://dc.lft.to/lastmile_qr_scan", "ios": "https://dc.lft.to/lastmile_qr_scan"}, "fusion_lon": 0.0, "lat": 38.884456666666665, "bike_id": "123ee80e75a6e62c0d3cd653b95f578b", "type": "electric_scooter", "is_reserved": 0, "lon": -76.995999}, {"fusion_lat": 0.0, "name": "37833323856966a50f08c05a7f13a3a8", "is_disabled": 0, "rental_uris": {"android": "https://dc.lft.to/lastmile_qr_scan", "ios": "https://dc.lft.to/lastmile_qr_scan"}, "fusion_lon": 0.0, "lat": 38.910058666666664, "bike_id": "37833323856966a50f08c05a7f13a3a8", "type": "electric_scooter", "is_reserved": 0, "lon": -77.04911933333334}, {"fusion_lat": 0.0, "name": "058873227fb425548c5e50a310ea6e7e", "is_disabled": 0, "rental_uris": {"android": "https://dc.lft.to/lastmile_qr_scan", "ios": "https://dc.lft.to/lastmile_qr_scan"}, "fusion_lon": 0.0, "lat": 38.90123533333333, "bike_id": "058873227fb425548c5e50a310ea6e7e", "type": "electric_scooter", "is_reserved": 0, "lon": -77.03920116666667}, {"fusion_lat": 0.0, "name": "f50c998a5f6565268ec32ece11295fce", "is_disabled": 0, "rental_uris": {"android": "https://dc.lft.to/lastmile_qr_scan", "ios": "https://dc.lft.to/lastmile_qr_scan"}, "fusion_lon": 0.0, "lat": 38.92539216666667, "bike_id": "f50c998a5f6565268ec32ece11295fce", "type": "electric_bike", "is_reserved": 0, "lon": -77.07893183333333}, {"fusion_lat": 0.0, "name": "afcc392a3727f5358c2661c36e549aad", "is_disabled": 0, "rental_uris": {"android": "https://dc.lft.to/lastmile_qr_scan", "ios": "https://dc.lft.to/lastmile_qr_scan"}, "fusion_lon": 0.0, "lat": 38.84756016666667, "bike_id": "afcc392a3727f5358c2661c36e549aad", "type": "electric_scooter", "is_reserved": 0, "lon": -76.995019}, {"fusion_lat": 0.0, "name": "900ef883688ec76723347f6af3e9b7f8", "is_disabled": 0, "rental_uris": {"android": "https://dc.lft.to/lastmile_qr_scan", "ios": "https://dc.lft.to/lastmile_qr_scan"}, "fusion_lon": 0.0, "lat": 38.924987333333334, "bike_id": "900ef883688ec76723347f6af3e9b7f8", "type": "electric_scooter", "is_reserved": 0, "lon": -77.02161983333333}, {"fusion_lat": 0.0, "name": "c7295508b2869d3ab88044d218ba9238", "is_disabled": 0, "rental_uris": {"android": "https://dc.lft.to/lastmile_qr_scan", "ios": "https://dc.lft.to/lastmile_qr_scan"}, "fusion_lon": 0.0, "lat": 38.92759983333333, "bike_id": "c7295508b2869d3ab88044d218ba9238", "type": "electric_scooter", "is_reserved": 0, "lon": -77.032817}, {"fusion_lat": 0.0, "name": "7ef663091aba3b5e8c2d6562733e1812", "is_disabled": 0, "rental_uris": {"android": "https://dc.lft.to/lastmile_qr_scan", "ios": "https://dc.lft.to/lastmile_qr_scan"}, "fusion_lon": 0.0, "lat": 38.90728516666667, "bike_id": "7ef663091aba3b5e8c2d6562733e1812", "type": "electric_scooter", "is_reserved": 0, "lon": -77.04336383333333}, {"fusion_lat": 0.0, "name": "871744e919b317a3db8994743851d2df", "is_disabled": 0, "rental_uris": {"android": "https://dc.lft.to/lastmile_qr_scan", "ios": "https://dc.lft.to/lastmile_qr_scan"}, "fusion_lon": 0.0, "lat": 38.93061316666667, "bike_id": "871744e919b317a3db8994743851d2df", "type": "electric_scooter", "is_reserved": 0, "lon": -77.03220483333334}, {"fusion_lat": 0.0, "name": "081d2c8ec1742e4d990ea0e01b447bff", "is_disabled": 0, "rental_uris": {"android": "https://dc.lft.to/lastmile_qr_scan", "ios": "https://dc.lft.to/lastmile_qr_scan"}, "fusion_lon": 0.0, "lat": 38.91736183333333, "bike_id": "081d2c8ec1742e4d990ea0e01b447bff", "type": "electric_scooter", "is_reserved": 0, "lon": -77.0310885}, {"fusion_lat": 0.0, "name": "e2b674cdf3701c76a2aebb84064c5c10", "is_disabled": 0, "rental_uris": {"android": "https://dc.lft.to/lastmile_qr_scan", "ios": "https://dc.lft.to/lastmile_qr_scan"}, "fusion_lon": 0.0, "lat": 38.92094733333333, "bike_id": "e2b674cdf3701c76a2aebb84064c5c10", "type": "electric_scooter", "is_reserved": 0, "lon": -77.02409766666666}, {"fusion_lat": 0.0, "name": "f1eec9c2b027896cbee2b399d916aa90", "is_disabled": 0, "rental_uris": {"android": "https://dc.lft.to/lastmile_qr_scan", "ios": "https://dc.lft.to/lastmile_qr_scan"}, "fusion_lon": 0.0, "lat": 38.88748066666667, "bike_id": "f1eec9c2b027896cbee2b399d916aa90", "type": "electric_scooter", "is_reserved": 0, "lon": -77.0178275}, {"fusion_lat": 0.0, "name": "b09545312a273784bdad9659d8400ab4", "is_disabled": 0, "rental_uris": {"android": "https://dc.lft.to/lastmile_qr_scan", "ios": "https://dc.lft.to/lastmile_qr_scan"}, "fusion_lon": 0.0, "lat": 38.907535, "bike_id": "b09545312a273784bdad9659d8400ab4", "type": "electric_scooter", "is_reserved": 0, "lon": -77.03584683333334}, {"fusion_lat": 0.0, "name": "732151481601711f80b722f9f0146228", "is_disabled": 0, "rental_uris": {"android": "https://dc.lft.to/lastmile_qr_scan", "ios": "https://dc.lft.to/lastmile_qr_scan"}, "fusion_lon": 0.0, "lat": 38.915321666666664, "bike_id": "732151481601711f80b722f9f0146228", "type": "electric_scooter", "is_reserved": 0, "lon": -77.074829}, {"fusion_lat": 0.0, "name": "d6352adf9cff29a31c5306c32773cfd3", "is_disabled": 0, "rental_uris": {"android": "https://dc.lft.to/lastmile_qr_scan", "ios": "https://dc.lft.to/lastmile_qr_scan"}, "fusion_lon": 0.0, "lat": 38.91215483333333, "bike_id": "d6352adf9cff29a31c5306c32773cfd3", "type": "electric_scooter", "is_reserved": 0, "lon": -77.04516566666666}, {"fusion_lat": 0.0, "name": "06b6f4b953810f8ac5c341be1b78700e", "is_disabled": 0, "rental_uris": {"android": "https://dc.lft.to/lastmile_qr_scan", "ios": "https://dc.lft.to/lastmile_qr_scan"}, "fusion_lon": 0.0, "lat": 38.907197833333335, "bike_id": "06b6f4b953810f8ac5c341be1b78700e", "type": "electric_scooter", "is_reserved": 0, "lon": -77.04349483333333}, {"fusion_lat": 0.0, "name": "f01b36f8cb9739e2b7885640eb64ea49", "is_disabled": 0, "rental_uris": {"android": "https://dc.lft.to/lastmile_qr_scan", "ios": "https://dc.lft.to/lastmile_qr_scan"}, "fusion_lon": 0.0, "lat": 38.887307666666665, "bike_id": "f01b36f8cb9739e2b7885640eb64ea49", "type": "electric_scooter", "is_reserved": 0, "lon": -76.98358616666667}, {"fusion_lat": 0.0, "name": "92e63e481325498388c04b20f4b88caf", "is_disabled": 0, "rental_uris": {"android": "https://dc.lft.to/lastmile_qr_scan", "ios": "https://dc.lft.to/lastmile_qr_scan"}, "fusion_lon": 0.0, "lat": 38.920852833333335, "bike_id": "92e63e481325498388c04b20f4b88caf", "type": "electric_scooter", "is_reserved": 0, "lon": -77.02405466666667}, {"fusion_lat": 0.0, "name": "fcc959292a0e5e9825c19d89621a7d97", "is_disabled": 0, "rental_uris": {"android": "https://dc.lft.to/lastmile_qr_scan", "ios": "https://dc.lft.to/lastmile_qr_scan"}, "fusion_lon": 0.0, "lat": 38.901492, "bike_id": "fcc959292a0e5e9825c19d89621a7d97", "type": "electric_scooter", "is_reserved": 0, "lon": -76.97431}, {"fusion_lat": 0.0, "name": "9d694d405e34ec36109b64ca9c3430dd", "is_disabled": 0, "rental_uris": {"android": "https://dc.lft.to/lastmile_qr_scan", "ios": "https://dc.lft.to/lastmile_qr_scan"}, "fusion_lon": 0.0, "lat": 38.916790666666664, "bike_id": "9d694d405e34ec36109b64ca9c3430dd", "type": "electric_scooter", "is_reserved": 0, "lon": -77.03689366666667}, {"fusion_lat": 0.0, "name": "a2b7e73305c68a041413f301990caf15", "is_disabled": 0, "rental_uris": {"android": "https://dc.lft.to/lastmile_qr_scan", "ios": "https://dc.lft.to/lastmile_qr_scan"}, "fusion_lon": 0.0, "lat": 38.90947883333333, "bike_id": "a2b7e73305c68a041413f301990caf15", "type": "electric_scooter", "is_reserved": 0, "lon": -76.98769633333333}, {"fusion_lat": 0.0, "name": "d6fe19f46c1eeda8ddb308c6fa7fb0a1", "is_disabled": 0, "rental_uris": {"android": "https://dc.lft.to/lastmile_qr_scan", "ios": "https://dc.lft.to/lastmile_qr_scan"}, "fusion_lon": 0.0, "lat": 38.91353083333333, "bike_id": "d6fe19f46c1eeda8ddb308c6fa7fb0a1", "type": "electric_scooter", "is_reserved": 0, "lon": -77.02054416666667}, {"fusion_lat": 0.0, "name": "04778f58677a2725dcb211f9ed533173", "is_disabled": 0, "rental_uris": {"android": "https://dc.lft.to/lastmile_qr_scan", "ios": "https://dc.lft.to/lastmile_qr_scan"}, "fusion_lon": 0.0, "lat": 38.903023833333336, "bike_id": "04778f58677a2725dcb211f9ed533173", "type": "electric_scooter", "is_reserved": 0, "lon": -77.04882233333333}, {"fusion_lat": 0.0, "name": "c8287e2d236bcb875feb1742a7d64a16", "is_disabled": 0, "rental_uris": {"android": "https://dc.lft.to/lastmile_qr_scan", "ios": "https://dc.lft.to/lastmile_qr_scan"}, "fusion_lon": 0.0, "lat": 38.87932516666667, "bike_id": "c8287e2d236bcb875feb1742a7d64a16", "type": "electric_scooter", "is_reserved": 0, "lon": -77.02149183333333}, {"fusion_lat": 0.0, "name": "3f93a7dbe671771bed30c17d54b20f71", "is_disabled": 0, "rental_uris": {"android": "https://dc.lft.to/lastmile_qr_scan", "ios": "https://dc.lft.to/lastmile_qr_scan"}, "fusion_lon": 0.0, "lat": 38.906869666666665, "bike_id": "3f93a7dbe671771bed30c17d54b20f71", "type": "electric_scooter", "is_reserved": 0, "lon": -76.99977916666667}, {"fusion_lat": 0.0, "name": "2ffa6a7dbb7d8af7edb5b406391be1bd", "is_disabled": 0, "rental_uris": {"android": "https://dc.lft.to/lastmile_qr_scan", "ios": "https://dc.lft.to/lastmile_qr_scan"}, "fusion_lon": 0.0, "lat": 38.91331383333333, "bike_id": "2ffa6a7dbb7d8af7edb5b406391be1bd", "type": "electric_scooter", "is_reserved": 0, "lon": -77.03181316666667}, {"fusion_lat": 0.0, "name": "3b61692c6077b442db7964834ef5c65f", "is_disabled": 0, "rental_uris": {"android": "https://dc.lft.to/lastmile_qr_scan", "ios": "https://dc.lft.to/lastmile_qr_scan"}, "fusion_lon": 0.0, "lat": 38.964468333333336, "bike_id": "3b61692c6077b442db7964834ef5c65f", "type": "electric_bike", "is_reserved": 0, "lon": -77.02250816666667}, {"fusion_lat": 0.0, "name": "0b3833688475ccd1975178d4211088f5", "is_disabled": 0, "rental_uris": {"android": "https://dc.lft.to/lastmile_qr_scan", "ios": "https://dc.lft.to/lastmile_qr_scan"}, "fusion_lon": 0.0, "lat": 38.892673333333335, "bike_id": "0b3833688475ccd1975178d4211088f5", "type": "electric_scooter", "is_reserved": 0, "lon": -77.046575}, {"fusion_lat": 0.0, "name": "f78f5718d1abe05fd4fa7ad3425913fb", "is_disabled": 0, "rental_uris": {"android": "https://dc.lft.to/lastmile_qr_scan", "ios": "https://dc.lft.to/lastmile_qr_scan"}, "fusion_lon": 0.0, "lat": 38.900239666666664, "bike_id": "f78f5718d1abe05fd4fa7ad3425913fb", "type": "electric_scooter", "is_reserved": 0, "lon": -76.97403883333334}, {"fusion_lat": 0.0, "name": "10c61032051a840e97b4757c6f9ead5e", "is_disabled": 0, "rental_uris": {"android": "https://dc.lft.to/lastmile_qr_scan", "ios": "https://dc.lft.to/lastmile_qr_scan"}, "fusion_lon": 0.0, "lat": 38.9233055, "bike_id": "10c61032051a840e97b4757c6f9ead5e", "type": "electric_scooter", "is_reserved": 0, "lon": -77.046191}, {"fusion_lat": 0.0, "name": "d1111018fe37461312a72a03f8f1d10b", "is_disabled": 0, "rental_uris": {"android": "https://dc.lft.to/lastmile_qr_scan", "ios": "https://dc.lft.to/lastmile_qr_scan"}, "fusion_lon": 0.0, "lat": 38.922305333333334, "bike_id": "d1111018fe37461312a72a03f8f1d10b", "type": "electric_bike", "is_reserved": 0, "lon": -77.02344166666667}, {"fusion_lat": 0.0, "name": "50eaf473506014f47830bded27c5a7b4", "is_disabled": 0, "rental_uris": {"android": "https://dc.lft.to/lastmile_qr_scan", "ios": "https://dc.lft.to/lastmile_qr_scan"}, "fusion_lon": 0.0, "lat": 38.916030166666665, "bike_id": "50eaf473506014f47830bded27c5a7b4", "type": "electric_scooter", "is_reserved": 0, "lon": -77.02291166666667}, {"fusion_lat": 0.0, "name": "b267c653e352258f315ed0335baa494a", "is_disabled": 0, "rental_uris": {"android": "https://dc.lft.to/lastmile_qr_scan", "ios": "https://dc.lft.to/lastmile_qr_scan"}, "fusion_lon": 0.0, "lat": 38.92342883333333, "bike_id": "b267c653e352258f315ed0335baa494a", "type": "electric_scooter", "is_reserved": 0, "lon": -77.05629933333333}, {"fusion_lat": 0.0, "name": "c0b7297c9622520b64b33583971b6668", "is_disabled": 0, "rental_uris": {"android": "https://dc.lft.to/lastmile_qr_scan", "ios": "https://dc.lft.to/lastmile_qr_scan"}, "fusion_lon": 0.0, "lat": 38.87713866666667, "bike_id": "c0b7297c9622520b64b33583971b6668", "type": "electric_scooter", "is_reserved": 0, "lon": -77.0178125}, {"fusion_lat": 0.0, "name": "c4d0f30f1e7cb35a46937fb1b5ab17e3", "is_disabled": 0, "rental_uris": {"android": "https://dc.lft.to/lastmile_qr_scan", "ios": "https://dc.lft.to/lastmile_qr_scan"}, "fusion_lon": 0.0, "lat": 38.900223833333335, "bike_id": "c4d0f30f1e7cb35a46937fb1b5ab17e3", "type": "electric_scooter", "is_reserved": 0, "lon": -76.998649}, {"fusion_lat": 0.0, "name": "9ecbece46620803ade3e69f6101e4459", "is_disabled": 0, "rental_uris": {"android": "https://dc.lft.to/lastmile_qr_scan", "ios": "https://dc.lft.to/lastmile_qr_scan"}, "fusion_lon": 0.0, "lat": 38.91413, "bike_id": "9ecbece46620803ade3e69f6101e4459", "type": "electric_scooter", "is_reserved": 0, "lon": -77.0243125}, {"fusion_lat": 0.0, "name": "4356bfc36a1535e4f090075edade49df", "is_disabled": 0, "rental_uris": {"android": "https://dc.lft.to/lastmile_qr_scan", "ios": "https://dc.lft.to/lastmile_qr_scan"}, "fusion_lon": 0.0, "lat": 38.919960833333334, "bike_id": "4356bfc36a1535e4f090075edade49df", "type": "electric_scooter", "is_reserved": 0, "lon": -77.03228133333333}, {"fusion_lat": 0.0, "name": "a946ebb668ff7675d7c25693adea7d57", "is_disabled": 0, "rental_uris": {"android": "https://dc.lft.to/lastmile_qr_scan", "ios": "https://dc.lft.to/lastmile_qr_scan"}, "fusion_lon": 0.0, "lat": 38.9206665, "bike_id": "a946ebb668ff7675d7c25693adea7d57", "type": "electric_scooter", "is_reserved": 0, "lon": -77.02205633333334}, {"fusion_lat": 0.0, "name": "24f125b30a4503d1a521684c2185ea62", "is_disabled": 0, "rental_uris": {"android": "https://dc.lft.to/lastmile_qr_scan", "ios": "https://dc.lft.to/lastmile_qr_scan"}, "fusion_lon": 0.0, "lat": 38.92154, "bike_id": "24f125b30a4503d1a521684c2185ea62", "type": "electric_scooter", "is_reserved": 0, "lon": -77.03872716666666}, {"fusion_lat": 0.0, "name": "8a2bff272549ba8802adf60ec7a8ac3c", "is_disabled": 0, "rental_uris": {"android": "https://dc.lft.to/lastmile_qr_scan", "ios": "https://dc.lft.to/lastmile_qr_scan"}, "fusion_lon": 0.0, "lat": 38.914952166666666, "bike_id": "8a2bff272549ba8802adf60ec7a8ac3c", "type": "electric_scooter", "is_reserved": 0, "lon": -77.01220483333333}, {"fusion_lat": 0.0, "name": "7c768f3346d87bc65799ded88aa82ed6", "is_disabled": 0, "rental_uris": {"android": "https://dc.lft.to/lastmile_qr_scan", "ios": "https://dc.lft.to/lastmile_qr_scan"}, "fusion_lon": 0.0, "lat": 38.8862825, "bike_id": "7c768f3346d87bc65799ded88aa82ed6", "type": "electric_scooter", "is_reserved": 0, "lon": -77.02802466666667}, {"fusion_lat": 0.0, "name": "e173a028f4b992792aadcb693eb8ae58", "is_disabled": 0, "rental_uris": {"android": "https://dc.lft.to/lastmile_qr_scan", "ios": "https://dc.lft.to/lastmile_qr_scan"}, "fusion_lon": 0.0, "lat": 38.89222866666667, "bike_id": "e173a028f4b992792aadcb693eb8ae58", "type": "electric_scooter", "is_reserved": 0, "lon": -77.04095383333333}, {"fusion_lat": 0.0, "name": "4736134186e406c077de82b1071577f2", "is_disabled": 0, "rental_uris": {"android": "https://dc.lft.to/lastmile_qr_scan", "ios": "https://dc.lft.to/lastmile_qr_scan"}, "fusion_lon": 0.0, "lat": 38.916954, "bike_id": "4736134186e406c077de82b1071577f2", "type": "electric_scooter", "is_reserved": 0, "lon": -77.02296583333333}, {"fusion_lat": 0.0, "name": "c083870a0f0b00e8c14450b1a42427e6", "is_disabled": 0, "rental_uris": {"android": "https://dc.lft.to/lastmile_qr_scan", "ios": "https://dc.lft.to/lastmile_qr_scan"}, "fusion_lon": 0.0, "lat": 39.03609983333333, "bike_id": "c083870a0f0b00e8c14450b1a42427e6", "type": "electric_bike", "is_reserved": 0, "lon": -77.05536966666666}, {"fusion_lat": 0.0, "name": "d57be52f8cb11b940c6248a93faab652", "is_disabled": 0, "rental_uris": {"android": "https://dc.lft.to/lastmile_qr_scan", "ios": "https://dc.lft.to/lastmile_qr_scan"}, "fusion_lon": 0.0, "lat": 38.892267333333336, "bike_id": "d57be52f8cb11b940c6248a93faab652", "type": "electric_scooter", "is_reserved": 0, "lon": -77.022252}, {"fusion_lat": 0.0, "name": "6a4bf17d250019781821b592b619684d", "is_disabled": 0, "rental_uris": {"android": "https://dc.lft.to/lastmile_qr_scan", "ios": "https://dc.lft.to/lastmile_qr_scan"}, "fusion_lon": 0.0, "lat": 38.91566983333333, "bike_id": "6a4bf17d250019781821b592b619684d", "type": "electric_scooter", "is_reserved": 0, "lon": -77.01055516666666}, {"fusion_lat": 0.0, "name": "0dd9f70f846fe58dbe10c1449034c0d6", "is_disabled": 0, "rental_uris": {"android": "https://dc.lft.to/lastmile_qr_scan", "ios": "https://dc.lft.to/lastmile_qr_scan"}, "fusion_lon": 0.0, "lat": 38.92499133333333, "bike_id": "0dd9f70f846fe58dbe10c1449034c0d6", "type": "electric_scooter", "is_reserved": 0, "lon": -77.02146366666666}, {"fusion_lat": 0.0, "name": "60db4cac3864f9f084ba42ef92fa6b43", "is_disabled": 0, "rental_uris": {"android": "https://dc.lft.to/lastmile_qr_scan", "ios": "https://dc.lft.to/lastmile_qr_scan"}, "fusion_lon": 0.0, "lat": 38.91194733333333, "bike_id": "60db4cac3864f9f084ba42ef92fa6b43", "type": "electric_scooter", "is_reserved": 0, "lon": -77.03594416666667}, {"fusion_lat": 0.0, "name": "ad5f3f186dc5a2245488292c9fee695a", "is_disabled": 0, "rental_uris": {"android": "https://dc.lft.to/lastmile_qr_scan", "ios": "https://dc.lft.to/lastmile_qr_scan"}, "fusion_lon": 0.0, "lat": 38.904126833333336, "bike_id": "ad5f3f186dc5a2245488292c9fee695a", "type": "electric_scooter", "is_reserved": 0, "lon": -77.02490233333333}, {"fusion_lat": 0.0, "name": "a42626b4caffd57dae3b1e48eb41364a", "is_disabled": 0, "rental_uris": {"android": "https://dc.lft.to/lastmile_qr_scan", "ios": "https://dc.lft.to/lastmile_qr_scan"}, "fusion_lon": 0.0, "lat": 38.915592833333335, "bike_id": "a42626b4caffd57dae3b1e48eb41364a", "type": "electric_scooter", "is_reserved": 0, "lon": -77.03182333333334}, {"fusion_lat": 0.0, "name": "62be61dc7bed02bebaa4be39b43019a9", "is_disabled": 0, "rental_uris": {"android": "https://dc.lft.to/lastmile_qr_scan", "ios": "https://dc.lft.to/lastmile_qr_scan"}, "fusion_lon": 0.0, "lat": 38.896432, "bike_id": "62be61dc7bed02bebaa4be39b43019a9", "type": "electric_scooter", "is_reserved": 0, "lon": -77.00916866666667}, {"fusion_lat": 0.0, "name": "0d6bf513520a5310f03aa9547eb2d635", "is_disabled": 0, "rental_uris": {"android": "https://dc.lft.to/lastmile_qr_scan", "ios": "https://dc.lft.to/lastmile_qr_scan"}, "fusion_lon": 0.0, "lat": 38.93225916666667, "bike_id": "0d6bf513520a5310f03aa9547eb2d635", "type": "electric_scooter", "is_reserved": 0, "lon": -76.994883}, {"fusion_lat": 0.0, "name": "0ca64c11f42075656c0e1ff8607cbd0d", "is_disabled": 0, "rental_uris": {"android": "https://dc.lft.to/lastmile_qr_scan", "ios": "https://dc.lft.to/lastmile_qr_scan"}, "fusion_lon": 0.0, "lat": 38.923407833333336, "bike_id": "0ca64c11f42075656c0e1ff8607cbd0d", "type": "electric_scooter", "is_reserved": 0, "lon": -77.051829}, {"fusion_lat": 0.0, "name": "246090597047ca54e25bf32aec2e1b07", "is_disabled": 0, "rental_uris": {"android": "https://dc.lft.to/lastmile_qr_scan", "ios": "https://dc.lft.to/lastmile_qr_scan"}, "fusion_lon": 0.0, "lat": 38.884601333333336, "bike_id": "246090597047ca54e25bf32aec2e1b07", "type": "electric_scooter", "is_reserved": 0, "lon": -76.92622966666667}, {"fusion_lat": 0.0, "name": "91e8adff5f5990182d29e3ceaecbce9e", "is_disabled": 0, "rental_uris": {"android": "https://dc.lft.to/lastmile_qr_scan", "ios": "https://dc.lft.to/lastmile_qr_scan"}, "fusion_lon": 0.0, "lat": 38.9067125, "bike_id": "91e8adff5f5990182d29e3ceaecbce9e", "type": "electric_scooter", "is_reserved": 0, "lon": -77.01065666666666}, {"fusion_lat": 0.0, "name": "93245e05330ae22fd8818b601ed0d6b1", "is_disabled": 0, "rental_uris": {"android": "https://dc.lft.to/lastmile_qr_scan", "ios": "https://dc.lft.to/lastmile_qr_scan"}, "fusion_lon": 0.0, "lat": 38.91812433333333, "bike_id": "93245e05330ae22fd8818b601ed0d6b1", "type": "electric_scooter", "is_reserved": 0, "lon": -77.04520266666667}, {"fusion_lat": 0.0, "name": "719366f500a48ac35839b4fd2c1a421f", "is_disabled": 0, "rental_uris": {"android": "https://dc.lft.to/lastmile_qr_scan", "ios": "https://dc.lft.to/lastmile_qr_scan"}, "fusion_lon": 0.0, "lat": 38.89606366666667, "bike_id": "719366f500a48ac35839b4fd2c1a421f", "type": "electric_scooter", "is_reserved": 0, "lon": -76.98108966666666}, {"fusion_lat": 0.0, "name": "26a6d683e5de10bf11ce87a1b123a932", "is_disabled": 0, "rental_uris": {"android": "https://dc.lft.to/lastmile_qr_scan", "ios": "https://dc.lft.to/lastmile_qr_scan"}, "fusion_lon": 0.0, "lat": 38.90564, "bike_id": "26a6d683e5de10bf11ce87a1b123a932", "type": "electric_scooter", "is_reserved": 0, "lon": -77.030632}, {"fusion_lat": 0.0, "name": "ebd428266e5962f49f58204a5943f6b9", "is_disabled": 0, "rental_uris": {"android": "https://dc.lft.to/lastmile_qr_scan", "ios": "https://dc.lft.to/lastmile_qr_scan"}, "fusion_lon": 0.0, "lat": 38.987895, "bike_id": "ebd428266e5962f49f58204a5943f6b9", "type": "electric_bike", "is_reserved": 0, "lon": -77.14094583333333}, {"fusion_lat": 0.0, "name": "7081e0cfb4d9db17e1c7a074403a264f", "is_disabled": 0, "rental_uris": {"android": "https://dc.lft.to/lastmile_qr_scan", "ios": "https://dc.lft.to/lastmile_qr_scan"}, "fusion_lon": 0.0, "lat": 38.916126, "bike_id": "7081e0cfb4d9db17e1c7a074403a264f", "type": "electric_scooter", "is_reserved": 0, "lon": -77.02305066666666}, {"fusion_lat": 0.0, "name": "25b2c44d4c6198517e24a58c19cf2877", "is_disabled": 0, "rental_uris": {"android": "https://dc.lft.to/lastmile_qr_scan", "ios": "https://dc.lft.to/lastmile_qr_scan"}, "fusion_lon": 0.0, "lat": 38.940774, "bike_id": "25b2c44d4c6198517e24a58c19cf2877", "type": "electric_bike", "is_reserved": 0, "lon": -77.00022566666667}, {"fusion_lat": 0.0, "name": "8392dabc4e7db19317ce278e8272df8c", "is_disabled": 0, "rental_uris": {"android": "https://dc.lft.to/lastmile_qr_scan", "ios": "https://dc.lft.to/lastmile_qr_scan"}, "fusion_lon": 0.0, "lat": 38.895453833333335, "bike_id": "8392dabc4e7db19317ce278e8272df8c", "type": "electric_scooter", "is_reserved": 0, "lon": -76.98338683333333}, {"fusion_lat": 0.0, "name": "ccbb9725d07a343620d8bd780a18c034", "is_disabled": 0, "rental_uris": {"android": "https://dc.lft.to/lastmile_qr_scan", "ios": "https://dc.lft.to/lastmile_qr_scan"}, "fusion_lon": 0.0, "lat": 38.9086645, "bike_id": "ccbb9725d07a343620d8bd780a18c034", "type": "electric_scooter", "is_reserved": 0, "lon": -77.02389883333333}, {"fusion_lat": 0.0, "name": "9a9b5a84b60c29ad7f9e3b9513adbb7c", "is_disabled": 0, "rental_uris": {"android": "https://dc.lft.to/lastmile_qr_scan", "ios": "https://dc.lft.to/lastmile_qr_scan"}, "fusion_lon": 0.0, "lat": 38.918097, "bike_id": "9a9b5a84b60c29ad7f9e3b9513adbb7c", "type": "electric_scooter", "is_reserved": 0, "lon": -77.034418}, {"fusion_lat": 0.0, "name": "90544b1fb376bff88d902fcdf895ad1a", "is_disabled": 0, "rental_uris": {"android": "https://dc.lft.to/lastmile_qr_scan", "ios": "https://dc.lft.to/lastmile_qr_scan"}, "fusion_lon": 0.0, "lat": 38.87376283333333, "bike_id": "90544b1fb376bff88d902fcdf895ad1a", "type": "electric_scooter", "is_reserved": 0, "lon": -77.00126816666666}, {"fusion_lat": 0.0, "name": "280add56af650079b4a002f679b6f802", "is_disabled": 0, "rental_uris": {"android": "https://dc.lft.to/lastmile_qr_scan", "ios": "https://dc.lft.to/lastmile_qr_scan"}, "fusion_lon": 0.0, "lat": 38.9146605, "bike_id": "280add56af650079b4a002f679b6f802", "type": "electric_scooter", "is_reserved": 0, "lon": -77.04566166666666}, {"fusion_lat": 0.0, "name": "b12a1a58b240daf1cc59b54f14429443", "is_disabled": 0, "rental_uris": {"android": "https://dc.lft.to/lastmile_qr_scan", "ios": "https://dc.lft.to/lastmile_qr_scan"}, "fusion_lon": 0.0, "lat": 38.900316333333336, "bike_id": "b12a1a58b240daf1cc59b54f14429443", "type": "electric_scooter", "is_reserved": 0, "lon": -76.99629833333333}, {"fusion_lat": 0.0, "name": "9969e6b700664757625f3dcb531ab6bc", "is_disabled": 0, "rental_uris": {"android": "https://dc.lft.to/lastmile_qr_scan", "ios": "https://dc.lft.to/lastmile_qr_scan"}, "fusion_lon": 0.0, "lat": 38.9519735, "bike_id": "9969e6b700664757625f3dcb531ab6bc", "type": "electric_scooter", "is_reserved": 0, "lon": -77.01250233333333}, {"fusion_lat": 0.0, "name": "85004ed6c290884ff352078905065948", "is_disabled": 0, "rental_uris": {"android": "https://dc.lft.to/lastmile_qr_scan", "ios": "https://dc.lft.to/lastmile_qr_scan"}, "fusion_lon": 0.0, "lat": 38.9084805, "bike_id": "85004ed6c290884ff352078905065948", "type": "electric_scooter", "is_reserved": 0, "lon": -76.99756583333334}, {"fusion_lat": 0.0, "name": "6874c717450eddd8d70b7cd0013894b0", "is_disabled": 0, "rental_uris": {"android": "https://dc.lft.to/lastmile_qr_scan", "ios": "https://dc.lft.to/lastmile_qr_scan"}, "fusion_lon": 0.0, "lat": 38.92322266666667, "bike_id": "6874c717450eddd8d70b7cd0013894b0", "type": "electric_scooter", "is_reserved": 0, "lon": -77.0413045}, {"fusion_lat": 0.0, "name": "ae7ea5a92ab6d3a7242c71c8e0f8c7d3", "is_disabled": 0, "rental_uris": {"android": "https://dc.lft.to/lastmile_qr_scan", "ios": "https://dc.lft.to/lastmile_qr_scan"}, "fusion_lon": 0.0, "lat": 38.92237516666667, "bike_id": "ae7ea5a92ab6d3a7242c71c8e0f8c7d3", "type": "electric_scooter", "is_reserved": 0, "lon": -77.042589}, {"fusion_lat": 0.0, "name": "206e06fe9fc6fe16c60f8b79c3d11854", "is_disabled": 0, "rental_uris": {"android": "https://dc.lft.to/lastmile_qr_scan", "ios": "https://dc.lft.to/lastmile_qr_scan"}, "fusion_lon": 0.0, "lat": 38.875684166666666, "bike_id": "206e06fe9fc6fe16c60f8b79c3d11854", "type": "electric_scooter", "is_reserved": 0, "lon": -77.00558166666667}, {"fusion_lat": 0.0, "name": "8a0e8c4ed2c1541331edfd4330de8b1b", "is_disabled": 0, "rental_uris": {"android": "https://dc.lft.to/lastmile_qr_scan", "ios": "https://dc.lft.to/lastmile_qr_scan"}, "fusion_lon": 0.0, "lat": 38.9206265, "bike_id": "8a0e8c4ed2c1541331edfd4330de8b1b", "type": "electric_scooter", "is_reserved": 0, "lon": -77.04245766666666}, {"fusion_lat": 0.0, "name": "284199580d145b1e4b3304b679e8dc93", "is_disabled": 0, "rental_uris": {"android": "https://dc.lft.to/lastmile_qr_scan", "ios": "https://dc.lft.to/lastmile_qr_scan"}, "fusion_lon": 0.0, "lat": 38.91707016666667, "bike_id": "284199580d145b1e4b3304b679e8dc93", "type": "electric_scooter", "is_reserved": 0, "lon": -77.02427383333334}, {"fusion_lat": 0.0, "name": "6517e8e2aa37ab630aa671c9cb77848d", "is_disabled": 0, "rental_uris": {"android": "https://dc.lft.to/lastmile_qr_scan", "ios": "https://dc.lft.to/lastmile_qr_scan"}, "fusion_lon": 0.0, "lat": 38.917698333333334, "bike_id": "6517e8e2aa37ab630aa671c9cb77848d", "type": "electric_scooter", "is_reserved": 0, "lon": -77.045504}, {"fusion_lat": 0.0, "name": "53ec36f2ca05ffbdbb2cfbb41adba765", "is_disabled": 0, "rental_uris": {"android": "https://dc.lft.to/lastmile_qr_scan", "ios": "https://dc.lft.to/lastmile_qr_scan"}, "fusion_lon": 0.0, "lat": 38.871613833333335, "bike_id": "53ec36f2ca05ffbdbb2cfbb41adba765", "type": "electric_bike", "is_reserved": 0, "lon": -77.011882}, {"fusion_lat": 0.0, "name": "a6f0d5015042d562de5b07b6c8a55392", "is_disabled": 0, "rental_uris": {"android": "https://dc.lft.to/lastmile_qr_scan", "ios": "https://dc.lft.to/lastmile_qr_scan"}, "fusion_lon": 0.0, "lat": 38.9505675, "bike_id": "a6f0d5015042d562de5b07b6c8a55392", "type": "electric_scooter", "is_reserved": 0, "lon": -77.08029633333334}, {"fusion_lat": 0.0, "name": "8ab890a80db2affa6b4cc87a40ae06a9", "is_disabled": 0, "rental_uris": {"android": "https://dc.lft.to/lastmile_qr_scan", "ios": "https://dc.lft.to/lastmile_qr_scan"}, "fusion_lon": 0.0, "lat": 38.916890333333335, "bike_id": "8ab890a80db2affa6b4cc87a40ae06a9", "type": "electric_scooter", "is_reserved": 0, "lon": -77.036772}, {"fusion_lat": 0.0, "name": "f7e8926f6b0f143579aa91f3b9e7b5e0", "is_disabled": 0, "rental_uris": {"android": "https://dc.lft.to/lastmile_qr_scan", "ios": "https://dc.lft.to/lastmile_qr_scan"}, "fusion_lon": 0.0, "lat": 38.875684666666665, "bike_id": "f7e8926f6b0f143579aa91f3b9e7b5e0", "type": "electric_scooter", "is_reserved": 0, "lon": -77.00574416666667}, {"fusion_lat": 0.0, "name": "1cc20f6808b2ce4b5b3f52d39c2e65fb", "is_disabled": 0, "rental_uris": {"android": "https://dc.lft.to/lastmile_qr_scan", "ios": "https://dc.lft.to/lastmile_qr_scan"}, "fusion_lon": 0.0, "lat": 38.902024833333336, "bike_id": "1cc20f6808b2ce4b5b3f52d39c2e65fb", "type": "electric_scooter", "is_reserved": 0, "lon": -77.023739}, {"fusion_lat": 0.0, "name": "4e6d657813b19a2bc294fe913a72a37f", "is_disabled": 0, "rental_uris": {"android": "https://dc.lft.to/lastmile_qr_scan", "ios": "https://dc.lft.to/lastmile_qr_scan"}, "fusion_lon": 0.0, "lat": 38.906844, "bike_id": "4e6d657813b19a2bc294fe913a72a37f", "type": "electric_bike", "is_reserved": 0, "lon": -76.94494583333334}, {"fusion_lat": 0.0, "name": "8f46f7461fe717eed6cf9e0c9d22fc8f", "is_disabled": 0, "rental_uris": {"android": "https://dc.lft.to/lastmile_qr_scan", "ios": "https://dc.lft.to/lastmile_qr_scan"}, "fusion_lon": 0.0, "lat": 38.93828, "bike_id": "8f46f7461fe717eed6cf9e0c9d22fc8f", "type": "electric_scooter", "is_reserved": 0, "lon": -77.0305095}, {"fusion_lat": 0.0, "name": "ac59d6418f24784cb9372fbe5f842a1a", "is_disabled": 0, "rental_uris": {"android": "https://dc.lft.to/lastmile_qr_scan", "ios": "https://dc.lft.to/lastmile_qr_scan"}, "fusion_lon": 0.0, "lat": 38.901524, "bike_id": "ac59d6418f24784cb9372fbe5f842a1a", "type": "electric_scooter", "is_reserved": 0, "lon": -76.93067383333333}, {"fusion_lat": 0.0, "name": "f547a6575c217fc71fc92a38229fef00", "is_disabled": 0, "rental_uris": {"android": "https://dc.lft.to/lastmile_qr_scan", "ios": "https://dc.lft.to/lastmile_qr_scan"}, "fusion_lon": 0.0, "lat": 38.9116095, "bike_id": "f547a6575c217fc71fc92a38229fef00", "type": "electric_scooter", "is_reserved": 0, "lon": -77.03210233333333}, {"fusion_lat": 0.0, "name": "cb642c21405cce4aead5fa7cfaeef923", "is_disabled": 0, "rental_uris": {"android": "https://dc.lft.to/lastmile_qr_scan", "ios": "https://dc.lft.to/lastmile_qr_scan"}, "fusion_lon": 0.0, "lat": 38.90573366666667, "bike_id": "cb642c21405cce4aead5fa7cfaeef923", "type": "electric_scooter", "is_reserved": 0, "lon": -77.00591866666667}, {"fusion_lat": 0.0, "name": "99a15461563e9c82374482b20b827a21", "is_disabled": 0, "rental_uris": {"android": "https://dc.lft.to/lastmile_qr_scan", "ios": "https://dc.lft.to/lastmile_qr_scan"}, "fusion_lon": 0.0, "lat": 38.93101983333333, "bike_id": "99a15461563e9c82374482b20b827a21", "type": "electric_scooter", "is_reserved": 0, "lon": -77.024756}, {"fusion_lat": 0.0, "name": "5311bccce0ad2df49fb11946a05703af", "is_disabled": 0, "rental_uris": {"android": "https://dc.lft.to/lastmile_qr_scan", "ios": "https://dc.lft.to/lastmile_qr_scan"}, "fusion_lon": 0.0, "lat": 38.93482016666667, "bike_id": "5311bccce0ad2df49fb11946a05703af", "type": "electric_scooter", "is_reserved": 0, "lon": -77.07269566666666}, {"fusion_lat": 0.0, "name": "2e943524588c52526ed90d95b54cc7fa", "is_disabled": 0, "rental_uris": {"android": "https://dc.lft.to/lastmile_qr_scan", "ios": "https://dc.lft.to/lastmile_qr_scan"}, "fusion_lon": 0.0, "lat": 38.91264016666667, "bike_id": "2e943524588c52526ed90d95b54cc7fa", "type": "electric_scooter", "is_reserved": 0, "lon": -77.0315725}, {"fusion_lat": 0.0, "name": "2df58afa57a4fbe7f1b388a12dbd2604", "is_disabled": 0, "rental_uris": {"android": "https://dc.lft.to/lastmile_qr_scan", "ios": "https://dc.lft.to/lastmile_qr_scan"}, "fusion_lon": 0.0, "lat": 38.924833166666666, "bike_id": "2df58afa57a4fbe7f1b388a12dbd2604", "type": "electric_scooter", "is_reserved": 0, "lon": -77.02591466666667}, {"fusion_lat": 0.0, "name": "d632254a39b53f417150f7c4212b9dcc", "is_disabled": 0, "rental_uris": {"android": "https://dc.lft.to/lastmile_qr_scan", "ios": "https://dc.lft.to/lastmile_qr_scan"}, "fusion_lon": 0.0, "lat": 38.902836666666666, "bike_id": "d632254a39b53f417150f7c4212b9dcc", "type": "electric_scooter", "is_reserved": 0, "lon": -77.036502}, {"fusion_lat": 0.0, "name": "db812e0ae762694acb9cd2e389e0e770", "is_disabled": 0, "rental_uris": {"android": "https://dc.lft.to/lastmile_qr_scan", "ios": "https://dc.lft.to/lastmile_qr_scan"}, "fusion_lon": 0.0, "lat": 38.917354833333334, "bike_id": "db812e0ae762694acb9cd2e389e0e770", "type": "electric_bike", "is_reserved": 0, "lon": -76.97912216666667}, {"fusion_lat": 0.0, "name": "07ff981f7f45e29713ebefa35dd27f33", "is_disabled": 0, "rental_uris": {"android": "https://dc.lft.to/lastmile_qr_scan", "ios": "https://dc.lft.to/lastmile_qr_scan"}, "fusion_lon": 0.0, "lat": 38.93992566666667, "bike_id": "07ff981f7f45e29713ebefa35dd27f33", "type": "electric_scooter", "is_reserved": 0, "lon": -77.01653983333334}, {"fusion_lat": 0.0, "name": "758100f8e149da16db4c712daf6c21d6", "is_disabled": 0, "rental_uris": {"android": "https://dc.lft.to/lastmile_qr_scan", "ios": "https://dc.lft.to/lastmile_qr_scan"}, "fusion_lon": 0.0, "lat": 38.87667166666667, "bike_id": "758100f8e149da16db4c712daf6c21d6", "type": "electric_scooter", "is_reserved": 0, "lon": -77.00442933333333}, {"fusion_lat": 0.0, "name": "fff4bce291049e910900c75613348738", "is_disabled": 0, "rental_uris": {"android": "https://dc.lft.to/lastmile_qr_scan", "ios": "https://dc.lft.to/lastmile_qr_scan"}, "fusion_lon": 0.0, "lat": 38.91133216666667, "bike_id": "fff4bce291049e910900c75613348738", "type": "electric_scooter", "is_reserved": 0, "lon": -77.03838766666667}, {"fusion_lat": 0.0, "name": "f4f8670f41b89732176d94d0d5001caf", "is_disabled": 0, "rental_uris": {"android": "https://dc.lft.to/lastmile_qr_scan", "ios": "https://dc.lft.to/lastmile_qr_scan"}, "fusion_lon": 0.0, "lat": 38.92334533333333, "bike_id": "f4f8670f41b89732176d94d0d5001caf", "type": "electric_scooter", "is_reserved": 0, "lon": -77.03585716666667}, {"fusion_lat": 0.0, "name": "f76a0854c061203807e056b5a2311d0e", "is_disabled": 0, "rental_uris": {"android": "https://dc.lft.to/lastmile_qr_scan", "ios": "https://dc.lft.to/lastmile_qr_scan"}, "fusion_lon": 0.0, "lat": 38.92364283333333, "bike_id": "f76a0854c061203807e056b5a2311d0e", "type": "electric_scooter", "is_reserved": 0, "lon": -77.02963016666666}, {"fusion_lat": 0.0, "name": "6a1e6e528dbb0c91fb5ec421a9c383fa", "is_disabled": 0, "rental_uris": {"android": "https://dc.lft.to/lastmile_qr_scan", "ios": "https://dc.lft.to/lastmile_qr_scan"}, "fusion_lon": 0.0, "lat": 38.844243, "bike_id": "6a1e6e528dbb0c91fb5ec421a9c383fa", "type": "electric_scooter", "is_reserved": 0, "lon": -76.99781483333334}, {"fusion_lat": 0.0, "name": "d68c47caf274da63b0271e7ef5ed8972", "is_disabled": 0, "rental_uris": {"android": "https://dc.lft.to/lastmile_qr_scan", "ios": "https://dc.lft.to/lastmile_qr_scan"}, "fusion_lon": 0.0, "lat": 38.876977333333336, "bike_id": "d68c47caf274da63b0271e7ef5ed8972", "type": "electric_scooter", "is_reserved": 0, "lon": -77.00726433333334}, {"fusion_lat": 0.0, "name": "28a1fdd4ec7ae6c98344104ee90c2c04", "is_disabled": 0, "rental_uris": {"android": "https://dc.lft.to/lastmile_qr_scan", "ios": "https://dc.lft.to/lastmile_qr_scan"}, "fusion_lon": 0.0, "lat": 38.90464466666667, "bike_id": "28a1fdd4ec7ae6c98344104ee90c2c04", "type": "electric_scooter", "is_reserved": 0, "lon": -77.05315833333333}, {"fusion_lat": 0.0, "name": "f5bd3271de2592ebbbf663bef6daa15b", "is_disabled": 0, "rental_uris": {"android": "https://dc.lft.to/lastmile_qr_scan", "ios": "https://dc.lft.to/lastmile_qr_scan"}, "fusion_lon": 0.0, "lat": 38.9113515, "bike_id": "f5bd3271de2592ebbbf663bef6daa15b", "type": "electric_scooter", "is_reserved": 0, "lon": -77.06541133333333}, {"fusion_lat": 0.0, "name": "4b76fe4eb81710bc56c2adc342abb266", "is_disabled": 0, "rental_uris": {"android": "https://dc.lft.to/lastmile_qr_scan", "ios": "https://dc.lft.to/lastmile_qr_scan"}, "fusion_lon": 0.0, "lat": 38.899565833333334, "bike_id": "4b76fe4eb81710bc56c2adc342abb266", "type": "electric_scooter", "is_reserved": 0, "lon": -77.024043}, {"fusion_lat": 0.0, "name": "1e57317a8642cb989bf2166a2e309c2c", "is_disabled": 0, "rental_uris": {"android": "https://dc.lft.to/lastmile_qr_scan", "ios": "https://dc.lft.to/lastmile_qr_scan"}, "fusion_lon": 0.0, "lat": 38.87841616666667, "bike_id": "1e57317a8642cb989bf2166a2e309c2c", "type": "electric_scooter", "is_reserved": 0, "lon": -77.00556783333333}, {"fusion_lat": 0.0, "name": "837ce4c2bb76474df3718f01b7b44649", "is_disabled": 0, "rental_uris": {"android": "https://dc.lft.to/lastmile_qr_scan", "ios": "https://dc.lft.to/lastmile_qr_scan"}, "fusion_lon": 0.0, "lat": 38.907231, "bike_id": "837ce4c2bb76474df3718f01b7b44649", "type": "electric_scooter", "is_reserved": 0, "lon": -77.04077633333333}, {"fusion_lat": 0.0, "name": "3b87d35ec6a18ca2ec1fbb4132940db3", "is_disabled": 0, "rental_uris": {"android": "https://dc.lft.to/lastmile_qr_scan", "ios": "https://dc.lft.to/lastmile_qr_scan"}, "fusion_lon": 0.0, "lat": 38.929986666666665, "bike_id": "3b87d35ec6a18ca2ec1fbb4132940db3", "type": "electric_scooter", "is_reserved": 0, "lon": -77.021852}, {"fusion_lat": 0.0, "name": "628c1bf2fda64bc6ae8652b799aa62da", "is_disabled": 0, "rental_uris": {"android": "https://dc.lft.to/lastmile_qr_scan", "ios": "https://dc.lft.to/lastmile_qr_scan"}, "fusion_lon": 0.0, "lat": 38.916336333333334, "bike_id": "628c1bf2fda64bc6ae8652b799aa62da", "type": "electric_scooter", "is_reserved": 0, "lon": -77.05070083333334}, {"fusion_lat": 0.0, "name": "08d2b4e4da626751e19c1e8ff8dca6ef", "is_disabled": 0, "rental_uris": {"android": "https://dc.lft.to/lastmile_qr_scan", "ios": "https://dc.lft.to/lastmile_qr_scan"}, "fusion_lon": 0.0, "lat": 38.89696333333333, "bike_id": "08d2b4e4da626751e19c1e8ff8dca6ef", "type": "electric_scooter", "is_reserved": 0, "lon": -77.02704416666667}, {"fusion_lat": 0.0, "name": "85f85a1ceda822620c921df6d3f68054", "is_disabled": 0, "rental_uris": {"android": "https://dc.lft.to/lastmile_qr_scan", "ios": "https://dc.lft.to/lastmile_qr_scan"}, "fusion_lon": 0.0, "lat": 38.934462833333335, "bike_id": "85f85a1ceda822620c921df6d3f68054", "type": "electric_scooter", "is_reserved": 0, "lon": -77.0326605}, {"fusion_lat": 0.0, "name": "1b6ff3455bd6182577db62bc0b721135", "is_disabled": 0, "rental_uris": {"android": "https://dc.lft.to/lastmile_qr_scan", "ios": "https://dc.lft.to/lastmile_qr_scan"}, "fusion_lon": 0.0, "lat": 38.908136166666665, "bike_id": "1b6ff3455bd6182577db62bc0b721135", "type": "electric_scooter", "is_reserved": 0, "lon": -77.04344583333334}, {"fusion_lat": 0.0, "name": "f7dd37ba1020f59682e8be3b6388f000", "is_disabled": 0, "rental_uris": {"android": "https://dc.lft.to/lastmile_qr_scan", "ios": "https://dc.lft.to/lastmile_qr_scan"}, "fusion_lon": 0.0, "lat": 38.88745683333333, "bike_id": "f7dd37ba1020f59682e8be3b6388f000", "type": "electric_scooter", "is_reserved": 0, "lon": -77.02775666666666}, {"fusion_lat": 0.0, "name": "59ed4bbf98b55a5694491f12ab58a5db", "is_disabled": 0, "rental_uris": {"android": "https://dc.lft.to/lastmile_qr_scan", "ios": "https://dc.lft.to/lastmile_qr_scan"}, "fusion_lon": 0.0, "lat": 38.90982016666667, "bike_id": "59ed4bbf98b55a5694491f12ab58a5db", "type": "electric_scooter", "is_reserved": 0, "lon": -77.0344805}, {"fusion_lat": 0.0, "name": "45f69a084acfba19a19c56d963d9265f", "is_disabled": 0, "rental_uris": {"android": "https://dc.lft.to/lastmile_qr_scan", "ios": "https://dc.lft.to/lastmile_qr_scan"}, "fusion_lon": 0.0, "lat": 38.920346, "bike_id": "45f69a084acfba19a19c56d963d9265f", "type": "electric_scooter", "is_reserved": 0, "lon": -77.0819385}, {"fusion_lat": 0.0, "name": "3a7e11478c7dd7a5cdf97e6701bb0276", "is_disabled": 0, "rental_uris": {"android": "https://dc.lft.to/lastmile_qr_scan", "ios": "https://dc.lft.to/lastmile_qr_scan"}, "fusion_lon": 0.0, "lat": 38.92111583333333, "bike_id": "3a7e11478c7dd7a5cdf97e6701bb0276", "type": "electric_scooter", "is_reserved": 0, "lon": -77.0468135}, {"fusion_lat": 0.0, "name": "129db941f48a4daa4b5669693f991c7a", "is_disabled": 0, "rental_uris": {"android": "https://dc.lft.to/lastmile_qr_scan", "ios": "https://dc.lft.to/lastmile_qr_scan"}, "fusion_lon": 0.0, "lat": 38.934247166666665, "bike_id": "129db941f48a4daa4b5669693f991c7a", "type": "electric_scooter", "is_reserved": 0, "lon": -77.04279433333333}, {"fusion_lat": 0.0, "name": "cf49b3ae878f33732275239f136ef5cb", "is_disabled": 0, "rental_uris": {"android": "https://dc.lft.to/lastmile_qr_scan", "ios": "https://dc.lft.to/lastmile_qr_scan"}, "fusion_lon": 0.0, "lat": 38.917453333333334, "bike_id": "cf49b3ae878f33732275239f136ef5cb", "type": "electric_scooter", "is_reserved": 0, "lon": -77.0346365}, {"fusion_lat": 0.0, "name": "365e3e279fb5eb4c8c9be623b0e5d9e7", "is_disabled": 0, "rental_uris": {"android": "https://dc.lft.to/lastmile_qr_scan", "ios": "https://dc.lft.to/lastmile_qr_scan"}, "fusion_lon": 0.0, "lat": 38.90243683333333, "bike_id": "365e3e279fb5eb4c8c9be623b0e5d9e7", "type": "electric_scooter", "is_reserved": 0, "lon": -77.0109445}, {"fusion_lat": 0.0, "name": "0a122fd2f980babdb853302ff611fa2c", "is_disabled": 0, "rental_uris": {"android": "https://dc.lft.to/lastmile_qr_scan", "ios": "https://dc.lft.to/lastmile_qr_scan"}, "fusion_lon": 0.0, "lat": 38.90380666666667, "bike_id": "0a122fd2f980babdb853302ff611fa2c", "type": "electric_scooter", "is_reserved": 0, "lon": -77.03422266666666}, {"fusion_lat": 0.0, "name": "ab063f549cc9f830460e4821454dabf7", "is_disabled": 0, "rental_uris": {"android": "https://dc.lft.to/lastmile_qr_scan", "ios": "https://dc.lft.to/lastmile_qr_scan"}, "fusion_lon": 0.0, "lat": 38.92090133333333, "bike_id": "ab063f549cc9f830460e4821454dabf7", "type": "electric_scooter", "is_reserved": 0, "lon": -77.02397783333333}, {"fusion_lat": 0.0, "name": "139793fbc1273ed0202c5f9b0a51378e", "is_disabled": 0, "rental_uris": {"android": "https://dc.lft.to/lastmile_qr_scan", "ios": "https://dc.lft.to/lastmile_qr_scan"}, "fusion_lon": 0.0, "lat": 38.908576333333336, "bike_id": "139793fbc1273ed0202c5f9b0a51378e", "type": "electric_scooter", "is_reserved": 0, "lon": -77.038512}, {"fusion_lat": 0.0, "name": "5ade681a5b15c80ab503c2f35e514ed2", "is_disabled": 0, "rental_uris": {"android": "https://dc.lft.to/lastmile_qr_scan", "ios": "https://dc.lft.to/lastmile_qr_scan"}, "fusion_lon": 0.0, "lat": 38.92131666666667, "bike_id": "5ade681a5b15c80ab503c2f35e514ed2", "type": "electric_scooter", "is_reserved": 0, "lon": -77.02515166666667}, {"fusion_lat": 0.0, "name": "e2d17b4cd5f2408c2aed1eabeb956fcd", "is_disabled": 0, "rental_uris": {"android": "https://dc.lft.to/lastmile_qr_scan", "ios": "https://dc.lft.to/lastmile_qr_scan"}, "fusion_lon": 0.0, "lat": 38.9126005, "bike_id": "e2d17b4cd5f2408c2aed1eabeb956fcd", "type": "electric_scooter", "is_reserved": 0, "lon": -77.03495233333334}, {"fusion_lat": 0.0, "name": "ee4593578e5b8fa6c5a6f1a212d15db0", "is_disabled": 0, "rental_uris": {"android": "https://dc.lft.to/lastmile_qr_scan", "ios": "https://dc.lft.to/lastmile_qr_scan"}, "fusion_lon": 0.0, "lat": 38.907125, "bike_id": "ee4593578e5b8fa6c5a6f1a212d15db0", "type": "electric_scooter", "is_reserved": 0, "lon": -77.0325775}, {"fusion_lat": 0.0, "name": "9447e470284d0d702a80e58415cd0c78", "is_disabled": 0, "rental_uris": {"android": "https://dc.lft.to/lastmile_qr_scan", "ios": "https://dc.lft.to/lastmile_qr_scan"}, "fusion_lon": 0.0, "lat": 38.922996499999996, "bike_id": "9447e470284d0d702a80e58415cd0c78", "type": "electric_bike", "is_reserved": 0, "lon": -76.99377716666666}, {"fusion_lat": 0.0, "name": "11859ae8f23e17a1c3bc67551734a83a", "is_disabled": 0, "rental_uris": {"android": "https://dc.lft.to/lastmile_qr_scan", "ios": "https://dc.lft.to/lastmile_qr_scan"}, "fusion_lon": 0.0, "lat": 38.937067, "bike_id": "11859ae8f23e17a1c3bc67551734a83a", "type": "electric_scooter", "is_reserved": 0, "lon": -77.02428683333333}, {"fusion_lat": 0.0, "name": "e0f465b304bb7081f8bb016d4d039368", "is_disabled": 0, "rental_uris": {"android": "https://dc.lft.to/lastmile_qr_scan", "ios": "https://dc.lft.to/lastmile_qr_scan"}, "fusion_lon": 0.0, "lat": 38.928788833333336, "bike_id": "e0f465b304bb7081f8bb016d4d039368", "type": "electric_scooter", "is_reserved": 0, "lon": -77.013638}, {"fusion_lat": 0.0, "name": "9e15e296359f9150ef96627a862b295c", "is_disabled": 0, "rental_uris": {"android": "https://dc.lft.to/lastmile_qr_scan", "ios": "https://dc.lft.to/lastmile_qr_scan"}, "fusion_lon": 0.0, "lat": 38.899266, "bike_id": "9e15e296359f9150ef96627a862b295c", "type": "electric_scooter", "is_reserved": 0, "lon": -77.03925616666666}, {"fusion_lat": 0.0, "name": "fe70a7f43aef0caa7b267d99278f4892", "is_disabled": 0, "rental_uris": {"android": "https://dc.lft.to/lastmile_qr_scan", "ios": "https://dc.lft.to/lastmile_qr_scan"}, "fusion_lon": 0.0, "lat": 38.890030333333335, "bike_id": "fe70a7f43aef0caa7b267d99278f4892", "type": "electric_scooter", "is_reserved": 0, "lon": -76.98381966666666}, {"fusion_lat": 0.0, "name": "992f0e1ff814dc0db7bf1d3b4aa75afb", "is_disabled": 0, "rental_uris": {"android": "https://dc.lft.to/lastmile_qr_scan", "ios": "https://dc.lft.to/lastmile_qr_scan"}, "fusion_lon": 0.0, "lat": 38.91566866666667, "bike_id": "992f0e1ff814dc0db7bf1d3b4aa75afb", "type": "electric_scooter", "is_reserved": 0, "lon": -77.03862283333333}, {"fusion_lat": 0.0, "name": "1270c2451971bb549d5c77721bb330fc", "is_disabled": 0, "rental_uris": {"android": "https://dc.lft.to/lastmile_qr_scan", "ios": "https://dc.lft.to/lastmile_qr_scan"}, "fusion_lon": 0.0, "lat": 38.903646333333334, "bike_id": "1270c2451971bb549d5c77721bb330fc", "type": "electric_scooter", "is_reserved": 0, "lon": -77.04004}, {"fusion_lat": 0.0, "name": "d3b49cd21e0c225e4b3ce1c5abbd3460", "is_disabled": 0, "rental_uris": {"android": "https://dc.lft.to/lastmile_qr_scan", "ios": "https://dc.lft.to/lastmile_qr_scan"}, "fusion_lon": 0.0, "lat": 38.913126, "bike_id": "d3b49cd21e0c225e4b3ce1c5abbd3460", "type": "electric_scooter", "is_reserved": 0, "lon": -77.0416265}, {"fusion_lat": 0.0, "name": "14323462830999392e6da33066ea06be", "is_disabled": 0, "rental_uris": {"android": "https://dc.lft.to/lastmile_qr_scan", "ios": "https://dc.lft.to/lastmile_qr_scan"}, "fusion_lon": 0.0, "lat": 38.902503833333334, "bike_id": "14323462830999392e6da33066ea06be", "type": "electric_scooter", "is_reserved": 0, "lon": -77.0052835}, {"fusion_lat": 0.0, "name": "c61c9302966b6915930020952284e412", "is_disabled": 0, "rental_uris": {"android": "https://dc.lft.to/lastmile_qr_scan", "ios": "https://dc.lft.to/lastmile_qr_scan"}, "fusion_lon": 0.0, "lat": 38.92729766666667, "bike_id": "c61c9302966b6915930020952284e412", "type": "electric_scooter", "is_reserved": 0, "lon": -77.02306016666667}, {"fusion_lat": 0.0, "name": "17a6d0fe623006726cadf095018566e5", "is_disabled": 0, "rental_uris": {"android": "https://dc.lft.to/lastmile_qr_scan", "ios": "https://dc.lft.to/lastmile_qr_scan"}, "fusion_lon": 0.0, "lat": 38.91195, "bike_id": "17a6d0fe623006726cadf095018566e5", "type": "electric_scooter", "is_reserved": 0, "lon": -77.00216716666667}, {"fusion_lat": 0.0, "name": "f4a8831567ad25b4c72d7f43b35d0a64", "is_disabled": 0, "rental_uris": {"android": "https://dc.lft.to/lastmile_qr_scan", "ios": "https://dc.lft.to/lastmile_qr_scan"}, "fusion_lon": 0.0, "lat": 38.878477, "bike_id": "f4a8831567ad25b4c72d7f43b35d0a64", "type": "electric_scooter", "is_reserved": 0, "lon": -77.00109066666667}, {"fusion_lat": 0.0, "name": "49c6a89cdaa83f676906d1aee38b6f19", "is_disabled": 0, "rental_uris": {"android": "https://dc.lft.to/lastmile_qr_scan", "ios": "https://dc.lft.to/lastmile_qr_scan"}, "fusion_lon": 0.0, "lat": 38.874718666666666, "bike_id": "49c6a89cdaa83f676906d1aee38b6f19", "type": "electric_scooter", "is_reserved": 0, "lon": -77.0046665}, {"fusion_lat": 0.0, "name": "e6178389f1262b6f8c18d203243a189e", "is_disabled": 0, "rental_uris": {"android": "https://dc.lft.to/lastmile_qr_scan", "ios": "https://dc.lft.to/lastmile_qr_scan"}, "fusion_lon": 0.0, "lat": 38.90748716666667, "bike_id": "e6178389f1262b6f8c18d203243a189e", "type": "electric_scooter", "is_reserved": 0, "lon": -77.0415365}, {"fusion_lat": 0.0, "name": "9203347ab1f6db3ebb6693bf3a62447e", "is_disabled": 0, "rental_uris": {"android": "https://dc.lft.to/lastmile_qr_scan", "ios": "https://dc.lft.to/lastmile_qr_scan"}, "fusion_lon": 0.0, "lat": 38.875690666666664, "bike_id": "9203347ab1f6db3ebb6693bf3a62447e", "type": "electric_scooter", "is_reserved": 0, "lon": -77.00566966666666}, {"fusion_lat": 0.0, "name": "e9219232d08bd485ff53eca3d1cd55e1", "is_disabled": 0, "rental_uris": {"android": "https://dc.lft.to/lastmile_qr_scan", "ios": "https://dc.lft.to/lastmile_qr_scan"}, "fusion_lon": 0.0, "lat": 38.9324495, "bike_id": "e9219232d08bd485ff53eca3d1cd55e1", "type": "electric_scooter", "is_reserved": 0, "lon": -77.03410133333334}, {"fusion_lat": 0.0, "name": "efc0e525b5a401046ee6e122173580cc", "is_disabled": 0, "rental_uris": {"android": "https://dc.lft.to/lastmile_qr_scan", "ios": "https://dc.lft.to/lastmile_qr_scan"}, "fusion_lon": 0.0, "lat": 38.89220133333333, "bike_id": "efc0e525b5a401046ee6e122173580cc", "type": "electric_scooter", "is_reserved": 0, "lon": -77.0450595}, {"fusion_lat": 0.0, "name": "a30f707846e9ae22e37d3f3847ce766f", "is_disabled": 0, "rental_uris": {"android": "https://dc.lft.to/lastmile_qr_scan", "ios": "https://dc.lft.to/lastmile_qr_scan"}, "fusion_lon": 0.0, "lat": 38.905177333333334, "bike_id": "a30f707846e9ae22e37d3f3847ce766f", "type": "electric_scooter", "is_reserved": 0, "lon": -77.06379133333333}, {"fusion_lat": 0.0, "name": "f4c2f6156ad35473c89f9839ade86ead", "is_disabled": 0, "rental_uris": {"android": "https://dc.lft.to/lastmile_qr_scan", "ios": "https://dc.lft.to/lastmile_qr_scan"}, "fusion_lon": 0.0, "lat": 38.89885816666666, "bike_id": "f4c2f6156ad35473c89f9839ade86ead", "type": "electric_scooter", "is_reserved": 0, "lon": -77.00916616666666}, {"fusion_lat": 0.0, "name": "e5dc27d3d6fa0e9e82e67e5cbdc4e4b3", "is_disabled": 0, "rental_uris": {"android": "https://dc.lft.to/lastmile_qr_scan", "ios": "https://dc.lft.to/lastmile_qr_scan"}, "fusion_lon": 0.0, "lat": 38.871561666666665, "bike_id": "e5dc27d3d6fa0e9e82e67e5cbdc4e4b3", "type": "electric_bike", "is_reserved": 0, "lon": -77.13145566666667}, {"fusion_lat": 0.0, "name": "395da7c195a97af23e35f2c2d9c9ed62", "is_disabled": 0, "rental_uris": {"android": "https://dc.lft.to/lastmile_qr_scan", "ios": "https://dc.lft.to/lastmile_qr_scan"}, "fusion_lon": 0.0, "lat": 38.89851266666667, "bike_id": "395da7c195a97af23e35f2c2d9c9ed62", "type": "electric_scooter", "is_reserved": 0, "lon": -77.02182933333333}, {"fusion_lat": 0.0, "name": "72478925a245bee784158a605c8dd46d", "is_disabled": 0, "rental_uris": {"android": "https://dc.lft.to/lastmile_qr_scan", "ios": "https://dc.lft.to/lastmile_qr_scan"}, "fusion_lon": 0.0, "lat": 38.93094, "bike_id": "72478925a245bee784158a605c8dd46d", "type": "electric_scooter", "is_reserved": 0, "lon": -77.034419}, {"fusion_lat": 0.0, "name": "3b93da97caf1e3e0d555c71616fa81d8", "is_disabled": 0, "rental_uris": {"android": "https://dc.lft.to/lastmile_qr_scan", "ios": "https://dc.lft.to/lastmile_qr_scan"}, "fusion_lon": 0.0, "lat": 38.92542316666667, "bike_id": "3b93da97caf1e3e0d555c71616fa81d8", "type": "electric_bike", "is_reserved": 0, "lon": -77.05093566666666}, {"fusion_lat": 0.0, "name": "4a24cdc1b8156890261ba3fe7d86de14", "is_disabled": 0, "rental_uris": {"android": "https://dc.lft.to/lastmile_qr_scan", "ios": "https://dc.lft.to/lastmile_qr_scan"}, "fusion_lon": 0.0, "lat": 38.90389616666667, "bike_id": "4a24cdc1b8156890261ba3fe7d86de14", "type": "electric_scooter", "is_reserved": 0, "lon": -77.00982816666667}, {"fusion_lat": 0.0, "name": "2a71046f52f438b09f2cdb5d73daa895", "is_disabled": 0, "rental_uris": {"android": "https://dc.lft.to/lastmile_qr_scan", "ios": "https://dc.lft.to/lastmile_qr_scan"}, "fusion_lon": 0.0, "lat": 38.8837075, "bike_id": "2a71046f52f438b09f2cdb5d73daa895", "type": "electric_scooter", "is_reserved": 0, "lon": -76.99518983333333}, {"fusion_lat": 0.0, "name": "92da65de93a5c80c785ddf8756dcdf4b", "is_disabled": 0, "rental_uris": {"android": "https://dc.lft.to/lastmile_qr_scan", "ios": "https://dc.lft.to/lastmile_qr_scan"}, "fusion_lon": 0.0, "lat": 38.89218266666666, "bike_id": "92da65de93a5c80c785ddf8756dcdf4b", "type": "electric_scooter", "is_reserved": 0, "lon": -77.02660333333333}, {"fusion_lat": 0.0, "name": "417223e20883f7af0033551e05287fe8", "is_disabled": 0, "rental_uris": {"android": "https://dc.lft.to/lastmile_qr_scan", "ios": "https://dc.lft.to/lastmile_qr_scan"}, "fusion_lon": 0.0, "lat": 38.941845, "bike_id": "417223e20883f7af0033551e05287fe8", "type": "electric_scooter", "is_reserved": 0, "lon": -77.02615716666666}, {"fusion_lat": 0.0, "name": "8ca913c367a954437d927c6462529281", "is_disabled": 0, "rental_uris": {"android": "https://dc.lft.to/lastmile_qr_scan", "ios": "https://dc.lft.to/lastmile_qr_scan"}, "fusion_lon": 0.0, "lat": 38.92829866666667, "bike_id": "8ca913c367a954437d927c6462529281", "type": "electric_scooter", "is_reserved": 0, "lon": -77.03295233333333}, {"fusion_lat": 0.0, "name": "89447ccd8bdf42aad3dab0ec99bb9ec9", "is_disabled": 0, "rental_uris": {"android": "https://dc.lft.to/lastmile_qr_scan", "ios": "https://dc.lft.to/lastmile_qr_scan"}, "fusion_lon": 0.0, "lat": 38.917208, "bike_id": "89447ccd8bdf42aad3dab0ec99bb9ec9", "type": "electric_scooter", "is_reserved": 0, "lon": -77.02288216666666}, {"fusion_lat": 0.0, "name": "9c7095640518fa18ed56128d61e56f43", "is_disabled": 0, "rental_uris": {"android": "https://dc.lft.to/lastmile_qr_scan", "ios": "https://dc.lft.to/lastmile_qr_scan"}, "fusion_lon": 0.0, "lat": 38.900159, "bike_id": "9c7095640518fa18ed56128d61e56f43", "type": "electric_scooter", "is_reserved": 0, "lon": -77.04476616666666}, {"fusion_lat": 0.0, "name": "20a6775896c95f45d7766470da73cb5b", "is_disabled": 0, "rental_uris": {"android": "https://dc.lft.to/lastmile_qr_scan", "ios": "https://dc.lft.to/lastmile_qr_scan"}, "fusion_lon": 0.0, "lat": 38.92412383333333, "bike_id": "20a6775896c95f45d7766470da73cb5b", "type": "electric_scooter", "is_reserved": 0, "lon": -77.02701383333333}, {"fusion_lat": 0.0, "name": "3aa344600b806aab77b615c7c1d45fa8", "is_disabled": 0, "rental_uris": {"android": "https://dc.lft.to/lastmile_qr_scan", "ios": "https://dc.lft.to/lastmile_qr_scan"}, "fusion_lon": 0.0, "lat": 38.900395833333334, "bike_id": "3aa344600b806aab77b615c7c1d45fa8", "type": "electric_scooter", "is_reserved": 0, "lon": -77.00226933333333}, {"fusion_lat": 0.0, "name": "7bac50c44611954d32621909a71b55ec", "is_disabled": 0, "rental_uris": {"android": "https://dc.lft.to/lastmile_qr_scan", "ios": "https://dc.lft.to/lastmile_qr_scan"}, "fusion_lon": 0.0, "lat": 38.9213265, "bike_id": "7bac50c44611954d32621909a71b55ec", "type": "electric_scooter", "is_reserved": 0, "lon": -77.0251315}, {"fusion_lat": 0.0, "name": "d726dc090e53150f90857944141bdcf5", "is_disabled": 0, "rental_uris": {"android": "https://dc.lft.to/lastmile_qr_scan", "ios": "https://dc.lft.to/lastmile_qr_scan"}, "fusion_lon": 0.0, "lat": 38.914629833333336, "bike_id": "d726dc090e53150f90857944141bdcf5", "type": "electric_scooter", "is_reserved": 0, "lon": -77.002139}, {"fusion_lat": 0.0, "name": "d1af3c17d2757d8458d30df02dd2525d", "is_disabled": 0, "rental_uris": {"android": "https://dc.lft.to/lastmile_qr_scan", "ios": "https://dc.lft.to/lastmile_qr_scan"}, "fusion_lon": 0.0, "lat": 38.900413, "bike_id": "d1af3c17d2757d8458d30df02dd2525d", "type": "electric_scooter", "is_reserved": 0, "lon": -76.99148983333333}, {"fusion_lat": 0.0, "name": "0b8d2fface0a284b6d75aaaf1f3cbd6e", "is_disabled": 0, "rental_uris": {"android": "https://dc.lft.to/lastmile_qr_scan", "ios": "https://dc.lft.to/lastmile_qr_scan"}, "fusion_lon": 0.0, "lat": 38.9502405, "bike_id": "0b8d2fface0a284b6d75aaaf1f3cbd6e", "type": "electric_scooter", "is_reserved": 0, "lon": -77.08025366666666}, {"fusion_lat": 0.0, "name": "21956877f9b213a0acb195bcc0bf30a0", "is_disabled": 0, "rental_uris": {"android": "https://dc.lft.to/lastmile_qr_scan", "ios": "https://dc.lft.to/lastmile_qr_scan"}, "fusion_lon": 0.0, "lat": 38.94406083333333, "bike_id": "21956877f9b213a0acb195bcc0bf30a0", "type": "electric_scooter", "is_reserved": 0, "lon": -77.0386675}, {"fusion_lat": 0.0, "name": "da22000da8bcbf4012583c39ba6bd886", "is_disabled": 0, "rental_uris": {"android": "https://dc.lft.to/lastmile_qr_scan", "ios": "https://dc.lft.to/lastmile_qr_scan"}, "fusion_lon": 0.0, "lat": 38.92452566666667, "bike_id": "da22000da8bcbf4012583c39ba6bd886", "type": "electric_scooter", "is_reserved": 0, "lon": -77.040229}, {"fusion_lat": 0.0, "name": "e88cfa9f0c5044b722cdf42ad80c4396", "is_disabled": 0, "rental_uris": {"android": "https://dc.lft.to/lastmile_qr_scan", "ios": "https://dc.lft.to/lastmile_qr_scan"}, "fusion_lon": 0.0, "lat": 38.8921875, "bike_id": "e88cfa9f0c5044b722cdf42ad80c4396", "type": "electric_scooter", "is_reserved": 0, "lon": -77.04868116666667}, {"fusion_lat": 0.0, "name": "640264400933e201fe516ddc11ebbda8", "is_disabled": 0, "rental_uris": {"android": "https://dc.lft.to/lastmile_qr_scan", "ios": "https://dc.lft.to/lastmile_qr_scan"}, "fusion_lon": 0.0, "lat": 38.909696333333336, "bike_id": "640264400933e201fe516ddc11ebbda8", "type": "electric_scooter", "is_reserved": 0, "lon": -77.03208266666667}, {"fusion_lat": 0.0, "name": "d9408f2f321a617e446119ba99d4e123", "is_disabled": 0, "rental_uris": {"android": "https://dc.lft.to/lastmile_qr_scan", "ios": "https://dc.lft.to/lastmile_qr_scan"}, "fusion_lon": 0.0, "lat": 38.90489733333333, "bike_id": "d9408f2f321a617e446119ba99d4e123", "type": "electric_scooter", "is_reserved": 0, "lon": -77.00735}, {"fusion_lat": 0.0, "name": "75c175facb312f535fffc6518df36cb0", "is_disabled": 0, "rental_uris": {"android": "https://dc.lft.to/lastmile_qr_scan", "ios": "https://dc.lft.to/lastmile_qr_scan"}, "fusion_lon": 0.0, "lat": 38.907143833333336, "bike_id": "75c175facb312f535fffc6518df36cb0", "type": "electric_scooter", "is_reserved": 0, "lon": -77.05132283333333}, {"fusion_lat": 0.0, "name": "53f0deb0205a3be1f9346c9332a94a25", "is_disabled": 0, "rental_uris": {"android": "https://dc.lft.to/lastmile_qr_scan", "ios": "https://dc.lft.to/lastmile_qr_scan"}, "fusion_lon": 0.0, "lat": 38.934829666666666, "bike_id": "53f0deb0205a3be1f9346c9332a94a25", "type": "electric_scooter", "is_reserved": 0, "lon": -77.02717333333334}, {"fusion_lat": 0.0, "name": "d1c84baa68a7d768d0766ea4b8fab854", "is_disabled": 0, "rental_uris": {"android": "https://dc.lft.to/lastmile_qr_scan", "ios": "https://dc.lft.to/lastmile_qr_scan"}, "fusion_lon": 0.0, "lat": 38.93101433333333, "bike_id": "d1c84baa68a7d768d0766ea4b8fab854", "type": "electric_scooter", "is_reserved": 0, "lon": -77.02664816666666}, {"fusion_lat": 0.0, "name": "ae5d2b08b74c9279276c49b6ddbb0398", "is_disabled": 0, "rental_uris": {"android": "https://dc.lft.to/lastmile_qr_scan", "ios": "https://dc.lft.to/lastmile_qr_scan"}, "fusion_lon": 0.0, "lat": 38.8923825, "bike_id": "ae5d2b08b74c9279276c49b6ddbb0398", "type": "electric_scooter", "is_reserved": 0, "lon": -77.02385116666666}, {"fusion_lat": 0.0, "name": "428ebe1d321990f77c5ce6e05818754f", "is_disabled": 0, "rental_uris": {"android": "https://dc.lft.to/lastmile_qr_scan", "ios": "https://dc.lft.to/lastmile_qr_scan"}, "fusion_lon": 0.0, "lat": 38.822246666666665, "bike_id": "428ebe1d321990f77c5ce6e05818754f", "type": "electric_bike", "is_reserved": 0, "lon": -77.00181133333334}, {"fusion_lat": 0.0, "name": "b1f50bc1e2f2ec24d4991a49bd212d24", "is_disabled": 0, "rental_uris": {"android": "https://dc.lft.to/lastmile_qr_scan", "ios": "https://dc.lft.to/lastmile_qr_scan"}, "fusion_lon": 0.0, "lat": 38.91270566666667, "bike_id": "b1f50bc1e2f2ec24d4991a49bd212d24", "type": "electric_scooter", "is_reserved": 0, "lon": -77.0223355}, {"fusion_lat": 0.0, "name": "4e5253a8df1ffa6493c3a0eb1f21f460", "is_disabled": 0, "rental_uris": {"android": "https://dc.lft.to/lastmile_qr_scan", "ios": "https://dc.lft.to/lastmile_qr_scan"}, "fusion_lon": 0.0, "lat": 38.89227666666667, "bike_id": "4e5253a8df1ffa6493c3a0eb1f21f460", "type": "electric_scooter", "is_reserved": 0, "lon": -77.03220983333334}, {"fusion_lat": 0.0, "name": "6b3c958961ea890de7dba9a35f6a5384", "is_disabled": 0, "rental_uris": {"android": "https://dc.lft.to/lastmile_qr_scan", "ios": "https://dc.lft.to/lastmile_qr_scan"}, "fusion_lon": 0.0, "lat": 38.896138666666666, "bike_id": "6b3c958961ea890de7dba9a35f6a5384", "type": "electric_scooter", "is_reserved": 0, "lon": -77.02678033333333}, {"fusion_lat": 0.0, "name": "8acd064570195213620c9da0a78843bd", "is_disabled": 0, "rental_uris": {"android": "https://dc.lft.to/lastmile_qr_scan", "ios": "https://dc.lft.to/lastmile_qr_scan"}, "fusion_lon": 0.0, "lat": 38.92099266666666, "bike_id": "8acd064570195213620c9da0a78843bd", "type": "electric_scooter", "is_reserved": 0, "lon": -77.0298975}, {"fusion_lat": 0.0, "name": "c477e9a90e8a98ffad76b941ad510ef8", "is_disabled": 0, "rental_uris": {"android": "https://dc.lft.to/lastmile_qr_scan", "ios": "https://dc.lft.to/lastmile_qr_scan"}, "fusion_lon": 0.0, "lat": 38.84298533333333, "bike_id": "c477e9a90e8a98ffad76b941ad510ef8", "type": "electric_bike", "is_reserved": 0, "lon": -77.10868283333333}, {"fusion_lat": 0.0, "name": "a50006e5fb0562e0b84a6229c1f62033", "is_disabled": 0, "rental_uris": {"android": "https://dc.lft.to/lastmile_qr_scan", "ios": "https://dc.lft.to/lastmile_qr_scan"}, "fusion_lon": 0.0, "lat": 38.899004166666664, "bike_id": "a50006e5fb0562e0b84a6229c1f62033", "type": "electric_scooter", "is_reserved": 0, "lon": -76.945471}, {"fusion_lat": 0.0, "name": "e271a47519d1f17f0619f2e53dd076af", "is_disabled": 0, "rental_uris": {"android": "https://dc.lft.to/lastmile_qr_scan", "ios": "https://dc.lft.to/lastmile_qr_scan"}, "fusion_lon": 0.0, "lat": 38.947397333333335, "bike_id": "e271a47519d1f17f0619f2e53dd076af", "type": "electric_scooter", "is_reserved": 0, "lon": -77.01618533333334}, {"fusion_lat": 0.0, "name": "3d32c3277df2b9eba3b684f024f897c1", "is_disabled": 0, "rental_uris": {"android": "https://dc.lft.to/lastmile_qr_scan", "ios": "https://dc.lft.to/lastmile_qr_scan"}, "fusion_lon": 0.0, "lat": 38.91405683333333, "bike_id": "3d32c3277df2b9eba3b684f024f897c1", "type": "electric_scooter", "is_reserved": 0, "lon": -77.00853333333333}, {"fusion_lat": 0.0, "name": "5434cbd0f75113921f566d741c3de9ed", "is_disabled": 0, "rental_uris": {"android": "https://dc.lft.to/lastmile_qr_scan", "ios": "https://dc.lft.to/lastmile_qr_scan"}, "fusion_lon": 0.0, "lat": 38.902394, "bike_id": "5434cbd0f75113921f566d741c3de9ed", "type": "electric_scooter", "is_reserved": 0, "lon": -77.06144066666667}, {"fusion_lat": 0.0, "name": "040f26e9dc3ed74ffc7e22bab94b7427", "is_disabled": 0, "rental_uris": {"android": "https://dc.lft.to/lastmile_qr_scan", "ios": "https://dc.lft.to/lastmile_qr_scan"}, "fusion_lon": 0.0, "lat": 38.9073665, "bike_id": "040f26e9dc3ed74ffc7e22bab94b7427", "type": "electric_scooter", "is_reserved": 0, "lon": -77.041474}, {"fusion_lat": 0.0, "name": "8ed38831d516ee554a1268c714f7bb96", "is_disabled": 0, "rental_uris": {"android": "https://dc.lft.to/lastmile_qr_scan", "ios": "https://dc.lft.to/lastmile_qr_scan"}, "fusion_lon": 0.0, "lat": 38.88114083333333, "bike_id": "8ed38831d516ee554a1268c714f7bb96", "type": "electric_bike", "is_reserved": 0, "lon": -77.00183216666667}, {"fusion_lat": 0.0, "name": "74ec13199f7f4d1aca7b83f9d1a31473", "is_disabled": 0, "rental_uris": {"android": "https://dc.lft.to/lastmile_qr_scan", "ios": "https://dc.lft.to/lastmile_qr_scan"}, "fusion_lon": 0.0, "lat": 38.929888166666665, "bike_id": "74ec13199f7f4d1aca7b83f9d1a31473", "type": "electric_scooter", "is_reserved": 0, "lon": -77.03474983333334}, {"fusion_lat": 0.0, "name": "a3a5460f55b5839a6bf5231c383b622a", "is_disabled": 0, "rental_uris": {"android": "https://dc.lft.to/lastmile_qr_scan", "ios": "https://dc.lft.to/lastmile_qr_scan"}, "fusion_lon": 0.0, "lat": 38.93075483333333, "bike_id": "a3a5460f55b5839a6bf5231c383b622a", "type": "electric_scooter", "is_reserved": 0, "lon": -77.0315915}, {"fusion_lat": 0.0, "name": "698bd227f8df86e9040e9fd5b8b19759", "is_disabled": 0, "rental_uris": {"android": "https://dc.lft.to/lastmile_qr_scan", "ios": "https://dc.lft.to/lastmile_qr_scan"}, "fusion_lon": 0.0, "lat": 38.90809566666667, "bike_id": "698bd227f8df86e9040e9fd5b8b19759", "type": "electric_scooter", "is_reserved": 0, "lon": -77.0417495}, {"fusion_lat": 0.0, "name": "983115e9a6d3ab830213f59e208708ec", "is_disabled": 0, "rental_uris": {"android": "https://dc.lft.to/lastmile_qr_scan", "ios": "https://dc.lft.to/lastmile_qr_scan"}, "fusion_lon": 0.0, "lat": 38.8840005, "bike_id": "983115e9a6d3ab830213f59e208708ec", "type": "electric_scooter", "is_reserved": 0, "lon": -77.0295695}, {"fusion_lat": 0.0, "name": "42c978fecc6744fd01aa8eda774ac84b", "is_disabled": 0, "rental_uris": {"android": "https://dc.lft.to/lastmile_qr_scan", "ios": "https://dc.lft.to/lastmile_qr_scan"}, "fusion_lon": 0.0, "lat": 38.90980416666667, "bike_id": "42c978fecc6744fd01aa8eda774ac84b", "type": "electric_scooter", "is_reserved": 0, "lon": -77.03935383333334}, {"fusion_lat": 0.0, "name": "f08608411496d1ae9c6cf922b47d7b87", "is_disabled": 0, "rental_uris": {"android": "https://dc.lft.to/lastmile_qr_scan", "ios": "https://dc.lft.to/lastmile_qr_scan"}, "fusion_lon": 0.0, "lat": 38.9043705, "bike_id": "f08608411496d1ae9c6cf922b47d7b87", "type": "electric_scooter", "is_reserved": 0, "lon": -76.97948633333333}, {"fusion_lat": 0.0, "name": "d125e834cd6fcea98b8855e81b55d927", "is_disabled": 0, "rental_uris": {"android": "https://dc.lft.to/lastmile_qr_scan", "ios": "https://dc.lft.to/lastmile_qr_scan"}, "fusion_lon": 0.0, "lat": 38.90800216666667, "bike_id": "d125e834cd6fcea98b8855e81b55d927", "type": "electric_scooter", "is_reserved": 0, "lon": -77.04347683333333}, {"fusion_lat": 0.0, "name": "f91b287225cd543c4e5f65b47e9464e0", "is_disabled": 0, "rental_uris": {"android": "https://dc.lft.to/lastmile_qr_scan", "ios": "https://dc.lft.to/lastmile_qr_scan"}, "fusion_lon": 0.0, "lat": 38.876593, "bike_id": "f91b287225cd543c4e5f65b47e9464e0", "type": "electric_scooter", "is_reserved": 0, "lon": -77.00440266666666}, {"fusion_lat": 0.0, "name": "7ad432ae3fb37be20e88ff254b745fd9", "is_disabled": 0, "rental_uris": {"android": "https://dc.lft.to/lastmile_qr_scan", "ios": "https://dc.lft.to/lastmile_qr_scan"}, "fusion_lon": 0.0, "lat": 38.887406, "bike_id": "7ad432ae3fb37be20e88ff254b745fd9", "type": "electric_scooter", "is_reserved": 0, "lon": -76.9985005}, {"fusion_lat": 0.0, "name": "1a76845d5f7b9e3c665f9dec4d5c03f5", "is_disabled": 0, "rental_uris": {"android": "https://dc.lft.to/lastmile_qr_scan", "ios": "https://dc.lft.to/lastmile_qr_scan"}, "fusion_lon": 0.0, "lat": 38.90175933333333, "bike_id": "1a76845d5f7b9e3c665f9dec4d5c03f5", "type": "electric_scooter", "is_reserved": 0, "lon": -76.9807865}, {"fusion_lat": 0.0, "name": "889e7d469cb1f78f3610a3395cd19a24", "is_disabled": 0, "rental_uris": {"android": "https://dc.lft.to/lastmile_qr_scan", "ios": "https://dc.lft.to/lastmile_qr_scan"}, "fusion_lon": 0.0, "lat": 38.905960666666665, "bike_id": "889e7d469cb1f78f3610a3395cd19a24", "type": "electric_scooter", "is_reserved": 0, "lon": -77.016308}, {"fusion_lat": 0.0, "name": "605e2ad5b2932be3edbc182b23fa29c2", "is_disabled": 0, "rental_uris": {"android": "https://dc.lft.to/lastmile_qr_scan", "ios": "https://dc.lft.to/lastmile_qr_scan"}, "fusion_lon": 0.0, "lat": 38.929948333333336, "bike_id": "605e2ad5b2932be3edbc182b23fa29c2", "type": "electric_scooter", "is_reserved": 0, "lon": -77.037966}, {"fusion_lat": 0.0, "name": "11b65c45c8b08cf54a7ccb532c5f95a5", "is_disabled": 0, "rental_uris": {"android": "https://dc.lft.to/lastmile_qr_scan", "ios": "https://dc.lft.to/lastmile_qr_scan"}, "fusion_lon": 0.0, "lat": 38.836078, "bike_id": "11b65c45c8b08cf54a7ccb532c5f95a5", "type": "electric_bike", "is_reserved": 0, "lon": -77.0038485}, {"fusion_lat": 0.0, "name": "d0350c5e49e6de626a761bfd87060ed8", "is_disabled": 0, "rental_uris": {"android": "https://dc.lft.to/lastmile_qr_scan", "ios": "https://dc.lft.to/lastmile_qr_scan"}, "fusion_lon": 0.0, "lat": 38.92128116666667, "bike_id": "d0350c5e49e6de626a761bfd87060ed8", "type": "electric_scooter", "is_reserved": 0, "lon": -77.04377333333333}, {"fusion_lat": 0.0, "name": "0b673f29d0b80fbd7a68c1e3d04c31b4", "is_disabled": 0, "rental_uris": {"android": "https://dc.lft.to/lastmile_qr_scan", "ios": "https://dc.lft.to/lastmile_qr_scan"}, "fusion_lon": 0.0, "lat": 38.9206355, "bike_id": "0b673f29d0b80fbd7a68c1e3d04c31b4", "type": "electric_scooter", "is_reserved": 0, "lon": -77.024047}, {"fusion_lat": 0.0, "name": "cbfb64f6235e7567566cc7a68c95c5d1", "is_disabled": 0, "rental_uris": {"android": "https://dc.lft.to/lastmile_qr_scan", "ios": "https://dc.lft.to/lastmile_qr_scan"}, "fusion_lon": 0.0, "lat": 38.9242925, "bike_id": "cbfb64f6235e7567566cc7a68c95c5d1", "type": "electric_scooter", "is_reserved": 0, "lon": -77.02024133333333}, {"fusion_lat": 0.0, "name": "e4bd03827516faa198bd4242e96eed82", "is_disabled": 0, "rental_uris": {"android": "https://dc.lft.to/lastmile_qr_scan", "ios": "https://dc.lft.to/lastmile_qr_scan"}, "fusion_lon": 0.0, "lat": 38.88753533333333, "bike_id": "e4bd03827516faa198bd4242e96eed82", "type": "electric_scooter", "is_reserved": 0, "lon": -76.99369716666666}, {"fusion_lat": 0.0, "name": "f7b17aa4488d370b59b92e6b005b0d49", "is_disabled": 0, "rental_uris": {"android": "https://dc.lft.to/lastmile_qr_scan", "ios": "https://dc.lft.to/lastmile_qr_scan"}, "fusion_lon": 0.0, "lat": 38.92678983333333, "bike_id": "f7b17aa4488d370b59b92e6b005b0d49", "type": "electric_scooter", "is_reserved": 0, "lon": -77.030972}, {"fusion_lat": 0.0, "name": "43a915ff36afa9242c7ef7c2ca407751", "is_disabled": 0, "rental_uris": {"android": "https://dc.lft.to/lastmile_qr_scan", "ios": "https://dc.lft.to/lastmile_qr_scan"}, "fusion_lon": 0.0, "lat": 38.90562466666667, "bike_id": "43a915ff36afa9242c7ef7c2ca407751", "type": "electric_scooter", "is_reserved": 0, "lon": -77.03437633333333}, {"fusion_lat": 0.0, "name": "f6cfa4c0868ec1812da2725dfbfd4d52", "is_disabled": 0, "rental_uris": {"android": "https://dc.lft.to/lastmile_qr_scan", "ios": "https://dc.lft.to/lastmile_qr_scan"}, "fusion_lon": 0.0, "lat": 38.914879166666665, "bike_id": "f6cfa4c0868ec1812da2725dfbfd4d52", "type": "electric_scooter", "is_reserved": 0, "lon": -77.03839716666667}, {"fusion_lat": 0.0, "name": "a4393e54e134780b95ad90a5cd21d303", "is_disabled": 0, "rental_uris": {"android": "https://dc.lft.to/lastmile_qr_scan", "ios": "https://dc.lft.to/lastmile_qr_scan"}, "fusion_lon": 0.0, "lat": 38.89232233333333, "bike_id": "a4393e54e134780b95ad90a5cd21d303", "type": "electric_scooter", "is_reserved": 0, "lon": -77.0281595}, {"fusion_lat": 0.0, "name": "3cda91c43d8fb98eef2c696825b61cb7", "is_disabled": 0, "rental_uris": {"android": "https://dc.lft.to/lastmile_qr_scan", "ios": "https://dc.lft.to/lastmile_qr_scan"}, "fusion_lon": 0.0, "lat": 38.89748433333333, "bike_id": "3cda91c43d8fb98eef2c696825b61cb7", "type": "electric_scooter", "is_reserved": 0, "lon": -76.9418665}, {"fusion_lat": 0.0, "name": "bf5924e2f437ad177a914a10b051cd38", "is_disabled": 0, "rental_uris": {"android": "https://dc.lft.to/lastmile_qr_scan", "ios": "https://dc.lft.to/lastmile_qr_scan"}, "fusion_lon": 0.0, "lat": 38.92451233333333, "bike_id": "bf5924e2f437ad177a914a10b051cd38", "type": "electric_scooter", "is_reserved": 0, "lon": -77.04017916666666}, {"fusion_lat": 0.0, "name": "4fdbf2191f4b1bb2ffb42a55477c0c32", "is_disabled": 0, "rental_uris": {"android": "https://dc.lft.to/lastmile_qr_scan", "ios": "https://dc.lft.to/lastmile_qr_scan"}, "fusion_lon": 0.0, "lat": 38.896116666666664, "bike_id": "4fdbf2191f4b1bb2ffb42a55477c0c32", "type": "electric_scooter", "is_reserved": 0, "lon": -77.0267795}, {"fusion_lat": 0.0, "name": "d55f7ea51837a1728a405dc5f19a8e43", "is_disabled": 0, "rental_uris": {"android": "https://dc.lft.to/lastmile_qr_scan", "ios": "https://dc.lft.to/lastmile_qr_scan"}, "fusion_lon": 0.0, "lat": 38.90675183333333, "bike_id": "d55f7ea51837a1728a405dc5f19a8e43", "type": "electric_scooter", "is_reserved": 0, "lon": -77.02696583333334}, {"fusion_lat": 0.0, "name": "ac4d8e7fd6b66fa80063612b32392700", "is_disabled": 0, "rental_uris": {"android": "https://dc.lft.to/lastmile_qr_scan", "ios": "https://dc.lft.to/lastmile_qr_scan"}, "fusion_lon": 0.0, "lat": 38.90017366666667, "bike_id": "ac4d8e7fd6b66fa80063612b32392700", "type": "electric_scooter", "is_reserved": 0, "lon": -77.00688716666667}, {"fusion_lat": 0.0, "name": "a7d4a0906faa506d856041556e3c3495", "is_disabled": 0, "rental_uris": {"android": "https://dc.lft.to/lastmile_qr_scan", "ios": "https://dc.lft.to/lastmile_qr_scan"}, "fusion_lon": 0.0, "lat": 38.931865333333334, "bike_id": "a7d4a0906faa506d856041556e3c3495", "type": "electric_scooter", "is_reserved": 0, "lon": -77.01965183333333}, {"fusion_lat": 0.0, "name": "0e0e8965c0fbf6d0e20c7d3fa702c05c", "is_disabled": 0, "rental_uris": {"android": "https://dc.lft.to/lastmile_qr_scan", "ios": "https://dc.lft.to/lastmile_qr_scan"}, "fusion_lon": 0.0, "lat": 38.91951983333333, "bike_id": "0e0e8965c0fbf6d0e20c7d3fa702c05c", "type": "electric_scooter", "is_reserved": 0, "lon": -77.01809933333334}, {"fusion_lat": 0.0, "name": "bc5cb09635e2240efa6b498c29b346b0", "is_disabled": 0, "rental_uris": {"android": "https://dc.lft.to/lastmile_qr_scan", "ios": "https://dc.lft.to/lastmile_qr_scan"}, "fusion_lon": 0.0, "lat": 38.92177433333333, "bike_id": "bc5cb09635e2240efa6b498c29b346b0", "type": "electric_scooter", "is_reserved": 0, "lon": -77.04243333333334}, {"fusion_lat": 0.0, "name": "82629f616f15d67d4398cfe1f23234ff", "is_disabled": 0, "rental_uris": {"android": "https://dc.lft.to/lastmile_qr_scan", "ios": "https://dc.lft.to/lastmile_qr_scan"}, "fusion_lon": 0.0, "lat": 38.898445, "bike_id": "82629f616f15d67d4398cfe1f23234ff", "type": "electric_scooter", "is_reserved": 0, "lon": -77.029649}, {"fusion_lat": 0.0, "name": "a8ba49ecb39f7fbc295957abba71690b", "is_disabled": 0, "rental_uris": {"android": "https://dc.lft.to/lastmile_qr_scan", "ios": "https://dc.lft.to/lastmile_qr_scan"}, "fusion_lon": 0.0, "lat": 38.99389216666667, "bike_id": "a8ba49ecb39f7fbc295957abba71690b", "type": "electric_bike", "is_reserved": 0, "lon": -76.92879066666667}, {"fusion_lat": 0.0, "name": "ac60ba43839a744d5c26761b12aa46e2", "is_disabled": 0, "rental_uris": {"android": "https://dc.lft.to/lastmile_qr_scan", "ios": "https://dc.lft.to/lastmile_qr_scan"}, "fusion_lon": 0.0, "lat": 38.94919933333333, "bike_id": "ac60ba43839a744d5c26761b12aa46e2", "type": "electric_bike", "is_reserved": 0, "lon": -77.0079755}, {"fusion_lat": 0.0, "name": "bc81d13a0c4315a27cf81bf2f1efd409", "is_disabled": 0, "rental_uris": {"android": "https://dc.lft.to/lastmile_qr_scan", "ios": "https://dc.lft.to/lastmile_qr_scan"}, "fusion_lon": 0.0, "lat": 38.9247675, "bike_id": "bc81d13a0c4315a27cf81bf2f1efd409", "type": "electric_scooter", "is_reserved": 0, "lon": -77.03529966666666}, {"fusion_lat": 0.0, "name": "645aaaae7a9cf75955495fb95fb310b0", "is_disabled": 0, "rental_uris": {"android": "https://dc.lft.to/lastmile_qr_scan", "ios": "https://dc.lft.to/lastmile_qr_scan"}, "fusion_lon": 0.0, "lat": 38.920838, "bike_id": "645aaaae7a9cf75955495fb95fb310b0", "type": "electric_scooter", "is_reserved": 0, "lon": -77.02402266666667}, {"fusion_lat": 0.0, "name": "717dfe6c98855b3116eb14a113e423bb", "is_disabled": 0, "rental_uris": {"android": "https://dc.lft.to/lastmile_qr_scan", "ios": "https://dc.lft.to/lastmile_qr_scan"}, "fusion_lon": 0.0, "lat": 38.901327333333334, "bike_id": "717dfe6c98855b3116eb14a113e423bb", "type": "electric_scooter", "is_reserved": 0, "lon": -77.04499533333333}, {"fusion_lat": 0.0, "name": "65527bbd56510fb2e83db7d08342efe7", "is_disabled": 0, "rental_uris": {"android": "https://dc.lft.to/lastmile_qr_scan", "ios": "https://dc.lft.to/lastmile_qr_scan"}, "fusion_lon": 0.0, "lat": 38.91677333333333, "bike_id": "65527bbd56510fb2e83db7d08342efe7", "type": "electric_scooter", "is_reserved": 0, "lon": -77.027174}, {"fusion_lat": 0.0, "name": "c81943dc75ae4816076bc410381765e7", "is_disabled": 0, "rental_uris": {"android": "https://dc.lft.to/lastmile_qr_scan", "ios": "https://dc.lft.to/lastmile_qr_scan"}, "fusion_lon": 0.0, "lat": 38.98822283333333, "bike_id": "c81943dc75ae4816076bc410381765e7", "type": "electric_bike", "is_reserved": 0, "lon": -77.02648983333333}, {"fusion_lat": 0.0, "name": "257eb981fc7704b578cdc9915c7f41c9", "is_disabled": 0, "rental_uris": {"android": "https://dc.lft.to/lastmile_qr_scan", "ios": "https://dc.lft.to/lastmile_qr_scan"}, "fusion_lon": 0.0, "lat": 38.91661083333334, "bike_id": "257eb981fc7704b578cdc9915c7f41c9", "type": "electric_scooter", "is_reserved": 0, "lon": -77.02274233333333}, {"fusion_lat": 0.0, "name": "27d7f3755088c85473745d57b3d75306", "is_disabled": 0, "rental_uris": {"android": "https://dc.lft.to/lastmile_qr_scan", "ios": "https://dc.lft.to/lastmile_qr_scan"}, "fusion_lon": 0.0, "lat": 38.93088816666667, "bike_id": "27d7f3755088c85473745d57b3d75306", "type": "electric_scooter", "is_reserved": 0, "lon": -77.02005316666667}, {"fusion_lat": 0.0, "name": "71059757a0b7051183c4b6b10a11b165", "is_disabled": 0, "rental_uris": {"android": "https://dc.lft.to/lastmile_qr_scan", "ios": "https://dc.lft.to/lastmile_qr_scan"}, "fusion_lon": 0.0, "lat": 38.9224195, "bike_id": "71059757a0b7051183c4b6b10a11b165", "type": "electric_scooter", "is_reserved": 0, "lon": -77.03660133333334}, {"fusion_lat": 0.0, "name": "6f47bc91aeffa1174b11d3067498d5b0", "is_disabled": 0, "rental_uris": {"android": "https://dc.lft.to/lastmile_qr_scan", "ios": "https://dc.lft.to/lastmile_qr_scan"}, "fusion_lon": 0.0, "lat": 38.8846005, "bike_id": "6f47bc91aeffa1174b11d3067498d5b0", "type": "electric_bike", "is_reserved": 0, "lon": -76.95222766666667}, {"fusion_lat": 0.0, "name": "20d20a894f536a85c7476e9967e56277", "is_disabled": 0, "rental_uris": {"android": "https://dc.lft.to/lastmile_qr_scan", "ios": "https://dc.lft.to/lastmile_qr_scan"}, "fusion_lon": 0.0, "lat": 38.90396366666667, "bike_id": "20d20a894f536a85c7476e9967e56277", "type": "electric_scooter", "is_reserved": 0, "lon": -77.03832883333334}, {"fusion_lat": 0.0, "name": "bdb8743ddf6aab667f832a1e6b5238a7", "is_disabled": 0, "rental_uris": {"android": "https://dc.lft.to/lastmile_qr_scan", "ios": "https://dc.lft.to/lastmile_qr_scan"}, "fusion_lon": 0.0, "lat": 38.90487316666667, "bike_id": "bdb8743ddf6aab667f832a1e6b5238a7", "type": "electric_scooter", "is_reserved": 0, "lon": -77.04872016666667}, {"fusion_lat": 0.0, "name": "137c243a9b699665c267b44b2d6d6c77", "is_disabled": 0, "rental_uris": {"android": "https://dc.lft.to/lastmile_qr_scan", "ios": "https://dc.lft.to/lastmile_qr_scan"}, "fusion_lon": 0.0, "lat": 38.911062333333334, "bike_id": "137c243a9b699665c267b44b2d6d6c77", "type": "electric_scooter", "is_reserved": 0, "lon": -77.00215233333333}, {"fusion_lat": 0.0, "name": "37d2d42497abfb2ffe39802e5ec46186", "is_disabled": 0, "rental_uris": {"android": "https://dc.lft.to/lastmile_qr_scan", "ios": "https://dc.lft.to/lastmile_qr_scan"}, "fusion_lon": 0.0, "lat": 38.900493, "bike_id": "37d2d42497abfb2ffe39802e5ec46186", "type": "electric_scooter", "is_reserved": 0, "lon": -77.00221616666667}, {"fusion_lat": 0.0, "name": "ee5ff4be7e97f53495fc908471ac4ebb", "is_disabled": 0, "rental_uris": {"android": "https://dc.lft.to/lastmile_qr_scan", "ios": "https://dc.lft.to/lastmile_qr_scan"}, "fusion_lon": 0.0, "lat": 38.889944, "bike_id": "ee5ff4be7e97f53495fc908471ac4ebb", "type": "electric_bike", "is_reserved": 0, "lon": -77.07135183333334}, {"fusion_lat": 0.0, "name": "34a569b3b8f357ad8d648f554c3e8a54", "is_disabled": 0, "rental_uris": {"android": "https://dc.lft.to/lastmile_qr_scan", "ios": "https://dc.lft.to/lastmile_qr_scan"}, "fusion_lon": 0.0, "lat": 38.90773683333333, "bike_id": "34a569b3b8f357ad8d648f554c3e8a54", "type": "electric_scooter", "is_reserved": 0, "lon": -77.0354195}, {"fusion_lat": 0.0, "name": "96300798499c4c822075e5b31f692675", "is_disabled": 0, "rental_uris": {"android": "https://dc.lft.to/lastmile_qr_scan", "ios": "https://dc.lft.to/lastmile_qr_scan"}, "fusion_lon": 0.0, "lat": 38.904805833333334, "bike_id": "96300798499c4c822075e5b31f692675", "type": "electric_scooter", "is_reserved": 0, "lon": -77.0260695}, {"fusion_lat": 0.0, "name": "790dc270f5fe9dacaa15b39259901999", "is_disabled": 0, "rental_uris": {"android": "https://dc.lft.to/lastmile_qr_scan", "ios": "https://dc.lft.to/lastmile_qr_scan"}, "fusion_lon": 0.0, "lat": 38.917296666666665, "bike_id": "790dc270f5fe9dacaa15b39259901999", "type": "electric_scooter", "is_reserved": 0, "lon": -77.0270435},