{"data": {"bikes": [{"name": "51b9fcacbf1b5640fe1188ffc657d9f9", "type": "electric_scooter", "fusion_lon": 0.0, "lon": -77.04062116666667, "is_disabled": 0, "lat": 38.9314475, "fusion_lat": 0.0, "is_reserved": 0, "rental_uris": {"android": "https://dc.lft.to/lastmile_qr_scan", "ios": "https://dc.lft.to/lastmile_qr_scan"}, "bike_id": "51b9fcacbf1b5640fe1188ffc657d9f9"}, {"name": "6efa8b982a6e6b122b5205c5992399dc", "type": "electric_scooter", "fusion_lon": 0.0, "lon": -77.03849933333333, "is_disabled": 0, "lat": 38.902820166666665, "fusion_lat": 0.0, "is_reserved": 0, "rental_uris": {"android": "https://dc.lft.to/lastmile_qr_scan", "ios": "https://dc.lft.to/lastmile_qr_scan"}, "bike_id": "6efa8b982a6e6b122b5205c5992399dc"}, {"name": "e05c58dcd147828b82cfea5297ebe4e2", "type": "electric_scooter", "fusion_lon": 0.0, "lon": -77.021756, "is_disabled": 0, "lat": 38.942926166666666, "fusion_lat": 0.0, "is_reserved": 0, "rental_uris": {"android": "https://dc.lft.to/lastmile_qr_scan", "ios": "https://dc.lft.to/lastmile_qr_scan"}, "bike_id": "e05c58dcd147828b82cfea5297ebe4e2"}, {"name": "f881658089fea96c0bffd830775a4079", "type": "electric_scooter", "fusion_lon": 0.0, "lon": -77.02962366666667, "is_disabled": 0, "lat": 38.922736, "fusion_lat": 0.0, "is_reserved": 0, "rental_uris": {"android": "https://dc.lft.to/lastmile_qr_scan", "ios": "https://dc.lft.to/lastmile_qr_scan"}, "bike_id": "f881658089fea96c0bffd830775a4079"}, {"name": "d4c534be068c0a9a3f58a2657becbb4d", "type": "electric_scooter", "fusion_lon": 0.0, "lon": -77.031957, "is_disabled": 0, "lat": 38.93067333333333, "fusion_lat": 0.0, "is_reserved": 0, "rental_uris": {"android": "https://dc.lft.to/lastmile_qr_scan", "ios": "https://dc.lft.to/lastmile_qr_scan"}, "bike_id": "d4c534be068c0a9a3f58a2657becbb4d"}, {"name": "5222ad016d139a3b0f8e4c2772b1a54d", "type": "electric_scooter", "fusion_lon": 0.0, "lon": -77.04697716666666, "is_disabled": 0, "lat": 38.90097, "fusion_lat": 0.0, "is_reserved": 0, "rental_uris": {"android": "https://dc.lft.to/lastmile_qr_scan", "ios": "https://dc.lft.to/lastmile_qr_scan"}, "bike_id": "5222ad016d139a3b0f8e4c2772b1a54d"}, {"name": "0c0ef78ff3f53b44df6ab63067c07675", "type": "electric_scooter", "fusion_lon": 0.0, "lon": -77.022406, "is_disabled": 0, "lat": 38.924701166666665, "fusion_lat": 0.0, "is_reserved": 0, "rental_uris": {"android": "https://dc.lft.to/lastmile_qr_scan", "ios": "https://dc.lft.to/lastmile_qr_scan"}, "bike_id": "0c0ef78ff3f53b44df6ab63067c07675"}, {"name": "832af887539b4f7da067ab8cc3f896f1", "type": "electric_scooter", "fusion_lon": 0.0, "lon": -77.04117116666667, "is_disabled": 0, "lat": 38.93355666666667, "fusion_lat": 0.0, "is_reserved": 0, "rental_uris": {"android": "https://dc.lft.to/lastmile_qr_scan", "ios": "https://dc.lft.to/lastmile_qr_scan"}, "bike_id": "832af887539b4f7da067ab8cc3f896f1"}, {"name": "dd4f2c6e69dd09c5144c409aeb39f298", "type": "electric_scooter", "fusion_lon": 0.0, "lon": -77.026374, "is_disabled": 0, "lat": 38.892184, "fusion_lat": 0.0, "is_reserved": 0, "rental_uris": {"android": "https://dc.lft.to/lastmile_qr_scan", "ios": "https://dc.lft.to/lastmile_qr_scan"}, "bike_id": "dd4f2c6e69dd09c5144c409aeb39f298"}, {"name": "8fe7050a9d54fb05885d6bdb80765927", "type": "electric_scooter", "fusion_lon": 0.0, "lon": -77.04519366666666, "is_disabled": 0, "lat": 38.892230166666664, "fusion_lat": 0.0, "is_reserved": 0, "rental_uris": {"android": "https://dc.lft.to/lastmile_qr_scan", "ios": "https://dc.lft.to/lastmile_qr_scan"}, "bike_id": "8fe7050a9d54fb05885d6bdb80765927"}, {"name": "e6c7bb23314a59eb6d9290881dfa87f8", "type": "electric_scooter", "fusion_lon": 0.0, "lon": -76.98338183333334, "is_disabled": 0, "lat": 38.8656405, "fusion_lat": 0.0, "is_reserved": 0, "rental_uris": {"android": "https://dc.lft.to/lastmile_qr_scan", "ios": "https://dc.lft.to/lastmile_qr_scan"}, "bike_id": "e6c7bb23314a59eb6d9290881dfa87f8"}, {"name": "32f8abda75564e17b2d3840f17eb880d", "type": "electric_scooter", "fusion_lon": 0.0, "lon": -77.0234335, "is_disabled": 0, "lat": 38.931790666666664, "fusion_lat": 0.0, "is_reserved": 0, "rental_uris": {"android": "https://dc.lft.to/lastmile_qr_scan", "ios": "https://dc.lft.to/lastmile_qr_scan"}, "bike_id": "32f8abda75564e17b2d3840f17eb880d"}, {"name": "eb0f33f7005d15c67a8b1bff3d17be44", "type": "electric_bike", "fusion_lon": 0.0, "lon": -77.12974333333334, "is_disabled": 0, "lat": 38.79986133333333, "fusion_lat": 0.0, "is_reserved": 0, "rental_uris": {"android": "https://dc.lft.to/lastmile_qr_scan", "ios": "https://dc.lft.to/lastmile_qr_scan"}, "bike_id": "eb0f33f7005d15c67a8b1bff3d17be44"}, {"name": "900ce8c487bf8c6176f700b23cfc92e7", "type": "electric_scooter", "fusion_lon": 0.0, "lon": -77.0220185, "is_disabled": 0, "lat": 38.91594466666667, "fusion_lat": 0.0, "is_reserved": 0, "rental_uris": {"android": "https://dc.lft.to/lastmile_qr_scan", "ios": "https://dc.lft.to/lastmile_qr_scan"}, "bike_id": "900ce8c487bf8c6176f700b23cfc92e7"}, {"name": "66f48c98bfe6463996bc86fc85e54e26", "type": "electric_scooter", "fusion_lon": 0.0, "lon": -77.02301866666667, "is_disabled": 0, "lat": 38.91792233333334, "fusion_lat": 0.0, "is_reserved": 0, "rental_uris": {"android": "https://dc.lft.to/lastmile_qr_scan", "ios": "https://dc.lft.to/lastmile_qr_scan"}, "bike_id": "66f48c98bfe6463996bc86fc85e54e26"}, {"name": "33b93e7216f6c15280988ab37592e433", "type": "electric_scooter", "fusion_lon": 0.0, "lon": -77.05202366666667, "is_disabled": 0, "lat": 38.924664166666666, "fusion_lat": 0.0, "is_reserved": 0, "rental_uris": {"android": "https://dc.lft.to/lastmile_qr_scan", "ios": "https://dc.lft.to/lastmile_qr_scan"}, "bike_id": "33b93e7216f6c15280988ab37592e433"}, {"name": "bfffc84f332f995b96e657d628932abd", "type": "electric_scooter", "fusion_lon": 0.0, "lon": -77.012245, "is_disabled": 0, "lat": 38.92601033333333, "fusion_lat": 0.0, "is_reserved": 0, "rental_uris": {"android": "https://dc.lft.to/lastmile_qr_scan", "ios": "https://dc.lft.to/lastmile_qr_scan"}, "bike_id": "bfffc84f332f995b96e657d628932abd"}, {"name": "f942c75d66a7231b0d95b28ded72c34f", "type": "electric_scooter", "fusion_lon": 0.0, "lon": -77.02710616666667, "is_disabled": 0, "lat": 38.881429833333335, "fusion_lat": 0.0, "is_reserved": 0, "rental_uris": {"android": "https://dc.lft.to/lastmile_qr_scan", "ios": "https://dc.lft.to/lastmile_qr_scan"}, "bike_id": "f942c75d66a7231b0d95b28ded72c34f"}, {"name": "2ab621d285f4495d5693d69e5378587c", "type": "electric_scooter", "fusion_lon": 0.0, "lon": -77.03847366666666, "is_disabled": 0, "lat": 38.9086655, "fusion_lat": 0.0, "is_reserved": 0, "rental_uris": {"android": "https://dc.lft.to/lastmile_qr_scan", "ios": "https://dc.lft.to/lastmile_qr_scan"}, "bike_id": "2ab621d285f4495d5693d69e5378587c"}, {"name": "88b0bcf676d40d31d4c23260948196bc", "type": "electric_scooter", "fusion_lon": 0.0, "lon": -77.00709166666667, "is_disabled": 0, "lat": 38.88489166666667, "fusion_lat": 0.0, "is_reserved": 0, "rental_uris": {"android": "https://dc.lft.to/lastmile_qr_scan", "ios": "https://dc.lft.to/lastmile_qr_scan"}, "bike_id": "88b0bcf676d40d31d4c23260948196bc"}, {"name": "412e3ad9177a5222a381346a0bd9a187", "type": "electric_scooter", "fusion_lon": 0.0, "lon": -77.0330815, "is_disabled": 0, "lat": 38.9563485, "fusion_lat": 0.0, "is_reserved": 0, "rental_uris": {"android": "https://dc.lft.to/lastmile_qr_scan", "ios": "https://dc.lft.to/lastmile_qr_scan"}, "bike_id": "412e3ad9177a5222a381346a0bd9a187"}, {"name": "e4483e5a809fc2fabb4df03629ef2dc5", "type": "electric_scooter", "fusion_lon": 0.0, "lon": -76.98278616666667, "is_disabled": 0, "lat": 38.8675745, "fusion_lat": 0.0, "is_reserved": 0, "rental_uris": {"android": "https://dc.lft.to/lastmile_qr_scan", "ios": "https://dc.lft.to/lastmile_qr_scan"}, "bike_id": "e4483e5a809fc2fabb4df03629ef2dc5"}, {"name": "21c44199adff4765b7c4638bc88a87e9", "type": "electric_scooter", "fusion_lon": 0.0, "lon": -77.0033025, "is_disabled": 0, "lat": 38.88503866666667, "fusion_lat": 0.0, "is_reserved": 0, "rental_uris": {"android": "https://dc.lft.to/lastmile_qr_scan", "ios": "https://dc.lft.to/lastmile_qr_scan"}, "bike_id": "21c44199adff4765b7c4638bc88a87e9"}, {"name": "c66bbe9e004f048bb27acbe1b71416da", "type": "electric_scooter", "fusion_lon": 0.0, "lon": -77.04351483333333, "is_disabled": 0, "lat": 38.908051666666665, "fusion_lat": 0.0, "is_reserved": 0, "rental_uris": {"android": "https://dc.lft.to/lastmile_qr_scan", "ios": "https://dc.lft.to/lastmile_qr_scan"}, "bike_id": "c66bbe9e004f048bb27acbe1b71416da"}, {"name": "24bb0e9d445885aa95751553e2c7cc71", "type": "electric_scooter", "fusion_lon": 0.0, "lon": -76.98387233333334, "is_disabled": 0, "lat": 38.86669066666666, "fusion_lat": 0.0, "is_reserved": 0, "rental_uris": {"android": "https://dc.lft.to/lastmile_qr_scan", "ios": "https://dc.lft.to/lastmile_qr_scan"}, "bike_id": "24bb0e9d445885aa95751553e2c7cc71"}, {"name": "155a3d969e70fed92f85a2d314fd21a8", "type": "electric_bike", "fusion_lon": 0.0, "lon": -76.9924775, "is_disabled": 0, "lat": 38.79470516666667, "fusion_lat": 0.0, "is_reserved": 0, "rental_uris": {"android": "https://dc.lft.to/lastmile_qr_scan", "ios": "https://dc.lft.to/lastmile_qr_scan"}, "bike_id": "155a3d969e70fed92f85a2d314fd21a8"}, {"name": "172e0f686607d83e72dd23d47a9b4b27", "type": "electric_scooter", "fusion_lon": 0.0, "lon": -77.031307, "is_disabled": 0, "lat": 38.9170145, "fusion_lat": 0.0, "is_reserved": 0, "rental_uris": {"android": "https://dc.lft.to/lastmile_qr_scan", "ios": "https://dc.lft.to/lastmile_qr_scan"}, "bike_id": "172e0f686607d83e72dd23d47a9b4b27"}, {"name": "db9e1ca4ca86327036204d9811ceafa4", "type": "electric_scooter", "fusion_lon": 0.0, "lon": -77.02413316666667, "is_disabled": 0, "lat": 38.908538, "fusion_lat": 0.0, "is_reserved": 0, "rental_uris": {"android": "https://dc.lft.to/lastmile_qr_scan", "ios": "https://dc.lft.to/lastmile_qr_scan"}, "bike_id": "db9e1ca4ca86327036204d9811ceafa4"}, {"name": "8034e83138e494fc908987317b7272a9", "type": "electric_scooter", "fusion_lon": 0.0, "lon": -77.0202375, "is_disabled": 0, "lat": 38.9217095, "fusion_lat": 0.0, "is_reserved": 0, "rental_uris": {"android": "https://dc.lft.to/lastmile_qr_scan", "ios": "https://dc.lft.to/lastmile_qr_scan"}, "bike_id": "8034e83138e494fc908987317b7272a9"}, {"name": "41acaf817d97ca01fbcbbea1ae6e7607", "type": "electric_scooter", "fusion_lon": 0.0, "lon": -76.985417, "is_disabled": 0, "lat": 38.86687933333333, "fusion_lat": 0.0, "is_reserved": 0, "rental_uris": {"android": "https://dc.lft.to/lastmile_qr_scan", "ios": "https://dc.lft.to/lastmile_qr_scan"}, "bike_id": "41acaf817d97ca01fbcbbea1ae6e7607"}, {"name": "a7f006f7142700126328a0b0e1926905", "type": "electric_scooter", "fusion_lon": 0.0, "lon": -77.0092685, "is_disabled": 0, "lat": 38.896050333333335, "fusion_lat": 0.0, "is_reserved": 0, "rental_uris": {"android": "https://dc.lft.to/lastmile_qr_scan", "ios": "https://dc.lft.to/lastmile_qr_scan"}, "bike_id": "a7f006f7142700126328a0b0e1926905"}, {"name": "9956d0d869c345ad185e013913ba28b8", "type": "electric_scooter", "fusion_lon": 0.0, "lon": -77.02712133333333, "is_disabled": 0, "lat": 38.916943, "fusion_lat": 0.0, "is_reserved": 0, "rental_uris": {"android": "https://dc.lft.to/lastmile_qr_scan", "ios": "https://dc.lft.to/lastmile_qr_scan"}, "bike_id": "9956d0d869c345ad185e013913ba28b8"}, {"name": "caa3bffaa499b58cff01951a18ff85d5", "type": "electric_scooter", "fusion_lon": 0.0, "lon": -77.054673, "is_disabled": 0, "lat": 38.896711333333336, "fusion_lat": 0.0, "is_reserved": 0, "rental_uris": {"android": "https://dc.lft.to/lastmile_qr_scan", "ios": "https://dc.lft.to/lastmile_qr_scan"}, "bike_id": "caa3bffaa499b58cff01951a18ff85d5"}, {"name": "a4a5c05f824f2f371b2b30e746c4ab01", "type": "electric_bike", "fusion_lon": 0.0, "lon": -77.01427516666666, "is_disabled": 0, "lat": 38.97220433333333, "fusion_lat": 0.0, "is_reserved": 0, "rental_uris": {"android": "https://dc.lft.to/lastmile_qr_scan", "ios": "https://dc.lft.to/lastmile_qr_scan"}, "bike_id": "a4a5c05f824f2f371b2b30e746c4ab01"}, {"name": "0baf7d21f1a19e329f0bcd4f1b7476ab", "type": "electric_scooter", "fusion_lon": 0.0, "lon": -77.07696583333333, "is_disabled": 0, "lat": 38.943901, "fusion_lat": 0.0, "is_reserved": 0, "rental_uris": {"android": "https://dc.lft.to/lastmile_qr_scan", "ios": "https://dc.lft.to/lastmile_qr_scan"}, "bike_id": "0baf7d21f1a19e329f0bcd4f1b7476ab"}, {"name": "f9d365dedb53b6108143e48738760a05", "type": "electric_scooter", "fusion_lon": 0.0, "lon": -77.031754, "is_disabled": 0, "lat": 38.898445, "fusion_lat": 0.0, "is_reserved": 0, "rental_uris": {"android": "https://dc.lft.to/lastmile_qr_scan", "ios": "https://dc.lft.to/lastmile_qr_scan"}, "bike_id": "f9d365dedb53b6108143e48738760a05"}, {"name": "153675b6657d6c277ed786da8cc922a0", "type": "electric_scooter", "fusion_lon": 0.0, "lon": -77.01140716666667, "is_disabled": 0, "lat": 38.90017233333333, "fusion_lat": 0.0, "is_reserved": 0, "rental_uris": {"android": "https://dc.lft.to/lastmile_qr_scan", "ios": "https://dc.lft.to/lastmile_qr_scan"}, "bike_id": "153675b6657d6c277ed786da8cc922a0"}, {"name": "11a1bee1e18a059bda9182b3b56cc1fc", "type": "electric_bike", "fusion_lon": 0.0, "lon": -77.133048, "is_disabled": 0, "lat": 38.887185333333335, "fusion_lat": 0.0, "is_reserved": 0, "rental_uris": {"android": "https://dc.lft.to/lastmile_qr_scan", "ios": "https://dc.lft.to/lastmile_qr_scan"}, "bike_id": "11a1bee1e18a059bda9182b3b56cc1fc"}, {"name": "2af82d5cbfa32564214f1ca7edafb71c", "type": "electric_scooter", "fusion_lon": 0.0, "lon": -77.00059, "is_disabled": 0, "lat": 38.90847316666667, "fusion_lat": 0.0, "is_reserved": 0, "rental_uris": {"android": "https://dc.lft.to/lastmile_qr_scan", "ios": "https://dc.lft.to/lastmile_qr_scan"}, "bike_id": "2af82d5cbfa32564214f1ca7edafb71c"}, {"name": "2a7bd63b17017a8a6844e3acb39d7db8", "type": "electric_scooter", "fusion_lon": 0.0, "lon": -77.06825466666666, "is_disabled": 0, "lat": 38.918066, "fusion_lat": 0.0, "is_reserved": 0, "rental_uris": {"android": "https://dc.lft.to/lastmile_qr_scan", "ios": "https://dc.lft.to/lastmile_qr_scan"}, "bike_id": "2a7bd63b17017a8a6844e3acb39d7db8"}, {"name": "a44383b54ab2f3b1421e07e7cbc256b8", "type": "electric_scooter", "fusion_lon": 0.0, "lon": -76.941577, "is_disabled": 0, "lat": 38.883637, "fusion_lat": 0.0, "is_reserved": 0, "rental_uris": {"android": "https://dc.lft.to/lastmile_qr_scan", "ios": "https://dc.lft.to/lastmile_qr_scan"}, "bike_id": "a44383b54ab2f3b1421e07e7cbc256b8"}, {"name": "0ab91093f36e922e958e155acfb17077", "type": "electric_scooter", "fusion_lon": 0.0, "lon": -77.01863433333334, "is_disabled": 0, "lat": 38.91492916666667, "fusion_lat": 0.0, "is_reserved": 0, "rental_uris": {"android": "https://dc.lft.to/lastmile_qr_scan", "ios": "https://dc.lft.to/lastmile_qr_scan"}, "bike_id": "0ab91093f36e922e958e155acfb17077"}, {"name": "eb0a887f0be24cd88c9f71b03415a394", "type": "electric_scooter", "fusion_lon": 0.0, "lon": -77.03354216666666, "is_disabled": 0, "lat": 38.928723, "fusion_lat": 0.0, "is_reserved": 0, "rental_uris": {"android": "https://dc.lft.to/lastmile_qr_scan", "ios": "https://dc.lft.to/lastmile_qr_scan"}, "bike_id": "eb0a887f0be24cd88c9f71b03415a394"}, {"name": "d5b2ed21b8260e664e2d072bed1313d9", "type": "electric_scooter", "fusion_lon": 0.0, "lon": -77.02486283333333, "is_disabled": 0, "lat": 38.941873, "fusion_lat": 0.0, "is_reserved": 0, "rental_uris": {"android": "https://dc.lft.to/lastmile_qr_scan", "ios": "https://dc.lft.to/lastmile_qr_scan"}, "bike_id": "d5b2ed21b8260e664e2d072bed1313d9"}, {"name": "ecf7bb7fac178e4e069d25ac5a096493", "type": "electric_scooter", "fusion_lon": 0.0, "lon": -76.95077083333334, "is_disabled": 0, "lat": 38.9052275, "fusion_lat": 0.0, "is_reserved": 0, "rental_uris": {"android": "https://dc.lft.to/lastmile_qr_scan", "ios": "https://dc.lft.to/lastmile_qr_scan"}, "bike_id": "ecf7bb7fac178e4e069d25ac5a096493"}, {"name": "7529fbc323ff0a9f1d0afed18c4722b7", "type": "electric_scooter", "fusion_lon": 0.0, "lon": -76.97543216666666, "is_disabled": 0, "lat": 38.9032755, "fusion_lat": 0.0, "is_reserved": 0, "rental_uris": {"android": "https://dc.lft.to/lastmile_qr_scan", "ios": "https://dc.lft.to/lastmile_qr_scan"}, "bike_id": "7529fbc323ff0a9f1d0afed18c4722b7"}, {"name": "a42111e803d58b27c9bfea3935ccd7bd", "type": "electric_scooter", "fusion_lon": 0.0, "lon": -77.027463, "is_disabled": 0, "lat": 38.92770683333333, "fusion_lat": 0.0, "is_reserved": 0, "rental_uris": {"android": "https://dc.lft.to/lastmile_qr_scan", "ios": "https://dc.lft.to/lastmile_qr_scan"}, "bike_id": "a42111e803d58b27c9bfea3935ccd7bd"}, {"name": "b1d17ed9bf87a8244173ed6ffaa5b41c", "type": "electric_scooter", "fusion_lon": 0.0, "lon": -77.01411933333333, "is_disabled": 0, "lat": 38.928331666666665, "fusion_lat": 0.0, "is_reserved": 0, "rental_uris": {"android": "https://dc.lft.to/lastmile_qr_scan", "ios": "https://dc.lft.to/lastmile_qr_scan"}, "bike_id": "b1d17ed9bf87a8244173ed6ffaa5b41c"}, {"name": "a18ed6c95a98b479b148d5e755950921", "type": "electric_scooter", "fusion_lon": 0.0, "lon": -77.00114316666667, "is_disabled": 0, "lat": 38.90005166666667, "fusion_lat": 0.0, "is_reserved": 0, "rental_uris": {"android": "https://dc.lft.to/lastmile_qr_scan", "ios": "https://dc.lft.to/lastmile_qr_scan"}, "bike_id": "a18ed6c95a98b479b148d5e755950921"}, {"name": "32543c5c875333cbb6e26516a36b6931", "type": "electric_bike", "fusion_lon": 0.0, "lon": -77.05010783333333, "is_disabled": 0, "lat": 38.8171105, "fusion_lat": 0.0, "is_reserved": 0, "rental_uris": {"android": "https://dc.lft.to/lastmile_qr_scan", "ios": "https://dc.lft.to/lastmile_qr_scan"}, "bike_id": "32543c5c875333cbb6e26516a36b6931"}, {"name": "f7ed9315af278b4efbb055677e7134c7", "type": "electric_bike", "fusion_lon": 0.0, "lon": -76.990335, "is_disabled": 0, "lat": 38.93883483333333, "fusion_lat": 0.0, "is_reserved": 0, "rental_uris": {"android": "https://dc.lft.to/lastmile_qr_scan", "ios": "https://dc.lft.to/lastmile_qr_scan"}, "bike_id": "f7ed9315af278b4efbb055677e7134c7"}, {"name": "04c3352bd9e5991cae49da6109160e54", "type": "electric_scooter", "fusion_lon": 0.0, "lon": -77.035759, "is_disabled": 0, "lat": 38.90762483333334, "fusion_lat": 0.0, "is_reserved": 0, "rental_uris": {"android": "https://dc.lft.to/lastmile_qr_scan", "ios": "https://dc.lft.to/lastmile_qr_scan"}, "bike_id": "04c3352bd9e5991cae49da6109160e54"}, {"name": "ac456c970cd56e36825f25e83fd0d8a5", "type": "electric_scooter", "fusion_lon": 0.0, "lon": -76.98565116666667, "is_disabled": 0, "lat": 38.866826333333336, "fusion_lat": 0.0, "is_reserved": 0, "rental_uris": {"android": "https://dc.lft.to/lastmile_qr_scan", "ios": "https://dc.lft.to/lastmile_qr_scan"}, "bike_id": "ac456c970cd56e36825f25e83fd0d8a5"}, {"name": "175e60925c9d95467fccda19b6879daa", "type": "electric_bike", "fusion_lon": 0.0, "lon": -76.99375033333334, "is_disabled": 0, "lat": 38.99098, "fusion_lat": 0.0, "is_reserved": 0, "rental_uris": {"android": "https://dc.lft.to/lastmile_qr_scan", "ios": "https://dc.lft.to/lastmile_qr_scan"}, "bike_id": "175e60925c9d95467fccda19b6879daa"}, {"name": "b04bf4864ee67bf54a8a30728b68290d", "type": "electric_scooter", "fusion_lon": 0.0, "lon": -76.9819465, "is_disabled": 0, "lat": 38.920613333333336, "fusion_lat": 0.0, "is_reserved": 0, "rental_uris": {"android": "https://dc.lft.to/lastmile_qr_scan", "ios": "https://dc.lft.to/lastmile_qr_scan"}, "bike_id": "b04bf4864ee67bf54a8a30728b68290d"}, {"name": "ea618286ac7ebd59ecd415a934a46daf", "type": "electric_scooter", "fusion_lon": 0.0, "lon": -76.983593, "is_disabled": 0, "lat": 38.887460833333336, "fusion_lat": 0.0, "is_reserved": 0, "rental_uris": {"android": "https://dc.lft.to/lastmile_qr_scan", "ios": "https://dc.lft.to/lastmile_qr_scan"}, "bike_id": "ea618286ac7ebd59ecd415a934a46daf"}, {"name": "8dac45199967a294e6a5d4749d02d37a", "type": "electric_scooter", "fusion_lon": 0.0, "lon": -77.02206233333334, "is_disabled": 0, "lat": 38.89231366666667, "fusion_lat": 0.0, "is_reserved": 0, "rental_uris": {"android": "https://dc.lft.to/lastmile_qr_scan", "ios": "https://dc.lft.to/lastmile_qr_scan"}, "bike_id": "8dac45199967a294e6a5d4749d02d37a"}, {"name": "56dfb6e4da3b52865b5ede26e3744b9b", "type": "electric_bike", "fusion_lon": 0.0, "lon": -77.03657066666666, "is_disabled": 0, "lat": 38.936281, "fusion_lat": 0.0, "is_reserved": 0, "rental_uris": {"android": "https://dc.lft.to/lastmile_qr_scan", "ios": "https://dc.lft.to/lastmile_qr_scan"}, "bike_id": "56dfb6e4da3b52865b5ede26e3744b9b"}, {"name": "527c685ae4208c9f12398ce3c3bbdc46", "type": "electric_scooter", "fusion_lon": 0.0, "lon": -77.0047395, "is_disabled": 0, "lat": 38.877097166666665, "fusion_lat": 0.0, "is_reserved": 0, "rental_uris": {"android": "https://dc.lft.to/lastmile_qr_scan", "ios": "https://dc.lft.to/lastmile_qr_scan"}, "bike_id": "527c685ae4208c9f12398ce3c3bbdc46"}, {"name": "12daf258cdbb0f03e4e8a1bf4c171ed0", "type": "electric_scooter", "fusion_lon": 0.0, "lon": -76.96551666666667, "is_disabled": 0, "lat": 38.91848366666667, "fusion_lat": 0.0, "is_reserved": 0, "rental_uris": {"android": "https://dc.lft.to/lastmile_qr_scan", "ios": "https://dc.lft.to/lastmile_qr_scan"}, "bike_id": "12daf258cdbb0f03e4e8a1bf4c171ed0"}, {"name": "9a47d18e7c6cc31a06880a12c95aa75c", "type": "electric_scooter", "fusion_lon": 0.0, "lon": -77.04390316666667, "is_disabled": 0, "lat": 38.91662016666667, "fusion_lat": 0.0, "is_reserved": 0, "rental_uris": {"android": "https://dc.lft.to/lastmile_qr_scan", "ios": "https://dc.lft.to/lastmile_qr_scan"}, "bike_id": "9a47d18e7c6cc31a06880a12c95aa75c"}, {"name": "ced826552c46f5be30fa41b42f0524e2", "type": "electric_scooter", "fusion_lon": 0.0, "lon": -77.01465333333333, "is_disabled": 0, "lat": 38.975102666666665, "fusion_lat": 0.0, "is_reserved": 0, "rental_uris": {"android": "https://dc.lft.to/lastmile_qr_scan", "ios": "https://dc.lft.to/lastmile_qr_scan"}, "bike_id": "ced826552c46f5be30fa41b42f0524e2"}, {"name": "04f984cbf4bf00da6c14d9fecebf0cdf", "type": "electric_scooter", "fusion_lon": 0.0, "lon": -77.03320283333333, "is_disabled": 0, "lat": 38.8982465, "fusion_lat": 0.0, "is_reserved": 0, "rental_uris": {"android": "https://dc.lft.to/lastmile_qr_scan", "ios": "https://dc.lft.to/lastmile_qr_scan"}, "bike_id": "04f984cbf4bf00da6c14d9fecebf0cdf"}, {"name": "47a744fa291949cfb532e97f7106c8b3", "type": "electric_scooter", "fusion_lon": 0.0, "lon": -77.00053766666667, "is_disabled": 0, "lat": 38.89434, "fusion_lat": 0.0, "is_reserved": 0, "rental_uris": {"android": "https://dc.lft.to/lastmile_qr_scan", "ios": "https://dc.lft.to/lastmile_qr_scan"}, "bike_id": "47a744fa291949cfb532e97f7106c8b3"}, {"name": "818f0c3f98982ccd43ddfa8d38c82185", "type": "electric_scooter", "fusion_lon": 0.0, "lon": -76.98055883333333, "is_disabled": 0, "lat": 38.88532416666666, "fusion_lat": 0.0, "is_reserved": 0, "rental_uris": {"android": "https://dc.lft.to/lastmile_qr_scan", "ios": "https://dc.lft.to/lastmile_qr_scan"}, "bike_id": "818f0c3f98982ccd43ddfa8d38c82185"}, {"name": "34e4071cc0904b95c1abdd1c897aac00", "type": "electric_scooter", "fusion_lon": 0.0, "lon": -77.03248016666667, "is_disabled": 0, "lat": 38.928621, "fusion_lat": 0.0, "is_reserved": 0, "rental_uris": {"android": "https://dc.lft.to/lastmile_qr_scan", "ios": "https://dc.lft.to/lastmile_qr_scan"}, "bike_id": "34e4071cc0904b95c1abdd1c897aac00"}, {"name": "75301c4f2a2f791c22fda6326c6565cf", "type": "electric_scooter", "fusion_lon": 0.0, "lon": -77.04264733333333, "is_disabled": 0, "lat": 38.907272, "fusion_lat": 0.0, "is_reserved": 0, "rental_uris": {"android": "https://dc.lft.to/lastmile_qr_scan", "ios": "https://dc.lft.to/lastmile_qr_scan"}, "bike_id": "75301c4f2a2f791c22fda6326c6565cf"}, {"name": "a8ae6d5551db76e65cf81e1ee7c29f98", "type": "electric_scooter", "fusion_lon": 0.0, "lon": -77.02510616666666, "is_disabled": 0, "lat": 38.91810016666667, "fusion_lat": 0.0, "is_reserved": 0, "rental_uris": {"android": "https://dc.lft.to/lastmile_qr_scan", "ios": "https://dc.lft.to/lastmile_qr_scan"}, "bike_id": "a8ae6d5551db76e65cf81e1ee7c29f98"}, {"name": "91c6f0a40598fe4d398c88727e987b51", "type": "electric_scooter", "fusion_lon": 0.0, "lon": -77.040105, "is_disabled": 0, "lat": 38.9219705, "fusion_lat": 0.0, "is_reserved": 0, "rental_uris": {"android": "https://dc.lft.to/lastmile_qr_scan", "ios": "https://dc.lft.to/lastmile_qr_scan"}, "bike_id": "91c6f0a40598fe4d398c88727e987b51"}, {"name": "270acff09fd44d31073a18694481211f", "type": "electric_scooter", "fusion_lon": 0.0, "lon": -77.022091, "is_disabled": 0, "lat": 38.8922975, "fusion_lat": 0.0, "is_reserved": 0, "rental_uris": {"android": "https://dc.lft.to/lastmile_qr_scan", "ios": "https://dc.lft.to/lastmile_qr_scan"}, "bike_id": "270acff09fd44d31073a18694481211f"}, {"name": "67f492ea717a6ad28829ff891de0c9c0", "type": "electric_scooter", "fusion_lon": 0.0, "lon": -77.04728, "is_disabled": 0, "lat": 38.90178183333333, "fusion_lat": 0.0, "is_reserved": 0, "rental_uris": {"android": "https://dc.lft.to/lastmile_qr_scan", "ios": "https://dc.lft.to/lastmile_qr_scan"}, "bike_id": "67f492ea717a6ad28829ff891de0c9c0"}, {"name": "7081e2c80a90d554b642d4469c9aed51", "type": "electric_scooter", "fusion_lon": 0.0, "lon": -76.99629116666667, "is_disabled": 0, "lat": 38.90066483333333, "fusion_lat": 0.0, "is_reserved": 0, "rental_uris": {"android": "https://dc.lft.to/lastmile_qr_scan", "ios": "https://dc.lft.to/lastmile_qr_scan"}, "bike_id": "7081e2c80a90d554b642d4469c9aed51"}, {"name": "7c8085af97f612ae5e08eb2eacd049c8", "type": "electric_scooter", "fusion_lon": 0.0, "lon": -77.03185733333333, "is_disabled": 0, "lat": 38.91635183333333, "fusion_lat": 0.0, "is_reserved": 0, "rental_uris": {"android": "https://dc.lft.to/lastmile_qr_scan", "ios": "https://dc.lft.to/lastmile_qr_scan"}, "bike_id": "7c8085af97f612ae5e08eb2eacd049c8"}, {"name": "7bcb1a5d7f835435189a1e3d959de4d7", "type": "electric_scooter", "fusion_lon": 0.0, "lon": -76.93212966666667, "is_disabled": 0, "lat": 38.896689, "fusion_lat": 0.0, "is_reserved": 0, "rental_uris": {"android": "https://dc.lft.to/lastmile_qr_scan", "ios": "https://dc.lft.to/lastmile_qr_scan"}, "bike_id": "7bcb1a5d7f835435189a1e3d959de4d7"}, {"name": "485740d7a5dda610d9fe22b91f64fa03", "type": "electric_scooter", "fusion_lon": 0.0, "lon": -77.03480716666667, "is_disabled": 0, "lat": 38.917048, "fusion_lat": 0.0, "is_reserved": 0, "rental_uris": {"android": "https://dc.lft.to/lastmile_qr_scan", "ios": "https://dc.lft.to/lastmile_qr_scan"}, "bike_id": "485740d7a5dda610d9fe22b91f64fa03"}, {"name": "147bacf2ba675852d45ff1be44eb68ba", "type": "electric_scooter", "fusion_lon": 0.0, "lon": -77.02323283333334, "is_disabled": 0, "lat": 38.907289, "fusion_lat": 0.0, "is_reserved": 0, "rental_uris": {"android": "https://dc.lft.to/lastmile_qr_scan", "ios": "https://dc.lft.to/lastmile_qr_scan"}, "bike_id": "147bacf2ba675852d45ff1be44eb68ba"}, {"name": "e92269eaaab1bf7b97c52b99fc813f78", "type": "electric_scooter", "fusion_lon": 0.0, "lon": -76.98537566666667, "is_disabled": 0, "lat": 38.899833666666666, "fusion_lat": 0.0, "is_reserved": 0, "rental_uris": {"android": "https://dc.lft.to/lastmile_qr_scan", "ios": "https://dc.lft.to/lastmile_qr_scan"}, "bike_id": "e92269eaaab1bf7b97c52b99fc813f78"}, {"name": "dd3d39e62b345609f4677ae5044c827e", "type": "electric_scooter", "fusion_lon": 0.0, "lon": -77.04075233333333, "is_disabled": 0, "lat": 38.896216333333335, "fusion_lat": 0.0, "is_reserved": 0, "rental_uris": {"android": "https://dc.lft.to/lastmile_qr_scan", "ios": "https://dc.lft.to/lastmile_qr_scan"}, "bike_id": "dd3d39e62b345609f4677ae5044c827e"}, {"name": "4ac523d34b4e8bf95d6703755f6407c4", "type": "electric_scooter", "fusion_lon": 0.0, "lon": -77.00943666666667, "is_disabled": 0, "lat": 38.905656, "fusion_lat": 0.0, "is_reserved": 0, "rental_uris": {"android": "https://dc.lft.to/lastmile_qr_scan", "ios": "https://dc.lft.to/lastmile_qr_scan"}, "bike_id": "4ac523d34b4e8bf95d6703755f6407c4"}, {"name": "0c0a9be56aac417d69097fdc79b7f420", "type": "electric_bike", "fusion_lon": 0.0, "lon": -77.018298, "is_disabled": 0, "lat": 38.90811766666667, "fusion_lat": 0.0, "is_reserved": 0, "rental_uris": {"android": "https://dc.lft.to/lastmile_qr_scan", "ios": "https://dc.lft.to/lastmile_qr_scan"}, "bike_id": "0c0a9be56aac417d69097fdc79b7f420"}, {"name": "7bd7caea5de281c7362071cc81a24411", "type": "electric_scooter", "fusion_lon": 0.0, "lon": -77.02478066666667, "is_disabled": 0, "lat": 38.938469166666664, "fusion_lat": 0.0, "is_reserved": 0, "rental_uris": {"android": "https://dc.lft.to/lastmile_qr_scan", "ios": "https://dc.lft.to/lastmile_qr_scan"}, "bike_id": "7bd7caea5de281c7362071cc81a24411"}, {"name": "c443d6642d953ab56041aa26a1bd9cd2", "type": "electric_scooter", "fusion_lon": 0.0, "lon": -76.98320966666667, "is_disabled": 0, "lat": 38.90440566666667, "fusion_lat": 0.0, "is_reserved": 0, "rental_uris": {"android": "https://dc.lft.to/lastmile_qr_scan", "ios": "https://dc.lft.to/lastmile_qr_scan"}, "bike_id": "c443d6642d953ab56041aa26a1bd9cd2"}, {"name": "4ffdfad27d0a3d2e95ccf07bcc5c940a", "type": "electric_scooter", "fusion_lon": 0.0, "lon": -77.077122, "is_disabled": 0, "lat": 38.94118133333333, "fusion_lat": 0.0, "is_reserved": 0, "rental_uris": {"android": "https://dc.lft.to/lastmile_qr_scan", "ios": "https://dc.lft.to/lastmile_qr_scan"}, "bike_id": "4ffdfad27d0a3d2e95ccf07bcc5c940a"}, {"name": "e73eab2152fbc5d574e5cd85129fde2b", "type": "electric_scooter", "fusion_lon": 0.0, "lon": -77.0056575, "is_disabled": 0, "lat": 38.8767695, "fusion_lat": 0.0, "is_reserved": 0, "rental_uris": {"android": "https://dc.lft.to/lastmile_qr_scan", "ios": "https://dc.lft.to/lastmile_qr_scan"}, "bike_id": "e73eab2152fbc5d574e5cd85129fde2b"}, {"name": "c174673fb19200f1aac710270048398e", "type": "electric_scooter", "fusion_lon": 0.0, "lon": -77.0034645, "is_disabled": 0, "lat": 38.89461883333333, "fusion_lat": 0.0, "is_reserved": 0, "rental_uris": {"android": "https://dc.lft.to/lastmile_qr_scan", "ios": "https://dc.lft.to/lastmile_qr_scan"}, "bike_id": "c174673fb19200f1aac710270048398e"}, {"name": "b96e303b5fb0158eed29fc5bfcd9e23c", "type": "electric_scooter", "fusion_lon": 0.0, "lon": -77.0228065, "is_disabled": 0, "lat": 38.9141675, "fusion_lat": 0.0, "is_reserved": 0, "rental_uris": {"android": "https://dc.lft.to/lastmile_qr_scan", "ios": "https://dc.lft.to/lastmile_qr_scan"}, "bike_id": "b96e303b5fb0158eed29fc5bfcd9e23c"}, {"name": "da4814070512dda00c041a2ea7340422", "type": "electric_scooter", "fusion_lon": 0.0, "lon": -77.00211316666666, "is_disabled": 0, "lat": 38.8952235, "fusion_lat": 0.0, "is_reserved": 0, "rental_uris": {"android": "https://dc.lft.to/lastmile_qr_scan", "ios": "https://dc.lft.to/lastmile_qr_scan"}, "bike_id": "da4814070512dda00c041a2ea7340422"}, {"name": "97ba068f0e337b8f82e0b378ee3e3a68", "type": "electric_scooter", "fusion_lon": 0.0, "lon": -77.03841216666666, "is_disabled": 0, "lat": 38.90986016666667, "fusion_lat": 0.0, "is_reserved": 0, "rental_uris": {"android": "https://dc.lft.to/lastmile_qr_scan", "ios": "https://dc.lft.to/lastmile_qr_scan"}, "bike_id": "97ba068f0e337b8f82e0b378ee3e3a68"}, {"name": "02dc6c590c436f34fa4280b99229369f", "type": "electric_scooter", "fusion_lon": 0.0, "lon": -77.01941833333333, "is_disabled": 0, "lat": 38.94703716666667, "fusion_lat": 0.0, "is_reserved": 0, "rental_uris": {"android": "https://dc.lft.to/lastmile_qr_scan", "ios": "https://dc.lft.to/lastmile_qr_scan"}, "bike_id": "02dc6c590c436f34fa4280b99229369f"}, {"name": "afe4fb8ae3e7128689c03f21f54c19f7", "type": "electric_scooter", "fusion_lon": 0.0, "lon": -77.07037033333333, "is_disabled": 0, "lat": 38.92254416666667, "fusion_lat": 0.0, "is_reserved": 0, "rental_uris": {"android": "https://dc.lft.to/lastmile_qr_scan", "ios": "https://dc.lft.to/lastmile_qr_scan"}, "bike_id": "afe4fb8ae3e7128689c03f21f54c19f7"}, {"name": "e27c36b98acfdb0d9f9346ec96cf26b6", "type": "electric_scooter", "fusion_lon": 0.0, "lon": -77.034779, "is_disabled": 0, "lat": 38.9170665, "fusion_lat": 0.0, "is_reserved": 0, "rental_uris": {"android": "https://dc.lft.to/lastmile_qr_scan", "ios": "https://dc.lft.to/lastmile_qr_scan"}, "bike_id": "e27c36b98acfdb0d9f9346ec96cf26b6"}, {"name": "a38b7b96c89d3460a2ed7e96916d7f49", "type": "electric_scooter", "fusion_lon": 0.0, "lon": -77.041778, "is_disabled": 0, "lat": 38.9014135, "fusion_lat": 0.0, "is_reserved": 0, "rental_uris": {"android": "https://dc.lft.to/lastmile_qr_scan", "ios": "https://dc.lft.to/lastmile_qr_scan"}, "bike_id": "a38b7b96c89d3460a2ed7e96916d7f49"}, {"name": "905a2a832cc14032daee1561c576a942", "type": "electric_scooter", "fusion_lon": 0.0, "lon": -77.03268, "is_disabled": 0, "lat": 38.939891, "fusion_lat": 0.0, "is_reserved": 0, "rental_uris": {"android": "https://dc.lft.to/lastmile_qr_scan", "ios": "https://dc.lft.to/lastmile_qr_scan"}, "bike_id": "905a2a832cc14032daee1561c576a942"}, {"name": "63901507ec93469bc4c90cd2a2919ca3", "type": "electric_scooter", "fusion_lon": 0.0, "lon": -77.0506555, "is_disabled": 0, "lat": 38.90069033333333, "fusion_lat": 0.0, "is_reserved": 0, "rental_uris": {"android": "https://dc.lft.to/lastmile_qr_scan", "ios": "https://dc.lft.to/lastmile_qr_scan"}, "bike_id": "63901507ec93469bc4c90cd2a2919ca3"}, {"name": "28d560958d77c57c84c8f1d146d7ae8c", "type": "electric_scooter", "fusion_lon": 0.0, "lon": -77.05133666666667, "is_disabled": 0, "lat": 38.925205, "fusion_lat": 0.0, "is_reserved": 0, "rental_uris": {"android": "https://dc.lft.to/lastmile_qr_scan", "ios": "https://dc.lft.to/lastmile_qr_scan"}, "bike_id": "28d560958d77c57c84c8f1d146d7ae8c"}, {"name": "61ec78fd0878da0dd3d7f4b51fe3833f", "type": "electric_scooter", "fusion_lon": 0.0, "lon": -77.02628083333333, "is_disabled": 0, "lat": 38.887721, "fusion_lat": 0.0, "is_reserved": 0, "rental_uris": {"android": "https://dc.lft.to/lastmile_qr_scan", "ios": "https://dc.lft.to/lastmile_qr_scan"}, "bike_id": "61ec78fd0878da0dd3d7f4b51fe3833f"}, {"name": "dbfd098cb08a24fc1e158233addee1d1", "type": "electric_scooter", "fusion_lon": 0.0, "lon": -77.0446435, "is_disabled": 0, "lat": 38.912643333333335, "fusion_lat": 0.0, "is_reserved": 0, "rental_uris": {"android": "https://dc.lft.to/lastmile_qr_scan", "ios": "https://dc.lft.to/lastmile_qr_scan"}, "bike_id": "dbfd098cb08a24fc1e158233addee1d1"}, {"name": "d44b1f0f4533c80a64bb9f0be03372b2", "type": "electric_scooter", "fusion_lon": 0.0, "lon": -77.04345166666667, "is_disabled": 0, "lat": 38.91055083333333, "fusion_lat": 0.0, "is_reserved": 0, "rental_uris": {"android": "https://dc.lft.to/lastmile_qr_scan", "ios": "https://dc.lft.to/lastmile_qr_scan"}, "bike_id": "d44b1f0f4533c80a64bb9f0be03372b2"}, {"name": "f17b88042becb1f5bf42eb4c502f36bf", "type": "electric_scooter", "fusion_lon": 0.0, "lon": -77.02219866666667, "is_disabled": 0, "lat": 38.91412966666667, "fusion_lat": 0.0, "is_reserved": 0, "rental_uris": {"android": "https://dc.lft.to/lastmile_qr_scan", "ios": "https://dc.lft.to/lastmile_qr_scan"}, "bike_id": "f17b88042becb1f5bf42eb4c502f36bf"}, {"name": "4407b3a483ed5c1537514a4149ae21b3", "type": "electric_scooter", "fusion_lon": 0.0, "lon": -77.00986, "is_disabled": 0, "lat": 38.87288, "fusion_lat": 0.0, "is_reserved": 0, "rental_uris": {"android": "https://dc.lft.to/lastmile_qr_scan", "ios": "https://dc.lft.to/lastmile_qr_scan"}, "bike_id": "4407b3a483ed5c1537514a4149ae21b3"}, {"name": "89af9281296c06f1d75e323fe4cb4cd5", "type": "electric_scooter", "fusion_lon": 0.0, "lon": -77.02179833333334, "is_disabled": 0, "lat": 38.900259166666665, "fusion_lat": 0.0, "is_reserved": 0, "rental_uris": {"android": "https://dc.lft.to/lastmile_qr_scan", "ios": "https://dc.lft.to/lastmile_qr_scan"}, "bike_id": "89af9281296c06f1d75e323fe4cb4cd5"}, {"name": "a2a8b1a610beda204d21388e9475b7ff", "type": "electric_scooter", "fusion_lon": 0.0, "lon": -77.0319275, "is_disabled": 0, "lat": 38.9163195, "fusion_lat": 0.0, "is_reserved": 0, "rental_uris": {"android": "https://dc.lft.to/lastmile_qr_scan", "ios": "https://dc.lft.to/lastmile_qr_scan"}, "bike_id": "a2a8b1a610beda204d21388e9475b7ff"}, {"name": "1ba528b167b65670776b5a20adec631b", "type": "electric_bike", "fusion_lon": 0.0, "lon": -77.23411383333334, "is_disabled": 0, "lat": 38.87583383333333, "fusion_lat": 0.0, "is_reserved": 0, "rental_uris": {"android": "https://dc.lft.to/lastmile_qr_scan", "ios": "https://dc.lft.to/lastmile_qr_scan"}, "bike_id": "1ba528b167b65670776b5a20adec631b"}, {"name": "1c85bb28a36aa8b5dc95838b471b2f47", "type": "electric_scooter", "fusion_lon": 0.0, "lon": -77.03157166666666, "is_disabled": 0, "lat": 38.916147333333335, "fusion_lat": 0.0, "is_reserved": 0, "rental_uris": {"android": "https://dc.lft.to/lastmile_qr_scan", "ios": "https://dc.lft.to/lastmile_qr_scan"}, "bike_id": "1c85bb28a36aa8b5dc95838b471b2f47"}, {"name": "7d8334444fdb031c0f84f6fcd73dd8e1", "type": "electric_scooter", "fusion_lon": 0.0, "lon": -76.94703683333333, "is_disabled": 0, "lat": 38.89366583333333, "fusion_lat": 0.0, "is_reserved": 0, "rental_uris": {"android": "https://dc.lft.to/lastmile_qr_scan", "ios": "https://dc.lft.to/lastmile_qr_scan"}, "bike_id": "7d8334444fdb031c0f84f6fcd73dd8e1"}, {"name": "6bbcff1d1e45ed24842008b7d7d6b36d", "type": "electric_scooter", "fusion_lon": 0.0, "lon": -77.0432115, "is_disabled": 0, "lat": 38.926206, "fusion_lat": 0.0, "is_reserved": 0, "rental_uris": {"android": "https://dc.lft.to/lastmile_qr_scan", "ios": "https://dc.lft.to/lastmile_qr_scan"}, "bike_id": "6bbcff1d1e45ed24842008b7d7d6b36d"}, {"name": "6d9f5c006ca999035ae87a028fdf4563", "type": "electric_scooter", "fusion_lon": 0.0, "lon": -76.98507966666666, "is_disabled": 0, "lat": 38.860597, "fusion_lat": 0.0, "is_reserved": 0, "rental_uris": {"android": "https://dc.lft.to/lastmile_qr_scan", "ios": "https://dc.lft.to/lastmile_qr_scan"}, "bike_id": "6d9f5c006ca999035ae87a028fdf4563"}, {"name": "da317568496fb8f8002b3903296edc78", "type": "electric_scooter", "fusion_lon": 0.0, "lon": -77.0336085, "is_disabled": 0, "lat": 38.90383833333333, "fusion_lat": 0.0, "is_reserved": 0, "rental_uris": {"android": "https://dc.lft.to/lastmile_qr_scan", "ios": "https://dc.lft.to/lastmile_qr_scan"}, "bike_id": "da317568496fb8f8002b3903296edc78"}, {"name": "b9361bc05d4a6176f9b4bb0df3b3dbbb", "type": "electric_scooter", "fusion_lon": 0.0, "lon": -77.02174, "is_disabled": 0, "lat": 38.899088, "fusion_lat": 0.0, "is_reserved": 0, "rental_uris": {"android": "https://dc.lft.to/lastmile_qr_scan", "ios": "https://dc.lft.to/lastmile_qr_scan"}, "bike_id": "b9361bc05d4a6176f9b4bb0df3b3dbbb"}, {"name": "d0cd5db91b4d1ab48f58249df0d5eb1f", "type": "electric_scooter", "fusion_lon": 0.0, "lon": -77.02000266666667, "is_disabled": 0, "lat": 38.91573416666667, "fusion_lat": 0.0, "is_reserved": 0, "rental_uris": {"android": "https://dc.lft.to/lastmile_qr_scan", "ios": "https://dc.lft.to/lastmile_qr_scan"}, "bike_id": "d0cd5db91b4d1ab48f58249df0d5eb1f"}, {"name": "c27672a056fd00f1895d7027034264bf", "type": "electric_scooter", "fusion_lon": 0.0, "lon": -77.01884316666667, "is_disabled": 0, "lat": 38.911271166666666, "fusion_lat": 0.0, "is_reserved": 0, "rental_uris": {"android": "https://dc.lft.to/lastmile_qr_scan", "ios": "https://dc.lft.to/lastmile_qr_scan"}, "bike_id": "c27672a056fd00f1895d7027034264bf"}, {"name": "aa8e70e3bfc640c89a9d6799df52ebe4", "type": "electric_scooter", "fusion_lon": 0.0, "lon": -77.04854633333333, "is_disabled": 0, "lat": 38.90078, "fusion_lat": 0.0, "is_reserved": 0, "rental_uris": {"android": "https://dc.lft.to/lastmile_qr_scan", "ios": "https://dc.lft.to/lastmile_qr_scan"}, "bike_id": "aa8e70e3bfc640c89a9d6799df52ebe4"}, {"name": "caf1b629ee12895bf18a0079fa9b2c7d", "type": "electric_scooter", "fusion_lon": 0.0, "lon": -77.021845, "is_disabled": 0, "lat": 38.896269833333335, "fusion_lat": 0.0, "is_reserved": 0, "rental_uris": {"android": "https://dc.lft.to/lastmile_qr_scan", "ios": "https://dc.lft.to/lastmile_qr_scan"}, "bike_id": "caf1b629ee12895bf18a0079fa9b2c7d"}, {"name": "87367827a8cc1160918cd3b91d90e3ae", "type": "electric_scooter", "fusion_lon": 0.0, "lon": -77.04120783333333, "is_disabled": 0, "lat": 38.925225, "fusion_lat": 0.0, "is_reserved": 0, "rental_uris": {"android": "https://dc.lft.to/lastmile_qr_scan", "ios": "https://dc.lft.to/lastmile_qr_scan"}, "bike_id": "87367827a8cc1160918cd3b91d90e3ae"}, {"name": "a03eacb96d0781a653f0713771699def", "type": "electric_scooter", "fusion_lon": 0.0, "lon": -77.05003983333333, "is_disabled": 0, "lat": 38.899044333333336, "fusion_lat": 0.0, "is_reserved": 0, "rental_uris": {"android": "https://dc.lft.to/lastmile_qr_scan", "ios": "https://dc.lft.to/lastmile_qr_scan"}, "bike_id": "a03eacb96d0781a653f0713771699def"}, {"name": "583bb7d7d9fde230f29424515e7c2c87", "type": "electric_scooter", "fusion_lon": 0.0, "lon": -76.99481066666667, "is_disabled": 0, "lat": 38.90011033333333, "fusion_lat": 0.0, "is_reserved": 0, "rental_uris": {"android": "https://dc.lft.to/lastmile_qr_scan", "ios": "https://dc.lft.to/lastmile_qr_scan"}, "bike_id": "583bb7d7d9fde230f29424515e7c2c87"}, {"name": "cb10913237fbc280e86130f9fe26ee47", "type": "electric_scooter", "fusion_lon": 0.0, "lon": -77.0135265, "is_disabled": 0, "lat": 38.892198, "fusion_lat": 0.0, "is_reserved": 0, "rental_uris": {"android": "https://dc.lft.to/lastmile_qr_scan", "ios": "https://dc.lft.to/lastmile_qr_scan"}, "bike_id": "cb10913237fbc280e86130f9fe26ee47"}, {"name": "0e4d36a66d68a46eab284e21756ff03e", "type": "electric_scooter", "fusion_lon": 0.0, "lon": -77.03919633333334, "is_disabled": 0, "lat": 38.91260883333333, "fusion_lat": 0.0, "is_reserved": 0, "rental_uris": {"android": "https://dc.lft.to/lastmile_qr_scan", "ios": "https://dc.lft.to/lastmile_qr_scan"}, "bike_id": "0e4d36a66d68a46eab284e21756ff03e"}, {"name": "65d436e2a4add174ab1efeeea6f25a73", "type": "electric_scooter", "fusion_lon": 0.0, "lon": -76.98615016666666, "is_disabled": 0, "lat": 38.8829445, "fusion_lat": 0.0, "is_reserved": 0, "rental_uris": {"android": "https://dc.lft.to/lastmile_qr_scan", "ios": "https://dc.lft.to/lastmile_qr_scan"}, "bike_id": "65d436e2a4add174ab1efeeea6f25a73"}, {"name": "e78600e3e2f88efee15ef094d6062b7a", "type": "electric_scooter", "fusion_lon": 0.0, "lon": -77.02669583333333, "is_disabled": 0, "lat": 38.92476716666667, "fusion_lat": 0.0, "is_reserved": 0, "rental_uris": {"android": "https://dc.lft.to/lastmile_qr_scan", "ios": "https://dc.lft.to/lastmile_qr_scan"}, "bike_id": "e78600e3e2f88efee15ef094d6062b7a"}, {"name": "fd183bc558af90a2f85877d904f14375", "type": "electric_scooter", "fusion_lon": 0.0, "lon": -77.03855966666667, "is_disabled": 0, "lat": 38.90305683333333, "fusion_lat": 0.0, "is_reserved": 0, "rental_uris": {"android": "https://dc.lft.to/lastmile_qr_scan", "ios": "https://dc.lft.to/lastmile_qr_scan"}, "bike_id": "fd183bc558af90a2f85877d904f14375"}, {"name": "11dd8fb5598ea3d466fdaef1c7f5ee83", "type": "electric_scooter", "fusion_lon": 0.0, "lon": -76.97547433333334, "is_disabled": 0, "lat": 38.90323183333334, "fusion_lat": 0.0, "is_reserved": 0, "rental_uris": {"android": "https://dc.lft.to/lastmile_qr_scan", "ios": "https://dc.lft.to/lastmile_qr_scan"}, "bike_id": "11dd8fb5598ea3d466fdaef1c7f5ee83"}, {"name": "cee86f1821f9ca9676585c1f99d3dcbb", "type": "electric_scooter", "fusion_lon": 0.0, "lon": -77.00343733333334, "is_disabled": 0, "lat": 38.89925566666667, "fusion_lat": 0.0, "is_reserved": 0, "rental_uris": {"android": "https://dc.lft.to/lastmile_qr_scan", "ios": "https://dc.lft.to/lastmile_qr_scan"}, "bike_id": "cee86f1821f9ca9676585c1f99d3dcbb"}, {"name": "5b7815e5fc4813ac1d612fdd11b2286c", "type": "electric_scooter", "fusion_lon": 0.0, "lon": -76.98564533333334, "is_disabled": 0, "lat": 38.86684483333333, "fusion_lat": 0.0, "is_reserved": 0, "rental_uris": {"android": "https://dc.lft.to/lastmile_qr_scan", "ios": "https://dc.lft.to/lastmile_qr_scan"}, "bike_id": "5b7815e5fc4813ac1d612fdd11b2286c"}, {"name": "b28b64bd5e5c0754d25943c17bcc0ee4", "type": "electric_scooter", "fusion_lon": 0.0, "lon": -77.037684, "is_disabled": 0, "lat": 38.9357295, "fusion_lat": 0.0, "is_reserved": 0, "rental_uris": {"android": "https://dc.lft.to/lastmile_qr_scan", "ios": "https://dc.lft.to/lastmile_qr_scan"}, "bike_id": "b28b64bd5e5c0754d25943c17bcc0ee4"}, {"name": "1d89cdd8bec136a6bc091c2b993dc2ce", "type": "electric_scooter", "fusion_lon": 0.0, "lon": -76.94637183333333, "is_disabled": 0, "lat": 38.898585, "fusion_lat": 0.0, "is_reserved": 0, "rental_uris": {"android": "https://dc.lft.to/lastmile_qr_scan", "ios": "https://dc.lft.to/lastmile_qr_scan"}, "bike_id": "1d89cdd8bec136a6bc091c2b993dc2ce"}, {"name": "9dd9507ab0ced866bf3ede4e141e9b49", "type": "electric_scooter", "fusion_lon": 0.0, "lon": -77.0333565, "is_disabled": 0, "lat": 38.91408366666667, "fusion_lat": 0.0, "is_reserved": 0, "rental_uris": {"android": "https://dc.lft.to/lastmile_qr_scan", "ios": "https://dc.lft.to/lastmile_qr_scan"}, "bike_id": "9dd9507ab0ced866bf3ede4e141e9b49"}, {"name": "09ee4bd5174abc5eba0639d7a79b8bb9", "type": "electric_scooter", "fusion_lon": 0.0, "lon": -77.02219266666667, "is_disabled": 0, "lat": 38.926129833333334, "fusion_lat": 0.0, "is_reserved": 0, "rental_uris": {"android": "https://dc.lft.to/lastmile_qr_scan", "ios": "https://dc.lft.to/lastmile_qr_scan"}, "bike_id": "09ee4bd5174abc5eba0639d7a79b8bb9"}, {"name": "a0b2e190915404f34d69677a58c5a90a", "type": "electric_scooter", "fusion_lon": 0.0, "lon": -77.02485466666667, "is_disabled": 0, "lat": 38.9386845, "fusion_lat": 0.0, "is_reserved": 0, "rental_uris": {"android": "https://dc.lft.to/lastmile_qr_scan", "ios": "https://dc.lft.to/lastmile_qr_scan"}, "bike_id": "a0b2e190915404f34d69677a58c5a90a"}, {"name": "3616bae48b3da3f4715c393fe5d21d91", "type": "electric_scooter", "fusion_lon": 0.0, "lon": -77.04999716666667, "is_disabled": 0, "lat": 38.89232783333333, "fusion_lat": 0.0, "is_reserved": 0, "rental_uris": {"android": "https://dc.lft.to/lastmile_qr_scan", "ios": "https://dc.lft.to/lastmile_qr_scan"}, "bike_id": "3616bae48b3da3f4715c393fe5d21d91"}, {"name": "ba27a8b5b53e9db40d96e069ad7a9c7a", "type": "electric_scooter", "fusion_lon": 0.0, "lon": -77.00252466666667, "is_disabled": 0, "lat": 38.911796333333335, "fusion_lat": 0.0, "is_reserved": 0, "rental_uris": {"android": "https://dc.lft.to/lastmile_qr_scan", "ios": "https://dc.lft.to/lastmile_qr_scan"}, "bike_id": "ba27a8b5b53e9db40d96e069ad7a9c7a"}, {"name": "18ae412784e192fd448c2cd6950261ab", "type": "electric_scooter", "fusion_lon": 0.0, "lon": -77.01543166666667, "is_disabled": 0, "lat": 38.891677333333334, "fusion_lat": 0.0, "is_reserved": 0, "rental_uris": {"android": "https://dc.lft.to/lastmile_qr_scan", "ios": "https://dc.lft.to/lastmile_qr_scan"}, "bike_id": "18ae412784e192fd448c2cd6950261ab"}, {"name": "4bbf76e30763046e4e3b8e14ed8a8323", "type": "electric_scooter", "fusion_lon": 0.0, "lon": -77.033427, "is_disabled": 0, "lat": 38.916938, "fusion_lat": 0.0, "is_reserved": 0, "rental_uris": {"android": "https://dc.lft.to/lastmile_qr_scan", "ios": "https://dc.lft.to/lastmile_qr_scan"}, "bike_id": "4bbf76e30763046e4e3b8e14ed8a8323"}, {"name": "e6cb5fccaabbf0325904ce2ecb1a83ed", "type": "electric_scooter", "fusion_lon": 0.0, "lon": -77.03214483333333, "is_disabled": 0, "lat": 38.92275866666667, "fusion_lat": 0.0, "is_reserved": 0, "rental_uris": {"android": "https://dc.lft.to/lastmile_qr_scan", "ios": "https://dc.lft.to/lastmile_qr_scan"}, "bike_id": "e6cb5fccaabbf0325904ce2ecb1a83ed"}, {"name": "6d6a4f5449cf09e4d234ad95d7f2d063", "type": "electric_scooter", "fusion_lon": 0.0, "lon": -77.0412765, "is_disabled": 0, "lat": 38.92265283333333, "fusion_lat": 0.0, "is_reserved": 0, "rental_uris": {"android": "https://dc.lft.to/lastmile_qr_scan", "ios": "https://dc.lft.to/lastmile_qr_scan"}, "bike_id": "6d6a4f5449cf09e4d234ad95d7f2d063"}, {"name": "431686789b57ec6d551a994456ac2f30", "type": "electric_scooter", "fusion_lon": 0.0, "lon": -76.98701433333333, "is_disabled": 0, "lat": 38.86723516666667, "fusion_lat": 0.0, "is_reserved": 0, "rental_uris": {"android": "https://dc.lft.to/lastmile_qr_scan", "ios": "https://dc.lft.to/lastmile_qr_scan"}, "bike_id": "431686789b57ec6d551a994456ac2f30"}, {"name": "ecfc8c3536e99c095e799144b221d810", "type": "electric_scooter", "fusion_lon": 0.0, "lon": -77.0071165, "is_disabled": 0, "lat": 38.8848945, "fusion_lat": 0.0, "is_reserved": 0, "rental_uris": {"android": "https://dc.lft.to/lastmile_qr_scan", "ios": "https://dc.lft.to/lastmile_qr_scan"}, "bike_id": "ecfc8c3536e99c095e799144b221d810"}, {"name": "235eb867c28ba96eb847ba2e47d16bf4", "type": "electric_scooter", "fusion_lon": 0.0, "lon": -77.0470715, "is_disabled": 0, "lat": 38.91268483333333, "fusion_lat": 0.0, "is_reserved": 0, "rental_uris": {"android": "https://dc.lft.to/lastmile_qr_scan", "ios": "https://dc.lft.to/lastmile_qr_scan"}, "bike_id": "235eb867c28ba96eb847ba2e47d16bf4"}, {"name": "eed9c5f24a8a86faf9c9a0efebc81de0", "type": "electric_scooter", "fusion_lon": 0.0, "lon": -77.0161915, "is_disabled": 0, "lat": 38.9012085, "fusion_lat": 0.0, "is_reserved": 0, "rental_uris": {"android": "https://dc.lft.to/lastmile_qr_scan", "ios": "https://dc.lft.to/lastmile_qr_scan"}, "bike_id": "eed9c5f24a8a86faf9c9a0efebc81de0"}, {"name": "98639d651f168869612557c1177aaf63", "type": "electric_scooter", "fusion_lon": 0.0, "lon": -77.013684, "is_disabled": 0, "lat": 38.911224833333335, "fusion_lat": 0.0, "is_reserved": 0, "rental_uris": {"android": "https://dc.lft.to/lastmile_qr_scan", "ios": "https://dc.lft.to/lastmile_qr_scan"}, "bike_id": "98639d651f168869612557c1177aaf63"}, {"name": "8f780980e8c63476d12394bbe7051395", "type": "electric_scooter", "fusion_lon": 0.0, "lon": -77.04203866666667, "is_disabled": 0, "lat": 38.92111416666667, "fusion_lat": 0.0, "is_reserved": 0, "rental_uris": {"android": "https://dc.lft.to/lastmile_qr_scan", "ios": "https://dc.lft.to/lastmile_qr_scan"}, "bike_id": "8f780980e8c63476d12394bbe7051395"}, {"name": "03c7652f30455a2fc5739ea39230ef0e", "type": "electric_scooter", "fusion_lon": 0.0, "lon": -76.99814116666667, "is_disabled": 0, "lat": 38.93231866666667, "fusion_lat": 0.0, "is_reserved": 0, "rental_uris": {"android": "https://dc.lft.to/lastmile_qr_scan", "ios": "https://dc.lft.to/lastmile_qr_scan"}, "bike_id": "03c7652f30455a2fc5739ea39230ef0e"}, {"name": "ab36a227e1a4d0fea96346dffb99ab2e", "type": "electric_scooter", "fusion_lon": 0.0, "lon": -76.949783, "is_disabled": 0, "lat": 38.884800166666665, "fusion_lat": 0.0, "is_reserved": 0, "rental_uris": {"android": "https://dc.lft.to/lastmile_qr_scan", "ios": "https://dc.lft.to/lastmile_qr_scan"}, "bike_id": "ab36a227e1a4d0fea96346dffb99ab2e"}, {"name": "de041857e0195abda8c4713ee0ce997d", "type": "electric_scooter", "fusion_lon": 0.0, "lon": -77.02402066666667, "is_disabled": 0, "lat": 38.91912333333333, "fusion_lat": 0.0, "is_reserved": 0, "rental_uris": {"android": "https://dc.lft.to/lastmile_qr_scan", "ios": "https://dc.lft.to/lastmile_qr_scan"}, "bike_id": "de041857e0195abda8c4713ee0ce997d"}, {"name": "266e33f6556422526af60b9a37c07665", "type": "electric_scooter", "fusion_lon": 0.0, "lon": -77.02329533333334, "is_disabled": 0, "lat": 38.928746333333336, "fusion_lat": 0.0, "is_reserved": 0, "rental_uris": {"android": "https://dc.lft.to/lastmile_qr_scan", "ios": "https://dc.lft.to/lastmile_qr_scan"}, "bike_id": "266e33f6556422526af60b9a37c07665"}, {"name": "99adc44046e3ea73a1d4b1c4760ebf37", "type": "electric_scooter", "fusion_lon": 0.0, "lon": -77.02406233333333, "is_disabled": 0, "lat": 38.919905, "fusion_lat": 0.0, "is_reserved": 0, "rental_uris": {"android": "https://dc.lft.to/lastmile_qr_scan", "ios": "https://dc.lft.to/lastmile_qr_scan"}, "bike_id": "99adc44046e3ea73a1d4b1c4760ebf37"}, {"name": "114aaa36b2011c87cde7931dc0c529ab", "type": "electric_scooter", "fusion_lon": 0.0, "lon": -77.0281065, "is_disabled": 0, "lat": 38.899107, "fusion_lat": 0.0, "is_reserved": 0, "rental_uris": {"android": "https://dc.lft.to/lastmile_qr_scan", "ios": "https://dc.lft.to/lastmile_qr_scan"}, "bike_id": "114aaa36b2011c87cde7931dc0c529ab"}, {"name": "fb5479f798b69cc27aa5802b16f94c73", "type": "electric_scooter", "fusion_lon": 0.0, "lon": -77.03147633333333, "is_disabled": 0, "lat": 38.909668833333335, "fusion_lat": 0.0, "is_reserved": 0, "rental_uris": {"android": "https://dc.lft.to/lastmile_qr_scan", "ios": "https://dc.lft.to/lastmile_qr_scan"}, "bike_id": "fb5479f798b69cc27aa5802b16f94c73"}, {"name": "104d2a316a8525ed915eb8d68ee38240", "type": "electric_scooter", "fusion_lon": 0.0, "lon": -77.0654835, "is_disabled": 0, "lat": 38.947205833333335, "fusion_lat": 0.0, "is_reserved": 0, "rental_uris": {"android": "https://dc.lft.to/lastmile_qr_scan", "ios": "https://dc.lft.to/lastmile_qr_scan"}, "bike_id": "104d2a316a8525ed915eb8d68ee38240"}, {"name": "54de082315593216ead4932792b2b837", "type": "electric_scooter", "fusion_lon": 0.0, "lon": -77.0351265, "is_disabled": 0, "lat": 38.92150516666667, "fusion_lat": 0.0, "is_reserved": 0, "rental_uris": {"android": "https://dc.lft.to/lastmile_qr_scan", "ios": "https://dc.lft.to/lastmile_qr_scan"}, "bike_id": "54de082315593216ead4932792b2b837"}, {"name": "29e470d21a0f2b85975b15ed8fe81bce", "type": "electric_bike", "fusion_lon": 0.0, "lon": -77.00300633333333, "is_disabled": 0, "lat": 38.833776, "fusion_lat": 0.0, "is_reserved": 0, "rental_uris": {"android": "https://dc.lft.to/lastmile_qr_scan", "ios": "https://dc.lft.to/lastmile_qr_scan"}, "bike_id": "29e470d21a0f2b85975b15ed8fe81bce"}, {"name": "4718ebe5f68c37f872e4556bd17557ef", "type": "electric_scooter", "fusion_lon": 0.0, "lon": -77.03157266666666, "is_disabled": 0, "lat": 38.9140345, "fusion_lat": 0.0, "is_reserved": 0, "rental_uris": {"android": "https://dc.lft.to/lastmile_qr_scan", "ios": "https://dc.lft.to/lastmile_qr_scan"}, "bike_id": "4718ebe5f68c37f872e4556bd17557ef"}, {"name": "f2570fab58e5af01d66a3ff2b76f75c0", "type": "electric_scooter", "fusion_lon": 0.0, "lon": -77.019151, "is_disabled": 0, "lat": 38.9014215, "fusion_lat": 0.0, "is_reserved": 0, "rental_uris": {"android": "https://dc.lft.to/lastmile_qr_scan", "ios": "https://dc.lft.to/lastmile_qr_scan"}, "bike_id": "f2570fab58e5af01d66a3ff2b76f75c0"}, {"name": "a5b232a496e34b95190c2febd1625e5b", "type": "electric_scooter", "fusion_lon": 0.0, "lon": -77.01437333333334, "is_disabled": 0, "lat": 38.90957783333333, "fusion_lat": 0.0, "is_reserved": 0, "rental_uris": {"android": "https://dc.lft.to/lastmile_qr_scan", "ios": "https://dc.lft.to/lastmile_qr_scan"}, "bike_id": "a5b232a496e34b95190c2febd1625e5b"}, {"name": "e225c514729e207313ffbb5a9b02f4c5", "type": "electric_scooter", "fusion_lon": 0.0, "lon": -76.98508566666666, "is_disabled": 0, "lat": 38.90030816666667, "fusion_lat": 0.0, "is_reserved": 0, "rental_uris": {"android": "https://dc.lft.to/lastmile_qr_scan", "ios": "https://dc.lft.to/lastmile_qr_scan"}, "bike_id": "e225c514729e207313ffbb5a9b02f4c5"}, {"name": "7e50cd41c11083861d9eeec24c09cf3d", "type": "electric_bike", "fusion_lon": 0.0, "lon": -76.9528555, "is_disabled": 0, "lat": 38.8623905, "fusion_lat": 0.0, "is_reserved": 0, "rental_uris": {"android": "https://dc.lft.to/lastmile_qr_scan", "ios": "https://dc.lft.to/lastmile_qr_scan"}, "bike_id": "7e50cd41c11083861d9eeec24c09cf3d"}, {"name": "c8ae4e340440e4f4998f38fe8de213f8", "type": "electric_scooter", "fusion_lon": 0.0, "lon": -77.00543233333333, "is_disabled": 0, "lat": 38.927914666666666, "fusion_lat": 0.0, "is_reserved": 0, "rental_uris": {"android": "https://dc.lft.to/lastmile_qr_scan", "ios": "https://dc.lft.to/lastmile_qr_scan"}, "bike_id": "c8ae4e340440e4f4998f38fe8de213f8"}, {"name": "3f72835930ddb95613145f2cf533a7e9", "type": "electric_scooter", "fusion_lon": 0.0, "lon": -77.04476516666666, "is_disabled": 0, "lat": 38.918705, "fusion_lat": 0.0, "is_reserved": 0, "rental_uris": {"android": "https://dc.lft.to/lastmile_qr_scan", "ios": "https://dc.lft.to/lastmile_qr_scan"}, "bike_id": "3f72835930ddb95613145f2cf533a7e9"}, {"name": "f0ff8684f9c4d6873cebd09849c0e78e", "type": "electric_scooter", "fusion_lon": 0.0, "lon": -77.03236683333333, "is_disabled": 0, "lat": 38.925843, "fusion_lat": 0.0, "is_reserved": 0, "rental_uris": {"android": "https://dc.lft.to/lastmile_qr_scan", "ios": "https://dc.lft.to/lastmile_qr_scan"}, "bike_id": "f0ff8684f9c4d6873cebd09849c0e78e"}, {"name": "2e1d901f8be50665618563158d0fbebe", "type": "electric_scooter", "fusion_lon": 0.0, "lon": -77.04172683333333, "is_disabled": 0, "lat": 38.91708716666667, "fusion_lat": 0.0, "is_reserved": 0, "rental_uris": {"android": "https://dc.lft.to/lastmile_qr_scan", "ios": "https://dc.lft.to/lastmile_qr_scan"}, "bike_id": "2e1d901f8be50665618563158d0fbebe"}, {"name": "d5355444f11a0cb6aaeb01ccd73386bb", "type": "electric_scooter", "fusion_lon": 0.0, "lon": -76.99006933333334, "is_disabled": 0, "lat": 38.86514116666667, "fusion_lat": 0.0, "is_reserved": 0, "rental_uris": {"android": "https://dc.lft.to/lastmile_qr_scan", "ios": "https://dc.lft.to/lastmile_qr_scan"}, "bike_id": "d5355444f11a0cb6aaeb01ccd73386bb"}, {"name": "b151ca3ee7e4091d4f05a97efc706ec0", "type": "electric_scooter", "fusion_lon": 0.0, "lon": -77.0281045, "is_disabled": 0, "lat": 38.91779433333333, "fusion_lat": 0.0, "is_reserved": 0, "rental_uris": {"android": "https://dc.lft.to/lastmile_qr_scan", "ios": "https://dc.lft.to/lastmile_qr_scan"}, "bike_id": "b151ca3ee7e4091d4f05a97efc706ec0"}, {"name": "209dd039057964cc81d917af0f3f4dd4", "type": "electric_scooter", "fusion_lon": 0.0, "lon": -77.0075135, "is_disabled": 0, "lat": 38.89834033333333, "fusion_lat": 0.0, "is_reserved": 0, "rental_uris": {"android": "https://dc.lft.to/lastmile_qr_scan", "ios": "https://dc.lft.to/lastmile_qr_scan"}, "bike_id": "209dd039057964cc81d917af0f3f4dd4"}, {"name": "9cb0a37e9f81d4bff9421d3383812196", "type": "electric_scooter", "fusion_lon": 0.0, "lon": -77.024018, "is_disabled": 0, "lat": 38.896956333333335, "fusion_lat": 0.0, "is_reserved": 0, "rental_uris": {"android": "https://dc.lft.to/lastmile_qr_scan", "ios": "https://dc.lft.to/lastmile_qr_scan"}, "bike_id": "9cb0a37e9f81d4bff9421d3383812196"}, {"name": "a1bd547a5badc38dd5fca2add7222312", "type": "electric_bike", "fusion_lon": 0.0, "lon": -77.074583, "is_disabled": 0, "lat": 38.920710166666666, "fusion_lat": 0.0, "is_reserved": 0, "rental_uris": {"android": "https://dc.lft.to/lastmile_qr_scan", "ios": "https://dc.lft.to/lastmile_qr_scan"}, "bike_id": "a1bd547a5badc38dd5fca2add7222312"}, {"name": "08b968c284e39a1d244bbdb6f6500370", "type": "electric_scooter", "fusion_lon": 0.0, "lon": -77.03712283333333, "is_disabled": 0, "lat": 38.92638066666667, "fusion_lat": 0.0, "is_reserved": 0, "rental_uris": {"android": "https://dc.lft.to/lastmile_qr_scan", "ios": "https://dc.lft.to/lastmile_qr_scan"}, "bike_id": "08b968c284e39a1d244bbdb6f6500370"}, {"name": "251c92647af2052eb9f364609888e14f", "type": "electric_scooter", "fusion_lon": 0.0, "lon": -77.036145, "is_disabled": 0, "lat": 38.931588833333336, "fusion_lat": 0.0, "is_reserved": 0, "rental_uris": {"android": "https://dc.lft.to/lastmile_qr_scan", "ios": "https://dc.lft.to/lastmile_qr_scan"}, "bike_id": "251c92647af2052eb9f364609888e14f"}, {"name": "530a8dabe9822bef95844d06e5374461", "type": "electric_scooter", "fusion_lon": 0.0, "lon": -77.00295083333333, "is_disabled": 0, "lat": 38.894915, "fusion_lat": 0.0, "is_reserved": 0, "rental_uris": {"android": "https://dc.lft.to/lastmile_qr_scan", "ios": "https://dc.lft.to/lastmile_qr_scan"}, "bike_id": "530a8dabe9822bef95844d06e5374461"}, {"name": "a09d7577a1b2057b10d994f95606b9d2", "type": "electric_scooter", "fusion_lon": 0.0, "lon": -77.03469583333333, "is_disabled": 0, "lat": 38.920623166666665, "fusion_lat": 0.0, "is_reserved": 0, "rental_uris": {"android": "https://dc.lft.to/lastmile_qr_scan", "ios": "https://dc.lft.to/lastmile_qr_scan"}, "bike_id": "a09d7577a1b2057b10d994f95606b9d2"}, {"name": "da79a3e7fff39938a73fe7d51a648e1d", "type": "electric_scooter", "fusion_lon": 0.0, "lon": -77.02125416666667, "is_disabled": 0, "lat": 38.922728166666666, "fusion_lat": 0.0, "is_reserved": 0, "rental_uris": {"android": "https://dc.lft.to/lastmile_qr_scan", "ios": "https://dc.lft.to/lastmile_qr_scan"}, "bike_id": "da79a3e7fff39938a73fe7d51a648e1d"}, {"name": "3fe8ae5813c456a07f3bb8e3e50bea15", "type": "electric_scooter", "fusion_lon": 0.0, "lon": -77.02957916666666, "is_disabled": 0, "lat": 38.92250383333333, "fusion_lat": 0.0, "is_reserved": 0, "rental_uris": {"android": "https://dc.lft.to/lastmile_qr_scan", "ios": "https://dc.lft.to/lastmile_qr_scan"}, "bike_id": "3fe8ae5813c456a07f3bb8e3e50bea15"}, {"name": "15cf0db141be9309cc4acbefbc8b20c2", "type": "electric_bike", "fusion_lon": 0.0, "lon": -77.18742616666667, "is_disabled": 0, "lat": 38.8935575, "fusion_lat": 0.0, "is_reserved": 0, "rental_uris": {"android": "https://dc.lft.to/lastmile_qr_scan", "ios": "https://dc.lft.to/lastmile_qr_scan"}, "bike_id": "15cf0db141be9309cc4acbefbc8b20c2"}, {"name": "7a97b77d4915652dae4dcd5ca2986d3b", "type": "electric_scooter", "fusion_lon": 0.0, "lon": -77.00936066666667, "is_disabled": 0, "lat": 38.876039, "fusion_lat": 0.0, "is_reserved": 0, "rental_uris": {"android": "https://dc.lft.to/lastmile_qr_scan", "ios": "https://dc.lft.to/lastmile_qr_scan"}, "bike_id": "7a97b77d4915652dae4dcd5ca2986d3b"}, {"name": "0e6dc5d85cd8ffa74dd76c70ef7aed79", "type": "electric_scooter", "fusion_lon": 0.0, "lon": -77.0603395, "is_disabled": 0, "lat": 38.9391685, "fusion_lat": 0.0, "is_reserved": 0, "rental_uris": {"android": "https://dc.lft.to/lastmile_qr_scan", "ios": "https://dc.lft.to/lastmile_qr_scan"}, "bike_id": "0e6dc5d85cd8ffa74dd76c70ef7aed79"}, {"name": "5b247d1905c67ae6f51e855947ae8edd", "type": "electric_scooter", "fusion_lon": 0.0, "lon": -76.99616216666666, "is_disabled": 0, "lat": 38.950745, "fusion_lat": 0.0, "is_reserved": 0, "rental_uris": {"android": "https://dc.lft.to/lastmile_qr_scan", "ios": "https://dc.lft.to/lastmile_qr_scan"}, "bike_id": "5b247d1905c67ae6f51e855947ae8edd"}, {"name": "bb099ef775361a6e1a4f80c4878539a0", "type": "electric_scooter", "fusion_lon": 0.0, "lon": -77.03382616666667, "is_disabled": 0, "lat": 38.925367333333334, "fusion_lat": 0.0, "is_reserved": 0, "rental_uris": {"android": "https://dc.lft.to/lastmile_qr_scan", "ios": "https://dc.lft.to/lastmile_qr_scan"}, "bike_id": "bb099ef775361a6e1a4f80c4878539a0"}, {"name": "97c764be8b9b2b0d9ba2b75350fd252a", "type": "electric_scooter", "fusion_lon": 0.0, "lon": -77.03841683333333, "is_disabled": 0, "lat": 38.9098895, "fusion_lat": 0.0, "is_reserved": 0, "rental_uris": {"android": "https://dc.lft.to/lastmile_qr_scan", "ios": "https://dc.lft.to/lastmile_qr_scan"}, "bike_id": "97c764be8b9b2b0d9ba2b75350fd252a"}, {"name": "8977c3a8248ac4c39d384b249f67023e", "type": "electric_scooter", "fusion_lon": 0.0, "lon": -77.03273766666666, "is_disabled": 0, "lat": 38.922772333333334, "fusion_lat": 0.0, "is_reserved": 0, "rental_uris": {"android": "https://dc.lft.to/lastmile_qr_scan", "ios": "https://dc.lft.to/lastmile_qr_scan"}, "bike_id": "8977c3a8248ac4c39d384b249f67023e"}, {"name": "9552779c43da706944cd1f015a3ccec0", "type": "electric_scooter", "fusion_lon": 0.0, "lon": -77.0324165, "is_disabled": 0, "lat": 38.92729683333334, "fusion_lat": 0.0, "is_reserved": 0, "rental_uris": {"android": "https://dc.lft.to/lastmile_qr_scan", "ios": "https://dc.lft.to/lastmile_qr_scan"}, "bike_id": "9552779c43da706944cd1f015a3ccec0"}, {"name": "9940c3764aa5304dafae7b36be59bf34", "type": "electric_bike", "fusion_lon": 0.0, "lon": -77.053318, "is_disabled": 0, "lat": 39.04081466666667, "fusion_lat": 0.0, "is_reserved": 0, "rental_uris": {"android": "https://dc.lft.to/lastmile_qr_scan", "ios": "https://dc.lft.to/lastmile_qr_scan"}, "bike_id": "9940c3764aa5304dafae7b36be59bf34"}, {"name": "d89d9890277c0213cbf87c931de9640a", "type": "electric_scooter", "fusion_lon": 0.0, "lon": -77.0456375, "is_disabled": 0, "lat": 38.9086515, "fusion_lat": 0.0, "is_reserved": 0, "rental_uris": {"android": "https://dc.lft.to/lastmile_qr_scan", "ios": "https://dc.lft.to/lastmile_qr_scan"}, "bike_id": "d89d9890277c0213cbf87c931de9640a"}, {"name": "2cad5d391747a91729a910a2f3ab7db7", "type": "electric_bike", "fusion_lon": 0.0, "lon": -76.99276583333334, "is_disabled": 0, "lat": 38.972576833333335, "fusion_lat": 0.0, "is_reserved": 0, "rental_uris": {"android": "https://dc.lft.to/lastmile_qr_scan", "ios": "https://dc.lft.to/lastmile_qr_scan"}, "bike_id": "2cad5d391747a91729a910a2f3ab7db7"}, {"name": "7536a51fec589d51b0af844a49abbd01", "type": "electric_scooter", "fusion_lon": 0.0, "lon": -77.0385345, "is_disabled": 0, "lat": 38.90281933333333, "fusion_lat": 0.0, "is_reserved": 0, "rental_uris": {"android": "https://dc.lft.to/lastmile_qr_scan", "ios": "https://dc.lft.to/lastmile_qr_scan"}, "bike_id": "7536a51fec589d51b0af844a49abbd01"}, {"name": "2f5eacb9bbf3063cb0703e000cc559a0", "type": "electric_scooter", "fusion_lon": 0.0, "lon": -77.052846, "is_disabled": 0, "lat": 38.910194833333335, "fusion_lat": 0.0, "is_reserved": 0, "rental_uris": {"android": "https://dc.lft.to/lastmile_qr_scan", "ios": "https://dc.lft.to/lastmile_qr_scan"}, "bike_id": "2f5eacb9bbf3063cb0703e000cc559a0"}, {"name": "ebb475607e581fe199f2ed5c17c50fad", "type": "electric_scooter", "fusion_lon": 0.0, "lon": -77.051843, "is_disabled": 0, "lat": 38.924257833333336, "fusion_lat": 0.0, "is_reserved": 0, "rental_uris": {"android": "https://dc.lft.to/lastmile_qr_scan", "ios": "https://dc.lft.to/lastmile_qr_scan"}, "bike_id": "ebb475607e581fe199f2ed5c17c50fad"}, {"name": "a39ac5b80f76a85757030ee2afef65d5", "type": "electric_scooter", "fusion_lon": 0.0, "lon": -77.000299, "is_disabled": 0, "lat": 38.873932, "fusion_lat": 0.0, "is_reserved": 0, "rental_uris": {"android": "https://dc.lft.to/lastmile_qr_scan", "ios": "https://dc.lft.to/lastmile_qr_scan"}, "bike_id": "a39ac5b80f76a85757030ee2afef65d5"}, {"name": "f2e055e31c73c720abbf6382fc177615", "type": "electric_scooter", "fusion_lon": 0.0, "lon": -77.0337785, "is_disabled": 0, "lat": 38.91712316666667, "fusion_lat": 0.0, "is_reserved": 0, "rental_uris": {"android": "https://dc.lft.to/lastmile_qr_scan", "ios": "https://dc.lft.to/lastmile_qr_scan"}, "bike_id": "f2e055e31c73c720abbf6382fc177615"}, {"name": "a6285259cced466db84e3f3e4ce58afc", "type": "electric_scooter", "fusion_lon": 0.0, "lon": -77.03345383333334, "is_disabled": 0, "lat": 38.9358165, "fusion_lat": 0.0, "is_reserved": 0, "rental_uris": {"android": "https://dc.lft.to/lastmile_qr_scan", "ios": "https://dc.lft.to/lastmile_qr_scan"}, "bike_id": "a6285259cced466db84e3f3e4ce58afc"}, {"name": "16248f9ed43f04907bbebd0a076e059f", "type": "electric_scooter", "fusion_lon": 0.0, "lon": -77.02343933333333, "is_disabled": 0, "lat": 38.927126, "fusion_lat": 0.0, "is_reserved": 0, "rental_uris": {"android": "https://dc.lft.to/lastmile_qr_scan", "ios": "https://dc.lft.to/lastmile_qr_scan"}, "bike_id": "16248f9ed43f04907bbebd0a076e059f"}, {"name": "8c5c23bc70520a7938051526deaa4d81", "type": "electric_scooter", "fusion_lon": 0.0, "lon": -77.002266, "is_disabled": 0, "lat": 38.9250895, "fusion_lat": 0.0, "is_reserved": 0, "rental_uris": {"android": "https://dc.lft.to/lastmile_qr_scan", "ios": "https://dc.lft.to/lastmile_qr_scan"}, "bike_id": "8c5c23bc70520a7938051526deaa4d81"}, {"name": "b91d556340fa2846fc10a7054531322c", "type": "electric_scooter", "fusion_lon": 0.0, "lon": -77.0529635, "is_disabled": 0, "lat": 38.90538633333333, "fusion_lat": 0.0, "is_reserved": 0, "rental_uris": {"android": "https://dc.lft.to/lastmile_qr_scan", "ios": "https://dc.lft.to/lastmile_qr_scan"}, "bike_id": "b91d556340fa2846fc10a7054531322c"}, {"name": "1e2407a2df7b20540653ea9f2c7cfb9b", "type": "electric_scooter", "fusion_lon": 0.0, "lon": -77.022327, "is_disabled": 0, "lat": 38.89219933333333, "fusion_lat": 0.0, "is_reserved": 0, "rental_uris": {"android": "https://dc.lft.to/lastmile_qr_scan", "ios": "https://dc.lft.to/lastmile_qr_scan"}, "bike_id": "1e2407a2df7b20540653ea9f2c7cfb9b"}, {"name": "462fa339034e5b8499b629b52f4e83c1", "type": "electric_scooter", "fusion_lon": 0.0, "lon": -77.05732833333333, "is_disabled": 0, "lat": 38.9336875, "fusion_lat": 0.0, "is_reserved": 0, "rental_uris": {"android": "https://dc.lft.to/lastmile_qr_scan", "ios": "https://dc.lft.to/lastmile_qr_scan"}, "bike_id": "462fa339034e5b8499b629b52f4e83c1"}, {"name": "cf949e4bee0a038492e916b479abcdd4", "type": "electric_scooter", "fusion_lon": 0.0, "lon": -77.0419335, "is_disabled": 0, "lat": 38.92098683333333, "fusion_lat": 0.0, "is_reserved": 0, "rental_uris": {"android": "https://dc.lft.to/lastmile_qr_scan", "ios": "https://dc.lft.to/lastmile_qr_scan"}, "bike_id": "cf949e4bee0a038492e916b479abcdd4"}, {"name": "6293d47ec87a04df84d8d7d8f0453667", "type": "electric_scooter", "fusion_lon": 0.0, "lon": -77.02623716666666, "is_disabled": 0, "lat": 38.933387, "fusion_lat": 0.0, "is_reserved": 0, "rental_uris": {"android": "https://dc.lft.to/lastmile_qr_scan", "ios": "https://dc.lft.to/lastmile_qr_scan"}, "bike_id": "6293d47ec87a04df84d8d7d8f0453667"}, {"name": "247f0b6f74e0c96af7c0710d76ebca50", "type": "electric_scooter", "fusion_lon": 0.0, "lon": -77.04477233333333, "is_disabled": 0, "lat": 38.918829333333335, "fusion_lat": 0.0, "is_reserved": 0, "rental_uris": {"android": "https://dc.lft.to/lastmile_qr_scan", "ios": "https://dc.lft.to/lastmile_qr_scan"}, "bike_id": "247f0b6f74e0c96af7c0710d76ebca50"}, {"name": "518fa6c68b38dbd28d4818ecda9f2203", "type": "electric_scooter", "fusion_lon": 0.0, "lon": -77.03211283333333, "is_disabled": 0, "lat": 38.91354716666667, "fusion_lat": 0.0, "is_reserved": 0, "rental_uris": {"android": "https://dc.lft.to/lastmile_qr_scan", "ios": "https://dc.lft.to/lastmile_qr_scan"}, "bike_id": "518fa6c68b38dbd28d4818ecda9f2203"}, {"name": "edae194ba26574c48d3fa2f80964fc73", "type": "electric_scooter", "fusion_lon": 0.0, "lon": -77.0272895, "is_disabled": 0, "lat": 38.927966833333336, "fusion_lat": 0.0, "is_reserved": 0, "rental_uris": {"android": "https://dc.lft.to/lastmile_qr_scan", "ios": "https://dc.lft.to/lastmile_qr_scan"}, "bike_id": "edae194ba26574c48d3fa2f80964fc73"}, {"name": "b49c2b6ced70747d6f11e55bc4017583", "type": "electric_scooter", "fusion_lon": 0.0, "lon": -77.02169666666667, "is_disabled": 0, "lat": 38.905724666666664, "fusion_lat": 0.0, "is_reserved": 0, "rental_uris": {"android": "https://dc.lft.to/lastmile_qr_scan", "ios": "https://dc.lft.to/lastmile_qr_scan"}, "bike_id": "b49c2b6ced70747d6f11e55bc4017583"}, {"name": "c49a6ebffb1c20c6a8576ac07d45a76d", "type": "electric_scooter", "fusion_lon": 0.0, "lon": -76.94641, "is_disabled": 0, "lat": 38.898626166666666, "fusion_lat": 0.0, "is_reserved": 0, "rental_uris": {"android": "https://dc.lft.to/lastmile_qr_scan", "ios": "https://dc.lft.to/lastmile_qr_scan"}, "bike_id": "c49a6ebffb1c20c6a8576ac07d45a76d"}, {"name": "c3f17fd07e6252e1de4fbf2025f53321", "type": "electric_bike", "fusion_lon": 0.0, "lon": -77.12527916666667, "is_disabled": 0, "lat": 39.05635566666667, "fusion_lat": 0.0, "is_reserved": 0, "rental_uris": {"android": "https://dc.lft.to/lastmile_qr_scan", "ios": "https://dc.lft.to/lastmile_qr_scan"}, "bike_id": "c3f17fd07e6252e1de4fbf2025f53321"}, {"name": "7b82058a03dac2dbb1032e943bb1b331", "type": "electric_scooter", "fusion_lon": 0.0, "lon": -77.04178233333333, "is_disabled": 0, "lat": 38.918230666666666, "fusion_lat": 0.0, "is_reserved": 0, "rental_uris": {"android": "https://dc.lft.to/lastmile_qr_scan", "ios": "https://dc.lft.to/lastmile_qr_scan"}, "bike_id": "7b82058a03dac2dbb1032e943bb1b331"}, {"name": "a585dde079f13ada268e020ae71e93b0", "type": "electric_scooter", "fusion_lon": 0.0, "lon": -76.97169683333334, "is_disabled": 0, "lat": 38.861397, "fusion_lat": 0.0, "is_reserved": 0, "rental_uris": {"android": "https://dc.lft.to/lastmile_qr_scan", "ios": "https://dc.lft.to/lastmile_qr_scan"}, "bike_id": "a585dde079f13ada268e020ae71e93b0"}, {"name": "5428f8ebf4a2f7416594d509c2e53e01", "type": "electric_scooter", "fusion_lon": 0.0, "lon": -77.02812883333333, "is_disabled": 0, "lat": 38.89857933333333, "fusion_lat": 0.0, "is_reserved": 0, "rental_uris": {"android": "https://dc.lft.to/lastmile_qr_scan", "ios": "https://dc.lft.to/lastmile_qr_scan"}, "bike_id": "5428f8ebf4a2f7416594d509c2e53e01"}, {"name": "2c9b60eb2bd26942e399a1625beeb37c", "type": "electric_scooter", "fusion_lon": 0.0, "lon": -77.04376816666667, "is_disabled": 0, "lat": 38.8922485, "fusion_lat": 0.0, "is_reserved": 0, "rental_uris": {"android": "https://dc.lft.to/lastmile_qr_scan", "ios": "https://dc.lft.to/lastmile_qr_scan"}, "bike_id": "2c9b60eb2bd26942e399a1625beeb37c"}, {"name": "6035c55f66ec1889c3f800767a3c4f9c", "type": "electric_scooter", "fusion_lon": 0.0, "lon": -77.02726083333333, "is_disabled": 0, "lat": 38.90139, "fusion_lat": 0.0, "is_reserved": 0, "rental_uris": {"android": "https://dc.lft.to/lastmile_qr_scan", "ios": "https://dc.lft.to/lastmile_qr_scan"}, "bike_id": "6035c55f66ec1889c3f800767a3c4f9c"}, {"name": "6208e0cf6f94b01bbe32f9a596993b5b", "type": "electric_scooter", "fusion_lon": 0.0, "lon": -77.01982716666667, "is_disabled": 0, "lat": 38.89906466666667, "fusion_lat": 0.0, "is_reserved": 0, "rental_uris": {"android": "https://dc.lft.to/lastmile_qr_scan", "ios": "https://dc.lft.to/lastmile_qr_scan"}, "bike_id": "6208e0cf6f94b01bbe32f9a596993b5b"}, {"name": "830b1b3957827dca9c37aa5861673b8c", "type": "electric_scooter", "fusion_lon": 0.0, "lon": -77.02379033333334, "is_disabled": 0, "lat": 38.907286666666664, "fusion_lat": 0.0, "is_reserved": 0, "rental_uris": {"android": "https://dc.lft.to/lastmile_qr_scan", "ios": "https://dc.lft.to/lastmile_qr_scan"}, "bike_id": "830b1b3957827dca9c37aa5861673b8c"}, {"name": "050ba1045c3a952ebbb4d757cb7555ff", "type": "electric_scooter", "fusion_lon": 0.0, "lon": -77.04502183333334, "is_disabled": 0, "lat": 38.911113, "fusion_lat": 0.0, "is_reserved": 0, "rental_uris": {"android": "https://dc.lft.to/lastmile_qr_scan", "ios": "https://dc.lft.to/lastmile_qr_scan"}, "bike_id": "050ba1045c3a952ebbb4d757cb7555ff"}, {"name": "6a13b3234266a8b4910fc5652a8b98fd", "type": "electric_scooter", "fusion_lon": 0.0, "lon": -77.01903633333333, "is_disabled": 0, "lat": 38.92344716666667, "fusion_lat": 0.0, "is_reserved": 0, "rental_uris": {"android": "https://dc.lft.to/lastmile_qr_scan", "ios": "https://dc.lft.to/lastmile_qr_scan"}, "bike_id": "6a13b3234266a8b4910fc5652a8b98fd"}, {"name": "8d9e77e8ae88ad80c3efb28c5af31a8d", "type": "electric_scooter", "fusion_lon": 0.0, "lon": -77.02534516666667, "is_disabled": 0, "lat": 38.9062575, "fusion_lat": 0.0, "is_reserved": 0, "rental_uris": {"android": "https://dc.lft.to/lastmile_qr_scan", "ios": "https://dc.lft.to/lastmile_qr_scan"}, "bike_id": "8d9e77e8ae88ad80c3efb28c5af31a8d"}, {"name": "da12ad87376dda7497599fcdc9e802da", "type": "electric_bike", "fusion_lon": 0.0, "lon": -76.98277133333333, "is_disabled": 0, "lat": 38.90848916666667, "fusion_lat": 0.0, "is_reserved": 0, "rental_uris": {"android": "https://dc.lft.to/lastmile_qr_scan", "ios": "https://dc.lft.to/lastmile_qr_scan"}, "bike_id": "da12ad87376dda7497599fcdc9e802da"}, {"name": "38f77abf385bc3b4ecb7e86a7e4ff3fb", "type": "electric_scooter", "fusion_lon": 0.0, "lon": -77.0466, "is_disabled": 0, "lat": 38.89223833333333, "fusion_lat": 0.0, "is_reserved": 0, "rental_uris": {"android": "https://dc.lft.to/lastmile_qr_scan", "ios": "https://dc.lft.to/lastmile_qr_scan"}, "bike_id": "38f77abf385bc3b4ecb7e86a7e4ff3fb"}, {"name": "dbc9f4dbe24d35e79fb6467d52563f59", "type": "electric_scooter", "fusion_lon": 0.0, "lon": -77.02206116666666, "is_disabled": 0, "lat": 38.901708666666664, "fusion_lat": 0.0, "is_reserved": 0, "rental_uris": {"android": "https://dc.lft.to/lastmile_qr_scan", "ios": "https://dc.lft.to/lastmile_qr_scan"}, "bike_id": "dbc9f4dbe24d35e79fb6467d52563f59"}, {"name": "4feb1a306d29ef5451ad46f9e00a3a63", "type": "electric_scooter", "fusion_lon": 0.0, "lon": -77.04184883333333, "is_disabled": 0, "lat": 38.918208166666666, "fusion_lat": 0.0, "is_reserved": 0, "rental_uris": {"android": "https://dc.lft.to/lastmile_qr_scan", "ios": "https://dc.lft.to/lastmile_qr_scan"}, "bike_id": "4feb1a306d29ef5451ad46f9e00a3a63"}, {"name": "c3a0bb038e1e975fd13d1bd7b752a726", "type": "electric_scooter", "fusion_lon": 0.0, "lon": -77.02607116666667, "is_disabled": 0, "lat": 38.91718433333333, "fusion_lat": 0.0, "is_reserved": 0, "rental_uris": {"android": "https://dc.lft.to/lastmile_qr_scan", "ios": "https://dc.lft.to/lastmile_qr_scan"}, "bike_id": "c3a0bb038e1e975fd13d1bd7b752a726"}, {"name": "1c3c67dac90c36bcffa09a4cf0ad103b", "type": "electric_scooter", "fusion_lon": 0.0, "lon": -76.9900595, "is_disabled": 0, "lat": 38.865075, "fusion_lat": 0.0, "is_reserved": 0, "rental_uris": {"android": "https://dc.lft.to/lastmile_qr_scan", "ios": "https://dc.lft.to/lastmile_qr_scan"}, "bike_id": "1c3c67dac90c36bcffa09a4cf0ad103b"}, {"name": "bd913dcc2f5243385a21c64b827b630b", "type": "electric_scooter", "fusion_lon": 0.0, "lon": -77.0418105, "is_disabled": 0, "lat": 38.917350166666665, "fusion_lat": 0.0, "is_reserved": 0, "rental_uris": {"android": "https://dc.lft.to/lastmile_qr_scan", "ios": "https://dc.lft.to/lastmile_qr_scan"}, "bike_id": "bd913dcc2f5243385a21c64b827b630b"}, {"name": "d0f708d8d8e8665f51fc65712b414ee7", "type": "electric_scooter", "fusion_lon": 0.0, "lon": -77.04504783333333, "is_disabled": 0, "lat": 38.89454, "fusion_lat": 0.0, "is_reserved": 0, "rental_uris": {"android": "https://dc.lft.to/lastmile_qr_scan", "ios": "https://dc.lft.to/lastmile_qr_scan"}, "bike_id": "d0f708d8d8e8665f51fc65712b414ee7"}, {"name": "3ba4f666dbc4356e61561ee27dff286e", "type": "electric_scooter", "fusion_lon": 0.0, "lon": -77.04703983333333, "is_disabled": 0, "lat": 38.921738, "fusion_lat": 0.0, "is_reserved": 0, "rental_uris": {"android": "https://dc.lft.to/lastmile_qr_scan", "ios": "https://dc.lft.to/lastmile_qr_scan"}, "bike_id": "3ba4f666dbc4356e61561ee27dff286e"}, {"name": "eacf19f7780ebe0c7dd14fb6552563db", "type": "electric_scooter", "fusion_lon": 0.0, "lon": -77.01796733333333, "is_disabled": 0, "lat": 38.914004166666665, "fusion_lat": 0.0, "is_reserved": 0, "rental_uris": {"android": "https://dc.lft.to/lastmile_qr_scan", "ios": "https://dc.lft.to/lastmile_qr_scan"}, "bike_id": "eacf19f7780ebe0c7dd14fb6552563db"}, {"name": "c83606f5c9b4c7930c32ade7bd5e29ac", "type": "electric_scooter", "fusion_lon": 0.0, "lon": -77.00644266666667, "is_disabled": 0, "lat": 38.90006066666667, "fusion_lat": 0.0, "is_reserved": 0, "rental_uris": {"android": "https://dc.lft.to/lastmile_qr_scan", "ios": "https://dc.lft.to/lastmile_qr_scan"}, "bike_id": "c83606f5c9b4c7930c32ade7bd5e29ac"}, {"name": "24567ae125e5f4416ae9e9dd9e6cf8da", "type": "electric_scooter", "fusion_lon": 0.0, "lon": -77.02002333333333, "is_disabled": 0, "lat": 38.914232, "fusion_lat": 0.0, "is_reserved": 0, "rental_uris": {"android": "https://dc.lft.to/lastmile_qr_scan", "ios": "https://dc.lft.to/lastmile_qr_scan"}, "bike_id": "24567ae125e5f4416ae9e9dd9e6cf8da"}, {"name": "92fa6f262d0c00a7be56aadb7630fb59", "type": "electric_scooter", "fusion_lon": 0.0, "lon": -76.9998995, "is_disabled": 0, "lat": 38.87487866666667, "fusion_lat": 0.0, "is_reserved": 0, "rental_uris": {"android": "https://dc.lft.to/lastmile_qr_scan", "ios": "https://dc.lft.to/lastmile_qr_scan"}, "bike_id": "92fa6f262d0c00a7be56aadb7630fb59"}, {"name": "9cc76c756390d4e3322103093c1d7a50", "type": "electric_scooter", "fusion_lon": 0.0, "lon": -77.02557816666666, "is_disabled": 0, "lat": 38.94164516666667, "fusion_lat": 0.0, "is_reserved": 0, "rental_uris": {"android": "https://dc.lft.to/lastmile_qr_scan", "ios": "https://dc.lft.to/lastmile_qr_scan"}, "bike_id": "9cc76c756390d4e3322103093c1d7a50"}, {"name": "e725d0df1491bee9acb9886967185198", "type": "electric_scooter", "fusion_lon": 0.0, "lon": -77.0190385, "is_disabled": 0, "lat": 38.92346783333333, "fusion_lat": 0.0, "is_reserved": 0, "rental_uris": {"android": "https://dc.lft.to/lastmile_qr_scan", "ios": "https://dc.lft.to/lastmile_qr_scan"}, "bike_id": "e725d0df1491bee9acb9886967185198"}, {"name": "c7dd015c3f9225a0fd13e621a397c988", "type": "electric_scooter", "fusion_lon": 0.0, "lon": -76.98075183333333, "is_disabled": 0, "lat": 38.901641833333336, "fusion_lat": 0.0, "is_reserved": 0, "rental_uris": {"android": "https://dc.lft.to/lastmile_qr_scan", "ios": "https://dc.lft.to/lastmile_qr_scan"}, "bike_id": "c7dd015c3f9225a0fd13e621a397c988"}, {"name": "77797c437169c63a5dccb6a590d34009", "type": "electric_scooter", "fusion_lon": 0.0, "lon": -77.04491483333334, "is_disabled": 0, "lat": 38.91276916666666, "fusion_lat": 0.0, "is_reserved": 0, "rental_uris": {"android": "https://dc.lft.to/lastmile_qr_scan", "ios": "https://dc.lft.to/lastmile_qr_scan"}, "bike_id": "77797c437169c63a5dccb6a590d34009"}, {"name": "fc91552a0054446ca3845cc9904fcffb", "type": "electric_scooter", "fusion_lon": 0.0, "lon": -76.99039916666666, "is_disabled": 0, "lat": 38.863922333333335, "fusion_lat": 0.0, "is_reserved": 0, "rental_uris": {"android": "https://dc.lft.to/lastmile_qr_scan", "ios": "https://dc.lft.to/lastmile_qr_scan"}, "bike_id": "fc91552a0054446ca3845cc9904fcffb"}, {"name": "aecd5dcbe510641e3c6758626f084445", "type": "electric_scooter", "fusion_lon": 0.0, "lon": -76.99489433333333, "is_disabled": 0, "lat": 38.862427, "fusion_lat": 0.0, "is_reserved": 0, "rental_uris": {"android": "https://dc.lft.to/lastmile_qr_scan", "ios": "https://dc.lft.to/lastmile_qr_scan"}, "bike_id": "aecd5dcbe510641e3c6758626f084445"}, {"name": "5de68b7aa9ec78ab67d101099912cc33", "type": "electric_scooter", "fusion_lon": 0.0, "lon": -77.0348965, "is_disabled": 0, "lat": 38.909742333333334, "fusion_lat": 0.0, "is_reserved": 0, "rental_uris": {"android": "https://dc.lft.to/lastmile_qr_scan", "ios": "https://dc.lft.to/lastmile_qr_scan"}, "bike_id": "5de68b7aa9ec78ab67d101099912cc33"}, {"name": "f32cab99144288898ae2e8b1dc6bef18", "type": "electric_scooter", "fusion_lon": 0.0, "lon": -77.0384585, "is_disabled": 0, "lat": 38.902885, "fusion_lat": 0.0, "is_reserved": 0, "rental_uris": {"android": "https://dc.lft.to/lastmile_qr_scan", "ios": "https://dc.lft.to/lastmile_qr_scan"}, "bike_id": "f32cab99144288898ae2e8b1dc6bef18"}, {"name": "52184008fbb7dd1c19b92080ed2a2133", "type": "electric_scooter", "fusion_lon": 0.0, "lon": -77.04010483333333, "is_disabled": 0, "lat": 38.89635, "fusion_lat": 0.0, "is_reserved": 0, "rental_uris": {"android": "https://dc.lft.to/lastmile_qr_scan", "ios": "https://dc.lft.to/lastmile_qr_scan"}, "bike_id": "52184008fbb7dd1c19b92080ed2a2133"}, {"name": "13c40a4f612bded2e73c244f211be3ae", "type": "electric_scooter", "fusion_lon": 0.0, "lon": -76.99602066666667, "is_disabled": 0, "lat": 38.92848, "fusion_lat": 0.0, "is_reserved": 0, "rental_uris": {"android": "https://dc.lft.to/lastmile_qr_scan", "ios": "https://dc.lft.to/lastmile_qr_scan"}, "bike_id": "13c40a4f612bded2e73c244f211be3ae"}, {"name": "0809889e068d867e5b922e1d025e5232", "type": "electric_scooter", "fusion_lon": 0.0, "lon": -76.99255916666667, "is_disabled": 0, "lat": 38.898143, "fusion_lat": 0.0, "is_reserved": 0, "rental_uris": {"android": "https://dc.lft.to/lastmile_qr_scan", "ios": "https://dc.lft.to/lastmile_qr_scan"}, "bike_id": "0809889e068d867e5b922e1d025e5232"}, {"name": "2e8ac7b8751105e0b8d06098981875e1", "type": "electric_scooter", "fusion_lon": 0.0, "lon": -77.04691783333334, "is_disabled": 0, "lat": 38.90229466666667, "fusion_lat": 0.0, "is_reserved": 0, "rental_uris": {"android": "https://dc.lft.to/lastmile_qr_scan", "ios": "https://dc.lft.to/lastmile_qr_scan"}, "bike_id": "2e8ac7b8751105e0b8d06098981875e1"}, {"name": "1a6627b10c9e365fa021bc055851d952", "type": "electric_scooter", "fusion_lon": 0.0, "lon": -77.0190565, "is_disabled": 0, "lat": 38.877028833333334, "fusion_lat": 0.0, "is_reserved": 0, "rental_uris": {"android": "https://dc.lft.to/lastmile_qr_scan", "ios": "https://dc.lft.to/lastmile_qr_scan"}, "bike_id": "1a6627b10c9e365fa021bc055851d952"}, {"name": "ce8a0e433aa556f7b5f2864ed1c9f849", "type": "electric_scooter", "fusion_lon": 0.0, "lon": -77.03302816666667, "is_disabled": 0, "lat": 38.9563715, "fusion_lat": 0.0, "is_reserved": 0, "rental_uris": {"android": "https://dc.lft.to/lastmile_qr_scan", "ios": "https://dc.lft.to/lastmile_qr_scan"}, "bike_id": "ce8a0e433aa556f7b5f2864ed1c9f849"}, {"name": "41ccf2cf4fe899ef84ce5468ac81dd37", "type": "electric_scooter", "fusion_lon": 0.0, "lon": -77.01486133333333, "is_disabled": 0, "lat": 38.914106333333336, "fusion_lat": 0.0, "is_reserved": 0, "rental_uris": {"android": "https://dc.lft.to/lastmile_qr_scan", "ios": "https://dc.lft.to/lastmile_qr_scan"}, "bike_id": "41ccf2cf4fe899ef84ce5468ac81dd37"}, {"name": "20fedec216badc3aa2df1bee962ff92d", "type": "electric_scooter", "fusion_lon": 0.0, "lon": -77.01077133333334, "is_disabled": 0, "lat": 38.909604333333334, "fusion_lat": 0.0, "is_reserved": 0, "rental_uris": {"android": "https://dc.lft.to/lastmile_qr_scan", "ios": "https://dc.lft.to/lastmile_qr_scan"}, "bike_id": "20fedec216badc3aa2df1bee962ff92d"}, {"name": "bdbc149ae8139058badc14c221be35ae", "type": "electric_scooter", "fusion_lon": 0.0, "lon": -76.998396, "is_disabled": 0, "lat": 38.90494666666667, "fusion_lat": 0.0, "is_reserved": 0, "rental_uris": {"android": "https://dc.lft.to/lastmile_qr_scan", "ios": "https://dc.lft.to/lastmile_qr_scan"}, "bike_id": "bdbc149ae8139058badc14c221be35ae"}, {"name": "f03fc53fc13695a435594bacbf1fb052", "type": "electric_scooter", "fusion_lon": 0.0, "lon": -77.04165816666666, "is_disabled": 0, "lat": 38.90659866666667, "fusion_lat": 0.0, "is_reserved": 0, "rental_uris": {"android": "https://dc.lft.to/lastmile_qr_scan", "ios": "https://dc.lft.to/lastmile_qr_scan"}, "bike_id": "f03fc53fc13695a435594bacbf1fb052"}, {"name": "ce6633b29a5cce48c9f4da59bd6a7949", "type": "electric_bike", "fusion_lon": 0.0, "lon": -76.972562, "is_disabled": 0, "lat": 38.957463833333335, "fusion_lat": 0.0, "is_reserved": 0, "rental_uris": {"android": "https://dc.lft.to/lastmile_qr_scan", "ios": "https://dc.lft.to/lastmile_qr_scan"}, "bike_id": "ce6633b29a5cce48c9f4da59bd6a7949"}, {"name": "d867295fdb0b14507c4f83f9534ff899", "type": "electric_scooter", "fusion_lon": 0.0, "lon": -77.01985233333333, "is_disabled": 0, "lat": 38.88722533333333, "fusion_lat": 0.0, "is_reserved": 0, "rental_uris": {"android": "https://dc.lft.to/lastmile_qr_scan", "ios": "https://dc.lft.to/lastmile_qr_scan"}, "bike_id": "d867295fdb0b14507c4f83f9534ff899"}, {"name": "33cdc83bc2e66ab6ad5322f23bd7c390", "type": "electric_scooter", "fusion_lon": 0.0, "lon": -76.93021433333334, "is_disabled": 0, "lat": 38.901669, "fusion_lat": 0.0, "is_reserved": 0, "rental_uris": {"android": "https://dc.lft.to/lastmile_qr_scan", "ios": "https://dc.lft.to/lastmile_qr_scan"}, "bike_id": "33cdc83bc2e66ab6ad5322f23bd7c390"}, {"name": "252ba94ebb936fb0580846ec4e1c8396", "type": "electric_scooter", "fusion_lon": 0.0, "lon": -77.083072, "is_disabled": 0, "lat": 38.928461166666665, "fusion_lat": 0.0, "is_reserved": 0, "rental_uris": {"android": "https://dc.lft.to/lastmile_qr_scan", "ios": "https://dc.lft.to/lastmile_qr_scan"}, "bike_id": "252ba94ebb936fb0580846ec4e1c8396"}, {"name": "55c5a7a0a2f1eed5204c45382744a620", "type": "electric_scooter", "fusion_lon": 0.0, "lon": -77.072601, "is_disabled": 0, "lat": 38.907856833333334, "fusion_lat": 0.0, "is_reserved": 0, "rental_uris": {"android": "https://dc.lft.to/lastmile_qr_scan", "ios": "https://dc.lft.to/lastmile_qr_scan"}, "bike_id": "55c5a7a0a2f1eed5204c45382744a620"}, {"name": "8eb9763d2e9dd3a4885b94144d87a9c2", "type": "electric_scooter", "fusion_lon": 0.0, "lon": -77.026371, "is_disabled": 0, "lat": 38.894429, "fusion_lat": 0.0, "is_reserved": 0, "rental_uris": {"android": "https://dc.lft.to/lastmile_qr_scan", "ios": "https://dc.lft.to/lastmile_qr_scan"}, "bike_id": "8eb9763d2e9dd3a4885b94144d87a9c2"}, {"name": "cb88f120c587b5a8b553f82b755a8659", "type": "electric_scooter", "fusion_lon": 0.0, "lon": -77.0014235, "is_disabled": 0, "lat": 38.873081666666664, "fusion_lat": 0.0, "is_reserved": 0, "rental_uris": {"android": "https://dc.lft.to/lastmile_qr_scan", "ios": "https://dc.lft.to/lastmile_qr_scan"}, "bike_id": "cb88f120c587b5a8b553f82b755a8659"}, {"name": "425404e6f02ac9631a1e59e928a8c1d5", "type": "electric_scooter", "fusion_lon": 0.0, "lon": -77.03852966666666, "is_disabled": 0, "lat": 38.91776516666667, "fusion_lat": 0.0, "is_reserved": 0, "rental_uris": {"android": "https://dc.lft.to/lastmile_qr_scan", "ios": "https://dc.lft.to/lastmile_qr_scan"}, "bike_id": "425404e6f02ac9631a1e59e928a8c1d5"}, {"name": "55f548952c2bd32146668d15e49f3488", "type": "electric_scooter", "fusion_lon": 0.0, "lon": -77.03225733333333, "is_disabled": 0, "lat": 38.92588833333333, "fusion_lat": 0.0, "is_reserved": 0, "rental_uris": {"android": "https://dc.lft.to/lastmile_qr_scan", "ios": "https://dc.lft.to/lastmile_qr_scan"}, "bike_id": "55f548952c2bd32146668d15e49f3488"}, {"name": "a84d211184e1834edad53da7607d344b", "type": "electric_scooter", "fusion_lon": 0.0, "lon": -77.0247085, "is_disabled": 0, "lat": 38.931014833333336, "fusion_lat": 0.0, "is_reserved": 0, "rental_uris": {"android": "https://dc.lft.to/lastmile_qr_scan", "ios": "https://dc.lft.to/lastmile_qr_scan"}, "bike_id": "a84d211184e1834edad53da7607d344b"}, {"name": "292d0275e02865cb32425b898eb99b7b", "type": "electric_bike", "fusion_lon": 0.0, "lon": -76.95440266666667, "is_disabled": 0, "lat": 38.95327533333333, "fusion_lat": 0.0, "is_reserved": 0, "rental_uris": {"android": "https://dc.lft.to/lastmile_qr_scan", "ios": "https://dc.lft.to/lastmile_qr_scan"}, "bike_id": "292d0275e02865cb32425b898eb99b7b"}, {"name": "a588c33a871f7504c502fd8ff740535c", "type": "electric_scooter", "fusion_lon": 0.0, "lon": -77.01759383333334, "is_disabled": 0, "lat": 38.90256566666667, "fusion_lat": 0.0, "is_reserved": 0, "rental_uris": {"android": "https://dc.lft.to/lastmile_qr_scan", "ios": "https://dc.lft.to/lastmile_qr_scan"}, "bike_id": "a588c33a871f7504c502fd8ff740535c"}, {"name": "8e73521a70d73506dd3e53b4f7991027", "type": "electric_bike", "fusion_lon": 0.0, "lon": -76.95195633333333, "is_disabled": 0, "lat": 39.084372, "fusion_lat": 0.0, "is_reserved": 0, "rental_uris": {"android": "https://dc.lft.to/lastmile_qr_scan", "ios": "https://dc.lft.to/lastmile_qr_scan"}, "bike_id": "8e73521a70d73506dd3e53b4f7991027"}, {"name": "5f3bd70053e685532d999f5044cb0afe", "type": "electric_scooter", "fusion_lon": 0.0, "lon": -77.01702383333334, "is_disabled": 0, "lat": 38.9138565, "fusion_lat": 0.0, "is_reserved": 0, "rental_uris": {"android": "https://dc.lft.to/lastmile_qr_scan", "ios": "https://dc.lft.to/lastmile_qr_scan"}, "bike_id": "5f3bd70053e685532d999f5044cb0afe"}, {"name": "817d754ab47527bb33ab69f44cd286c3", "type": "electric_scooter", "fusion_lon": 0.0, "lon": -77.05510683333334, "is_disabled": 0, "lat": 38.9295025, "fusion_lat": 0.0, "is_reserved": 0, "rental_uris": {"android": "https://dc.lft.to/lastmile_qr_scan", "ios": "https://dc.lft.to/lastmile_qr_scan"}, "bike_id": "817d754ab47527bb33ab69f44cd286c3"}, {"name": "50704b5fb2368d95219a8b2dcd4d50b5", "type": "electric_bike", "fusion_lon": 0.0, "lon": -77.18742616666667, "is_disabled": 0, "lat": 38.89354383333333, "fusion_lat": 0.0, "is_reserved": 0, "rental_uris": {"android": "https://dc.lft.to/lastmile_qr_scan", "ios": "https://dc.lft.to/lastmile_qr_scan"}, "bike_id": "50704b5fb2368d95219a8b2dcd4d50b5"}, {"name": "025a840c682c2bc9af2aa0e2a2ab832c", "type": "electric_scooter", "fusion_lon": 0.0, "lon": -77.02987083333333, "is_disabled": 0, "lat": 38.9276445, "fusion_lat": 0.0, "is_reserved": 0, "rental_uris": {"android": "https://dc.lft.to/lastmile_qr_scan", "ios": "https://dc.lft.to/lastmile_qr_scan"}, "bike_id": "025a840c682c2bc9af2aa0e2a2ab832c"}, {"name": "e903313b72009001db40a4e1a5eaf7ba", "type": "electric_scooter", "fusion_lon": 0.0, "lon": -77.06300816666666, "is_disabled": 0, "lat": 38.94374, "fusion_lat": 0.0, "is_reserved": 0, "rental_uris": {"android": "https://dc.lft.to/lastmile_qr_scan", "ios": "https://dc.lft.to/lastmile_qr_scan"}, "bike_id": "e903313b72009001db40a4e1a5eaf7ba"}, {"name": "888ddf56440975efe11fe51fa8f5a4c2", "type": "electric_scooter", "fusion_lon": 0.0, "lon": -77.02392783333333, "is_disabled": 0, "lat": 38.91680316666667, "fusion_lat": 0.0, "is_reserved": 0, "rental_uris": {"android": "https://dc.lft.to/lastmile_qr_scan", "ios": "https://dc.lft.to/lastmile_qr_scan"}, "bike_id": "888ddf56440975efe11fe51fa8f5a4c2"}, {"name": "f9d8e9eee545ba37910ddeec6c11341b", "type": "electric_scooter", "fusion_lon": 0.0, "lon": -77.04246333333333, "is_disabled": 0, "lat": 38.92221633333333, "fusion_lat": 0.0, "is_reserved": 0, "rental_uris": {"android": "https://dc.lft.to/lastmile_qr_scan", "ios": "https://dc.lft.to/lastmile_qr_scan"}, "bike_id": "f9d8e9eee545ba37910ddeec6c11341b"}, {"name": "acf8868443783c1efcf0c4e874808d93", "type": "electric_scooter", "fusion_lon": 0.0, "lon": -77.04478783333333, "is_disabled": 0, "lat": 38.918693, "fusion_lat": 0.0, "is_reserved": 0, "rental_uris": {"android": "https://dc.lft.to/lastmile_qr_scan", "ios": "https://dc.lft.to/lastmile_qr_scan"}, "bike_id": "acf8868443783c1efcf0c4e874808d93"}, {"name": "861f2476b91cf750619a5e61e0de4ab6", "type": "electric_scooter", "fusion_lon": 0.0, "lon": -77.02847383333334, "is_disabled": 0, "lat": 38.956165166666665, "fusion_lat": 0.0, "is_reserved": 0, "rental_uris": {"android": "https://dc.lft.to/lastmile_qr_scan", "ios": "https://dc.lft.to/lastmile_qr_scan"}, "bike_id": "861f2476b91cf750619a5e61e0de4ab6"}, {"name": "2c140ea639996a60b80a6a9189df3c7a", "type": "electric_scooter", "fusion_lon": 0.0, "lon": -77.023165, "is_disabled": 0, "lat": 38.92518033333333, "fusion_lat": 0.0, "is_reserved": 0, "rental_uris": {"android": "https://dc.lft.to/lastmile_qr_scan", "ios": "https://dc.lft.to/lastmile_qr_scan"}, "bike_id": "2c140ea639996a60b80a6a9189df3c7a"}, {"name": "02f3f6bb27876199c548fe220c33fda2", "type": "electric_scooter", "fusion_lon": 0.0, "lon": -77.042982, "is_disabled": 0, "lat": 38.926514, "fusion_lat": 0.0, "is_reserved": 0, "rental_uris": {"android": "https://dc.lft.to/lastmile_qr_scan", "ios": "https://dc.lft.to/lastmile_qr_scan"}, "bike_id": "02f3f6bb27876199c548fe220c33fda2"}, {"name": "c6b42f84e025bd4101e28f0fae82c2f5", "type": "electric_scooter", "fusion_lon": 0.0, "lon": -77.03861733333333, "is_disabled": 0, "lat": 38.91176633333333, "fusion_lat": 0.0, "is_reserved": 0, "rental_uris": {"android": "https://dc.lft.to/lastmile_qr_scan", "ios": "https://dc.lft.to/lastmile_qr_scan"}, "bike_id": "c6b42f84e025bd4101e28f0fae82c2f5"}, {"name": "850cfad2f926945ac54bb17049eeb851", "type": "electric_scooter", "fusion_lon": 0.0, "lon": -76.99781666666667, "is_disabled": 0, "lat": 38.84439483333333, "fusion_lat": 0.0, "is_reserved": 0, "rental_uris": {"android": "https://dc.lft.to/lastmile_qr_scan", "ios": "https://dc.lft.to/lastmile_qr_scan"}, "bike_id": "850cfad2f926945ac54bb17049eeb851"}, {"name": "85d1d962907fcb927af3ce2bebca6fd2", "type": "electric_scooter", "fusion_lon": 0.0, "lon": -77.03638666666667, "is_disabled": 0, "lat": 38.936452833333334, "fusion_lat": 0.0, "is_reserved": 0, "rental_uris": {"android": "https://dc.lft.to/lastmile_qr_scan", "ios": "https://dc.lft.to/lastmile_qr_scan"}, "bike_id": "85d1d962907fcb927af3ce2bebca6fd2"}, {"name": "88832004521ba85f9439600d1295c010", "type": "electric_scooter", "fusion_lon": 0.0, "lon": -77.07365616666667, "is_disabled": 0, "lat": 38.935697166666664, "fusion_lat": 0.0, "is_reserved": 0, "rental_uris": {"android": "https://dc.lft.to/lastmile_qr_scan", "ios": "https://dc.lft.to/lastmile_qr_scan"}, "bike_id": "88832004521ba85f9439600d1295c010"}, {"name": "890b09587afa9453bd828fb5231c458b", "type": "electric_scooter", "fusion_lon": 0.0, "lon": -77.0418775, "is_disabled": 0, "lat": 38.89255966666666, "fusion_lat": 0.0, "is_reserved": 0, "rental_uris": {"android": "https://dc.lft.to/lastmile_qr_scan", "ios": "https://dc.lft.to/lastmile_qr_scan"}, "bike_id": "890b09587afa9453bd828fb5231c458b"}, {"name": "0ed5038b99dba396b5b6c1fc397178f7", "type": "electric_scooter", "fusion_lon": 0.0, "lon": -77.00375633333333, "is_disabled": 0, "lat": 38.876392, "fusion_lat": 0.0, "is_reserved": 0, "rental_uris": {"android": "https://dc.lft.to/lastmile_qr_scan", "ios": "https://dc.lft.to/lastmile_qr_scan"}, "bike_id": "0ed5038b99dba396b5b6c1fc397178f7"}, {"name": "c88e9ab0fa5bdc7e499eac82c00a58a2", "type": "electric_scooter", "fusion_lon": 0.0, "lon": -77.09708383333333, "is_disabled": 0, "lat": 38.951033, "fusion_lat": 0.0, "is_reserved": 0, "rental_uris": {"android": "https://dc.lft.to/lastmile_qr_scan", "ios": "https://dc.lft.to/lastmile_qr_scan"}, "bike_id": "c88e9ab0fa5bdc7e499eac82c00a58a2"}, {"name": "3f9cb5b3b863e7f599d5d526377cc86f", "type": "electric_scooter", "fusion_lon": 0.0, "lon": -77.03255733333333, "is_disabled": 0, "lat": 38.931356666666666, "fusion_lat": 0.0, "is_reserved": 0, "rental_uris": {"android": "https://dc.lft.to/lastmile_qr_scan", "ios": "https://dc.lft.to/lastmile_qr_scan"}, "bike_id": "3f9cb5b3b863e7f599d5d526377cc86f"}, {"name": "9dde9680cf66b0e25f82226050b30309", "type": "electric_scooter", "fusion_lon": 0.0, "lon": -76.96713066666666, "is_disabled": 0, "lat": 38.86034266666667, "fusion_lat": 0.0, "is_reserved": 0, "rental_uris": {"android": "https://dc.lft.to/lastmile_qr_scan", "ios": "https://dc.lft.to/lastmile_qr_scan"}, "bike_id": "9dde9680cf66b0e25f82226050b30309"}, {"name": "ed5579516da674862bcadb75895dea75", "type": "electric_scooter", "fusion_lon": 0.0, "lon": -77.02704966666667, "is_disabled": 0, "lat": 38.907774, "fusion_lat": 0.0, "is_reserved": 0, "rental_uris": {"android": "https://dc.lft.to/lastmile_qr_scan", "ios": "https://dc.lft.to/lastmile_qr_scan"}, "bike_id": "ed5579516da674862bcadb75895dea75"}, {"name": "d65358ce978c3218fa696d203ca3f37a", "type": "electric_scooter", "fusion_lon": 0.0, "lon": -77.07167833333334, "is_disabled": 0, "lat": 38.907793, "fusion_lat": 0.0, "is_reserved": 0, "rental_uris": {"android": "https://dc.lft.to/lastmile_qr_scan", "ios": "https://dc.lft.to/lastmile_qr_scan"}, "bike_id": "d65358ce978c3218fa696d203ca3f37a"}, {"name": "51e662a4f5e36de76ce0b69eed017141", "type": "electric_scooter", "fusion_lon": 0.0, "lon": -77.00710983333333, "is_disabled": 0, "lat": 38.884903, "fusion_lat": 0.0, "is_reserved": 0, "rental_uris": {"android": "https://dc.lft.to/lastmile_qr_scan", "ios": "https://dc.lft.to/lastmile_qr_scan"}, "bike_id": "51e662a4f5e36de76ce0b69eed017141"}, {"name": "01a2ac97fd20f94a2ef506005fd0b250", "type": "electric_bike", "fusion_lon": 0.0, "lon": -76.98207916666667, "is_disabled": 0, "lat": 38.985087, "fusion_lat": 0.0, "is_reserved": 0, "rental_uris": {"android": "https://dc.lft.to/lastmile_qr_scan", "ios": "https://dc.lft.to/lastmile_qr_scan"}, "bike_id": "01a2ac97fd20f94a2ef506005fd0b250"}, {"name": "3f4b45edf2a9094e9085c6e8670f359f", "type": "electric_scooter", "fusion_lon": 0.0, "lon": -77.02368766666666, "is_disabled": 0, "lat": 38.90686766666666, "fusion_lat": 0.0, "is_reserved": 0, "rental_uris": {"android": "https://dc.lft.to/lastmile_qr_scan", "ios": "https://dc.lft.to/lastmile_qr_scan"}, "bike_id": "3f4b45edf2a9094e9085c6e8670f359f"}, {"name": "8cea57cf6f302e3e99098081709fa142", "type": "electric_scooter", "fusion_lon": 0.0, "lon": -77.00447866666667, "is_disabled": 0, "lat": 38.877032166666666, "fusion_lat": 0.0, "is_reserved": 0, "rental_uris": {"android": "https://dc.lft.to/lastmile_qr_scan", "ios": "https://dc.lft.to/lastmile_qr_scan"}, "bike_id": "8cea57cf6f302e3e99098081709fa142"}, {"name": "000b581bcb772be72defd86716b6b79a", "type": "electric_scooter", "fusion_lon": 0.0, "lon": -77.01751033333333, "is_disabled": 0, "lat": 38.9012615, "fusion_lat": 0.0, "is_reserved": 0, "rental_uris": {"android": "https://dc.lft.to/lastmile_qr_scan", "ios": "https://dc.lft.to/lastmile_qr_scan"}, "bike_id": "000b581bcb772be72defd86716b6b79a"}, {"name": "ec5b12323fc03a424edb9fa78829b14e", "type": "electric_scooter", "fusion_lon": 0.0, "lon": -77.03188366666667, "is_disabled": 0, "lat": 38.903681, "fusion_lat": 0.0, "is_reserved": 0, "rental_uris": {"android": "https://dc.lft.to/lastmile_qr_scan", "ios": "https://dc.lft.to/lastmile_qr_scan"},