{"data": {"bikes": [{"name": "3c861b5d83352a52c036834ecd76b607", "type": "electric_bike", "lat": 38.99228016666667, "is_reserved": 0, "lon": -76.87815983333333, "fusion_lon": 0.0, "is_disabled": 0, "fusion_lat": 0.0, "bike_id": "3c861b5d83352a52c036834ecd76b607", "rental_uris": {"ios": "https://dc.lft.to/lastmile_qr_scan", "android": "https://dc.lft.to/lastmile_qr_scan"}}, {"name": "ac2549501fa8c926f37eab8ed81b7ff4", "type": "electric_scooter", "lat": 38.84290633333333, "is_reserved": 0, "lon": -76.99945333333334, "fusion_lon": 0.0, "is_disabled": 0, "fusion_lat": 0.0, "bike_id": "ac2549501fa8c926f37eab8ed81b7ff4", "rental_uris": {"ios": "https://dc.lft.to/lastmile_qr_scan", "android": "https://dc.lft.to/lastmile_qr_scan"}}, {"name": "26f897ea9b44082e0d9feac8546be9a5", "type": "electric_bike", "lat": 38.96902766666667, "is_reserved": 0, "lon": -76.9566005, "fusion_lon": 0.0, "is_disabled": 0, "fusion_lat": 0.0, "bike_id": "26f897ea9b44082e0d9feac8546be9a5", "rental_uris": {"ios": "https://dc.lft.to/lastmile_qr_scan", "android": "https://dc.lft.to/lastmile_qr_scan"}}, {"name": "9922ca1511e1191d407c751c7a123227", "type": "electric_bike", "lat": 38.92211016666667, "is_reserved": 0, "lon": -76.98835916666667, "fusion_lon": 0.0, "is_disabled": 0, "fusion_lat": 0.0, "bike_id": "9922ca1511e1191d407c751c7a123227", "rental_uris": {"ios": "https://dc.lft.to/lastmile_qr_scan", "android": "https://dc.lft.to/lastmile_qr_scan"}}, {"name": "03de3bb776c586277c10852fc7b4a555", "type": "electric_scooter", "lat": 38.915986333333336, "is_reserved": 0, "lon": -77.03186083333334, "fusion_lon": 0.0, "is_disabled": 0, "fusion_lat": 0.0, "bike_id": "03de3bb776c586277c10852fc7b4a555", "rental_uris": {"ios": "https://dc.lft.to/lastmile_qr_scan", "android": "https://dc.lft.to/lastmile_qr_scan"}}, {"name": "162687eb2b8bd0f81a50f5ef584304b1", "type": "electric_scooter", "lat": 38.90026016666667, "is_reserved": 0, "lon": -77.0258945, "fusion_lon": 0.0, "is_disabled": 0, "fusion_lat": 0.0, "bike_id": "162687eb2b8bd0f81a50f5ef584304b1", "rental_uris": {"ios": "https://dc.lft.to/lastmile_qr_scan", "android": "https://dc.lft.to/lastmile_qr_scan"}}, {"name": "47a8565836f1ef1bba1e4fbc8ac003af", "type": "electric_scooter", "lat": 38.902797, "is_reserved": 0, "lon": -77.06110216666667, "fusion_lon": 0.0, "is_disabled": 0, "fusion_lat": 0.0, "bike_id": "47a8565836f1ef1bba1e4fbc8ac003af", "rental_uris": {"ios": "https://dc.lft.to/lastmile_qr_scan", "android": "https://dc.lft.to/lastmile_qr_scan"}}, {"name": "c0090d7f7168386deeecd712384d3d11", "type": "electric_scooter", "lat": 38.90120916666667, "is_reserved": 0, "lon": -77.011948, "fusion_lon": 0.0, "is_disabled": 0, "fusion_lat": 0.0, "bike_id": "c0090d7f7168386deeecd712384d3d11", "rental_uris": {"ios": "https://dc.lft.to/lastmile_qr_scan", "android": "https://dc.lft.to/lastmile_qr_scan"}}, {"name": "ec3efa89105ad6a5d223035edbf1a7ba", "type": "electric_scooter", "lat": 38.939677833333334, "is_reserved": 0, "lon": -77.032539, "fusion_lon": 0.0, "is_disabled": 0, "fusion_lat": 0.0, "bike_id": "ec3efa89105ad6a5d223035edbf1a7ba", "rental_uris": {"ios": "https://dc.lft.to/lastmile_qr_scan", "android": "https://dc.lft.to/lastmile_qr_scan"}}, {"name": "479d4e5f20f3b6f600ba3513dfeccf33", "type": "electric_bike", "lat": 38.990565333333336, "is_reserved": 0, "lon": -77.1002265, "fusion_lon": 0.0, "is_disabled": 0, "fusion_lat": 0.0, "bike_id": "479d4e5f20f3b6f600ba3513dfeccf33", "rental_uris": {"ios": "https://dc.lft.to/lastmile_qr_scan", "android": "https://dc.lft.to/lastmile_qr_scan"}}, {"name": "45df64528407c3198e6897345b5b4580", "type": "electric_scooter", "lat": 38.853146833333334, "is_reserved": 0, "lon": -76.98011466666667, "fusion_lon": 0.0, "is_disabled": 0, "fusion_lat": 0.0, "bike_id": "45df64528407c3198e6897345b5b4580", "rental_uris": {"ios": "https://dc.lft.to/lastmile_qr_scan", "android": "https://dc.lft.to/lastmile_qr_scan"}}, {"name": "5abfe20ecf75a93e5ee9ac2331063429", "type": "electric_scooter", "lat": 38.88110266666666, "is_reserved": 0, "lon": -76.999437, "fusion_lon": 0.0, "is_disabled": 0, "fusion_lat": 0.0, "bike_id": "5abfe20ecf75a93e5ee9ac2331063429", "rental_uris": {"ios": "https://dc.lft.to/lastmile_qr_scan", "android": "https://dc.lft.to/lastmile_qr_scan"}}, {"name": "5062e2231b809c9744e6ab4b4f790bba", "type": "electric_scooter", "lat": 38.939462666666664, "is_reserved": 0, "lon": -77.03259783333333, "fusion_lon": 0.0, "is_disabled": 0, "fusion_lat": 0.0, "bike_id": "5062e2231b809c9744e6ab4b4f790bba", "rental_uris": {"ios": "https://dc.lft.to/lastmile_qr_scan", "android": "https://dc.lft.to/lastmile_qr_scan"}}, {"name": "c78d1e3aafad8b02e60abfac9a096b93", "type": "electric_scooter", "lat": 38.923300166666664, "is_reserved": 0, "lon": -77.03529016666667, "fusion_lon": 0.0, "is_disabled": 0, "fusion_lat": 0.0, "bike_id": "c78d1e3aafad8b02e60abfac9a096b93", "rental_uris": {"ios": "https://dc.lft.to/lastmile_qr_scan", "android": "https://dc.lft.to/lastmile_qr_scan"}}, {"name": "01043fd0b987b09e55fd926dd4c1feb4", "type": "electric_scooter", "lat": 38.883291666666665, "is_reserved": 0, "lon": -77.0176565, "fusion_lon": 0.0, "is_disabled": 0, "fusion_lat": 0.0, "bike_id": "01043fd0b987b09e55fd926dd4c1feb4", "rental_uris": {"ios": "https://dc.lft.to/lastmile_qr_scan", "android": "https://dc.lft.to/lastmile_qr_scan"}}, {"name": "5f81ee8a14b6461c4c06cf87eda1c5ee", "type": "electric_scooter", "lat": 38.909578, "is_reserved": 0, "lon": -77.04858166666666, "fusion_lon": 0.0, "is_disabled": 0, "fusion_lat": 0.0, "bike_id": "5f81ee8a14b6461c4c06cf87eda1c5ee", "rental_uris": {"ios": "https://dc.lft.to/lastmile_qr_scan", "android": "https://dc.lft.to/lastmile_qr_scan"}}, {"name": "38df08d0ad737500ea25a7b51ff28f4b", "type": "electric_scooter", "lat": 38.9294495, "is_reserved": 0, "lon": -77.03463666666667, "fusion_lon": 0.0, "is_disabled": 0, "fusion_lat": 0.0, "bike_id": "38df08d0ad737500ea25a7b51ff28f4b", "rental_uris": {"ios": "https://dc.lft.to/lastmile_qr_scan", "android": "https://dc.lft.to/lastmile_qr_scan"}}, {"name": "ebae240ebc8a3fb82abf96b2336f8514", "type": "electric_scooter", "lat": 38.94759033333333, "is_reserved": 0, "lon": -77.0654025, "fusion_lon": 0.0, "is_disabled": 0, "fusion_lat": 0.0, "bike_id": "ebae240ebc8a3fb82abf96b2336f8514", "rental_uris": {"ios": "https://dc.lft.to/lastmile_qr_scan", "android": "https://dc.lft.to/lastmile_qr_scan"}}, {"name": "68aab3c3e0e45cd6b3198ea6ef91f268", "type": "electric_scooter", "lat": 38.940733333333334, "is_reserved": 0, "lon": -77.02701416666666, "fusion_lon": 0.0, "is_disabled": 0, "fusion_lat": 0.0, "bike_id": "68aab3c3e0e45cd6b3198ea6ef91f268", "rental_uris": {"ios": "https://dc.lft.to/lastmile_qr_scan", "android": "https://dc.lft.to/lastmile_qr_scan"}}, {"name": "7bb156ea2a74b144c1a085800474ace0", "type": "electric_scooter", "lat": 38.89554116666667, "is_reserved": 0, "lon": -77.04160266666666, "fusion_lon": 0.0, "is_disabled": 0, "fusion_lat": 0.0, "bike_id": "7bb156ea2a74b144c1a085800474ace0", "rental_uris": {"ios": "https://dc.lft.to/lastmile_qr_scan", "android": "https://dc.lft.to/lastmile_qr_scan"}}, {"name": "bc09d3060ebca88b18043309079bae71", "type": "electric_scooter", "lat": 38.9071435, "is_reserved": 0, "lon": -77.03060416666666, "fusion_lon": 0.0, "is_disabled": 0, "fusion_lat": 0.0, "bike_id": "bc09d3060ebca88b18043309079bae71", "rental_uris": {"ios": "https://dc.lft.to/lastmile_qr_scan", "android": "https://dc.lft.to/lastmile_qr_scan"}}, {"name": "2ba2fd4a8162d5b477a3fa55d8afdbcf", "type": "electric_scooter", "lat": 38.913067, "is_reserved": 0, "lon": -77.04469733333333, "fusion_lon": 0.0, "is_disabled": 0, "fusion_lat": 0.0, "bike_id": "2ba2fd4a8162d5b477a3fa55d8afdbcf", "rental_uris": {"ios": "https://dc.lft.to/lastmile_qr_scan", "android": "https://dc.lft.to/lastmile_qr_scan"}}, {"name": "b01dd4010495c521f17643460f8520c7", "type": "electric_scooter", "lat": 38.934319, "is_reserved": 0, "lon": -77.0724205, "fusion_lon": 0.0, "is_disabled": 0, "fusion_lat": 0.0, "bike_id": "b01dd4010495c521f17643460f8520c7", "rental_uris": {"ios": "https://dc.lft.to/lastmile_qr_scan", "android": "https://dc.lft.to/lastmile_qr_scan"}}, {"name": "941c8da45022e45e3ad1b109490fa92e", "type": "electric_scooter", "lat": 38.9012045, "is_reserved": 0, "lon": -77.04976633333334, "fusion_lon": 0.0, "is_disabled": 0, "fusion_lat": 0.0, "bike_id": "941c8da45022e45e3ad1b109490fa92e", "rental_uris": {"ios": "https://dc.lft.to/lastmile_qr_scan", "android": "https://dc.lft.to/lastmile_qr_scan"}}, {"name": "fe7c7f2d6cdb8d598160bd00483cad5c", "type": "electric_scooter", "lat": 38.91682616666667, "is_reserved": 0, "lon": -77.01199733333333, "fusion_lon": 0.0, "is_disabled": 0, "fusion_lat": 0.0, "bike_id": "fe7c7f2d6cdb8d598160bd00483cad5c", "rental_uris": {"ios": "https://dc.lft.to/lastmile_qr_scan", "android": "https://dc.lft.to/lastmile_qr_scan"}}, {"name": "d013a2ad0d9ef5999aef52c4c5ef3ba6", "type": "electric_bike", "lat": 38.89604416666667, "is_reserved": 0, "lon": -77.0496425, "fusion_lon": 0.0, "is_disabled": 0, "fusion_lat": 0.0, "bike_id": "d013a2ad0d9ef5999aef52c4c5ef3ba6", "rental_uris": {"ios": "https://dc.lft.to/lastmile_qr_scan", "android": "https://dc.lft.to/lastmile_qr_scan"}}, {"name": "35a868a81679838952b36b252767557a", "type": "electric_scooter", "lat": 38.896765, "is_reserved": 0, "lon": -76.99613583333333, "fusion_lon": 0.0, "is_disabled": 0, "fusion_lat": 0.0, "bike_id": "35a868a81679838952b36b252767557a", "rental_uris": {"ios": "https://dc.lft.to/lastmile_qr_scan", "android": "https://dc.lft.to/lastmile_qr_scan"}}, {"name": "52224443b748f34c62226b0b32e5ae08", "type": "electric_scooter", "lat": 38.897254, "is_reserved": 0, "lon": -77.05561316666666, "fusion_lon": 0.0, "is_disabled": 0, "fusion_lat": 0.0, "bike_id": "52224443b748f34c62226b0b32e5ae08", "rental_uris": {"ios": "https://dc.lft.to/lastmile_qr_scan", "android": "https://dc.lft.to/lastmile_qr_scan"}}, {"name": "fd5bcf072219c21cce276d221f32818e", "type": "electric_scooter", "lat": 38.892269166666665, "is_reserved": 0, "lon": -77.03216066666667, "fusion_lon": 0.0, "is_disabled": 0, "fusion_lat": 0.0, "bike_id": "fd5bcf072219c21cce276d221f32818e", "rental_uris": {"ios": "https://dc.lft.to/lastmile_qr_scan", "android": "https://dc.lft.to/lastmile_qr_scan"}}, {"name": "ccf44f786ff66ab7ace3b363082128f4", "type": "electric_scooter", "lat": 38.9007645, "is_reserved": 0, "lon": -76.938576, "fusion_lon": 0.0, "is_disabled": 0, "fusion_lat": 0.0, "bike_id": "ccf44f786ff66ab7ace3b363082128f4", "rental_uris": {"ios": "https://dc.lft.to/lastmile_qr_scan", "android": "https://dc.lft.to/lastmile_qr_scan"}}, {"name": "8abb903cf08254dcb71e232bfc89f360", "type": "electric_bike", "lat": 38.966211, "is_reserved": 0, "lon": -76.97666383333333, "fusion_lon": 0.0, "is_disabled": 0, "fusion_lat": 0.0, "bike_id": "8abb903cf08254dcb71e232bfc89f360", "rental_uris": {"ios": "https://dc.lft.to/lastmile_qr_scan", "android": "https://dc.lft.to/lastmile_qr_scan"}}, {"name": "2d0ab8b30f6dd9ce6aac5e0b1f04a41f", "type": "electric_scooter", "lat": 38.933726666666665, "is_reserved": 0, "lon": -77.02961533333334, "fusion_lon": 0.0, "is_disabled": 0, "fusion_lat": 0.0, "bike_id": "2d0ab8b30f6dd9ce6aac5e0b1f04a41f", "rental_uris": {"ios": "https://dc.lft.to/lastmile_qr_scan", "android": "https://dc.lft.to/lastmile_qr_scan"}}, {"name": "6c553e945c829b9c10a66f1ecf5de8ad", "type": "electric_scooter", "lat": 38.899520833333334, "is_reserved": 0, "lon": -77.0317345, "fusion_lon": 0.0, "is_disabled": 0, "fusion_lat": 0.0, "bike_id": "6c553e945c829b9c10a66f1ecf5de8ad", "rental_uris": {"ios": "https://dc.lft.to/lastmile_qr_scan", "android": "https://dc.lft.to/lastmile_qr_scan"}}, {"name": "6ae95e6b9a079af589bafd87a9949d4c", "type": "electric_scooter", "lat": 38.939836166666666, "is_reserved": 0, "lon": -77.02892633333333, "fusion_lon": 0.0, "is_disabled": 0, "fusion_lat": 0.0, "bike_id": "6ae95e6b9a079af589bafd87a9949d4c", "rental_uris": {"ios": "https://dc.lft.to/lastmile_qr_scan", "android": "https://dc.lft.to/lastmile_qr_scan"}}, {"name": "02ccbfcd5572350ada6492584eedc1fd", "type": "electric_scooter", "lat": 38.920522166666665, "is_reserved": 0, "lon": -77.0334545, "fusion_lon": 0.0, "is_disabled": 0, "fusion_lat": 0.0, "bike_id": "02ccbfcd5572350ada6492584eedc1fd", "rental_uris": {"ios": "https://dc.lft.to/lastmile_qr_scan", "android": "https://dc.lft.to/lastmile_qr_scan"}}, {"name": "b95a342eb8b5c38e617eb935838b6217", "type": "electric_scooter", "lat": 38.8669675, "is_reserved": 0, "lon": -76.98708533333334, "fusion_lon": 0.0, "is_disabled": 0, "fusion_lat": 0.0, "bike_id": "b95a342eb8b5c38e617eb935838b6217", "rental_uris": {"ios": "https://dc.lft.to/lastmile_qr_scan", "android": "https://dc.lft.to/lastmile_qr_scan"}}, {"name": "9fa3c0e45b3cff08d35ed7ebe1289f66", "type": "electric_scooter", "lat": 38.920539, "is_reserved": 0, "lon": -77.03474833333334, "fusion_lon": 0.0, "is_disabled": 0, "fusion_lat": 0.0, "bike_id": "9fa3c0e45b3cff08d35ed7ebe1289f66", "rental_uris": {"ios": "https://dc.lft.to/lastmile_qr_scan", "android": "https://dc.lft.to/lastmile_qr_scan"}}, {"name": "0365e4bf8070025b81c80adcfc18c0c5", "type": "electric_bike", "lat": 38.9993885, "is_reserved": 0, "lon": -77.0176665, "fusion_lon": 0.0, "is_disabled": 0, "fusion_lat": 0.0, "bike_id": "0365e4bf8070025b81c80adcfc18c0c5", "rental_uris": {"ios": "https://dc.lft.to/lastmile_qr_scan", "android": "https://dc.lft.to/lastmile_qr_scan"}}, {"name": "6a6b1b00f8ae60da1005ebfdf96a9218", "type": "electric_scooter", "lat": 38.928419833333336, "is_reserved": 0, "lon": -77.03251966666667, "fusion_lon": 0.0, "is_disabled": 0, "fusion_lat": 0.0, "bike_id": "6a6b1b00f8ae60da1005ebfdf96a9218", "rental_uris": {"ios": "https://dc.lft.to/lastmile_qr_scan", "android": "https://dc.lft.to/lastmile_qr_scan"}}, {"name": "779d7bc4e9bf791593f75282fb18d523", "type": "electric_scooter", "lat": 38.917190166666664, "is_reserved": 0, "lon": -77.0365485, "fusion_lon": 0.0, "is_disabled": 0, "fusion_lat": 0.0, "bike_id": "779d7bc4e9bf791593f75282fb18d523", "rental_uris": {"ios": "https://dc.lft.to/lastmile_qr_scan", "android": "https://dc.lft.to/lastmile_qr_scan"}}, {"name": "9df65f44a08aab72237eea224db02e6f", "type": "electric_bike", "lat": 38.858449666666665, "is_reserved": 0, "lon": -77.09745616666666, "fusion_lon": 0.0, "is_disabled": 0, "fusion_lat": 0.0, "bike_id": "9df65f44a08aab72237eea224db02e6f", "rental_uris": {"ios": "https://dc.lft.to/lastmile_qr_scan", "android": "https://dc.lft.to/lastmile_qr_scan"}}, {"name": "53f8a283510c27ca74f722d152e7d4fc", "type": "electric_scooter", "lat": 38.922897166666665, "is_reserved": 0, "lon": -77.02075333333333, "fusion_lon": 0.0, "is_disabled": 0, "fusion_lat": 0.0, "bike_id": "53f8a283510c27ca74f722d152e7d4fc", "rental_uris": {"ios": "https://dc.lft.to/lastmile_qr_scan", "android": "https://dc.lft.to/lastmile_qr_scan"}}, {"name": "234215fc1d423a852d0db56691f5baf1", "type": "electric_scooter", "lat": 38.9133045, "is_reserved": 0, "lon": -77.03036783333333, "fusion_lon": 0.0, "is_disabled": 0, "fusion_lat": 0.0, "bike_id": "234215fc1d423a852d0db56691f5baf1", "rental_uris": {"ios": "https://dc.lft.to/lastmile_qr_scan", "android": "https://dc.lft.to/lastmile_qr_scan"}}, {"name": "748a5498eadc1595fe44654de4e14b34", "type": "electric_scooter", "lat": 38.94151083333333, "is_reserved": 0, "lon": -77.0365015, "fusion_lon": 0.0, "is_disabled": 0, "fusion_lat": 0.0, "bike_id": "748a5498eadc1595fe44654de4e14b34", "rental_uris": {"ios": "https://dc.lft.to/lastmile_qr_scan", "android": "https://dc.lft.to/lastmile_qr_scan"}}, {"name": "69b27f632ed844d70be8b8f7bc66887c", "type": "electric_scooter", "lat": 38.898960333333335, "is_reserved": 0, "lon": -77.007154, "fusion_lon": 0.0, "is_disabled": 0, "fusion_lat": 0.0, "bike_id": "69b27f632ed844d70be8b8f7bc66887c", "rental_uris": {"ios": "https://dc.lft.to/lastmile_qr_scan", "android": "https://dc.lft.to/lastmile_qr_scan"}}, {"name": "3ac8f914ba006c20cb6322d5047bd40e", "type": "electric_scooter", "lat": 38.8982815, "is_reserved": 0, "lon": -76.9264175, "fusion_lon": 0.0, "is_disabled": 0, "fusion_lat": 0.0, "bike_id": "3ac8f914ba006c20cb6322d5047bd40e", "rental_uris": {"ios": "https://dc.lft.to/lastmile_qr_scan", "android": "https://dc.lft.to/lastmile_qr_scan"}}, {"name": "23a47af8541b65b3b8517a775120bc05", "type": "electric_scooter", "lat": 38.896735166666666, "is_reserved": 0, "lon": -77.053976, "fusion_lon": 0.0, "is_disabled": 0, "fusion_lat": 0.0, "bike_id": "23a47af8541b65b3b8517a775120bc05", "rental_uris": {"ios": "https://dc.lft.to/lastmile_qr_scan", "android": "https://dc.lft.to/lastmile_qr_scan"}}, {"name": "90a746e8613a90b00097756542b462c1", "type": "electric_bike", "lat": 38.9053165, "is_reserved": 0, "lon": -76.99806733333334, "fusion_lon": 0.0, "is_disabled": 0, "fusion_lat": 0.0, "bike_id": "90a746e8613a90b00097756542b462c1", "rental_uris": {"ios": "https://dc.lft.to/lastmile_qr_scan", "android": "https://dc.lft.to/lastmile_qr_scan"}}, {"name": "68963f05ea960309dd32d68218e6796c", "type": "electric_scooter", "lat": 38.9228515, "is_reserved": 0, "lon": -77.03192716666666, "fusion_lon": 0.0, "is_disabled": 0, "fusion_lat": 0.0, "bike_id": "68963f05ea960309dd32d68218e6796c", "rental_uris": {"ios": "https://dc.lft.to/lastmile_qr_scan", "android": "https://dc.lft.to/lastmile_qr_scan"}}, {"name": "361f7dcd45239e73910ada422d1751d4", "type": "electric_scooter", "lat": 38.866966166666664, "is_reserved": 0, "lon": -76.98712466666667, "fusion_lon": 0.0, "is_disabled": 0, "fusion_lat": 0.0, "bike_id": "361f7dcd45239e73910ada422d1751d4", "rental_uris": {"ios": "https://dc.lft.to/lastmile_qr_scan", "android": "https://dc.lft.to/lastmile_qr_scan"}}, {"name": "3e8d0a56fed6c641d3b73bd79014cfd5", "type": "electric_scooter", "lat": 38.906640333333335, "is_reserved": 0, "lon": -77.03820733333333, "fusion_lon": 0.0, "is_disabled": 0, "fusion_lat": 0.0, "bike_id": "3e8d0a56fed6c641d3b73bd79014cfd5", "rental_uris": {"ios": "https://dc.lft.to/lastmile_qr_scan", "android": "https://dc.lft.to/lastmile_qr_scan"}}, {"name": "54330b1dffcfd913d329022b415284b5", "type": "electric_bike", "lat": 38.990903, "is_reserved": 0, "lon": -76.87495866666667, "fusion_lon": 0.0, "is_disabled": 0, "fusion_lat": 0.0, "bike_id": "54330b1dffcfd913d329022b415284b5", "rental_uris": {"ios": "https://dc.lft.to/lastmile_qr_scan", "android": "https://dc.lft.to/lastmile_qr_scan"}}, {"name": "06e04a1167a6870c533d6a94bbbac278", "type": "electric_scooter", "lat": 38.929463166666665, "is_reserved": 0, "lon": -77.05505416666666, "fusion_lon": 0.0, "is_disabled": 0, "fusion_lat": 0.0, "bike_id": "06e04a1167a6870c533d6a94bbbac278", "rental_uris": {"ios": "https://dc.lft.to/lastmile_qr_scan", "android": "https://dc.lft.to/lastmile_qr_scan"}}, {"name": "31eda1f133dd3feaf71d9853eeae76d7", "type": "electric_bike", "lat": 38.867486, "is_reserved": 0, "lon": -76.94527766666667, "fusion_lon": 0.0, "is_disabled": 0, "fusion_lat": 0.0, "bike_id": "31eda1f133dd3feaf71d9853eeae76d7", "rental_uris": {"ios": "https://dc.lft.to/lastmile_qr_scan", "android": "https://dc.lft.to/lastmile_qr_scan"}}, {"name": "2ccf2117960942242158276af38709f0", "type": "electric_bike", "lat": 38.84079233333333, "is_reserved": 0, "lon": -77.0641335, "fusion_lon": 0.0, "is_disabled": 0, "fusion_lat": 0.0, "bike_id": "2ccf2117960942242158276af38709f0", "rental_uris": {"ios": "https://dc.lft.to/lastmile_qr_scan", "android": "https://dc.lft.to/lastmile_qr_scan"}}, {"name": "8645cb71f4f504d8961c70f3bf683597", "type": "electric_scooter", "lat": 38.89752766666667, "is_reserved": 0, "lon": -77.01049866666666, "fusion_lon": 0.0, "is_disabled": 0, "fusion_lat": 0.0, "bike_id": "8645cb71f4f504d8961c70f3bf683597", "rental_uris": {"ios": "https://dc.lft.to/lastmile_qr_scan", "android": "https://dc.lft.to/lastmile_qr_scan"}}, {"name": "fe5e34d902a0fe1ed07a5e55fc38bf73", "type": "electric_bike", "lat": 38.8752755, "is_reserved": 0, "lon": -77.19907416666666, "fusion_lon": 0.0, "is_disabled": 0, "fusion_lat": 0.0, "bike_id": "fe5e34d902a0fe1ed07a5e55fc38bf73", "rental_uris": {"ios": "https://dc.lft.to/lastmile_qr_scan", "android": "https://dc.lft.to/lastmile_qr_scan"}}, {"name": "bb94c642dc6d928c31d1da02c77814f3", "type": "electric_scooter", "lat": 38.90263616666667, "is_reserved": 0, "lon": -77.017577, "fusion_lon": 0.0, "is_disabled": 0, "fusion_lat": 0.0, "bike_id": "bb94c642dc6d928c31d1da02c77814f3", "rental_uris": {"ios": "https://dc.lft.to/lastmile_qr_scan", "android": "https://dc.lft.to/lastmile_qr_scan"}}, {"name": "f3cef11841244c978134e304eb101938", "type": "electric_scooter", "lat": 38.8984245, "is_reserved": 0, "lon": -76.944775, "fusion_lon": 0.0, "is_disabled": 0, "fusion_lat": 0.0, "bike_id": "f3cef11841244c978134e304eb101938", "rental_uris": {"ios": "https://dc.lft.to/lastmile_qr_scan", "android": "https://dc.lft.to/lastmile_qr_scan"}}, {"name": "5865b256047e5577da3e0b6821c4b11d", "type": "electric_bike", "lat": 39.09456483333334, "is_reserved": 0, "lon": -77.1499575, "fusion_lon": 0.0, "is_disabled": 0, "fusion_lat": 0.0, "bike_id": "5865b256047e5577da3e0b6821c4b11d", "rental_uris": {"ios": "https://dc.lft.to/lastmile_qr_scan", "android": "https://dc.lft.to/lastmile_qr_scan"}}, {"name": "3facfdfbfc78fe9598515e4625f654bf", "type": "electric_scooter", "lat": 38.862440666666664, "is_reserved": 0, "lon": -76.99496683333334, "fusion_lon": 0.0, "is_disabled": 0, "fusion_lat": 0.0, "bike_id": "3facfdfbfc78fe9598515e4625f654bf", "rental_uris": {"ios": "https://dc.lft.to/lastmile_qr_scan", "android": "https://dc.lft.to/lastmile_qr_scan"}}, {"name": "90d389d76a36f06a3499ea297f9d4839", "type": "electric_scooter", "lat": 38.89494783333333, "is_reserved": 0, "lon": -77.00213216666667, "fusion_lon": 0.0, "is_disabled": 0, "fusion_lat": 0.0, "bike_id": "90d389d76a36f06a3499ea297f9d4839", "rental_uris": {"ios": "https://dc.lft.to/lastmile_qr_scan", "android": "https://dc.lft.to/lastmile_qr_scan"}}, {"name": "d01c9e1ebe196beecee162287af3c3d3", "type": "electric_bike", "lat": 38.82784233333334, "is_reserved": 0, "lon": -77.00905583333333, "fusion_lon": 0.0, "is_disabled": 0, "fusion_lat": 0.0, "bike_id": "d01c9e1ebe196beecee162287af3c3d3", "rental_uris": {"ios": "https://dc.lft.to/lastmile_qr_scan", "android": "https://dc.lft.to/lastmile_qr_scan"}}, {"name": "8ab6208a714021ba0f7f7ad300c6b1bb", "type": "electric_scooter", "lat": 38.9272615, "is_reserved": 0, "lon": -77.00564666666666, "fusion_lon": 0.0, "is_disabled": 0, "fusion_lat": 0.0, "bike_id": "8ab6208a714021ba0f7f7ad300c6b1bb", "rental_uris": {"ios": "https://dc.lft.to/lastmile_qr_scan", "android": "https://dc.lft.to/lastmile_qr_scan"}}, {"name": "70f9af1543754b2ae70efe96b9e607bc", "type": "electric_bike", "lat": 38.86278566666667, "is_reserved": 0, "lon": -77.06347283333334, "fusion_lon": 0.0, "is_disabled": 0, "fusion_lat": 0.0, "bike_id": "70f9af1543754b2ae70efe96b9e607bc", "rental_uris": {"ios": "https://dc.lft.to/lastmile_qr_scan", "android": "https://dc.lft.to/lastmile_qr_scan"}}, {"name": "5e42a7fcba39f0a0fe40ac3ce80afbe5", "type": "electric_scooter", "lat": 38.9244175, "is_reserved": 0, "lon": -76.99332766666667, "fusion_lon": 0.0, "is_disabled": 0, "fusion_lat": 0.0, "bike_id": "5e42a7fcba39f0a0fe40ac3ce80afbe5", "rental_uris": {"ios": "https://dc.lft.to/lastmile_qr_scan", "android": "https://dc.lft.to/lastmile_qr_scan"}}, {"name": "b8b23cc57d1775af77c34805c8a40c76", "type": "electric_scooter", "lat": 38.9126045, "is_reserved": 0, "lon": -77.03321633333333, "fusion_lon": 0.0, "is_disabled": 0, "fusion_lat": 0.0, "bike_id": "b8b23cc57d1775af77c34805c8a40c76", "rental_uris": {"ios": "https://dc.lft.to/lastmile_qr_scan", "android": "https://dc.lft.to/lastmile_qr_scan"}}, {"name": "44100a4924eade90469119f1bf22d810", "type": "electric_scooter", "lat": 38.9155195, "is_reserved": 0, "lon": -77.04627, "fusion_lon": 0.0, "is_disabled": 0, "fusion_lat": 0.0, "bike_id": "44100a4924eade90469119f1bf22d810", "rental_uris": {"ios": "https://dc.lft.to/lastmile_qr_scan", "android": "https://dc.lft.to/lastmile_qr_scan"}}, {"name": "f9752fde6ced1c23614ef156099a3a7f", "type": "electric_scooter", "lat": 38.90889383333333, "is_reserved": 0, "lon": -77.0056595, "fusion_lon": 0.0, "is_disabled": 0, "fusion_lat": 0.0, "bike_id": "f9752fde6ced1c23614ef156099a3a7f", "rental_uris": {"ios": "https://dc.lft.to/lastmile_qr_scan", "android": "https://dc.lft.to/lastmile_qr_scan"}}, {"name": "9f35d1f43cc1d6184380f9bf91917ecc", "type": "electric_scooter", "lat": 38.89506633333333, "is_reserved": 0, "lon": -77.0228335, "fusion_lon": 0.0, "is_disabled": 0, "fusion_lat": 0.0, "bike_id": "9f35d1f43cc1d6184380f9bf91917ecc", "rental_uris": {"ios": "https://dc.lft.to/lastmile_qr_scan", "android": "https://dc.lft.to/lastmile_qr_scan"}}, {"name": "d9d34246eeca990c25c9a7408d663d0b", "type": "electric_scooter", "lat": 38.89875933333333, "is_reserved": 0, "lon": -76.931555, "fusion_lon": 0.0, "is_disabled": 0, "fusion_lat": 0.0, "bike_id": "d9d34246eeca990c25c9a7408d663d0b", "rental_uris": {"ios": "https://dc.lft.to/lastmile_qr_scan", "android": "https://dc.lft.to/lastmile_qr_scan"}}, {"name": "294a4e50aaf27502e402d9947c76fe61", "type": "electric_scooter", "lat": 38.94394966666667, "is_reserved": 0, "lon": -77.03888716666667, "fusion_lon": 0.0, "is_disabled": 0, "fusion_lat": 0.0, "bike_id": "294a4e50aaf27502e402d9947c76fe61", "rental_uris": {"ios": "https://dc.lft.to/lastmile_qr_scan", "android": "https://dc.lft.to/lastmile_qr_scan"}}, {"name": "0442694e8e37f5f4ee517c3830f16878", "type": "electric_scooter", "lat": 38.905579333333336, "is_reserved": 0, "lon": -77.028091, "fusion_lon": 0.0, "is_disabled": 0, "fusion_lat": 0.0, "bike_id": "0442694e8e37f5f4ee517c3830f16878", "rental_uris": {"ios": "https://dc.lft.to/lastmile_qr_scan", "android": "https://dc.lft.to/lastmile_qr_scan"}}, {"name": "d2559db8727f8c3c114999a868eb1473", "type": "electric_scooter", "lat": 38.927469, "is_reserved": 0, "lon": -77.02417566666666, "fusion_lon": 0.0, "is_disabled": 0, "fusion_lat": 0.0, "bike_id": "d2559db8727f8c3c114999a868eb1473", "rental_uris": {"ios": "https://dc.lft.to/lastmile_qr_scan", "android": "https://dc.lft.to/lastmile_qr_scan"}}, {"name": "ae88418f5d4927dc460047e885ec1bad", "type": "electric_scooter", "lat": 38.91896533333333, "is_reserved": 0, "lon": -77.04160316666666, "fusion_lon": 0.0, "is_disabled": 0, "fusion_lat": 0.0, "bike_id": "ae88418f5d4927dc460047e885ec1bad", "rental_uris": {"ios": "https://dc.lft.to/lastmile_qr_scan", "android": "https://dc.lft.to/lastmile_qr_scan"}}, {"name": "aca490c62cafa9ba7781526990f4425a", "type": "electric_scooter", "lat": 38.917344666666665, "is_reserved": 0, "lon": -77.01023166666667, "fusion_lon": 0.0, "is_disabled": 0, "fusion_lat": 0.0, "bike_id": "aca490c62cafa9ba7781526990f4425a", "rental_uris": {"ios": "https://dc.lft.to/lastmile_qr_scan", "android": "https://dc.lft.to/lastmile_qr_scan"}}, {"name": "d9ecddfc041b1022e3a06500248e2d1a", "type": "electric_bike", "lat": 38.96119916666667, "is_reserved": 0, "lon": -77.03268133333333, "fusion_lon": 0.0, "is_disabled": 0, "fusion_lat": 0.0, "bike_id": "d9ecddfc041b1022e3a06500248e2d1a", "rental_uris": {"ios": "https://dc.lft.to/lastmile_qr_scan", "android": "https://dc.lft.to/lastmile_qr_scan"}}, {"name": "1998d98bb9239a4b4c611d41d5108bbf", "type": "electric_scooter", "lat": 38.902953, "is_reserved": 0, "lon": -76.99858983333333, "fusion_lon": 0.0, "is_disabled": 0, "fusion_lat": 0.0, "bike_id": "1998d98bb9239a4b4c611d41d5108bbf", "rental_uris": {"ios": "https://dc.lft.to/lastmile_qr_scan", "android": "https://dc.lft.to/lastmile_qr_scan"}}, {"name": "e0e44f25f37f99e39b39356f1cedf264", "type": "electric_scooter", "lat": 38.90447133333333, "is_reserved": 0, "lon": -76.99618233333334, "fusion_lon": 0.0, "is_disabled": 0, "fusion_lat": 0.0, "bike_id": "e0e44f25f37f99e39b39356f1cedf264", "rental_uris": {"ios": "https://dc.lft.to/lastmile_qr_scan", "android": "https://dc.lft.to/lastmile_qr_scan"}}, {"name": "6bf084a5a399594d8967d2bba75b9ccd", "type": "electric_scooter", "lat": 38.917241, "is_reserved": 0, "lon": -77.068428, "fusion_lon": 0.0, "is_disabled": 0, "fusion_lat": 0.0, "bike_id": "6bf084a5a399594d8967d2bba75b9ccd", "rental_uris": {"ios": "https://dc.lft.to/lastmile_qr_scan", "android": "https://dc.lft.to/lastmile_qr_scan"}}, {"name": "ab2b121f957392fa72f083ef768f374e", "type": "electric_scooter", "lat": 38.85613466666667, "is_reserved": 0, "lon": -76.98013833333333, "fusion_lon": 0.0, "is_disabled": 0, "fusion_lat": 0.0, "bike_id": "ab2b121f957392fa72f083ef768f374e", "rental_uris": {"ios": "https://dc.lft.to/lastmile_qr_scan", "android": "https://dc.lft.to/lastmile_qr_scan"}}, {"name": "37e8b0aac243de1521a3ac53b224253d", "type": "electric_scooter", "lat": 38.87629166666667, "is_reserved": 0, "lon": -76.96524583333333, "fusion_lon": 0.0, "is_disabled": 0, "fusion_lat": 0.0, "bike_id": "37e8b0aac243de1521a3ac53b224253d", "rental_uris": {"ios": "https://dc.lft.to/lastmile_qr_scan", "android": "https://dc.lft.to/lastmile_qr_scan"}}, {"name": "e92280a4de7b0e031c69d7a716073760", "type": "electric_scooter", "lat": 38.9055375, "is_reserved": 0, "lon": -77.006097, "fusion_lon": 0.0, "is_disabled": 0, "fusion_lat": 0.0, "bike_id": "e92280a4de7b0e031c69d7a716073760", "rental_uris": {"ios": "https://dc.lft.to/lastmile_qr_scan", "android": "https://dc.lft.to/lastmile_qr_scan"}}, {"name": "611945eef70816f795b28eaf8308ceef", "type": "electric_scooter", "lat": 38.895829666666664, "is_reserved": 0, "lon": -76.93718883333334, "fusion_lon": 0.0, "is_disabled": 0, "fusion_lat": 0.0, "bike_id": "611945eef70816f795b28eaf8308ceef", "rental_uris": {"ios": "https://dc.lft.to/lastmile_qr_scan", "android": "https://dc.lft.to/lastmile_qr_scan"}}, {"name": "e2ae3f6f79763558d44771ddf69bcc39", "type": "electric_scooter", "lat": 38.84291733333333, "is_reserved": 0, "lon": -76.99944433333333, "fusion_lon": 0.0, "is_disabled": 0, "fusion_lat": 0.0, "bike_id": "e2ae3f6f79763558d44771ddf69bcc39", "rental_uris": {"ios": "https://dc.lft.to/lastmile_qr_scan", "android": "https://dc.lft.to/lastmile_qr_scan"}}, {"name": "cd1a553ee447096f3f660b8dad52e49f", "type": "electric_scooter", "lat": 38.9297185, "is_reserved": 0, "lon": -77.0325185, "fusion_lon": 0.0, "is_disabled": 0, "fusion_lat": 0.0, "bike_id": "cd1a553ee447096f3f660b8dad52e49f", "rental_uris": {"ios": "https://dc.lft.to/lastmile_qr_scan", "android": "https://dc.lft.to/lastmile_qr_scan"}}, {"name": "e2aa13f464c22a229e4cbd1e8c363230", "type": "electric_scooter", "lat": 38.878311833333335, "is_reserved": 0, "lon": -76.99030933333333, "fusion_lon": 0.0, "is_disabled": 0, "fusion_lat": 0.0, "bike_id": "e2aa13f464c22a229e4cbd1e8c363230", "rental_uris": {"ios": "https://dc.lft.to/lastmile_qr_scan", "android": "https://dc.lft.to/lastmile_qr_scan"}}, {"name": "282b1f5b0b42aaf7e200d975b3e2799d", "type": "electric_bike", "lat": 38.85155133333333, "is_reserved": 0, "lon": -77.12875233333334, "fusion_lon": 0.0, "is_disabled": 0, "fusion_lat": 0.0, "bike_id": "282b1f5b0b42aaf7e200d975b3e2799d", "rental_uris": {"ios": "https://dc.lft.to/lastmile_qr_scan", "android": "https://dc.lft.to/lastmile_qr_scan"}}, {"name": "71b3fc92f4a4dfc829b1d2865a324437", "type": "electric_scooter", "lat": 38.906557166666666, "is_reserved": 0, "lon": -77.04291866666667, "fusion_lon": 0.0, "is_disabled": 0, "fusion_lat": 0.0, "bike_id": "71b3fc92f4a4dfc829b1d2865a324437", "rental_uris": {"ios": "https://dc.lft.to/lastmile_qr_scan", "android": "https://dc.lft.to/lastmile_qr_scan"}}, {"name": "4b5f3e535d5fff29798d441d2717f1c6", "type": "electric_scooter", "lat": 38.92870666666666, "is_reserved": 0, "lon": -77.03320083333334, "fusion_lon": 0.0, "is_disabled": 0, "fusion_lat": 0.0, "bike_id": "4b5f3e535d5fff29798d441d2717f1c6", "rental_uris": {"ios": "https://dc.lft.to/lastmile_qr_scan", "android": "https://dc.lft.to/lastmile_qr_scan"}}, {"name": "cdac686a9df69c1d09f97249d4dbabe4", "type": "electric_scooter", "lat": 38.894740166666665, "is_reserved": 0, "lon": -76.98393466666667, "fusion_lon": 0.0, "is_disabled": 0, "fusion_lat": 0.0, "bike_id": "cdac686a9df69c1d09f97249d4dbabe4", "rental_uris": {"ios": "https://dc.lft.to/lastmile_qr_scan", "android": "https://dc.lft.to/lastmile_qr_scan"}}, {"name": "0fbe89217be2bf6e1c62e68f3a75e08b", "type": "electric_scooter", "lat": 38.865674166666665, "is_reserved": 0, "lon": -76.9894705, "fusion_lon": 0.0, "is_disabled": 0, "fusion_lat": 0.0, "bike_id": "0fbe89217be2bf6e1c62e68f3a75e08b", "rental_uris": {"ios": "https://dc.lft.to/lastmile_qr_scan", "android": "https://dc.lft.to/lastmile_qr_scan"}}, {"name": "bb773215c592b9cb1cfd3655c3fadb19", "type": "electric_scooter", "lat": 38.93061, "is_reserved": 0, "lon": -77.0394575, "fusion_lon": 0.0, "is_disabled": 0, "fusion_lat": 0.0, "bike_id": "bb773215c592b9cb1cfd3655c3fadb19", "rental_uris": {"ios": "https://dc.lft.to/lastmile_qr_scan", "android": "https://dc.lft.to/lastmile_qr_scan"}}, {"name": "08ed50507cf0740f370f6fa47e3965f4", "type": "electric_scooter", "lat": 38.9430815, "is_reserved": 0, "lon": -77.0590795, "fusion_lon": 0.0, "is_disabled": 0, "fusion_lat": 0.0, "bike_id": "08ed50507cf0740f370f6fa47e3965f4", "rental_uris": {"ios": "https://dc.lft.to/lastmile_qr_scan", "android": "https://dc.lft.to/lastmile_qr_scan"}}, {"name": "70b8e9c46450f39f38cabe3cd9c22c0c", "type": "electric_bike", "lat": 38.898378, "is_reserved": 0, "lon": -77.00577783333334, "fusion_lon": 0.0, "is_disabled": 0, "fusion_lat": 0.0, "bike_id": "70b8e9c46450f39f38cabe3cd9c22c0c", "rental_uris": {"ios": "https://dc.lft.to/lastmile_qr_scan", "android": "https://dc.lft.to/lastmile_qr_scan"}}, {"name": "d8aa74c5ba11d9db4465b481b314905b", "type": "electric_scooter", "lat": 38.91635383333333, "is_reserved": 0, "lon": -77.03194616666667, "fusion_lon": 0.0, "is_disabled": 0, "fusion_lat": 0.0, "bike_id": "d8aa74c5ba11d9db4465b481b314905b", "rental_uris": {"ios": "https://dc.lft.to/lastmile_qr_scan", "android": "https://dc.lft.to/lastmile_qr_scan"}}, {"name": "2dd111d2366ea1c9b11b3b17c4f98e3f", "type": "electric_scooter", "lat": 38.9572955, "is_reserved": 0, "lon": -77.02398666666667, "fusion_lon": 0.0, "is_disabled": 0, "fusion_lat": 0.0, "bike_id": "2dd111d2366ea1c9b11b3b17c4f98e3f", "rental_uris": {"ios": "https://dc.lft.to/lastmile_qr_scan", "android": "https://dc.lft.to/lastmile_qr_scan"}}, {"name": "bd473586feec12c09939d7f1eabc19ce", "type": "electric_scooter", "lat": 38.89916316666667, "is_reserved": 0, "lon": -76.93381966666666, "fusion_lon": 0.0, "is_disabled": 0, "fusion_lat": 0.0, "bike_id": "bd473586feec12c09939d7f1eabc19ce", "rental_uris": {"ios": "https://dc.lft.to/lastmile_qr_scan", "android": "https://dc.lft.to/lastmile_qr_scan"}}, {"name": "b5c3b789988a569b9c6a65f0334c9173", "type": "electric_bike", "lat": 38.91149033333333, "is_reserved": 0, "lon": -77.002994, "fusion_lon": 0.0, "is_disabled": 0, "fusion_lat": 0.0, "bike_id": "b5c3b789988a569b9c6a65f0334c9173", "rental_uris": {"ios": "https://dc.lft.to/lastmile_qr_scan", "android": "https://dc.lft.to/lastmile_qr_scan"}}, {"name": "edab44118016b5a722b7e820ec179fa5", "type": "electric_scooter", "lat": 38.92231866666667, "is_reserved": 0, "lon": -77.046187, "fusion_lon": 0.0, "is_disabled": 0, "fusion_lat": 0.0, "bike_id": "edab44118016b5a722b7e820ec179fa5", "rental_uris": {"ios": "https://dc.lft.to/lastmile_qr_scan", "android": "https://dc.lft.to/lastmile_qr_scan"}}, {"name": "528bb2c724c45d55b132ba0e7a0f0445", "type": "electric_scooter", "lat": 38.901307333333335, "is_reserved": 0, "lon": -77.04487283333333, "fusion_lon": 0.0, "is_disabled": 0, "fusion_lat": 0.0, "bike_id": "528bb2c724c45d55b132ba0e7a0f0445", "rental_uris": {"ios": "https://dc.lft.to/lastmile_qr_scan", "android": "https://dc.lft.to/lastmile_qr_scan"}}, {"name": "354ca463592d3bd49e895ccba40a75e4", "type": "electric_scooter", "lat": 38.90235916666666, "is_reserved": 0, "lon": -76.9792725, "fusion_lon": 0.0, "is_disabled": 0, "fusion_lat": 0.0, "bike_id": "354ca463592d3bd49e895ccba40a75e4", "rental_uris": {"ios": "https://dc.lft.to/lastmile_qr_scan", "android": "https://dc.lft.to/lastmile_qr_scan"}}, {"name": "2d2d36a93970b214640a5f85643e90d2", "type": "electric_scooter", "lat": 38.91686283333333, "is_reserved": 0, "lon": -77.02528066666666, "fusion_lon": 0.0, "is_disabled": 0, "fusion_lat": 0.0, "bike_id": "2d2d36a93970b214640a5f85643e90d2", "rental_uris": {"ios": "https://dc.lft.to/lastmile_qr_scan", "android": "https://dc.lft.to/lastmile_qr_scan"}}, {"name": "252221ac067a43460f9c824ff1e0cd7b", "type": "electric_scooter", "lat": 38.89241416666667, "is_reserved": 0, "lon": -77.03192, "fusion_lon": 0.0, "is_disabled": 0, "fusion_lat": 0.0, "bike_id": "252221ac067a43460f9c824ff1e0cd7b", "rental_uris": {"ios": "https://dc.lft.to/lastmile_qr_scan", "android": "https://dc.lft.to/lastmile_qr_scan"}}, {"name": "9a5d005e7166f01e8be1884bc883a67d", "type": "electric_scooter", "lat": 38.91678916666667, "is_reserved": 0, "lon": -77.02969533333334, "fusion_lon": 0.0, "is_disabled": 0, "fusion_lat": 0.0, "bike_id": "9a5d005e7166f01e8be1884bc883a67d", "rental_uris": {"ios": "https://dc.lft.to/lastmile_qr_scan", "android": "https://dc.lft.to/lastmile_qr_scan"}}, {"name": "46b8e3011b12403b24633cd2728c6788", "type": "electric_scooter", "lat": 38.90805233333333, "is_reserved": 0, "lon": -77.0386525, "fusion_lon": 0.0, "is_disabled": 0, "fusion_lat": 0.0, "bike_id": "46b8e3011b12403b24633cd2728c6788", "rental_uris": {"ios": "https://dc.lft.to/lastmile_qr_scan", "android": "https://dc.lft.to/lastmile_qr_scan"}}, {"name": "6b35b7b5af67589df6302f987b9f5909", "type": "electric_scooter", "lat": 38.93906966666667, "is_reserved": 0, "lon": -77.02474466666666, "fusion_lon": 0.0, "is_disabled": 0, "fusion_lat": 0.0, "bike_id": "6b35b7b5af67589df6302f987b9f5909", "rental_uris": {"ios": "https://dc.lft.to/lastmile_qr_scan", "android": "https://dc.lft.to/lastmile_qr_scan"}}, {"name": "017e321d5438b928214d1f92bb4f7b5d", "type": "electric_scooter", "lat": 38.923269, "is_reserved": 0, "lon": -77.0389095, "fusion_lon": 0.0, "is_disabled": 0, "fusion_lat": 0.0, "bike_id": "017e321d5438b928214d1f92bb4f7b5d", "rental_uris": {"ios": "https://dc.lft.to/lastmile_qr_scan", "android": "https://dc.lft.to/lastmile_qr_scan"}}, {"name": "0b7b6db86c089a649cd8d383ca7fb4b7", "type": "electric_scooter", "lat": 38.900728666666666, "is_reserved": 0, "lon": -77.0491725, "fusion_lon": 0.0, "is_disabled": 0, "fusion_lat": 0.0, "bike_id": "0b7b6db86c089a649cd8d383ca7fb4b7", "rental_uris": {"ios": "https://dc.lft.to/lastmile_qr_scan", "android": "https://dc.lft.to/lastmile_qr_scan"}}, {"name": "f0cd862bd57f117f0d0dbf39d5e327a2", "type": "electric_scooter", "lat": 38.905158166666666, "is_reserved": 0, "lon": -77.069407, "fusion_lon": 0.0, "is_disabled": 0, "fusion_lat": 0.0, "bike_id": "f0cd862bd57f117f0d0dbf39d5e327a2", "rental_uris": {"ios": "https://dc.lft.to/lastmile_qr_scan", "android": "https://dc.lft.to/lastmile_qr_scan"}}, {"name": "4b98ef2fbfe64fa74f783c84578567b9", "type": "electric_scooter", "lat": 38.920380333333334, "is_reserved": 0, "lon": -77.03431966666666, "fusion_lon": 0.0, "is_disabled": 0, "fusion_lat": 0.0, "bike_id": "4b98ef2fbfe64fa74f783c84578567b9", "rental_uris": {"ios": "https://dc.lft.to/lastmile_qr_scan", "android": "https://dc.lft.to/lastmile_qr_scan"}}, {"name": "c9ddfbd9e6ae633aa720365e6d574c7f", "type": "electric_scooter", "lat": 38.9105855, "is_reserved": 0, "lon": -77.05516083333333, "fusion_lon": 0.0, "is_disabled": 0, "fusion_lat": 0.0, "bike_id": "c9ddfbd9e6ae633aa720365e6d574c7f", "rental_uris": {"ios": "https://dc.lft.to/lastmile_qr_scan", "android": "https://dc.lft.to/lastmile_qr_scan"}}, {"name": "fb7ba808f0b6c192498883e1b884ff3c", "type": "electric_bike", "lat": 38.8616495, "is_reserved": 0, "lon": -76.95064233333333, "fusion_lon": 0.0, "is_disabled": 0, "fusion_lat": 0.0, "bike_id": "fb7ba808f0b6c192498883e1b884ff3c", "rental_uris": {"ios": "https://dc.lft.to/lastmile_qr_scan", "android": "https://dc.lft.to/lastmile_qr_scan"}}, {"name": "fec6d0f665b409489ac5f8aa415e7d07", "type": "electric_scooter", "lat": 38.9233195, "is_reserved": 0, "lon": -77.01898483333333, "fusion_lon": 0.0, "is_disabled": 0, "fusion_lat": 0.0, "bike_id": "fec6d0f665b409489ac5f8aa415e7d07", "rental_uris": {"ios": "https://dc.lft.to/lastmile_qr_scan", "android": "https://dc.lft.to/lastmile_qr_scan"}}, {"name": "c543cf43033075c2e9f53da2123ee003", "type": "electric_scooter", "lat": 38.91106283333333, "is_reserved": 0, "lon": -77.01057133333333, "fusion_lon": 0.0, "is_disabled": 0, "fusion_lat": 0.0, "bike_id": "c543cf43033075c2e9f53da2123ee003", "rental_uris": {"ios": "https://dc.lft.to/lastmile_qr_scan", "android": "https://dc.lft.to/lastmile_qr_scan"}}, {"name": "64cb9c36e88949b784d4e08da9bf3bd7", "type": "electric_scooter", "lat": 38.9041115, "is_reserved": 0, "lon": -77.01799933333334, "fusion_lon": 0.0, "is_disabled": 0, "fusion_lat": 0.0, "bike_id": "64cb9c36e88949b784d4e08da9bf3bd7", "rental_uris": {"ios": "https://dc.lft.to/lastmile_qr_scan", "android": "https://dc.lft.to/lastmile_qr_scan"}}, {"name": "3e19aab644ced1b11c41f356cb59fa3a", "type": "electric_scooter", "lat": 38.9126595, "is_reserved": 0, "lon": -77.006326, "fusion_lon": 0.0, "is_disabled": 0, "fusion_lat": 0.0, "bike_id": "3e19aab644ced1b11c41f356cb59fa3a", "rental_uris": {"ios": "https://dc.lft.to/lastmile_qr_scan", "android": "https://dc.lft.to/lastmile_qr_scan"}}, {"name": "5fc81632055b3d91af8959d7b83b6d48", "type": "electric_scooter", "lat": 38.89214666666667, "is_reserved": 0, "lon": -77.02148733333334, "fusion_lon": 0.0, "is_disabled": 0, "fusion_lat": 0.0, "bike_id": "5fc81632055b3d91af8959d7b83b6d48", "rental_uris": {"ios": "https://dc.lft.to/lastmile_qr_scan", "android": "https://dc.lft.to/lastmile_qr_scan"}}, {"name": "6123933c7c30bbf39c26c584a0b2f678", "type": "electric_scooter", "lat": 38.903725333333334, "is_reserved": 0, "lon": -77.00751233333334, "fusion_lon": 0.0, "is_disabled": 0, "fusion_lat": 0.0, "bike_id": "6123933c7c30bbf39c26c584a0b2f678", "rental_uris": {"ios": "https://dc.lft.to/lastmile_qr_scan", "android": "https://dc.lft.to/lastmile_qr_scan"}}, {"name": "12dfa050254f544d3317d7202c1a0abd", "type": "electric_bike", "lat": 38.96501266666667, "is_reserved": 0, "lon": -77.02819333333333, "fusion_lon": 0.0, "is_disabled": 0, "fusion_lat": 0.0, "bike_id": "12dfa050254f544d3317d7202c1a0abd", "rental_uris": {"ios": "https://dc.lft.to/lastmile_qr_scan", "android": "https://dc.lft.to/lastmile_qr_scan"}}, {"name": "1257cce3d1b406d7dc410d81fa874362", "type": "electric_scooter", "lat": 38.92844633333333, "is_reserved": 0, "lon": -77.05424116666667, "fusion_lon": 0.0, "is_disabled": 0, "fusion_lat": 0.0, "bike_id": "1257cce3d1b406d7dc410d81fa874362", "rental_uris": {"ios": "https://dc.lft.to/lastmile_qr_scan", "android": "https://dc.lft.to/lastmile_qr_scan"}}, {"name": "4840e0a0fa642c84b15a2e5672b372c8", "type": "electric_scooter", "lat": 38.9082875, "is_reserved": 0, "lon": -76.996987, "fusion_lon": 0.0, "is_disabled": 0, "fusion_lat": 0.0, "bike_id": "4840e0a0fa642c84b15a2e5672b372c8", "rental_uris": {"ios": "https://dc.lft.to/lastmile_qr_scan", "android": "https://dc.lft.to/lastmile_qr_scan"}}, {"name": "de21302429edb0866149eb19a2cb1998", "type": "electric_scooter", "lat": 38.8913375, "is_reserved": 0, "lon": -77.00342233333333, "fusion_lon": 0.0, "is_disabled": 0, "fusion_lat": 0.0, "bike_id": "de21302429edb0866149eb19a2cb1998", "rental_uris": {"ios": "https://dc.lft.to/lastmile_qr_scan", "android": "https://dc.lft.to/lastmile_qr_scan"}}, {"name": "eda66a8ba1e0a7aab531062da1c1952f", "type": "electric_scooter", "lat": 38.8959035, "is_reserved": 0, "lon": -77.02564833333334, "fusion_lon": 0.0, "is_disabled": 0, "fusion_lat": 0.0, "bike_id": "eda66a8ba1e0a7aab531062da1c1952f", "rental_uris": {"ios": "https://dc.lft.to/lastmile_qr_scan", "android": "https://dc.lft.to/lastmile_qr_scan"}}, {"name": "6ad52ef38e7253ff9b633850b80587d2", "type": "electric_scooter", "lat": 38.87960983333333, "is_reserved": 0, "lon": -76.98541883333333, "fusion_lon": 0.0, "is_disabled": 0, "fusion_lat": 0.0, "bike_id": "6ad52ef38e7253ff9b633850b80587d2", "rental_uris": {"ios": "https://dc.lft.to/lastmile_qr_scan", "android": "https://dc.lft.to/lastmile_qr_scan"}}, {"name": "628d1745926468d7def46b52baca1c20", "type": "electric_scooter", "lat": 38.902703, "is_reserved": 0, "lon": -77.018097, "fusion_lon": 0.0, "is_disabled": 0, "fusion_lat": 0.0, "bike_id": "628d1745926468d7def46b52baca1c20", "rental_uris": {"ios": "https://dc.lft.to/lastmile_qr_scan", "android": "https://dc.lft.to/lastmile_qr_scan"}}, {"name": "e80335a72255b7d03c32878ed94d6a49", "type": "electric_scooter", "lat": 38.905076, "is_reserved": 0, "lon": -77.05138, "fusion_lon": 0.0, "is_disabled": 0, "fusion_lat": 0.0, "bike_id": "e80335a72255b7d03c32878ed94d6a49", "rental_uris": {"ios": "https://dc.lft.to/lastmile_qr_scan", "android": "https://dc.lft.to/lastmile_qr_scan"}}, {"name": "d1dbbc04874fef7dc99f01574b6fcf6d", "type": "electric_bike", "lat": 39.03048966666667, "is_reserved": 0, "lon": -77.09479183333333, "fusion_lon": 0.0, "is_disabled": 0, "fusion_lat": 0.0, "bike_id": "d1dbbc04874fef7dc99f01574b6fcf6d", "rental_uris": {"ios": "https://dc.lft.to/lastmile_qr_scan", "android": "https://dc.lft.to/lastmile_qr_scan"}}, {"name": "23c30bcc1abeff4462ce3c3d7c227da7", "type": "electric_scooter", "lat": 38.89197883333333, "is_reserved": 0, "lon": -77.01551033333334, "fusion_lon": 0.0, "is_disabled": 0, "fusion_lat": 0.0, "bike_id": "23c30bcc1abeff4462ce3c3d7c227da7", "rental_uris": {"ios": "https://dc.lft.to/lastmile_qr_scan", "android": "https://dc.lft.to/lastmile_qr_scan"}}, {"name": "447c5e54fc4a0ae439466cd55f22bdf2", "type": "electric_scooter", "lat": 38.927485833333336, "is_reserved": 0, "lon": -77.05366733333334, "fusion_lon": 0.0, "is_disabled": 0, "fusion_lat": 0.0, "bike_id": "447c5e54fc4a0ae439466cd55f22bdf2", "rental_uris": {"ios": "https://dc.lft.to/lastmile_qr_scan", "android": "https://dc.lft.to/lastmile_qr_scan"}}, {"name": "0c648d02789f73c30e0ea1fd0e90fd7c", "type": "electric_scooter", "lat": 38.92236416666667, "is_reserved": 0, "lon": -77.03521683333334, "fusion_lon": 0.0, "is_disabled": 0, "fusion_lat": 0.0, "bike_id": "0c648d02789f73c30e0ea1fd0e90fd7c", "rental_uris": {"ios": "https://dc.lft.to/lastmile_qr_scan", "android": "https://dc.lft.to/lastmile_qr_scan"}}, {"name": "5304034769abea60371cf4c1aea9a66c", "type": "electric_scooter", "lat": 38.93945316666667, "is_reserved": 0, "lon": -77.03262783333334, "fusion_lon": 0.0, "is_disabled": 0, "fusion_lat": 0.0, "bike_id": "5304034769abea60371cf4c1aea9a66c", "rental_uris": {"ios": "https://dc.lft.to/lastmile_qr_scan", "android": "https://dc.lft.to/lastmile_qr_scan"}}, {"name": "c92f971c493f8bd786dd891f67b76862", "type": "electric_scooter", "lat": 38.8830735, "is_reserved": 0, "lon": -77.01744033333334, "fusion_lon": 0.0, "is_disabled": 0, "fusion_lat": 0.0, "bike_id": "c92f971c493f8bd786dd891f67b76862", "rental_uris": {"ios": "https://dc.lft.to/lastmile_qr_scan", "android": "https://dc.lft.to/lastmile_qr_scan"}}, {"name": "bf6ddb194967e1303ef82e725e8a362c", "type": "electric_bike", "lat": 38.865939833333336, "is_reserved": 0, "lon": -76.93221983333333, "fusion_lon": 0.0, "is_disabled": 0, "fusion_lat": 0.0, "bike_id": "bf6ddb194967e1303ef82e725e8a362c", "rental_uris": {"ios": "https://dc.lft.to/lastmile_qr_scan", "android": "https://dc.lft.to/lastmile_qr_scan"}}, {"name": "4a3f5b6d7675bf65f4cbfb53879ce2af", "type": "electric_scooter", "lat": 38.9058725, "is_reserved": 0, "lon": -77.06284716666667, "fusion_lon": 0.0, "is_disabled": 0, "fusion_lat": 0.0, "bike_id": "4a3f5b6d7675bf65f4cbfb53879ce2af", "rental_uris": {"ios": "https://dc.lft.to/lastmile_qr_scan", "android": "https://dc.lft.to/lastmile_qr_scan"}}, {"name": "9d045900eacc45cc19614ce8394f7c4d", "type": "electric_bike", "lat": 38.80667, "is_reserved": 0, "lon": -77.0600745, "fusion_lon": 0.0, "is_disabled": 0, "fusion_lat": 0.0, "bike_id": "9d045900eacc45cc19614ce8394f7c4d", "rental_uris": {"ios": "https://dc.lft.to/lastmile_qr_scan", "android": "https://dc.lft.to/lastmile_qr_scan"}}, {"name": "8acb0e3863381b705321b012fa796ab6", "type": "electric_scooter", "lat": 38.92486533333334, "is_reserved": 0, "lon": -77.027113, "fusion_lon": 0.0, "is_disabled": 0, "fusion_lat": 0.0, "bike_id": "8acb0e3863381b705321b012fa796ab6", "rental_uris": {"ios": "https://dc.lft.to/lastmile_qr_scan", "android": "https://dc.lft.to/lastmile_qr_scan"}}, {"name": "206c799c892d01d8daeb8afa64d856cf", "type": "electric_scooter", "lat": 38.902634, "is_reserved": 0, "lon": -77.04045483333333, "fusion_lon": 0.0, "is_disabled": 0, "fusion_lat": 0.0, "bike_id": "206c799c892d01d8daeb8afa64d856cf", "rental_uris": {"ios": "https://dc.lft.to/lastmile_qr_scan", "android": "https://dc.lft.to/lastmile_qr_scan"}}, {"name": "14422f18fce1db0de43b0ddd639ab109", "type": "electric_bike", "lat": 38.8521905, "is_reserved": 0, "lon": -77.129628, "fusion_lon": 0.0, "is_disabled": 0, "fusion_lat": 0.0, "bike_id": "14422f18fce1db0de43b0ddd639ab109", "rental_uris": {"ios": "https://dc.lft.to/lastmile_qr_scan", "android": "https://dc.lft.to/lastmile_qr_scan"}}, {"name": "33286c84b756fd031df2697becc758f5", "type": "electric_bike", "lat": 38.83234916666667, "is_reserved": 0, "lon": -77.00716833333334, "fusion_lon": 0.0, "is_disabled": 0, "fusion_lat": 0.0, "bike_id": "33286c84b756fd031df2697becc758f5", "rental_uris": {"ios": "https://dc.lft.to/lastmile_qr_scan", "android": "https://dc.lft.to/lastmile_qr_scan"}}, {"name": "d0c4d8e0317e03df78c469fd6dac5500", "type": "electric_scooter", "lat": 38.93948183333333, "is_reserved": 0, "lon": -77.0325985, "fusion_lon": 0.0, "is_disabled": 0, "fusion_lat": 0.0, "bike_id": "d0c4d8e0317e03df78c469fd6dac5500", "rental_uris": {"ios": "https://dc.lft.to/lastmile_qr_scan", "android": "https://dc.lft.to/lastmile_qr_scan"}}, {"name": "335dcd91c2d1c1a8bfeb2caa517c37b0", "type": "electric_bike", "lat": 38.98461733333333, "is_reserved": 0, "lon": -76.955279, "fusion_lon": 0.0, "is_disabled": 0, "fusion_lat": 0.0, "bike_id": "335dcd91c2d1c1a8bfeb2caa517c37b0", "rental_uris": {"ios": "https://dc.lft.to/lastmile_qr_scan", "android": "https://dc.lft.to/lastmile_qr_scan"}}, {"name": "d4002c1151bdf68da7d49ed620ec73b6", "type": "electric_scooter", "lat": 38.8858965, "is_reserved": 0, "lon": -76.95260816666666, "fusion_lon": 0.0, "is_disabled": 0, "fusion_lat": 0.0, "bike_id": "d4002c1151bdf68da7d49ed620ec73b6", "rental_uris": {"ios": "https://dc.lft.to/lastmile_qr_scan", "android": "https://dc.lft.to/lastmile_qr_scan"}}, {"name": "84c3249612a72760c37edba914cd61ff", "type": "electric_scooter", "lat": 38.90676833333333, "is_reserved": 0, "lon": -76.97805283333334, "fusion_lon": 0.0, "is_disabled": 0, "fusion_lat": 0.0, "bike_id": "84c3249612a72760c37edba914cd61ff", "rental_uris": {"ios": "https://dc.lft.to/lastmile_qr_scan", "android": "https://dc.lft.to/lastmile_qr_scan"}}, {"name": "af2fd208b4e37279dc3aa31d8d81b206", "type": "electric_scooter", "lat": 38.911089833333335, "is_reserved": 0, "lon": -77.04929116666666, "fusion_lon": 0.0, "is_disabled": 0, "fusion_lat": 0.0, "bike_id": "af2fd208b4e37279dc3aa31d8d81b206", "rental_uris": {"ios": "https://dc.lft.to/lastmile_qr_scan", "android": "https://dc.lft.to/lastmile_qr_scan"}}, {"name": "f5c3ae81a5d4cc89237d457c11c5bdd1", "type": "electric_bike", "lat": 38.95550933333333, "is_reserved": 0, "lon": -76.93547783333334, "fusion_lon": 0.0, "is_disabled": 0, "fusion_lat": 0.0, "bike_id": "f5c3ae81a5d4cc89237d457c11c5bdd1", "rental_uris": {"ios": "https://dc.lft.to/lastmile_qr_scan", "android": "https://dc.lft.to/lastmile_qr_scan"}}, {"name": "75bc195f130e9bcdaba4c3d2cea89634", "type": "electric_scooter", "lat": 38.90564766666667, "is_reserved": 0, "lon": -77.00588833333333, "fusion_lon": 0.0, "is_disabled": 0, "fusion_lat": 0.0, "bike_id": "75bc195f130e9bcdaba4c3d2cea89634", "rental_uris": {"ios": "https://dc.lft.to/lastmile_qr_scan", "android": "https://dc.lft.to/lastmile_qr_scan"}}, {"name": "fbdf0b9e514e5a1c0a922a8d554a9783", "type": "electric_scooter", "lat": 38.934224, "is_reserved": 0, "lon": -77.03407566666667, "fusion_lon": 0.0, "is_disabled": 0, "fusion_lat": 0.0, "bike_id": "fbdf0b9e514e5a1c0a922a8d554a9783", "rental_uris": {"ios": "https://dc.lft.to/lastmile_qr_scan", "android": "https://dc.lft.to/lastmile_qr_scan"}}, {"name": "d4804e56a08f88a6aa96a128b3220fb8", "type": "electric_scooter", "lat": 38.9101335, "is_reserved": 0, "lon": -77.05265316666667, "fusion_lon": 0.0, "is_disabled": 0, "fusion_lat": 0.0, "bike_id": "d4804e56a08f88a6aa96a128b3220fb8", "rental_uris": {"ios": "https://dc.lft.to/lastmile_qr_scan", "android": "https://dc.lft.to/lastmile_qr_scan"}}, {"name": "0ea3ccdd056e3b082014931ead9d0692", "type": "electric_scooter", "lat": 38.942714, "is_reserved": 0, "lon": -77.025055, "fusion_lon": 0.0, "is_disabled": 0, "fusion_lat": 0.0, "bike_id": "0ea3ccdd056e3b082014931ead9d0692", "rental_uris": {"ios": "https://dc.lft.to/lastmile_qr_scan", "android": "https://dc.lft.to/lastmile_qr_scan"}}, {"name": "aa613d914b9e99994853d54f75e52aa8", "type": "electric_scooter", "lat": 38.91028, "is_reserved": 0, "lon": -77.03085366666667, "fusion_lon": 0.0, "is_disabled": 0, "fusion_lat": 0.0, "bike_id": "aa613d914b9e99994853d54f75e52aa8", "rental_uris": {"ios": "https://dc.lft.to/lastmile_qr_scan", "android": "https://dc.lft.to/lastmile_qr_scan"}}, {"name": "08f434b1ba0034f8c4f689e86c4e1ee2", "type": "electric_scooter", "lat": 38.880354, "is_reserved": 0, "lon": -76.92721983333334, "fusion_lon": 0.0, "is_disabled": 0, "fusion_lat": 0.0, "bike_id": "08f434b1ba0034f8c4f689e86c4e1ee2", "rental_uris": {"ios": "https://dc.lft.to/lastmile_qr_scan", "android": "https://dc.lft.to/lastmile_qr_scan"}}, {"name": "ce1fbc361b24cf3bf59f2eb67575dfd8", "type": "electric_scooter", "lat": 38.898303, "is_reserved": 0, "lon": -77.03360233333333, "fusion_lon": 0.0, "is_disabled": 0, "fusion_lat": 0.0, "bike_id": "ce1fbc361b24cf3bf59f2eb67575dfd8", "rental_uris": {"ios": "https://dc.lft.to/lastmile_qr_scan", "android": "https://dc.lft.to/lastmile_qr_scan"}}, {"name": "3f6505535550fbe018c193d6d8e2f02b", "type": "electric_scooter", "lat": 38.90542883333333, "is_reserved": 0, "lon": -77.05039266666667, "fusion_lon": 0.0, "is_disabled": 0, "fusion_lat": 0.0, "bike_id": "3f6505535550fbe018c193d6d8e2f02b", "rental_uris": {"ios": "https://dc.lft.to/lastmile_qr_scan", "android": "https://dc.lft.to/lastmile_qr_scan"}}, {"name": "c1afcb403293d54c3bc8d0f57d3247ff", "type": "electric_scooter", "lat": 38.92068283333333, "is_reserved": 0, "lon": -77.04360366666667, "fusion_lon": 0.0, "is_disabled": 0, "fusion_lat": 0.0, "bike_id": "c1afcb403293d54c3bc8d0f57d3247ff", "rental_uris": {"ios": "https://dc.lft.to/lastmile_qr_scan", "android": "https://dc.lft.to/lastmile_qr_scan"}}, {"name": "66f8901629beb7cffd5bdee2bd60ff73", "type": "electric_scooter", "lat": 38.90918766666667, "is_reserved": 0, "lon": -76.992711, "fusion_lon": 0.0, "is_disabled": 0, "fusion_lat": 0.0, "bike_id": "66f8901629beb7cffd5bdee2bd60ff73", "rental_uris": {"ios": "https://dc.lft.to/lastmile_qr_scan", "android": "https://dc.lft.to/lastmile_qr_scan"}}, {"name": "491f6bbb6171b5fd03b3647e2b8f74f6", "type": "electric_bike", "lat": 38.92458533333333, "is_reserved": 0, "lon": -77.20832116666666, "fusion_lon": 0.0, "is_disabled": 0, "fusion_lat": 0.0, "bike_id": "491f6bbb6171b5fd03b3647e2b8f74f6", "rental_uris": {"ios": "https://dc.lft.to/lastmile_qr_scan", "android": "https://dc.lft.to/lastmile_qr_scan"}}, {"name": "39a05bba94b6302e64b2cca1044486ea", "type": "electric_scooter", "lat": 38.90369483333333, "is_reserved": 0, "lon": -77.00748483333334, "fusion_lon": 0.0, "is_disabled": 0, "fusion_lat": 0.0, "bike_id": "39a05bba94b6302e64b2cca1044486ea", "rental_uris": {"ios": "https://dc.lft.to/lastmile_qr_scan", "android": "https://dc.lft.to/lastmile_qr_scan"}}, {"name": "297dad77abee2ab596ff0b4b9b3835c0", "type": "electric_bike", "lat": 38.891889166666665, "is_reserved": 0, "lon": -77.12259733333333, "fusion_lon": 0.0, "is_disabled": 0, "fusion_lat": 0.0, "bike_id": "297dad77abee2ab596ff0b4b9b3835c0", "rental_uris": {"ios": "https://dc.lft.to/lastmile_qr_scan", "android": "https://dc.lft.to/lastmile_qr_scan"}}, {"name": "489f9732326a0c47edc065a87148cbf0", "type": "electric_scooter", "lat": 38.895215, "is_reserved": 0, "lon": -76.99146316666666, "fusion_lon": 0.0, "is_disabled": 0, "fusion_lat": 0.0, "bike_id": "489f9732326a0c47edc065a87148cbf0", "rental_uris": {"ios": "https://dc.lft.to/lastmile_qr_scan", "android": "https://dc.lft.to/lastmile_qr_scan"}}, {"name": "bb5b59997a02bac49140fef1c4ef5b66", "type": "electric_scooter", "lat": 38.92310116666667, "is_reserved": 0, "lon": -77.040383, "fusion_lon": 0.0, "is_disabled": 0, "fusion_lat": 0.0, "bike_id": "bb5b59997a02bac49140fef1c4ef5b66", "rental_uris": {"ios": "https://dc.lft.to/lastmile_qr_scan", "android": "https://dc.lft.to/lastmile_qr_scan"}}, {"name": "eb5437e75c8863e0ccda721489c03a22", "type": "electric_scooter", "lat": 38.898835166666665, "is_reserved": 0, "lon": -76.93171166666667, "fusion_lon": 0.0, "is_disabled": 0, "fusion_lat": 0.0, "bike_id": "eb5437e75c8863e0ccda721489c03a22", "rental_uris": {"ios": "https://dc.lft.to/lastmile_qr_scan", "android": "https://dc.lft.to/lastmile_qr_scan"}}, {"name": "fdccc9cf52971c6823f64cbc1d7d304b", "type": "electric_scooter", "lat": 38.9046565, "is_reserved": 0, "lon": -77.04848516666667, "fusion_lon": 0.0, "is_disabled": 0, "fusion_lat": 0.0, "bike_id": "fdccc9cf52971c6823f64cbc1d7d304b", "rental_uris": {"ios": "https://dc.lft.to/lastmile_qr_scan", "android": "https://dc.lft.to/lastmile_qr_scan"}}, {"name": "f048fd9e26f645aa10a304f5d7931762", "type": "electric_scooter", "lat": 38.942103, "is_reserved": 0, "lon": -77.03592, "fusion_lon": 0.0, "is_disabled": 0, "fusion_lat": 0.0, "bike_id": "f048fd9e26f645aa10a304f5d7931762", "rental_uris": {"ios": "https://dc.lft.to/lastmile_qr_scan", "android": "https://dc.lft.to/lastmile_qr_scan"}}, {"name": "f1c969d47ff67d236c5860544e3a7fe2", "type": "electric_scooter", "lat": 38.9023975, "is_reserved": 0, "lon": -77.01703283333333, "fusion_lon": 0.0, "is_disabled": 0, "fusion_lat": 0.0, "bike_id": "f1c969d47ff67d236c5860544e3a7fe2", "rental_uris": {"ios": "https://dc.lft.to/lastmile_qr_scan", "android": "https://dc.lft.to/lastmile_qr_scan"}}, {"name": "6379170ccf6c88b12d5837cc30edfd6b", "type": "electric_scooter", "lat": 38.9066945, "is_reserved": 0, "lon": -77.03864266666666, "fusion_lon": 0.0, "is_disabled": 0, "fusion_lat": 0.0, "bike_id": "6379170ccf6c88b12d5837cc30edfd6b", "rental_uris": {"ios": "https://dc.lft.to/lastmile_qr_scan", "android": "https://dc.lft.to/lastmile_qr_scan"}}, {"name": "90d547f669667158851e47e8d7ae8da6", "type": "electric_scooter", "lat": 38.921187833333335, "is_reserved": 0, "lon": -77.0365845, "fusion_lon": 0.0, "is_disabled": 0, "fusion_lat": 0.0, "bike_id": "90d547f669667158851e47e8d7ae8da6", "rental_uris": {"ios": "https://dc.lft.to/lastmile_qr_scan", "android": "https://dc.lft.to/lastmile_qr_scan"}}, {"name": "b7fcf6fda0b8b6d3c0aadefbe9ebf791", "type": "electric_scooter", "lat": 38.903609333333335, "is_reserved": 0, "lon": -77.03984, "fusion_lon": 0.0, "is_disabled": 0, "fusion_lat": 0.0, "bike_id": "b7fcf6fda0b8b6d3c0aadefbe9ebf791", "rental_uris": {"ios": "https://dc.lft.to/lastmile_qr_scan", "android": "https://dc.lft.to/lastmile_qr_scan"}}, {"name": "1e09f4ed3af2cd38a7de77b11a6ba84d", "type": "electric_scooter", "lat": 38.8634915, "is_reserved": 0, "lon": -76.99066433333333, "fusion_lon": 0.0, "is_disabled": 0, "fusion_lat": 0.0, "bike_id": "1e09f4ed3af2cd38a7de77b11a6ba84d", "rental_uris": {"ios": "https://dc.lft.to/lastmile_qr_scan", "android": "https://dc.lft.to/lastmile_qr_scan"}}, {"name": "0b36883a09e4a6c82154d93578970e51", "type": "electric_scooter", "lat": 38.892204166666666, "is_reserved": 0, "lon": -77.032103, "fusion_lon": 0.0, "is_disabled": 0, "fusion_lat": 0.0, "bike_id": "0b36883a09e4a6c82154d93578970e51", "rental_uris": {"ios": "https://dc.lft.to/lastmile_qr_scan", "android": "https://dc.lft.to/lastmile_qr_scan"}}, {"name": "da500c75e5ef26a1cede24733292314f", "type": "electric_scooter", "lat": 38.923738, "is_reserved": 0, "lon": -77.03129416666667, "fusion_lon": 0.0, "is_disabled": 0, "fusion_lat": 0.0, "bike_id": "da500c75e5ef26a1cede24733292314f", "rental_uris": {"ios": "https://dc.lft.to/lastmile_qr_scan", "android": "https://dc.lft.to/lastmile_qr_scan"}}, {"name": "de624d99e4653d2dfa398f074aa3362d", "type": "electric_scooter", "lat": 38.902537333333335, "is_reserved": 0, "lon": -77.01774733333333, "fusion_lon": 0.0, "is_disabled": 0, "fusion_lat": 0.0, "bike_id": "de624d99e4653d2dfa398f074aa3362d", "rental_uris": {"ios": "https://dc.lft.to/lastmile_qr_scan", "android": "https://dc.lft.to/lastmile_qr_scan"}}, {"name": "2409df864cf0bc8de0d135d0875c5989", "type": "electric_scooter", "lat": 38.91333133333333, "is_reserved": 0, "lon": -77.04839666666666, "fusion_lon": 0.0, "is_disabled": 0, "fusion_lat": 0.0, "bike_id": "2409df864cf0bc8de0d135d0875c5989", "rental_uris": {"ios": "https://dc.lft.to/lastmile_qr_scan", "android": "https://dc.lft.to/lastmile_qr_scan"}}, {"name": "98f71bd5de0e52672afcc5a7289cfd5b", "type": "electric_scooter", "lat": 38.8783925, "is_reserved": 0, "lon": -76.98844383333333, "fusion_lon": 0.0, "is_disabled": 0, "fusion_lat": 0.0, "bike_id": "98f71bd5de0e52672afcc5a7289cfd5b", "rental_uris": {"ios": "https://dc.lft.to/lastmile_qr_scan", "android": "https://dc.lft.to/lastmile_qr_scan"}}, {"name": "9674c3a25067ba3d1c83e58778082d41", "type": "electric_scooter", "lat": 38.88051333333333, "is_reserved": 0, "lon": -77.0132505, "fusion_lon": 0.0, "is_disabled": 0, "fusion_lat": 0.0, "bike_id": "9674c3a25067ba3d1c83e58778082d41", "rental_uris": {"ios": "https://dc.lft.to/lastmile_qr_scan", "android": "https://dc.lft.to/lastmile_qr_scan"}}, {"name": "a6da2e4f3bc7ab393511bc3203731886", "type": "electric_scooter", "lat": 38.908350666666664, "is_reserved": 0, "lon": -77.02048416666666, "fusion_lon": 0.0, "is_disabled": 0, "fusion_lat": 0.0, "bike_id": "a6da2e4f3bc7ab393511bc3203731886", "rental_uris": {"ios": "https://dc.lft.to/lastmile_qr_scan", "android": "https://dc.lft.to/lastmile_qr_scan"}}, {"name": "0f1521cd677c82ba5d7b00ff87c17b20", "type": "electric_scooter", "lat": 38.92456883333333, "is_reserved": 0, "lon": -76.99894816666666, "fusion_lon": 0.0, "is_disabled": 0, "fusion_lat": 0.0, "bike_id": "0f1521cd677c82ba5d7b00ff87c17b20", "rental_uris": {"ios": "https://dc.lft.to/lastmile_qr_scan", "android": "https://dc.lft.to/lastmile_qr_scan"}}, {"name": "740f9963a89f9cca50ef1059076f2397", "type": "electric_scooter", "lat": 38.9311165, "is_reserved": 0, "lon": -77.0209805, "fusion_lon": 0.0, "is_disabled": 0, "fusion_lat": 0.0, "bike_id": "740f9963a89f9cca50ef1059076f2397", "rental_uris": {"ios": "https://dc.lft.to/lastmile_qr_scan", "android": "https://dc.lft.to/lastmile_qr_scan"}}, {"name": "ca7b5fa234428358c61459bda9b7d2e4", "type": "electric_scooter", "lat": 38.9097825, "is_reserved": 0, "lon": -77.06710066666666, "fusion_lon": 0.0, "is_disabled": 0, "fusion_lat": 0.0, "bike_id": "ca7b5fa234428358c61459bda9b7d2e4", "rental_uris": {"ios": "https://dc.lft.to/lastmile_qr_scan", "android": "https://dc.lft.to/lastmile_qr_scan"}}, {"name": "7033f2337cfa30c813d9b45a6ee87e85", "type": "electric_scooter", "lat": 38.88331216666667, "is_reserved": 0, "lon": -77.0177385, "fusion_lon": 0.0, "is_disabled": 0, "fusion_lat": 0.0, "bike_id": "7033f2337cfa30c813d9b45a6ee87e85", "rental_uris": {"ios": "https://dc.lft.to/lastmile_qr_scan", "android": "https://dc.lft.to/lastmile_qr_scan"}}, {"name": "92ec4160bdd8ccaedabbb756367f103a", "type": "electric_scooter", "lat": 38.91722266666667, "is_reserved": 0, "lon": -77.034609, "fusion_lon": 0.0, "is_disabled": 0, "fusion_lat": 0.0, "bike_id": "92ec4160bdd8ccaedabbb756367f103a", "rental_uris": {"ios": "https://dc.lft.to/lastmile_qr_scan", "android": "https://dc.lft.to/lastmile_qr_scan"}}, {"name": "aadc152403b6c743cab963976b9ccf04", "type": "electric_scooter", "lat": 38.94925533333333, "is_reserved": 0, "lon": -77.0193505, "fusion_lon": 0.0, "is_disabled": 0, "fusion_lat": 0.0, "bike_id": "aadc152403b6c743cab963976b9ccf04", "rental_uris": {"ios": "https://dc.lft.to/lastmile_qr_scan", "android": "https://dc.lft.to/lastmile_qr_scan"}}, {"name": "2dcf2c323776d2950f3de43136306e6e", "type": "electric_scooter", "lat": 38.91487716666666, "is_reserved": 0, "lon": -77.02188066666666, "fusion_lon": 0.0, "is_disabled": 0, "fusion_lat": 0.0, "bike_id": "2dcf2c323776d2950f3de43136306e6e", "rental_uris": {"ios": "https://dc.lft.to/lastmile_qr_scan", "android": "https://dc.lft.to/lastmile_qr_scan"}}, {"name": "0c1c211a38b0df5442a1c41910736b70", "type": "electric_scooter", "lat": 38.90818483333334, "is_reserved": 0, "lon": -77.0003965, "fusion_lon": 0.0, "is_disabled": 0, "fusion_lat": 0.0, "bike_id": "0c1c211a38b0df5442a1c41910736b70", "rental_uris": {"ios": "https://dc.lft.to/lastmile_qr_scan", "android": "https://dc.lft.to/lastmile_qr_scan"}}, {"name": "a2894c72e60c3bd572de8c8c56e33c4a", "type": "electric_scooter", "lat": 38.9071785, "is_reserved": 0, "lon": -77.04173733333333, "fusion_lon": 0.0, "is_disabled": 0, "fusion_lat": 0.0, "bike_id": "a2894c72e60c3bd572de8c8c56e33c4a", "rental_uris": {"ios": "https://dc.lft.to/lastmile_qr_scan", "android": "https://dc.lft.to/lastmile_qr_scan"}}, {"name": "0c793a23a65dcbdfd5ef1b087a33fbda", "type": "electric_scooter", "lat": 38.902350166666665, "is_reserved": 0, "lon": -77.03895233333333, "fusion_lon": 0.0, "is_disabled": 0, "fusion_lat": 0.0, "bike_id": "0c793a23a65dcbdfd5ef1b087a33fbda", "rental_uris": {"ios": "https://dc.lft.to/lastmile_qr_scan", "android": "https://dc.lft.to/lastmile_qr_scan"}}, {"name": "e2de490ec565cb33ad039a2aa639a3bb", "type": "electric_scooter", "lat": 38.909676166666664, "is_reserved": 0, "lon": -77.00766316666666, "fusion_lon": 0.0, "is_disabled": 0, "fusion_lat": 0.0, "bike_id": "e2de490ec565cb33ad039a2aa639a3bb", "rental_uris": {"ios": "https://dc.lft.to/lastmile_qr_scan", "android": "https://dc.lft.to/lastmile_qr_scan"}}, {"name": "f3c656da8c5b3a6f06644a86887c1fba", "type": "electric_scooter", "lat": 38.90965383333333, "is_reserved": 0, "lon": -77.03302583333334, "fusion_lon": 0.0, "is_disabled": 0, "fusion_lat": 0.0, "bike_id": "f3c656da8c5b3a6f06644a86887c1fba", "rental_uris": {"ios": "https://dc.lft.to/lastmile_qr_scan", "android": "https://dc.lft.to/lastmile_qr_scan"}}, {"name": "b887dde3bed2c0505705e01d913cd82e", "type": "electric_scooter", "lat": 38.89185466666667, "is_reserved": 0, "lon": -77.04576283333333, "fusion_lon": 0.0, "is_disabled": 0, "fusion_lat": 0.0, "bike_id": "b887dde3bed2c0505705e01d913cd82e", "rental_uris": {"ios": "https://dc.lft.to/lastmile_qr_scan", "android": "https://dc.lft.to/lastmile_qr_scan"}}, {"name": "a37aca38339490293dc5b27aa692a98b", "type": "electric_scooter", "lat": 38.9320005, "is_reserved": 0, "lon": -77.038766, "fusion_lon": 0.0, "is_disabled": 0, "fusion_lat": 0.0, "bike_id": "a37aca38339490293dc5b27aa692a98b", "rental_uris": {"ios": "https://dc.lft.to/lastmile_qr_scan", "android": "https://dc.lft.to/lastmile_qr_scan"}}, {"name": "7be62e3f49042d39e42c32c89f5174d6", "type": "electric_scooter", "lat": 38.913174166666664, "is_reserved": 0, "lon": -77.03853816666667, "fusion_lon": 0.0, "is_disabled": 0, "fusion_lat": 0.0, "bike_id": "7be62e3f49042d39e42c32c89f5174d6", "rental_uris": {"ios": "https://dc.lft.to/lastmile_qr_scan", "android": "https://dc.lft.to/lastmile_qr_scan"}}, {"name": "d848a1e2f9f3278b85d6d26803c24c18", "type": "electric_scooter", "lat": 38.90401516666667, "is_reserved": 0, "lon": -77.011056, "fusion_lon": 0.0, "is_disabled": 0, "fusion_lat": 0.0, "bike_id": "d848a1e2f9f3278b85d6d26803c24c18", "rental_uris": {"ios": "https://dc.lft.to/lastmile_qr_scan", "android": "https://dc.lft.to/lastmile_qr_scan"}}, {"name": "b48026feb1b3ac23996ad6d2b9cd4076", "type": "electric_scooter", "lat": 38.89533266666667, "is_reserved": 0, "lon": -77.04651, "fusion_lon": 0.0, "is_disabled": 0, "fusion_lat": 0.0, "bike_id": "b48026feb1b3ac23996ad6d2b9cd4076", "rental_uris": {"ios": "https://dc.lft.to/lastmile_qr_scan", "android": "https://dc.lft.to/lastmile_qr_scan"}}, {"name": "5724aa7c2b850dd26eeb4ce0fa13fdb5", "type": "electric_bike", "lat": 38.90686016666667, "is_reserved": 0, "lon": -76.95187083333333, "fusion_lon": 0.0, "is_disabled": 0, "fusion_lat": 0.0, "bike_id": "5724aa7c2b850dd26eeb4ce0fa13fdb5", "rental_uris": {"ios": "https://dc.lft.to/lastmile_qr_scan", "android": "https://dc.lft.to/lastmile_qr_scan"}}, {"name": "d52621dc02c18c1515f305dbd3f326f4", "type": "electric_bike", "lat": 38.80224783333333, "is_reserved": 0, "lon": -77.07916016666667, "fusion_lon": 0.0, "is_disabled": 0, "fusion_lat": 0.0, "bike_id": "d52621dc02c18c1515f305dbd3f326f4", "rental_uris": {"ios": "https://dc.lft.to/lastmile_qr_scan", "android": "https://dc.lft.to/lastmile_qr_scan"}}, {"name": "3f3a8b90f2af60b1e93e2430a4437c07", "type": "electric_scooter", "lat": 38.9444875, "is_reserved": 0, "lon": -77.06354416666667, "fusion_lon": 0.0, "is_disabled": 0, "fusion_lat": 0.0, "bike_id": "3f3a8b90f2af60b1e93e2430a4437c07", "rental_uris": {"ios": "https://dc.lft.to/lastmile_qr_scan", "android": "https://dc.lft.to/lastmile_qr_scan"}}, {"name": "12bf94de5f374b0d30fb18d2f9a6a9ed", "type": "electric_scooter", "lat": 38.90536, "is_reserved": 0, "lon": -77.02175866666667, "fusion_lon": 0.0, "is_disabled": 0, "fusion_lat": 0.0, "bike_id": "12bf94de5f374b0d30fb18d2f9a6a9ed", "rental_uris": {"ios": "https://dc.lft.to/lastmile_qr_scan", "android": "https://dc.lft.to/lastmile_qr_scan"}}, {"name": "437698a2f354e5fbf4ff6ab5f8b60f63", "type": "electric_scooter", "lat": 38.929474166666665, "is_reserved": 0, "lon": -77.04404933333333, "fusion_lon": 0.0, "is_disabled": 0, "fusion_lat": 0.0, "bike_id": "437698a2f354e5fbf4ff6ab5f8b60f63", "rental_uris": {"ios": "https://dc.lft.to/lastmile_qr_scan", "android": "https://dc.lft.to/lastmile_qr_scan"}}, {"name": "9a8dcbf28fa3a188c0e514cec68ae932", "type": "electric_scooter", "lat": 38.90471216666667, "is_reserved": 0, "lon": -77.0463915, "fusion_lon": 0.0, "is_disabled": 0, "fusion_lat": 0.0, "bike_id": "9a8dcbf28fa3a188c0e514cec68ae932", "rental_uris": {"ios": "https://dc.lft.to/lastmile_qr_scan", "android": "https://dc.lft.to/lastmile_qr_scan"}}, {"name": "979406de3455223bf4102299302791c5", "type": "electric_scooter", "lat": 38.901511, "is_reserved": 0, "lon": -77.03325133333334, "fusion_lon": 0.0, "is_disabled": 0, "fusion_lat": 0.0, "bike_id": "979406de3455223bf4102299302791c5", "rental_uris": {"ios": "https://dc.lft.to/lastmile_qr_scan", "android": "https://dc.lft.to/lastmile_qr_scan"}}, {"name": "2c7cc2f08afa5c6b408c246849d10316", "type": "electric_scooter", "lat": 38.922859833333334, "is_reserved": 0, "lon": -77.042541, "fusion_lon": 0.0, "is_disabled": 0, "fusion_lat": 0.0, "bike_id": "2c7cc2f08afa5c6b408c246849d10316", "rental_uris": {"ios": "https://dc.lft.to/lastmile_qr_scan", "android": "https://dc.lft.to/lastmile_qr_scan"}}, {"name": "2426f17f7efd13c930a86b7dd4c62b52", "type": "electric_scooter", "lat": 38.89824633333333, "is_reserved": 0, "lon": -77.03319766666667, "fusion_lon": 0.0, "is_disabled": 0, "fusion_lat": 0.0, "bike_id": "2426f17f7efd13c930a86b7dd4c62b52", "rental_uris": {"ios": "https://dc.lft.to/lastmile_qr_scan", "android": "https://dc.lft.to/lastmile_qr_scan"}}, {"name": "5b7aa81765c6824619e879da8dd5f3fa", "type": "electric_scooter", "lat": 38.89344416666667, "is_reserved": 0, "lon": -76.99143383333333, "fusion_lon": 0.0, "is_disabled": 0, "fusion_lat": 0.0, "bike_id": "5b7aa81765c6824619e879da8dd5f3fa", "rental_uris": {"ios": "https://dc.lft.to/lastmile_qr_scan", "android": "https://dc.lft.to/lastmile_qr_scan"}}, {"name": "7e241de74d818e956c66d1e9e05b341c", "type": "electric_scooter", "lat": 38.903674, "is_reserved": 0, "lon": -77.03855816666666, "fusion_lon": 0.0, "is_disabled": 0, "fusion_lat": 0.0, "bike_id": "7e241de74d818e956c66d1e9e05b341c", "rental_uris": {"ios": "https://dc.lft.to/lastmile_qr_scan", "android": "https://dc.lft.to/lastmile_qr_scan"}}, {"name": "5f42e5ba4f51d55658f6c6f6207bfc36", "type": "electric_scooter", "lat": 38.932020333333334, "is_reserved": 0, "lon": -77.03850116666666, "fusion_lon": 0.0, "is_disabled": 0, "fusion_lat": 0.0, "bike_id": "5f42e5ba4f51d55658f6c6f6207bfc36", "rental_uris": {"ios": "https://dc.lft.to/lastmile_qr_scan", "android": "https://dc.lft.to/lastmile_qr_scan"}}, {"name": "37258c18a08817813d206b9ac2c8e640", "type": "electric_scooter", "lat": 38.883940833333334, "is_reserved": 0, "lon": -77.017597, "fusion_lon": 0.0, "is_disabled": 0, "fusion_lat": 0.0, "bike_id": "37258c18a08817813d206b9ac2c8e640", "rental_uris": {"ios": "https://dc.lft.to/lastmile_qr_scan", "android": "https://dc.lft.to/lastmile_qr_scan"}}, {"name": "8347504d3e8bf09f94b0d6eec9ed62da", "type": "electric_scooter", "lat": 38.924701166666665, "is_reserved": 0, "lon": -77.02827916666666, "fusion_lon": 0.0, "is_disabled": 0, "fusion_lat": 0.0, "bike_id": "8347504d3e8bf09f94b0d6eec9ed62da", "rental_uris": {"ios": "https://dc.lft.to/lastmile_qr_scan", "android": "https://dc.lft.to/lastmile_qr_scan"}}, {"name": "27af7d94fb3a7cb836b4e666c55aa92e", "type": "electric_scooter", "lat": 38.928657666666666, "is_reserved": 0, "lon": -77.0347315, "fusion_lon": 0.0, "is_disabled": 0, "fusion_lat": 0.0, "bike_id": "27af7d94fb3a7cb836b4e666c55aa92e", "rental_uris": {"ios": "https://dc.lft.to/lastmile_qr_scan", "android": "https://dc.lft.to/lastmile_qr_scan"}}, {"name": "d5984689f467e63a27449b9cb5b7a505", "type": "electric_scooter", "lat": 38.8947265, "is_reserved": 0, "lon": -76.995363, "fusion_lon": 0.0, "is_disabled": 0, "fusion_lat": 0.0, "bike_id": "d5984689f467e63a27449b9cb5b7a505", "rental_uris": {"ios": "https://dc.lft.to/lastmile_qr_scan", "android": "https://dc.lft.to/lastmile_qr_scan"}}, {"name": "904d5d5a5c7431ba35f6f008a0bfa60f", "type": "electric_scooter", "lat": 38.87913433333333, "is_reserved": 0, "lon": -77.01732483333333, "fusion_lon": 0.0, "is_disabled": 0, "fusion_lat": 0.0, "bike_id": "904d5d5a5c7431ba35f6f008a0bfa60f", "rental_uris": {"ios": "https://dc.lft.to/lastmile_qr_scan", "android": "https://dc.lft.to/lastmile_qr_scan"}}, {"name": "13a835c1a9a6a333fb7f2b449c0d0bee", "type": "electric_scooter", "lat": 38.89393833333333, "is_reserved": 0, "lon": -77.0235745, "fusion_lon": 0.0, "is_disabled": 0, "fusion_lat": 0.0, "bike_id": "13a835c1a9a6a333fb7f2b449c0d0bee", "rental_uris": {"ios": "https://dc.lft.to/lastmile_qr_scan", "android": "https://dc.lft.to/lastmile_qr_scan"}}, {"name": "2b07536d19a3433dffafea4d40ddebd4", "type": "electric_bike", "lat": 38.9085755, "is_reserved": 0, "lon": -77.08073233333333, "fusion_lon": 0.0, "is_disabled": 0, "fusion_lat": 0.0, "bike_id": "2b07536d19a3433dffafea4d40ddebd4", "rental_uris": {"ios": "https://dc.lft.to/lastmile_qr_scan", "android": "https://dc.lft.to/lastmile_qr_scan"}}, {"name": "61ad46789cb75576a2208cfdcc009cd9", "type": "electric_scooter", "lat": 38.9050505, "is_reserved": 0, "lon": -77.053093, "fusion_lon": 0.0, "is_disabled": 0, "fusion_lat": 0.0, "bike_id": "61ad46789cb75576a2208cfdcc009cd9", "rental_uris": {"ios": "https://dc.lft.to/lastmile_qr_scan", "android": "https://dc.lft.to/lastmile_qr_scan"}}, {"name": "fa47e1ec1c2cfd9fac2adb6e97eb21d6", "type": "electric_scooter", "lat": 38.8922465, "is_reserved": 0, "lon": -77.04331533333334, "fusion_lon": 0.0, "is_disabled": 0, "fusion_lat": 0.0, "bike_id": "fa47e1ec1c2cfd9fac2adb6e97eb21d6", "rental_uris": {"ios": "https://dc.lft.to/lastmile_qr_scan", "android": "https://dc.lft.to/lastmile_qr_scan"}}, {"name": "c70a27bddafe591f808be39f2fbd09d7", "type": "electric_scooter", "lat": 38.86654266666667, "is_reserved": 0, "lon": -76.988818, "fusion_lon": 0.0, "is_disabled": 0, "fusion_lat": 0.0, "bike_id": "c70a27bddafe591f808be39f2fbd09d7", "rental_uris": {"ios": "https://dc.lft.to/lastmile_qr_scan", "android": "https://dc.lft.to/lastmile_qr_scan"}}, {"name": "8e4d624f0904c9cae83c8d6f6c34b9ad", "type": "electric_scooter", "lat": 38.90615066666667, "is_reserved": 0, "lon": -77.07488466666666, "fusion_lon": 0.0, "is_disabled": 0, "fusion_lat": 0.0, "bike_id": "8e4d624f0904c9cae83c8d6f6c34b9ad", "rental_uris": {"ios": "https://dc.lft.to/lastmile_qr_scan", "android": "https://dc.lft.to/lastmile_qr_scan"}}, {"name": "9e033c486e086ff8f4c1c287705fc2f5", "type": "electric_scooter", "lat": 38.896064333333335, "is_reserved": 0, "lon": -77.00925116666667, "fusion_lon": 0.0, "is_disabled": 0, "fusion_lat": 0.0, "bike_id": "9e033c486e086ff8f4c1c287705fc2f5", "rental_uris": {"ios": "https://dc.lft.to/lastmile_qr_scan", "android": "https://dc.lft.to/lastmile_qr_scan"}}, {"name": "838eb3ef0b1324bbf519ce92e20d6305", "type": "electric_scooter", "lat": 38.92510816666667, "is_reserved": 0, "lon": -77.00173166666667, "fusion_lon": 0.0, "is_disabled": 0, "fusion_lat": 0.0, "bike_id": "838eb3ef0b1324bbf519ce92e20d6305", "rental_uris": {"ios": "https://dc.lft.to/lastmile_qr_scan", "android": "https://dc.lft.to/lastmile_qr_scan"}}, {"name": "c8c7353b26b80d96c7946236c4ec182c", "type": "electric_scooter", "lat": 38.92743766666667, "is_reserved": 0, "lon": -77.0162945, "fusion_lon": 0.0, "is_disabled": 0, "fusion_lat": 0.0, "bike_id": "c8c7353b26b80d96c7946236c4ec182c", "rental_uris": {"ios": "https://dc.lft.to/lastmile_qr_scan", "android": "https://dc.lft.to/lastmile_qr_scan"}}, {"name": "a98e6e06e48c7bdfd18894ddfc57f826", "type": "electric_scooter", "lat": 38.883739166666665, "is_reserved": 0, "lon": -76.92370883333334, "fusion_lon": 0.0, "is_disabled": 0, "fusion_lat": 0.0, "bike_id": "a98e6e06e48c7bdfd18894ddfc57f826", "rental_uris": {"ios": "https://dc.lft.to/lastmile_qr_scan", "android": "https://dc.lft.to/lastmile_qr_scan"}}, {"name": "828a46dea96df454884a03298791f21d", "type": "electric_scooter", "lat": 38.92025183333333, "is_reserved": 0, "lon": -77.0386815, "fusion_lon": 0.0, "is_disabled": 0, "fusion_lat": 0.0, "bike_id": "828a46dea96df454884a03298791f21d", "rental_uris": {"ios": "https://dc.lft.to/lastmile_qr_scan", "android": "https://dc.lft.to/lastmile_qr_scan"}}, {"name": "39f44014cd5767a3810d12d2c3eaee96", "type": "electric_scooter", "lat": 38.90734916666667, "is_reserved": 0, "lon": -77.03441, "fusion_lon": 0.0, "is_disabled": 0, "fusion_lat": 0.0, "bike_id": "39f44014cd5767a3810d12d2c3eaee96", "rental_uris": {"ios": "https://dc.lft.to/lastmile_qr_scan", "android": "https://dc.lft.to/lastmile_qr_scan"}}, {"name": "848904b07a56428cbdd64eca708fd161", "type": "electric_scooter", "lat": 38.915460333333336, "is_reserved": 0, "lon": -77.03842766666666, "fusion_lon": 0.0, "is_disabled": 0, "fusion_lat": 0.0, "bike_id": "848904b07a56428cbdd64eca708fd161", "rental_uris": {"ios": "https://dc.lft.to/lastmile_qr_scan", "android": "https://dc.lft.to/lastmile_qr_scan"}}, {"name": "b454c1837bfb070b01bcfc316dffc531", "type": "electric_scooter", "lat": 38.9235325, "is_reserved": 0, "lon": -77.05832133333334, "fusion_lon": 0.0, "is_disabled": 0, "fusion_lat": 0.0, "bike_id": "b454c1837bfb070b01bcfc316dffc531", "rental_uris": {"ios": "https://dc.lft.to/lastmile_qr_scan", "android": "https://dc.lft.to/lastmile_qr_scan"}}, {"name": "9d4ba0f69c2a10bf6dacdf07d240976a", "type": "electric_scooter", "lat": 38.919566833333334, "is_reserved": 0, "lon": -77.03375816666667, "fusion_lon": 0.0, "is_disabled": 0, "fusion_lat": 0.0, "bike_id": "9d4ba0f69c2a10bf6dacdf07d240976a", "rental_uris": {"ios": "https://dc.lft.to/lastmile_qr_scan", "android": "https://dc.lft.to/lastmile_qr_scan"}}, {"name": "a76439e7b02234dd337ada2b70809910", "type": "electric_scooter", "lat": 38.91261333333333, "is_reserved": 0, "lon": -77.03720116666666, "fusion_lon": 0.0, "is_disabled": 0, "fusion_lat": 0.0, "bike_id": "a76439e7b02234dd337ada2b70809910", "rental_uris": {"ios": "https://dc.lft.to/lastmile_qr_scan", "android": "https://dc.lft.to/lastmile_qr_scan"}}, {"name": "10c70c884b09b4eba5c69a4af0e6ce26", "type": "electric_scooter", "lat": 38.925134166666666, "is_reserved": 0, "lon": -77.03314833333333, "fusion_lon": 0.0, "is_disabled": 0, "fusion_lat": 0.0, "bike_id": "10c70c884b09b4eba5c69a4af0e6ce26", "rental_uris": {"ios": "https://dc.lft.to/lastmile_qr_scan", "android": "https://dc.lft.to/lastmile_qr_scan"}}, {"name": "b3e367d995b22f6dcd89d03a760c277b", "type": "electric_scooter", "lat": 38.9322375, "is_reserved": 0, "lon": -77.03549633333333, "fusion_lon": 0.0, "is_disabled": 0, "fusion_lat": 0.0, "bike_id": "b3e367d995b22f6dcd89d03a760c277b", "rental_uris": {"ios": "https://dc.lft.to/lastmile_qr_scan", "android": "https://dc.lft.to/lastmile_qr_scan"}}, {"name": "8ce0e1bfe883d0800781181af596dd28", "type": "electric_bike", "lat": 38.838586, "is_reserved": 0, "lon": -77.08856916666667, "fusion_lon": 0.0, "is_disabled": 0, "fusion_lat": 0.0, "bike_id": "8ce0e1bfe883d0800781181af596dd28", "rental_uris": {"ios": "https://dc.lft.to/lastmile_qr_scan", "android": "https://dc.lft.to/lastmile_qr_scan"}}, {"name": "6c6ebe18433e749dfde6dde09c0ca435", "type": "electric_scooter", "lat": 38.889344666666666, "is_reserved": 0, "lon": -76.9481185, "fusion_lon": 0.0, "is_disabled": 0, "fusion_lat": 0.0, "bike_id": "6c6ebe18433e749dfde6dde09c0ca435", "rental_uris": {"ios": "https://dc.lft.to/lastmile_qr_scan", "android": "https://dc.lft.to/lastmile_qr_scan"}}, {"name": "7d72e81c2053658c23c634ea17bbeaeb", "type": "electric_bike", "lat": 38.9007365, "is_reserved": 0, "lon": -76.98005883333333, "fusion_lon": 0.0, "is_disabled": 0, "fusion_lat": 0.0, "bike_id": "7d72e81c2053658c23c634ea17bbeaeb", "rental_uris": {"ios": "https://dc.lft.to/lastmile_qr_scan", "android": "https://dc.lft.to/lastmile_qr_scan"}}, {"name": "f731c82988f832c1cf912fb162a412dc", "type": "electric_scooter", "lat": 38.929069, "is_reserved": 0, "lon": -77.02186616666667, "fusion_lon": 0.0, "is_disabled": 0, "fusion_lat": 0.0, "bike_id": "f731c82988f832c1cf912fb162a412dc", "rental_uris": {"ios": "https://dc.lft.to/lastmile_qr_scan", "android": "https://dc.lft.to/lastmile_qr_scan"}}, {"name": "e0b176d1c73d1a78f17440a06558a56c", "type": "electric_scooter", "lat": 38.90033533333333, "is_reserved": 0, "lon": -77.00198433333334, "fusion_lon": 0.0, "is_disabled": 0, "fusion_lat": 0.0, "bike_id": "e0b176d1c73d1a78f17440a06558a56c", "rental_uris": {"ios": "https://dc.lft.to/lastmile_qr_scan", "android": "https://dc.lft.to/lastmile_qr_scan"}}, {"name": "3259b2db26f4c88744c86c28e4c45230", "type": "electric_scooter", "lat": 38.90412516666667, "is_reserved": 0, "lon": -77.029353, "fusion_lon": 0.0, "is_disabled": 0, "fusion_lat": 0.0, "bike_id": "3259b2db26f4c88744c86c28e4c45230", "rental_uris": {"ios": "https://dc.lft.to/lastmile_qr_scan", "android": "https://dc.lft.to/lastmile_qr_scan"}}, {"name": "75e5aff0565db8c3aa0b028e7bbabe8c", "type": "electric_scooter", "lat": 38.90027, "is_reserved": 0, "lon": -76.99450916666666, "fusion_lon": 0.0, "is_disabled": 0, "fusion_lat": 0.0, "bike_id": "75e5aff0565db8c3aa0b028e7bbabe8c", "rental_uris": {"ios": "https://dc.lft.to/lastmile_qr_scan", "android": "https://dc.lft.to/lastmile_qr_scan"}}, {"name": "a9f4df6b738e406e21a4e63e0415ea64", "type": "electric_bike", "lat": 38.973218833333334, "is_reserved": 0, "lon": -77.02143333333333, "fusion_lon": 0.0, "is_disabled": 0, "fusion_lat": 0.0, "bike_id": "a9f4df6b738e406e21a4e63e0415ea64", "rental_uris": {"ios": "https://dc.lft.to/lastmile_qr_scan", "android": "https://dc.lft.to/lastmile_qr_scan"}}, {"name": "97536daf5f6b8a3ab417834682f811ca", "type": "electric_scooter", "lat": 38.9032215, "is_reserved": 0, "lon": -77.03823766666666, "fusion_lon": 0.0, "is_disabled": 0, "fusion_lat": 0.0, "bike_id": "97536daf5f6b8a3ab417834682f811ca", "rental_uris": {"ios": "https://dc.lft.to/lastmile_qr_scan", "android": "https://dc.lft.to/lastmile_qr_scan"}}, {"name": "b3d565183134f3b670efd3b5ff5c8d89", "type": "electric_scooter", "lat": 38.9214585, "is_reserved": 0, "lon": -77.03449633333334, "fusion_lon": 0.0, "is_disabled": 0, "fusion_lat": 0.0, "bike_id": "b3d565183134f3b670efd3b5ff5c8d89", "rental_uris": {"ios": "https://dc.lft.to/lastmile_qr_scan", "android": "https://dc.lft.to/lastmile_qr_scan"}}, {"name": "bb718c5b4738debcee094f661af3a2a3", "type": "electric_scooter", "lat": 38.85448816666667, "is_reserved": 0, "lon": -76.9857775, "fusion_lon": 0.0, "is_disabled": 0, "fusion_lat": 0.0, "bike_id": "bb718c5b4738debcee094f661af3a2a3", "rental_uris": {"ios": "https://dc.lft.to/lastmile_qr_scan", "android": "https://dc.lft.to/lastmile_qr_scan"}}, {"name": "31a63a5cae1dbdeb7465a920fcde05a3", "type": "electric_scooter", "lat": 38.94097333333333, "is_reserved": 0, "lon": -77.02105133333333, "fusion_lon": 0.0, "is_disabled": 0, "fusion_lat": 0.0, "bike_id": "31a63a5cae1dbdeb7465a920fcde05a3", "rental_uris": {"ios": "https://dc.lft.to/lastmile_qr_scan", "android": "https://dc.lft.to/lastmile_qr_scan"}}, {"name": "997b42e410a6d552ed0dad6855995eb3", "type": "electric_scooter", "lat": 38.91865216666667, "is_reserved": 0, "lon": -77.04352416666667, "fusion_lon": 0.0, "is_disabled": 0, "fusion_lat": 0.0, "bike_id": "997b42e410a6d552ed0dad6855995eb3", "rental_uris": {"ios": "https://dc.lft.to/lastmile_qr_scan", "android": "https://dc.lft.to/lastmile_qr_scan"}}, {"name": "dca4fb3d1b476adf3c85b1dc126fc378", "type": "electric_scooter", "lat": 38.92476466666667, "is_reserved": 0, "lon": -77.02832183333334, "fusion_lon": 0.0, "is_disabled": 0, "fusion_lat": 0.0, "bike_id": "dca4fb3d1b476adf3c85b1dc126fc378", "rental_uris": {"ios": "https://dc.lft.to/lastmile_qr_scan", "android": "https://dc.lft.to/lastmile_qr_scan"}}, {"name": "b28c7476aa2a4aeb733597a45c57bb10", "type": "electric_scooter", "lat": 38.8784715, "is_reserved": 0, "lon": -77.0196035, "fusion_lon": 0.0, "is_disabled": 0, "fusion_lat": 0.0, "bike_id": "b28c7476aa2a4aeb733597a45c57bb10", "rental_uris": {"ios": "https://dc.lft.to/lastmile_qr_scan", "android": "https://dc.lft.to/lastmile_qr_scan"}}, {"name": "6244a7d2fb206ffafd90360717e1bd02", "type": "electric_scooter", "lat": 38.92877033333333, "is_reserved": 0, "lon": -77.03755716666667, "fusion_lon": 0.0, "is_disabled": 0, "fusion_lat": 0.0, "bike_id": "6244a7d2fb206ffafd90360717e1bd02", "rental_uris": {"ios": "https://dc.lft.to/lastmile_qr_scan", "android": "https://dc.lft.to/lastmile_qr_scan"}}, {"name": "ffac73220b7fd092c8ceb202bec2415e", "type": "electric_scooter", "lat": 38.899664666666666, "is_reserved": 0, "lon": -77.0312415, "fusion_lon": 0.0, "is_disabled": 0, "fusion_lat": 0.0, "bike_id": "ffac73220b7fd092c8ceb202bec2415e", "rental_uris": {"ios": "https://dc.lft.to/lastmile_qr_scan", "android": "https://dc.lft.to/lastmile_qr_scan"}}, {"name": "c72d5b818c8f7dc7f46ecab6d317d5a1", "type": "electric_scooter", "lat": 38.8722625, "is_reserved": 0, "lon": -77.01162766666667, "fusion_lon": 0.0, "is_disabled": 0, "fusion_lat": 0.0, "bike_id": "c72d5b818c8f7dc7f46ecab6d317d5a1", "rental_uris": {"ios": "https://dc.lft.to/lastmile_qr_scan", "android": "https://dc.lft.to/lastmile_qr_scan"}}, {"name": "61a5722e8b6cfee0f3ad762233fb25c1", "type": "electric_bike", "lat": 38.959069166666666, "is_reserved": 0, "lon": -77.00152033333333, "fusion_lon": 0.0, "is_disabled": 0, "fusion_lat": 0.0, "bike_id": "61a5722e8b6cfee0f3ad762233fb25c1", "rental_uris": {"ios": "https://dc.lft.to/lastmile_qr_scan", "android": "https://dc.lft.to/lastmile_qr_scan"}}, {"name": "adfce45e538a89d2a81a47c7208261ce", "type": "electric_scooter", "lat": 38.903894333333334, "is_reserved": 0, "lon": -77.04018116666667, "fusion_lon": 0.0, "is_disabled": 0, "fusion_lat": 0.0, "bike_id": "adfce45e538a89d2a81a47c7208261ce", "rental_uris": {"ios": "https://dc.lft.to/lastmile_qr_scan", "android": "https://dc.lft.to/lastmile_qr_scan"}}, {"name": "9add5e47c49f0b6dcbd1236b9818830f", "type": "electric_scooter", "lat": 38.842858666666665, "is_reserved": 0, "lon": -76.99937483333333, "fusion_lon": 0.0, "is_disabled": 0, "fusion_lat": 0.0, "bike_id": "9add5e47c49f0b6dcbd1236b9818830f", "rental_uris": {"ios": "https://dc.lft.to/lastmile_qr_scan", "android": "https://dc.lft.to/lastmile_qr_scan"}}, {"name": "736954f3848609565c2cf429697633a9", "type": "electric_scooter", "lat": 38.93297783333333, "is_reserved": 0, "lon": -77.0279805, "fusion_lon": 0.0, "is_disabled": 0, "fusion_lat": 0.0, "bike_id": "736954f3848609565c2cf429697633a9", "rental_uris": {"ios": "https://dc.lft.to/lastmile_qr_scan", "android": "https://dc.lft.to/lastmile_qr_scan"}}, {"name": "a9dd0aed3f300ebf1950fd2994757c47", "type": "electric_scooter", "lat": 38.974737166666664, "is_reserved": 0, "lon": -77.01892183333334, "fusion_lon": 0.0, "is_disabled": 0, "fusion_lat": 0.0, "bike_id": "a9dd0aed3f300ebf1950fd2994757c47", "rental_uris": {"ios": "https://dc.lft.to/lastmile_qr_scan", "android": "https://dc.lft.to/lastmile_qr_scan"}}, {"name": "016238caec614fcbfaa02b6da914124d", "type": "electric_bike", "lat": 38.857981833333334, "is_reserved": 0, "lon": -76.98751816666666, "fusion_lon": 0.0, "is_disabled": 0, "fusion_lat": 0.0, "bike_id": "016238caec614fcbfaa02b6da914124d", "rental_uris": {"ios": "https://dc.lft.to/lastmile_qr_scan", "android": "https://dc.lft.to/lastmile_qr_scan"}}, {"name": "7206b8081260af8957f052ac570e31ff", "type": "electric_scooter", "lat": 38.95279466666667, "is_reserved": 0, "lon": -77.068249, "fusion_lon": 0.0, "is_disabled": 0, "fusion_lat": 0.0, "bike_id": "7206b8081260af8957f052ac570e31ff", "rental_uris": {"ios": "https://dc.lft.to/lastmile_qr_scan", "android": "https://dc.lft.to/lastmile_qr_scan"}}, {"name": "59c112dbc28e32c70db2d1f755c98d6d", "type": "electric_scooter", "lat": 38.89753483333333, "is_reserved": 0, "lon": -77.0516, "fusion_lon": 0.0, "is_disabled": 0, "fusion_lat": 0.0, "bike_id": "59c112dbc28e32c70db2d1f755c98d6d", "rental_uris": {"ios": "https://dc.lft.to/lastmile_qr_scan", "android": "https://dc.lft.to/lastmile_qr_scan"}}, {"name": "d1c78f0e8ee9bec302022cc700fdbb2c", "type": "electric_scooter", "lat": 38.920298333333335, "is_reserved": 0, "lon": -77.01116533333334, "fusion_lon": 0.0, "is_disabled": 0, "fusion_lat": 0.0, "bike_id": "d1c78f0e8ee9bec302022cc700fdbb2c", "rental_uris": {"ios": "https://dc.lft.to/lastmile_qr_scan", "android": "https://dc.lft.to/lastmile_qr_scan"}}, {"name": "c73dc449d1921fb9cd5afed50754d916", "type": "electric_scooter", "lat": 38.91553316666667, "is_reserved": 0, "lon": -77.07275066666666, "fusion_lon": 0.0, "is_disabled": 0, "fusion_lat": 0.0, "bike_id": "c73dc449d1921fb9cd5afed50754d916", "rental_uris": {"ios": "https://dc.lft.to/lastmile_qr_scan", "android": "https://dc.lft.to/lastmile_qr_scan"}}, {"name": "90e0caeb50db4c63323ac43455e9dd96", "type": "electric_scooter", "lat": 38.901223333333334, "is_reserved": 0, "lon": -77.04441, "fusion_lon": 0.0, "is_disabled": 0, "fusion_lat": 0.0, "bike_id": "90e0caeb50db4c63323ac43455e9dd96", "rental_uris": {"ios": "https://dc.lft.to/lastmile_qr_scan", "android": "https://dc.lft.to/lastmile_qr_scan"}}, {"name": "662831b41f8710053372001f35aca295", "type": "electric_scooter", "lat": 38.90622233333333, "is_reserved": 0, "lon": -77.0513015, "fusion_lon": 0.0, "is_disabled": 0, "fusion_lat": 0.0, "bike_id": "662831b41f8710053372001f35aca295", "rental_uris": {"ios": "https://dc.lft.to/lastmile_qr_scan", "android": "https://dc.lft.to/lastmile_qr_scan"}}, {"name": "51e2cc4c645c4ad525f90c8bff997dd2", "type": "electric_scooter", "lat": 38.906557666666664, "is_reserved": 0, "lon": -77.05132133333333, "fusion_lon": 0.0, "is_disabled": 0, "fusion_lat": 0.0, "bike_id": "51e2cc4c645c4ad525f90c8bff997dd2", "rental_uris": {"ios": "https://dc.lft.to/lastmile_qr_scan", "android": "https://dc.lft.to/lastmile_qr_scan"}}, {"name": "32edcf3de0f8227b2cbf58dbce09630a", "type": "electric_scooter", "lat": 38.9301005, "is_reserved": 0, "lon": -77.02328016666667, "fusion_lon": 0.0, "is_disabled": 0, "fusion_lat": 0.0, "bike_id": "32edcf3de0f8227b2cbf58dbce09630a", "rental_uris": {"ios": "https://dc.lft.to/lastmile_qr_scan", "android": "https://dc.lft.to/lastmile_qr_scan"}}, {"name": "fccf026c4c4b9e505d3c383d5ec216ff", "type": "electric_scooter", "lat": 38.900109666666665, "is_reserved": 0, "lon": -77.04048883333333, "fusion_lon": 0.0, "is_disabled": 0, "fusion_lat": 0.0, "bike_id": "fccf026c4c4b9e505d3c383d5ec216ff", "rental_uris": {"ios": "https://dc.lft.to/lastmile_qr_scan", "android": "https://dc.lft.to/lastmile_qr_scan"}}, {"name": "dc5efe01990bc7bd61e2db46c9e371a1", "type": "electric_scooter", "lat": 38.905694, "is_reserved": 0, "lon": -77.03441083333334, "fusion_lon": 0.0, "is_disabled": 0, "fusion_lat": 0.0, "bike_id": "dc5efe01990bc7bd61e2db46c9e371a1", "rental_uris": {"ios": "https://dc.lft.to/lastmile_qr_scan", "android": "https://dc.lft.to/lastmile_qr_scan"}}, {"name": "b270732e0a96fd228d4c027d51a6e95b", "type": "electric_scooter", "lat": 38.90009933333333, "is_reserved": 0, "lon": -77.0120745, "fusion_lon": 0.0, "is_disabled": 0, "fusion_lat": 0.0, "bike_id": "b270732e0a96fd228d4c027d51a6e95b", "rental_uris": {"ios": "https://dc.lft.to/lastmile_qr_scan", "android": "https://dc.lft.to/lastmile_qr_scan"}}, {"name": "c418fc05e7118cc6b30d064f242b6c38", "type": "electric_scooter", "lat": 38.907357, "is_reserved": 0, "lon": -77.04140733333334, "fusion_lon": 0.0, "is_disabled": 0, "fusion_lat": 0.0, "bike_id": "c418fc05e7118cc6b30d064f242b6c38", "rental_uris": {"ios": "https://dc.lft.to/lastmile_qr_scan", "android": "https://dc.lft.to/lastmile_qr_scan"}}, {"name": "60693c7c6b136c9be37a85e3ef5e9850", "type": "electric_scooter", "lat": 38.897233, "is_reserved": 0, "lon": -77.04331416666666, "fusion_lon": 0.0, "is_disabled": 0, "fusion_lat": 0.0, "bike_id": "60693c7c6b136c9be37a85e3ef5e9850", "rental_uris": {"ios": "https://dc.lft.to/lastmile_qr_scan", "android": "https://dc.lft.to/lastmile_qr_scan"}}, {"name": "ccb449c9cf935574da6a912f8af6cdf7", "type": "electric_scooter", "lat": 38.91910083333333, "is_reserved": 0, "lon": -77.0247305, "fusion_lon": 0.0, "is_disabled": 0, "fusion_lat": 0.0, "bike_id": "ccb449c9cf935574da6a912f8af6cdf7", "rental_uris": {"ios": "https://dc.lft.to/lastmile_qr_scan", "android": "https://dc.lft.to/lastmile_qr_scan"}}, {"name": "569c7097eac0a78c2bd52b906a11b14a", "type": "electric_bike", "lat": 38.936871333333336, "is_reserved": 0, "lon": -77.0564425, "fusion_lon": 0.0, "is_disabled": 0, "fusion_lat": 0.0, "bike_id": "569c7097eac0a78c2bd52b906a11b14a", "rental_uris": {"ios": "https://dc.lft.to/lastmile_qr_scan", "android": "https://dc.lft.to/lastmile_qr_scan"}}, {"name": "89797207a00f7cefbaaf1e9cc6a8dd21", "type": "electric_scooter", "lat": 38.8960495, "is_reserved": 0, "lon": -77.04503733333334, "fusion_lon": 0.0, "is_disabled": 0, "fusion_lat": 0.0, "bike_id": "89797207a00f7cefbaaf1e9cc6a8dd21", "rental_uris": {"ios": "https://dc.lft.to/lastmile_qr_scan", "android": "https://dc.lft.to/lastmile_qr_scan"}}, {"name": "104468606078d2a052a82526fb494b10", "type": "electric_bike", "lat": 38.936997833333336, "is_reserved": 0, "lon": -77.02977283333334, "fusion_lon": 0.0, "is_disabled": 0, "fusion_lat": 0.0, "bike_id": "104468606078d2a052a82526fb494b10", "rental_uris": {"ios": "https://dc.lft.to/lastmile_qr_scan", "android": "https://dc.lft.to/lastmile_qr_scan"}}, {"name": "d48a2273e0cc1595ba1d0e9a60cec4c0", "type": "electric_scooter", "lat": 38.86093566666667, "is_reserved": 0, "lon": -76.98377366666666, "fusion_lon": 0.0, "is_disabled": 0, "fusion_lat": 0.0, "bike_id": "d48a2273e0cc1595ba1d0e9a60cec4c0", "rental_uris": {"ios": "https://dc.lft.to/lastmile_qr_scan", "android": "https://dc.lft.to/lastmile_qr_scan"}}, {"name": "bb20926ea941a9b3f0bff9f8bf337d81", "type": "electric_scooter", "lat": 38.895113333333335, "is_reserved": 0, "lon": -77.02258666666667, "fusion_lon": 0.0, "is_disabled": 0, "fusion_lat": 0.0, "bike_id": "bb20926ea941a9b3f0bff9f8bf337d81", "rental_uris": {"ios": "https://dc.lft.to/lastmile_qr_scan", "android": "https://dc.lft.to/lastmile_qr_scan"}}, {"name": "cdf8cee44a3fd679c410a6237d022d9e", "type": "electric_scooter", "lat": 38.902408, "is_reserved": 0, "lon": -77.00200416666667, "fusion_lon": 0.0, "is_disabled": 0, "fusion_lat": 0.0, "bike_id": "cdf8cee44a3fd679c410a6237d022d9e", "rental_uris": {"ios": "https://dc.lft.to/lastmile_qr_scan", "android": "https://dc.lft.to/lastmile_qr_scan"}}, {"name": "72b530d21dd5c618133404f54421306d", "type": "electric_scooter", "lat": 38.890999666666666, "is_reserved": 0, "lon": -76.987044, "fusion_lon": 0.0, "is_disabled": 0, "fusion_lat": 0.0, "bike_id": "72b530d21dd5c618133404f54421306d", "rental_uris": {"ios": "https://dc.lft.to/lastmile_qr_scan", "android": "https://dc.lft.to/lastmile_qr_scan"}}, {"name": "5db9c0a3dacbc6364a49356c5e36a00a", "type": "electric_scooter", "lat": 38.91569616666666, "is_reserved": 0, "lon": -77.04607016666667, "fusion_lon": 0.0, "is_disabled": 0, "fusion_lat": 0.0, "bike_id": "5db9c0a3dacbc6364a49356c5e36a00a", "rental_uris": {"ios": "https://dc.lft.to/lastmile_qr_scan", "android": "https://dc.lft.to/lastmile_qr_scan"}}, {"name": "78444e936698998c28400750cae6b3e2", "type": "electric_bike", "lat": 38.870831, "is_reserved": 0, "lon": -77.012169, "fusion_lon": 0.0, "is_disabled": 0, "fusion_lat": 0.0, "bike_id": "78444e936698998c28400750cae6b3e2", "rental_uris": {"ios": "https://dc.lft.to/lastmile_qr_scan", "android": "https://dc.lft.to/lastmile_qr_scan"}}, {"name": "2631efbe575eaac755380989219ac8e4", "type": "electric_scooter", "lat": 38.91476133333333, "is_reserved": 0, "lon": -77.024402, "fusion_lon": 0.0, "is_disabled": 0, "fusion_lat": 0.0, "bike_id": "2631efbe575eaac755380989219ac8e4", "rental_uris": {"ios": "https://dc.lft.to/lastmile_qr_scan", "android": "https://dc.lft.to/lastmile_qr_scan"}}, {"name": "0ddd20e8b44683b9906218ecf478aa9b", "type": "electric_scooter", "lat": 38.913372, "is_reserved": 0, "lon": -77.03169883333334, "fusion_lon": 0.0, "is_disabled": 0, "fusion_lat": 0.0, "bike_id": "0ddd20e8b44683b9906218ecf478aa9b", "rental_uris": {"ios": "https://dc.lft.to/lastmile_qr_scan", "android": "https://dc.lft.to/lastmile_qr_scan"}}, {"name": "f3e27f7c448449c21f154ecafa9ccdf7", "type": "electric_scooter", "lat": 38.87879733333333, "is_reserved": 0, "lon": -77.02278733333333, "fusion_lon": 0.0, "is_disabled": 0, "fusion_lat": 0.0, "bike_id": "f3e27f7c448449c21f154ecafa9ccdf7", "rental_uris": {"ios": "https://dc.lft.to/lastmile_qr_scan", "android": "https://dc.lft.to/lastmile_qr_scan"}}, {"name": "dc01a800462f348bd55b2e450249aecf", "type": "electric_scooter", "lat": 38.907233166666664, "is_reserved": 0, "lon": -77.04327666666667, "fusion_lon": 0.0, "is_disabled": 0, "fusion_lat": 0.0, "bike_id": "dc01a800462f348bd55b2e450249aecf", "rental_uris": {"ios": "https://dc.lft.to/lastmile_qr_scan", "android": "https://dc.lft.to/lastmile_qr_scan"}}, {"name": "2348026eba71c9bada9c27d4044ea6be", "type": "electric_scooter", "lat": 38.916663, "is_reserved": 0, "lon": -77.00499833333333, "fusion_lon": 0.0, "is_disabled": 0, "fusion_lat": 0.0, "bike_id": "2348026eba71c9bada9c27d4044ea6be", "rental_uris": {"ios": "https://dc.lft.to/lastmile_qr_scan", "android": "https://dc.lft.to/lastmile_qr_scan"}}, {"name": "2448b4416239b922934150916f794220", "type": "electric_scooter", "lat": 38.916586, "is_reserved": 0, "lon": -77.02696783333333, "fusion_lon": 0.0, "is_disabled": 0, "fusion_lat": 0.0, "bike_id": "2448b4416239b922934150916f794220", "rental_uris": {"ios": "https://dc.lft.to/lastmile_qr_scan", "android": "https://dc.lft.to/lastmile_qr_scan"}}, {"name": "ba8c6eb3b062ccd62c8338a0e3123ed1", "type": "electric_scooter", "lat": 38.89669816666667, "is_reserved": 0, "lon": -76.94724816666667, "fusion_lon": 0.0, "is_disabled": 0, "fusion_lat": 0.0, "bike_id": "ba8c6eb3b062ccd62c8338a0e3123ed1", "rental_uris": {"ios": "https://dc.lft.to/lastmile_qr_scan", "android": "https://dc.lft.to/lastmile_qr_scan"}},