{"data": {"bikes": [{"bike_id": "10ecf8d47ae65d16c79aca2ad2638e93", "type": "electric_scooter", "is_disabled": 0, "lat": 38.92110133333333, "rental_uris": {"ios": "https://dc.lft.to/lastmile_qr_scan", "android": "https://dc.lft.to/lastmile_qr_scan"}, "is_reserved": 0, "fusion_lon": 0.0, "fusion_lat": 0.0, "lon": -77.04386266666667, "name": "10ecf8d47ae65d16c79aca2ad2638e93"}, {"bike_id": "da8785fb51d98899415797aa5495a53b", "type": "electric_scooter", "is_disabled": 0, "lat": 38.90909216666667, "rental_uris": {"ios": "https://dc.lft.to/lastmile_qr_scan", "android": "https://dc.lft.to/lastmile_qr_scan"}, "is_reserved": 0, "fusion_lon": 0.0, "fusion_lat": 0.0, "lon": -77.04871083333333, "name": "da8785fb51d98899415797aa5495a53b"}, {"bike_id": "dac266f56ac2267b247b8686d45204f0", "type": "electric_scooter", "is_disabled": 0, "lat": 38.899179833333335, "rental_uris": {"ios": "https://dc.lft.to/lastmile_qr_scan", "android": "https://dc.lft.to/lastmile_qr_scan"}, "is_reserved": 0, "fusion_lon": 0.0, "fusion_lat": 0.0, "lon": -77.00365933333333, "name": "dac266f56ac2267b247b8686d45204f0"}, {"bike_id": "0ce2e54286523f24a02cc2d561869e0b", "type": "electric_scooter", "is_disabled": 0, "lat": 38.924084666666666, "rental_uris": {"ios": "https://dc.lft.to/lastmile_qr_scan", "android": "https://dc.lft.to/lastmile_qr_scan"}, "is_reserved": 0, "fusion_lon": 0.0, "fusion_lat": 0.0, "lon": -77.02747566666666, "name": "0ce2e54286523f24a02cc2d561869e0b"}, {"bike_id": "5c52fca67e28cebe42a0fec7ee23d948", "type": "electric_scooter", "is_disabled": 0, "lat": 38.908248666666665, "rental_uris": {"ios": "https://dc.lft.to/lastmile_qr_scan", "android": "https://dc.lft.to/lastmile_qr_scan"}, "is_reserved": 0, "fusion_lon": 0.0, "fusion_lat": 0.0, "lon": -77.03203916666666, "name": "5c52fca67e28cebe42a0fec7ee23d948"}, {"bike_id": "d0a092d2289b566219e76b53d8babd25", "type": "electric_scooter", "is_disabled": 0, "lat": 38.91607883333333, "rental_uris": {"ios": "https://dc.lft.to/lastmile_qr_scan", "android": "https://dc.lft.to/lastmile_qr_scan"}, "is_reserved": 0, "fusion_lon": 0.0, "fusion_lat": 0.0, "lon": -77.02951716666666, "name": "d0a092d2289b566219e76b53d8babd25"}, {"bike_id": "fa3a844c8baca7db25f0b5c0d0b84037", "type": "electric_scooter", "is_disabled": 0, "lat": 38.9067015, "rental_uris": {"ios": "https://dc.lft.to/lastmile_qr_scan", "android": "https://dc.lft.to/lastmile_qr_scan"}, "is_reserved": 0, "fusion_lon": 0.0, "fusion_lat": 0.0, "lon": -77.0383275, "name": "fa3a844c8baca7db25f0b5c0d0b84037"}, {"bike_id": "f37583f731072cebdeabb1eae9341459", "type": "electric_scooter", "is_disabled": 0, "lat": 38.90999716666666, "rental_uris": {"ios": "https://dc.lft.to/lastmile_qr_scan", "android": "https://dc.lft.to/lastmile_qr_scan"}, "is_reserved": 0, "fusion_lon": 0.0, "fusion_lat": 0.0, "lon": -77.040061, "name": "f37583f731072cebdeabb1eae9341459"}, {"bike_id": "265fc4bfc58353c3ade7d5cafc3e934b", "type": "electric_scooter", "is_disabled": 0, "lat": 38.9585505, "rental_uris": {"ios": "https://dc.lft.to/lastmile_qr_scan", "android": "https://dc.lft.to/lastmile_qr_scan"}, "is_reserved": 0, "fusion_lon": 0.0, "fusion_lat": 0.0, "lon": -77.0278925, "name": "265fc4bfc58353c3ade7d5cafc3e934b"}, {"bike_id": "40c699cba0c4d94f989769e64dd4accb", "type": "electric_scooter", "is_disabled": 0, "lat": 38.89913266666667, "rental_uris": {"ios": "https://dc.lft.to/lastmile_qr_scan", "android": "https://dc.lft.to/lastmile_qr_scan"}, "is_reserved": 0, "fusion_lon": 0.0, "fusion_lat": 0.0, "lon": -76.93369283333334, "name": "40c699cba0c4d94f989769e64dd4accb"}, {"bike_id": "6377868155f75fb80023db3689c3a2cb", "type": "electric_scooter", "is_disabled": 0, "lat": 38.9270805, "rental_uris": {"ios": "https://dc.lft.to/lastmile_qr_scan", "android": "https://dc.lft.to/lastmile_qr_scan"}, "is_reserved": 0, "fusion_lon": 0.0, "fusion_lat": 0.0, "lon": -77.0373165, "name": "6377868155f75fb80023db3689c3a2cb"}, {"bike_id": "f5482c13710af66970e168ba22f2fd72", "type": "electric_scooter", "is_disabled": 0, "lat": 38.9281105, "rental_uris": {"ios": "https://dc.lft.to/lastmile_qr_scan", "android": "https://dc.lft.to/lastmile_qr_scan"}, "is_reserved": 0, "fusion_lon": 0.0, "fusion_lat": 0.0, "lon": -77.02812483333334, "name": "f5482c13710af66970e168ba22f2fd72"}, {"bike_id": "428dc47ba2fb24424d874f30b9ebd23c", "type": "electric_scooter", "is_disabled": 0, "lat": 38.93429833333333, "rental_uris": {"ios": "https://dc.lft.to/lastmile_qr_scan", "android": "https://dc.lft.to/lastmile_qr_scan"}, "is_reserved": 0, "fusion_lon": 0.0, "fusion_lat": 0.0, "lon": -77.0453675, "name": "428dc47ba2fb24424d874f30b9ebd23c"}, {"bike_id": "ad282911ebeb47d175e4bbbe9e78f421", "type": "electric_scooter", "is_disabled": 0, "lat": 38.92822783333333, "rental_uris": {"ios": "https://dc.lft.to/lastmile_qr_scan", "android": "https://dc.lft.to/lastmile_qr_scan"}, "is_reserved": 0, "fusion_lon": 0.0, "fusion_lat": 0.0, "lon": -77.03292133333333, "name": "ad282911ebeb47d175e4bbbe9e78f421"}, {"bike_id": "05df0780405631aefa6a353c6ccc30fb", "type": "electric_scooter", "is_disabled": 0, "lat": 38.931926, "rental_uris": {"ios": "https://dc.lft.to/lastmile_qr_scan", "android": "https://dc.lft.to/lastmile_qr_scan"}, "is_reserved": 0, "fusion_lon": 0.0, "fusion_lat": 0.0, "lon": -77.02016566666667, "name": "05df0780405631aefa6a353c6ccc30fb"}, {"bike_id": "f6795d33d0e696ffaa87a926408cde2a", "type": "electric_scooter", "is_disabled": 0, "lat": 38.893435833333335, "rental_uris": {"ios": "https://dc.lft.to/lastmile_qr_scan", "android": "https://dc.lft.to/lastmile_qr_scan"}, "is_reserved": 0, "fusion_lon": 0.0, "fusion_lat": 0.0, "lon": -76.98086083333334, "name": "f6795d33d0e696ffaa87a926408cde2a"}, {"bike_id": "ea4cf593f48422f23ca41cbcaf675d5f", "type": "electric_scooter", "is_disabled": 0, "lat": 38.903962166666666, "rental_uris": {"ios": "https://dc.lft.to/lastmile_qr_scan", "android": "https://dc.lft.to/lastmile_qr_scan"}, "is_reserved": 0, "fusion_lon": 0.0, "fusion_lat": 0.0, "lon": -77.06514983333334, "name": "ea4cf593f48422f23ca41cbcaf675d5f"}, {"bike_id": "cc5b9dbbf46d3ef66231541436dac7de", "type": "electric_scooter", "is_disabled": 0, "lat": 38.90822516666667, "rental_uris": {"ios": "https://dc.lft.to/lastmile_qr_scan", "android": "https://dc.lft.to/lastmile_qr_scan"}, "is_reserved": 0, "fusion_lon": 0.0, "fusion_lat": 0.0, "lon": -77.00071866666667, "name": "cc5b9dbbf46d3ef66231541436dac7de"}, {"bike_id": "97b17407c9d2d0811482fba61d6fccea", "type": "electric_scooter", "is_disabled": 0, "lat": 38.942882, "rental_uris": {"ios": "https://dc.lft.to/lastmile_qr_scan", "android": "https://dc.lft.to/lastmile_qr_scan"}, "is_reserved": 0, "fusion_lon": 0.0, "fusion_lat": 0.0, "lon": -77.00489283333333, "name": "97b17407c9d2d0811482fba61d6fccea"}, {"bike_id": "afb687c9c18895047804b9f732ff0c91", "type": "electric_bike", "is_disabled": 0, "lat": 38.813307, "rental_uris": {"ios": "https://dc.lft.to/lastmile_qr_scan", "android": "https://dc.lft.to/lastmile_qr_scan"}, "is_reserved": 0, "fusion_lon": 0.0, "fusion_lat": 0.0, "lon": -77.05084516666666, "name": "afb687c9c18895047804b9f732ff0c91"}, {"bike_id": "be02e8afaaa53e93f99c199aab46a592", "type": "electric_scooter", "is_disabled": 0, "lat": 38.91012283333333, "rental_uris": {"ios": "https://dc.lft.to/lastmile_qr_scan", "android": "https://dc.lft.to/lastmile_qr_scan"}, "is_reserved": 0, "fusion_lon": 0.0, "fusion_lat": 0.0, "lon": -77.0526705, "name": "be02e8afaaa53e93f99c199aab46a592"}, {"bike_id": "7eee8fb4ad5bc8100fc32765d2c6a1eb", "type": "electric_scooter", "is_disabled": 0, "lat": 38.9160725, "rental_uris": {"ios": "https://dc.lft.to/lastmile_qr_scan", "android": "https://dc.lft.to/lastmile_qr_scan"}, "is_reserved": 0, "fusion_lon": 0.0, "fusion_lat": 0.0, "lon": -77.01542916666666, "name": "7eee8fb4ad5bc8100fc32765d2c6a1eb"}, {"bike_id": "f575209b96f55c8617a7a0d9023f0d35", "type": "electric_scooter", "is_disabled": 0, "lat": 38.873468, "rental_uris": {"ios": "https://dc.lft.to/lastmile_qr_scan", "android": "https://dc.lft.to/lastmile_qr_scan"}, "is_reserved": 0, "fusion_lon": 0.0, "fusion_lat": 0.0, "lon": -77.00056666666667, "name": "f575209b96f55c8617a7a0d9023f0d35"}, {"bike_id": "1c6688dbdf6a44008e304c2062b53fa8", "type": "electric_scooter", "is_disabled": 0, "lat": 38.89320766666667, "rental_uris": {"ios": "https://dc.lft.to/lastmile_qr_scan", "android": "https://dc.lft.to/lastmile_qr_scan"}, "is_reserved": 0, "fusion_lon": 0.0, "fusion_lat": 0.0, "lon": -77.0487925, "name": "1c6688dbdf6a44008e304c2062b53fa8"}, {"bike_id": "77b1f8b9f736225583c2804f36caa01c", "type": "electric_scooter", "is_disabled": 0, "lat": 38.86695683333333, "rental_uris": {"ios": "https://dc.lft.to/lastmile_qr_scan", "android": "https://dc.lft.to/lastmile_qr_scan"}, "is_reserved": 0, "fusion_lon": 0.0, "fusion_lat": 0.0, "lon": -76.985631, "name": "77b1f8b9f736225583c2804f36caa01c"}, {"bike_id": "b96e15457298397b309e63c4e53ca01b", "type": "electric_bike", "is_disabled": 0, "lat": 38.90862766666667, "rental_uris": {"ios": "https://dc.lft.to/lastmile_qr_scan", "android": "https://dc.lft.to/lastmile_qr_scan"}, "is_reserved": 0, "fusion_lon": 0.0, "fusion_lat": 0.0, "lon": -76.99956883333333, "name": "b96e15457298397b309e63c4e53ca01b"}, {"bike_id": "0cf2d5625f02b612e44dd9274e3b124c", "type": "electric_bike", "is_disabled": 0, "lat": 38.94262483333333, "rental_uris": {"ios": "https://dc.lft.to/lastmile_qr_scan", "android": "https://dc.lft.to/lastmile_qr_scan"}, "is_reserved": 0, "fusion_lon": 0.0, "fusion_lat": 0.0, "lon": -76.99072633333333, "name": "0cf2d5625f02b612e44dd9274e3b124c"}, {"bike_id": "a234caa556ee4d6f431f9b0aa7be16c3", "type": "electric_scooter", "is_disabled": 0, "lat": 38.918156, "rental_uris": {"ios": "https://dc.lft.to/lastmile_qr_scan", "android": "https://dc.lft.to/lastmile_qr_scan"}, "is_reserved": 0, "fusion_lon": 0.0, "fusion_lat": 0.0, "lon": -77.0319735, "name": "a234caa556ee4d6f431f9b0aa7be16c3"}, {"bike_id": "f45328c3e7c3389bbfa01c93c4000cff", "type": "electric_scooter", "is_disabled": 0, "lat": 38.898421166666665, "rental_uris": {"ios": "https://dc.lft.to/lastmile_qr_scan", "android": "https://dc.lft.to/lastmile_qr_scan"}, "is_reserved": 0, "fusion_lon": 0.0, "fusion_lat": 0.0, "lon": -77.04362616666667, "name": "f45328c3e7c3389bbfa01c93c4000cff"}, {"bike_id": "110dc260ae92a605e5ccca68ed6aa3ba", "type": "electric_bike", "is_disabled": 0, "lat": 38.892865666666665, "rental_uris": {"ios": "https://dc.lft.to/lastmile_qr_scan", "android": "https://dc.lft.to/lastmile_qr_scan"}, "is_reserved": 0, "fusion_lon": 0.0, "fusion_lat": 0.0, "lon": -76.97615933333333, "name": "110dc260ae92a605e5ccca68ed6aa3ba"}, {"bike_id": "eba4fbebea133e974147501898775f51", "type": "electric_scooter", "is_disabled": 0, "lat": 38.935336166666666, "rental_uris": {"ios": "https://dc.lft.to/lastmile_qr_scan", "android": "https://dc.lft.to/lastmile_qr_scan"}, "is_reserved": 0, "fusion_lon": 0.0, "fusion_lat": 0.0, "lon": -77.054347, "name": "eba4fbebea133e974147501898775f51"}, {"bike_id": "a337a9e7d83faad1efdb0a1ec0487bd5", "type": "electric_scooter", "is_disabled": 0, "lat": 38.91194016666667, "rental_uris": {"ios": "https://dc.lft.to/lastmile_qr_scan", "android": "https://dc.lft.to/lastmile_qr_scan"}, "is_reserved": 0, "fusion_lon": 0.0, "fusion_lat": 0.0, "lon": -77.0190255, "name": "a337a9e7d83faad1efdb0a1ec0487bd5"}, {"bike_id": "a9003e62b96c365695853133c5595c53", "type": "electric_scooter", "is_disabled": 0, "lat": 38.92545966666667, "rental_uris": {"ios": "https://dc.lft.to/lastmile_qr_scan", "android": "https://dc.lft.to/lastmile_qr_scan"}, "is_reserved": 0, "fusion_lon": 0.0, "fusion_lat": 0.0, "lon": -77.03356516666666, "name": "a9003e62b96c365695853133c5595c53"}, {"bike_id": "bab43fdaa225ae5f9dec5cba0ea38c47", "type": "electric_scooter", "is_disabled": 0, "lat": 38.92613566666667, "rental_uris": {"ios": "https://dc.lft.to/lastmile_qr_scan", "android": "https://dc.lft.to/lastmile_qr_scan"}, "is_reserved": 0, "fusion_lon": 0.0, "fusion_lat": 0.0, "lon": -77.043247, "name": "bab43fdaa225ae5f9dec5cba0ea38c47"}, {"bike_id": "fd9751bbe4aea38544c2494a1994136f", "type": "electric_scooter", "is_disabled": 0, "lat": 38.95113766666667, "rental_uris": {"ios": "https://dc.lft.to/lastmile_qr_scan", "android": "https://dc.lft.to/lastmile_qr_scan"}, "is_reserved": 0, "fusion_lon": 0.0, "fusion_lat": 0.0, "lon": -77.01435133333334, "name": "fd9751bbe4aea38544c2494a1994136f"}, {"bike_id": "1932c10931c7dd409ba326a27a0a1a9c", "type": "electric_scooter", "is_disabled": 0, "lat": 38.9007355, "rental_uris": {"ios": "https://dc.lft.to/lastmile_qr_scan", "android": "https://dc.lft.to/lastmile_qr_scan"}, "is_reserved": 0, "fusion_lon": 0.0, "fusion_lat": 0.0, "lon": -77.05127016666667, "name": "1932c10931c7dd409ba326a27a0a1a9c"}, {"bike_id": "c00cde67f98b0c62620a05c401ac171d", "type": "electric_bike", "is_disabled": 0, "lat": 38.99532383333333, "rental_uris": {"ios": "https://dc.lft.to/lastmile_qr_scan", "android": "https://dc.lft.to/lastmile_qr_scan"}, "is_reserved": 0, "fusion_lon": 0.0, "fusion_lat": 0.0, "lon": -77.06949083333333, "name": "c00cde67f98b0c62620a05c401ac171d"}, {"bike_id": "12ce09702a4accbb522ed9c0788c9ef4", "type": "electric_bike", "is_disabled": 0, "lat": 38.8483345, "rental_uris": {"ios": "https://dc.lft.to/lastmile_qr_scan", "android": "https://dc.lft.to/lastmile_qr_scan"}, "is_reserved": 0, "fusion_lon": 0.0, "fusion_lat": 0.0, "lon": -77.07920183333333, "name": "12ce09702a4accbb522ed9c0788c9ef4"}, {"bike_id": "9bb11e5c905a83b6f0fbfcb7c3c22461", "type": "electric_scooter", "is_disabled": 0, "lat": 38.8949915, "rental_uris": {"ios": "https://dc.lft.to/lastmile_qr_scan", "android": "https://dc.lft.to/lastmile_qr_scan"}, "is_reserved": 0, "fusion_lon": 0.0, "fusion_lat": 0.0, "lon": -76.93480116666667, "name": "9bb11e5c905a83b6f0fbfcb7c3c22461"}, {"bike_id": "4003c616ddb53e4cdfc17366dcd431a4", "type": "electric_scooter", "is_disabled": 0, "lat": 38.91508483333333, "rental_uris": {"ios": "https://dc.lft.to/lastmile_qr_scan", "android": "https://dc.lft.to/lastmile_qr_scan"}, "is_reserved": 0, "fusion_lon": 0.0, "fusion_lat": 0.0, "lon": -77.022894, "name": "4003c616ddb53e4cdfc17366dcd431a4"}, {"bike_id": "44c45ef6e8953ef57e36451279780792", "type": "electric_scooter", "is_disabled": 0, "lat": 38.90959433333333, "rental_uris": {"ios": "https://dc.lft.to/lastmile_qr_scan", "android": "https://dc.lft.to/lastmile_qr_scan"}, "is_reserved": 0, "fusion_lon": 0.0, "fusion_lat": 0.0, "lon": -77.02279016666667, "name": "44c45ef6e8953ef57e36451279780792"}, {"bike_id": "711b07dbdaac40c8d6b9f2e1c4230be5", "type": "electric_scooter", "is_disabled": 0, "lat": 38.90834133333333, "rental_uris": {"ios": "https://dc.lft.to/lastmile_qr_scan", "android": "https://dc.lft.to/lastmile_qr_scan"}, "is_reserved": 0, "fusion_lon": 0.0, "fusion_lat": 0.0, "lon": -77.02392933333333, "name": "711b07dbdaac40c8d6b9f2e1c4230be5"}, {"bike_id": "30b61797bfedf449a99371e0424b6c43", "type": "electric_scooter", "is_disabled": 0, "lat": 38.908474166666664, "rental_uris": {"ios": "https://dc.lft.to/lastmile_qr_scan", "android": "https://dc.lft.to/lastmile_qr_scan"}, "is_reserved": 0, "fusion_lon": 0.0, "fusion_lat": 0.0, "lon": -77.0556675, "name": "30b61797bfedf449a99371e0424b6c43"}, {"bike_id": "cba0bb942f52996fdbef39511481d6e0", "type": "electric_scooter", "is_disabled": 0, "lat": 38.91865716666667, "rental_uris": {"ios": "https://dc.lft.to/lastmile_qr_scan", "android": "https://dc.lft.to/lastmile_qr_scan"}, "is_reserved": 0, "fusion_lon": 0.0, "fusion_lat": 0.0, "lon": -77.044549, "name": "cba0bb942f52996fdbef39511481d6e0"}, {"bike_id": "00a4a3a9641f34d6d2ee7c5a3fefbb9d", "type": "electric_scooter", "is_disabled": 0, "lat": 38.919159666666665, "rental_uris": {"ios": "https://dc.lft.to/lastmile_qr_scan", "android": "https://dc.lft.to/lastmile_qr_scan"}, "is_reserved": 0, "fusion_lon": 0.0, "fusion_lat": 0.0, "lon": -77.03417066666667, "name": "00a4a3a9641f34d6d2ee7c5a3fefbb9d"}, {"bike_id": "b9a8a4d5547d03e40f1fd434c18b5165", "type": "electric_scooter", "is_disabled": 0, "lat": 38.914114, "rental_uris": {"ios": "https://dc.lft.to/lastmile_qr_scan", "android": "https://dc.lft.to/lastmile_qr_scan"}, "is_reserved": 0, "fusion_lon": 0.0, "fusion_lat": 0.0, "lon": -77.0209115, "name": "b9a8a4d5547d03e40f1fd434c18b5165"}, {"bike_id": "44516b4523462da8b5731d459b219734", "type": "electric_scooter", "is_disabled": 0, "lat": 38.907245833333334, "rental_uris": {"ios": "https://dc.lft.to/lastmile_qr_scan", "android": "https://dc.lft.to/lastmile_qr_scan"}, "is_reserved": 0, "fusion_lon": 0.0, "fusion_lat": 0.0, "lon": -77.043297, "name": "44516b4523462da8b5731d459b219734"}, {"bike_id": "cc6a025bdddbd87d2443d2588cccc223", "type": "electric_scooter", "is_disabled": 0, "lat": 38.93863916666667, "rental_uris": {"ios": "https://dc.lft.to/lastmile_qr_scan", "android": "https://dc.lft.to/lastmile_qr_scan"}, "is_reserved": 0, "fusion_lon": 0.0, "fusion_lat": 0.0, "lon": -77.02458483333334, "name": "cc6a025bdddbd87d2443d2588cccc223"}, {"bike_id": "3154e4f67548e9109a66b7e6c6caa4b7", "type": "electric_scooter", "is_disabled": 0, "lat": 38.921088, "rental_uris": {"ios": "https://dc.lft.to/lastmile_qr_scan", "android": "https://dc.lft.to/lastmile_qr_scan"}, "is_reserved": 0, "fusion_lon": 0.0, "fusion_lat": 0.0, "lon": -77.01764033333333, "name": "3154e4f67548e9109a66b7e6c6caa4b7"}, {"bike_id": "4ac0426c7c72b60189c056dbee7b3254", "type": "electric_scooter", "is_disabled": 0, "lat": 38.882643333333334, "rental_uris": {"ios": "https://dc.lft.to/lastmile_qr_scan", "android": "https://dc.lft.to/lastmile_qr_scan"}, "is_reserved": 0, "fusion_lon": 0.0, "fusion_lat": 0.0, "lon": -76.9925215, "name": "4ac0426c7c72b60189c056dbee7b3254"}, {"bike_id": "1a4d0c7cb7b0d6c4dae93a2b079e866d", "type": "electric_scooter", "is_disabled": 0, "lat": 38.906849666666666, "rental_uris": {"ios": "https://dc.lft.to/lastmile_qr_scan", "android": "https://dc.lft.to/lastmile_qr_scan"}, "is_reserved": 0, "fusion_lon": 0.0, "fusion_lat": 0.0, "lon": -77.06337716666667, "name": "1a4d0c7cb7b0d6c4dae93a2b079e866d"}, {"bike_id": "17a9b1f53eec24cdfc2a815c5390cc66", "type": "electric_scooter", "is_disabled": 0, "lat": 38.90340416666667, "rental_uris": {"ios": "https://dc.lft.to/lastmile_qr_scan", "android": "https://dc.lft.to/lastmile_qr_scan"}, "is_reserved": 0, "fusion_lon": 0.0, "fusion_lat": 0.0, "lon": -77.00730516666667, "name": "17a9b1f53eec24cdfc2a815c5390cc66"}, {"bike_id": "05e4e6533a60c9ee752f85f7e15c232b", "type": "electric_scooter", "is_disabled": 0, "lat": 38.927515166666666, "rental_uris": {"ios": "https://dc.lft.to/lastmile_qr_scan", "android": "https://dc.lft.to/lastmile_qr_scan"}, "is_reserved": 0, "fusion_lon": 0.0, "fusion_lat": 0.0, "lon": -77.02297666666666, "name": "05e4e6533a60c9ee752f85f7e15c232b"}, {"bike_id": "6f5826272f6a1bd25a1837a08d1a0a8d", "type": "electric_scooter", "is_disabled": 0, "lat": 38.905070333333335, "rental_uris": {"ios": "https://dc.lft.to/lastmile_qr_scan", "android": "https://dc.lft.to/lastmile_qr_scan"}, "is_reserved": 0, "fusion_lon": 0.0, "fusion_lat": 0.0, "lon": -77.06375566666667, "name": "6f5826272f6a1bd25a1837a08d1a0a8d"}, {"bike_id": "c106c480aa90869cdb1fc6ac8e332d89", "type": "electric_scooter", "is_disabled": 0, "lat": 38.93964066666667, "rental_uris": {"ios": "https://dc.lft.to/lastmile_qr_scan", "android": "https://dc.lft.to/lastmile_qr_scan"}, "is_reserved": 0, "fusion_lon": 0.0, "fusion_lat": 0.0, "lon": -77.02501716666667, "name": "c106c480aa90869cdb1fc6ac8e332d89"}, {"bike_id": "9eb01747da70b65fc6860c8737aa5e02", "type": "electric_scooter", "is_disabled": 0, "lat": 38.909502, "rental_uris": {"ios": "https://dc.lft.to/lastmile_qr_scan", "android": "https://dc.lft.to/lastmile_qr_scan"}, "is_reserved": 0, "fusion_lon": 0.0, "fusion_lat": 0.0, "lon": -77.026869, "name": "9eb01747da70b65fc6860c8737aa5e02"}, {"bike_id": "ef030f1bee3cd8c16cfbec6d7a094501", "type": "electric_scooter", "is_disabled": 0, "lat": 38.91635933333333, "rental_uris": {"ios": "https://dc.lft.to/lastmile_qr_scan", "android": "https://dc.lft.to/lastmile_qr_scan"}, "is_reserved": 0, "fusion_lon": 0.0, "fusion_lat": 0.0, "lon": -77.00052283333333, "name": "ef030f1bee3cd8c16cfbec6d7a094501"}, {"bike_id": "c3d90d3ea34c0d8c42749b6909ecea41", "type": "electric_scooter", "is_disabled": 0, "lat": 38.87076483333333, "rental_uris": {"ios": "https://dc.lft.to/lastmile_qr_scan", "android": "https://dc.lft.to/lastmile_qr_scan"}, "is_reserved": 0, "fusion_lon": 0.0, "fusion_lat": 0.0, "lon": -77.0118345, "name": "c3d90d3ea34c0d8c42749b6909ecea41"}, {"bike_id": "f4193b7a1f77930e5eed0b30b108b0b8", "type": "electric_scooter", "is_disabled": 0, "lat": 38.908927166666665, "rental_uris": {"ios": "https://dc.lft.to/lastmile_qr_scan", "android": "https://dc.lft.to/lastmile_qr_scan"}, "is_reserved": 0, "fusion_lon": 0.0, "fusion_lat": 0.0, "lon": -77.08619883333333, "name": "f4193b7a1f77930e5eed0b30b108b0b8"}, {"bike_id": "e4308d1ca01180c7af3aba3040448625", "type": "electric_scooter", "is_disabled": 0, "lat": 38.931929333333336, "rental_uris": {"ios": "https://dc.lft.to/lastmile_qr_scan", "android": "https://dc.lft.to/lastmile_qr_scan"}, "is_reserved": 0, "fusion_lon": 0.0, "fusion_lat": 0.0, "lon": -77.019584, "name": "e4308d1ca01180c7af3aba3040448625"}, {"bike_id": "6dc692653e5162ef982540da58331d05", "type": "electric_scooter", "is_disabled": 0, "lat": 38.9210935, "rental_uris": {"ios": "https://dc.lft.to/lastmile_qr_scan", "android": "https://dc.lft.to/lastmile_qr_scan"}, "is_reserved": 0, "fusion_lon": 0.0, "fusion_lat": 0.0, "lon": -77.01762333333333, "name": "6dc692653e5162ef982540da58331d05"}, {"bike_id": "e990f37be55ec456d5bedd06004890da", "type": "electric_scooter", "is_disabled": 0, "lat": 38.87623466666667, "rental_uris": {"ios": "https://dc.lft.to/lastmile_qr_scan", "android": "https://dc.lft.to/lastmile_qr_scan"}, "is_reserved": 0, "fusion_lon": 0.0, "fusion_lat": 0.0, "lon": -76.96523733333333, "name": "e990f37be55ec456d5bedd06004890da"}, {"bike_id": "b48300a30a968305d6c6b304f7ff90ec", "type": "electric_scooter", "is_disabled": 0, "lat": 38.9229505, "rental_uris": {"ios": "https://dc.lft.to/lastmile_qr_scan", "android": "https://dc.lft.to/lastmile_qr_scan"}, "is_reserved": 0, "fusion_lon": 0.0, "fusion_lat": 0.0, "lon": -77.0430365, "name": "b48300a30a968305d6c6b304f7ff90ec"}, {"bike_id": "09011d6be27bc4bcea0873d90976f335", "type": "electric_scooter", "is_disabled": 0, "lat": 38.922625, "rental_uris": {"ios": "https://dc.lft.to/lastmile_qr_scan", "android": "https://dc.lft.to/lastmile_qr_scan"}, "is_reserved": 0, "fusion_lon": 0.0, "fusion_lat": 0.0, "lon": -77.03398483333334, "name": "09011d6be27bc4bcea0873d90976f335"}, {"bike_id": "d6d3b7c415f4c9cad836b9322ffa97e3", "type": "electric_scooter", "is_disabled": 0, "lat": 38.918059166666666, "rental_uris": {"ios": "https://dc.lft.to/lastmile_qr_scan", "android": "https://dc.lft.to/lastmile_qr_scan"}, "is_reserved": 0, "fusion_lon": 0.0, "fusion_lat": 0.0, "lon": -77.03200583333333, "name": "d6d3b7c415f4c9cad836b9322ffa97e3"}, {"bike_id": "6344a09ae576ca42ea8056e1d16aec40", "type": "electric_scooter", "is_disabled": 0, "lat": 38.9067655, "rental_uris": {"ios": "https://dc.lft.to/lastmile_qr_scan", "android": "https://dc.lft.to/lastmile_qr_scan"}, "is_reserved": 0, "fusion_lon": 0.0, "fusion_lat": 0.0, "lon": -77.02383816666666, "name": "6344a09ae576ca42ea8056e1d16aec40"}, {"bike_id": "f52493017395046f609cc7225ea60644", "type": "electric_scooter", "is_disabled": 0, "lat": 38.9012205, "rental_uris": {"ios": "https://dc.lft.to/lastmile_qr_scan", "android": "https://dc.lft.to/lastmile_qr_scan"}, "is_reserved": 0, "fusion_lon": 0.0, "fusion_lat": 0.0, "lon": -77.0395395, "name": "f52493017395046f609cc7225ea60644"}, {"bike_id": "ea73c63a505bf9cee9f4e1904c522e57", "type": "electric_bike", "is_disabled": 0, "lat": 38.83237783333333, "rental_uris": {"ios": "https://dc.lft.to/lastmile_qr_scan", "android": "https://dc.lft.to/lastmile_qr_scan"}, "is_reserved": 0, "fusion_lon": 0.0, "fusion_lat": 0.0, "lon": -76.94620966666666, "name": "ea73c63a505bf9cee9f4e1904c522e57"}, {"bike_id": "e4464e999ea492fd60003fc9956388a4", "type": "electric_scooter", "is_disabled": 0, "lat": 38.915493, "rental_uris": {"ios": "https://dc.lft.to/lastmile_qr_scan", "android": "https://dc.lft.to/lastmile_qr_scan"}, "is_reserved": 0, "fusion_lon": 0.0, "fusion_lat": 0.0, "lon": -77.03197383333334, "name": "e4464e999ea492fd60003fc9956388a4"}, {"bike_id": "43e0e6e3ed3e6b078544a7bd4447ccb4", "type": "electric_scooter", "is_disabled": 0, "lat": 38.91103183333333, "rental_uris": {"ios": "https://dc.lft.to/lastmile_qr_scan", "android": "https://dc.lft.to/lastmile_qr_scan"}, "is_reserved": 0, "fusion_lon": 0.0, "fusion_lat": 0.0, "lon": -77.03445516666666, "name": "43e0e6e3ed3e6b078544a7bd4447ccb4"}, {"bike_id": "f9f62f26b49315c74e228a684da2724a", "type": "electric_scooter", "is_disabled": 0, "lat": 38.87630566666667, "rental_uris": {"ios": "https://dc.lft.to/lastmile_qr_scan", "android": "https://dc.lft.to/lastmile_qr_scan"}, "is_reserved": 0, "fusion_lon": 0.0, "fusion_lat": 0.0, "lon": -77.0095265, "name": "f9f62f26b49315c74e228a684da2724a"}, {"bike_id": "28e3f168968226f68f73dd9be9026e61", "type": "electric_scooter", "is_disabled": 0, "lat": 38.928945666666664, "rental_uris": {"ios": "https://dc.lft.to/lastmile_qr_scan", "android": "https://dc.lft.to/lastmile_qr_scan"}, "is_reserved": 0, "fusion_lon": 0.0, "fusion_lat": 0.0, "lon": -77.025785, "name": "28e3f168968226f68f73dd9be9026e61"}, {"bike_id": "9d38e55b1fb7355f9f8f73e1c085691c", "type": "electric_scooter", "is_disabled": 0, "lat": 38.923313666666665, "rental_uris": {"ios": "https://dc.lft.to/lastmile_qr_scan", "android": "https://dc.lft.to/lastmile_qr_scan"}, "is_reserved": 0, "fusion_lon": 0.0, "fusion_lat": 0.0, "lon": -77.03507816666666, "name": "9d38e55b1fb7355f9f8f73e1c085691c"}, {"bike_id": "f227401c3c0059e4c7ba02c78d5e3c65", "type": "electric_scooter", "is_disabled": 0, "lat": 38.9066705, "rental_uris": {"ios": "https://dc.lft.to/lastmile_qr_scan", "android": "https://dc.lft.to/lastmile_qr_scan"}, "is_reserved": 0, "fusion_lon": 0.0, "fusion_lat": 0.0, "lon": -77.02705583333334, "name": "f227401c3c0059e4c7ba02c78d5e3c65"}, {"bike_id": "18f92a338ac1d01e966f847a649a9292", "type": "electric_scooter", "is_disabled": 0, "lat": 38.90020666666667, "rental_uris": {"ios": "https://dc.lft.to/lastmile_qr_scan", "android": "https://dc.lft.to/lastmile_qr_scan"}, "is_reserved": 0, "fusion_lon": 0.0, "fusion_lat": 0.0, "lon": -77.04659033333333, "name": "18f92a338ac1d01e966f847a649a9292"}, {"bike_id": "4c46911ed478c7f0a8a96d8340ddc563", "type": "electric_scooter", "is_disabled": 0, "lat": 38.893744, "rental_uris": {"ios": "https://dc.lft.to/lastmile_qr_scan", "android": "https://dc.lft.to/lastmile_qr_scan"}, "is_reserved": 0, "fusion_lon": 0.0, "fusion_lat": 0.0, "lon": -77.02777833333333, "name": "4c46911ed478c7f0a8a96d8340ddc563"}, {"bike_id": "cfe2fd3bb08d7b3d95466f2f7b2095d4", "type": "electric_scooter", "is_disabled": 0, "lat": 38.914154833333335, "rental_uris": {"ios": "https://dc.lft.to/lastmile_qr_scan", "android": "https://dc.lft.to/lastmile_qr_scan"}, "is_reserved": 0, "fusion_lon": 0.0, "fusion_lat": 0.0, "lon": -77.02983333333333, "name": "cfe2fd3bb08d7b3d95466f2f7b2095d4"}, {"bike_id": "1ed10b0bdafd31eba632b58160a8148d", "type": "electric_scooter", "is_disabled": 0, "lat": 38.900183166666665, "rental_uris": {"ios": "https://dc.lft.to/lastmile_qr_scan", "android": "https://dc.lft.to/lastmile_qr_scan"}, "is_reserved": 0, "fusion_lon": 0.0, "fusion_lat": 0.0, "lon": -77.0447785, "name": "1ed10b0bdafd31eba632b58160a8148d"}, {"bike_id": "598cfa6a0cc9aa9c348d58c8c6e6217e", "type": "electric_scooter", "is_disabled": 0, "lat": 38.9236345, "rental_uris": {"ios": "https://dc.lft.to/lastmile_qr_scan", "android": "https://dc.lft.to/lastmile_qr_scan"}, "is_reserved": 0, "fusion_lon": 0.0, "fusion_lat": 0.0, "lon": -77.05129966666667, "name": "598cfa6a0cc9aa9c348d58c8c6e6217e"}, {"bike_id": "fc5cd1ce55dc09d1be465007f3494ccf", "type": "electric_scooter", "is_disabled": 0, "lat": 38.9323965, "rental_uris": {"ios": "https://dc.lft.to/lastmile_qr_scan", "android": "https://dc.lft.to/lastmile_qr_scan"}, "is_reserved": 0, "fusion_lon": 0.0, "fusion_lat": 0.0, "lon": -77.03856883333333, "name": "fc5cd1ce55dc09d1be465007f3494ccf"}, {"bike_id": "11a30e48ee55e59bcc2a829faf51d006", "type": "electric_bike", "is_disabled": 0, "lat": 39.05056283333333, "rental_uris": {"ios": "https://dc.lft.to/lastmile_qr_scan", "android": "https://dc.lft.to/lastmile_qr_scan"}, "is_reserved": 0, "fusion_lon": 0.0, "fusion_lat": 0.0, "lon": -77.0514845, "name": "11a30e48ee55e59bcc2a829faf51d006"}, {"bike_id": "9aba646a1fa623954be3af13b4989c8c", "type": "electric_scooter", "is_disabled": 0, "lat": 38.9040945, "rental_uris": {"ios": "https://dc.lft.to/lastmile_qr_scan", "android": "https://dc.lft.to/lastmile_qr_scan"}, "is_reserved": 0, "fusion_lon": 0.0, "fusion_lat": 0.0, "lon": -76.97330933333333, "name": "9aba646a1fa623954be3af13b4989c8c"}, {"bike_id": "bcf801e9bd3197f047c8efe1fa357bb0", "type": "electric_scooter", "is_disabled": 0, "lat": 38.897974, "rental_uris": {"ios": "https://dc.lft.to/lastmile_qr_scan", "android": "https://dc.lft.to/lastmile_qr_scan"}, "is_reserved": 0, "fusion_lon": 0.0, "fusion_lat": 0.0, "lon": -77.01191083333333, "name": "bcf801e9bd3197f047c8efe1fa357bb0"}, {"bike_id": "177bfc3a622d51216baca4174d4820a7", "type": "electric_scooter", "is_disabled": 0, "lat": 38.91577733333333, "rental_uris": {"ios": "https://dc.lft.to/lastmile_qr_scan", "android": "https://dc.lft.to/lastmile_qr_scan"}, "is_reserved": 0, "fusion_lon": 0.0, "fusion_lat": 0.0, "lon": -77.0452575, "name": "177bfc3a622d51216baca4174d4820a7"}, {"bike_id": "9a542936e603879416e2a5c6c181ce7c", "type": "electric_scooter", "is_disabled": 0, "lat": 38.944937, "rental_uris": {"ios": "https://dc.lft.to/lastmile_qr_scan", "android": "https://dc.lft.to/lastmile_qr_scan"}, "is_reserved": 0, "fusion_lon": 0.0, "fusion_lat": 0.0, "lon": -77.02621233333333, "name": "9a542936e603879416e2a5c6c181ce7c"}, {"bike_id": "8944536ba2f278a1a4efc8c90fd5061f", "type": "electric_bike", "is_disabled": 0, "lat": 38.9787885, "rental_uris": {"ios": "https://dc.lft.to/lastmile_qr_scan", "android": "https://dc.lft.to/lastmile_qr_scan"}, "is_reserved": 0, "fusion_lon": 0.0, "fusion_lat": 0.0, "lon": -77.06033233333333, "name": "8944536ba2f278a1a4efc8c90fd5061f"}, {"bike_id": "ffbb8e5aed39b17666c3c5c355daca44", "type": "electric_scooter", "is_disabled": 0, "lat": 38.91470433333333, "rental_uris": {"ios": "https://dc.lft.to/lastmile_qr_scan", "android": "https://dc.lft.to/lastmile_qr_scan"}, "is_reserved": 0, "fusion_lon": 0.0, "fusion_lat": 0.0, "lon": -77.00925716666667, "name": "ffbb8e5aed39b17666c3c5c355daca44"}, {"bike_id": "726ebc56c8c4781de2a0edb75b69caf0", "type": "electric_scooter", "is_disabled": 0, "lat": 38.92483633333333, "rental_uris": {"ios": "https://dc.lft.to/lastmile_qr_scan", "android": "https://dc.lft.to/lastmile_qr_scan"}, "is_reserved": 0, "fusion_lon": 0.0, "fusion_lat": 0.0, "lon": -77.0220045, "name": "726ebc56c8c4781de2a0edb75b69caf0"}, {"bike_id": "f16ce0ac33e862eafa7c524230678998", "type": "electric_scooter", "is_disabled": 0, "lat": 38.902656, "rental_uris": {"ios": "https://dc.lft.to/lastmile_qr_scan", "android": "https://dc.lft.to/lastmile_qr_scan"}, "is_reserved": 0, "fusion_lon": 0.0, "fusion_lat": 0.0, "lon": -77.00323983333334, "name": "f16ce0ac33e862eafa7c524230678998"}, {"bike_id": "2dcb601ac64c357ff00679751fd1d4ac", "type": "electric_scooter", "is_disabled": 0, "lat": 38.910602833333336, "rental_uris": {"ios": "https://dc.lft.to/lastmile_qr_scan", "android": "https://dc.lft.to/lastmile_qr_scan"}, "is_reserved": 0, "fusion_lon": 0.0, "fusion_lat": 0.0, "lon": -77.03663733333333, "name": "2dcb601ac64c357ff00679751fd1d4ac"}, {"bike_id": "bc498310dffe1a8a30a799c644c4f745", "type": "electric_scooter", "is_disabled": 0, "lat": 38.90082483333333, "rental_uris": {"ios": "https://dc.lft.to/lastmile_qr_scan", "android": "https://dc.lft.to/lastmile_qr_scan"}, "is_reserved": 0, "fusion_lon": 0.0, "fusion_lat": 0.0, "lon": -77.05064183333333, "name": "bc498310dffe1a8a30a799c644c4f745"}, {"bike_id": "690034e349d31be2e0fe5222f7baab6d", "type": "electric_scooter", "is_disabled": 0, "lat": 38.935399333333336, "rental_uris": {"ios": "https://dc.lft.to/lastmile_qr_scan", "android": "https://dc.lft.to/lastmile_qr_scan"}, "is_reserved": 0, "fusion_lon": 0.0, "fusion_lat": 0.0, "lon": -77.02343733333333, "name": "690034e349d31be2e0fe5222f7baab6d"}, {"bike_id": "f02e1dda70b95e08c53cc21bae99bc10", "type": "electric_scooter", "is_disabled": 0, "lat": 38.91550516666667, "rental_uris": {"ios": "https://dc.lft.to/lastmile_qr_scan", "android": "https://dc.lft.to/lastmile_qr_scan"}, "is_reserved": 0, "fusion_lon": 0.0, "fusion_lat": 0.0, "lon": -77.02253716666667, "name": "f02e1dda70b95e08c53cc21bae99bc10"}, {"bike_id": "aee7e4ecfecc30733f9610342c0eaf8a", "type": "electric_scooter", "is_disabled": 0, "lat": 38.90491516666667, "rental_uris": {"ios": "https://dc.lft.to/lastmile_qr_scan", "android": "https://dc.lft.to/lastmile_qr_scan"}, "is_reserved": 0, "fusion_lon": 0.0, "fusion_lat": 0.0, "lon": -76.98684916666667, "name": "aee7e4ecfecc30733f9610342c0eaf8a"}, {"bike_id": "e8ddf925d4091a2677c330247e6de862", "type": "electric_scooter", "is_disabled": 0, "lat": 38.89729033333333, "rental_uris": {"ios": "https://dc.lft.to/lastmile_qr_scan", "android": "https://dc.lft.to/lastmile_qr_scan"}, "is_reserved": 0, "fusion_lon": 0.0, "fusion_lat": 0.0, "lon": -77.054729, "name": "e8ddf925d4091a2677c330247e6de862"}, {"bike_id": "6d38e6cfdfe072c43c4272ec9afff687", "type": "electric_bike", "is_disabled": 0, "lat": 39.0398905, "rental_uris": {"ios": "https://dc.lft.to/lastmile_qr_scan", "android": "https://dc.lft.to/lastmile_qr_scan"}, "is_reserved": 0, "fusion_lon": 0.0, "fusion_lat": 0.0, "lon": -76.99931533333333, "name": "6d38e6cfdfe072c43c4272ec9afff687"}, {"bike_id": "7c0a413d9847b994c28f289a859b2447", "type": "electric_scooter", "is_disabled": 0, "lat": 38.92215766666666, "rental_uris": {"ios": "https://dc.lft.to/lastmile_qr_scan", "android": "https://dc.lft.to/lastmile_qr_scan"}, "is_reserved": 0, "fusion_lon": 0.0, "fusion_lat": 0.0, "lon": -77.034582, "name": "7c0a413d9847b994c28f289a859b2447"}, {"bike_id": "02bd97a19082dc79943f3156e4d5f3e8", "type": "electric_scooter", "is_disabled": 0, "lat": 38.918003, "rental_uris": {"ios": "https://dc.lft.to/lastmile_qr_scan", "android": "https://dc.lft.to/lastmile_qr_scan"}, "is_reserved": 0, "fusion_lon": 0.0, "fusion_lat": 0.0, "lon": -77.02701716666667, "name": "02bd97a19082dc79943f3156e4d5f3e8"}, {"bike_id": "b238047fa319cc7bd7a50d1c00cca841", "type": "electric_scooter", "is_disabled": 0, "lat": 38.96140416666667, "rental_uris": {"ios": "https://dc.lft.to/lastmile_qr_scan", "android": "https://dc.lft.to/lastmile_qr_scan"}, "is_reserved": 0, "fusion_lon": 0.0, "fusion_lat": 0.0, "lon": -77.02992983333333, "name": "b238047fa319cc7bd7a50d1c00cca841"}, {"bike_id": "3d31b4cc7ae31f094f3d9fe68c3b1fc0", "type": "electric_scooter", "is_disabled": 0, "lat": 38.90961683333333, "rental_uris": {"ios": "https://dc.lft.to/lastmile_qr_scan", "android": "https://dc.lft.to/lastmile_qr_scan"}, "is_reserved": 0, "fusion_lon": 0.0, "fusion_lat": 0.0, "lon": -77.02680983333333, "name": "3d31b4cc7ae31f094f3d9fe68c3b1fc0"}, {"bike_id": "9d63721e245edd7de891bf0f599b7d07", "type": "electric_scooter", "is_disabled": 0, "lat": 38.907687333333335, "rental_uris": {"ios": "https://dc.lft.to/lastmile_qr_scan", "android": "https://dc.lft.to/lastmile_qr_scan"}, "is_reserved": 0, "fusion_lon": 0.0, "fusion_lat": 0.0, "lon": -77.03858183333334, "name": "9d63721e245edd7de891bf0f599b7d07"}, {"bike_id": "e3ce5e2c48db83e2c589c0304dea6f84", "type": "electric_scooter", "is_disabled": 0, "lat": 38.90256733333333, "rental_uris": {"ios": "https://dc.lft.to/lastmile_qr_scan", "android": "https://dc.lft.to/lastmile_qr_scan"}, "is_reserved": 0, "fusion_lon": 0.0, "fusion_lat": 0.0, "lon": -76.9754855, "name": "e3ce5e2c48db83e2c589c0304dea6f84"}, {"bike_id": "0e0a6bf113100e7660005068d1549dc3", "type": "electric_scooter", "is_disabled": 0, "lat": 38.88527966666667, "rental_uris": {"ios": "https://dc.lft.to/lastmile_qr_scan", "android": "https://dc.lft.to/lastmile_qr_scan"}, "is_reserved": 0, "fusion_lon": 0.0, "fusion_lat": 0.0, "lon": -77.01138066666667, "name": "0e0a6bf113100e7660005068d1549dc3"}, {"bike_id": "ed71dde2e162e994dfdf9d44f6b81f39", "type": "electric_scooter", "is_disabled": 0, "lat": 38.90235366666667, "rental_uris": {"ios": "https://dc.lft.to/lastmile_qr_scan", "android": "https://dc.lft.to/lastmile_qr_scan"}, "is_reserved": 0, "fusion_lon": 0.0, "fusion_lat": 0.0, "lon": -77.00199483333333, "name": "ed71dde2e162e994dfdf9d44f6b81f39"}, {"bike_id": "2de0d3f00f634bf7aabed39fd325af15", "type": "electric_bike", "is_disabled": 0, "lat": 38.92373166666667, "rental_uris": {"ios": "https://dc.lft.to/lastmile_qr_scan", "android": "https://dc.lft.to/lastmile_qr_scan"}, "is_reserved": 0, "fusion_lon": 0.0, "fusion_lat": 0.0, "lon": -77.00216066666667, "name": "2de0d3f00f634bf7aabed39fd325af15"}, {"bike_id": "3efacdd57fa284acdf52e619d716fcf8", "type": "electric_scooter", "is_disabled": 0, "lat": 38.9216545, "rental_uris": {"ios": "https://dc.lft.to/lastmile_qr_scan", "android": "https://dc.lft.to/lastmile_qr_scan"}, "is_reserved": 0, "fusion_lon": 0.0, "fusion_lat": 0.0, "lon": -77.0337435, "name": "3efacdd57fa284acdf52e619d716fcf8"}, {"bike_id": "aa3a3e1930903a2b577efcfd2d6e9253", "type": "electric_scooter", "is_disabled": 0, "lat": 38.915661166666666, "rental_uris": {"ios": "https://dc.lft.to/lastmile_qr_scan", "android": "https://dc.lft.to/lastmile_qr_scan"}, "is_reserved": 0, "fusion_lon": 0.0, "fusion_lat": 0.0, "lon": -77.0428255, "name": "aa3a3e1930903a2b577efcfd2d6e9253"}, {"bike_id": "9c3d6ba7ad3d6b78bb02736c0d654bb4", "type": "electric_scooter", "is_disabled": 0, "lat": 38.916678166666664, "rental_uris": {"ios": "https://dc.lft.to/lastmile_qr_scan", "android": "https://dc.lft.to/lastmile_qr_scan"}, "is_reserved": 0, "fusion_lon": 0.0, "fusion_lat": 0.0, "lon": -77.02894283333333, "name": "9c3d6ba7ad3d6b78bb02736c0d654bb4"}, {"bike_id": "142554dffac401e4d0cd6997f9f83fc8", "type": "electric_scooter", "is_disabled": 0, "lat": 38.91105616666667, "rental_uris": {"ios": "https://dc.lft.to/lastmile_qr_scan", "android": "https://dc.lft.to/lastmile_qr_scan"}, "is_reserved": 0, "fusion_lon": 0.0, "fusion_lat": 0.0, "lon": -77.03294266666667, "name": "142554dffac401e4d0cd6997f9f83fc8"}, {"bike_id": "f737e1b58b82742eca4f84a279bfa765", "type": "electric_scooter", "is_disabled": 0, "lat": 38.888537166666666, "rental_uris": {"ios": "https://dc.lft.to/lastmile_qr_scan", "android": "https://dc.lft.to/lastmile_qr_scan"}, "is_reserved": 0, "fusion_lon": 0.0, "fusion_lat": 0.0, "lon": -77.00052016666666, "name": "f737e1b58b82742eca4f84a279bfa765"}, {"bike_id": "25c8ef8524925d1d98d99583fae6af7f", "type": "electric_scooter", "is_disabled": 0, "lat": 38.914202, "rental_uris": {"ios": "https://dc.lft.to/lastmile_qr_scan", "android": "https://dc.lft.to/lastmile_qr_scan"}, "is_reserved": 0, "fusion_lon": 0.0, "fusion_lat": 0.0, "lon": -77.04157083333334, "name": "25c8ef8524925d1d98d99583fae6af7f"}, {"bike_id": "78e7c1af70587dbbffe79fc453ae932b", "type": "electric_scooter", "is_disabled": 0, "lat": 38.92404483333333, "rental_uris": {"ios": "https://dc.lft.to/lastmile_qr_scan", "android": "https://dc.lft.to/lastmile_qr_scan"}, "is_reserved": 0, "fusion_lon": 0.0, "fusion_lat": 0.0, "lon": -77.029817, "name": "78e7c1af70587dbbffe79fc453ae932b"}, {"bike_id": "417b47a43c90511aad818e651d92fe54", "type": "electric_scooter", "is_disabled": 0, "lat": 38.92263483333333, "rental_uris": {"ios": "https://dc.lft.to/lastmile_qr_scan", "android": "https://dc.lft.to/lastmile_qr_scan"}, "is_reserved": 0, "fusion_lon": 0.0, "fusion_lat": 0.0, "lon": -77.04194683333333, "name": "417b47a43c90511aad818e651d92fe54"}, {"bike_id": "82eda5c6e53db59616c9178778967eb1", "type": "electric_scooter", "is_disabled": 0, "lat": 38.9178755, "rental_uris": {"ios": "https://dc.lft.to/lastmile_qr_scan", "android": "https://dc.lft.to/lastmile_qr_scan"}, "is_reserved": 0, "fusion_lon": 0.0, "fusion_lat": 0.0, "lon": -77.02705666666667, "name": "82eda5c6e53db59616c9178778967eb1"}, {"bike_id": "ae66a39739bd63e91ebe3f1741d3add2", "type": "electric_scooter", "is_disabled": 0, "lat": 38.880668666666665, "rental_uris": {"ios": "https://dc.lft.to/lastmile_qr_scan", "android": "https://dc.lft.to/lastmile_qr_scan"}, "is_reserved": 0, "fusion_lon": 0.0, "fusion_lat": 0.0, "lon": -76.93219066666667, "name": "ae66a39739bd63e91ebe3f1741d3add2"}, {"bike_id": "64443754c8d659b24616503760190399", "type": "electric_scooter", "is_disabled": 0, "lat": 38.931762666666664, "rental_uris": {"ios": "https://dc.lft.to/lastmile_qr_scan", "android": "https://dc.lft.to/lastmile_qr_scan"}, "is_reserved": 0, "fusion_lon": 0.0, "fusion_lat": 0.0, "lon": -76.99486016666667, "name": "64443754c8d659b24616503760190399"}, {"bike_id": "2141ffcd7b8404ccb5952a895cad8aff", "type": "electric_bike", "is_disabled": 0, "lat": 38.92573, "rental_uris": {"ios": "https://dc.lft.to/lastmile_qr_scan", "android": "https://dc.lft.to/lastmile_qr_scan"}, "is_reserved": 0, "fusion_lon": 0.0, "fusion_lat": 0.0, "lon": -77.0792575, "name": "2141ffcd7b8404ccb5952a895cad8aff"}, {"bike_id": "0c7d39b2d2d47e9e03729b26947e38dc", "type": "electric_scooter", "is_disabled": 0, "lat": 38.936665833333336, "rental_uris": {"ios": "https://dc.lft.to/lastmile_qr_scan", "android": "https://dc.lft.to/lastmile_qr_scan"}, "is_reserved": 0, "fusion_lon": 0.0, "fusion_lat": 0.0, "lon": -77.0356855, "name": "0c7d39b2d2d47e9e03729b26947e38dc"}, {"bike_id": "e12d4e48a4cf2fd77180afb9a6dd5ea9", "type": "electric_scooter", "is_disabled": 0, "lat": 38.8624595, "rental_uris": {"ios": "https://dc.lft.to/lastmile_qr_scan", "android": "https://dc.lft.to/lastmile_qr_scan"}, "is_reserved": 0, "fusion_lon": 0.0, "fusion_lat": 0.0, "lon": -76.99503283333334, "name": "e12d4e48a4cf2fd77180afb9a6dd5ea9"}, {"bike_id": "465eb6a8e26d1ea575d62145b909d01a", "type": "electric_scooter", "is_disabled": 0, "lat": 38.9620495, "rental_uris": {"ios": "https://dc.lft.to/lastmile_qr_scan", "android": "https://dc.lft.to/lastmile_qr_scan"}, "is_reserved": 0, "fusion_lon": 0.0, "fusion_lat": 0.0, "lon": -77.02233966666667, "name": "465eb6a8e26d1ea575d62145b909d01a"}, {"bike_id": "80182ab7474bc233fcd2a30d740d740a", "type": "electric_scooter", "is_disabled": 0, "lat": 38.8929885, "rental_uris": {"ios": "https://dc.lft.to/lastmile_qr_scan", "android": "https://dc.lft.to/lastmile_qr_scan"}, "is_reserved": 0, "fusion_lon": 0.0, "fusion_lat": 0.0, "lon": -77.01235916666667, "name": "80182ab7474bc233fcd2a30d740d740a"}, {"bike_id": "6bcbe93085991afd025f537d23ecdfa4", "type": "electric_scooter", "is_disabled": 0, "lat": 38.90410516666667, "rental_uris": {"ios": "https://dc.lft.to/lastmile_qr_scan", "android": "https://dc.lft.to/lastmile_qr_scan"}, "is_reserved": 0, "fusion_lon": 0.0, "fusion_lat": 0.0, "lon": -77.054705, "name": "6bcbe93085991afd025f537d23ecdfa4"}, {"bike_id": "e32f93114273b72328d90c37b84fb98c", "type": "electric_scooter", "is_disabled": 0, "lat": 38.927470666666665, "rental_uris": {"ios": "https://dc.lft.to/lastmile_qr_scan", "android": "https://dc.lft.to/lastmile_qr_scan"}, "is_reserved": 0, "fusion_lon": 0.0, "fusion_lat": 0.0, "lon": -77.02536183333333, "name": "e32f93114273b72328d90c37b84fb98c"}, {"bike_id": "00a04ef65829b088bf5f90a78939edec", "type": "electric_bike", "is_disabled": 0, "lat": 38.89613716666667, "rental_uris": {"ios": "https://dc.lft.to/lastmile_qr_scan", "android": "https://dc.lft.to/lastmile_qr_scan"}, "is_reserved": 0, "fusion_lon": 0.0, "fusion_lat": 0.0, "lon": -77.02227066666667, "name": "00a04ef65829b088bf5f90a78939edec"}, {"bike_id": "99f3aa9a9654e8c62ba34e131e54a244", "type": "electric_scooter", "is_disabled": 0, "lat": 38.864691, "rental_uris": {"ios": "https://dc.lft.to/lastmile_qr_scan", "android": "https://dc.lft.to/lastmile_qr_scan"}, "is_reserved": 0, "fusion_lon": 0.0, "fusion_lat": 0.0, "lon": -76.98234083333334, "name": "99f3aa9a9654e8c62ba34e131e54a244"}, {"bike_id": "039c49749aae1a5685cfb81a1f76cfdb", "type": "electric_bike", "is_disabled": 0, "lat": 38.98368133333334, "rental_uris": {"ios": "https://dc.lft.to/lastmile_qr_scan", "android": "https://dc.lft.to/lastmile_qr_scan"}, "is_reserved": 0, "fusion_lon": 0.0, "fusion_lat": 0.0, "lon": -76.97217633333334, "name": "039c49749aae1a5685cfb81a1f76cfdb"}, {"bike_id": "44544a3f80841619cdc03e312a4c1d84", "type": "electric_scooter", "is_disabled": 0, "lat": 38.91498716666667, "rental_uris": {"ios": "https://dc.lft.to/lastmile_qr_scan", "android": "https://dc.lft.to/lastmile_qr_scan"}, "is_reserved": 0, "fusion_lon": 0.0, "fusion_lat": 0.0, "lon": -77.03209183333334, "name": "44544a3f80841619cdc03e312a4c1d84"}, {"bike_id": "ab3dde2815c679e0617aead6b85e370f", "type": "electric_scooter", "is_disabled": 0, "lat": 38.94273416666667, "rental_uris": {"ios": "https://dc.lft.to/lastmile_qr_scan", "android": "https://dc.lft.to/lastmile_qr_scan"}, "is_reserved": 0, "fusion_lon": 0.0, "fusion_lat": 0.0, "lon": -77.03256233333333, "name": "ab3dde2815c679e0617aead6b85e370f"}, {"bike_id": "4c4a2028998909e259770ea1db7ae26d", "type": "electric_bike", "is_disabled": 0, "lat": 38.897369833333336, "rental_uris": {"ios": "https://dc.lft.to/lastmile_qr_scan", "android": "https://dc.lft.to/lastmile_qr_scan"}, "is_reserved": 0, "fusion_lon": 0.0, "fusion_lat": 0.0, "lon": -76.99214566666667, "name": "4c4a2028998909e259770ea1db7ae26d"}, {"bike_id": "0d782ea6b6a190452f3df478a31122e9", "type": "electric_scooter", "is_disabled": 0, "lat": 38.89541216666667, "rental_uris": {"ios": "https://dc.lft.to/lastmile_qr_scan", "android": "https://dc.lft.to/lastmile_qr_scan"}, "is_reserved": 0, "fusion_lon": 0.0, "fusion_lat": 0.0, "lon": -77.0109055, "name": "0d782ea6b6a190452f3df478a31122e9"}, {"bike_id": "3fbec347af5412e07af6ede1265ec239", "type": "electric_scooter", "is_disabled": 0, "lat": 38.90371533333333, "rental_uris": {"ios": "https://dc.lft.to/lastmile_qr_scan", "android": "https://dc.lft.to/lastmile_qr_scan"}, "is_reserved": 0, "fusion_lon": 0.0, "fusion_lat": 0.0, "lon": -77.04371916666666, "name": "3fbec347af5412e07af6ede1265ec239"}, {"bike_id": "9975d3e66fdcd6459e1399921a81e325", "type": "electric_scooter", "is_disabled": 0, "lat": 38.874218166666665, "rental_uris": {"ios": "https://dc.lft.to/lastmile_qr_scan", "android": "https://dc.lft.to/lastmile_qr_scan"}, "is_reserved": 0, "fusion_lon": 0.0, "fusion_lat": 0.0, "lon": -76.969087, "name": "9975d3e66fdcd6459e1399921a81e325"}, {"bike_id": "1094735dda539f4c6ae9f06937656b99", "type": "electric_scooter", "is_disabled": 0, "lat": 38.86372433333333, "rental_uris": {"ios": "https://dc.lft.to/lastmile_qr_scan", "android": "https://dc.lft.to/lastmile_qr_scan"}, "is_reserved": 0, "fusion_lon": 0.0, "fusion_lat": 0.0, "lon": -76.99060783333333, "name": "1094735dda539f4c6ae9f06937656b99"}, {"bike_id": "642dd968b213da6379928d648dbface8", "type": "electric_scooter", "is_disabled": 0, "lat": 38.954784333333336, "rental_uris": {"ios": "https://dc.lft.to/lastmile_qr_scan", "android": "https://dc.lft.to/lastmile_qr_scan"}, "is_reserved": 0, "fusion_lon": 0.0, "fusion_lat": 0.0, "lon": -77.08215266666667, "name": "642dd968b213da6379928d648dbface8"}, {"bike_id": "b27376e09eef65ebddac21293644978f", "type": "electric_scooter", "is_disabled": 0, "lat": 38.905546, "rental_uris": {"ios": "https://dc.lft.to/lastmile_qr_scan", "android": "https://dc.lft.to/lastmile_qr_scan"}, "is_reserved": 0, "fusion_lon": 0.0, "fusion_lat": 0.0, "lon": -77.00589683333334, "name": "b27376e09eef65ebddac21293644978f"}, {"bike_id": "6d968b0e0a11a21af50f11a9c18e7f1d", "type": "electric_scooter", "is_disabled": 0, "lat": 38.91283, "rental_uris": {"ios": "https://dc.lft.to/lastmile_qr_scan", "android": "https://dc.lft.to/lastmile_qr_scan"}, "is_reserved": 0, "fusion_lon": 0.0, "fusion_lat": 0.0, "lon": -77.0271905, "name": "6d968b0e0a11a21af50f11a9c18e7f1d"}, {"bike_id": "3b2a00ce1d0cbf2fb8d94e5f76a1d1bc", "type": "electric_scooter", "is_disabled": 0, "lat": 38.915586833333336, "rental_uris": {"ios": "https://dc.lft.to/lastmile_qr_scan", "android": "https://dc.lft.to/lastmile_qr_scan"}, "is_reserved": 0, "fusion_lon": 0.0, "fusion_lat": 0.0, "lon": -77.0450425, "name": "3b2a00ce1d0cbf2fb8d94e5f76a1d1bc"}, {"bike_id": "29a2e3c9ab53b7618d905e0998c30aef", "type": "electric_bike", "is_disabled": 0, "lat": 38.969548833333334, "rental_uris": {"ios": "https://dc.lft.to/lastmile_qr_scan", "android": "https://dc.lft.to/lastmile_qr_scan"}, "is_reserved": 0, "fusion_lon": 0.0, "fusion_lat": 0.0, "lon": -76.95747783333333, "name": "29a2e3c9ab53b7618d905e0998c30aef"}, {"bike_id": "153f1e34110fb3545a8c6737137d7f4c", "type": "electric_scooter", "is_disabled": 0, "lat": 38.907144333333335, "rental_uris": {"ios": "https://dc.lft.to/lastmile_qr_scan", "android": "https://dc.lft.to/lastmile_qr_scan"}, "is_reserved": 0, "fusion_lon": 0.0, "fusion_lat": 0.0, "lon": -77.05017033333333, "name": "153f1e34110fb3545a8c6737137d7f4c"}, {"bike_id": "30df3629231d6e7f95e6b2087b320d4d", "type": "electric_scooter", "is_disabled": 0, "lat": 38.935455166666664, "rental_uris": {"ios": "https://dc.lft.to/lastmile_qr_scan", "android": "https://dc.lft.to/lastmile_qr_scan"}, "is_reserved": 0, "fusion_lon": 0.0, "fusion_lat": 0.0, "lon": -77.05862116666667, "name": "30df3629231d6e7f95e6b2087b320d4d"}, {"bike_id": "dee3c5ab1dbf42a07899108d7bd16137", "type": "electric_scooter", "is_disabled": 0, "lat": 38.902379333333336, "rental_uris": {"ios": "https://dc.lft.to/lastmile_qr_scan", "android": "https://dc.lft.to/lastmile_qr_scan"}, "is_reserved": 0, "fusion_lon": 0.0, "fusion_lat": 0.0, "lon": -77.00201516666667, "name": "dee3c5ab1dbf42a07899108d7bd16137"}, {"bike_id": "0f76883963791d02f95ca3885c45ca00", "type": "electric_scooter", "is_disabled": 0, "lat": 38.900601333333334, "rental_uris": {"ios": "https://dc.lft.to/lastmile_qr_scan", "android": "https://dc.lft.to/lastmile_qr_scan"}, "is_reserved": 0, "fusion_lon": 0.0, "fusion_lat": 0.0, "lon": -77.0467235, "name": "0f76883963791d02f95ca3885c45ca00"}, {"bike_id": "1e0c9217ec0b4d2abc77a9bc2ef34cad", "type": "electric_scooter", "is_disabled": 0, "lat": 38.9247645, "rental_uris": {"ios": "https://dc.lft.to/lastmile_qr_scan", "android": "https://dc.lft.to/lastmile_qr_scan"}, "is_reserved": 0, "fusion_lon": 0.0, "fusion_lat": 0.0, "lon": -77.02836833333333, "name": "1e0c9217ec0b4d2abc77a9bc2ef34cad"}, {"bike_id": "94f5d19d75e3b32a358bc89c8a31a22a", "type": "electric_scooter", "is_disabled": 0, "lat": 38.883025833333335, "rental_uris": {"ios": "https://dc.lft.to/lastmile_qr_scan", "android": "https://dc.lft.to/lastmile_qr_scan"}, "is_reserved": 0, "fusion_lon": 0.0, "fusion_lat": 0.0, "lon": -76.948544, "name": "94f5d19d75e3b32a358bc89c8a31a22a"}, {"bike_id": "b0d465b188141a1405952eb349913d83", "type": "electric_scooter", "is_disabled": 0, "lat": 38.9259385, "rental_uris": {"ios": "https://dc.lft.to/lastmile_qr_scan", "android": "https://dc.lft.to/lastmile_qr_scan"}, "is_reserved": 0, "fusion_lon": 0.0, "fusion_lat": 0.0, "lon": -77.04401, "name": "b0d465b188141a1405952eb349913d83"}, {"bike_id": "1f15540dfcf252fcd0cf299424e25c61", "type": "electric_scooter", "is_disabled": 0, "lat": 38.864674666666666, "rental_uris": {"ios": "https://dc.lft.to/lastmile_qr_scan", "android": "https://dc.lft.to/lastmile_qr_scan"}, "is_reserved": 0, "fusion_lon": 0.0, "fusion_lat": 0.0, "lon": -76.97742966666667, "name": "1f15540dfcf252fcd0cf299424e25c61"}, {"bike_id": "da36106058700f44cd5d2540cadbd8e9", "type": "electric_scooter", "is_disabled": 0, "lat": 38.906768, "rental_uris": {"ios": "https://dc.lft.to/lastmile_qr_scan", "android": "https://dc.lft.to/lastmile_qr_scan"}, "is_reserved": 0, "fusion_lon": 0.0, "fusion_lat": 0.0, "lon": -77.0382735, "name": "da36106058700f44cd5d2540cadbd8e9"}, {"bike_id": "77e84b2cfc28f21d28c0a899d2aedabf", "type": "electric_scooter", "is_disabled": 0, "lat": 38.878274833333336, "rental_uris": {"ios": "https://dc.lft.to/lastmile_qr_scan", "android": "https://dc.lft.to/lastmile_qr_scan"}, "is_reserved": 0, "fusion_lon": 0.0, "fusion_lat": 0.0, "lon": -76.96309083333334, "name": "77e84b2cfc28f21d28c0a899d2aedabf"}, {"bike_id": "768994b2316f3828c4937bd9014e7063", "type": "electric_scooter", "is_disabled": 0, "lat": 38.8709305, "rental_uris": {"ios": "https://dc.lft.to/lastmile_qr_scan", "android": "https://dc.lft.to/lastmile_qr_scan"}, "is_reserved": 0, "fusion_lon": 0.0, "fusion_lat": 0.0, "lon": -76.96584683333333, "name": "768994b2316f3828c4937bd9014e7063"}, {"bike_id": "378707bd6c09efded2b114b773d242f5", "type": "electric_bike", "is_disabled": 0, "lat": 39.0527645, "rental_uris": {"ios": "https://dc.lft.to/lastmile_qr_scan", "android": "https://dc.lft.to/lastmile_qr_scan"}, "is_reserved": 0, "fusion_lon": 0.0, "fusion_lat": 0.0, "lon": -77.08069433333333, "name": "378707bd6c09efded2b114b773d242f5"}, {"bike_id": "a0a43c6b0e8a351a8cd01e7881bf2868", "type": "electric_scooter", "is_disabled": 0, "lat": 38.914229666666664, "rental_uris": {"ios": "https://dc.lft.to/lastmile_qr_scan", "android": "https://dc.lft.to/lastmile_qr_scan"}, "is_reserved": 0, "fusion_lon": 0.0, "fusion_lat": 0.0, "lon": -77.02179233333334, "name": "a0a43c6b0e8a351a8cd01e7881bf2868"}, {"bike_id": "4d938efae39260f49c336b1a6e1c8961", "type": "electric_scooter", "is_disabled": 0, "lat": 38.866938833333336, "rental_uris": {"ios": "https://dc.lft.to/lastmile_qr_scan", "android": "https://dc.lft.to/lastmile_qr_scan"}, "is_reserved": 0, "fusion_lon": 0.0, "fusion_lat": 0.0, "lon": -76.98711016666667, "name": "4d938efae39260f49c336b1a6e1c8961"}, {"bike_id": "b4e764888235ef06957d39a219441c15", "type": "electric_scooter", "is_disabled": 0, "lat": 38.913228, "rental_uris": {"ios": "https://dc.lft.to/lastmile_qr_scan", "android": "https://dc.lft.to/lastmile_qr_scan"}, "is_reserved": 0, "fusion_lon": 0.0, "fusion_lat": 0.0, "lon": -77.04335433333334, "name": "b4e764888235ef06957d39a219441c15"}, {"bike_id": "d7b8c5d97453e289be79a2ee4f9fc67b", "type": "electric_scooter", "is_disabled": 0, "lat": 38.910496333333334, "rental_uris": {"ios": "https://dc.lft.to/lastmile_qr_scan", "android": "https://dc.lft.to/lastmile_qr_scan"}, "is_reserved": 0, "fusion_lon": 0.0, "fusion_lat": 0.0, "lon": -77.0268655, "name": "d7b8c5d97453e289be79a2ee4f9fc67b"}, {"bike_id": "2460ece32a7c677931df4af33a34b844", "type": "electric_scooter", "is_disabled": 0, "lat": 38.94084983333333, "rental_uris": {"ios": "https://dc.lft.to/lastmile_qr_scan", "android": "https://dc.lft.to/lastmile_qr_scan"}, "is_reserved": 0, "fusion_lon": 0.0, "fusion_lat": 0.0, "lon": -77.02723216666666, "name": "2460ece32a7c677931df4af33a34b844"}, {"bike_id": "e4a6afeadbb4252c64ace91fff7d102d", "type": "electric_scooter", "is_disabled": 0, "lat": 38.899990833333334, "rental_uris": {"ios": "https://dc.lft.to/lastmile_qr_scan", "android": "https://dc.lft.to/lastmile_qr_scan"}, "is_reserved": 0, "fusion_lon": 0.0, "fusion_lat": 0.0, "lon": -77.04147766666667, "name": "e4a6afeadbb4252c64ace91fff7d102d"}, {"bike_id": "0480d543f920a7d76b19aba3fca5116a", "type": "electric_scooter", "is_disabled": 0, "lat": 38.9181935, "rental_uris": {"ios": "https://dc.lft.to/lastmile_qr_scan", "android": "https://dc.lft.to/lastmile_qr_scan"}, "is_reserved": 0, "fusion_lon": 0.0, "fusion_lat": 0.0, "lon": -77.04937483333333, "name": "0480d543f920a7d76b19aba3fca5116a"}, {"bike_id": "47b209c66527096c90ec6d4f36b07fff", "type": "electric_scooter", "is_disabled": 0, "lat": 38.917067833333334, "rental_uris": {"ios": "https://dc.lft.to/lastmile_qr_scan", "android": "https://dc.lft.to/lastmile_qr_scan"}, "is_reserved": 0, "fusion_lon": 0.0, "fusion_lat": 0.0, "lon": -77.00654866666666, "name": "47b209c66527096c90ec6d4f36b07fff"}, {"bike_id": "6c3efbf749578f018365705596587d2d", "type": "electric_scooter", "is_disabled": 0, "lat": 38.91223316666667, "rental_uris": {"ios": "https://dc.lft.to/lastmile_qr_scan", "android": "https://dc.lft.to/lastmile_qr_scan"}, "is_reserved": 0, "fusion_lon": 0.0, "fusion_lat": 0.0, "lon": -77.02715766666667, "name": "6c3efbf749578f018365705596587d2d"}, {"bike_id": "43fe297ff45b7bbd820cc5ed2e0f34e5", "type": "electric_scooter", "is_disabled": 0, "lat": 38.899239333333334, "rental_uris": {"ios": "https://dc.lft.to/lastmile_qr_scan", "android": "https://dc.lft.to/lastmile_qr_scan"}, "is_reserved": 0, "fusion_lon": 0.0, "fusion_lat": 0.0, "lon": -77.053684, "name": "43fe297ff45b7bbd820cc5ed2e0f34e5"}, {"bike_id": "d3f901ef3c19ce91e871549d67b9bdda", "type": "electric_scooter", "is_disabled": 0, "lat": 38.92334733333333, "rental_uris": {"ios": "https://dc.lft.to/lastmile_qr_scan", "android": "https://dc.lft.to/lastmile_qr_scan"}, "is_reserved": 0, "fusion_lon": 0.0, "fusion_lat": 0.0, "lon": -77.04168333333334, "name": "d3f901ef3c19ce91e871549d67b9bdda"}, {"bike_id": "49a996f6461dbca8e9d37c64b2c96ec8", "type": "electric_scooter", "is_disabled": 0, "lat": 38.9010845, "rental_uris": {"ios": "https://dc.lft.to/lastmile_qr_scan", "android": "https://dc.lft.to/lastmile_qr_scan"}, "is_reserved": 0, "fusion_lon": 0.0, "fusion_lat": 0.0, "lon": -77.018325, "name": "49a996f6461dbca8e9d37c64b2c96ec8"}, {"bike_id": "1c4137377786323553f261af55e4761f", "type": "electric_scooter", "is_disabled": 0, "lat": 38.905333, "rental_uris": {"ios": "https://dc.lft.to/lastmile_qr_scan", "android": "https://dc.lft.to/lastmile_qr_scan"}, "is_reserved": 0, "fusion_lon": 0.0, "fusion_lat": 0.0, "lon": -77.06135283333333, "name": "1c4137377786323553f261af55e4761f"}, {"bike_id": "a876cb5cb3b1486f28a64c75d6ff3879", "type": "electric_scooter", "is_disabled": 0, "lat": 38.8667385, "rental_uris": {"ios": "https://dc.lft.to/lastmile_qr_scan", "android": "https://dc.lft.to/lastmile_qr_scan"}, "is_reserved": 0, "fusion_lon": 0.0, "fusion_lat": 0.0, "lon": -76.98534066666667, "name": "a876cb5cb3b1486f28a64c75d6ff3879"}, {"bike_id": "fcb8a570300e97f37c6ec2338d75dd8e", "type": "electric_bike", "is_disabled": 0, "lat": 38.96311333333333, "rental_uris": {"ios": "https://dc.lft.to/lastmile_qr_scan", "android": "https://dc.lft.to/lastmile_qr_scan"}, "is_reserved": 0, "fusion_lon": 0.0, "fusion_lat": 0.0, "lon": -77.01099766666667, "name": "fcb8a570300e97f37c6ec2338d75dd8e"}, {"bike_id": "78d277a5caab6a195032b5a24cf395f2", "type": "electric_scooter", "is_disabled": 0, "lat": 38.87420783333334, "rental_uris": {"ios": "https://dc.lft.to/lastmile_qr_scan", "android": "https://dc.lft.to/lastmile_qr_scan"}, "is_reserved": 0, "fusion_lon": 0.0, "fusion_lat": 0.0, "lon": -76.96909916666667, "name": "78d277a5caab6a195032b5a24cf395f2"}, {"bike_id": "bfeb30140cebfa173c39c05ce0afc186", "type": "electric_bike", "is_disabled": 0, "lat": 38.952299833333335, "rental_uris": {"ios": "https://dc.lft.to/lastmile_qr_scan", "android": "https://dc.lft.to/lastmile_qr_scan"}, "is_reserved": 0, "fusion_lon": 0.0, "fusion_lat": 0.0, "lon": -76.97007383333333, "name": "bfeb30140cebfa173c39c05ce0afc186"}, {"bike_id": "9d513886e0d237bb39b74d70e1874dda", "type": "electric_scooter", "is_disabled": 0, "lat": 38.89714683333333, "rental_uris": {"ios": "https://dc.lft.to/lastmile_qr_scan", "android": "https://dc.lft.to/lastmile_qr_scan"}, "is_reserved": 0, "fusion_lon": 0.0, "fusion_lat": 0.0, "lon": -77.00847916666666, "name": "9d513886e0d237bb39b74d70e1874dda"}, {"bike_id": "59a593dcff5d84f47c8323e15e25389b", "type": "electric_scooter", "is_disabled": 0, "lat": 38.9050135, "rental_uris": {"ios": "https://dc.lft.to/lastmile_qr_scan", "android": "https://dc.lft.to/lastmile_qr_scan"}, "is_reserved": 0, "fusion_lon": 0.0, "fusion_lat": 0.0, "lon": -77.0601745, "name": "59a593dcff5d84f47c8323e15e25389b"}, {"bike_id": "0ec40d3163370e1ce72b71df9a9b7809", "type": "electric_scooter", "is_disabled": 0, "lat": 38.91631566666667, "rental_uris": {"ios": "https://dc.lft.to/lastmile_qr_scan", "android": "https://dc.lft.to/lastmile_qr_scan"}, "is_reserved": 0, "fusion_lon": 0.0, "fusion_lat": 0.0, "lon": -77.03134633333333, "name": "0ec40d3163370e1ce72b71df9a9b7809"}, {"bike_id": "33de01ed462cff3cfe78bc83af1a4f93", "type": "electric_bike", "is_disabled": 0, "lat": 38.9631925, "rental_uris": {"ios": "https://dc.lft.to/lastmile_qr_scan", "android": "https://dc.lft.to/lastmile_qr_scan"}, "is_reserved": 0, "fusion_lon": 0.0, "fusion_lat": 0.0, "lon": -76.973571, "name": "33de01ed462cff3cfe78bc83af1a4f93"}, {"bike_id": "841fcab48c9747f977c59b135b07e9f2", "type": "electric_scooter", "is_disabled": 0, "lat": 38.90366216666666, "rental_uris": {"ios": "https://dc.lft.to/lastmile_qr_scan", "android": "https://dc.lft.to/lastmile_qr_scan"}, "is_reserved": 0, "fusion_lon": 0.0, "fusion_lat": 0.0, "lon": -77.00751166666667, "name": "841fcab48c9747f977c59b135b07e9f2"}, {"bike_id": "6d2b0d7ac1a05801784da8dc6b9de50a", "type": "electric_scooter", "is_disabled": 0, "lat": 38.89253883333333, "rental_uris": {"ios": "https://dc.lft.to/lastmile_qr_scan", "android": "https://dc.lft.to/lastmile_qr_scan"}, "is_reserved": 0, "fusion_lon": 0.0, "fusion_lat": 0.0, "lon": -77.03353966666667, "name": "6d2b0d7ac1a05801784da8dc6b9de50a"}, {"bike_id": "f86d1680ee88bc8c1a1a50c78e61c955", "type": "electric_scooter", "is_disabled": 0, "lat": 38.906757666666664, "rental_uris": {"ios": "https://dc.lft.to/lastmile_qr_scan", "android": "https://dc.lft.to/lastmile_qr_scan"}, "is_reserved": 0, "fusion_lon": 0.0, "fusion_lat": 0.0, "lon": -77.03828966666667, "name": "f86d1680ee88bc8c1a1a50c78e61c955"}, {"bike_id": "ff36c77aef152096961670083f94aa6c", "type": "electric_bike", "is_disabled": 0, "lat": 38.9085495, "rental_uris": {"ios": "https://dc.lft.to/lastmile_qr_scan", "android": "https://dc.lft.to/lastmile_qr_scan"}, "is_reserved": 0, "fusion_lon": 0.0, "fusion_lat": 0.0, "lon": -76.99143383333333, "name": "ff36c77aef152096961670083f94aa6c"}, {"bike_id": "e189a6dbcd557df694e259b62b8824c4", "type": "electric_scooter", "is_disabled": 0, "lat": 38.90810833333333, "rental_uris": {"ios": "https://dc.lft.to/lastmile_qr_scan", "android": "https://dc.lft.to/lastmile_qr_scan"}, "is_reserved": 0, "fusion_lon": 0.0, "fusion_lat": 0.0, "lon": -77.03459916666667, "name": "e189a6dbcd557df694e259b62b8824c4"}, {"bike_id": "74528a48e94d134080dba18a8aa7a20b", "type": "electric_scooter", "is_disabled": 0, "lat": 38.92131783333333, "rental_uris": {"ios": "https://dc.lft.to/lastmile_qr_scan", "android": "https://dc.lft.to/lastmile_qr_scan"}, "is_reserved": 0, "fusion_lon": 0.0, "fusion_lat": 0.0, "lon": -77.041359, "name": "74528a48e94d134080dba18a8aa7a20b"}, {"bike_id": "4be982a51374a5470da875127e9185e0", "type": "electric_scooter", "is_disabled": 0, "lat": 38.923148, "rental_uris": {"ios": "https://dc.lft.to/lastmile_qr_scan", "android": "https://dc.lft.to/lastmile_qr_scan"}, "is_reserved": 0, "fusion_lon": 0.0, "fusion_lat": 0.0, "lon": -77.03906683333334, "name": "4be982a51374a5470da875127e9185e0"}, {"bike_id": "98a6ebe2fc23303080f5d8f763b9488d", "type": "electric_scooter", "is_disabled": 0, "lat": 38.918085833333336, "rental_uris": {"ios": "https://dc.lft.to/lastmile_qr_scan", "android": "https://dc.lft.to/lastmile_qr_scan"}, "is_reserved": 0, "fusion_lon": 0.0, "fusion_lat": 0.0, "lon": -77.0366405, "name": "98a6ebe2fc23303080f5d8f763b9488d"}, {"bike_id": "2302af9d275deeb36ff79fdabd110bcf", "type": "electric_scooter", "is_disabled": 0, "lat": 38.9073275, "rental_uris": {"ios": "https://dc.lft.to/lastmile_qr_scan", "android": "https://dc.lft.to/lastmile_qr_scan"}, "is_reserved": 0, "fusion_lon": 0.0, "fusion_lat": 0.0, "lon": -77.02948833333333, "name": "2302af9d275deeb36ff79fdabd110bcf"}, {"bike_id": "a147aa13ae71307ffc19c97159caa421", "type": "electric_scooter", "is_disabled": 0, "lat": 38.92363, "rental_uris": {"ios": "https://dc.lft.to/lastmile_qr_scan", "android": "https://dc.lft.to/lastmile_qr_scan"}, "is_reserved": 0, "fusion_lon": 0.0, "fusion_lat": 0.0, "lon": -77.05126366666667, "name": "a147aa13ae71307ffc19c97159caa421"}, {"bike_id": "c7d9661b056c8d891f8a2cf4195f749e", "type": "electric_scooter", "is_disabled": 0, "lat": 38.932452166666664, "rental_uris": {"ios": "https://dc.lft.to/lastmile_qr_scan", "android": "https://dc.lft.to/lastmile_qr_scan"}, "is_reserved": 0, "fusion_lon": 0.0, "fusion_lat": 0.0, "lon": -77.0364405, "name": "c7d9661b056c8d891f8a2cf4195f749e"}, {"bike_id": "b7763625afcd522399d0ea88c7cbfcae", "type": "electric_scooter", "is_disabled": 0, "lat": 38.887633, "rental_uris": {"ios": "https://dc.lft.to/lastmile_qr_scan", "android": "https://dc.lft.to/lastmile_qr_scan"}, "is_reserved": 0, "fusion_lon": 0.0, "fusion_lat": 0.0, "lon": -76.956022, "name": "b7763625afcd522399d0ea88c7cbfcae"}, {"bike_id": "12b20b3bc219d9ad4e91971ed4c3e172", "type": "electric_scooter", "is_disabled": 0, "lat": 38.9115235, "rental_uris": {"ios": "https://dc.lft.to/lastmile_qr_scan", "android": "https://dc.lft.to/lastmile_qr_scan"}, "is_reserved": 0, "fusion_lon": 0.0, "fusion_lat": 0.0, "lon": -77.04434666666667, "name": "12b20b3bc219d9ad4e91971ed4c3e172"}, {"bike_id": "037f1a92eca71191967b47b4eb553a32", "type": "electric_bike", "is_disabled": 0, "lat": 38.845244, "rental_uris": {"ios": "https://dc.lft.to/lastmile_qr_scan", "android": "https://dc.lft.to/lastmile_qr_scan"}, "is_reserved": 0, "fusion_lon": 0.0, "fusion_lat": 0.0, "lon": -76.9739675, "name": "037f1a92eca71191967b47b4eb553a32"}, {"bike_id": "04771a700372fe5953c1008c8a0103c1", "type": "electric_scooter", "is_disabled": 0, "lat": 38.950197333333335, "rental_uris": {"ios": "https://dc.lft.to/lastmile_qr_scan", "android": "https://dc.lft.to/lastmile_qr_scan"}, "is_reserved": 0, "fusion_lon": 0.0, "fusion_lat": 0.0, "lon": -77.00876833333334, "name": "04771a700372fe5953c1008c8a0103c1"}, {"bike_id": "11a3f8d184808069da411c21e050f0cd", "type": "electric_scooter", "is_disabled": 0, "lat": 38.92320266666667, "rental_uris": {"ios": "https://dc.lft.to/lastmile_qr_scan", "android": "https://dc.lft.to/lastmile_qr_scan"}, "is_reserved": 0, "fusion_lon": 0.0, "fusion_lat": 0.0, "lon": -77.02137333333333, "name": "11a3f8d184808069da411c21e050f0cd"}, {"bike_id": "cfad9b43b6deff0050af654f26134957", "type": "electric_scooter", "is_disabled": 0, "lat": 38.932106833333336, "rental_uris": {"ios": "https://dc.lft.to/lastmile_qr_scan", "android": "https://dc.lft.to/lastmile_qr_scan"}, "is_reserved": 0, "fusion_lon": 0.0, "fusion_lat": 0.0, "lon": -77.03502033333334, "name": "cfad9b43b6deff0050af654f26134957"}, {"bike_id": "fd13008f2e4efc3bc91ed4fa73eda00f", "type": "electric_scooter", "is_disabled": 0, "lat": 38.90209883333333, "rental_uris": {"ios": "https://dc.lft.to/lastmile_qr_scan", "android": "https://dc.lft.to/lastmile_qr_scan"}, "is_reserved": 0, "fusion_lon": 0.0, "fusion_lat": 0.0, "lon": -77.04750966666667, "name": "fd13008f2e4efc3bc91ed4fa73eda00f"}, {"bike_id": "ef0fe6a219001010ae0c1859a518832f", "type": "electric_scooter", "is_disabled": 0, "lat": 38.90081, "rental_uris": {"ios": "https://dc.lft.to/lastmile_qr_scan", "android": "https://dc.lft.to/lastmile_qr_scan"}, "is_reserved": 0, "fusion_lon": 0.0, "fusion_lat": 0.0, "lon": -77.0468735, "name": "ef0fe6a219001010ae0c1859a518832f"}, {"bike_id": "e24eba4f4caba555ecaa53469b2b2b9b", "type": "electric_scooter", "is_disabled": 0, "lat": 38.905828666666665, "rental_uris": {"ios": "https://dc.lft.to/lastmile_qr_scan", "android": "https://dc.lft.to/lastmile_qr_scan"}, "is_reserved": 0, "fusion_lon": 0.0, "fusion_lat": 0.0, "lon": -77.00471083333333, "name": "e24eba4f4caba555ecaa53469b2b2b9b"}, {"bike_id": "743be44016dc5e2e47a3c0f04bf8c893", "type": "electric_scooter", "is_disabled": 0, "lat": 38.91569716666667, "rental_uris": {"ios": "https://dc.lft.to/lastmile_qr_scan", "android": "https://dc.lft.to/lastmile_qr_scan"}, "is_reserved": 0, "fusion_lon": 0.0, "fusion_lat": 0.0, "lon": -77.01998766666667, "name": "743be44016dc5e2e47a3c0f04bf8c893"}, {"bike_id": "b8b3053c683f3e28f33315371579ba12", "type": "electric_scooter", "is_disabled": 0, "lat": 38.91566233333333, "rental_uris": {"ios": "https://dc.lft.to/lastmile_qr_scan", "android": "https://dc.lft.to/lastmile_qr_scan"}, "is_reserved": 0, "fusion_lon": 0.0, "fusion_lat": 0.0, "lon": -77.0206005, "name": "b8b3053c683f3e28f33315371579ba12"}, {"bike_id": "d764052c5990291c37e2e160b515a7ee", "type": "electric_scooter", "is_disabled": 0, "lat": 38.90682316666667, "rental_uris": {"ios": "https://dc.lft.to/lastmile_qr_scan", "android": "https://dc.lft.to/lastmile_qr_scan"}, "is_reserved": 0, "fusion_lon": 0.0, "fusion_lat": 0.0, "lon": -77.0269525, "name": "d764052c5990291c37e2e160b515a7ee"}, {"bike_id": "21027a82be58c6564078ddd8285c0df3", "type": "electric_scooter", "is_disabled": 0, "lat": 38.89528983333334, "rental_uris": {"ios": "https://dc.lft.to/lastmile_qr_scan", "android": "https://dc.lft.to/lastmile_qr_scan"}, "is_reserved": 0, "fusion_lon": 0.0, "fusion_lat": 0.0, "lon": -77.01106833333333, "name": "21027a82be58c6564078ddd8285c0df3"}, {"bike_id": "015439f8ca4a6dfa6849ce320db9290a", "type": "electric_scooter", "is_disabled": 0, "lat": 38.91115816666667, "rental_uris": {"ios": "https://dc.lft.to/lastmile_qr_scan", "android": "https://dc.lft.to/lastmile_qr_scan"}, "is_reserved": 0, "fusion_lon": 0.0, "fusion_lat": 0.0, "lon": -77.0447905, "name": "015439f8ca4a6dfa6849ce320db9290a"}, {"bike_id": "167e9f2e54c06c0983d7466bdb4199cb", "type": "electric_scooter", "is_disabled": 0, "lat": 38.917638833333335, "rental_uris": {"ios": "https://dc.lft.to/lastmile_qr_scan", "android": "https://dc.lft.to/lastmile_qr_scan"}, "is_reserved": 0, "fusion_lon": 0.0, "fusion_lat": 0.0, "lon": -77.04770483333333, "name": "167e9f2e54c06c0983d7466bdb4199cb"}, {"bike_id": "61f5f24b4adc05191ef5f8b9580397c6", "type": "electric_scooter", "is_disabled": 0, "lat": 38.9027705, "rental_uris": {"ios": "https://dc.lft.to/lastmile_qr_scan", "android": "https://dc.lft.to/lastmile_qr_scan"}, "is_reserved": 0, "fusion_lon": 0.0, "fusion_lat": 0.0, "lon": -77.01904283333333, "name": "61f5f24b4adc05191ef5f8b9580397c6"}, {"bike_id": "1fb0b8ce4eb2c45f4fb38e9f8ce68ad9", "type": "electric_bike", "is_disabled": 0, "lat": 38.87933666666667, "rental_uris": {"ios": "https://dc.lft.to/lastmile_qr_scan", "android": "https://dc.lft.to/lastmile_qr_scan"}, "is_reserved": 0, "fusion_lon": 0.0, "fusion_lat": 0.0, "lon": -76.980844, "name": "1fb0b8ce4eb2c45f4fb38e9f8ce68ad9"}, {"bike_id": "be6cd2ee6514886fe9a31212a49aae40", "type": "electric_scooter", "is_disabled": 0, "lat": 38.900908333333334, "rental_uris": {"ios": "https://dc.lft.to/lastmile_qr_scan", "android": "https://dc.lft.to/lastmile_qr_scan"}, "is_reserved": 0, "fusion_lon": 0.0, "fusion_lat": 0.0, "lon": -77.05057916666667, "name": "be6cd2ee6514886fe9a31212a49aae40"}, {"bike_id": "f3a400bdd67ed4ff57260ba1e1e589c8", "type": "electric_scooter", "is_disabled": 0, "lat": 38.900007333333335, "rental_uris": {"ios": "https://dc.lft.to/lastmile_qr_scan", "android": "https://dc.lft.to/lastmile_qr_scan"}, "is_reserved": 0, "fusion_lon": 0.0, "fusion_lat": 0.0, "lon": -77.04658116666667, "name": "f3a400bdd67ed4ff57260ba1e1e589c8"}, {"bike_id": "a0fd7eed33c57e1415a8504b45270ac6", "type": "electric_scooter", "is_disabled": 0, "lat": 38.91357933333333, "rental_uris": {"ios": "https://dc.lft.to/lastmile_qr_scan", "android": "https://dc.lft.to/lastmile_qr_scan"}, "is_reserved": 0, "fusion_lon": 0.0, "fusion_lat": 0.0, "lon": -77.02569666666666, "name": "a0fd7eed33c57e1415a8504b45270ac6"}, {"bike_id": "95b9d659f6eb205a090425b2c5576a10", "type": "electric_scooter", "is_disabled": 0, "lat": 38.89617966666667, "rental_uris": {"ios": "https://dc.lft.to/lastmile_qr_scan", "android": "https://dc.lft.to/lastmile_qr_scan"}, "is_reserved": 0, "fusion_lon": 0.0, "fusion_lat": 0.0, "lon": -76.98162233333333, "name": "95b9d659f6eb205a090425b2c5576a10"}, {"bike_id": "149996604f4ef7c5162c0398c6319bf4", "type": "electric_scooter", "is_disabled": 0, "lat": 38.91708916666666, "rental_uris": {"ios": "https://dc.lft.to/lastmile_qr_scan", "android": "https://dc.lft.to/lastmile_qr_scan"}, "is_reserved": 0, "fusion_lon": 0.0, "fusion_lat": 0.0, "lon": -77.01073716666667, "name": "149996604f4ef7c5162c0398c6319bf4"}, {"bike_id": "8f08d85d77939456766a0a7ada9a9298", "type": "electric_bike", "is_disabled": 0, "lat": 38.898072166666665, "rental_uris": {"ios": "https://dc.lft.to/lastmile_qr_scan", "android": "https://dc.lft.to/lastmile_qr_scan"}, "is_reserved": 0, "fusion_lon": 0.0, "fusion_lat": 0.0, "lon": -77.02482533333334, "name": "8f08d85d77939456766a0a7ada9a9298"}, {"bike_id": "1f0c99dd1339c778a51e4fdc6988217d", "type": "electric_scooter", "is_disabled": 0, "lat": 38.95405683333333, "rental_uris": {"ios": "https://dc.lft.to/lastmile_qr_scan", "android": "https://dc.lft.to/lastmile_qr_scan"}, "is_reserved": 0, "fusion_lon": 0.0, "fusion_lat": 0.0, "lon": -76.99855166666667, "name": "1f0c99dd1339c778a51e4fdc6988217d"}, {"bike_id": "b215335626ec25a9397ad2c4212f5ba4", "type": "electric_scooter", "is_disabled": 0, "lat": 38.93332266666667, "rental_uris": {"ios": "https://dc.lft.to/lastmile_qr_scan", "android": "https://dc.lft.to/lastmile_qr_scan"}, "is_reserved": 0, "fusion_lon": 0.0, "fusion_lat": 0.0, "lon": -77.03878, "name": "b215335626ec25a9397ad2c4212f5ba4"}, {"bike_id": "8261d23eb8caadd0dbdab6976c529b11", "type": "electric_scooter", "is_disabled": 0, "lat": 38.92656933333333, "rental_uris": {"ios": "https://dc.lft.to/lastmile_qr_scan", "android": "https://dc.lft.to/lastmile_qr_scan"}, "is_reserved": 0, "fusion_lon": 0.0, "fusion_lat": 0.0, "lon": -77.03729583333333, "name": "8261d23eb8caadd0dbdab6976c529b11"}, {"bike_id": "902f2897997c9c9a1237b54898eae655", "type": "electric_scooter", "is_disabled": 0, "lat": 38.920131, "rental_uris": {"ios": "https://dc.lft.to/lastmile_qr_scan", "android": "https://dc.lft.to/lastmile_qr_scan"}, "is_reserved": 0, "fusion_lon": 0.0, "fusion_lat": 0.0, "lon": -77.02800516666667, "name": "902f2897997c9c9a1237b54898eae655"}, {"bike_id": "ab6542c1ea0ff3ad9767e4bd31767986", "type": "electric_scooter", "is_disabled": 0, "lat": 38.86244966666667, "rental_uris": {"ios": "https://dc.lft.to/lastmile_qr_scan", "android": "https://dc.lft.to/lastmile_qr_scan"}, "is_reserved": 0, "fusion_lon": 0.0, "fusion_lat": 0.0, "lon": -76.99504616666667, "name": "ab6542c1ea0ff3ad9767e4bd31767986"}, {"bike_id": "1b0e7c637e918b210bd8a25711a3d263", "type": "electric_scooter", "is_disabled": 0, "lat": 38.91566683333333, "rental_uris": {"ios": "https://dc.lft.to/lastmile_qr_scan", "android": "https://dc.lft.to/lastmile_qr_scan"}, "is_reserved": 0, "fusion_lon": 0.0, "fusion_lat": 0.0, "lon": -77.0314005, "name": "1b0e7c637e918b210bd8a25711a3d263"}, {"bike_id": "1bb6362530d9c90fb569be623999177a", "type": "electric_scooter", "is_disabled": 0, "lat": 38.93369633333333, "rental_uris": {"ios": "https://dc.lft.to/lastmile_qr_scan", "android": "https://dc.lft.to/lastmile_qr_scan"}, "is_reserved": 0, "fusion_lon": 0.0, "fusion_lat": 0.0, "lon": -77.03988516666666, "name": "1bb6362530d9c90fb569be623999177a"}, {"bike_id": "ef114502f360bbf350ffe7e07b7e6e2e", "type": "electric_scooter", "is_disabled": 0, "lat": 38.917326, "rental_uris": {"ios": "https://dc.lft.to/lastmile_qr_scan", "android": "https://dc.lft.to/lastmile_qr_scan"}, "is_reserved": 0, "fusion_lon": 0.0, "fusion_lat": 0.0, "lon": -77.0363375, "name": "ef114502f360bbf350ffe7e07b7e6e2e"}, {"bike_id": "71dc2819035fa5c37b57dfe03f6f5237", "type": "electric_scooter", "is_disabled": 0, "lat": 38.88063616666667, "rental_uris": {"ios": "https://dc.lft.to/lastmile_qr_scan", "android": "https://dc.lft.to/lastmile_qr_scan"}, "is_reserved": 0, "fusion_lon": 0.0, "fusion_lat": 0.0, "lon": -76.932153, "name": "71dc2819035fa5c37b57dfe03f6f5237"}, {"bike_id": "0f4414ca8d88a20bcb8e7447aa113180", "type": "electric_scooter", "is_disabled": 0, "lat": 38.90672516666667, "rental_uris": {"ios": "https://dc.lft.to/lastmile_qr_scan", "android": "https://dc.lft.to/lastmile_qr_scan"}, "is_reserved": 0, "fusion_lon": 0.0, "fusion_lat": 0.0, "lon": -77.0718655, "name": "0f4414ca8d88a20bcb8e7447aa113180"}, {"bike_id": "7a20d280358e558665ee98706af51267", "type": "electric_scooter", "is_disabled": 0, "lat": 38.97210033333333, "rental_uris": {"ios": "https://dc.lft.to/lastmile_qr_scan", "android": "https://dc.lft.to/lastmile_qr_scan"}, "is_reserved": 0, "fusion_lon": 0.0, "fusion_lat": 0.0, "lon": -77.02703333333334, "name": "7a20d280358e558665ee98706af51267"}, {"bike_id": "8408d82778fe93115576dcdf82235d26", "type": "electric_scooter", "is_disabled": 0, "lat": 38.911182, "rental_uris": {"ios": "https://dc.lft.to/lastmile_qr_scan", "android": "https://dc.lft.to/lastmile_qr_scan"}, "is_reserved": 0, "fusion_lon": 0.0, "fusion_lat": 0.0, "lon": -77.03919866666666, "name": "8408d82778fe93115576dcdf82235d26"}, {"bike_id": "253eeadf8e1b2b2b2649c22d44d868a6", "type": "electric_bike", "is_disabled": 0, "lat": 38.955912166666664, "rental_uris": {"ios": "https://dc.lft.to/lastmile_qr_scan", "android": "https://dc.lft.to/lastmile_qr_scan"}, "is_reserved": 0, "fusion_lon": 0.0, "fusion_lat": 0.0, "lon": -77.08795933333333, "name": "253eeadf8e1b2b2b2649c22d44d868a6"}, {"bike_id": "37f0884dfa508a70c62009d04304d173", "type": "electric_scooter", "is_disabled": 0, "lat": 38.93527533333334, "rental_uris": {"ios": "https://dc.lft.to/lastmile_qr_scan", "android": "https://dc.lft.to/lastmile_qr_scan"}, "is_reserved": 0, "fusion_lon": 0.0, "fusion_lat": 0.0, "lon": -77.02964533333333, "name": "37f0884dfa508a70c62009d04304d173"}, {"bike_id": "f03de1643896fcecf8c52008da783f6b", "type": "electric_bike", "is_disabled": 0, "lat": 38.95246783333333, "rental_uris": {"ios": "https://dc.lft.to/lastmile_qr_scan", "android": "https://dc.lft.to/lastmile_qr_scan"}, "is_reserved": 0, "fusion_lon": 0.0, "fusion_lat": 0.0, "lon": -76.97676866666667, "name": "f03de1643896fcecf8c52008da783f6b"}, {"bike_id": "5e9a4558574ddd34857b4fde547f682d", "type": "electric_scooter", "is_disabled": 0, "lat": 38.917111, "rental_uris": {"ios": "https://dc.lft.to/lastmile_qr_scan", "android": "https://dc.lft.to/lastmile_qr_scan"}, "is_reserved": 0, "fusion_lon": 0.0, "fusion_lat": 0.0, "lon": -77.03462483333334, "name": "5e9a4558574ddd34857b4fde547f682d"}, {"bike_id": "a86179a30aa239ef71f894139e86af8f", "type": "electric_scooter", "is_disabled": 0, "lat": 38.9063965, "rental_uris": {"ios": "https://dc.lft.to/lastmile_qr_scan", "android": "https://dc.lft.to/lastmile_qr_scan"}, "is_reserved": 0, "fusion_lon": 0.0, "fusion_lat": 0.0, "lon": -77.00989933333334, "name": "a86179a30aa239ef71f894139e86af8f"}, {"bike_id": "da7102309ebbd8cb3177da44526936b8", "type": "electric_scooter", "is_disabled": 0, "lat": 38.92631516666667, "rental_uris": {"ios": "https://dc.lft.to/lastmile_qr_scan", "android": "https://dc.lft.to/lastmile_qr_scan"}, "is_reserved": 0, "fusion_lon": 0.0, "fusion_lat": 0.0, "lon": -77.0325315, "name": "da7102309ebbd8cb3177da44526936b8"}, {"bike_id": "2adffb567533d151abf747ccd5864ccd", "type": "electric_scooter", "is_disabled": 0, "lat": 38.9054415, "rental_uris": {"ios": "https://dc.lft.to/lastmile_qr_scan", "android": "https://dc.lft.to/lastmile_qr_scan"}, "is_reserved": 0, "fusion_lon": 0.0, "fusion_lat": 0.0, "lon": -77.05001483333334, "name": "2adffb567533d151abf747ccd5864ccd"}, {"bike_id": "5cd4fc8376c07738482ad0338ea0952b", "type": "electric_scooter", "is_disabled": 0, "lat": 38.89340766666667, "rental_uris": {"ios": "https://dc.lft.to/lastmile_qr_scan", "android": "https://dc.lft.to/lastmile_qr_scan"}, "is_reserved": 0, "fusion_lon": 0.0, "fusion_lat": 0.0, "lon": -77.02435933333334, "name": "5cd4fc8376c07738482ad0338ea0952b"}, {"bike_id": "ad6f0f1b242db002f6e62341796edc41", "type": "electric_scooter", "is_disabled": 0, "lat": 38.9354185, "rental_uris": {"ios": "https://dc.lft.to/lastmile_qr_scan", "android": "https://dc.lft.to/lastmile_qr_scan"}, "is_reserved": 0, "fusion_lon": 0.0, "fusion_lat": 0.0, "lon": -77.0583195, "name": "ad6f0f1b242db002f6e62341796edc41"}, {"bike_id": "3c3e94fa1fb9e81beb04271c0a551eae", "type": "electric_scooter", "is_disabled": 0, "lat": 38.9237175, "rental_uris": {"ios": "https://dc.lft.to/lastmile_qr_scan", "android": "https://dc.lft.to/lastmile_qr_scan"}, "is_reserved": 0, "fusion_lon": 0.0, "fusion_lat": 0.0, "lon": -77.052601, "name": "3c3e94fa1fb9e81beb04271c0a551eae"}, {"bike_id": "c5502acda6c5f2071e1077fb1a8ff644", "type": "electric_bike", "is_disabled": 0, "lat": 38.89220016666667, "rental_uris": {"ios": "https://dc.lft.to/lastmile_qr_scan", "android": "https://dc.lft.to/lastmile_qr_scan"}, "is_reserved": 0, "fusion_lon": 0.0, "fusion_lat": 0.0, "lon": -76.970845, "name": "c5502acda6c5f2071e1077fb1a8ff644"}, {"bike_id": "beaf5cbd51bfe8e0d1d37d43e0eb7035", "type": "electric_scooter", "is_disabled": 0, "lat": 38.933211666666665, "rental_uris": {"ios": "https://dc.lft.to/lastmile_qr_scan", "android": "https://dc.lft.to/lastmile_qr_scan"}, "is_reserved": 0, "fusion_lon": 0.0, "fusion_lat": 0.0, "lon": -77.02752916666667, "name": "beaf5cbd51bfe8e0d1d37d43e0eb7035"}, {"bike_id": "20db5cfa133eb06993ef0473f9db21f3", "type": "electric_scooter", "is_disabled": 0, "lat": 38.876589, "rental_uris": {"ios": "https://dc.lft.to/lastmile_qr_scan", "android": "https://dc.lft.to/lastmile_qr_scan"}, "is_reserved": 0, "fusion_lon": 0.0, "fusion_lat": 0.0, "lon": -76.9964055, "name": "20db5cfa133eb06993ef0473f9db21f3"}, {"bike_id": "b1a8bede93852862329c90c2d5022849", "type": "electric_scooter", "is_disabled": 0, "lat": 38.919681833333335, "rental_uris": {"ios": "https://dc.lft.to/lastmile_qr_scan", "android": "https://dc.lft.to/lastmile_qr_scan"}, "is_reserved": 0, "fusion_lon": 0.0, "fusion_lat": 0.0, "lon": -77.04232233333333, "name": "b1a8bede93852862329c90c2d5022849"}, {"bike_id": "94889a46da424afee18d897285fca85f", "type": "electric_scooter", "is_disabled": 0, "lat": 38.90963566666667, "rental_uris": {"ios": "https://dc.lft.to/lastmile_qr_scan", "android": "https://dc.lft.to/lastmile_qr_scan"}, "is_reserved": 0, "fusion_lon": 0.0, "fusion_lat": 0.0, "lon": -77.039356, "name": "94889a46da424afee18d897285fca85f"}, {"bike_id": "533955a8e69df200ff61c770da8d0547", "type": "electric_scooter", "is_disabled": 0, "lat": 38.920960666666666, "rental_uris": {"ios": "https://dc.lft.to/lastmile_qr_scan", "android": "https://dc.lft.to/lastmile_qr_scan"}, "is_reserved": 0, "fusion_lon": 0.0, "fusion_lat": 0.0, "lon": -77.016972, "name": "533955a8e69df200ff61c770da8d0547"}, {"bike_id": "7b0cf66bd6fd76a6e373e8f17f9097bb", "type": "electric_bike", "is_disabled": 0, "lat": 38.92407333333333, "rental_uris": {"ios": "https://dc.lft.to/lastmile_qr_scan", "android": "https://dc.lft.to/lastmile_qr_scan"}, "is_reserved": 0, "fusion_lon": 0.0, "fusion_lat": 0.0, "lon": -77.02426483333333, "name": "7b0cf66bd6fd76a6e373e8f17f9097bb"}, {"bike_id": "0d849b0f99af3f68b463905a8c52b50f", "type": "electric_scooter", "is_disabled": 0, "lat": 38.92228033333333, "rental_uris": {"ios": "https://dc.lft.to/lastmile_qr_scan", "android": "https://dc.lft.to/lastmile_qr_scan"}, "is_reserved": 0, "fusion_lon": 0.0, "fusion_lat": 0.0, "lon": -76.97528983333333, "name": "0d849b0f99af3f68b463905a8c52b50f"}, {"bike_id": "dfd65385e1f62879a461854b160ce9e1", "type": "electric_scooter", "is_disabled": 0, "lat": 38.90965666666666, "rental_uris": {"ios": "https://dc.lft.to/lastmile_qr_scan", "android": "https://dc.lft.to/lastmile_qr_scan"}, "is_reserved": 0, "fusion_lon": 0.0, "fusion_lat": 0.0, "lon": -77.00771766666666, "name": "dfd65385e1f62879a461854b160ce9e1"}, {"bike_id": "816d9d8a9ed84500d722fe5b9bbe93dc", "type": "electric_scooter", "is_disabled": 0, "lat": 38.8998085, "rental_uris": {"ios": "https://dc.lft.to/lastmile_qr_scan", "android": "https://dc.lft.to/lastmile_qr_scan"}, "is_reserved": 0, "fusion_lon": 0.0, "fusion_lat": 0.0, "lon": -77.020762, "name": "816d9d8a9ed84500d722fe5b9bbe93dc"}, {"bike_id": "43a955ddee5b92ba8b81064a8f498e41", "type": "electric_scooter", "is_disabled": 0, "lat": 38.94463283333333, "rental_uris": {"ios": "https://dc.lft.to/lastmile_qr_scan", "android": "https://dc.lft.to/lastmile_qr_scan"}, "is_reserved": 0, "fusion_lon": 0.0, "fusion_lat": 0.0, "lon": -77.00658533333333, "name": "43a955ddee5b92ba8b81064a8f498e41"}, {"bike_id": "92b06c3efc093bfccb609df2dedc9754", "type": "electric_scooter", "is_disabled": 0, "lat": 38.92601033333333, "rental_uris": {"ios": "https://dc.lft.to/lastmile_qr_scan", "android": "https://dc.lft.to/lastmile_qr_scan"}, "is_reserved": 0, "fusion_lon": 0.0, "fusion_lat": 0.0, "lon": -77.02412366666667, "name": "92b06c3efc093bfccb609df2dedc9754"}, {"bike_id": "590960d021014eef1c4a11fd5761c266", "type": "electric_scooter", "is_disabled": 0, "lat": 38.8772885, "rental_uris": {"ios": "https://dc.lft.to/lastmile_qr_scan", "android": "https://dc.lft.to/lastmile_qr_scan"}, "is_reserved": 0, "fusion_lon": 0.0, "fusion_lat": 0.0, "lon": -77.01788283333333, "name": "590960d021014eef1c4a11fd5761c266"}, {"bike_id": "2db7c5bb376b7dfe74889b1ee1326dc4", "type": "electric_bike", "is_disabled": 0, "lat": 38.89432566666667, "rental_uris": {"ios": "https://dc.lft.to/lastmile_qr_scan", "android": "https://dc.lft.to/lastmile_qr_scan"}, "is_reserved": 0, "fusion_lon": 0.0, "fusion_lat": 0.0, "lon": -76.99619616666666, "name": "2db7c5bb376b7dfe74889b1ee1326dc4"}, {"bike_id": "9b21fb3d7dc894546f2cdf2f384d7d15", "type": "electric_scooter", "is_disabled": 0, "lat": 38.913324333333335, "rental_uris": {"ios": "https://dc.lft.to/lastmile_qr_scan", "android": "https://dc.lft.to/lastmile_qr_scan"}, "is_reserved": 0, "fusion_lon": 0.0, "fusion_lat": 0.0, "lon": -77.04730083333334, "name": "9b21fb3d7dc894546f2cdf2f384d7d15"}, {"bike_id": "88dd23049dc1d490e412d2a7c7e2cc1e", "type": "electric_scooter", "is_disabled": 0, "lat": 38.892274, "rental_uris": {"ios": "https://dc.lft.to/lastmile_qr_scan", "android": "https://dc.lft.to/lastmile_qr_scan"}, "is_reserved": 0, "fusion_lon": 0.0, "fusion_lat": 0.0, "lon": -77.0258035, "name": "88dd23049dc1d490e412d2a7c7e2cc1e"}, {"bike_id": "2c1c0eb35f0412a527a0535550ab10bd", "type": "electric_bike", "is_disabled": 0, "lat": 38.90897433333333, "rental_uris": {"ios": "https://dc.lft.to/lastmile_qr_scan", "android": "https://dc.lft.to/lastmile_qr_scan"}, "is_reserved": 0, "fusion_lon": 0.0, "fusion_lat": 0.0, "lon": -76.93646416666667, "name": "2c1c0eb35f0412a527a0535550ab10bd"}, {"bike_id": "a6b6e7f47fbe42b3fbbbee25dbe8eb96", "type": "electric_scooter", "is_disabled": 0, "lat": 38.912673833333336, "rental_uris": {"ios": "https://dc.lft.to/lastmile_qr_scan", "android": "https://dc.lft.to/lastmile_qr_scan"}, "is_reserved": 0, "fusion_lon": 0.0, "fusion_lat": 0.0, "lon": -77.03827866666667, "name": "a6b6e7f47fbe42b3fbbbee25dbe8eb96"}, {"bike_id": "b180e455cf7fb8132a1fb7c08609755f", "type": "electric_scooter", "is_disabled": 0, "lat": 38.91117166666667, "rental_uris": {"ios": "https://dc.lft.to/lastmile_qr_scan", "android": "https://dc.lft.to/lastmile_qr_scan"}, "is_reserved": 0, "fusion_lon": 0.0, "fusion_lat": 0.0, "lon": -77.04362316666666, "name": "b180e455cf7fb8132a1fb7c08609755f"}, {"bike_id": "e649afab6037e5f0b063a5326337ab31", "type": "electric_scooter", "is_disabled": 0, "lat": 38.91752, "rental_uris": {"ios": "https://dc.lft.to/lastmile_qr_scan", "android": "https://dc.lft.to/lastmile_qr_scan"}, "is_reserved": 0, "fusion_lon": 0.0, "fusion_lat": 0.0, "lon": -77.03860316666666, "name": "e649afab6037e5f0b063a5326337ab31"}, {"bike_id": "c54b1c3dd036e4a5cc68997e9df61d3c", "type": "electric_scooter", "is_disabled": 0, "lat": 38.90655183333333, "rental_uris": {"ios": "https://dc.lft.to/lastmile_qr_scan", "android": "https://dc.lft.to/lastmile_qr_scan"}, "is_reserved": 0, "fusion_lon": 0.0, "fusion_lat": 0.0, "lon": -77.0532, "name": "c54b1c3dd036e4a5cc68997e9df61d3c"}, {"bike_id": "7200d8f50faf4492059cd359f7ed8cc9", "type": "electric_scooter", "is_disabled": 0, "lat": 38.92404366666667, "rental_uris": {"ios": "https://dc.lft.to/lastmile_qr_scan", "android": "https://dc.lft.to/lastmile_qr_scan"}, "is_reserved": 0, "fusion_lon": 0.0, "fusion_lat": 0.0, "lon": -77.020184, "name": "7200d8f50faf4492059cd359f7ed8cc9"}, {"bike_id": "e1915af2084a56662cb00261127ba17b", "type": "electric_scooter", "is_disabled": 0, "lat": 38.9168865, "rental_uris": {"ios": "https://dc.lft.to/lastmile_qr_scan", "android": "https://dc.lft.to/lastmile_qr_scan"}, "is_reserved": 0, "fusion_lon": 0.0, "fusion_lat": 0.0, "lon": -77.031962, "name": "e1915af2084a56662cb00261127ba17b"}, {"bike_id": "61acf21b5cc3885fc2d4d26a57b5df13", "type": "electric_scooter", "is_disabled": 0, "lat": 38.9360555, "rental_uris": {"ios": "https://dc.lft.to/lastmile_qr_scan", "android": "https://dc.lft.to/lastmile_qr_scan"}, "is_reserved": 0, "fusion_lon": 0.0, "fusion_lat": 0.0, "lon": -77.05862883333333, "name": "61acf21b5cc3885fc2d4d26a57b5df13"}, {"bike_id": "accd6e16dc43738f2c447752bce9c44f", "type": "electric_bike", "is_disabled": 0, "lat": 38.908378666666664, "rental_uris": {"ios": "https://dc.lft.to/lastmile_qr_scan", "android": "https://dc.lft.to/lastmile_qr_scan"}, "is_reserved": 0, "fusion_lon": 0.0, "fusion_lat": 0.0, "lon": -76.93306516666667, "name": "accd6e16dc43738f2c447752bce9c44f"}, {"bike_id": "2d3c13829e7f3715512453ee064f21be", "type": "electric_scooter", "is_disabled": 0, "lat": 38.909864166666665, "rental_uris": {"ios": "https://dc.lft.to/lastmile_qr_scan", "android": "https://dc.lft.to/lastmile_qr_scan"}, "is_reserved": 0, "fusion_lon": 0.0, "fusion_lat": 0.0, "lon": -77.031999, "name": "2d3c13829e7f3715512453ee064f21be"}, {"bike_id": "1a401f284bf39bbc209b9481af0aaa66", "type": "electric_scooter", "is_disabled": 0, "lat": 38.907993166666664, "rental_uris": {"ios": "https://dc.lft.to/lastmile_qr_scan", "android": "https://dc.lft.to/lastmile_qr_scan"}, "is_reserved": 0, "fusion_lon": 0.0, "fusion_lat": 0.0, "lon": -77.043352, "name": "1a401f284bf39bbc209b9481af0aaa66"}, {"bike_id": "a06de7a2d53e9036e1d3d34d32afe919", "type": "electric_scooter", "is_disabled": 0, "lat": 38.8709225, "rental_uris": {"ios": "https://dc.lft.to/lastmile_qr_scan", "android": "https://dc.lft.to/lastmile_qr_scan"}, "is_reserved": 0, "fusion_lon": 0.0, "fusion_lat": 0.0, "lon": -77.01207366666667, "name": "a06de7a2d53e9036e1d3d34d32afe919"}, {"bike_id": "5bd36c01be3c6cf95e85d17a1263527e", "type": "electric_scooter", "is_disabled": 0, "lat": 38.88401666666667, "rental_uris": {"ios": "https://dc.lft.to/lastmile_qr_scan", "android": "https://dc.lft.to/lastmile_qr_scan"}, "is_reserved": 0, "fusion_lon": 0.0, "fusion_lat": 0.0, "lon": -76.953953, "name": "5bd36c01be3c6cf95e85d17a1263527e"}, {"bike_id": "cd87f6a253d2096e8fd004cdc2050503", "type": "electric_scooter", "is_disabled": 0, "lat": 38.90571683333334, "rental_uris": {"ios": "https://dc.lft.to/lastmile_qr_scan", "android": "https://dc.lft.to/lastmile_qr_scan"}, "is_reserved": 0, "fusion_lon": 0.0, "fusion_lat": 0.0, "lon": -76.97630766666667, "name": "cd87f6a253d2096e8fd004cdc2050503"}, {"bike_id": "5822019b8ca6dd5902628843b53835a6", "type": "electric_scooter", "is_disabled": 0, "lat": 38.91694116666667, "rental_uris": {"ios": "https://dc.lft.to/lastmile_qr_scan", "android": "https://dc.lft.to/lastmile_qr_scan"}, "is_reserved": 0, "fusion_lon": 0.0, "fusion_lat": 0.0, "lon": -77.03169416666667, "name": "5822019b8ca6dd5902628843b53835a6"}, {"bike_id": "64aac89a963d2192edbbfb55744fb36d", "type": "electric_scooter", "is_disabled": 0, "lat": 38.92861033333333, "rental_uris": {"ios": "https://dc.lft.to/lastmile_qr_scan", "android": "https://dc.lft.to/lastmile_qr_scan"}, "is_reserved": 0, "fusion_lon": 0.0, "fusion_lat": 0.0, "lon": -77.0544005, "name": "64aac89a963d2192edbbfb55744fb36d"}, {"bike_id": "85bed4c3a66b463674e65c036c5e20da", "type": "electric_scooter", "is_disabled": 0, "lat": 38.909136833333335, "rental_uris": {"ios": "https://dc.lft.to/lastmile_qr_scan", "android": "https://dc.lft.to/lastmile_qr_scan"}, "is_reserved": 0, "fusion_lon": 0.0, "fusion_lat": 0.0, "lon": -77.04498183333334, "name": "85bed4c3a66b463674e65c036c5e20da"}, {"bike_id": "81c888164b5853b9ce5f647f66e86289", "type": "electric_scooter", "is_disabled": 0, "lat": 38.922736, "rental_uris": {"ios": "https://dc.lft.to/lastmile_qr_scan", "android": "https://dc.lft.to/lastmile_qr_scan"}, "is_reserved": 0, "fusion_lon": 0.0, "fusion_lat": 0.0, "lon": -77.03279866666666, "name": "81c888164b5853b9ce5f647f66e86289"}, {"bike_id": "07b3ce7a9dacf153754da09769918b94", "type": "electric_scooter", "is_disabled": 0, "lat": 38.9073465, "rental_uris": {"ios": "https://dc.lft.to/lastmile_qr_scan", "android": "https://dc.lft.to/lastmile_qr_scan"}, "is_reserved": 0, "fusion_lon": 0.0, "fusion_lat": 0.0, "lon": -77.029454, "name": "07b3ce7a9dacf153754da09769918b94"}, {"bike_id": "c56989937a4a0b38baae0e0934bb2375", "type": "electric_scooter", "is_disabled": 0, "lat": 38.915759666666666, "rental_uris": {"ios": "https://dc.lft.to/lastmile_qr_scan", "android": "https://dc.lft.to/lastmile_qr_scan"}, "is_reserved": 0, "fusion_lon": 0.0, "fusion_lat": 0.0, "lon": -77.01999433333333, "name": "c56989937a4a0b38baae0e0934bb2375"}, {"bike_id": "0a3bb73a7fdbf0737a2607ec66ee064f", "type": "electric_scooter", "is_disabled": 0, "lat": 38.90801166666667, "rental_uris": {"ios": "https://dc.lft.to/lastmile_qr_scan", "android": "https://dc.lft.to/lastmile_qr_scan"}, "is_reserved": 0, "fusion_lon": 0.0, "fusion_lat": 0.0, "lon": -77.04331866666666, "name": "0a3bb73a7fdbf0737a2607ec66ee064f"}, {"bike_id": "0e3b79d86c3fc52ab82e39549822ad20", "type": "electric_scooter", "is_disabled": 0, "lat": 38.91116133333333, "rental_uris": {"ios": "https://dc.lft.to/lastmile_qr_scan", "android": "https://dc.lft.to/lastmile_qr_scan"}, "is_reserved": 0, "fusion_lon": 0.0, "fusion_lat": 0.0, "lon": -77.00536733333334, "name": "0e3b79d86c3fc52ab82e39549822ad20"}, {"bike_id": "999afc68daade8a0bc50e923ba25d252", "type": "electric_bike", "is_disabled": 0, "lat": 38.87884283333333, "rental_uris": {"ios": "https://dc.lft.to/lastmile_qr_scan", "android": "https://dc.lft.to/lastmile_qr_scan"}, "is_reserved": 0, "fusion_lon": 0.0, "fusion_lat": 0.0, "lon": -77.09611516666666, "name": "999afc68daade8a0bc50e923ba25d252"}, {"bike_id": "f2a1fde9ce1f8938ae13c0160f98cf4d", "type": "electric_scooter", "is_disabled": 0, "lat": 38.931280666666666, "rental_uris": {"ios": "https://dc.lft.to/lastmile_qr_scan", "android": "https://dc.lft.to/lastmile_qr_scan"}, "is_reserved": 0, "fusion_lon": 0.0, "fusion_lat": 0.0, "lon": -77.03855383333334, "name": "f2a1fde9ce1f8938ae13c0160f98cf4d"}, {"bike_id": "4f45fd5615281f168e108b5dde9abd9a", "type": "electric_scooter", "is_disabled": 0, "lat": 38.917475333333336, "rental_uris": {"ios": "https://dc.lft.to/lastmile_qr_scan", "android": "https://dc.lft.to/lastmile_qr_scan"}, "is_reserved": 0, "fusion_lon": 0.0, "fusion_lat": 0.0, "lon": -77.02810033333333, "name": "4f45fd5615281f168e108b5dde9abd9a"}, {"bike_id": "92a8dbdec12879552679d2bbdc29015c", "type": "electric_scooter", "is_disabled": 0, "lat": 38.90506933333333, "rental_uris": {"ios": "https://dc.lft.to/lastmile_qr_scan", "android": "https://dc.lft.to/lastmile_qr_scan"}, "is_reserved": 0, "fusion_lon": 0.0, "fusion_lat": 0.0, "lon": -77.0197805, "name": "92a8dbdec12879552679d2bbdc29015c"}, {"bike_id": "6627302b1626d10b72521675e74ca026", "type": "electric_scooter", "is_disabled": 0, "lat": 38.932013166666664, "rental_uris": {"ios": "https://dc.lft.to/lastmile_qr_scan", "android": "https://dc.lft.to/lastmile_qr_scan"}, "is_reserved": 0, "fusion_lon": 0.0, "fusion_lat": 0.0, "lon": -77.03660316666667, "name": "6627302b1626d10b72521675e74ca026"}, {"bike_id": "3e4852d8289c3abcd5943c56c6916db7", "type": "electric_scooter", "is_disabled": 0, "lat": 38.920878333333334, "rental_uris": {"ios": "https://dc.lft.to/lastmile_qr_scan", "android": "https://dc.lft.to/lastmile_qr_scan"}, "is_reserved": 0, "fusion_lon": 0.0, "fusion_lat": 0.0, "lon": -77.02533516666666, "name": "3e4852d8289c3abcd5943c56c6916db7"}, {"bike_id": "c0ef4af3751355472027c5bb77f4f7a5", "type": "electric_scooter", "is_disabled": 0, "lat": 38.90864533333333, "rental_uris": {"ios": "https://dc.lft.to/lastmile_qr_scan", "android": "https://dc.lft.to/lastmile_qr_scan"}, "is_reserved": 0, "fusion_lon": 0.0, "fusion_lat": 0.0, "lon": -77.0434745, "name": "c0ef4af3751355472027c5bb77f4f7a5"}, {"bike_id": "b4499c169565cc3cfd4dffb05405d52d", "type": "electric_scooter", "is_disabled": 0, "lat": 38.9012905, "rental_uris": {"ios": "https://dc.lft.to/lastmile_qr_scan", "android": "https://dc.lft.to/lastmile_qr_scan"}, "is_reserved": 0, "fusion_lon": 0.0, "fusion_lat": 0.0, "lon": -77.04516983333333, "name": "b4499c169565cc3cfd4dffb05405d52d"}, {"bike_id": "f313f304514f1588358968bbc5c0b36d", "type": "electric_scooter", "is_disabled": 0, "lat": 38.902617, "rental_uris": {"ios": "https://dc.lft.to/lastmile_qr_scan", "android": "https://dc.lft.to/lastmile_qr_scan"}, "is_reserved": 0, "fusion_lon": 0.0, "fusion_lat": 0.0, "lon": -77.038538, "name": "f313f304514f1588358968bbc5c0b36d"}, {"bike_id": "4858441cc3be91def7352e7741024d0a", "type": "electric_bike", "is_disabled": 0, "lat": 38.8793895, "rental_uris": {"ios": "https://dc.lft.to/lastmile_qr_scan", "android": "https://dc.lft.to/lastmile_qr_scan"}, "is_reserved": 0, "fusion_lon": 0.0, "fusion_lat": 0.0, "lon": -76.98083266666667, "name": "4858441cc3be91def7352e7741024d0a"}, {"bike_id": "1c276a7cbb29f644ed3ca1cfe91c5ff0", "type": "electric_scooter", "is_disabled": 0, "lat": 38.902391, "rental_uris": {"ios": "https://dc.lft.to/lastmile_qr_scan", "android": "https://dc.lft.to/lastmile_qr_scan"}, "is_reserved": 0, "fusion_lon": 0.0, "fusion_lat": 0.0, "lon": -77.043402, "name": "1c276a7cbb29f644ed3ca1cfe91c5ff0"}, {"bike_id": "5564ec604a56b929d3a34ec104a266fb", "type": "electric_scooter", "is_disabled": 0, "lat": 38.9245135, "rental_uris": {"ios": "https://dc.lft.to/lastmile_qr_scan", "android": "https://dc.lft.to/lastmile_qr_scan"}, "is_reserved": 0, "fusion_lon": 0.0, "fusion_lat": 0.0, "lon": -77.0335115, "name": "5564ec604a56b929d3a34ec104a266fb"}, {"bike_id": "e0e63c003045087fb9770190ea10b4f4", "type": "electric_scooter", "is_disabled": 0, "lat": 38.90570983333333, "rental_uris": {"ios": "https://dc.lft.to/lastmile_qr_scan", "android": "https://dc.lft.to/lastmile_qr_scan"}, "is_reserved": 0, "fusion_lon": 0.0, "fusion_lat": 0.0, "lon": -77.0382035, "name": "e0e63c003045087fb9770190ea10b4f4"}, {"bike_id": "c17bbfcac0fd5bcbfb5dae4d2cb83359", "type": "electric_bike", "is_disabled": 0, "lat": 38.880599, "rental_uris": {"ios": "https://dc.lft.to/lastmile_qr_scan", "android": "https://dc.lft.to/lastmile_qr_scan"}, "is_reserved": 0, "fusion_lon": 0.0, "fusion_lat": 0.0, "lon": -76.962444, "name": "c17bbfcac0fd5bcbfb5dae4d2cb83359"}, {"bike_id": "03a2d1941752915c22af247010386e72", "type": "electric_scooter", "is_disabled": 0, "lat": 38.94451516666667, "rental_uris": {"ios": "https://dc.lft.to/lastmile_qr_scan", "android": "https://dc.lft.to/lastmile_qr_scan"}, "is_reserved": 0, "fusion_lon": 0.0, "fusion_lat": 0.0, "lon": -77.02799983333334, "name": "03a2d1941752915c22af247010386e72"}, {"bike_id": "3370569ed52f1a4a08f2122fd8b1f111", "type": "electric_scooter", "is_disabled": 0, "lat": 38.91373383333333, "rental_uris": {"ios": "https://dc.lft.to/lastmile_qr_scan", "android": "https://dc.lft.to/lastmile_qr_scan"}, "is_reserved": 0, "fusion_lon": 0.0, "fusion_lat": 0.0, "lon": -77.07271716666666, "name": "3370569ed52f1a4a08f2122fd8b1f111"}, {"bike_id": "e87a509cc56691cbc5f8e064f4e49c59", "type": "electric_scooter", "is_disabled": 0, "lat": 38.9191475, "rental_uris": {"ios": "https://dc.lft.to/lastmile_qr_scan", "android": "https://dc.lft.to/lastmile_qr_scan"}, "is_reserved": 0, "fusion_lon": 0.0, "fusion_lat": 0.0, "lon": -77.01407483333334, "name": "e87a509cc56691cbc5f8e064f4e49c59"},