{"data": {"bikes": [{"lat": 38.9248215, "is_disabled": 0, "type": "electric_scooter", "lon": -77.02219066666666, "bike_id": "31583b402f3732435f36c27cc9da83db", "fusion_lat": 0.0, "name": "31583b402f3732435f36c27cc9da83db", "is_reserved": 0, "rental_uris": {"android": "https://dc.lft.to/lastmile_qr_scan", "ios": "https://dc.lft.to/lastmile_qr_scan"}, "fusion_lon": 0.0}, {"lat": 38.915672666666666, "is_disabled": 0, "type": "electric_scooter", "lon": -77.03150566666666, "bike_id": "8f4c70d448824a3748c2a039faa404ee", "fusion_lat": 0.0, "name": "8f4c70d448824a3748c2a039faa404ee", "is_reserved": 0, "rental_uris": {"android": "https://dc.lft.to/lastmile_qr_scan", "ios": "https://dc.lft.to/lastmile_qr_scan"}, "fusion_lon": 0.0}, {"lat": 38.922134666666665, "is_disabled": 0, "type": "electric_bike", "lon": -76.98797366666666, "bike_id": "7f5308e176846c49923a008190d2daaa", "fusion_lat": 0.0, "name": "7f5308e176846c49923a008190d2daaa", "is_reserved": 0, "rental_uris": {"android": "https://dc.lft.to/lastmile_qr_scan", "ios": "https://dc.lft.to/lastmile_qr_scan"}, "fusion_lon": 0.0}, {"lat": 38.90216083333333, "is_disabled": 0, "type": "electric_scooter", "lon": -77.02182466666666, "bike_id": "7c2e14bc7ce178b99a45762412d1cc30", "fusion_lat": 0.0, "name": "7c2e14bc7ce178b99a45762412d1cc30", "is_reserved": 0, "rental_uris": {"android": "https://dc.lft.to/lastmile_qr_scan", "ios": "https://dc.lft.to/lastmile_qr_scan"}, "fusion_lon": 0.0}, {"lat": 38.91707016666667, "is_disabled": 0, "type": "electric_scooter", "lon": -77.029502, "bike_id": "1bd93157493af4fba802d7672c36d027", "fusion_lat": 0.0, "name": "1bd93157493af4fba802d7672c36d027", "is_reserved": 0, "rental_uris": {"android": "https://dc.lft.to/lastmile_qr_scan", "ios": "https://dc.lft.to/lastmile_qr_scan"}, "fusion_lon": 0.0}, {"lat": 38.89384283333333, "is_disabled": 0, "type": "electric_scooter", "lon": -77.05028633333333, "bike_id": "e0150aa1c23b50aafb28e4b96a784699", "fusion_lat": 0.0, "name": "e0150aa1c23b50aafb28e4b96a784699", "is_reserved": 0, "rental_uris": {"android": "https://dc.lft.to/lastmile_qr_scan", "ios": "https://dc.lft.to/lastmile_qr_scan"}, "fusion_lon": 0.0}, {"lat": 38.933087, "is_disabled": 0, "type": "electric_scooter", "lon": -77.03589466666666, "bike_id": "cd4d55d5b3819361396ca6b19aa7a1a7", "fusion_lat": 0.0, "name": "cd4d55d5b3819361396ca6b19aa7a1a7", "is_reserved": 0, "rental_uris": {"android": "https://dc.lft.to/lastmile_qr_scan", "ios": "https://dc.lft.to/lastmile_qr_scan"}, "fusion_lon": 0.0}, {"lat": 38.92235183333333, "is_disabled": 0, "type": "electric_scooter", "lon": -77.0424635, "bike_id": "5d6a3e147d6e0947ba0cb47dfe4fb423", "fusion_lat": 0.0, "name": "5d6a3e147d6e0947ba0cb47dfe4fb423", "is_reserved": 0, "rental_uris": {"android": "https://dc.lft.to/lastmile_qr_scan", "ios": "https://dc.lft.to/lastmile_qr_scan"}, "fusion_lon": 0.0}, {"lat": 38.93208666666666, "is_disabled": 0, "type": "electric_scooter", "lon": -77.04429716666667, "bike_id": "32a9edaa6617f42ac798a8345b4e3516", "fusion_lat": 0.0, "name": "32a9edaa6617f42ac798a8345b4e3516", "is_reserved": 0, "rental_uris": {"android": "https://dc.lft.to/lastmile_qr_scan", "ios": "https://dc.lft.to/lastmile_qr_scan"}, "fusion_lon": 0.0}, {"lat": 38.877877166666664, "is_disabled": 0, "type": "electric_scooter", "lon": -76.99411233333333, "bike_id": "b27a9f4ca48e880abff4271a15a9fc0b", "fusion_lat": 0.0, "name": "b27a9f4ca48e880abff4271a15a9fc0b", "is_reserved": 0, "rental_uris": {"android": "https://dc.lft.to/lastmile_qr_scan", "ios": "https://dc.lft.to/lastmile_qr_scan"}, "fusion_lon": 0.0}, {"lat": 39.03901166666667, "is_disabled": 0, "type": "electric_bike", "lon": -77.05035583333333, "bike_id": "a569653cd2e0c937fcfe1b217e4dfab6", "fusion_lat": 0.0, "name": "a569653cd2e0c937fcfe1b217e4dfab6", "is_reserved": 0, "rental_uris": {"android": "https://dc.lft.to/lastmile_qr_scan", "ios": "https://dc.lft.to/lastmile_qr_scan"}, "fusion_lon": 0.0}, {"lat": 38.90237466666667, "is_disabled": 0, "type": "electric_scooter", "lon": -77.04363483333333, "bike_id": "ef45fb3999abb7607ed945a98735531b", "fusion_lat": 0.0, "name": "ef45fb3999abb7607ed945a98735531b", "is_reserved": 0, "rental_uris": {"android": "https://dc.lft.to/lastmile_qr_scan", "ios": "https://dc.lft.to/lastmile_qr_scan"}, "fusion_lon": 0.0}, {"lat": 38.8023155, "is_disabled": 0, "type": "electric_bike", "lon": -77.07920866666667, "bike_id": "a6b9259fce61a566b8a058e3e35e736b", "fusion_lat": 0.0, "name": "a6b9259fce61a566b8a058e3e35e736b", "is_reserved": 0, "rental_uris": {"android": "https://dc.lft.to/lastmile_qr_scan", "ios": "https://dc.lft.to/lastmile_qr_scan"}, "fusion_lon": 0.0}, {"lat": 38.919367333333334, "is_disabled": 0, "type": "electric_scooter", "lon": -76.97022633333333, "bike_id": "92104f66d0c9f229fe7c99f7246d1e2e", "fusion_lat": 0.0, "name": "92104f66d0c9f229fe7c99f7246d1e2e", "is_reserved": 0, "rental_uris": {"android": "https://dc.lft.to/lastmile_qr_scan", "ios": "https://dc.lft.to/lastmile_qr_scan"}, "fusion_lon": 0.0}, {"lat": 38.927217666666664, "is_disabled": 0, "type": "electric_scooter", "lon": -77.02290766666667, "bike_id": "b551e62a3df3a58eeec6b6168960c6ec", "fusion_lat": 0.0, "name": "b551e62a3df3a58eeec6b6168960c6ec", "is_reserved": 0, "rental_uris": {"android": "https://dc.lft.to/lastmile_qr_scan", "ios": "https://dc.lft.to/lastmile_qr_scan"}, "fusion_lon": 0.0}, {"lat": 38.9046665, "is_disabled": 0, "type": "electric_scooter", "lon": -77.03917133333333, "bike_id": "060e52c5bb6fb6cd3a0cbdbbd185e8ef", "fusion_lat": 0.0, "name": "060e52c5bb6fb6cd3a0cbdbbd185e8ef", "is_reserved": 0, "rental_uris": {"android": "https://dc.lft.to/lastmile_qr_scan", "ios": "https://dc.lft.to/lastmile_qr_scan"}, "fusion_lon": 0.0}, {"lat": 38.914771, "is_disabled": 0, "type": "electric_bike", "lon": -77.0460995, "bike_id": "3abd629b4d5d5470352dd00d371f747f", "fusion_lat": 0.0, "name": "3abd629b4d5d5470352dd00d371f747f", "is_reserved": 0, "rental_uris": {"android": "https://dc.lft.to/lastmile_qr_scan", "ios": "https://dc.lft.to/lastmile_qr_scan"}, "fusion_lon": 0.0}, {"lat": 38.87159833333333, "is_disabled": 0, "type": "electric_scooter", "lon": -77.0119535, "bike_id": "474167d13fca06c00591a03302ada4b3", "fusion_lat": 0.0, "name": "474167d13fca06c00591a03302ada4b3", "is_reserved": 0, "rental_uris": {"android": "https://dc.lft.to/lastmile_qr_scan", "ios": "https://dc.lft.to/lastmile_qr_scan"}, "fusion_lon": 0.0}, {"lat": 38.91325166666667, "is_disabled": 0, "type": "electric_scooter", "lon": -77.031914, "bike_id": "e03c91c416679c48a17f556404b28a86", "fusion_lat": 0.0, "name": "e03c91c416679c48a17f556404b28a86", "is_reserved": 0, "rental_uris": {"android": "https://dc.lft.to/lastmile_qr_scan", "ios": "https://dc.lft.to/lastmile_qr_scan"}, "fusion_lon": 0.0}, {"lat": 38.92804183333333, "is_disabled": 0, "type": "electric_scooter", "lon": -77.01417933333333, "bike_id": "92812eb2585136cb332f6d8ef676b5f9", "fusion_lat": 0.0, "name": "92812eb2585136cb332f6d8ef676b5f9", "is_reserved": 0, "rental_uris": {"android": "https://dc.lft.to/lastmile_qr_scan", "ios": "https://dc.lft.to/lastmile_qr_scan"}, "fusion_lon": 0.0}, {"lat": 38.9029755, "is_disabled": 0, "type": "electric_scooter", "lon": -77.009064, "bike_id": "484754a590df66abf8066a73303f8a6b", "fusion_lat": 0.0, "name": "484754a590df66abf8066a73303f8a6b", "is_reserved": 0, "rental_uris": {"android": "https://dc.lft.to/lastmile_qr_scan", "ios": "https://dc.lft.to/lastmile_qr_scan"}, "fusion_lon": 0.0}, {"lat": 38.92238183333333, "is_disabled": 0, "type": "electric_scooter", "lon": -77.04356783333333, "bike_id": "1a503922258be1263dc401111e4b7d97", "fusion_lat": 0.0, "name": "1a503922258be1263dc401111e4b7d97", "is_reserved": 0, "rental_uris": {"android": "https://dc.lft.to/lastmile_qr_scan", "ios": "https://dc.lft.to/lastmile_qr_scan"}, "fusion_lon": 0.0}, {"lat": 38.919364, "is_disabled": 0, "type": "electric_scooter", "lon": -77.02604633333333, "bike_id": "290df9d9ffe451a626f38d728ac36677", "fusion_lat": 0.0, "name": "290df9d9ffe451a626f38d728ac36677", "is_reserved": 0, "rental_uris": {"android": "https://dc.lft.to/lastmile_qr_scan", "ios": "https://dc.lft.to/lastmile_qr_scan"}, "fusion_lon": 0.0}, {"lat": 38.8848885, "is_disabled": 0, "type": "electric_scooter", "lon": -77.03476716666667, "bike_id": "07fb3cea1b3894d1044d3d09faf39ec8", "fusion_lat": 0.0, "name": "07fb3cea1b3894d1044d3d09faf39ec8", "is_reserved": 0, "rental_uris": {"android": "https://dc.lft.to/lastmile_qr_scan", "ios": "https://dc.lft.to/lastmile_qr_scan"}, "fusion_lon": 0.0}, {"lat": 38.86371416666667, "is_disabled": 0, "type": "electric_scooter", "lon": -76.99034066666667, "bike_id": "7fadf7410f3345066724b1ed353b253d", "fusion_lat": 0.0, "name": "7fadf7410f3345066724b1ed353b253d", "is_reserved": 0, "rental_uris": {"android": "https://dc.lft.to/lastmile_qr_scan", "ios": "https://dc.lft.to/lastmile_qr_scan"}, "fusion_lon": 0.0}, {"lat": 38.9482555, "is_disabled": 0, "type": "electric_scooter", "lon": -76.99907016666667, "bike_id": "afdef2ccc87b253fc0494a84e0cadd60", "fusion_lat": 0.0, "name": "afdef2ccc87b253fc0494a84e0cadd60", "is_reserved": 0, "rental_uris": {"android": "https://dc.lft.to/lastmile_qr_scan", "ios": "https://dc.lft.to/lastmile_qr_scan"}, "fusion_lon": 0.0}, {"lat": 38.92498, "is_disabled": 0, "type": "electric_scooter", "lon": -77.05227466666666, "bike_id": "d15f41168ae9f0bb14332574d37a026b", "fusion_lat": 0.0, "name": "d15f41168ae9f0bb14332574d37a026b", "is_reserved": 0, "rental_uris": {"android": "https://dc.lft.to/lastmile_qr_scan", "ios": "https://dc.lft.to/lastmile_qr_scan"}, "fusion_lon": 0.0}, {"lat": 38.93071583333333, "is_disabled": 0, "type": "electric_scooter", "lon": -77.03390533333334, "bike_id": "54217f0e40b8433147e71025b3b60fea", "fusion_lat": 0.0, "name": "54217f0e40b8433147e71025b3b60fea", "is_reserved": 0, "rental_uris": {"android": "https://dc.lft.to/lastmile_qr_scan", "ios": "https://dc.lft.to/lastmile_qr_scan"}, "fusion_lon": 0.0}, {"lat": 38.92118383333333, "is_disabled": 0, "type": "electric_scooter", "lon": -77.04173116666666, "bike_id": "92bdb3d19a1301462198d55876ff50f5", "fusion_lat": 0.0, "name": "92bdb3d19a1301462198d55876ff50f5", "is_reserved": 0, "rental_uris": {"android": "https://dc.lft.to/lastmile_qr_scan", "ios": "https://dc.lft.to/lastmile_qr_scan"}, "fusion_lon": 0.0}, {"lat": 38.90233033333333, "is_disabled": 0, "type": "electric_scooter", "lon": -77.06053433333334, "bike_id": "dd0234a0105fcd5624c0d7c384f0f272", "fusion_lat": 0.0, "name": "dd0234a0105fcd5624c0d7c384f0f272", "is_reserved": 0, "rental_uris": {"android": "https://dc.lft.to/lastmile_qr_scan", "ios": "https://dc.lft.to/lastmile_qr_scan"}, "fusion_lon": 0.0}, {"lat": 38.919808833333335, "is_disabled": 0, "type": "electric_scooter", "lon": -77.03234683333334, "bike_id": "63bb3c91c47a518779fbb284e6f3e5d6", "fusion_lat": 0.0, "name": "63bb3c91c47a518779fbb284e6f3e5d6", "is_reserved": 0, "rental_uris": {"android": "https://dc.lft.to/lastmile_qr_scan", "ios": "https://dc.lft.to/lastmile_qr_scan"}, "fusion_lon": 0.0}, {"lat": 38.90213966666666, "is_disabled": 0, "type": "electric_scooter", "lon": -77.0335085, "bike_id": "b0303efa9ef2b7ebe827c428a5edb326", "fusion_lat": 0.0, "name": "b0303efa9ef2b7ebe827c428a5edb326", "is_reserved": 0, "rental_uris": {"android": "https://dc.lft.to/lastmile_qr_scan", "ios": "https://dc.lft.to/lastmile_qr_scan"}, "fusion_lon": 0.0}, {"lat": 38.91739833333333, "is_disabled": 0, "type": "electric_scooter", "lon": -77.03198466666667, "bike_id": "eadaef1afa3d30e4a21632e18029e7eb", "fusion_lat": 0.0, "name": "eadaef1afa3d30e4a21632e18029e7eb", "is_reserved": 0, "rental_uris": {"android": "https://dc.lft.to/lastmile_qr_scan", "ios": "https://dc.lft.to/lastmile_qr_scan"}, "fusion_lon": 0.0}, {"lat": 38.896813333333334, "is_disabled": 0, "type": "electric_scooter", "lon": -76.93609866666667, "bike_id": "b21624acba0799a86069675bbe90b455", "fusion_lat": 0.0, "name": "b21624acba0799a86069675bbe90b455", "is_reserved": 0, "rental_uris": {"android": "https://dc.lft.to/lastmile_qr_scan", "ios": "https://dc.lft.to/lastmile_qr_scan"}, "fusion_lon": 0.0}, {"lat": 38.94461183333333, "is_disabled": 0, "type": "electric_scooter", "lon": -77.06032583333334, "bike_id": "b195368b8abb0d59f26aa319a4c74c48", "fusion_lat": 0.0, "name": "b195368b8abb0d59f26aa319a4c74c48", "is_reserved": 0, "rental_uris": {"android": "https://dc.lft.to/lastmile_qr_scan", "ios": "https://dc.lft.to/lastmile_qr_scan"}, "fusion_lon": 0.0}, {"lat": 38.884506, "is_disabled": 0, "type": "electric_scooter", "lon": -76.95095983333333, "bike_id": "5c05b6f23f2c345a262b21c71d542c37", "fusion_lat": 0.0, "name": "5c05b6f23f2c345a262b21c71d542c37", "is_reserved": 0, "rental_uris": {"android": "https://dc.lft.to/lastmile_qr_scan", "ios": "https://dc.lft.to/lastmile_qr_scan"}, "fusion_lon": 0.0}, {"lat": 38.92064333333333, "is_disabled": 0, "type": "electric_scooter", "lon": -77.03209316666667, "bike_id": "8adae723de37e34306d0ba13abb5beb9", "fusion_lat": 0.0, "name": "8adae723de37e34306d0ba13abb5beb9", "is_reserved": 0, "rental_uris": {"android": "https://dc.lft.to/lastmile_qr_scan", "ios": "https://dc.lft.to/lastmile_qr_scan"}, "fusion_lon": 0.0}, {"lat": 38.924033, "is_disabled": 0, "type": "electric_scooter", "lon": -77.02546633333333, "bike_id": "fbce23121565f107dfe4a7371caed0f1", "fusion_lat": 0.0, "name": "fbce23121565f107dfe4a7371caed0f1", "is_reserved": 0, "rental_uris": {"android": "https://dc.lft.to/lastmile_qr_scan", "ios": "https://dc.lft.to/lastmile_qr_scan"}, "fusion_lon": 0.0}, {"lat": 38.87917516666667, "is_disabled": 0, "type": "electric_scooter", "lon": -76.99508566666667, "bike_id": "ce8e88e030cfc11d0e5f1b5a403c16fc", "fusion_lat": 0.0, "name": "ce8e88e030cfc11d0e5f1b5a403c16fc", "is_reserved": 0, "rental_uris": {"android": "https://dc.lft.to/lastmile_qr_scan", "ios": "https://dc.lft.to/lastmile_qr_scan"}, "fusion_lon": 0.0}, {"lat": 38.91850016666667, "is_disabled": 0, "type": "electric_scooter", "lon": -76.965509, "bike_id": "2d294f6b87aea3d6bfc5d09f2ba1b256", "fusion_lat": 0.0, "name": "2d294f6b87aea3d6bfc5d09f2ba1b256", "is_reserved": 0, "rental_uris": {"android": "https://dc.lft.to/lastmile_qr_scan", "ios": "https://dc.lft.to/lastmile_qr_scan"}, "fusion_lon": 0.0}, {"lat": 38.89008616666667, "is_disabled": 0, "type": "electric_scooter", "lon": -76.93744816666667, "bike_id": "3febcc335f2cccc9221a85a16f1b2aed", "fusion_lat": 0.0, "name": "3febcc335f2cccc9221a85a16f1b2aed", "is_reserved": 0, "rental_uris": {"android": "https://dc.lft.to/lastmile_qr_scan", "ios": "https://dc.lft.to/lastmile_qr_scan"}, "fusion_lon": 0.0}, {"lat": 38.901552333333335, "is_disabled": 0, "type": "electric_scooter", "lon": -77.041771, "bike_id": "606d8bd119f96dbb80ee7892a2a48631", "fusion_lat": 0.0, "name": "606d8bd119f96dbb80ee7892a2a48631", "is_reserved": 0, "rental_uris": {"android": "https://dc.lft.to/lastmile_qr_scan", "ios": "https://dc.lft.to/lastmile_qr_scan"}, "fusion_lon": 0.0}, {"lat": 38.9268035, "is_disabled": 0, "type": "electric_scooter", "lon": -77.02635283333333, "bike_id": "c0aba5522ddda6d404fadb4e31171dc7", "fusion_lat": 0.0, "name": "c0aba5522ddda6d404fadb4e31171dc7", "is_reserved": 0, "rental_uris": {"android": "https://dc.lft.to/lastmile_qr_scan", "ios": "https://dc.lft.to/lastmile_qr_scan"}, "fusion_lon": 0.0}, {"lat": 38.89758, "is_disabled": 0, "type": "electric_scooter", "lon": -77.02686333333334, "bike_id": "2149ebc28986c2d030f000e803220b6c", "fusion_lat": 0.0, "name": "2149ebc28986c2d030f000e803220b6c", "is_reserved": 0, "rental_uris": {"android": "https://dc.lft.to/lastmile_qr_scan", "ios": "https://dc.lft.to/lastmile_qr_scan"}, "fusion_lon": 0.0}, {"lat": 38.923169333333334, "is_disabled": 0, "type": "electric_scooter", "lon": -77.03657333333334, "bike_id": "a3dc8805687a0401cadcd03a62d98d88", "fusion_lat": 0.0, "name": "a3dc8805687a0401cadcd03a62d98d88", "is_reserved": 0, "rental_uris": {"android": "https://dc.lft.to/lastmile_qr_scan", "ios": "https://dc.lft.to/lastmile_qr_scan"}, "fusion_lon": 0.0}, {"lat": 38.917003, "is_disabled": 0, "type": "electric_scooter", "lon": -77.03761966666667, "bike_id": "4d7d66d36eef60d21bf54430ce457e4e", "fusion_lat": 0.0, "name": "4d7d66d36eef60d21bf54430ce457e4e", "is_reserved": 0, "rental_uris": {"android": "https://dc.lft.to/lastmile_qr_scan", "ios": "https://dc.lft.to/lastmile_qr_scan"}, "fusion_lon": 0.0}, {"lat": 38.93064416666667, "is_disabled": 0, "type": "electric_scooter", "lon": -77.04025083333333, "bike_id": "73dd90b6f2a5cd3e746f945ea0c024e8", "fusion_lat": 0.0, "name": "73dd90b6f2a5cd3e746f945ea0c024e8", "is_reserved": 0, "rental_uris": {"android": "https://dc.lft.to/lastmile_qr_scan", "ios": "https://dc.lft.to/lastmile_qr_scan"}, "fusion_lon": 0.0}, {"lat": 38.922535, "is_disabled": 0, "type": "electric_scooter", "lon": -77.0352875, "bike_id": "945ceb13d622011ca337ad93cb33897f", "fusion_lat": 0.0, "name": "945ceb13d622011ca337ad93cb33897f", "is_reserved": 0, "rental_uris": {"android": "https://dc.lft.to/lastmile_qr_scan", "ios": "https://dc.lft.to/lastmile_qr_scan"}, "fusion_lon": 0.0}, {"lat": 38.920459, "is_disabled": 0, "type": "electric_scooter", "lon": -77.0339955, "bike_id": "e32baed728cf233b6d72116e3adaac3b", "fusion_lat": 0.0, "name": "e32baed728cf233b6d72116e3adaac3b", "is_reserved": 0, "rental_uris": {"android": "https://dc.lft.to/lastmile_qr_scan", "ios": "https://dc.lft.to/lastmile_qr_scan"}, "fusion_lon": 0.0}, {"lat": 38.924144166666665, "is_disabled": 0, "type": "electric_scooter", "lon": -77.0526375, "bike_id": "96b20c5cccbcdac182730ecd0b2629c0", "fusion_lat": 0.0, "name": "96b20c5cccbcdac182730ecd0b2629c0", "is_reserved": 0, "rental_uris": {"android": "https://dc.lft.to/lastmile_qr_scan", "ios": "https://dc.lft.to/lastmile_qr_scan"}, "fusion_lon": 0.0}, {"lat": 38.90046616666667, "is_disabled": 0, "type": "electric_scooter", "lon": -76.9950685, "bike_id": "6d1b709e2617c22192fd7b09fff118d5", "fusion_lat": 0.0, "name": "6d1b709e2617c22192fd7b09fff118d5", "is_reserved": 0, "rental_uris": {"android": "https://dc.lft.to/lastmile_qr_scan", "ios": "https://dc.lft.to/lastmile_qr_scan"}, "fusion_lon": 0.0}, {"lat": 38.9100995, "is_disabled": 0, "type": "electric_scooter", "lon": -76.98494933333333, "bike_id": "4ded420ad3f65ea56542f268fb95a388", "fusion_lat": 0.0, "name": "4ded420ad3f65ea56542f268fb95a388", "is_reserved": 0, "rental_uris": {"android": "https://dc.lft.to/lastmile_qr_scan", "ios": "https://dc.lft.to/lastmile_qr_scan"}, "fusion_lon": 0.0}, {"lat": 38.839875, "is_disabled": 0, "type": "electric_bike", "lon": -77.0057105, "bike_id": "299283634e00f14c314d4b525a9571c9", "fusion_lat": 0.0, "name": "299283634e00f14c314d4b525a9571c9", "is_reserved": 0, "rental_uris": {"android": "https://dc.lft.to/lastmile_qr_scan", "ios": "https://dc.lft.to/lastmile_qr_scan"}, "fusion_lon": 0.0}, {"lat": 38.888159333333334, "is_disabled": 0, "type": "electric_scooter", "lon": -76.93345666666667, "bike_id": "bfde3c9e3c23f15ef6dfa3e4788d48fb", "fusion_lat": 0.0, "name": "bfde3c9e3c23f15ef6dfa3e4788d48fb", "is_reserved": 0, "rental_uris": {"android": "https://dc.lft.to/lastmile_qr_scan", "ios": "https://dc.lft.to/lastmile_qr_scan"}, "fusion_lon": 0.0}, {"lat": 38.906843333333335, "is_disabled": 0, "type": "electric_scooter", "lon": -77.03831133333334, "bike_id": "8426b1e45e3709a6a1ad5343ad1ceb1a", "fusion_lat": 0.0, "name": "8426b1e45e3709a6a1ad5343ad1ceb1a", "is_reserved": 0, "rental_uris": {"android": "https://dc.lft.to/lastmile_qr_scan", "ios": "https://dc.lft.to/lastmile_qr_scan"}, "fusion_lon": 0.0}, {"lat": 38.87978316666667, "is_disabled": 0, "type": "electric_bike", "lon": -76.99502483333333, "bike_id": "66ef1090e35df1a23f632ffcf681eeca", "fusion_lat": 0.0, "name": "66ef1090e35df1a23f632ffcf681eeca", "is_reserved": 0, "rental_uris": {"android": "https://dc.lft.to/lastmile_qr_scan", "ios": "https://dc.lft.to/lastmile_qr_scan"}, "fusion_lon": 0.0}, {"lat": 38.9204115, "is_disabled": 0, "type": "electric_bike", "lon": -77.0370995, "bike_id": "0cfe6707d6cd7f7f5d6634d30160784e", "fusion_lat": 0.0, "name": "0cfe6707d6cd7f7f5d6634d30160784e", "is_reserved": 0, "rental_uris": {"android": "https://dc.lft.to/lastmile_qr_scan", "ios": "https://dc.lft.to/lastmile_qr_scan"}, "fusion_lon": 0.0}, {"lat": 38.93638516666667, "is_disabled": 0, "type": "electric_scooter", "lon": -77.02502566666666, "bike_id": "38c05a489cf92af431c257e2292ed859", "fusion_lat": 0.0, "name": "38c05a489cf92af431c257e2292ed859", "is_reserved": 0, "rental_uris": {"android": "https://dc.lft.to/lastmile_qr_scan", "ios": "https://dc.lft.to/lastmile_qr_scan"}, "fusion_lon": 0.0}, {"lat": 38.88737316666667, "is_disabled": 0, "type": "electric_scooter", "lon": -77.01389433333334, "bike_id": "22ba84a1a74b6deead44ce1e82969677", "fusion_lat": 0.0, "name": "22ba84a1a74b6deead44ce1e82969677", "is_reserved": 0, "rental_uris": {"android": "https://dc.lft.to/lastmile_qr_scan", "ios": "https://dc.lft.to/lastmile_qr_scan"}, "fusion_lon": 0.0}, {"lat": 38.93520616666667, "is_disabled": 0, "type": "electric_scooter", "lon": -77.032701, "bike_id": "51877588e5a3cc14231b285d6b3d4a37", "fusion_lat": 0.0, "name": "51877588e5a3cc14231b285d6b3d4a37", "is_reserved": 0, "rental_uris": {"android": "https://dc.lft.to/lastmile_qr_scan", "ios": "https://dc.lft.to/lastmile_qr_scan"}, "fusion_lon": 0.0}, {"lat": 38.925262833333335, "is_disabled": 0, "type": "electric_scooter", "lon": -77.04422766666667, "bike_id": "d3cd0c204901db5b1d567ba2d92fc969", "fusion_lat": 0.0, "name": "d3cd0c204901db5b1d567ba2d92fc969", "is_reserved": 0, "rental_uris": {"android": "https://dc.lft.to/lastmile_qr_scan", "ios": "https://dc.lft.to/lastmile_qr_scan"}, "fusion_lon": 0.0}, {"lat": 38.91795233333333, "is_disabled": 0, "type": "electric_scooter", "lon": -77.04043616666667, "bike_id": "ff7c3d6b1bbd9683a2f6e14d6198a5c4", "fusion_lat": 0.0, "name": "ff7c3d6b1bbd9683a2f6e14d6198a5c4", "is_reserved": 0, "rental_uris": {"android": "https://dc.lft.to/lastmile_qr_scan", "ios": "https://dc.lft.to/lastmile_qr_scan"}, "fusion_lon": 0.0}, {"lat": 38.91120183333334, "is_disabled": 0, "type": "electric_scooter", "lon": -77.0384425, "bike_id": "b4b5101005e8efc526722e2e48e07ee9", "fusion_lat": 0.0, "name": "b4b5101005e8efc526722e2e48e07ee9", "is_reserved": 0, "rental_uris": {"android": "https://dc.lft.to/lastmile_qr_scan", "ios": "https://dc.lft.to/lastmile_qr_scan"}, "fusion_lon": 0.0}, {"lat": 38.9164765, "is_disabled": 0, "type": "electric_scooter", "lon": -77.04789116666667, "bike_id": "7059eda3ef2c646b751b01d32acd8510", "fusion_lat": 0.0, "name": "7059eda3ef2c646b751b01d32acd8510", "is_reserved": 0, "rental_uris": {"android": "https://dc.lft.to/lastmile_qr_scan", "ios": "https://dc.lft.to/lastmile_qr_scan"}, "fusion_lon": 0.0}, {"lat": 38.93085083333333, "is_disabled": 0, "type": "electric_scooter", "lon": -77.03744983333333, "bike_id": "8ae2c779b2d195abecae0f8c91da14cf", "fusion_lat": 0.0, "name": "8ae2c779b2d195abecae0f8c91da14cf", "is_reserved": 0, "rental_uris": {"android": "https://dc.lft.to/lastmile_qr_scan", "ios": "https://dc.lft.to/lastmile_qr_scan"}, "fusion_lon": 0.0}, {"lat": 38.93257066666666, "is_disabled": 0, "type": "electric_scooter", "lon": -77.03274383333333, "bike_id": "89ac985063c99b10951dffb3725a2fc3", "fusion_lat": 0.0, "name": "89ac985063c99b10951dffb3725a2fc3", "is_reserved": 0, "rental_uris": {"android": "https://dc.lft.to/lastmile_qr_scan", "ios": "https://dc.lft.to/lastmile_qr_scan"}, "fusion_lon": 0.0}, {"lat": 38.909051833333336, "is_disabled": 0, "type": "electric_scooter", "lon": -77.03147433333334, "bike_id": "dea2be1b3f8c76a2d667cb6d7497682c", "fusion_lat": 0.0, "name": "dea2be1b3f8c76a2d667cb6d7497682c", "is_reserved": 0, "rental_uris": {"android": "https://dc.lft.to/lastmile_qr_scan", "ios": "https://dc.lft.to/lastmile_qr_scan"}, "fusion_lon": 0.0}, {"lat": 38.91813116666667, "is_disabled": 0, "type": "electric_scooter", "lon": -77.03177283333333, "bike_id": "a9686ca91a81cd95d7f63f26a2a0284e", "fusion_lat": 0.0, "name": "a9686ca91a81cd95d7f63f26a2a0284e", "is_reserved": 0, "rental_uris": {"android": "https://dc.lft.to/lastmile_qr_scan", "ios": "https://dc.lft.to/lastmile_qr_scan"}, "fusion_lon": 0.0}, {"lat": 38.89357666666667, "is_disabled": 0, "type": "electric_scooter", "lon": -77.04139333333333, "bike_id": "d655003c1477dc52ee8eaa431f19d377", "fusion_lat": 0.0, "name": "d655003c1477dc52ee8eaa431f19d377", "is_reserved": 0, "rental_uris": {"android": "https://dc.lft.to/lastmile_qr_scan", "ios": "https://dc.lft.to/lastmile_qr_scan"}, "fusion_lon": 0.0}, {"lat": 38.87712616666666, "is_disabled": 0, "type": "electric_scooter", "lon": -77.01762833333333, "bike_id": "8a5fc3e42ac24cb4e0b933a9aa5face0", "fusion_lat": 0.0, "name": "8a5fc3e42ac24cb4e0b933a9aa5face0", "is_reserved": 0, "rental_uris": {"android": "https://dc.lft.to/lastmile_qr_scan", "ios": "https://dc.lft.to/lastmile_qr_scan"}, "fusion_lon": 0.0}, {"lat": 38.9004805, "is_disabled": 0, "type": "electric_scooter", "lon": -76.99386716666666, "bike_id": "7d8af4a05eb9bbf7eb2d0ce9c0f9aed9", "fusion_lat": 0.0, "name": "7d8af4a05eb9bbf7eb2d0ce9c0f9aed9", "is_reserved": 0, "rental_uris": {"android": "https://dc.lft.to/lastmile_qr_scan", "ios": "https://dc.lft.to/lastmile_qr_scan"}, "fusion_lon": 0.0}, {"lat": 38.93716833333333, "is_disabled": 0, "type": "electric_scooter", "lon": -77.036354, "bike_id": "a4d389cfa104e5941fdbf57546905b4d", "fusion_lat": 0.0, "name": "a4d389cfa104e5941fdbf57546905b4d", "is_reserved": 0, "rental_uris": {"android": "https://dc.lft.to/lastmile_qr_scan", "ios": "https://dc.lft.to/lastmile_qr_scan"}, "fusion_lon": 0.0}, {"lat": 38.917760666666666, "is_disabled": 0, "type": "electric_scooter", "lon": -77.02305816666667, "bike_id": "eb2bfef86214b31bc59e125cbd6c8560", "fusion_lat": 0.0, "name": "eb2bfef86214b31bc59e125cbd6c8560", "is_reserved": 0, "rental_uris": {"android": "https://dc.lft.to/lastmile_qr_scan", "ios": "https://dc.lft.to/lastmile_qr_scan"}, "fusion_lon": 0.0}, {"lat": 38.923561666666664, "is_disabled": 0, "type": "electric_scooter", "lon": -77.0502115, "bike_id": "95f1ce5ad66b5ee26a2d8c7ad6b23698", "fusion_lat": 0.0, "name": "95f1ce5ad66b5ee26a2d8c7ad6b23698", "is_reserved": 0, "rental_uris": {"android": "https://dc.lft.to/lastmile_qr_scan", "ios": "https://dc.lft.to/lastmile_qr_scan"}, "fusion_lon": 0.0}, {"lat": 38.9181785, "is_disabled": 0, "type": "electric_scooter", "lon": -77.03666733333333, "bike_id": "0552a8e6a349ebc54b2dea523559f8bc", "fusion_lat": 0.0, "name": "0552a8e6a349ebc54b2dea523559f8bc", "is_reserved": 0, "rental_uris": {"android": "https://dc.lft.to/lastmile_qr_scan", "ios": "https://dc.lft.to/lastmile_qr_scan"}, "fusion_lon": 0.0}, {"lat": 38.90245183333333, "is_disabled": 0, "type": "electric_scooter", "lon": -77.06263416666667, "bike_id": "13def9563688a5703475a34ec53bd371", "fusion_lat": 0.0, "name": "13def9563688a5703475a34ec53bd371", "is_reserved": 0, "rental_uris": {"android": "https://dc.lft.to/lastmile_qr_scan", "ios": "https://dc.lft.to/lastmile_qr_scan"}, "fusion_lon": 0.0}, {"lat": 38.923694166666664, "is_disabled": 0, "type": "electric_scooter", "lon": -77.05057, "bike_id": "5ad3a8acad9bc906823e0d06b0511cea", "fusion_lat": 0.0, "name": "5ad3a8acad9bc906823e0d06b0511cea", "is_reserved": 0, "rental_uris": {"android": "https://dc.lft.to/lastmile_qr_scan", "ios": "https://dc.lft.to/lastmile_qr_scan"}, "fusion_lon": 0.0}, {"lat": 38.93609133333333, "is_disabled": 0, "type": "electric_scooter", "lon": -77.05856733333333, "bike_id": "b6bced369cf7d194de1e76e022728fd1", "fusion_lat": 0.0, "name": "b6bced369cf7d194de1e76e022728fd1", "is_reserved": 0, "rental_uris": {"android": "https://dc.lft.to/lastmile_qr_scan", "ios": "https://dc.lft.to/lastmile_qr_scan"}, "fusion_lon": 0.0}, {"lat": 38.90625466666667, "is_disabled": 0, "type": "electric_scooter", "lon": -77.02184383333334, "bike_id": "947ee3c39c892b3bb0901378eca78bfb", "fusion_lat": 0.0, "name": "947ee3c39c892b3bb0901378eca78bfb", "is_reserved": 0, "rental_uris": {"android": "https://dc.lft.to/lastmile_qr_scan", "ios": "https://dc.lft.to/lastmile_qr_scan"}, "fusion_lon": 0.0}, {"lat": 38.88272716666667, "is_disabled": 0, "type": "electric_bike", "lon": -76.93245033333334, "bike_id": "4ddc322badb3468228bd9061daf02f5f", "fusion_lat": 0.0, "name": "4ddc322badb3468228bd9061daf02f5f", "is_reserved": 0, "rental_uris": {"android": "https://dc.lft.to/lastmile_qr_scan", "ios": "https://dc.lft.to/lastmile_qr_scan"}, "fusion_lon": 0.0}, {"lat": 38.935907666666665, "is_disabled": 0, "type": "electric_scooter", "lon": -77.03759766666667, "bike_id": "27eaf7195fa0fcc24c39860192daf1e5", "fusion_lat": 0.0, "name": "27eaf7195fa0fcc24c39860192daf1e5", "is_reserved": 0, "rental_uris": {"android": "https://dc.lft.to/lastmile_qr_scan", "ios": "https://dc.lft.to/lastmile_qr_scan"}, "fusion_lon": 0.0}, {"lat": 38.91606316666667, "is_disabled": 0, "type": "electric_scooter", "lon": -77.017394, "bike_id": "7a4fa569996ba04a464894024c01b960", "fusion_lat": 0.0, "name": "7a4fa569996ba04a464894024c01b960", "is_reserved": 0, "rental_uris": {"android": "https://dc.lft.to/lastmile_qr_scan", "ios": "https://dc.lft.to/lastmile_qr_scan"}, "fusion_lon": 0.0}, {"lat": 38.92831233333333, "is_disabled": 0, "type": "electric_scooter", "lon": -77.05442916666667, "bike_id": "942aa7dfb80ef1cc26175d79f5970612", "fusion_lat": 0.0, "name": "942aa7dfb80ef1cc26175d79f5970612", "is_reserved": 0, "rental_uris": {"android": "https://dc.lft.to/lastmile_qr_scan", "ios": "https://dc.lft.to/lastmile_qr_scan"}, "fusion_lon": 0.0}, {"lat": 38.950855833333335, "is_disabled": 0, "type": "electric_bike", "lon": -77.012098, "bike_id": "dc7ab8374c9ffda449910ab350ff3d3b", "fusion_lat": 0.0, "name": "dc7ab8374c9ffda449910ab350ff3d3b", "is_reserved": 0, "rental_uris": {"android": "https://dc.lft.to/lastmile_qr_scan", "ios": "https://dc.lft.to/lastmile_qr_scan"}, "fusion_lon": 0.0}, {"lat": 38.90138283333334, "is_disabled": 0, "type": "electric_scooter", "lon": -77.00311716666667, "bike_id": "8b00ea493250985fd4c85d1104e7a1df", "fusion_lat": 0.0, "name": "8b00ea493250985fd4c85d1104e7a1df", "is_reserved": 0, "rental_uris": {"android": "https://dc.lft.to/lastmile_qr_scan", "ios": "https://dc.lft.to/lastmile_qr_scan"}, "fusion_lon": 0.0}, {"lat": 38.915604333333334, "is_disabled": 0, "type": "electric_scooter", "lon": -77.04179716666667, "bike_id": "520d283738bc103624769f90348d81d7", "fusion_lat": 0.0, "name": "520d283738bc103624769f90348d81d7", "is_reserved": 0, "rental_uris": {"android": "https://dc.lft.to/lastmile_qr_scan", "ios": "https://dc.lft.to/lastmile_qr_scan"}, "fusion_lon": 0.0}, {"lat": 38.902809500000004, "is_disabled": 0, "type": "electric_scooter", "lon": -77.0403725, "bike_id": "80a737385d55cb100cb5953eb909571d", "fusion_lat": 0.0, "name": "80a737385d55cb100cb5953eb909571d", "is_reserved": 0, "rental_uris": {"android": "https://dc.lft.to/lastmile_qr_scan", "ios": "https://dc.lft.to/lastmile_qr_scan"}, "fusion_lon": 0.0}, {"lat": 38.8982085, "is_disabled": 0, "type": "electric_scooter", "lon": -77.02954666666666, "bike_id": "2ab371111feff2e8a448edd90675bc8c", "fusion_lat": 0.0, "name": "2ab371111feff2e8a448edd90675bc8c", "is_reserved": 0, "rental_uris": {"android": "https://dc.lft.to/lastmile_qr_scan", "ios": "https://dc.lft.to/lastmile_qr_scan"}, "fusion_lon": 0.0}, {"lat": 38.911221, "is_disabled": 0, "type": "electric_scooter", "lon": -77.038677, "bike_id": "70c1cf1332ab0380d325e4aaab3763ff", "fusion_lat": 0.0, "name": "70c1cf1332ab0380d325e4aaab3763ff", "is_reserved": 0, "rental_uris": {"android": "https://dc.lft.to/lastmile_qr_scan", "ios": "https://dc.lft.to/lastmile_qr_scan"}, "fusion_lon": 0.0}, {"lat": 38.866214166666666, "is_disabled": 0, "type": "electric_scooter", "lon": -76.9866395, "bike_id": "5148e60d5ff898bfdb6347aa08ecd6cd", "fusion_lat": 0.0, "name": "5148e60d5ff898bfdb6347aa08ecd6cd", "is_reserved": 0, "rental_uris": {"android": "https://dc.lft.to/lastmile_qr_scan", "ios": "https://dc.lft.to/lastmile_qr_scan"}, "fusion_lon": 0.0}, {"lat": 38.9111675, "is_disabled": 0, "type": "electric_scooter", "lon": -77.023392, "bike_id": "5da55d37f023a08b4c72008a91697eab", "fusion_lat": 0.0, "name": "5da55d37f023a08b4c72008a91697eab", "is_reserved": 0, "rental_uris": {"android": "https://dc.lft.to/lastmile_qr_scan", "ios": "https://dc.lft.to/lastmile_qr_scan"}, "fusion_lon": 0.0}, {"lat": 38.90806666666667, "is_disabled": 0, "type": "electric_scooter", "lon": -77.04350083333334, "bike_id": "9a965be4f09a441466ad47e2537517b7", "fusion_lat": 0.0, "name": "9a965be4f09a441466ad47e2537517b7", "is_reserved": 0, "rental_uris": {"android": "https://dc.lft.to/lastmile_qr_scan", "ios": "https://dc.lft.to/lastmile_qr_scan"}, "fusion_lon": 0.0}, {"lat": 38.91824, "is_disabled": 0, "type": "electric_scooter", "lon": -77.02421816666667, "bike_id": "f03a99ca938dd0ef421cd584e15a5199", "fusion_lat": 0.0, "name": "f03a99ca938dd0ef421cd584e15a5199", "is_reserved": 0, "rental_uris": {"android": "https://dc.lft.to/lastmile_qr_scan", "ios": "https://dc.lft.to/lastmile_qr_scan"}, "fusion_lon": 0.0}, {"lat": 38.902802, "is_disabled": 0, "type": "electric_bike", "lon": -77.063468, "bike_id": "150ec63f3fc0c6ab12eaa405372f58d7", "fusion_lat": 0.0, "name": "150ec63f3fc0c6ab12eaa405372f58d7", "is_reserved": 0, "rental_uris": {"android": "https://dc.lft.to/lastmile_qr_scan", "ios": "https://dc.lft.to/lastmile_qr_scan"}, "fusion_lon": 0.0}, {"lat": 38.86383433333334, "is_disabled": 0, "type": "electric_scooter", "lon": -76.99250466666666, "bike_id": "6474e567405a5a9b30465775c8b2943f", "fusion_lat": 0.0, "name": "6474e567405a5a9b30465775c8b2943f", "is_reserved": 0, "rental_uris": {"android": "https://dc.lft.to/lastmile_qr_scan", "ios": "https://dc.lft.to/lastmile_qr_scan"}, "fusion_lon": 0.0}, {"lat": 38.923659, "is_disabled": 0, "type": "electric_scooter", "lon": -77.04380083333334, "bike_id": "5a50e30c01f4e8d46c6c19f88c799b03", "fusion_lat": 0.0, "name": "5a50e30c01f4e8d46c6c19f88c799b03", "is_reserved": 0, "rental_uris": {"android": "https://dc.lft.to/lastmile_qr_scan", "ios": "https://dc.lft.to/lastmile_qr_scan"}, "fusion_lon": 0.0}, {"lat": 38.90965683333334, "is_disabled": 0, "type": "electric_scooter", "lon": -77.03817133333334, "bike_id": "5055c642b0ada9c95d16759d8b1369b1", "fusion_lat": 0.0, "name": "5055c642b0ada9c95d16759d8b1369b1", "is_reserved": 0, "rental_uris": {"android": "https://dc.lft.to/lastmile_qr_scan", "ios": "https://dc.lft.to/lastmile_qr_scan"}, "fusion_lon": 0.0}, {"lat": 38.97844633333333, "is_disabled": 0, "type": "electric_bike", "lon": -77.02663733333333, "bike_id": "34d4f1c1944b87bc7a4a82637b402e08", "fusion_lat": 0.0, "name": "34d4f1c1944b87bc7a4a82637b402e08", "is_reserved": 0, "rental_uris": {"android": "https://dc.lft.to/lastmile_qr_scan", "ios": "https://dc.lft.to/lastmile_qr_scan"}, "fusion_lon": 0.0}, {"lat": 38.854585166666666, "is_disabled": 0, "type": "electric_scooter", "lon": -76.97232316666667, "bike_id": "dd9355b889a38572b3fecc5c06b80c8a", "fusion_lat": 0.0, "name": "dd9355b889a38572b3fecc5c06b80c8a", "is_reserved": 0, "rental_uris": {"android": "https://dc.lft.to/lastmile_qr_scan", "ios": "https://dc.lft.to/lastmile_qr_scan"}, "fusion_lon": 0.0}, {"lat": 38.91351916666667, "is_disabled": 0, "type": "electric_scooter", "lon": -77.03220333333333, "bike_id": "8ea834a586510ef9216d2a3f20bfca8e", "fusion_lat": 0.0, "name": "8ea834a586510ef9216d2a3f20bfca8e", "is_reserved": 0, "rental_uris": {"android": "https://dc.lft.to/lastmile_qr_scan", "ios": "https://dc.lft.to/lastmile_qr_scan"}, "fusion_lon": 0.0}, {"lat": 38.9166795, "is_disabled": 0, "type": "electric_scooter", "lon": -77.02209266666667, "bike_id": "888967eb097791cb5fa5bb7d4954be76", "fusion_lat": 0.0, "name": "888967eb097791cb5fa5bb7d4954be76", "is_reserved": 0, "rental_uris": {"android": "https://dc.lft.to/lastmile_qr_scan", "ios": "https://dc.lft.to/lastmile_qr_scan"}, "fusion_lon": 0.0}, {"lat": 38.90238, "is_disabled": 0, "type": "electric_scooter", "lon": -77.01794583333333, "bike_id": "856f5876587baac881b61ca387dc8f25", "fusion_lat": 0.0, "name": "856f5876587baac881b61ca387dc8f25", "is_reserved": 0, "rental_uris": {"android": "https://dc.lft.to/lastmile_qr_scan", "ios": "https://dc.lft.to/lastmile_qr_scan"}, "fusion_lon": 0.0}, {"lat": 38.94303516666667, "is_disabled": 0, "type": "electric_scooter", "lon": -77.05926166666667, "bike_id": "23fd44275b1c881ddd1bb630c8d7e216", "fusion_lat": 0.0, "name": "23fd44275b1c881ddd1bb630c8d7e216", "is_reserved": 0, "rental_uris": {"android": "https://dc.lft.to/lastmile_qr_scan", "ios": "https://dc.lft.to/lastmile_qr_scan"}, "fusion_lon": 0.0}, {"lat": 38.90968933333333, "is_disabled": 0, "type": "electric_scooter", "lon": -77.03837983333334, "bike_id": "d5b23d8b7c62f83f5778af4aa7c0856b", "fusion_lat": 0.0, "name": "d5b23d8b7c62f83f5778af4aa7c0856b", "is_reserved": 0, "rental_uris": {"android": "https://dc.lft.to/lastmile_qr_scan", "ios": "https://dc.lft.to/lastmile_qr_scan"}, "fusion_lon": 0.0}, {"lat": 38.946355, "is_disabled": 0, "type": "electric_scooter", "lon": -77.01849, "bike_id": "25b1b8f27d0a984168ba0bd3e383433b", "fusion_lat": 0.0, "name": "25b1b8f27d0a984168ba0bd3e383433b", "is_reserved": 0, "rental_uris": {"android": "https://dc.lft.to/lastmile_qr_scan", "ios": "https://dc.lft.to/lastmile_qr_scan"}, "fusion_lon": 0.0}, {"lat": 38.87733883333333, "is_disabled": 0, "type": "electric_bike", "lon": -77.11851933333334, "bike_id": "1610ceea19adb08341149cfcf7339e46", "fusion_lat": 0.0, "name": "1610ceea19adb08341149cfcf7339e46", "is_reserved": 0, "rental_uris": {"android": "https://dc.lft.to/lastmile_qr_scan", "ios": "https://dc.lft.to/lastmile_qr_scan"}, "fusion_lon": 0.0}, {"lat": 38.86747416666667, "is_disabled": 0, "type": "electric_scooter", "lon": -76.9766425, "bike_id": "032163d1cfe1cb668c85672a7add997a", "fusion_lat": 0.0, "name": "032163d1cfe1cb668c85672a7add997a", "is_reserved": 0, "rental_uris": {"android": "https://dc.lft.to/lastmile_qr_scan", "ios": "https://dc.lft.to/lastmile_qr_scan"}, "fusion_lon": 0.0}, {"lat": 38.95188433333333, "is_disabled": 0, "type": "electric_bike", "lon": -76.9354875, "bike_id": "b38a51f5b89018b0c15f6e2b09fc18b3", "fusion_lat": 0.0, "name": "b38a51f5b89018b0c15f6e2b09fc18b3", "is_reserved": 0, "rental_uris": {"android": "https://dc.lft.to/lastmile_qr_scan", "ios": "https://dc.lft.to/lastmile_qr_scan"}, "fusion_lon": 0.0}, {"lat": 38.9092415, "is_disabled": 0, "type": "electric_scooter", "lon": -77.0802635, "bike_id": "dc0608ad227812a59561f8690f7bac55", "fusion_lat": 0.0, "name": "dc0608ad227812a59561f8690f7bac55", "is_reserved": 0, "rental_uris": {"android": "https://dc.lft.to/lastmile_qr_scan", "ios": "https://dc.lft.to/lastmile_qr_scan"}, "fusion_lon": 0.0}, {"lat": 38.92644133333334, "is_disabled": 0, "type": "electric_bike", "lon": -77.02841566666666, "bike_id": "bb5009d8875b9eec8ee0fc5847dc4796", "fusion_lat": 0.0, "name": "bb5009d8875b9eec8ee0fc5847dc4796", "is_reserved": 0, "rental_uris": {"android": "https://dc.lft.to/lastmile_qr_scan", "ios": "https://dc.lft.to/lastmile_qr_scan"}, "fusion_lon": 0.0}, {"lat": 38.907059333333336, "is_disabled": 0, "type": "electric_scooter", "lon": -76.98697966666667, "bike_id": "9c15362407ca91878e097b26c53edea5", "fusion_lat": 0.0, "name": "9c15362407ca91878e097b26c53edea5", "is_reserved": 0, "rental_uris": {"android": "https://dc.lft.to/lastmile_qr_scan", "ios": "https://dc.lft.to/lastmile_qr_scan"}, "fusion_lon": 0.0}, {"lat": 38.91996566666667, "is_disabled": 0, "type": "electric_scooter", "lon": -77.039645, "bike_id": "d12173e7fa50f369abdfd9d3fb2b4e2e", "fusion_lat": 0.0, "name": "d12173e7fa50f369abdfd9d3fb2b4e2e", "is_reserved": 0, "rental_uris": {"android": "https://dc.lft.to/lastmile_qr_scan", "ios": "https://dc.lft.to/lastmile_qr_scan"}, "fusion_lon": 0.0}, {"lat": 38.8985215, "is_disabled": 0, "type": "electric_scooter", "lon": -77.0199075, "bike_id": "f5e48f22d1e22a8e8ef8540f48eaaced", "fusion_lat": 0.0, "name": "f5e48f22d1e22a8e8ef8540f48eaaced", "is_reserved": 0, "rental_uris": {"android": "https://dc.lft.to/lastmile_qr_scan", "ios": "https://dc.lft.to/lastmile_qr_scan"}, "fusion_lon": 0.0}, {"lat": 38.91657433333334, "is_disabled": 0, "type": "electric_scooter", "lon": -77.02272183333334, "bike_id": "81f89bc2c795dc9b7bf201924efdc858", "fusion_lat": 0.0, "name": "81f89bc2c795dc9b7bf201924efdc858", "is_reserved": 0, "rental_uris": {"android": "https://dc.lft.to/lastmile_qr_scan", "ios": "https://dc.lft.to/lastmile_qr_scan"}, "fusion_lon": 0.0}, {"lat": 38.94075933333333, "is_disabled": 0, "type": "electric_scooter", "lon": -77.02391933333334, "bike_id": "113dbaafdf7e1e0badb8bc5a7f377dee", "fusion_lat": 0.0, "name": "113dbaafdf7e1e0badb8bc5a7f377dee", "is_reserved": 0, "rental_uris": {"android": "https://dc.lft.to/lastmile_qr_scan", "ios": "https://dc.lft.to/lastmile_qr_scan"}, "fusion_lon": 0.0}, {"lat": 38.892325166666666, "is_disabled": 0, "type": "electric_scooter", "lon": -77.04860616666667, "bike_id": "b7c65341498a28aa071f2d9ca90c69dd", "fusion_lat": 0.0, "name": "b7c65341498a28aa071f2d9ca90c69dd", "is_reserved": 0, "rental_uris": {"android": "https://dc.lft.to/lastmile_qr_scan", "ios": "https://dc.lft.to/lastmile_qr_scan"}, "fusion_lon": 0.0}, {"lat": 38.90785866666667, "is_disabled": 0, "type": "electric_scooter", "lon": -77.0401385, "bike_id": "98dcb24cca0482613b7ce87d569acde3", "fusion_lat": 0.0, "name": "98dcb24cca0482613b7ce87d569acde3", "is_reserved": 0, "rental_uris": {"android": "https://dc.lft.to/lastmile_qr_scan", "ios": "https://dc.lft.to/lastmile_qr_scan"}, "fusion_lon": 0.0}, {"lat": 38.950662666666666, "is_disabled": 0, "type": "electric_bike", "lon": -77.007303, "bike_id": "1ee103cb9a1730d8c634c717fa9bec2b", "fusion_lat": 0.0, "name": "1ee103cb9a1730d8c634c717fa9bec2b", "is_reserved": 0, "rental_uris": {"android": "https://dc.lft.to/lastmile_qr_scan", "ios": "https://dc.lft.to/lastmile_qr_scan"}, "fusion_lon": 0.0}, {"lat": 38.899102, "is_disabled": 0, "type": "electric_scooter", "lon": -76.93353933333333, "bike_id": "82f1b58781638a66d5c4dd4d9ce8ea03", "fusion_lat": 0.0, "name": "82f1b58781638a66d5c4dd4d9ce8ea03", "is_reserved": 0, "rental_uris": {"android": "https://dc.lft.to/lastmile_qr_scan", "ios": "https://dc.lft.to/lastmile_qr_scan"}, "fusion_lon": 0.0}, {"lat": 38.91186533333333, "is_disabled": 0, "type": "electric_scooter", "lon": -77.04331316666666, "bike_id": "9d77417b4528cf4a2e588391359802be", "fusion_lat": 0.0, "name": "9d77417b4528cf4a2e588391359802be", "is_reserved": 0, "rental_uris": {"android": "https://dc.lft.to/lastmile_qr_scan", "ios": "https://dc.lft.to/lastmile_qr_scan"}, "fusion_lon": 0.0}, {"lat": 38.91005966666667, "is_disabled": 0, "type": "electric_scooter", "lon": -77.04012366666667, "bike_id": "1f0201cd1788b5d4d1c856bfa0c361e4", "fusion_lat": 0.0, "name": "1f0201cd1788b5d4d1c856bfa0c361e4", "is_reserved": 0, "rental_uris": {"android": "https://dc.lft.to/lastmile_qr_scan", "ios": "https://dc.lft.to/lastmile_qr_scan"}, "fusion_lon": 0.0}, {"lat": 38.917271166666666, "is_disabled": 0, "type": "electric_scooter", "lon": -77.03569216666666, "bike_id": "5e2b4769cf10ba0bdc315d53fc156699", "fusion_lat": 0.0, "name": "5e2b4769cf10ba0bdc315d53fc156699", "is_reserved": 0, "rental_uris": {"android": "https://dc.lft.to/lastmile_qr_scan", "ios": "https://dc.lft.to/lastmile_qr_scan"}, "fusion_lon": 0.0}, {"lat": 38.908077, "is_disabled": 0, "type": "electric_scooter", "lon": -77.043322, "bike_id": "dc3a0b922d02cee8fe801ae4761faf21", "fusion_lat": 0.0, "name": "dc3a0b922d02cee8fe801ae4761faf21", "is_reserved": 0, "rental_uris": {"android": "https://dc.lft.to/lastmile_qr_scan", "ios": "https://dc.lft.to/lastmile_qr_scan"}, "fusion_lon": 0.0}, {"lat": 38.9312865, "is_disabled": 0, "type": "electric_scooter", "lon": -77.034033, "bike_id": "9b44ec3637ee1a1e84e5d2a05477c930", "fusion_lat": 0.0, "name": "9b44ec3637ee1a1e84e5d2a05477c930", "is_reserved": 0, "rental_uris": {"android": "https://dc.lft.to/lastmile_qr_scan", "ios": "https://dc.lft.to/lastmile_qr_scan"}, "fusion_lon": 0.0}, {"lat": 38.85311033333333, "is_disabled": 0, "type": "electric_bike", "lon": -77.13132933333333, "bike_id": "3f5638e580e1dcfb9e1cacb3094b9bb7", "fusion_lat": 0.0, "name": "3f5638e580e1dcfb9e1cacb3094b9bb7", "is_reserved": 0, "rental_uris": {"android": "https://dc.lft.to/lastmile_qr_scan", "ios": "https://dc.lft.to/lastmile_qr_scan"}, "fusion_lon": 0.0}, {"lat": 38.95887783333333, "is_disabled": 0, "type": "electric_bike", "lon": -76.924827, "bike_id": "a9747177a847996bdd5513c81945cf08", "fusion_lat": 0.0, "name": "a9747177a847996bdd5513c81945cf08", "is_reserved": 0, "rental_uris": {"android": "https://dc.lft.to/lastmile_qr_scan", "ios": "https://dc.lft.to/lastmile_qr_scan"}, "fusion_lon": 0.0}, {"lat": 38.92903866666666, "is_disabled": 0, "type": "electric_scooter", "lon": -77.016254, "bike_id": "ae753814ed8971b01b1357ef3b54041e", "fusion_lat": 0.0, "name": "ae753814ed8971b01b1357ef3b54041e", "is_reserved": 0, "rental_uris": {"android": "https://dc.lft.to/lastmile_qr_scan", "ios": "https://dc.lft.to/lastmile_qr_scan"}, "fusion_lon": 0.0}, {"lat": 38.92295683333333, "is_disabled": 0, "type": "electric_scooter", "lon": -77.036651, "bike_id": "bbdfe36dc87034e4501f1bcd29d7a121", "fusion_lat": 0.0, "name": "bbdfe36dc87034e4501f1bcd29d7a121", "is_reserved": 0, "rental_uris": {"android": "https://dc.lft.to/lastmile_qr_scan", "ios": "https://dc.lft.to/lastmile_qr_scan"}, "fusion_lon": 0.0}, {"lat": 38.8925375, "is_disabled": 0, "type": "electric_scooter", "lon": -77.03960533333333, "bike_id": "0b332ed2a47ecb969daec42c3b2db14c", "fusion_lat": 0.0, "name": "0b332ed2a47ecb969daec42c3b2db14c", "is_reserved": 0, "rental_uris": {"android": "https://dc.lft.to/lastmile_qr_scan", "ios": "https://dc.lft.to/lastmile_qr_scan"}, "fusion_lon": 0.0}, {"lat": 38.89893083333333, "is_disabled": 0, "type": "electric_scooter", "lon": -77.04053266666666, "bike_id": "915efdf5249537d2998de6cd1dfc7c2c", "fusion_lat": 0.0, "name": "915efdf5249537d2998de6cd1dfc7c2c", "is_reserved": 0, "rental_uris": {"android": "https://dc.lft.to/lastmile_qr_scan", "ios": "https://dc.lft.to/lastmile_qr_scan"}, "fusion_lon": 0.0}, {"lat": 38.872439166666666, "is_disabled": 0, "type": "electric_scooter", "lon": -76.97730433333334, "bike_id": "dba879e3ad6113b5282232b81302c5ac", "fusion_lat": 0.0, "name": "dba879e3ad6113b5282232b81302c5ac", "is_reserved": 0, "rental_uris": {"android": "https://dc.lft.to/lastmile_qr_scan", "ios": "https://dc.lft.to/lastmile_qr_scan"}, "fusion_lon": 0.0}, {"lat": 38.87079716666667, "is_disabled": 0, "type": "electric_scooter", "lon": -76.96870333333334, "bike_id": "c36d8745fdf9b876bcf58877515587f9", "fusion_lat": 0.0, "name": "c36d8745fdf9b876bcf58877515587f9", "is_reserved": 0, "rental_uris": {"android": "https://dc.lft.to/lastmile_qr_scan", "ios": "https://dc.lft.to/lastmile_qr_scan"}, "fusion_lon": 0.0}, {"lat": 38.93929283333333, "is_disabled": 0, "type": "electric_scooter", "lon": -77.02802783333334, "bike_id": "6e8de7ffe283cc09ff1f8724a19d3e6b", "fusion_lat": 0.0, "name": "6e8de7ffe283cc09ff1f8724a19d3e6b", "is_reserved": 0, "rental_uris": {"android": "https://dc.lft.to/lastmile_qr_scan", "ios": "https://dc.lft.to/lastmile_qr_scan"}, "fusion_lon": 0.0}, {"lat": 38.90125966666667, "is_disabled": 0, "type": "electric_scooter", "lon": -77.03183266666667, "bike_id": "66d86900d64e91dd0255738636a4657c", "fusion_lat": 0.0, "name": "66d86900d64e91dd0255738636a4657c", "is_reserved": 0, "rental_uris": {"android": "https://dc.lft.to/lastmile_qr_scan", "ios": "https://dc.lft.to/lastmile_qr_scan"}, "fusion_lon": 0.0}, {"lat": 38.88927783333333, "is_disabled": 0, "type": "electric_scooter", "lon": -76.97376816666667, "bike_id": "e402be3ab9e4ebe24ae095f99b4a198f", "fusion_lat": 0.0, "name": "e402be3ab9e4ebe24ae095f99b4a198f", "is_reserved": 0, "rental_uris": {"android": "https://dc.lft.to/lastmile_qr_scan", "ios": "https://dc.lft.to/lastmile_qr_scan"}, "fusion_lon": 0.0}, {"lat": 38.9027335, "is_disabled": 0, "type": "electric_scooter", "lon": -77.03072616666667, "bike_id": "e61507fca45a63295bd7c59a977d984a", "fusion_lat": 0.0, "name": "e61507fca45a63295bd7c59a977d984a", "is_reserved": 0, "rental_uris": {"android": "https://dc.lft.to/lastmile_qr_scan", "ios": "https://dc.lft.to/lastmile_qr_scan"}, "fusion_lon": 0.0}, {"lat": 38.94408383333333, "is_disabled": 0, "type": "electric_scooter", "lon": -77.02644333333333, "bike_id": "a4e2fcad4f6378a8f385b6f2977694a3", "fusion_lat": 0.0, "name": "a4e2fcad4f6378a8f385b6f2977694a3", "is_reserved": 0, "rental_uris": {"android": "https://dc.lft.to/lastmile_qr_scan", "ios": "https://dc.lft.to/lastmile_qr_scan"}, "fusion_lon": 0.0}, {"lat": 38.916928, "is_disabled": 0, "type": "electric_scooter", "lon": -77.03354766666666, "bike_id": "cff5cb3f797caf78c9788479a7aab772", "fusion_lat": 0.0, "name": "cff5cb3f797caf78c9788479a7aab772", "is_reserved": 0, "rental_uris": {"android": "https://dc.lft.to/lastmile_qr_scan", "ios": "https://dc.lft.to/lastmile_qr_scan"}, "fusion_lon": 0.0}, {"lat": 38.855138833333335, "is_disabled": 0, "type": "electric_bike", "lon": -76.98425733333333, "bike_id": "eb99d9b13fcd49300c8c0c7f3524e584", "fusion_lat": 0.0, "name": "eb99d9b13fcd49300c8c0c7f3524e584", "is_reserved": 0, "rental_uris": {"android": "https://dc.lft.to/lastmile_qr_scan", "ios": "https://dc.lft.to/lastmile_qr_scan"}, "fusion_lon": 0.0}, {"lat": 38.92040466666667, "is_disabled": 0, "type": "electric_bike", "lon": -77.03709283333333, "bike_id": "683095e7dd8408ce24027d2ac789554d", "fusion_lat": 0.0, "name": "683095e7dd8408ce24027d2ac789554d", "is_reserved": 0, "rental_uris": {"android": "https://dc.lft.to/lastmile_qr_scan", "ios": "https://dc.lft.to/lastmile_qr_scan"}, "fusion_lon": 0.0}, {"lat": 38.908635333333336, "is_disabled": 0, "type": "electric_scooter", "lon": -77.0477, "bike_id": "a66db03284886816ccc5925134137f3f", "fusion_lat": 0.0, "name": "a66db03284886816ccc5925134137f3f", "is_reserved": 0, "rental_uris": {"android": "https://dc.lft.to/lastmile_qr_scan", "ios": "https://dc.lft.to/lastmile_qr_scan"}, "fusion_lon": 0.0}, {"lat": 38.900777166666664, "is_disabled": 0, "type": "electric_scooter", "lon": -77.00210666666666, "bike_id": "f62cb0fb522e5cec253013772b19e742", "fusion_lat": 0.0, "name": "f62cb0fb522e5cec253013772b19e742", "is_reserved": 0, "rental_uris": {"android": "https://dc.lft.to/lastmile_qr_scan", "ios": "https://dc.lft.to/lastmile_qr_scan"}, "fusion_lon": 0.0}, {"lat": 38.9021415, "is_disabled": 0, "type": "electric_scooter", "lon": -77.023718, "bike_id": "f58726c578296f531868be2b7dcfcaf0", "fusion_lat": 0.0, "name": "f58726c578296f531868be2b7dcfcaf0", "is_reserved": 0, "rental_uris": {"android": "https://dc.lft.to/lastmile_qr_scan", "ios": "https://dc.lft.to/lastmile_qr_scan"}, "fusion_lon": 0.0}, {"lat": 38.912890166666664, "is_disabled": 0, "type": "electric_bike", "lon": -77.04488066666667, "bike_id": "20954a738119e3d72207fceaec0b0220", "fusion_lat": 0.0, "name": "20954a738119e3d72207fceaec0b0220", "is_reserved": 0, "rental_uris": {"android": "https://dc.lft.to/lastmile_qr_scan", "ios": "https://dc.lft.to/lastmile_qr_scan"}, "fusion_lon": 0.0}, {"lat": 38.8707105, "is_disabled": 0, "type": "electric_bike", "lon": -77.00838466666667, "bike_id": "8cc3af616d5a2c1d73d58eda4e22d8e3", "fusion_lat": 0.0, "name": "8cc3af616d5a2c1d73d58eda4e22d8e3", "is_reserved": 0, "rental_uris": {"android": "https://dc.lft.to/lastmile_qr_scan", "ios": "https://dc.lft.to/lastmile_qr_scan"}, "fusion_lon": 0.0}, {"lat": 38.90021483333334, "is_disabled": 0, "type": "electric_scooter", "lon": -77.04663683333334, "bike_id": "322df23c4bded8108afc96e0998b3d01", "fusion_lat": 0.0, "name": "322df23c4bded8108afc96e0998b3d01", "is_reserved": 0, "rental_uris": {"android": "https://dc.lft.to/lastmile_qr_scan", "ios": "https://dc.lft.to/lastmile_qr_scan"}, "fusion_lon": 0.0}, {"lat": 38.8999265, "is_disabled": 0, "type": "electric_scooter", "lon": -76.99854033333334, "bike_id": "0d90e7c0f84868437293d1751d95821e", "fusion_lat": 0.0, "name": "0d90e7c0f84868437293d1751d95821e", "is_reserved": 0, "rental_uris": {"android": "https://dc.lft.to/lastmile_qr_scan", "ios": "https://dc.lft.to/lastmile_qr_scan"}, "fusion_lon": 0.0}, {"lat": 38.9261305, "is_disabled": 0, "type": "electric_scooter", "lon": -77.02162283333334, "bike_id": "38942593dcd7fd7678b48b3d7e2004f0", "fusion_lat": 0.0, "name": "38942593dcd7fd7678b48b3d7e2004f0", "is_reserved": 0, "rental_uris": {"android": "https://dc.lft.to/lastmile_qr_scan", "ios": "https://dc.lft.to/lastmile_qr_scan"}, "fusion_lon": 0.0}, {"lat": 38.908188333333335, "is_disabled": 0, "type": "electric_scooter", "lon": -77.01846533333334, "bike_id": "53b06e0b57cae038c2e88852e1ffdb55", "fusion_lat": 0.0, "name": "53b06e0b57cae038c2e88852e1ffdb55", "is_reserved": 0, "rental_uris": {"android": "https://dc.lft.to/lastmile_qr_scan", "ios": "https://dc.lft.to/lastmile_qr_scan"}, "fusion_lon": 0.0}, {"lat": 38.905449, "is_disabled": 0, "type": "electric_scooter", "lon": -77.04169166666667, "bike_id": "e4780a5346338bd314aab5db19f123e4", "fusion_lat": 0.0, "name": "e4780a5346338bd314aab5db19f123e4", "is_reserved": 0, "rental_uris": {"android": "https://dc.lft.to/lastmile_qr_scan", "ios": "https://dc.lft.to/lastmile_qr_scan"}, "fusion_lon": 0.0}, {"lat": 38.89008283333333, "is_disabled": 0, "type": "electric_scooter", "lon": -76.9374555, "bike_id": "deea24815ce2b4884e5bb74bd603f2c3", "fusion_lat": 0.0, "name": "deea24815ce2b4884e5bb74bd603f2c3", "is_reserved": 0, "rental_uris": {"android": "https://dc.lft.to/lastmile_qr_scan", "ios": "https://dc.lft.to/lastmile_qr_scan"}, "fusion_lon": 0.0}, {"lat": 38.90886183333333, "is_disabled": 0, "type": "electric_scooter", "lon": -76.9962655, "bike_id": "f9bf4e2fd9e4ea4ac67755f1900036d5", "fusion_lat": 0.0, "name": "f9bf4e2fd9e4ea4ac67755f1900036d5", "is_reserved": 0, "rental_uris": {"android": "https://dc.lft.to/lastmile_qr_scan", "ios": "https://dc.lft.to/lastmile_qr_scan"}, "fusion_lon": 0.0}, {"lat": 38.922415666666666, "is_disabled": 0, "type": "electric_scooter", "lon": -77.04574666666667, "bike_id": "d63b72a20e4f92b7ebc637aea36ac0a7", "fusion_lat": 0.0, "name": "d63b72a20e4f92b7ebc637aea36ac0a7", "is_reserved": 0, "rental_uris": {"android": "https://dc.lft.to/lastmile_qr_scan", "ios": "https://dc.lft.to/lastmile_qr_scan"}, "fusion_lon": 0.0}, {"lat": 38.899773, "is_disabled": 0, "type": "electric_scooter", "lon": -77.00718466666666, "bike_id": "02559c2cb925694728887d103bcab4ad", "fusion_lat": 0.0, "name": "02559c2cb925694728887d103bcab4ad", "is_reserved": 0, "rental_uris": {"android": "https://dc.lft.to/lastmile_qr_scan", "ios": "https://dc.lft.to/lastmile_qr_scan"}, "fusion_lon": 0.0}, {"lat": 38.91937083333333, "is_disabled": 0, "type": "electric_scooter", "lon": -77.02304866666667, "bike_id": "5e25cb1615fd8988bc362ee22d3f93d2", "fusion_lat": 0.0, "name": "5e25cb1615fd8988bc362ee22d3f93d2", "is_reserved": 0, "rental_uris": {"android": "https://dc.lft.to/lastmile_qr_scan", "ios": "https://dc.lft.to/lastmile_qr_scan"}, "fusion_lon": 0.0}, {"lat": 38.91919166666667, "is_disabled": 0, "type": "electric_scooter", "lon": -77.07055616666666, "bike_id": "48f086c47c5e4f555ba338e3f5fd71e0", "fusion_lat": 0.0, "name": "48f086c47c5e4f555ba338e3f5fd71e0", "is_reserved": 0, "rental_uris": {"android": "https://dc.lft.to/lastmile_qr_scan", "ios": "https://dc.lft.to/lastmile_qr_scan"}, "fusion_lon": 0.0}, {"lat": 38.905313666666665, "is_disabled": 0, "type": "electric_scooter", "lon": -77.05769016666666, "bike_id": "02feb99288e1d8013e9b7508b5a71338", "fusion_lat": 0.0, "name": "02feb99288e1d8013e9b7508b5a71338", "is_reserved": 0, "rental_uris": {"android": "https://dc.lft.to/lastmile_qr_scan", "ios": "https://dc.lft.to/lastmile_qr_scan"}, "fusion_lon": 0.0}, {"lat": 38.892204, "is_disabled": 0, "type": "electric_scooter", "lon": -77.043705, "bike_id": "e800cfcfde4bc216e365e30c4f5ccc16", "fusion_lat": 0.0, "name": "e800cfcfde4bc216e365e30c4f5ccc16", "is_reserved": 0, "rental_uris": {"android": "https://dc.lft.to/lastmile_qr_scan", "ios": "https://dc.lft.to/lastmile_qr_scan"}, "fusion_lon": 0.0}, {"lat": 38.893669833333334, "is_disabled": 0, "type": "electric_scooter", "lon": -77.0136065, "bike_id": "c2da331a814595643eff8c5433329143", "fusion_lat": 0.0, "name": "c2da331a814595643eff8c5433329143", "is_reserved": 0, "rental_uris": {"android": "https://dc.lft.to/lastmile_qr_scan", "ios": "https://dc.lft.to/lastmile_qr_scan"}, "fusion_lon": 0.0}, {"lat": 38.917624833333335, "is_disabled": 0, "type": "electric_scooter", "lon": -77.03196066666666, "bike_id": "cdd6599fdbf8b0a406e8b264e067ff25", "fusion_lat": 0.0, "name": "cdd6599fdbf8b0a406e8b264e067ff25", "is_reserved": 0, "rental_uris": {"android": "https://dc.lft.to/lastmile_qr_scan", "ios": "https://dc.lft.to/lastmile_qr_scan"}, "fusion_lon": 0.0}, {"lat": 38.9196285, "is_disabled": 0, "type": "electric_bike", "lon": -76.972689, "bike_id": "696e7216d855884a05e28b48b3909ebe", "fusion_lat": 0.0, "name": "696e7216d855884a05e28b48b3909ebe", "is_reserved": 0, "rental_uris": {"android": "https://dc.lft.to/lastmile_qr_scan", "ios": "https://dc.lft.to/lastmile_qr_scan"}, "fusion_lon": 0.0}, {"lat": 38.894979166666666, "is_disabled": 0, "type": "electric_scooter", "lon": -77.02200533333334, "bike_id": "f33bc038333799f52f4d059a7be43e79", "fusion_lat": 0.0, "name": "f33bc038333799f52f4d059a7be43e79", "is_reserved": 0, "rental_uris": {"android": "https://dc.lft.to/lastmile_qr_scan", "ios": "https://dc.lft.to/lastmile_qr_scan"}, "fusion_lon": 0.0}, {"lat": 38.9352655, "is_disabled": 0, "type": "electric_scooter", "lon": -77.03264916666667, "bike_id": "1701e5a57aadf72b7aee636c9dac81ea", "fusion_lat": 0.0, "name": "1701e5a57aadf72b7aee636c9dac81ea", "is_reserved": 0, "rental_uris": {"android": "https://dc.lft.to/lastmile_qr_scan", "ios": "https://dc.lft.to/lastmile_qr_scan"}, "fusion_lon": 0.0}, {"lat": 38.936764, "is_disabled": 0, "type": "electric_bike", "lon": -76.9520335, "bike_id": "447a0299da6636e476f3a52bad2ade18", "fusion_lat": 0.0, "name": "447a0299da6636e476f3a52bad2ade18", "is_reserved": 0, "rental_uris": {"android": "https://dc.lft.to/lastmile_qr_scan", "ios": "https://dc.lft.to/lastmile_qr_scan"}, "fusion_lon": 0.0}, {"lat": 38.907289166666665, "is_disabled": 0, "type": "electric_scooter", "lon": -77.03443366666667, "bike_id": "7961457354791a6d6dc0b745132e5d9f", "fusion_lat": 0.0, "name": "7961457354791a6d6dc0b745132e5d9f", "is_reserved": 0, "rental_uris": {"android": "https://dc.lft.to/lastmile_qr_scan", "ios": "https://dc.lft.to/lastmile_qr_scan"}, "fusion_lon": 0.0}, {"lat": 38.930135166666666, "is_disabled": 0, "type": "electric_bike", "lon": -77.21656433333334, "bike_id": "d12988e78e79f24ae83312e84395a475", "fusion_lat": 0.0, "name": "d12988e78e79f24ae83312e84395a475", "is_reserved": 0, "rental_uris": {"android": "https://dc.lft.to/lastmile_qr_scan", "ios": "https://dc.lft.to/lastmile_qr_scan"}, "fusion_lon": 0.0}, {"lat": 38.902205333333335, "is_disabled": 0, "type": "electric_scooter", "lon": -76.94588216666666, "bike_id": "09aa3e566a1d9589881ee315472eeefc", "fusion_lat": 0.0, "name": "09aa3e566a1d9589881ee315472eeefc", "is_reserved": 0, "rental_uris": {"android": "https://dc.lft.to/lastmile_qr_scan", "ios": "https://dc.lft.to/lastmile_qr_scan"}, "fusion_lon": 0.0}, {"lat": 38.91213883333333, "is_disabled": 0, "type": "electric_scooter", "lon": -77.02762616666666, "bike_id": "05acaf41fe8a30055a9551e667d3e2f4", "fusion_lat": 0.0, "name": "05acaf41fe8a30055a9551e667d3e2f4", "is_reserved": 0, "rental_uris": {"android": "https://dc.lft.to/lastmile_qr_scan", "ios": "https://dc.lft.to/lastmile_qr_scan"}, "fusion_lon": 0.0}, {"lat": 38.9369845, "is_disabled": 0, "type": "electric_scooter", "lon": -77.0240435, "bike_id": "ce1e6c89d8ecf2227c9b33ed31d1cc93", "fusion_lat": 0.0, "name": "ce1e6c89d8ecf2227c9b33ed31d1cc93", "is_reserved": 0, "rental_uris": {"android": "https://dc.lft.to/lastmile_qr_scan", "ios": "https://dc.lft.to/lastmile_qr_scan"}, "fusion_lon": 0.0}, {"lat": 38.99428983333333, "is_disabled": 0, "type": "electric_bike", "lon": -77.02660266666666, "bike_id": "d4c835dad350069d538b47440843547e", "fusion_lat": 0.0, "name": "d4c835dad350069d538b47440843547e", "is_reserved": 0, "rental_uris": {"android": "https://dc.lft.to/lastmile_qr_scan", "ios": "https://dc.lft.to/lastmile_qr_scan"}, "fusion_lon": 0.0}, {"lat": 38.8990685, "is_disabled": 0, "type": "electric_scooter", "lon": -77.0412395, "bike_id": "9425f30d291373039c263be27cd71668", "fusion_lat": 0.0, "name": "9425f30d291373039c263be27cd71668", "is_reserved": 0, "rental_uris": {"android": "https://dc.lft.to/lastmile_qr_scan", "ios": "https://dc.lft.to/lastmile_qr_scan"}, "fusion_lon": 0.0}, {"lat": 38.8921955, "is_disabled": 0, "type": "electric_scooter", "lon": -77.0315475, "bike_id": "3baeaeaa17f9d14edbf77cf86f9dd281", "fusion_lat": 0.0, "name": "3baeaeaa17f9d14edbf77cf86f9dd281", "is_reserved": 0, "rental_uris": {"android": "https://dc.lft.to/lastmile_qr_scan", "ios": "https://dc.lft.to/lastmile_qr_scan"}, "fusion_lon": 0.0}, {"lat": 38.898846, "is_disabled": 0, "type": "electric_scooter", "lon": -76.93177283333333, "bike_id": "c909d5d22dc4ef7dc574c9396c404227", "fusion_lat": 0.0, "name": "c909d5d22dc4ef7dc574c9396c404227", "is_reserved": 0, "rental_uris": {"android": "https://dc.lft.to/lastmile_qr_scan", "ios": "https://dc.lft.to/lastmile_qr_scan"}, "fusion_lon": 0.0}, {"lat": 39.00476533333333, "is_disabled": 0, "type": "electric_bike", "lon": -76.90134966666666, "bike_id": "78e106bb3efb68ad09c67a9aa7380d95", "fusion_lat": 0.0, "name": "78e106bb3efb68ad09c67a9aa7380d95", "is_reserved": 0, "rental_uris": {"android": "https://dc.lft.to/lastmile_qr_scan", "ios": "https://dc.lft.to/lastmile_qr_scan"}, "fusion_lon": 0.0}, {"lat": 38.93024316666666, "is_disabled": 0, "type": "electric_scooter", "lon": -77.04449683333333, "bike_id": "a55fb486682446784c488cac8822f680", "fusion_lat": 0.0, "name": "a55fb486682446784c488cac8822f680", "is_reserved": 0, "rental_uris": {"android": "https://dc.lft.to/lastmile_qr_scan", "ios": "https://dc.lft.to/lastmile_qr_scan"}, "fusion_lon": 0.0}, {"lat": 38.9024185, "is_disabled": 0, "type": "electric_scooter", "lon": -77.01794283333334, "bike_id": "2c060087b70bb8fbc68c5780c77cf20e", "fusion_lat": 0.0, "name": "2c060087b70bb8fbc68c5780c77cf20e", "is_reserved": 0, "rental_uris": {"android": "https://dc.lft.to/lastmile_qr_scan", "ios": "https://dc.lft.to/lastmile_qr_scan"}, "fusion_lon": 0.0}, {"lat": 38.9249555, "is_disabled": 0, "type": "electric_scooter", "lon": -77.05222416666666, "bike_id": "4105ac70c53b01d65de1f81796ed36ad", "fusion_lat": 0.0, "name": "4105ac70c53b01d65de1f81796ed36ad", "is_reserved": 0, "rental_uris": {"android": "https://dc.lft.to/lastmile_qr_scan", "ios": "https://dc.lft.to/lastmile_qr_scan"}, "fusion_lon": 0.0}, {"lat": 38.90992033333333, "is_disabled": 0, "type": "electric_scooter", "lon": -76.9974055, "bike_id": "5a598202f0b80ca6d1f0ccc4362c9d40", "fusion_lat": 0.0, "name": "5a598202f0b80ca6d1f0ccc4362c9d40", "is_reserved": 0, "rental_uris": {"android": "https://dc.lft.to/lastmile_qr_scan", "ios": "https://dc.lft.to/lastmile_qr_scan"}, "fusion_lon": 0.0}, {"lat": 38.9041765, "is_disabled": 0, "type": "electric_scooter", "lon": -77.02591933333333, "bike_id": "fd47007c8dfc46308ca96b46ceca10dc", "fusion_lat": 0.0, "name": "fd47007c8dfc46308ca96b46ceca10dc", "is_reserved": 0, "rental_uris": {"android": "https://dc.lft.to/lastmile_qr_scan", "ios": "https://dc.lft.to/lastmile_qr_scan"}, "fusion_lon": 0.0}, {"lat": 38.92399116666667, "is_disabled": 0, "type": "electric_scooter", "lon": -77.03232166666666, "bike_id": "4af2b824fdd1fd14c42ad2eb88131824", "fusion_lat": 0.0, "name": "4af2b824fdd1fd14c42ad2eb88131824", "is_reserved": 0, "rental_uris": {"android": "https://dc.lft.to/lastmile_qr_scan", "ios": "https://dc.lft.to/lastmile_qr_scan"}, "fusion_lon": 0.0}, {"lat": 38.90076066666666, "is_disabled": 0, "type": "electric_scooter", "lon": -77.04340416666666, "bike_id": "8eb0566df952a6b6bfd36875b74219e1", "fusion_lat": 0.0, "name": "8eb0566df952a6b6bfd36875b74219e1", "is_reserved": 0, "rental_uris": {"android": "https://dc.lft.to/lastmile_qr_scan", "ios": "https://dc.lft.to/lastmile_qr_scan"}, "fusion_lon": 0.0}, {"lat": 38.922421, "is_disabled": 0, "type": "electric_scooter", "lon": -77.02850283333333, "bike_id": "057806aeba387f4b22a1114a5763e2fa", "fusion_lat": 0.0, "name": "057806aeba387f4b22a1114a5763e2fa", "is_reserved": 0, "rental_uris": {"android": "https://dc.lft.to/lastmile_qr_scan", "ios": "https://dc.lft.to/lastmile_qr_scan"}, "fusion_lon": 0.0}, {"lat": 38.82876916666667, "is_disabled": 0, "type": "electric_bike", "lon": -77.11218833333334, "bike_id": "f9a871ed957f6f849667dbbef35aa1bc", "fusion_lat": 0.0, "name": "f9a871ed957f6f849667dbbef35aa1bc", "is_reserved": 0, "rental_uris": {"android": "https://dc.lft.to/lastmile_qr_scan", "ios": "https://dc.lft.to/lastmile_qr_scan"}, "fusion_lon": 0.0}, {"lat": 38.90078583333333, "is_disabled": 0, "type": "electric_scooter", "lon": -77.00214983333333, "bike_id": "fb8886d141ea8f60f2c73f511653b086", "fusion_lat": 0.0, "name": "fb8886d141ea8f60f2c73f511653b086", "is_reserved": 0, "rental_uris": {"android": "https://dc.lft.to/lastmile_qr_scan", "ios": "https://dc.lft.to/lastmile_qr_scan"}, "fusion_lon": 0.0}, {"lat": 38.902924666666664, "is_disabled": 0, "type": "electric_scooter", "lon": -77.03653916666667, "bike_id": "e3c0d20b57794504dae620974394ade1", "fusion_lat": 0.0, "name": "e3c0d20b57794504dae620974394ade1", "is_reserved": 0, "rental_uris": {"android": "https://dc.lft.to/lastmile_qr_scan", "ios": "https://dc.lft.to/lastmile_qr_scan"}, "fusion_lon": 0.0}, {"lat": 38.928603333333335, "is_disabled": 0, "type": "electric_scooter", "lon": -77.03321966666667, "bike_id": "714a7f93381a45879d8398f6f5a06695", "fusion_lat": 0.0, "name": "714a7f93381a45879d8398f6f5a06695", "is_reserved": 0, "rental_uris": {"android": "https://dc.lft.to/lastmile_qr_scan", "ios": "https://dc.lft.to/lastmile_qr_scan"}, "fusion_lon": 0.0}, {"lat": 38.90163783333333, "is_disabled": 0, "type": "electric_scooter", "lon": -77.0396715, "bike_id": "a0f056d10a7d1f26d5822a1cfd755caa", "fusion_lat": 0.0, "name": "a0f056d10a7d1f26d5822a1cfd755caa", "is_reserved": 0, "rental_uris": {"android": "https://dc.lft.to/lastmile_qr_scan", "ios": "https://dc.lft.to/lastmile_qr_scan"}, "fusion_lon": 0.0}, {"lat": 38.89595583333333, "is_disabled": 0, "type": "electric_bike", "lon": -77.12674483333333, "bike_id": "d2b5d2311342c4cc12da8ddda4c5e2d0", "fusion_lat": 0.0, "name": "d2b5d2311342c4cc12da8ddda4c5e2d0", "is_reserved": 0, "rental_uris": {"android": "https://dc.lft.to/lastmile_qr_scan", "ios": "https://dc.lft.to/lastmile_qr_scan"}, "fusion_lon": 0.0}, {"lat": 38.91565966666667, "is_disabled": 0, "type": "electric_scooter", "lon": -77.03153066666667, "bike_id": "078d401039bc8d8aaac4f2ead088a3c3", "fusion_lat": 0.0, "name": "078d401039bc8d8aaac4f2ead088a3c3", "is_reserved": 0, "rental_uris": {"android": "https://dc.lft.to/lastmile_qr_scan", "ios": "https://dc.lft.to/lastmile_qr_scan"}, "fusion_lon": 0.0}, {"lat": 38.91420566666667, "is_disabled": 0, "type": "electric_scooter", "lon": -77.03185333333333, "bike_id": "0439da50486a9b9fc1b38ce9bd03df92", "fusion_lat": 0.0, "name": "0439da50486a9b9fc1b38ce9bd03df92", "is_reserved": 0, "rental_uris": {"android": "https://dc.lft.to/lastmile_qr_scan", "ios": "https://dc.lft.to/lastmile_qr_scan"}, "fusion_lon": 0.0}, {"lat": 38.923328166666664, "is_disabled": 0, "type": "electric_scooter", "lon": -77.03546583333333, "bike_id": "c8ccbb35213713b1f81e9522673d89f9", "fusion_lat": 0.0, "name": "c8ccbb35213713b1f81e9522673d89f9", "is_reserved": 0, "rental_uris": {"android": "https://dc.lft.to/lastmile_qr_scan", "ios": "https://dc.lft.to/lastmile_qr_scan"}, "fusion_lon": 0.0}, {"lat": 38.910970666666664, "is_disabled": 0, "type": "electric_scooter", "lon": -77.03194483333333, "bike_id": "a40cb11e6aceec73100bb2001d601643", "fusion_lat": 0.0, "name": "a40cb11e6aceec73100bb2001d601643", "is_reserved": 0, "rental_uris": {"android": "https://dc.lft.to/lastmile_qr_scan", "ios": "https://dc.lft.to/lastmile_qr_scan"}, "fusion_lon": 0.0}, {"lat": 38.92070183333333, "is_disabled": 0, "type": "electric_scooter", "lon": -77.03814383333334, "bike_id": "7d95381a72b071bc626cde5d7e2b4d85", "fusion_lat": 0.0, "name": "7d95381a72b071bc626cde5d7e2b4d85", "is_reserved": 0, "rental_uris": {"android": "https://dc.lft.to/lastmile_qr_scan", "ios": "https://dc.lft.to/lastmile_qr_scan"}, "fusion_lon": 0.0}, {"lat": 38.933603833333336, "is_disabled": 0, "type": "electric_bike", "lon": -77.09966883333334, "bike_id": "5ef6c2e8727a56005c5f191618cb953d", "fusion_lat": 0.0, "name": "5ef6c2e8727a56005c5f191618cb953d", "is_reserved": 0, "rental_uris": {"android": "https://dc.lft.to/lastmile_qr_scan", "ios": "https://dc.lft.to/lastmile_qr_scan"}, "fusion_lon": 0.0}, {"lat": 38.90820216666667, "is_disabled": 0, "type": "electric_scooter", "lon": -77.04342466666667, "bike_id": "2eca0d9b0acefb10055a4dd9ceacc266", "fusion_lat": 0.0, "name": "2eca0d9b0acefb10055a4dd9ceacc266", "is_reserved": 0, "rental_uris": {"android": "https://dc.lft.to/lastmile_qr_scan", "ios": "https://dc.lft.to/lastmile_qr_scan"}, "fusion_lon": 0.0}, {"lat": 38.914881333333334, "is_disabled": 0, "type": "electric_scooter", "lon": -77.03226516666666, "bike_id": "a3deaed57cd71c097b7182bf1a271509", "fusion_lat": 0.0, "name": "a3deaed57cd71c097b7182bf1a271509", "is_reserved": 0, "rental_uris": {"android": "https://dc.lft.to/lastmile_qr_scan", "ios": "https://dc.lft.to/lastmile_qr_scan"}, "fusion_lon": 0.0}, {"lat": 38.931931, "is_disabled": 0, "type": "electric_scooter", "lon": -77.02833333333334, "bike_id": "2bcd4c291bf210b175a017e7f0748954", "fusion_lat": 0.0, "name": "2bcd4c291bf210b175a017e7f0748954", "is_reserved": 0, "rental_uris": {"android": "https://dc.lft.to/lastmile_qr_scan", "ios": "https://dc.lft.to/lastmile_qr_scan"}, "fusion_lon": 0.0}, {"lat": 38.92194033333333, "is_disabled": 0, "type": "electric_scooter", "lon": -77.03787166666666, "bike_id": "f98512c5b12b4ecff7dfdbbc850bc9ab", "fusion_lat": 0.0, "name": "f98512c5b12b4ecff7dfdbbc850bc9ab", "is_reserved": 0, "rental_uris": {"android": "https://dc.lft.to/lastmile_qr_scan", "ios": "https://dc.lft.to/lastmile_qr_scan"}, "fusion_lon": 0.0}, {"lat": 38.90234983333333, "is_disabled": 0, "type": "electric_scooter", "lon": -77.02685766666667, "bike_id": "2eb9c34a1b12f16994548361d40f218b", "fusion_lat": 0.0, "name": "2eb9c34a1b12f16994548361d40f218b", "is_reserved": 0, "rental_uris": {"android": "https://dc.lft.to/lastmile_qr_scan", "ios": "https://dc.lft.to/lastmile_qr_scan"}, "fusion_lon": 0.0}, {"lat": 38.923252, "is_disabled": 0, "type": "electric_scooter", "lon": -77.02967, "bike_id": "85576a4c9fa1d718237c2d2dbfedd8c7", "fusion_lat": 0.0, "name": "85576a4c9fa1d718237c2d2dbfedd8c7", "is_reserved": 0, "rental_uris": {"android": "https://dc.lft.to/lastmile_qr_scan", "ios": "https://dc.lft.to/lastmile_qr_scan"}, "fusion_lon": 0.0}, {"lat": 38.92114133333333, "is_disabled": 0, "type": "electric_scooter", "lon": -77.03184966666667, "bike_id": "0c1d4f6f68f5d541969a481de31f5de4", "fusion_lat": 0.0, "name": "0c1d4f6f68f5d541969a481de31f5de4", "is_reserved": 0, "rental_uris": {"android": "https://dc.lft.to/lastmile_qr_scan", "ios": "https://dc.lft.to/lastmile_qr_scan"}, "fusion_lon": 0.0}, {"lat": 38.902669833333334, "is_disabled": 0, "type": "electric_scooter", "lon": -77.04359266666667, "bike_id": "06d54a1efd84eb7373fe5c8229bcbb0c", "fusion_lat": 0.0, "name": "06d54a1efd84eb7373fe5c8229bcbb0c", "is_reserved": 0, "rental_uris": {"android": "https://dc.lft.to/lastmile_qr_scan", "ios": "https://dc.lft.to/lastmile_qr_scan"}, "fusion_lon": 0.0}, {"lat": 38.928791333333336, "is_disabled": 0, "type": "electric_scooter", "lon": -77.032933, "bike_id": "68a7201f698eb6bcbf10384a57462593", "fusion_lat": 0.0, "name": "68a7201f698eb6bcbf10384a57462593", "is_reserved": 0, "rental_uris": {"android": "https://dc.lft.to/lastmile_qr_scan", "ios": "https://dc.lft.to/lastmile_qr_scan"}, "fusion_lon": 0.0}, {"lat": 38.903574666666664, "is_disabled": 0, "type": "electric_scooter", "lon": -77.03549983333333, "bike_id": "434412cf8ab2eadc3a5b6e3747b6e4fe", "fusion_lat": 0.0, "name": "434412cf8ab2eadc3a5b6e3747b6e4fe", "is_reserved": 0, "rental_uris": {"android": "https://dc.lft.to/lastmile_qr_scan", "ios": "https://dc.lft.to/lastmile_qr_scan"}, "fusion_lon": 0.0}, {"lat": 38.9170945, "is_disabled": 0, "type": "electric_scooter", "lon": -77.04673466666667, "bike_id": "e87373e5b7168d488fae824f259c94be", "fusion_lat": 0.0, "name": "e87373e5b7168d488fae824f259c94be", "is_reserved": 0, "rental_uris": {"android": "https://dc.lft.to/lastmile_qr_scan", "ios": "https://dc.lft.to/lastmile_qr_scan"}, "fusion_lon": 0.0}, {"lat": 38.9134975, "is_disabled": 0, "type": "electric_scooter", "lon": -77.031871, "bike_id": "183e30f97f4a0cee4a3a1cd50b2e57bf", "fusion_lat": 0.0, "name": "183e30f97f4a0cee4a3a1cd50b2e57bf", "is_reserved": 0, "rental_uris": {"android": "https://dc.lft.to/lastmile_qr_scan", "ios": "https://dc.lft.to/lastmile_qr_scan"}, "fusion_lon": 0.0}, {"lat": 38.91559383333333, "is_disabled": 0, "type": "electric_scooter", "lon": -77.03502466666667, "bike_id": "72a7ac25879dbbc84e19dbd4c7267740", "fusion_lat": 0.0, "name": "72a7ac25879dbbc84e19dbd4c7267740", "is_reserved": 0, "rental_uris": {"android": "https://dc.lft.to/lastmile_qr_scan", "ios": "https://dc.lft.to/lastmile_qr_scan"}, "fusion_lon": 0.0}, {"lat": 38.91475916666667, "is_disabled": 0, "type": "electric_scooter", "lon": -77.03215633333333, "bike_id": "a8b9eb8b6bded4bf05ea8994fcc79882", "fusion_lat": 0.0, "name": "a8b9eb8b6bded4bf05ea8994fcc79882", "is_reserved": 0, "rental_uris": {"android": "https://dc.lft.to/lastmile_qr_scan", "ios": "https://dc.lft.to/lastmile_qr_scan"}, "fusion_lon": 0.0}, {"lat": 38.91700616666667, "is_disabled": 0, "type": "electric_scooter", "lon": -77.03978133333334, "bike_id": "b75958df2d719db18cd9dda35a8aa5b6", "fusion_lat": 0.0, "name": "b75958df2d719db18cd9dda35a8aa5b6", "is_reserved": 0, "rental_uris": {"android": "https://dc.lft.to/lastmile_qr_scan", "ios": "https://dc.lft.to/lastmile_qr_scan"}, "fusion_lon": 0.0}, {"lat": 38.89559083333333, "is_disabled": 0, "type": "electric_scooter", "lon": -76.93378183333333, "bike_id": "bdf948286af54ee216c934d043a4cbe1", "fusion_lat": 0.0, "name": "bdf948286af54ee216c934d043a4cbe1", "is_reserved": 0, "rental_uris": {"android": "https://dc.lft.to/lastmile_qr_scan", "ios": "https://dc.lft.to/lastmile_qr_scan"}, "fusion_lon": 0.0}, {"lat": 38.938773, "is_disabled": 0, "type": "electric_scooter", "lon": -77.03264416666667, "bike_id": "08993cbba6a395d9f043c09226cfce5b", "fusion_lat": 0.0, "name": "08993cbba6a395d9f043c09226cfce5b", "is_reserved": 0, "rental_uris": {"android": "https://dc.lft.to/lastmile_qr_scan", "ios": "https://dc.lft.to/lastmile_qr_scan"}, "fusion_lon": 0.0}, {"lat": 38.94993383333333, "is_disabled": 0, "type": "electric_scooter", "lon": -77.06705766666667, "bike_id": "1a831415d6eb17f0c7179ce14c51d0f8", "fusion_lat": 0.0, "name": "1a831415d6eb17f0c7179ce14c51d0f8", "is_reserved": 0, "rental_uris": {"android": "https://dc.lft.to/lastmile_qr_scan", "ios": "https://dc.lft.to/lastmile_qr_scan"}, "fusion_lon": 0.0}, {"lat": 38.9179595, "is_disabled": 0, "type": "electric_scooter", "lon": -77.032114, "bike_id": "6bbec5d66a72764e9824b0934ef7d7c9", "fusion_lat": 0.0, "name": "6bbec5d66a72764e9824b0934ef7d7c9", "is_reserved": 0, "rental_uris": {"android": "https://dc.lft.to/lastmile_qr_scan", "ios": "https://dc.lft.to/lastmile_qr_scan"}, "fusion_lon": 0.0}, {"lat": 38.95961333333333, "is_disabled": 0, "type": "electric_scooter", "lon": -77.03314516666667, "bike_id": "737689f4655fedb4264682d57a6d9949", "fusion_lat": 0.0, "name": "737689f4655fedb4264682d57a6d9949", "is_reserved": 0, "rental_uris": {"android": "https://dc.lft.to/lastmile_qr_scan", "ios": "https://dc.lft.to/lastmile_qr_scan"}, "fusion_lon": 0.0}, {"lat": 38.923382, "is_disabled": 0, "type": "electric_scooter", "lon": -77.03509433333333, "bike_id": "dcce70345ae9270f0142b16d74afd77e", "fusion_lat": 0.0, "name": "dcce70345ae9270f0142b16d74afd77e", "is_reserved": 0, "rental_uris": {"android": "https://dc.lft.to/lastmile_qr_scan", "ios": "https://dc.lft.to/lastmile_qr_scan"}, "fusion_lon": 0.0}, {"lat": 38.9250275, "is_disabled": 0, "type": "electric_scooter", "lon": -77.02160583333334, "bike_id": "568ce19d43ee3a4cb1f00715ff4f3df9", "fusion_lat": 0.0, "name": "568ce19d43ee3a4cb1f00715ff4f3df9", "is_reserved": 0, "rental_uris": {"android": "https://dc.lft.to/lastmile_qr_scan", "ios": "https://dc.lft.to/lastmile_qr_scan"}, "fusion_lon": 0.0}, {"lat": 38.91332283333333, "is_disabled": 0, "type": "electric_scooter", "lon": -77.0326735, "bike_id": "eee1e7e4f7732162c20392a0f1cba509", "fusion_lat": 0.0, "name": "eee1e7e4f7732162c20392a0f1cba509", "is_reserved": 0, "rental_uris": {"android": "https://dc.lft.to/lastmile_qr_scan", "ios": "https://dc.lft.to/lastmile_qr_scan"}, "fusion_lon": 0.0}, {"lat": 38.93744516666667, "is_disabled": 0, "type": "electric_scooter", "lon": -77.03632766666666, "bike_id": "4f4b30da7b9512d1b3ac55726e11dcc5", "fusion_lat": 0.0, "name": "4f4b30da7b9512d1b3ac55726e11dcc5", "is_reserved": 0, "rental_uris": {"android": "https://dc.lft.to/lastmile_qr_scan", "ios": "https://dc.lft.to/lastmile_qr_scan"}, "fusion_lon": 0.0}, {"lat": 38.884871, "is_disabled": 0, "type": "electric_scooter", "lon": -77.03471933333333, "bike_id": "dd3d72c66af560484b5bc13112ec2bc9", "fusion_lat": 0.0, "name": "dd3d72c66af560484b5bc13112ec2bc9", "is_reserved": 0, "rental_uris": {"android": "https://dc.lft.to/lastmile_qr_scan", "ios": "https://dc.lft.to/lastmile_qr_scan"}, "fusion_lon": 0.0}, {"lat": 38.9055545, "is_disabled": 0, "type": "electric_scooter", "lon": -77.05710683333334, "bike_id": "4930dc0dc25222146e015d5eff84b08e", "fusion_lat": 0.0, "name": "4930dc0dc25222146e015d5eff84b08e", "is_reserved": 0, "rental_uris": {"android": "https://dc.lft.to/lastmile_qr_scan", "ios": "https://dc.lft.to/lastmile_qr_scan"}, "fusion_lon": 0.0}, {"lat": 38.892261500000004, "is_disabled": 0, "type": "electric_scooter", "lon": -77.0468675, "bike_id": "7596a17ac9a8a9a3b49e351d2d0c585f", "fusion_lat": 0.0, "name": "7596a17ac9a8a9a3b49e351d2d0c585f", "is_reserved": 0, "rental_uris": {"android": "https://dc.lft.to/lastmile_qr_scan", "ios": "https://dc.lft.to/lastmile_qr_scan"}, "fusion_lon": 0.0}, {"lat": 38.959619, "is_disabled": 0, "type": "electric_bike", "lon": -77.10096366666667, "bike_id": "82d18a659f5af535d627ea58b4aa23a6", "fusion_lat": 0.0, "name": "82d18a659f5af535d627ea58b4aa23a6", "is_reserved": 0, "rental_uris": {"android": "https://dc.lft.to/lastmile_qr_scan", "ios": "https://dc.lft.to/lastmile_qr_scan"}, "fusion_lon": 0.0}, {"lat": 38.919290333333336, "is_disabled": 0, "type": "electric_scooter", "lon": -77.048211, "bike_id": "a0dbeb94307ec3c0060c54d6fce50725", "fusion_lat": 0.0, "name": "a0dbeb94307ec3c0060c54d6fce50725", "is_reserved": 0, "rental_uris": {"android": "https://dc.lft.to/lastmile_qr_scan", "ios": "https://dc.lft.to/lastmile_qr_scan"}, "fusion_lon": 0.0}, {"lat": 38.911100833333336, "is_disabled": 0, "type": "electric_scooter", "lon": -77.0481515, "bike_id": "bb425cb0a73e4a8c6a444f285f873158", "fusion_lat": 0.0, "name": "bb425cb0a73e4a8c6a444f285f873158", "is_reserved": 0, "rental_uris": {"android": "https://dc.lft.to/lastmile_qr_scan", "ios": "https://dc.lft.to/lastmile_qr_scan"}, "fusion_lon": 0.0}, {"lat": 38.91814566666667, "is_disabled": 0, "type": "electric_scooter", "lon": -77.036819, "bike_id": "b194857ae14213c4e3126bf2ad4cff8a", "fusion_lat": 0.0, "name": "b194857ae14213c4e3126bf2ad4cff8a", "is_reserved": 0, "rental_uris": {"android": "https://dc.lft.to/lastmile_qr_scan", "ios": "https://dc.lft.to/lastmile_qr_scan"}, "fusion_lon": 0.0}, {"lat": 38.92246866666667, "is_disabled": 0, "type": "electric_scooter", "lon": -77.01949466666667, "bike_id": "bca504099e22dc5ed67dd1d6c1d9547a", "fusion_lat": 0.0, "name": "bca504099e22dc5ed67dd1d6c1d9547a", "is_reserved": 0, "rental_uris": {"android": "https://dc.lft.to/lastmile_qr_scan", "ios": "https://dc.lft.to/lastmile_qr_scan"}, "fusion_lon": 0.0}, {"lat": 38.91508133333333, "is_disabled": 0, "type": "electric_scooter", "lon": -76.983616, "bike_id": "af11dafc830ce83cd689e8152533aa0c", "fusion_lat": 0.0, "name": "af11dafc830ce83cd689e8152533aa0c", "is_reserved": 0, "rental_uris": {"android": "https://dc.lft.to/lastmile_qr_scan", "ios": "https://dc.lft.to/lastmile_qr_scan"}, "fusion_lon": 0.0}, {"lat": 38.905427833333334, "is_disabled": 0, "type": "electric_scooter", "lon": -77.04966016666667, "bike_id": "e67aa6fd155f2a6328958f3785102a8b", "fusion_lat": 0.0, "name": "e67aa6fd155f2a6328958f3785102a8b", "is_reserved": 0, "rental_uris": {"android": "https://dc.lft.to/lastmile_qr_scan", "ios": "https://dc.lft.to/lastmile_qr_scan"}, "fusion_lon": 0.0}, {"lat": 38.91112233333333, "is_disabled": 0, "type": "electric_scooter", "lon": -77.020137, "bike_id": "de289f432ba35bcfa0eac9145b4bdad1", "fusion_lat": 0.0, "name": "de289f432ba35bcfa0eac9145b4bdad1", "is_reserved": 0, "rental_uris": {"android": "https://dc.lft.to/lastmile_qr_scan", "ios": "https://dc.lft.to/lastmile_qr_scan"}, "fusion_lon": 0.0}, {"lat": 38.85519, "is_disabled": 0, "type": "electric_bike", "lon": -76.9844245, "bike_id": "9bcb2c806ae1f5cc6aab3b8ea2c56156", "fusion_lat": 0.0, "name": "9bcb2c806ae1f5cc6aab3b8ea2c56156", "is_reserved": 0, "rental_uris": {"android": "https://dc.lft.to/lastmile_qr_scan", "ios": "https://dc.lft.to/lastmile_qr_scan"}, "fusion_lon": 0.0}, {"lat": 38.92004283333333, "is_disabled": 0, "type": "electric_scooter", "lon": -77.0322225, "bike_id": "b2cb2ea5c203ededf968a3c1e4a7a52c", "fusion_lat": 0.0, "name": "b2cb2ea5c203ededf968a3c1e4a7a52c", "is_reserved": 0, "rental_uris": {"android": "https://dc.lft.to/lastmile_qr_scan", "ios": "https://dc.lft.to/lastmile_qr_scan"}, "fusion_lon": 0.0}, {"lat": 38.924665, "is_disabled": 0, "type": "electric_scooter", "lon": -77.052366, "bike_id": "e2d7191f2175c6b58108cd805e9692d9", "fusion_lat": 0.0, "name": "e2d7191f2175c6b58108cd805e9692d9", "is_reserved": 0, "rental_uris": {"android": "https://dc.lft.to/lastmile_qr_scan", "ios": "https://dc.lft.to/lastmile_qr_scan"}, "fusion_lon": 0.0}, {"lat": 38.81348883333333, "is_disabled": 0, "type": "electric_bike", "lon": -77.04933966666667, "bike_id": "c5258916d86d94d6f330293ddf0ef162", "fusion_lat": 0.0, "name": "c5258916d86d94d6f330293ddf0ef162", "is_reserved": 0, "rental_uris": {"android": "https://dc.lft.to/lastmile_qr_scan", "ios": "https://dc.lft.to/lastmile_qr_scan"}, "fusion_lon": 0.0}, {"lat": 38.915575, "is_disabled": 0, "type": "electric_scooter", "lon": -77.031605, "bike_id": "75b51b64c90c191f69bc5d8c143c22ac", "fusion_lat": 0.0, "name": "75b51b64c90c191f69bc5d8c143c22ac", "is_reserved": 0, "rental_uris": {"android": "https://dc.lft.to/lastmile_qr_scan", "ios": "https://dc.lft.to/lastmile_qr_scan"}, "fusion_lon": 0.0}, {"lat": 38.8840075, "is_disabled": 0, "type": "electric_scooter", "lon": -77.01765583333334, "bike_id": "ae38fca9dae9ea0495ba7539fdd92106", "fusion_lat": 0.0, "name": "ae38fca9dae9ea0495ba7539fdd92106", "is_reserved": 0, "rental_uris": {"android": "https://dc.lft.to/lastmile_qr_scan", "ios": "https://dc.lft.to/lastmile_qr_scan"}, "fusion_lon": 0.0}, {"lat": 38.9336585, "is_disabled": 0, "type": "electric_scooter", "lon": -77.057329, "bike_id": "0b882713dbf54e57d6eb5c14ec8d0506", "fusion_lat": 0.0, "name": "0b882713dbf54e57d6eb5c14ec8d0506", "is_reserved": 0, "rental_uris": {"android": "https://dc.lft.to/lastmile_qr_scan", "ios": "https://dc.lft.to/lastmile_qr_scan"}, "fusion_lon": 0.0}, {"lat": 38.903265166666664, "is_disabled": 0, "type": "electric_scooter", "lon": -77.0630115, "bike_id": "f839dca6f7746e91cbf6f5d874bed591", "fusion_lat": 0.0, "name": "f839dca6f7746e91cbf6f5d874bed591", "is_reserved": 0, "rental_uris": {"android": "https://dc.lft.to/lastmile_qr_scan", "ios": "https://dc.lft.to/lastmile_qr_scan"}, "fusion_lon": 0.0}, {"lat": 38.93428216666667, "is_disabled": 0, "type": "electric_scooter", "lon": -77.05552116666667, "bike_id": "d7e65277ab1357d02f44695967350bce", "fusion_lat": 0.0, "name": "d7e65277ab1357d02f44695967350bce", "is_reserved": 0, "rental_uris": {"android": "https://dc.lft.to/lastmile_qr_scan", "ios": "https://dc.lft.to/lastmile_qr_scan"}, "fusion_lon": 0.0}, {"lat": 38.9260355, "is_disabled": 0, "type": "electric_scooter", "lon": -77.0215655, "bike_id": "732c5250b48c47efdb75554d447b9d6b", "fusion_lat": 0.0, "name": "732c5250b48c47efdb75554d447b9d6b", "is_reserved": 0, "rental_uris": {"android": "https://dc.lft.to/lastmile_qr_scan", "ios": "https://dc.lft.to/lastmile_qr_scan"}, "fusion_lon": 0.0}, {"lat": 38.91934116666667, "is_disabled": 0, "type": "electric_scooter", "lon": -77.031823, "bike_id": "5e9028635850a6b93bcd720749285240", "fusion_lat": 0.0, "name": "5e9028635850a6b93bcd720749285240", "is_reserved": 0, "rental_uris": {"android": "https://dc.lft.to/lastmile_qr_scan", "ios": "https://dc.lft.to/lastmile_qr_scan"}, "fusion_lon": 0.0}, {"lat": 38.92300183333333, "is_disabled": 0, "type": "electric_scooter", "lon": -77.04146283333333, "bike_id": "b53afec3c9795af6bbf47fd7add8b0e3", "fusion_lat": 0.0, "name": "b53afec3c9795af6bbf47fd7add8b0e3", "is_reserved": 0, "rental_uris": {"android": "https://dc.lft.to/lastmile_qr_scan", "ios": "https://dc.lft.to/lastmile_qr_scan"}, "fusion_lon": 0.0}, {"lat": 38.91638283333333, "is_disabled": 0, "type": "electric_scooter", "lon": -77.01084233333333, "bike_id": "811e04229ff0e5f3c6cc7a4ca33ef794", "fusion_lat": 0.0, "name": "811e04229ff0e5f3c6cc7a4ca33ef794", "is_reserved": 0, "rental_uris": {"android": "https://dc.lft.to/lastmile_qr_scan", "ios": "https://dc.lft.to/lastmile_qr_scan"}, "fusion_lon": 0.0}, {"lat": 38.9261655, "is_disabled": 0, "type": "electric_scooter", "lon": -77.04146883333334, "bike_id": "4e284edfe73afcdc2c6448e9bb02d71a", "fusion_lat": 0.0, "name": "4e284edfe73afcdc2c6448e9bb02d71a", "is_reserved": 0, "rental_uris": {"android": "https://dc.lft.to/lastmile_qr_scan", "ios": "https://dc.lft.to/lastmile_qr_scan"}, "fusion_lon": 0.0}, {"lat": 38.8983435, "is_disabled": 0, "type": "electric_scooter", "lon": -77.04171983333333, "bike_id": "ba3125bf3483a37d7ef0112861949588", "fusion_lat": 0.0, "name": "ba3125bf3483a37d7ef0112861949588", "is_reserved": 0, "rental_uris": {"android": "https://dc.lft.to/lastmile_qr_scan", "ios": "https://dc.lft.to/lastmile_qr_scan"}, "fusion_lon": 0.0}, {"lat": 38.907425333333336, "is_disabled": 0, "type": "electric_scooter", "lon": -77.034457, "bike_id": "7369c86a0e8216bbecf6d564fed2f47d", "fusion_lat": 0.0, "name": "7369c86a0e8216bbecf6d564fed2f47d", "is_reserved": 0, "rental_uris": {"android": "https://dc.lft.to/lastmile_qr_scan", "ios": "https://dc.lft.to/lastmile_qr_scan"}, "fusion_lon": 0.0}, {"lat": 38.90078466666667, "is_disabled": 0, "type": "electric_scooter", "lon": -77.00217416666666, "bike_id": "f49c936ebe4dbd8b989e561a3161837b", "fusion_lat": 0.0, "name": "f49c936ebe4dbd8b989e561a3161837b", "is_reserved": 0, "rental_uris": {"android": "https://dc.lft.to/lastmile_qr_scan", "ios": "https://dc.lft.to/lastmile_qr_scan"}, "fusion_lon": 0.0}, {"lat": 38.93361733333333, "is_disabled": 0, "type": "electric_bike", "lon": -77.099689, "bike_id": "f8cb7bb07898d6c3f4addba8dc458dad", "fusion_lat": 0.0, "name": "f8cb7bb07898d6c3f4addba8dc458dad", "is_reserved": 0, "rental_uris": {"android": "https://dc.lft.to/lastmile_qr_scan", "ios": "https://dc.lft.to/lastmile_qr_scan"}, "fusion_lon": 0.0}, {"lat": 38.92366066666666, "is_disabled": 0, "type": "electric_scooter", "lon": -77.05133033333334, "bike_id": "857442d13c1539746acad1bca668c24b", "fusion_lat": 0.0, "name": "857442d13c1539746acad1bca668c24b", "is_reserved": 0, "rental_uris": {"android": "https://dc.lft.to/lastmile_qr_scan", "ios": "https://dc.lft.to/lastmile_qr_scan"}, "fusion_lon": 0.0}, {"lat": 38.90354033333333, "is_disabled": 0, "type": "electric_scooter", "lon": -77.04535483333333, "bike_id": "c79a7dec458b28222a678dc2e0bd3245", "fusion_lat": 0.0, "name": "c79a7dec458b28222a678dc2e0bd3245", "is_reserved": 0, "rental_uris": {"android": "https://dc.lft.to/lastmile_qr_scan", "ios": "https://dc.lft.to/lastmile_qr_scan"}, "fusion_lon": 0.0}, {"lat": 38.922075166666666, "is_disabled": 0, "type": "electric_scooter", "lon": -77.04260216666667, "bike_id": "fc0e0f1d47dc53c0bc9b856cffb6264a", "fusion_lat": 0.0, "name": "fc0e0f1d47dc53c0bc9b856cffb6264a", "is_reserved": 0, "rental_uris": {"android": "https://dc.lft.to/lastmile_qr_scan", "ios": "https://dc.lft.to/lastmile_qr_scan"}, "fusion_lon": 0.0}, {"lat": 38.931996, "is_disabled": 0, "type": "electric_scooter", "lon": -77.02835083333333, "bike_id": "47228705da93d28b183157bfcd34f51d", "fusion_lat": 0.0, "name": "47228705da93d28b183157bfcd34f51d", "is_reserved": 0, "rental_uris": {"android": "https://dc.lft.to/lastmile_qr_scan", "ios": "https://dc.lft.to/lastmile_qr_scan"}, "fusion_lon": 0.0}, {"lat": 38.903226333333336, "is_disabled": 0, "type": "electric_scooter", "lon": -77.0446105, "bike_id": "f3163dec2ad619a5b5a9db603af00d58", "fusion_lat": 0.0, "name": "f3163dec2ad619a5b5a9db603af00d58", "is_reserved": 0, "rental_uris": {"android": "https://dc.lft.to/lastmile_qr_scan", "ios": "https://dc.lft.to/lastmile_qr_scan"}, "fusion_lon": 0.0}, {"lat": 38.900809333333335, "is_disabled": 0, "type": "electric_scooter", "lon": -77.05030733333334, "bike_id": "9c773f5ac8b0cc0744e421faf5ecdf78", "fusion_lat": 0.0, "name": "9c773f5ac8b0cc0744e421faf5ecdf78", "is_reserved": 0, "rental_uris": {"android": "https://dc.lft.to/lastmile_qr_scan", "ios": "https://dc.lft.to/lastmile_qr_scan"}, "fusion_lon": 0.0}, {"lat": 38.9185955, "is_disabled": 0, "type": "electric_scooter", "lon": -77.03182683333333, "bike_id": "d0a76404b3092643eeffd8dadcc9f3d0", "fusion_lat": 0.0, "name": "d0a76404b3092643eeffd8dadcc9f3d0", "is_reserved": 0, "rental_uris": {"android": "https://dc.lft.to/lastmile_qr_scan", "ios": "https://dc.lft.to/lastmile_qr_scan"}, "fusion_lon": 0.0}, {"lat": 38.892232166666666, "is_disabled": 0, "type": "electric_scooter", "lon": -77.02319416666667, "bike_id": "6af58ae5b3dfb03ad444aad722caf9b1", "fusion_lat": 0.0, "name": "6af58ae5b3dfb03ad444aad722caf9b1", "is_reserved": 0, "rental_uris": {"android": "https://dc.lft.to/lastmile_qr_scan", "ios": "https://dc.lft.to/lastmile_qr_scan"}, "fusion_lon": 0.0}, {"lat": 38.930918166666665, "is_disabled": 0, "type": "electric_scooter", "lon": -77.03747133333333, "bike_id": "da56afd6fc5c271d84012eb0e0bbc45e", "fusion_lat": 0.0, "name": "da56afd6fc5c271d84012eb0e0bbc45e", "is_reserved": 0, "rental_uris": {"android": "https://dc.lft.to/lastmile_qr_scan", "ios": "https://dc.lft.to/lastmile_qr_scan"}, "fusion_lon": 0.0}, {"lat": 38.9079355, "is_disabled": 0, "type": "electric_scooter", "lon": -77.04484766666667, "bike_id": "b462d565d81cc79a281c3f90da1781f4", "fusion_lat": 0.0, "name": "b462d565d81cc79a281c3f90da1781f4", "is_reserved": 0, "rental_uris": {"android": "https://dc.lft.to/lastmile_qr_scan", "ios": "https://dc.lft.to/lastmile_qr_scan"}, "fusion_lon": 0.0}, {"lat": 38.91104683333333, "is_disabled": 0, "type": "electric_scooter", "lon": -77.0447525, "bike_id": "8136108e0ff6353350347f47269a2e3e", "fusion_lat": 0.0, "name": "8136108e0ff6353350347f47269a2e3e", "is_reserved": 0, "rental_uris": {"android": "https://dc.lft.to/lastmile_qr_scan", "ios": "https://dc.lft.to/lastmile_qr_scan"}, "fusion_lon": 0.0}, {"lat": 38.90568366666667, "is_disabled": 0, "type": "electric_scooter", "lon": -77.048684, "bike_id": "69132427dbbac9e9aaf77d2519b709fa", "fusion_lat": 0.0, "name": "69132427dbbac9e9aaf77d2519b709fa", "is_reserved": 0, "rental_uris": {"android": "https://dc.lft.to/lastmile_qr_scan", "ios": "https://dc.lft.to/lastmile_qr_scan"}, "fusion_lon": 0.0}, {"lat": 38.927490666666664, "is_disabled": 0, "type": "electric_scooter", "lon": -77.03409416666666, "bike_id": "738d54a097c47815168a78c79c647fdc", "fusion_lat": 0.0, "name": "738d54a097c47815168a78c79c647fdc", "is_reserved": 0, "rental_uris": {"android": "https://dc.lft.to/lastmile_qr_scan", "ios": "https://dc.lft.to/lastmile_qr_scan"}, "fusion_lon": 0.0}, {"lat": 38.965450833333335, "is_disabled": 0, "type": "electric_scooter", "lon": -77.00199866666667, "bike_id": "0ce12223802f6d3b96a4a3c870a3059d", "fusion_lat": 0.0, "name": "0ce12223802f6d3b96a4a3c870a3059d", "is_reserved": 0, "rental_uris": {"android": "https://dc.lft.to/lastmile_qr_scan", "ios": "https://dc.lft.to/lastmile_qr_scan"}, "fusion_lon": 0.0}, {"lat": 38.9515645, "is_disabled": 0, "type": "electric_scooter", "lon": -77.01867683333333, "bike_id": "25def58d7568c038fc13e9321287bcab", "fusion_lat": 0.0, "name": "25def58d7568c038fc13e9321287bcab", "is_reserved": 0, "rental_uris": {"android": "https://dc.lft.to/lastmile_qr_scan", "ios": "https://dc.lft.to/lastmile_qr_scan"}, "fusion_lon": 0.0}, {"lat": 38.92295416666666, "is_disabled": 0, "type": "electric_scooter", "lon": -77.02972183333333, "bike_id": "75db954a4280a16537617bf61787d21c", "fusion_lat": 0.0, "name": "75db954a4280a16537617bf61787d21c", "is_reserved": 0, "rental_uris": {"android": "https://dc.lft.to/lastmile_qr_scan", "ios": "https://dc.lft.to/lastmile_qr_scan"}, "fusion_lon": 0.0}, {"lat": 38.95488433333333, "is_disabled": 0, "type": "electric_scooter", "lon": -77.0656005, "bike_id": "ce64b6fc4de31114d68e84394e73e49a", "fusion_lat": 0.0, "name": "ce64b6fc4de31114d68e84394e73e49a", "is_reserved": 0, "rental_uris": {"android": "https://dc.lft.to/lastmile_qr_scan", "ios": "https://dc.lft.to/lastmile_qr_scan"}, "fusion_lon": 0.0}, {"lat": 38.892488666666665, "is_disabled": 0, "type": "electric_scooter", "lon": -77.03956383333333, "bike_id": "1237233271c2861b8bb7a032b6d14bdc", "fusion_lat": 0.0, "name": "1237233271c2861b8bb7a032b6d14bdc", "is_reserved": 0, "rental_uris": {"android": "https://dc.lft.to/lastmile_qr_scan", "ios": "https://dc.lft.to/lastmile_qr_scan"}, "fusion_lon": 0.0}, {"lat": 38.93539066666666, "is_disabled": 0, "type": "electric_scooter", "lon": -77.032625, "bike_id": "5ab22dc8c72d5179b81f927a375055e2", "fusion_lat": 0.0, "name": "5ab22dc8c72d5179b81f927a375055e2", "is_reserved": 0, "rental_uris": {"android": "https://dc.lft.to/lastmile_qr_scan", "ios": "https://dc.lft.to/lastmile_qr_scan"}, "fusion_lon": 0.0}, {"lat": 38.913400833333334, "is_disabled": 0, "type": "electric_scooter", "lon": -77.03181116666667, "bike_id": "d6ae1a2f5de243b014acae2316cd92f2", "fusion_lat": 0.0, "name": "d6ae1a2f5de243b014acae2316cd92f2", "is_reserved": 0, "rental_uris": {"android": "https://dc.lft.to/lastmile_qr_scan", "ios": "https://dc.lft.to/lastmile_qr_scan"}, "fusion_lon": 0.0}, {"lat": 38.89550366666667, "is_disabled": 0, "type": "electric_scooter", "lon": -77.00912, "bike_id": "f77b200c59fa263f714c61a98c3f80d0", "fusion_lat": 0.0, "name": "f77b200c59fa263f714c61a98c3f80d0", "is_reserved": 0, "rental_uris": {"android": "https://dc.lft.to/lastmile_qr_scan", "ios": "https://dc.lft.to/lastmile_qr_scan"}, "fusion_lon": 0.0}, {"lat": 38.8973775, "is_disabled": 0, "type": "electric_scooter", "lon": -77.02388783333333, "bike_id": "5fcf486091a9eefc6679f8d5b6ffbbd2", "fusion_lat": 0.0, "name": "5fcf486091a9eefc6679f8d5b6ffbbd2", "is_reserved": 0, "rental_uris": {"android": "https://dc.lft.to/lastmile_qr_scan", "ios": "https://dc.lft.to/lastmile_qr_scan"}, "fusion_lon": 0.0}, {"lat": 38.903799, "is_disabled": 0, "type": "electric_scooter", "lon": -76.99238666666666, "bike_id": "c60ff2cb7b46a52937ac909ff4995989", "fusion_lat": 0.0, "name": "c60ff2cb7b46a52937ac909ff4995989", "is_reserved": 0, "rental_uris": {"android": "https://dc.lft.to/lastmile_qr_scan", "ios": "https://dc.lft.to/lastmile_qr_scan"}, "fusion_lon": 0.0}, {"lat": 38.9242025, "is_disabled": 0, "type": "electric_scooter", "lon": -77.044546, "bike_id": "0610a8f168c241544d55d7d74d95205b", "fusion_lat": 0.0, "name": "0610a8f168c241544d55d7d74d95205b", "is_reserved": 0, "rental_uris": {"android": "https://dc.lft.to/lastmile_qr_scan", "ios": "https://dc.lft.to/lastmile_qr_scan"}, "fusion_lon": 0.0}, {"lat": 38.93530166666667, "is_disabled": 0, "type": "electric_scooter", "lon": -77.07310183333334, "bike_id": "aff2f25135936bcbc05a3637e32da17d", "fusion_lat": 0.0, "name": "aff2f25135936bcbc05a3637e32da17d", "is_reserved": 0, "rental_uris": {"android": "https://dc.lft.to/lastmile_qr_scan", "ios": "https://dc.lft.to/lastmile_qr_scan"}, "fusion_lon": 0.0}, {"lat": 38.867034, "is_disabled": 0, "type": "electric_scooter", "lon": -76.987173, "bike_id": "3d03de33c85314c079f5a546540394f3", "fusion_lat": 0.0, "name": "3d03de33c85314c079f5a546540394f3", "is_reserved": 0, "rental_uris": {"android": "https://dc.lft.to/lastmile_qr_scan", "ios": "https://dc.lft.to/lastmile_qr_scan"}, "fusion_lon": 0.0}, {"lat": 38.91081666666667, "is_disabled": 0, "type": "electric_scooter", "lon": -77.021003, "bike_id": "a8413adb899e203c4879d850a8e540c7", "fusion_lat": 0.0, "name": "a8413adb899e203c4879d850a8e540c7", "is_reserved": 0, "rental_uris": {"android": "https://dc.lft.to/lastmile_qr_scan", "ios": "https://dc.lft.to/lastmile_qr_scan"}, "fusion_lon": 0.0}, {"lat": 38.89980383333334, "is_disabled": 0, "type": "electric_scooter", "lon": -77.02159216666666, "bike_id": "672fe0b41f97b36e4b8cfbce464c2b54", "fusion_lat": 0.0, "name": "672fe0b41f97b36e4b8cfbce464c2b54", "is_reserved": 0, "rental_uris": {"android": "https://dc.lft.to/lastmile_qr_scan", "ios": "https://dc.lft.to/lastmile_qr_scan"}, "fusion_lon": 0.0}, {"lat": 38.91733683333333, "is_disabled": 0, "type": "electric_scooter", "lon": -77.041812, "bike_id": "2e5373a4580730a9eed111d3bf59fcad", "fusion_lat": 0.0, "name": "2e5373a4580730a9eed111d3bf59fcad", "is_reserved": 0, "rental_uris": {"android": "https://dc.lft.to/lastmile_qr_scan", "ios": "https://dc.lft.to/lastmile_qr_scan"}, "fusion_lon": 0.0}, {"lat": 38.88445866666667, "is_disabled": 0, "type": "electric_scooter", "lon": -77.00062933333334, "bike_id": "e57f32a23f681b4cbfb1b7c8eda1ab3f", "fusion_lat": 0.0, "name": "e57f32a23f681b4cbfb1b7c8eda1ab3f", "is_reserved": 0, "rental_uris": {"android": "https://dc.lft.to/lastmile_qr_scan", "ios": "https://dc.lft.to/lastmile_qr_scan"}, "fusion_lon": 0.0}, {"lat": 38.90522766666667, "is_disabled": 0, "type": "electric_scooter", "lon": -77.06449616666667, "bike_id": "4853efff91c8c98cbf29973ee139a7db", "fusion_lat": 0.0, "name": "4853efff91c8c98cbf29973ee139a7db", "is_reserved": 0, "rental_uris": {"android": "https://dc.lft.to/lastmile_qr_scan", "ios": "https://dc.lft.to/lastmile_qr_scan"}, "fusion_lon": 0.0}, {"lat": 38.922082, "is_disabled": 0, "type": "electric_scooter", "lon": -77.03779066666667, "bike_id": "8d3bb37e4c4a8daba848e1b9831fd785", "fusion_lat": 0.0, "name": "8d3bb37e4c4a8daba848e1b9831fd785", "is_reserved": 0, "rental_uris": {"android": "https://dc.lft.to/lastmile_qr_scan", "ios": "https://dc.lft.to/lastmile_qr_scan"}, "fusion_lon": 0.0}, {"lat": 38.937177166666665, "is_disabled": 0, "type": "electric_scooter", "lon": -77.03637583333334, "bike_id": "dc04d872f4253794c3f554087c375232", "fusion_lat": 0.0, "name": "dc04d872f4253794c3f554087c375232", "is_reserved": 0, "rental_uris": {"android": "https://dc.lft.to/lastmile_qr_scan", "ios": "https://dc.lft.to/lastmile_qr_scan"}, "fusion_lon": 0.0}, {"lat": 38.893921666666664, "is_disabled": 0, "type": "electric_scooter", "lon": -76.9499765, "bike_id": "7abf69a42755f7e0e250ca441bd8e24b", "fusion_lat": 0.0, "name": "7abf69a42755f7e0e250ca441bd8e24b", "is_reserved": 0, "rental_uris": {"android": "https://dc.lft.to/lastmile_qr_scan", "ios": "https://dc.lft.to/lastmile_qr_scan"}, "fusion_lon": 0.0}, {"lat": 38.92872366666667, "is_disabled": 0, "type": "electric_scooter", "lon": -76.99029916666667, "bike_id": "07c85c6c98ec58d39bda05b3c4fb42cb", "fusion_lat": 0.0, "name": "07c85c6c98ec58d39bda05b3c4fb42cb", "is_reserved": 0, "rental_uris": {"android": "https://dc.lft.to/lastmile_qr_scan", "ios": "https://dc.lft.to/lastmile_qr_scan"}, "fusion_lon": 0.0},