{"data": {"bikes": [{"name": "ffe29c0063bbff7f245bcf0926a05450", "fusion_lat": 0.0, "type": "electric_bike", "lat": 38.89440616666667, "is_reserved": 0, "is_disabled": 0, "fusion_lon": 0.0, "bike_id": "ffe29c0063bbff7f245bcf0926a05450", "lon": -76.98353033333333, "rental_uris": {"ios": "https://dc.lft.to/lastmile_qr_scan", "android": "https://dc.lft.to/lastmile_qr_scan"}}, {"name": "f5cf491cbf5a2b7d06b8b8ebd48ea7b1", "fusion_lat": 0.0, "type": "electric_scooter", "lat": 38.91253783333333, "is_reserved": 0, "is_disabled": 0, "fusion_lon": 0.0, "bike_id": "f5cf491cbf5a2b7d06b8b8ebd48ea7b1", "lon": -77.00953, "rental_uris": {"ios": "https://dc.lft.to/lastmile_qr_scan", "android": "https://dc.lft.to/lastmile_qr_scan"}}, {"name": "ff5c7fe7affa74b764cb2486d831a76e", "fusion_lat": 0.0, "type": "electric_scooter", "lat": 38.892299, "is_reserved": 0, "is_disabled": 0, "fusion_lon": 0.0, "bike_id": "ff5c7fe7affa74b764cb2486d831a76e", "lon": -77.05001916666667, "rental_uris": {"ios": "https://dc.lft.to/lastmile_qr_scan", "android": "https://dc.lft.to/lastmile_qr_scan"}}, {"name": "97dfbe8dd452a4566ab3be8c586c6e64", "fusion_lat": 0.0, "type": "electric_scooter", "lat": 38.90751483333333, "is_reserved": 0, "is_disabled": 0, "fusion_lon": 0.0, "bike_id": "97dfbe8dd452a4566ab3be8c586c6e64", "lon": -77.03183383333334, "rental_uris": {"ios": "https://dc.lft.to/lastmile_qr_scan", "android": "https://dc.lft.to/lastmile_qr_scan"}}, {"name": "2ae0a75111fad52062883dfb08791b62", "fusion_lat": 0.0, "type": "electric_scooter", "lat": 38.93296433333333, "is_reserved": 0, "is_disabled": 0, "fusion_lon": 0.0, "bike_id": "2ae0a75111fad52062883dfb08791b62", "lon": -77.02806866666667, "rental_uris": {"ios": "https://dc.lft.to/lastmile_qr_scan", "android": "https://dc.lft.to/lastmile_qr_scan"}}, {"name": "53c38b8d04a17cd4b794ecee24dd79e5", "fusion_lat": 0.0, "type": "electric_scooter", "lat": 38.899757, "is_reserved": 0, "is_disabled": 0, "fusion_lon": 0.0, "bike_id": "53c38b8d04a17cd4b794ecee24dd79e5", "lon": -77.01602833333334, "rental_uris": {"ios": "https://dc.lft.to/lastmile_qr_scan", "android": "https://dc.lft.to/lastmile_qr_scan"}}, {"name": "0f562ac74909ee5039b9455c7e34e487", "fusion_lat": 0.0, "type": "electric_bike", "lat": 38.96624383333333, "is_reserved": 0, "is_disabled": 0, "fusion_lon": 0.0, "bike_id": "0f562ac74909ee5039b9455c7e34e487", "lon": -76.97670066666667, "rental_uris": {"ios": "https://dc.lft.to/lastmile_qr_scan", "android": "https://dc.lft.to/lastmile_qr_scan"}}, {"name": "9a8c10575aabe77bfc5d568c0d82773e", "fusion_lat": 0.0, "type": "electric_scooter", "lat": 38.93684316666667, "is_reserved": 0, "is_disabled": 0, "fusion_lon": 0.0, "bike_id": "9a8c10575aabe77bfc5d568c0d82773e", "lon": -77.03162733333333, "rental_uris": {"ios": "https://dc.lft.to/lastmile_qr_scan", "android": "https://dc.lft.to/lastmile_qr_scan"}}, {"name": "8e8ff7baca01c40772d45afce2c2048d", "fusion_lat": 0.0, "type": "electric_scooter", "lat": 38.93530616666666, "is_reserved": 0, "is_disabled": 0, "fusion_lon": 0.0, "bike_id": "8e8ff7baca01c40772d45afce2c2048d", "lon": -77.0285245, "rental_uris": {"ios": "https://dc.lft.to/lastmile_qr_scan", "android": "https://dc.lft.to/lastmile_qr_scan"}}, {"name": "d117e9fca20ea1322933db2aefa0f2ec", "fusion_lat": 0.0, "type": "electric_scooter", "lat": 38.88365316666667, "is_reserved": 0, "is_disabled": 0, "fusion_lon": 0.0, "bike_id": "d117e9fca20ea1322933db2aefa0f2ec", "lon": -77.0317765, "rental_uris": {"ios": "https://dc.lft.to/lastmile_qr_scan", "android": "https://dc.lft.to/lastmile_qr_scan"}}, {"name": "166457c1522bcb6f500cb87487932612", "fusion_lat": 0.0, "type": "electric_scooter", "lat": 38.91816516666667, "is_reserved": 0, "is_disabled": 0, "fusion_lon": 0.0, "bike_id": "166457c1522bcb6f500cb87487932612", "lon": -77.03550516666667, "rental_uris": {"ios": "https://dc.lft.to/lastmile_qr_scan", "android": "https://dc.lft.to/lastmile_qr_scan"}}, {"name": "3ee6bda8e7e18ca7c175161ea90019d1", "fusion_lat": 0.0, "type": "electric_scooter", "lat": 38.90028816666667, "is_reserved": 0, "is_disabled": 0, "fusion_lon": 0.0, "bike_id": "3ee6bda8e7e18ca7c175161ea90019d1", "lon": -77.00205966666667, "rental_uris": {"ios": "https://dc.lft.to/lastmile_qr_scan", "android": "https://dc.lft.to/lastmile_qr_scan"}}, {"name": "bf04060bf2fed2da93afec4661d8aee5", "fusion_lat": 0.0, "type": "electric_scooter", "lat": 38.9346245, "is_reserved": 0, "is_disabled": 0, "fusion_lon": 0.0, "bike_id": "bf04060bf2fed2da93afec4661d8aee5", "lon": -77.08633333333333, "rental_uris": {"ios": "https://dc.lft.to/lastmile_qr_scan", "android": "https://dc.lft.to/lastmile_qr_scan"}}, {"name": "a4d0d61885cd4e0614dff83cc47c0ccf", "fusion_lat": 0.0, "type": "electric_scooter", "lat": 38.88784016666666, "is_reserved": 0, "is_disabled": 0, "fusion_lon": 0.0, "bike_id": "a4d0d61885cd4e0614dff83cc47c0ccf", "lon": -76.955252, "rental_uris": {"ios": "https://dc.lft.to/lastmile_qr_scan", "android": "https://dc.lft.to/lastmile_qr_scan"}}, {"name": "c264ee6c2f58be3dedc8c39c5c3928d6", "fusion_lat": 0.0, "type": "electric_scooter", "lat": 38.905599333333335, "is_reserved": 0, "is_disabled": 0, "fusion_lon": 0.0, "bike_id": "c264ee6c2f58be3dedc8c39c5c3928d6", "lon": -77.02213433333333, "rental_uris": {"ios": "https://dc.lft.to/lastmile_qr_scan", "android": "https://dc.lft.to/lastmile_qr_scan"}}, {"name": "fb00625e7e424bdc494e17b0ce1eba85", "fusion_lat": 0.0, "type": "electric_scooter", "lat": 38.912735166666664, "is_reserved": 0, "is_disabled": 0, "fusion_lon": 0.0, "bike_id": "fb00625e7e424bdc494e17b0ce1eba85", "lon": -77.04502616666667, "rental_uris": {"ios": "https://dc.lft.to/lastmile_qr_scan", "android": "https://dc.lft.to/lastmile_qr_scan"}}, {"name": "7245eacdf76b9fa09c4aa576f3977b32", "fusion_lat": 0.0, "type": "electric_scooter", "lat": 38.9082905, "is_reserved": 0, "is_disabled": 0, "fusion_lon": 0.0, "bike_id": "7245eacdf76b9fa09c4aa576f3977b32", "lon": -77.03199283333333, "rental_uris": {"ios": "https://dc.lft.to/lastmile_qr_scan", "android": "https://dc.lft.to/lastmile_qr_scan"}}, {"name": "15f6b1f6d38189eb7b8ad1137221fee1", "fusion_lat": 0.0, "type": "electric_scooter", "lat": 38.899506, "is_reserved": 0, "is_disabled": 0, "fusion_lon": 0.0, "bike_id": "15f6b1f6d38189eb7b8ad1137221fee1", "lon": -77.05269933333334, "rental_uris": {"ios": "https://dc.lft.to/lastmile_qr_scan", "android": "https://dc.lft.to/lastmile_qr_scan"}}, {"name": "f9cc938572ae22f6bf0b3d32132511e1", "fusion_lat": 0.0, "type": "electric_scooter", "lat": 38.903210666666666, "is_reserved": 0, "is_disabled": 0, "fusion_lon": 0.0, "bike_id": "f9cc938572ae22f6bf0b3d32132511e1", "lon": -77.05251233333334, "rental_uris": {"ios": "https://dc.lft.to/lastmile_qr_scan", "android": "https://dc.lft.to/lastmile_qr_scan"}}, {"name": "03a9224758921cc23ef3a71516d2f573", "fusion_lat": 0.0, "type": "electric_scooter", "lat": 38.888396666666665, "is_reserved": 0, "is_disabled": 0, "fusion_lon": 0.0, "bike_id": "03a9224758921cc23ef3a71516d2f573", "lon": -77.04907733333333, "rental_uris": {"ios": "https://dc.lft.to/lastmile_qr_scan", "android": "https://dc.lft.to/lastmile_qr_scan"}}, {"name": "5717ed5cd56d476a6b0c624fed288585", "fusion_lat": 0.0, "type": "electric_scooter", "lat": 38.933655333333334, "is_reserved": 0, "is_disabled": 0, "fusion_lon": 0.0, "bike_id": "5717ed5cd56d476a6b0c624fed288585", "lon": -77.034497, "rental_uris": {"ios": "https://dc.lft.to/lastmile_qr_scan", "android": "https://dc.lft.to/lastmile_qr_scan"}}, {"name": "fb258fff75ade6917ad85c1766aeb149", "fusion_lat": 0.0, "type": "electric_scooter", "lat": 38.90428383333333, "is_reserved": 0, "is_disabled": 0, "fusion_lon": 0.0, "bike_id": "fb258fff75ade6917ad85c1766aeb149", "lon": -77.0531435, "rental_uris": {"ios": "https://dc.lft.to/lastmile_qr_scan", "android": "https://dc.lft.to/lastmile_qr_scan"}}, {"name": "e837aa2a913105b4ecca4773c6661a58", "fusion_lat": 0.0, "type": "electric_scooter", "lat": 38.916974833333335, "is_reserved": 0, "is_disabled": 0, "fusion_lon": 0.0, "bike_id": "e837aa2a913105b4ecca4773c6661a58", "lon": -77.0433855, "rental_uris": {"ios": "https://dc.lft.to/lastmile_qr_scan", "android": "https://dc.lft.to/lastmile_qr_scan"}}, {"name": "43b9a00cfbc7b132a2f62ce06d5108a0", "fusion_lat": 0.0, "type": "electric_bike", "lat": 38.93478566666667, "is_reserved": 0, "is_disabled": 0, "fusion_lon": 0.0, "bike_id": "43b9a00cfbc7b132a2f62ce06d5108a0", "lon": -77.07291466666666, "rental_uris": {"ios": "https://dc.lft.to/lastmile_qr_scan", "android": "https://dc.lft.to/lastmile_qr_scan"}}, {"name": "a2b5292095b4778b3e76e4d7ee606da5", "fusion_lat": 0.0, "type": "electric_scooter", "lat": 38.860752833333336, "is_reserved": 0, "is_disabled": 0, "fusion_lon": 0.0, "bike_id": "a2b5292095b4778b3e76e4d7ee606da5", "lon": -76.9673055, "rental_uris": {"ios": "https://dc.lft.to/lastmile_qr_scan", "android": "https://dc.lft.to/lastmile_qr_scan"}}, {"name": "79d2c9f2412d29816f24bcd1e77bb9b4", "fusion_lat": 0.0, "type": "electric_scooter", "lat": 38.899718666666665, "is_reserved": 0, "is_disabled": 0, "fusion_lon": 0.0, "bike_id": "79d2c9f2412d29816f24bcd1e77bb9b4", "lon": -77.0294605, "rental_uris": {"ios": "https://dc.lft.to/lastmile_qr_scan", "android": "https://dc.lft.to/lastmile_qr_scan"}}, {"name": "e2e52b8bf48df396f49d816f71968d1e", "fusion_lat": 0.0, "type": "electric_scooter", "lat": 38.90665833333333, "is_reserved": 0, "is_disabled": 0, "fusion_lon": 0.0, "bike_id": "e2e52b8bf48df396f49d816f71968d1e", "lon": -77.02713083333333, "rental_uris": {"ios": "https://dc.lft.to/lastmile_qr_scan", "android": "https://dc.lft.to/lastmile_qr_scan"}}, {"name": "f807c7c5bae73b3ed0b3ba955fc67e53", "fusion_lat": 0.0, "type": "electric_scooter", "lat": 38.9480485, "is_reserved": 0, "is_disabled": 0, "fusion_lon": 0.0, "bike_id": "f807c7c5bae73b3ed0b3ba955fc67e53", "lon": -77.07908216666667, "rental_uris": {"ios": "https://dc.lft.to/lastmile_qr_scan", "android": "https://dc.lft.to/lastmile_qr_scan"}}, {"name": "bed03b5213a5b757ec533dfe1638abf6", "fusion_lat": 0.0, "type": "electric_scooter", "lat": 38.92733833333333, "is_reserved": 0, "is_disabled": 0, "fusion_lon": 0.0, "bike_id": "bed03b5213a5b757ec533dfe1638abf6", "lon": -77.02318783333334, "rental_uris": {"ios": "https://dc.lft.to/lastmile_qr_scan", "android": "https://dc.lft.to/lastmile_qr_scan"}}, {"name": "da33b982d605a213caa6d1d177017ef5", "fusion_lat": 0.0, "type": "electric_scooter", "lat": 38.919434, "is_reserved": 0, "is_disabled": 0, "fusion_lon": 0.0, "bike_id": "da33b982d605a213caa6d1d177017ef5", "lon": -77.04544966666667, "rental_uris": {"ios": "https://dc.lft.to/lastmile_qr_scan", "android": "https://dc.lft.to/lastmile_qr_scan"}}, {"name": "8005ffd65bc008640983c4677faa6912", "fusion_lat": 0.0, "type": "electric_bike", "lat": 38.931206333333336, "is_reserved": 0, "is_disabled": 0, "fusion_lon": 0.0, "bike_id": "8005ffd65bc008640983c4677faa6912", "lon": -77.02707983333333, "rental_uris": {"ios": "https://dc.lft.to/lastmile_qr_scan", "android": "https://dc.lft.to/lastmile_qr_scan"}}, {"name": "b7ab3ae1eaef7ea5eae8ab4963d8e975", "fusion_lat": 0.0, "type": "electric_scooter", "lat": 38.9528715, "is_reserved": 0, "is_disabled": 0, "fusion_lon": 0.0, "bike_id": "b7ab3ae1eaef7ea5eae8ab4963d8e975", "lon": -77.00357966666667, "rental_uris": {"ios": "https://dc.lft.to/lastmile_qr_scan", "android": "https://dc.lft.to/lastmile_qr_scan"}}, {"name": "953b039ee13943632ac88d530f54dd15", "fusion_lat": 0.0, "type": "electric_scooter", "lat": 38.905775, "is_reserved": 0, "is_disabled": 0, "fusion_lon": 0.0, "bike_id": "953b039ee13943632ac88d530f54dd15", "lon": -77.026015, "rental_uris": {"ios": "https://dc.lft.to/lastmile_qr_scan", "android": "https://dc.lft.to/lastmile_qr_scan"}}, {"name": "42dc64512e3961185edc268a5bb7ee96", "fusion_lat": 0.0, "type": "electric_scooter", "lat": 38.90376416666667, "is_reserved": 0, "is_disabled": 0, "fusion_lon": 0.0, "bike_id": "42dc64512e3961185edc268a5bb7ee96", "lon": -77.04515666666667, "rental_uris": {"ios": "https://dc.lft.to/lastmile_qr_scan", "android": "https://dc.lft.to/lastmile_qr_scan"}}, {"name": "9e7527b9eb258d6c5de61a68f02111da", "fusion_lat": 0.0, "type": "electric_scooter", "lat": 38.9128725, "is_reserved": 0, "is_disabled": 0, "fusion_lon": 0.0, "bike_id": "9e7527b9eb258d6c5de61a68f02111da", "lon": -77.06166083333333, "rental_uris": {"ios": "https://dc.lft.to/lastmile_qr_scan", "android": "https://dc.lft.to/lastmile_qr_scan"}}, {"name": "861dd5f898b58f439954c647d5d3b445", "fusion_lat": 0.0, "type": "electric_scooter", "lat": 38.942926666666665, "is_reserved": 0, "is_disabled": 0, "fusion_lon": 0.0, "bike_id": "861dd5f898b58f439954c647d5d3b445", "lon": -77.02174366666667, "rental_uris": {"ios": "https://dc.lft.to/lastmile_qr_scan", "android": "https://dc.lft.to/lastmile_qr_scan"}}, {"name": "9fc390c97d6caa144566e32e0a560b82", "fusion_lat": 0.0, "type": "electric_scooter", "lat": 38.91268683333333, "is_reserved": 0, "is_disabled": 0, "fusion_lon": 0.0, "bike_id": "9fc390c97d6caa144566e32e0a560b82", "lon": -77.03824083333333, "rental_uris": {"ios": "https://dc.lft.to/lastmile_qr_scan", "android": "https://dc.lft.to/lastmile_qr_scan"}}, {"name": "954e2f3f54b2d2609e82e302602fdef2", "fusion_lat": 0.0, "type": "electric_scooter", "lat": 38.91287366666667, "is_reserved": 0, "is_disabled": 0, "fusion_lon": 0.0, "bike_id": "954e2f3f54b2d2609e82e302602fdef2", "lon": -77.03167883333333, "rental_uris": {"ios": "https://dc.lft.to/lastmile_qr_scan", "android": "https://dc.lft.to/lastmile_qr_scan"}}, {"name": "811a04a6c299faf87c96c966f4e49804", "fusion_lat": 0.0, "type": "electric_scooter", "lat": 38.930055833333334, "is_reserved": 0, "is_disabled": 0, "fusion_lon": 0.0, "bike_id": "811a04a6c299faf87c96c966f4e49804", "lon": -77.055199, "rental_uris": {"ios": "https://dc.lft.to/lastmile_qr_scan", "android": "https://dc.lft.to/lastmile_qr_scan"}}, {"name": "2a2ac53927b91b6bd044b2c3e2b495e9", "fusion_lat": 0.0, "type": "electric_scooter", "lat": 38.936603166666664, "is_reserved": 0, "is_disabled": 0, "fusion_lon": 0.0, "bike_id": "2a2ac53927b91b6bd044b2c3e2b495e9", "lon": -77.05499733333333, "rental_uris": {"ios": "https://dc.lft.to/lastmile_qr_scan", "android": "https://dc.lft.to/lastmile_qr_scan"}}, {"name": "e12a38e0b0688d61c3bb488ead83e969", "fusion_lat": 0.0, "type": "electric_bike", "lat": 38.9363535, "is_reserved": 0, "is_disabled": 0, "fusion_lon": 0.0, "bike_id": "e12a38e0b0688d61c3bb488ead83e969", "lon": -77.0366755, "rental_uris": {"ios": "https://dc.lft.to/lastmile_qr_scan", "android": "https://dc.lft.to/lastmile_qr_scan"}}, {"name": "274e651f5189633b5e0aa262ff2404cb", "fusion_lat": 0.0, "type": "electric_scooter", "lat": 38.917056333333335, "is_reserved": 0, "is_disabled": 0, "fusion_lon": 0.0, "bike_id": "274e651f5189633b5e0aa262ff2404cb", "lon": -77.04086933333333, "rental_uris": {"ios": "https://dc.lft.to/lastmile_qr_scan", "android": "https://dc.lft.to/lastmile_qr_scan"}}, {"name": "c5fc2cdbedc30e4a02d3e5c8d57bed8d", "fusion_lat": 0.0, "type": "electric_scooter", "lat": 38.93389, "is_reserved": 0, "is_disabled": 0, "fusion_lon": 0.0, "bike_id": "c5fc2cdbedc30e4a02d3e5c8d57bed8d", "lon": -77.0358145, "rental_uris": {"ios": "https://dc.lft.to/lastmile_qr_scan", "android": "https://dc.lft.to/lastmile_qr_scan"}}, {"name": "9ffe05e1b7067383c7eb9d98935de5e5", "fusion_lat": 0.0, "type": "electric_bike", "lat": 38.892214, "is_reserved": 0, "is_disabled": 0, "fusion_lon": 0.0, "bike_id": "9ffe05e1b7067383c7eb9d98935de5e5", "lon": -77.10782216666666, "rental_uris": {"ios": "https://dc.lft.to/lastmile_qr_scan", "android": "https://dc.lft.to/lastmile_qr_scan"}}, {"name": "a28eb7a04a5589e5de0ee55ee10702b9", "fusion_lat": 0.0, "type": "electric_scooter", "lat": 38.91181983333333, "is_reserved": 0, "is_disabled": 0, "fusion_lon": 0.0, "bike_id": "a28eb7a04a5589e5de0ee55ee10702b9", "lon": -77.03865183333333, "rental_uris": {"ios": "https://dc.lft.to/lastmile_qr_scan", "android": "https://dc.lft.to/lastmile_qr_scan"}}, {"name": "6fe3c2dc4b248c8424b3cc15cdb06044", "fusion_lat": 0.0, "type": "electric_scooter", "lat": 38.91099466666667, "is_reserved": 0, "is_disabled": 0, "fusion_lon": 0.0, "bike_id": "6fe3c2dc4b248c8424b3cc15cdb06044", "lon": -77.0734665, "rental_uris": {"ios": "https://dc.lft.to/lastmile_qr_scan", "android": "https://dc.lft.to/lastmile_qr_scan"}}, {"name": "b312400d43525b77827faa34500e3d9d", "fusion_lat": 0.0, "type": "electric_scooter", "lat": 38.8831255, "is_reserved": 0, "is_disabled": 0, "fusion_lon": 0.0, "bike_id": "b312400d43525b77827faa34500e3d9d", "lon": -77.02373966666667, "rental_uris": {"ios": "https://dc.lft.to/lastmile_qr_scan", "android": "https://dc.lft.to/lastmile_qr_scan"}}, {"name": "5092c721c53b0a21a6efc333bcc23c44", "fusion_lat": 0.0, "type": "electric_scooter", "lat": 38.87916716666667, "is_reserved": 0, "is_disabled": 0, "fusion_lon": 0.0, "bike_id": "5092c721c53b0a21a6efc333bcc23c44", "lon": -76.995067, "rental_uris": {"ios": "https://dc.lft.to/lastmile_qr_scan", "android": "https://dc.lft.to/lastmile_qr_scan"}}, {"name": "42830edd7ff811e1d3434b5d89f4f356", "fusion_lat": 0.0, "type": "electric_bike", "lat": 38.9015025, "is_reserved": 0, "is_disabled": 0, "fusion_lon": 0.0, "bike_id": "42830edd7ff811e1d3434b5d89f4f356", "lon": -77.02307633333334, "rental_uris": {"ios": "https://dc.lft.to/lastmile_qr_scan", "android": "https://dc.lft.to/lastmile_qr_scan"}}, {"name": "8cd39cd4b62aa2e3fb21258b105b916a", "fusion_lat": 0.0, "type": "electric_bike", "lat": 38.862656666666666, "is_reserved": 0, "is_disabled": 0, "fusion_lon": 0.0, "bike_id": "8cd39cd4b62aa2e3fb21258b105b916a", "lon": -77.05975566666666, "rental_uris": {"ios": "https://dc.lft.to/lastmile_qr_scan", "android": "https://dc.lft.to/lastmile_qr_scan"}}, {"name": "57879eb5c68afd061e9208cdbfa36fcc", "fusion_lat": 0.0, "type": "electric_scooter", "lat": 38.892215, "is_reserved": 0, "is_disabled": 0, "fusion_lon": 0.0, "bike_id": "57879eb5c68afd061e9208cdbfa36fcc", "lon": -77.02228266666667, "rental_uris": {"ios": "https://dc.lft.to/lastmile_qr_scan", "android": "https://dc.lft.to/lastmile_qr_scan"}}, {"name": "33f1857a3510da209def3375c42ba84a", "fusion_lat": 0.0, "type": "electric_scooter", "lat": 38.943167833333334, "is_reserved": 0, "is_disabled": 0, "fusion_lon": 0.0, "bike_id": "33f1857a3510da209def3375c42ba84a", "lon": -77.02488716666667, "rental_uris": {"ios": "https://dc.lft.to/lastmile_qr_scan", "android": "https://dc.lft.to/lastmile_qr_scan"}}, {"name": "5f2df25fa7877bd482c53da81c53a978", "fusion_lat": 0.0, "type": "electric_scooter", "lat": 38.86249083333333, "is_reserved": 0, "is_disabled": 0, "fusion_lon": 0.0, "bike_id": "5f2df25fa7877bd482c53da81c53a978", "lon": -76.99529766666667, "rental_uris": {"ios": "https://dc.lft.to/lastmile_qr_scan", "android": "https://dc.lft.to/lastmile_qr_scan"}}, {"name": "fabe213efbaf7b5d13264222f95397ae", "fusion_lat": 0.0, "type": "electric_scooter", "lat": 38.91257983333333, "is_reserved": 0, "is_disabled": 0, "fusion_lon": 0.0, "bike_id": "fabe213efbaf7b5d13264222f95397ae", "lon": -77.0384965, "rental_uris": {"ios": "https://dc.lft.to/lastmile_qr_scan", "android": "https://dc.lft.to/lastmile_qr_scan"}}, {"name": "e950c4241ec937c3e3d5523d276ff33b", "fusion_lat": 0.0, "type": "electric_scooter", "lat": 38.88841633333333, "is_reserved": 0, "is_disabled": 0, "fusion_lon": 0.0, "bike_id": "e950c4241ec937c3e3d5523d276ff33b", "lon": -77.04903533333334, "rental_uris": {"ios": "https://dc.lft.to/lastmile_qr_scan", "android": "https://dc.lft.to/lastmile_qr_scan"}}, {"name": "c8516f454675c99d8be6165e968bf992", "fusion_lat": 0.0, "type": "electric_scooter", "lat": 38.90108033333333, "is_reserved": 0, "is_disabled": 0, "fusion_lon": 0.0, "bike_id": "c8516f454675c99d8be6165e968bf992", "lon": -77.05099216666666, "rental_uris": {"ios": "https://dc.lft.to/lastmile_qr_scan", "android": "https://dc.lft.to/lastmile_qr_scan"}}, {"name": "511fbacb110a5e1bc85fc800e5c8c344", "fusion_lat": 0.0, "type": "electric_scooter", "lat": 38.912637333333336, "is_reserved": 0, "is_disabled": 0, "fusion_lon": 0.0, "bike_id": "511fbacb110a5e1bc85fc800e5c8c344", "lon": -77.038312, "rental_uris": {"ios": "https://dc.lft.to/lastmile_qr_scan", "android": "https://dc.lft.to/lastmile_qr_scan"}}, {"name": "d70e5d324eaf14f1bda0739c4b22c1b2", "fusion_lat": 0.0, "type": "electric_scooter", "lat": 38.929793, "is_reserved": 0, "is_disabled": 0, "fusion_lon": 0.0, "bike_id": "d70e5d324eaf14f1bda0739c4b22c1b2", "lon": -77.01449566666666, "rental_uris": {"ios": "https://dc.lft.to/lastmile_qr_scan", "android": "https://dc.lft.to/lastmile_qr_scan"}}, {"name": "88ea84fbc732311b85ecd62dce29be30", "fusion_lat": 0.0, "type": "electric_bike", "lat": 38.83986016666667, "is_reserved": 0, "is_disabled": 0, "fusion_lon": 0.0, "bike_id": "88ea84fbc732311b85ecd62dce29be30", "lon": -77.00563483333333, "rental_uris": {"ios": "https://dc.lft.to/lastmile_qr_scan", "android": "https://dc.lft.to/lastmile_qr_scan"}}, {"name": "35714f321274ae8a08d193d6f80406aa", "fusion_lat": 0.0, "type": "electric_scooter", "lat": 38.91222616666667, "is_reserved": 0, "is_disabled": 0, "fusion_lon": 0.0, "bike_id": "35714f321274ae8a08d193d6f80406aa", "lon": -77.03205283333334, "rental_uris": {"ios": "https://dc.lft.to/lastmile_qr_scan", "android": "https://dc.lft.to/lastmile_qr_scan"}}, {"name": "6646489514ef560da6305ea688e0129c", "fusion_lat": 0.0, "type": "electric_scooter", "lat": 38.895881333333335, "is_reserved": 0, "is_disabled": 0, "fusion_lon": 0.0, "bike_id": "6646489514ef560da6305ea688e0129c", "lon": -76.99359933333334, "rental_uris": {"ios": "https://dc.lft.to/lastmile_qr_scan", "android": "https://dc.lft.to/lastmile_qr_scan"}}, {"name": "cad7fbb8d5c977b9775deae9ada92f18", "fusion_lat": 0.0, "type": "electric_scooter", "lat": 38.902111, "is_reserved": 0, "is_disabled": 0, "fusion_lon": 0.0, "bike_id": "cad7fbb8d5c977b9775deae9ada92f18", "lon": -77.02376033333333, "rental_uris": {"ios": "https://dc.lft.to/lastmile_qr_scan", "android": "https://dc.lft.to/lastmile_qr_scan"}}, {"name": "991236fb405ad05ec0e7405befb0eea3", "fusion_lat": 0.0, "type": "electric_scooter", "lat": 38.91909316666667, "is_reserved": 0, "is_disabled": 0, "fusion_lon": 0.0, "bike_id": "991236fb405ad05ec0e7405befb0eea3", "lon": -77.02133083333334, "rental_uris": {"ios": "https://dc.lft.to/lastmile_qr_scan", "android": "https://dc.lft.to/lastmile_qr_scan"}}, {"name": "cffd34f5ad6495aae2327f425ed3670a", "fusion_lat": 0.0, "type": "electric_scooter", "lat": 38.924845, "is_reserved": 0, "is_disabled": 0, "fusion_lon": 0.0, "bike_id": "cffd34f5ad6495aae2327f425ed3670a", "lon": -77.052157, "rental_uris": {"ios": "https://dc.lft.to/lastmile_qr_scan", "android": "https://dc.lft.to/lastmile_qr_scan"}}, {"name": "d70cca32b7aa7a533b7d0b8f6da9a5ac", "fusion_lat": 0.0, "type": "electric_bike", "lat": 38.906240333333336, "is_reserved": 0, "is_disabled": 0, "fusion_lon": 0.0, "bike_id": "d70cca32b7aa7a533b7d0b8f6da9a5ac", "lon": -76.98610266666667, "rental_uris": {"ios": "https://dc.lft.to/lastmile_qr_scan", "android": "https://dc.lft.to/lastmile_qr_scan"}}, {"name": "30a7d01db9075a55d6f3817f59615a70", "fusion_lat": 0.0, "type": "electric_scooter", "lat": 38.91868916666667, "is_reserved": 0, "is_disabled": 0, "fusion_lon": 0.0, "bike_id": "30a7d01db9075a55d6f3817f59615a70", "lon": -77.04205166666667, "rental_uris": {"ios": "https://dc.lft.to/lastmile_qr_scan", "android": "https://dc.lft.to/lastmile_qr_scan"}}, {"name": "a99dbd84e7062fd69213a2150821655d", "fusion_lat": 0.0, "type": "electric_scooter", "lat": 38.885193666666666, "is_reserved": 0, "is_disabled": 0, "fusion_lon": 0.0, "bike_id": "a99dbd84e7062fd69213a2150821655d", "lon": -77.03348116666666, "rental_uris": {"ios": "https://dc.lft.to/lastmile_qr_scan", "android": "https://dc.lft.to/lastmile_qr_scan"}}, {"name": "4f8fb0c631ba9811d8e2ef641b7b6628", "fusion_lat": 0.0, "type": "electric_scooter", "lat": 38.90346666666667, "is_reserved": 0, "is_disabled": 0, "fusion_lon": 0.0, "bike_id": "4f8fb0c631ba9811d8e2ef641b7b6628", "lon": -76.9756985, "rental_uris": {"ios": "https://dc.lft.to/lastmile_qr_scan", "android": "https://dc.lft.to/lastmile_qr_scan"}}, {"name": "231f506edd2c665217ea493688863d68", "fusion_lat": 0.0, "type": "electric_scooter", "lat": 38.909632, "is_reserved": 0, "is_disabled": 0, "fusion_lon": 0.0, "bike_id": "231f506edd2c665217ea493688863d68", "lon": -77.03862766666667, "rental_uris": {"ios": "https://dc.lft.to/lastmile_qr_scan", "android": "https://dc.lft.to/lastmile_qr_scan"}}, {"name": "b44053537fa75865990d6c4d8fe2d118", "fusion_lat": 0.0, "type": "electric_scooter", "lat": 38.87372033333333, "is_reserved": 0, "is_disabled": 0, "fusion_lon": 0.0, "bike_id": "b44053537fa75865990d6c4d8fe2d118", "lon": -77.000407, "rental_uris": {"ios": "https://dc.lft.to/lastmile_qr_scan", "android": "https://dc.lft.to/lastmile_qr_scan"}}, {"name": "56a475da180edfe1a2061b97d29a3eff", "fusion_lat": 0.0, "type": "electric_scooter", "lat": 38.9172465, "is_reserved": 0, "is_disabled": 0, "fusion_lon": 0.0, "bike_id": "56a475da180edfe1a2061b97d29a3eff", "lon": -77.00001016666667, "rental_uris": {"ios": "https://dc.lft.to/lastmile_qr_scan", "android": "https://dc.lft.to/lastmile_qr_scan"}}, {"name": "deeab06ff14b9e548e9424b54c003d2f", "fusion_lat": 0.0, "type": "electric_bike", "lat": 38.905656666666665, "is_reserved": 0, "is_disabled": 0, "fusion_lon": 0.0, "bike_id": "deeab06ff14b9e548e9424b54c003d2f", "lon": -77.04738683333333, "rental_uris": {"ios": "https://dc.lft.to/lastmile_qr_scan", "android": "https://dc.lft.to/lastmile_qr_scan"}}, {"name": "6549394b3e52cd105643cb8ba5d4ef76", "fusion_lat": 0.0, "type": "electric_scooter", "lat": 38.90639483333333, "is_reserved": 0, "is_disabled": 0, "fusion_lon": 0.0, "bike_id": "6549394b3e52cd105643cb8ba5d4ef76", "lon": -77.038681, "rental_uris": {"ios": "https://dc.lft.to/lastmile_qr_scan", "android": "https://dc.lft.to/lastmile_qr_scan"}}, {"name": "5f31784de0417df1135d531501d5919e", "fusion_lat": 0.0, "type": "electric_scooter", "lat": 38.9066825, "is_reserved": 0, "is_disabled": 0, "fusion_lon": 0.0, "bike_id": "5f31784de0417df1135d531501d5919e", "lon": -77.026975, "rental_uris": {"ios": "https://dc.lft.to/lastmile_qr_scan", "android": "https://dc.lft.to/lastmile_qr_scan"}}, {"name": "1a6f8120984bb7269b943f6d057f74a2", "fusion_lat": 0.0, "type": "electric_scooter", "lat": 38.905715666666666, "is_reserved": 0, "is_disabled": 0, "fusion_lon": 0.0, "bike_id": "1a6f8120984bb7269b943f6d057f74a2", "lon": -77.02213083333334, "rental_uris": {"ios": "https://dc.lft.to/lastmile_qr_scan", "android": "https://dc.lft.to/lastmile_qr_scan"}}, {"name": "76ac51749bfc16e95f971264f1be8f18", "fusion_lat": 0.0, "type": "electric_scooter", "lat": 38.86657, "is_reserved": 0, "is_disabled": 0, "fusion_lon": 0.0, "bike_id": "76ac51749bfc16e95f971264f1be8f18", "lon": -76.98888216666667, "rental_uris": {"ios": "https://dc.lft.to/lastmile_qr_scan", "android": "https://dc.lft.to/lastmile_qr_scan"}}, {"name": "681baa6b2d742f9886119862cc1abb2a", "fusion_lat": 0.0, "type": "electric_scooter", "lat": 38.926244833333335, "is_reserved": 0, "is_disabled": 0, "fusion_lon": 0.0, "bike_id": "681baa6b2d742f9886119862cc1abb2a", "lon": -77.03707416666667, "rental_uris": {"ios": "https://dc.lft.to/lastmile_qr_scan", "android": "https://dc.lft.to/lastmile_qr_scan"}}, {"name": "541c71803bdfc13124144145c1d0a27d", "fusion_lat": 0.0, "type": "electric_scooter", "lat": 38.905094166666665, "is_reserved": 0, "is_disabled": 0, "fusion_lon": 0.0, "bike_id": "541c71803bdfc13124144145c1d0a27d", "lon": -76.99448633333333, "rental_uris": {"ios": "https://dc.lft.to/lastmile_qr_scan", "android": "https://dc.lft.to/lastmile_qr_scan"}}, {"name": "197a892e43f44a76616b5efe34b1d745", "fusion_lat": 0.0, "type": "electric_scooter", "lat": 38.904944, "is_reserved": 0, "is_disabled": 0, "fusion_lon": 0.0, "bike_id": "197a892e43f44a76616b5efe34b1d745", "lon": -77.04640883333333, "rental_uris": {"ios": "https://dc.lft.to/lastmile_qr_scan", "android": "https://dc.lft.to/lastmile_qr_scan"}}, {"name": "35d75208cbbef3fc5fcb84a315b6e014", "fusion_lat": 0.0, "type": "electric_scooter", "lat": 38.9063465, "is_reserved": 0, "is_disabled": 0, "fusion_lon": 0.0, "bike_id": "35d75208cbbef3fc5fcb84a315b6e014", "lon": -77.0386815, "rental_uris": {"ios": "https://dc.lft.to/lastmile_qr_scan", "android": "https://dc.lft.to/lastmile_qr_scan"}}, {"name": "ca364344880b16ca6d5557540fe86d7a", "fusion_lat": 0.0, "type": "electric_scooter", "lat": 38.90161583333333, "is_reserved": 0, "is_disabled": 0, "fusion_lon": 0.0, "bike_id": "ca364344880b16ca6d5557540fe86d7a", "lon": -77.0216535, "rental_uris": {"ios": "https://dc.lft.to/lastmile_qr_scan", "android": "https://dc.lft.to/lastmile_qr_scan"}}, {"name": "2d4e53d5df9de432a80d20f77cba536b", "fusion_lat": 0.0, "type": "electric_bike", "lat": 38.990896166666666, "is_reserved": 0, "is_disabled": 0, "fusion_lon": 0.0, "bike_id": "2d4e53d5df9de432a80d20f77cba536b", "lon": -76.87494966666667, "rental_uris": {"ios": "https://dc.lft.to/lastmile_qr_scan", "android": "https://dc.lft.to/lastmile_qr_scan"}}, {"name": "66a6a1b7b7a6b0435aeb52b473910cb2", "fusion_lat": 0.0, "type": "electric_scooter", "lat": 38.936048166666666, "is_reserved": 0, "is_disabled": 0, "fusion_lon": 0.0, "bike_id": "66a6a1b7b7a6b0435aeb52b473910cb2", "lon": -77.058613, "rental_uris": {"ios": "https://dc.lft.to/lastmile_qr_scan", "android": "https://dc.lft.to/lastmile_qr_scan"}}, {"name": "9fd4b295d43e6af2ed8d771c68c86bd3", "fusion_lat": 0.0, "type": "electric_scooter", "lat": 38.9244255, "is_reserved": 0, "is_disabled": 0, "fusion_lon": 0.0, "bike_id": "9fd4b295d43e6af2ed8d771c68c86bd3", "lon": -77.03352633333333, "rental_uris": {"ios": "https://dc.lft.to/lastmile_qr_scan", "android": "https://dc.lft.to/lastmile_qr_scan"}}, {"name": "bf2d0297dc1eb6946dc7475934a34a3d", "fusion_lat": 0.0, "type": "electric_scooter", "lat": 38.88408183333333, "is_reserved": 0, "is_disabled": 0, "fusion_lon": 0.0, "bike_id": "bf2d0297dc1eb6946dc7475934a34a3d", "lon": -77.0153485, "rental_uris": {"ios": "https://dc.lft.to/lastmile_qr_scan", "android": "https://dc.lft.to/lastmile_qr_scan"}}, {"name": "c2a96c96e8f0221848882b555c46e35d", "fusion_lat": 0.0, "type": "electric_scooter", "lat": 38.91746783333333, "is_reserved": 0, "is_disabled": 0, "fusion_lon": 0.0, "bike_id": "c2a96c96e8f0221848882b555c46e35d", "lon": -77.02284216666666, "rental_uris": {"ios": "https://dc.lft.to/lastmile_qr_scan", "android": "https://dc.lft.to/lastmile_qr_scan"}}, {"name": "22a2241d757ec4e2d78a95fdfc81aeb2", "fusion_lat": 0.0, "type": "electric_bike", "lat": 38.8287245, "is_reserved": 0, "is_disabled": 0, "fusion_lon": 0.0, "bike_id": "22a2241d757ec4e2d78a95fdfc81aeb2", "lon": -77.11220133333333, "rental_uris": {"ios": "https://dc.lft.to/lastmile_qr_scan", "android": "https://dc.lft.to/lastmile_qr_scan"}}, {"name": "bd615eedded13486339b4274011a93b0", "fusion_lat": 0.0, "type": "electric_scooter", "lat": 38.899713166666665, "is_reserved": 0, "is_disabled": 0, "fusion_lon": 0.0, "bike_id": "bd615eedded13486339b4274011a93b0", "lon": -77.05702616666666, "rental_uris": {"ios": "https://dc.lft.to/lastmile_qr_scan", "android": "https://dc.lft.to/lastmile_qr_scan"}}, {"name": "e7e25f0866b0f261edfc694c72050706", "fusion_lat": 0.0, "type": "electric_scooter", "lat": 38.914149333333334, "is_reserved": 0, "is_disabled": 0, "fusion_lon": 0.0, "bike_id": "e7e25f0866b0f261edfc694c72050706", "lon": -77.039957, "rental_uris": {"ios": "https://dc.lft.to/lastmile_qr_scan", "android": "https://dc.lft.to/lastmile_qr_scan"}}, {"name": "408eaa880a0e66d275a13667c45c6079", "fusion_lat": 0.0, "type": "electric_scooter", "lat": 38.9428335, "is_reserved": 0, "is_disabled": 0, "fusion_lon": 0.0, "bike_id": "408eaa880a0e66d275a13667c45c6079", "lon": -77.02504466666667, "rental_uris": {"ios": "https://dc.lft.to/lastmile_qr_scan", "android": "https://dc.lft.to/lastmile_qr_scan"}}, {"name": "7de9eab9836de153c26056306ece52a0", "fusion_lat": 0.0, "type": "electric_scooter", "lat": 38.8822095, "is_reserved": 0, "is_disabled": 0, "fusion_lon": 0.0, "bike_id": "7de9eab9836de153c26056306ece52a0", "lon": -76.94180916666667, "rental_uris": {"ios": "https://dc.lft.to/lastmile_qr_scan", "android": "https://dc.lft.to/lastmile_qr_scan"}}, {"name": "1d2cecee22cc282c283cb50501dd188e", "fusion_lat": 0.0, "type": "electric_scooter", "lat": 38.920760666666666, "is_reserved": 0, "is_disabled": 0, "fusion_lon": 0.0, "bike_id": "1d2cecee22cc282c283cb50501dd188e", "lon": -77.023941, "rental_uris": {"ios": "https://dc.lft.to/lastmile_qr_scan", "android": "https://dc.lft.to/lastmile_qr_scan"}}, {"name": "6bc2ec9ff20bd7ff2157d93c5b3d5412", "fusion_lat": 0.0, "type": "electric_scooter", "lat": 38.9326775, "is_reserved": 0, "is_disabled": 0, "fusion_lon": 0.0, "bike_id": "6bc2ec9ff20bd7ff2157d93c5b3d5412", "lon": -77.03260033333333, "rental_uris": {"ios": "https://dc.lft.to/lastmile_qr_scan", "android": "https://dc.lft.to/lastmile_qr_scan"}}, {"name": "c9554fce43e70833aff542a3a13df921", "fusion_lat": 0.0, "type": "electric_scooter", "lat": 38.911273333333334, "is_reserved": 0, "is_disabled": 0, "fusion_lon": 0.0, "bike_id": "c9554fce43e70833aff542a3a13df921", "lon": -77.03181916666666, "rental_uris": {"ios": "https://dc.lft.to/lastmile_qr_scan", "android": "https://dc.lft.to/lastmile_qr_scan"}}, {"name": "ee3a90f12dfcfde93fddab7452623d05", "fusion_lat": 0.0, "type": "electric_scooter", "lat": 38.903352166666664, "is_reserved": 0, "is_disabled": 0, "fusion_lon": 0.0, "bike_id": "ee3a90f12dfcfde93fddab7452623d05", "lon": -76.98964183333334, "rental_uris": {"ios": "https://dc.lft.to/lastmile_qr_scan", "android": "https://dc.lft.to/lastmile_qr_scan"}}, {"name": "b8e226e00f3aac53822b42bd15e081d6", "fusion_lat": 0.0, "type": "electric_scooter", "lat": 38.912516333333336, "is_reserved": 0, "is_disabled": 0, "fusion_lon": 0.0, "bike_id": "b8e226e00f3aac53822b42bd15e081d6", "lon": -77.0476515, "rental_uris": {"ios": "https://dc.lft.to/lastmile_qr_scan", "android": "https://dc.lft.to/lastmile_qr_scan"}}, {"name": "54fa331443011070793ecf61d30b3505", "fusion_lat": 0.0, "type": "electric_scooter", "lat": 38.881437, "is_reserved": 0, "is_disabled": 0, "fusion_lon": 0.0, "bike_id": "54fa331443011070793ecf61d30b3505", "lon": -77.01294166666666, "rental_uris": {"ios": "https://dc.lft.to/lastmile_qr_scan", "android": "https://dc.lft.to/lastmile_qr_scan"}}, {"name": "7496fa04a99371eb07029f77743b2704", "fusion_lat": 0.0, "type": "electric_scooter", "lat": 38.929304, "is_reserved": 0, "is_disabled": 0, "fusion_lon": 0.0, "bike_id": "7496fa04a99371eb07029f77743b2704", "lon": -77.02338233333333, "rental_uris": {"ios": "https://dc.lft.to/lastmile_qr_scan", "android": "https://dc.lft.to/lastmile_qr_scan"}}, {"name": "c6a6c27baeeef09da7df8809da94029b", "fusion_lat": 0.0, "type": "electric_scooter", "lat": 38.900639, "is_reserved": 0, "is_disabled": 0, "fusion_lon": 0.0, "bike_id": "c6a6c27baeeef09da7df8809da94029b", "lon": -77.05003483333333, "rental_uris": {"ios": "https://dc.lft.to/lastmile_qr_scan", "android": "https://dc.lft.to/lastmile_qr_scan"}}, {"name": "ba8ab7d086381ddd177a2777d89f999a", "fusion_lat": 0.0, "type": "electric_scooter", "lat": 38.92466233333333, "is_reserved": 0, "is_disabled": 0, "fusion_lon": 0.0, "bike_id": "ba8ab7d086381ddd177a2777d89f999a", "lon": -77.0305405, "rental_uris": {"ios": "https://dc.lft.to/lastmile_qr_scan", "android": "https://dc.lft.to/lastmile_qr_scan"}}, {"name": "86b66c07ae4696b5ec6738761bf76b5d", "fusion_lat": 0.0, "type": "electric_scooter", "lat": 38.917188333333335, "is_reserved": 0, "is_disabled": 0, "fusion_lon": 0.0, "bike_id": "86b66c07ae4696b5ec6738761bf76b5d", "lon": -77.036639, "rental_uris": {"ios": "https://dc.lft.to/lastmile_qr_scan", "android": "https://dc.lft.to/lastmile_qr_scan"}}, {"name": "400930f7d7a1e32e718b63ca8615bff0", "fusion_lat": 0.0, "type": "electric_scooter", "lat": 38.91674666666667, "is_reserved": 0, "is_disabled": 0, "fusion_lon": 0.0, "bike_id": "400930f7d7a1e32e718b63ca8615bff0", "lon": -77.03170933333334, "rental_uris": {"ios": "https://dc.lft.to/lastmile_qr_scan", "android": "https://dc.lft.to/lastmile_qr_scan"}}, {"name": "4ac0420690e79c43f53e8af441b11457", "fusion_lat": 0.0, "type": "electric_scooter", "lat": 38.92490466666667, "is_reserved": 0, "is_disabled": 0, "fusion_lon": 0.0, "bike_id": "4ac0420690e79c43f53e8af441b11457", "lon": -77.02706466666666, "rental_uris": {"ios": "https://dc.lft.to/lastmile_qr_scan", "android": "https://dc.lft.to/lastmile_qr_scan"}}, {"name": "548d73c2618b19c8d9d2b66e1acc3fc9", "fusion_lat": 0.0, "type": "electric_scooter", "lat": 38.916289666666664, "is_reserved": 0, "is_disabled": 0, "fusion_lon": 0.0, "bike_id": "548d73c2618b19c8d9d2b66e1acc3fc9", "lon": -77.03592016666667, "rental_uris": {"ios": "https://dc.lft.to/lastmile_qr_scan", "android": "https://dc.lft.to/lastmile_qr_scan"}}, {"name": "0053eec095999593d5db9bb510ff2abf", "fusion_lat": 0.0, "type": "electric_scooter", "lat": 38.91418016666667, "is_reserved": 0, "is_disabled": 0, "fusion_lon": 0.0, "bike_id": "0053eec095999593d5db9bb510ff2abf", "lon": -77.02799283333333, "rental_uris": {"ios": "https://dc.lft.to/lastmile_qr_scan", "android": "https://dc.lft.to/lastmile_qr_scan"}}, {"name": "89f9ac8ef9137418cd59cb88c9ef3384", "fusion_lat": 0.0, "type": "electric_scooter", "lat": 38.890952, "is_reserved": 0, "is_disabled": 0, "fusion_lon": 0.0, "bike_id": "89f9ac8ef9137418cd59cb88c9ef3384", "lon": -76.9978605, "rental_uris": {"ios": "https://dc.lft.to/lastmile_qr_scan", "android": "https://dc.lft.to/lastmile_qr_scan"}}, {"name": "1f1eb6a73f85b82c8215dac116f61271", "fusion_lat": 0.0, "type": "electric_scooter", "lat": 38.910441666666664, "is_reserved": 0, "is_disabled": 0, "fusion_lon": 0.0, "bike_id": "1f1eb6a73f85b82c8215dac116f61271", "lon": -77.028193, "rental_uris": {"ios": "https://dc.lft.to/lastmile_qr_scan", "android": "https://dc.lft.to/lastmile_qr_scan"}}, {"name": "bf28d07da311d8e6344c724cbe44f687", "fusion_lat": 0.0, "type": "electric_scooter", "lat": 38.9006445, "is_reserved": 0, "is_disabled": 0, "fusion_lon": 0.0, "bike_id": "bf28d07da311d8e6344c724cbe44f687", "lon": -77.0450695, "rental_uris": {"ios": "https://dc.lft.to/lastmile_qr_scan", "android": "https://dc.lft.to/lastmile_qr_scan"}}, {"name": "5a95042fe1fc17c92102094d163598d9", "fusion_lat": 0.0, "type": "electric_bike", "lat": 38.96543116666667, "is_reserved": 0, "is_disabled": 0, "fusion_lon": 0.0, "bike_id": "5a95042fe1fc17c92102094d163598d9", "lon": -77.03512466666666, "rental_uris": {"ios": "https://dc.lft.to/lastmile_qr_scan", "android": "https://dc.lft.to/lastmile_qr_scan"}}, {"name": "231b1352b24bc1fe1ca71e38578dbcde", "fusion_lat": 0.0, "type": "electric_scooter", "lat": 38.8652415, "is_reserved": 0, "is_disabled": 0, "fusion_lon": 0.0, "bike_id": "231b1352b24bc1fe1ca71e38578dbcde", "lon": -76.9855535, "rental_uris": {"ios": "https://dc.lft.to/lastmile_qr_scan", "android": "https://dc.lft.to/lastmile_qr_scan"}}, {"name": "7534ce45c5f21e95c420a4eb29046033", "fusion_lat": 0.0, "type": "electric_scooter", "lat": 38.924433666666665, "is_reserved": 0, "is_disabled": 0, "fusion_lon": 0.0, "bike_id": "7534ce45c5f21e95c420a4eb29046033", "lon": -77.04139566666667, "rental_uris": {"ios": "https://dc.lft.to/lastmile_qr_scan", "android": "https://dc.lft.to/lastmile_qr_scan"}}, {"name": "21f7a31843347553e22902d4a2678d69", "fusion_lat": 0.0, "type": "electric_bike", "lat": 38.82048233333333, "is_reserved": 0, "is_disabled": 0, "fusion_lon": 0.0, "bike_id": "21f7a31843347553e22902d4a2678d69", "lon": -77.05311133333333, "rental_uris": {"ios": "https://dc.lft.to/lastmile_qr_scan", "android": "https://dc.lft.to/lastmile_qr_scan"}}, {"name": "04477b1a7b94b986fc47b2bbdab25de8", "fusion_lat": 0.0, "type": "electric_scooter", "lat": 38.9306185, "is_reserved": 0, "is_disabled": 0, "fusion_lon": 0.0, "bike_id": "04477b1a7b94b986fc47b2bbdab25de8", "lon": -77.033925, "rental_uris": {"ios": "https://dc.lft.to/lastmile_qr_scan", "android": "https://dc.lft.to/lastmile_qr_scan"}}, {"name": "71d36c817966907c604fda76ef891672", "fusion_lat": 0.0, "type": "electric_scooter", "lat": 38.91565166666667, "is_reserved": 0, "is_disabled": 0, "fusion_lon": 0.0, "bike_id": "71d36c817966907c604fda76ef891672", "lon": -77.02235183333333, "rental_uris": {"ios": "https://dc.lft.to/lastmile_qr_scan", "android": "https://dc.lft.to/lastmile_qr_scan"}}, {"name": "b046a657e76fb2cfbbab48af57db7a6a", "fusion_lat": 0.0, "type": "electric_scooter", "lat": 38.900257833333335, "is_reserved": 0, "is_disabled": 0, "fusion_lon": 0.0, "bike_id": "b046a657e76fb2cfbbab48af57db7a6a", "lon": -77.00204216666667, "rental_uris": {"ios": "https://dc.lft.to/lastmile_qr_scan", "android": "https://dc.lft.to/lastmile_qr_scan"}}, {"name": "a4d332dabc6275e433b92f1de2781099", "fusion_lat": 0.0, "type": "electric_scooter", "lat": 38.93283516666666, "is_reserved": 0, "is_disabled": 0, "fusion_lon": 0.0, "bike_id": "a4d332dabc6275e433b92f1de2781099", "lon": -77.0350155, "rental_uris": {"ios": "https://dc.lft.to/lastmile_qr_scan", "android": "https://dc.lft.to/lastmile_qr_scan"}}, {"name": "c24af72acb368251cbe3cc2c813d7449", "fusion_lat": 0.0, "type": "electric_scooter", "lat": 38.870042166666664, "is_reserved": 0, "is_disabled": 0, "fusion_lon": 0.0, "bike_id": "c24af72acb368251cbe3cc2c813d7449", "lon": -77.01222933333334, "rental_uris": {"ios": "https://dc.lft.to/lastmile_qr_scan", "android": "https://dc.lft.to/lastmile_qr_scan"}}, {"name": "044da42568520d44d5658a27ab5f7fb7", "fusion_lat": 0.0, "type": "electric_scooter", "lat": 38.91418566666667, "is_reserved": 0, "is_disabled": 0, "fusion_lon": 0.0, "bike_id": "044da42568520d44d5658a27ab5f7fb7", "lon": -77.041551, "rental_uris": {"ios": "https://dc.lft.to/lastmile_qr_scan", "android": "https://dc.lft.to/lastmile_qr_scan"}}, {"name": "e4904c7f3c53474c23b211181bc4a5db", "fusion_lat": 0.0, "type": "electric_scooter", "lat": 38.92826766666667, "is_reserved": 0, "is_disabled": 0, "fusion_lon": 0.0, "bike_id": "e4904c7f3c53474c23b211181bc4a5db", "lon": -77.0225645, "rental_uris": {"ios": "https://dc.lft.to/lastmile_qr_scan", "android": "https://dc.lft.to/lastmile_qr_scan"}}, {"name": "40e55d00339332d292abb1c71b124eab", "fusion_lat": 0.0, "type": "electric_scooter", "lat": 38.90002, "is_reserved": 0, "is_disabled": 0, "fusion_lon": 0.0, "bike_id": "40e55d00339332d292abb1c71b124eab", "lon": -77.05328583333333, "rental_uris": {"ios": "https://dc.lft.to/lastmile_qr_scan", "android": "https://dc.lft.to/lastmile_qr_scan"}}, {"name": "7aa268c9c1adcfb978932a610d38f50e", "fusion_lat": 0.0, "type": "electric_scooter", "lat": 38.869620166666664, "is_reserved": 0, "is_disabled": 0, "fusion_lon": 0.0, "bike_id": "7aa268c9c1adcfb978932a610d38f50e", "lon": -77.0137325, "rental_uris": {"ios": "https://dc.lft.to/lastmile_qr_scan", "android": "https://dc.lft.to/lastmile_qr_scan"}}, {"name": "f8cd0982e070e75c3f83e8cc809e37f2", "fusion_lat": 0.0, "type": "electric_scooter", "lat": 38.97502166666666, "is_reserved": 0, "is_disabled": 0, "fusion_lon": 0.0, "bike_id": "f8cd0982e070e75c3f83e8cc809e37f2", "lon": -77.01696233333334, "rental_uris": {"ios": "https://dc.lft.to/lastmile_qr_scan", "android": "https://dc.lft.to/lastmile_qr_scan"}}, {"name": "2bee03affff65d670a8111845ed4f00d", "fusion_lat": 0.0, "type": "electric_scooter", "lat": 38.92652866666667, "is_reserved": 0, "is_disabled": 0, "fusion_lon": 0.0, "bike_id": "2bee03affff65d670a8111845ed4f00d", "lon": -77.0372425, "rental_uris": {"ios": "https://dc.lft.to/lastmile_qr_scan", "android": "https://dc.lft.to/lastmile_qr_scan"}}, {"name": "8bfb7e296cf59c2dbb58a1e9a0d1f955", "fusion_lat": 0.0, "type": "electric_scooter", "lat": 38.910521333333335, "is_reserved": 0, "is_disabled": 0, "fusion_lon": 0.0, "bike_id": "8bfb7e296cf59c2dbb58a1e9a0d1f955", "lon": -77.0219095, "rental_uris": {"ios": "https://dc.lft.to/lastmile_qr_scan", "android": "https://dc.lft.to/lastmile_qr_scan"}}, {"name": "98be7d92fb31423cbf20fbbda6b44a9b", "fusion_lat": 0.0, "type": "electric_scooter", "lat": 38.918169, "is_reserved": 0, "is_disabled": 0, "fusion_lon": 0.0, "bike_id": "98be7d92fb31423cbf20fbbda6b44a9b", "lon": -77.034426, "rental_uris": {"ios": "https://dc.lft.to/lastmile_qr_scan", "android": "https://dc.lft.to/lastmile_qr_scan"}}, {"name": "b536a1918d18837b31ae41483d135bdc", "fusion_lat": 0.0, "type": "electric_bike", "lat": 38.95334016666666, "is_reserved": 0, "is_disabled": 0, "fusion_lon": 0.0, "bike_id": "b536a1918d18837b31ae41483d135bdc", "lon": -76.97832666666666, "rental_uris": {"ios": "https://dc.lft.to/lastmile_qr_scan", "android": "https://dc.lft.to/lastmile_qr_scan"}}, {"name": "427ebee2d1a070bed7d3c1fda517830d", "fusion_lat": 0.0, "type": "electric_scooter", "lat": 38.912319833333335, "is_reserved": 0, "is_disabled": 0, "fusion_lon": 0.0, "bike_id": "427ebee2d1a070bed7d3c1fda517830d", "lon": -77.048827, "rental_uris": {"ios": "https://dc.lft.to/lastmile_qr_scan", "android": "https://dc.lft.to/lastmile_qr_scan"}}, {"name": "31686166ec5453b64031b4fb600971c2", "fusion_lat": 0.0, "type": "electric_scooter", "lat": 38.9014545, "is_reserved": 0, "is_disabled": 0, "fusion_lon": 0.0, "bike_id": "31686166ec5453b64031b4fb600971c2", "lon": -77.00063, "rental_uris": {"ios": "https://dc.lft.to/lastmile_qr_scan", "android": "https://dc.lft.to/lastmile_qr_scan"}}, {"name": "ae2c7c58608ae4144edfe746478d6be4", "fusion_lat": 0.0, "type": "electric_scooter", "lat": 38.895491666666665, "is_reserved": 0, "is_disabled": 0, "fusion_lon": 0.0, "bike_id": "ae2c7c58608ae4144edfe746478d6be4", "lon": -76.948833, "rental_uris": {"ios": "https://dc.lft.to/lastmile_qr_scan", "android": "https://dc.lft.to/lastmile_qr_scan"}}, {"name": "d0a7ad8e668a5f1d43830b4bb7d6c7d2", "fusion_lat": 0.0, "type": "electric_bike", "lat": 38.8775945, "is_reserved": 0, "is_disabled": 0, "fusion_lon": 0.0, "bike_id": "d0a7ad8e668a5f1d43830b4bb7d6c7d2", "lon": -76.97981733333333, "rental_uris": {"ios": "https://dc.lft.to/lastmile_qr_scan", "android": "https://dc.lft.to/lastmile_qr_scan"}}, {"name": "83db8220fa9e2c03fd566952268ffa72", "fusion_lat": 0.0, "type": "electric_scooter", "lat": 38.9097165, "is_reserved": 0, "is_disabled": 0, "fusion_lon": 0.0, "bike_id": "83db8220fa9e2c03fd566952268ffa72", "lon": -77.01115633333333, "rental_uris": {"ios": "https://dc.lft.to/lastmile_qr_scan", "android": "https://dc.lft.to/lastmile_qr_scan"}}, {"name": "96e4f3c95351ce3d759237795a65b8c8", "fusion_lat": 0.0, "type": "electric_scooter", "lat": 38.900001333333336, "is_reserved": 0, "is_disabled": 0, "fusion_lon": 0.0, "bike_id": "96e4f3c95351ce3d759237795a65b8c8", "lon": -77.03360083333334, "rental_uris": {"ios": "https://dc.lft.to/lastmile_qr_scan", "android": "https://dc.lft.to/lastmile_qr_scan"}}, {"name": "049476787e2fd0ac7f3f1dfc88fc09ab", "fusion_lat": 0.0, "type": "electric_bike", "lat": 38.93954333333333, "is_reserved": 0, "is_disabled": 0, "fusion_lon": 0.0, "bike_id": "049476787e2fd0ac7f3f1dfc88fc09ab", "lon": -77.36082333333333, "rental_uris": {"ios": "https://dc.lft.to/lastmile_qr_scan", "android": "https://dc.lft.to/lastmile_qr_scan"}}, {"name": "9269c544f7a437ff38ee6a806f6ea620", "fusion_lat": 0.0, "type": "electric_scooter", "lat": 38.90834866666667, "is_reserved": 0, "is_disabled": 0, "fusion_lon": 0.0, "bike_id": "9269c544f7a437ff38ee6a806f6ea620", "lon": -77.039346, "rental_uris": {"ios": "https://dc.lft.to/lastmile_qr_scan", "android": "https://dc.lft.to/lastmile_qr_scan"}}, {"name": "e8a53a58cfe2ccde53408b9e2b2251eb", "fusion_lat": 0.0, "type": "electric_scooter", "lat": 38.90433866666667, "is_reserved": 0, "is_disabled": 0, "fusion_lon": 0.0, "bike_id": "e8a53a58cfe2ccde53408b9e2b2251eb", "lon": -77.02849516666667, "rental_uris": {"ios": "https://dc.lft.to/lastmile_qr_scan", "android": "https://dc.lft.to/lastmile_qr_scan"}}, {"name": "7834265a0957fdfe5257e3b72ec81148", "fusion_lat": 0.0, "type": "electric_scooter", "lat": 38.91704083333333, "is_reserved": 0, "is_disabled": 0, "fusion_lon": 0.0, "bike_id": "7834265a0957fdfe5257e3b72ec81148", "lon": -77.04173783333333, "rental_uris": {"ios": "https://dc.lft.to/lastmile_qr_scan", "android": "https://dc.lft.to/lastmile_qr_scan"}}, {"name": "dd01f07a5b51185df5c3bb8c4bb84783", "fusion_lat": 0.0, "type": "electric_scooter", "lat": 38.903844166666666, "is_reserved": 0, "is_disabled": 0, "fusion_lon": 0.0, "bike_id": "dd01f07a5b51185df5c3bb8c4bb84783", "lon": -77.00711283333334, "rental_uris": {"ios": "https://dc.lft.to/lastmile_qr_scan", "android": "https://dc.lft.to/lastmile_qr_scan"}}, {"name": "4e135c701dd4aaebf30160b7034b48ff", "fusion_lat": 0.0, "type": "electric_scooter", "lat": 38.897446, "is_reserved": 0, "is_disabled": 0, "fusion_lon": 0.0, "bike_id": "4e135c701dd4aaebf30160b7034b48ff", "lon": -77.04651966666667, "rental_uris": {"ios": "https://dc.lft.to/lastmile_qr_scan", "android": "https://dc.lft.to/lastmile_qr_scan"}}, {"name": "cd4ba618cc0bce6796b7511e20c95ddd", "fusion_lat": 0.0, "type": "electric_scooter", "lat": 38.899177, "is_reserved": 0, "is_disabled": 0, "fusion_lon": 0.0, "bike_id": "cd4ba618cc0bce6796b7511e20c95ddd", "lon": -76.93384516666667, "rental_uris": {"ios": "https://dc.lft.to/lastmile_qr_scan", "android": "https://dc.lft.to/lastmile_qr_scan"}}, {"name": "a395758337ebdec3d3d534e5da5eda44", "fusion_lat": 0.0, "type": "electric_bike", "lat": 38.82442283333334, "is_reserved": 0, "is_disabled": 0, "fusion_lon": 0.0, "bike_id": "a395758337ebdec3d3d534e5da5eda44", "lon": -77.07045683333334, "rental_uris": {"ios": "https://dc.lft.to/lastmile_qr_scan", "android": "https://dc.lft.to/lastmile_qr_scan"}}, {"name": "47828c4ed771ef35eccc875486c2d063", "fusion_lat": 0.0, "type": "electric_scooter", "lat": 38.923309, "is_reserved": 0, "is_disabled": 0, "fusion_lon": 0.0, "bike_id": "47828c4ed771ef35eccc875486c2d063", "lon": -77.0353345, "rental_uris": {"ios": "https://dc.lft.to/lastmile_qr_scan", "android": "https://dc.lft.to/lastmile_qr_scan"}}, {"name": "d9e2268e6ad6b765669a1ef62ac8963c", "fusion_lat": 0.0, "type": "electric_bike", "lat": 38.881267666666666, "is_reserved": 0, "is_disabled": 0, "fusion_lon": 0.0, "bike_id": "d9e2268e6ad6b765669a1ef62ac8963c", "lon": -77.01662816666666, "rental_uris": {"ios": "https://dc.lft.to/lastmile_qr_scan", "android": "https://dc.lft.to/lastmile_qr_scan"}}, {"name": "9a56fcb4103b900e88dd91dd335494b8", "fusion_lat": 0.0, "type": "electric_scooter", "lat": 38.90157633333333, "is_reserved": 0, "is_disabled": 0, "fusion_lon": 0.0, "bike_id": "9a56fcb4103b900e88dd91dd335494b8", "lon": -77.02189966666667, "rental_uris": {"ios": "https://dc.lft.to/lastmile_qr_scan", "android": "https://dc.lft.to/lastmile_qr_scan"}}, {"name": "72b3da03d78c9814fc495f3dde224bc1", "fusion_lat": 0.0, "type": "electric_scooter", "lat": 38.92308416666667, "is_reserved": 0, "is_disabled": 0, "fusion_lon": 0.0, "bike_id": "72b3da03d78c9814fc495f3dde224bc1", "lon": -77.0296735, "rental_uris": {"ios": "https://dc.lft.to/lastmile_qr_scan", "android": "https://dc.lft.to/lastmile_qr_scan"}}, {"name": "f1000e483465a80aeff938531ccc7df9", "fusion_lat": 0.0, "type": "electric_bike", "lat": 38.918599, "is_reserved": 0, "is_disabled": 0, "fusion_lon": 0.0, "bike_id": "f1000e483465a80aeff938531ccc7df9", "lon": -76.960929, "rental_uris": {"ios": "https://dc.lft.to/lastmile_qr_scan", "android": "https://dc.lft.to/lastmile_qr_scan"}}, {"name": "050314f60e49beeb56c94013dce7a794", "fusion_lat": 0.0, "type": "electric_scooter", "lat": 38.90317116666667, "is_reserved": 0, "is_disabled": 0, "fusion_lon": 0.0, "bike_id": "050314f60e49beeb56c94013dce7a794", "lon": -77.05181866666666, "rental_uris": {"ios": "https://dc.lft.to/lastmile_qr_scan", "android": "https://dc.lft.to/lastmile_qr_scan"}}, {"name": "1955244ff4e445c374633310f4fdfcde", "fusion_lat": 0.0, "type": "electric_scooter", "lat": 38.88430116666667, "is_reserved": 0, "is_disabled": 0, "fusion_lon": 0.0, "bike_id": "1955244ff4e445c374633310f4fdfcde", "lon": -77.03046966666666, "rental_uris": {"ios": "https://dc.lft.to/lastmile_qr_scan", "android": "https://dc.lft.to/lastmile_qr_scan"}}, {"name": "e76a2f012dd9e50993f5dbab89255445", "fusion_lat": 0.0, "type": "electric_scooter", "lat": 38.93250116666667, "is_reserved": 0, "is_disabled": 0, "fusion_lon": 0.0, "bike_id": "e76a2f012dd9e50993f5dbab89255445", "lon": -77.02383, "rental_uris": {"ios": "https://dc.lft.to/lastmile_qr_scan", "android": "https://dc.lft.to/lastmile_qr_scan"}}, {"name": "7fabfd8e2115a1f14693dd9c03e88088", "fusion_lat": 0.0, "type": "electric_scooter", "lat": 38.907507333333335, "is_reserved": 0, "is_disabled": 0, "fusion_lon": 0.0, "bike_id": "7fabfd8e2115a1f14693dd9c03e88088", "lon": -77.02811466666667, "rental_uris": {"ios": "https://dc.lft.to/lastmile_qr_scan", "android": "https://dc.lft.to/lastmile_qr_scan"}}, {"name": "842af03896b0c8dcd4f43f048cfc2b81", "fusion_lat": 0.0, "type": "electric_scooter", "lat": 38.902872333333335, "is_reserved": 0, "is_disabled": 0, "fusion_lon": 0.0, "bike_id": "842af03896b0c8dcd4f43f048cfc2b81", "lon": -77.04003216666666, "rental_uris": {"ios": "https://dc.lft.to/lastmile_qr_scan", "android": "https://dc.lft.to/lastmile_qr_scan"}}, {"name": "abb2e74bf7209d138ea4b8a760c7637f", "fusion_lat": 0.0, "type": "electric_scooter", "lat": 38.917210833333336, "is_reserved": 0, "is_disabled": 0, "fusion_lon": 0.0, "bike_id": "abb2e74bf7209d138ea4b8a760c7637f", "lon": -77.0383675, "rental_uris": {"ios": "https://dc.lft.to/lastmile_qr_scan", "android": "https://dc.lft.to/lastmile_qr_scan"}}, {"name": "7c25b8ed26a21953fffa3c07185b51d9", "fusion_lat": 0.0, "type": "electric_scooter", "lat": 38.90150033333333, "is_reserved": 0, "is_disabled": 0, "fusion_lon": 0.0, "bike_id": "7c25b8ed26a21953fffa3c07185b51d9", "lon": -77.03982266666667, "rental_uris": {"ios": "https://dc.lft.to/lastmile_qr_scan", "android": "https://dc.lft.to/lastmile_qr_scan"}}, {"name": "f2cad7a3ef489e3135e936f0dc90a86e", "fusion_lat": 0.0, "type": "electric_bike", "lat": 38.9436295, "is_reserved": 0, "is_disabled": 0, "fusion_lon": 0.0, "bike_id": "f2cad7a3ef489e3135e936f0dc90a86e", "lon": -77.0034575, "rental_uris": {"ios": "https://dc.lft.to/lastmile_qr_scan", "android": "https://dc.lft.to/lastmile_qr_scan"}}, {"name": "24bee4cd075ae0192e1d693ab77604fa", "fusion_lat": 0.0, "type": "electric_scooter", "lat": 38.901374, "is_reserved": 0, "is_disabled": 0, "fusion_lon": 0.0, "bike_id": "24bee4cd075ae0192e1d693ab77604fa", "lon": -77.04500233333333, "rental_uris": {"ios": "https://dc.lft.to/lastmile_qr_scan", "android": "https://dc.lft.to/lastmile_qr_scan"}}, {"name": "d3d0d41c6ded77c82a6776e6d5d52398", "fusion_lat": 0.0, "type": "electric_scooter", "lat": 38.90728716666667, "is_reserved": 0, "is_disabled": 0, "fusion_lon": 0.0, "bike_id": "d3d0d41c6ded77c82a6776e6d5d52398", "lon": -77.034525, "rental_uris": {"ios": "https://dc.lft.to/lastmile_qr_scan", "android": "https://dc.lft.to/lastmile_qr_scan"}}, {"name": "1a91110b04f0ff006b5ce0b3ea2b90d5", "fusion_lat": 0.0, "type": "electric_scooter", "lat": 38.9084295, "is_reserved": 0, "is_disabled": 0, "fusion_lon": 0.0, "bike_id": "1a91110b04f0ff006b5ce0b3ea2b90d5", "lon": -77.03180866666666, "rental_uris": {"ios": "https://dc.lft.to/lastmile_qr_scan", "android": "https://dc.lft.to/lastmile_qr_scan"}}, {"name": "1e97551cae72f6b0e440c90366fce309", "fusion_lat": 0.0, "type": "electric_scooter", "lat": 38.91114066666667, "is_reserved": 0, "is_disabled": 0, "fusion_lon": 0.0, "bike_id": "1e97551cae72f6b0e440c90366fce309", "lon": -77.03737783333334, "rental_uris": {"ios": "https://dc.lft.to/lastmile_qr_scan", "android": "https://dc.lft.to/lastmile_qr_scan"}}, {"name": "604fe092acd981847e183b88da1dbb24", "fusion_lat": 0.0, "type": "electric_scooter", "lat": 38.906508333333335, "is_reserved": 0, "is_disabled": 0, "fusion_lon": 0.0, "bike_id": "604fe092acd981847e183b88da1dbb24", "lon": -77.05337783333333, "rental_uris": {"ios": "https://dc.lft.to/lastmile_qr_scan", "android": "https://dc.lft.to/lastmile_qr_scan"}}, {"name": "85edfa1814fa26b6a7ed1dfd19fab323", "fusion_lat": 0.0, "type": "electric_scooter", "lat": 38.9033835, "is_reserved": 0, "is_disabled": 0, "fusion_lon": 0.0, "bike_id": "85edfa1814fa26b6a7ed1dfd19fab323", "lon": -76.9466495, "rental_uris": {"ios": "https://dc.lft.to/lastmile_qr_scan", "android": "https://dc.lft.to/lastmile_qr_scan"}}, {"name": "b0840d559a8237d4a18c90f32d16eb4a", "fusion_lat": 0.0, "type": "electric_bike", "lat": 38.992303666666665, "is_reserved": 0, "is_disabled": 0, "fusion_lon": 0.0, "bike_id": "b0840d559a8237d4a18c90f32d16eb4a", "lon": -76.87825816666667, "rental_uris": {"ios": "https://dc.lft.to/lastmile_qr_scan", "android": "https://dc.lft.to/lastmile_qr_scan"}}, {"name": "d21b45b13368f1e6b6202944918426f0", "fusion_lat": 0.0, "type": "electric_scooter", "lat": 38.892228833333334, "is_reserved": 0, "is_disabled": 0, "fusion_lon": 0.0, "bike_id": "d21b45b13368f1e6b6202944918426f0", "lon": -77.02228833333334, "rental_uris": {"ios": "https://dc.lft.to/lastmile_qr_scan", "android": "https://dc.lft.to/lastmile_qr_scan"}}, {"name": "f4f4509196b2206dae33016455c06590", "fusion_lat": 0.0, "type": "electric_scooter", "lat": 38.92730316666667, "is_reserved": 0, "is_disabled": 0, "fusion_lon": 0.0, "bike_id": "f4f4509196b2206dae33016455c06590", "lon": -77.00566916666666, "rental_uris": {"ios": "https://dc.lft.to/lastmile_qr_scan", "android": "https://dc.lft.to/lastmile_qr_scan"}}, {"name": "8e509802c6846e1521da8b9f4945a9dd", "fusion_lat": 0.0, "type": "electric_scooter", "lat": 38.90966016666667, "is_reserved": 0, "is_disabled": 0, "fusion_lon": 0.0, "bike_id": "8e509802c6846e1521da8b9f4945a9dd", "lon": -77.046308, "rental_uris": {"ios": "https://dc.lft.to/lastmile_qr_scan", "android": "https://dc.lft.to/lastmile_qr_scan"}}, {"name": "2e1af1593127bd689ff9fc9c8b43312f", "fusion_lat": 0.0, "type": "electric_scooter", "lat": 38.92373833333333, "is_reserved": 0, "is_disabled": 0, "fusion_lon": 0.0, "bike_id": "2e1af1593127bd689ff9fc9c8b43312f", "lon": -77.02986233333333, "rental_uris": {"ios": "https://dc.lft.to/lastmile_qr_scan", "android": "https://dc.lft.to/lastmile_qr_scan"}}, {"name": "7514cabe681dd798d51c410dfe10539c", "fusion_lat": 0.0, "type": "electric_bike", "lat": 38.875272333333335, "is_reserved": 0, "is_disabled": 0, "fusion_lon": 0.0, "bike_id": "7514cabe681dd798d51c410dfe10539c", "lon": -77.19907583333334, "rental_uris": {"ios": "https://dc.lft.to/lastmile_qr_scan", "android": "https://dc.lft.to/lastmile_qr_scan"}}, {"name": "b040742159ca4d9fc04fa57f10e2fedf", "fusion_lat": 0.0, "type": "electric_bike", "lat": 38.82789183333333, "is_reserved": 0, "is_disabled": 0, "fusion_lon": 0.0, "bike_id": "b040742159ca4d9fc04fa57f10e2fedf", "lon": -77.009029, "rental_uris": {"ios": "https://dc.lft.to/lastmile_qr_scan", "android": "https://dc.lft.to/lastmile_qr_scan"}}, {"name": "367fd4295ce7326b5f33cec5a661450c", "fusion_lat": 0.0, "type": "electric_scooter", "lat": 38.899020666666665, "is_reserved": 0, "is_disabled": 0, "fusion_lon": 0.0, "bike_id": "367fd4295ce7326b5f33cec5a661450c", "lon": -76.9338245, "rental_uris": {"ios": "https://dc.lft.to/lastmile_qr_scan", "android": "https://dc.lft.to/lastmile_qr_scan"}}, {"name": "d595815e3c7ec2fe5be48b853da6b254", "fusion_lat": 0.0, "type": "electric_bike", "lat": 38.85786616666667, "is_reserved": 0, "is_disabled": 0, "fusion_lon": 0.0, "bike_id": "d595815e3c7ec2fe5be48b853da6b254", "lon": -77.09962366666667, "rental_uris": {"ios": "https://dc.lft.to/lastmile_qr_scan", "android": "https://dc.lft.to/lastmile_qr_scan"}}, {"name": "4971187792c07632d4f6107db32768ac", "fusion_lat": 0.0, "type": "electric_scooter", "lat": 38.918179333333335, "is_reserved": 0, "is_disabled": 0, "fusion_lon": 0.0, "bike_id": "4971187792c07632d4f6107db32768ac", "lon": -77.027976, "rental_uris": {"ios": "https://dc.lft.to/lastmile_qr_scan", "android": "https://dc.lft.to/lastmile_qr_scan"}}, {"name": "b823e9482aec9e6518ab80ed0981440e", "fusion_lat": 0.0, "type": "electric_bike", "lat": 39.094603166666666, "is_reserved": 0, "is_disabled": 0, "fusion_lon": 0.0, "bike_id": "b823e9482aec9e6518ab80ed0981440e", "lon": -77.1499385, "rental_uris": {"ios": "https://dc.lft.to/lastmile_qr_scan", "android": "https://dc.lft.to/lastmile_qr_scan"}}, {"name": "88fb81130f6ec2b75e3a22be234edd52", "fusion_lat": 0.0, "type": "electric_scooter", "lat": 38.90120366666667, "is_reserved": 0, "is_disabled": 0, "fusion_lon": 0.0, "bike_id": "88fb81130f6ec2b75e3a22be234edd52", "lon": -77.027185, "rental_uris": {"ios": "https://dc.lft.to/lastmile_qr_scan", "android": "https://dc.lft.to/lastmile_qr_scan"}}, {"name": "e62b49b5f7a2928d5ae35549386f68f6", "fusion_lat": 0.0, "type": "electric_scooter", "lat": 38.928778333333334, "is_reserved": 0, "is_disabled": 0, "fusion_lon": 0.0, "bike_id": "e62b49b5f7a2928d5ae35549386f68f6", "lon": -77.03334783333334, "rental_uris": {"ios": "https://dc.lft.to/lastmile_qr_scan", "android": "https://dc.lft.to/lastmile_qr_scan"}}, {"name": "8494e86d67ecf6206b09bd9fbc8ee7e5", "fusion_lat": 0.0, "type": "electric_scooter", "lat": 38.9357845, "is_reserved": 0, "is_disabled": 0, "fusion_lon": 0.0, "bike_id": "8494e86d67ecf6206b09bd9fbc8ee7e5", "lon": -76.9910285, "rental_uris": {"ios": "https://dc.lft.to/lastmile_qr_scan", "android": "https://dc.lft.to/lastmile_qr_scan"}}, {"name": "83d1ee394e72c48ec5abc7ca31f1afca", "fusion_lat": 0.0, "type": "electric_scooter", "lat": 38.91930466666667, "is_reserved": 0, "is_disabled": 0, "fusion_lon": 0.0, "bike_id": "83d1ee394e72c48ec5abc7ca31f1afca", "lon": -77.03424283333334, "rental_uris": {"ios": "https://dc.lft.to/lastmile_qr_scan", "android": "https://dc.lft.to/lastmile_qr_scan"}}, {"name": "3397574ae0719b36ac2e29e008287ee8", "fusion_lat": 0.0, "type": "electric_scooter", "lat": 38.90154066666667, "is_reserved": 0, "is_disabled": 0, "fusion_lon": 0.0, "bike_id": "3397574ae0719b36ac2e29e008287ee8", "lon": -76.93058866666667, "rental_uris": {"ios": "https://dc.lft.to/lastmile_qr_scan", "android": "https://dc.lft.to/lastmile_qr_scan"}}, {"name": "f2166122c8a245d8d4cc0dfd71a60fc3", "fusion_lat": 0.0, "type": "electric_scooter", "lat": 38.85709033333333, "is_reserved": 0, "is_disabled": 0, "fusion_lon": 0.0, "bike_id": "f2166122c8a245d8d4cc0dfd71a60fc3", "lon": -76.98131866666667, "rental_uris": {"ios": "https://dc.lft.to/lastmile_qr_scan", "android": "https://dc.lft.to/lastmile_qr_scan"}}, {"name": "9e6505bae1eebd7177b437b5917b8ff2", "fusion_lat": 0.0, "type": "electric_scooter", "lat": 38.9253035, "is_reserved": 0, "is_disabled": 0, "fusion_lon": 0.0, "bike_id": "9e6505bae1eebd7177b437b5917b8ff2", "lon": -77.05541983333333, "rental_uris": {"ios": "https://dc.lft.to/lastmile_qr_scan", "android": "https://dc.lft.to/lastmile_qr_scan"}}, {"name": "20a6de35641a7b1193d231cf4a9f5bae", "fusion_lat": 0.0, "type": "electric_bike", "lat": 38.8381125, "is_reserved": 0, "is_disabled": 0, "fusion_lon": 0.0, "bike_id": "20a6de35641a7b1193d231cf4a9f5bae", "lon": -77.095235, "rental_uris": {"ios": "https://dc.lft.to/lastmile_qr_scan", "android": "https://dc.lft.to/lastmile_qr_scan"}}, {"name": "803e35079b7730cd18355e58e8685d1c", "fusion_lat": 0.0, "type": "electric_scooter", "lat": 38.884291166666664, "is_reserved": 0, "is_disabled": 0, "fusion_lon": 0.0, "bike_id": "803e35079b7730cd18355e58e8685d1c", "lon": -76.95751833333334, "rental_uris": {"ios": "https://dc.lft.to/lastmile_qr_scan", "android": "https://dc.lft.to/lastmile_qr_scan"}}, {"name": "917bf7b6461d847540cbe9d9e583332f", "fusion_lat": 0.0, "type": "electric_scooter", "lat": 38.92338733333333, "is_reserved": 0, "is_disabled": 0, "fusion_lon": 0.0, "bike_id": "917bf7b6461d847540cbe9d9e583332f", "lon": -77.035255, "rental_uris": {"ios": "https://dc.lft.to/lastmile_qr_scan", "android": "https://dc.lft.to/lastmile_qr_scan"}}, {"name": "22d52a5a3ca5d5b15cc7004293cbe65c", "fusion_lat": 0.0, "type": "electric_scooter", "lat": 38.907834333333334, "is_reserved": 0, "is_disabled": 0, "fusion_lon": 0.0, "bike_id": "22d52a5a3ca5d5b15cc7004293cbe65c", "lon": -77.03850966666667, "rental_uris": {"ios": "https://dc.lft.to/lastmile_qr_scan", "android": "https://dc.lft.to/lastmile_qr_scan"}}, {"name": "875bb0661c34925b4dec3831d84483c3", "fusion_lat": 0.0, "type": "electric_scooter", "lat": 38.91120383333333, "is_reserved": 0, "is_disabled": 0, "fusion_lon": 0.0, "bike_id": "875bb0661c34925b4dec3831d84483c3", "lon": -77.029342, "rental_uris": {"ios": "https://dc.lft.to/lastmile_qr_scan", "android": "https://dc.lft.to/lastmile_qr_scan"}}, {"name": "9d574a5a72ced6c683efb05ab8ea4434", "fusion_lat": 0.0, "type": "electric_scooter", "lat": 38.88738683333333, "is_reserved": 0, "is_disabled": 0, "fusion_lon": 0.0, "bike_id": "9d574a5a72ced6c683efb05ab8ea4434", "lon": -77.02126066666666, "rental_uris": {"ios": "https://dc.lft.to/lastmile_qr_scan", "android": "https://dc.lft.to/lastmile_qr_scan"}}, {"name": "98fa8e7c8230f53c16f6f6a492289c24", "fusion_lat": 0.0, "type": "electric_scooter", "lat": 38.91619816666667, "is_reserved": 0, "is_disabled": 0, "fusion_lon": 0.0, "bike_id": "98fa8e7c8230f53c16f6f6a492289c24", "lon": -77.03187316666667, "rental_uris": {"ios": "https://dc.lft.to/lastmile_qr_scan", "android": "https://dc.lft.to/lastmile_qr_scan"}}, {"name": "04b8f553928b5c5f2a25d657824ffd20", "fusion_lat": 0.0, "type": "electric_scooter", "lat": 38.911784, "is_reserved": 0, "is_disabled": 0, "fusion_lon": 0.0, "bike_id": "04b8f553928b5c5f2a25d657824ffd20", "lon": -77.00135816666666, "rental_uris": {"ios": "https://dc.lft.to/lastmile_qr_scan", "android": "https://dc.lft.to/lastmile_qr_scan"}}, {"name": "8c62bb1406c3a34c700503850aae5b76", "fusion_lat": 0.0, "type": "electric_scooter", "lat": 38.905038, "is_reserved": 0, "is_disabled": 0, "fusion_lon": 0.0, "bike_id": "8c62bb1406c3a34c700503850aae5b76", "lon": -77.02607783333333, "rental_uris": {"ios": "https://dc.lft.to/lastmile_qr_scan", "android": "https://dc.lft.to/lastmile_qr_scan"}}, {"name": "7fc31190cd3b8f11b210a3a660d9f06c", "fusion_lat": 0.0, "type": "electric_scooter", "lat": 38.926172, "is_reserved": 0, "is_disabled": 0, "fusion_lon": 0.0, "bike_id": "7fc31190cd3b8f11b210a3a660d9f06c", "lon": -77.04188516666666, "rental_uris": {"ios": "https://dc.lft.to/lastmile_qr_scan", "android": "https://dc.lft.to/lastmile_qr_scan"}}, {"name": "f2c34f05201b80217fefa135b6e9ec0d", "fusion_lat": 0.0, "type": "electric_scooter", "lat": 38.9053245, "is_reserved": 0, "is_disabled": 0, "fusion_lon": 0.0, "bike_id": "f2c34f05201b80217fefa135b6e9ec0d", "lon": -77.05763983333334, "rental_uris": {"ios": "https://dc.lft.to/lastmile_qr_scan", "android": "https://dc.lft.to/lastmile_qr_scan"}}, {"name": "ab3f62160aa92f4d035c5b234b0dc36d", "fusion_lat": 0.0, "type": "electric_scooter", "lat": 38.908121333333334, "is_reserved": 0, "is_disabled": 0, "fusion_lon": 0.0, "bike_id": "ab3f62160aa92f4d035c5b234b0dc36d", "lon": -77.04351316666667, "rental_uris": {"ios": "https://dc.lft.to/lastmile_qr_scan", "android": "https://dc.lft.to/lastmile_qr_scan"}}, {"name": "1cf5d47b6f8731727915e7c4367f3cad", "fusion_lat": 0.0, "type": "electric_scooter", "lat": 38.894049, "is_reserved": 0, "is_disabled": 0, "fusion_lon": 0.0, "bike_id": "1cf5d47b6f8731727915e7c4367f3cad", "lon": -76.94795683333334, "rental_uris": {"ios": "https://dc.lft.to/lastmile_qr_scan", "android": "https://dc.lft.to/lastmile_qr_scan"}}, {"name": "7ec1377624d1eadf413ca638a937be96", "fusion_lat": 0.0, "type": "electric_scooter", "lat": 38.908596333333335, "is_reserved": 0, "is_disabled": 0, "fusion_lon": 0.0, "bike_id": "7ec1377624d1eadf413ca638a937be96", "lon": -76.99959733333333, "rental_uris": {"ios": "https://dc.lft.to/lastmile_qr_scan", "android": "https://dc.lft.to/lastmile_qr_scan"}}, {"name": "5d2517d41db9dd528aa842f9c775fa83", "fusion_lat": 0.0, "type": "electric_scooter", "lat": 38.918211166666666, "is_reserved": 0, "is_disabled": 0, "fusion_lon": 0.0, "bike_id": "5d2517d41db9dd528aa842f9c775fa83", "lon": -77.03457083333333, "rental_uris": {"ios": "https://dc.lft.to/lastmile_qr_scan", "android": "https://dc.lft.to/lastmile_qr_scan"}}, {"name": "a64bfbe889155de8b86ad16339c928ba", "fusion_lat": 0.0, "type": "electric_scooter", "lat": 38.915441, "is_reserved": 0, "is_disabled": 0, "fusion_lon": 0.0, "bike_id": "a64bfbe889155de8b86ad16339c928ba", "lon": -77.03854916666667, "rental_uris": {"ios": "https://dc.lft.to/lastmile_qr_scan", "android": "https://dc.lft.to/lastmile_qr_scan"}}, {"name": "c42afb1ab5c770fd95f77fcb1b669d0e", "fusion_lat": 0.0, "type": "electric_scooter", "lat": 38.9141115, "is_reserved": 0, "is_disabled": 0, "fusion_lon": 0.0, "bike_id": "c42afb1ab5c770fd95f77fcb1b669d0e", "lon": -77.00973166666667, "rental_uris": {"ios": "https://dc.lft.to/lastmile_qr_scan", "android": "https://dc.lft.to/lastmile_qr_scan"}}, {"name": "fa198d9524755a7ccbea323c39db6f79", "fusion_lat": 0.0, "type": "electric_scooter", "lat": 38.902628666666665, "is_reserved": 0, "is_disabled": 0, "fusion_lon": 0.0, "bike_id": "fa198d9524755a7ccbea323c39db6f79", "lon": -77.01756716666667, "rental_uris": {"ios": "https://dc.lft.to/lastmile_qr_scan", "android": "https://dc.lft.to/lastmile_qr_scan"}}, {"name": "429cf622177ddc932ab1ee7338c1ec6d", "fusion_lat": 0.0, "type": "electric_scooter", "lat": 38.905705833333336, "is_reserved": 0, "is_disabled": 0, "fusion_lon": 0.0, "bike_id": "429cf622177ddc932ab1ee7338c1ec6d", "lon": -77.00264483333333, "rental_uris": {"ios": "https://dc.lft.to/lastmile_qr_scan", "android": "https://dc.lft.to/lastmile_qr_scan"}}, {"name": "c35fd8a547d01bab4b62ea1e0a660251", "fusion_lat": 0.0, "type": "electric_scooter", "lat": 38.91872633333333, "is_reserved": 0, "is_disabled": 0, "fusion_lon": 0.0, "bike_id": "c35fd8a547d01bab4b62ea1e0a660251", "lon": -77.04449183333334, "rental_uris": {"ios": "https://dc.lft.to/lastmile_qr_scan", "android": "https://dc.lft.to/lastmile_qr_scan"}}, {"name": "70980614a030c13943aa669a11a3258d", "fusion_lat": 0.0, "type": "electric_scooter", "lat": 38.896617666666664, "is_reserved": 0, "is_disabled": 0, "fusion_lon": 0.0, "bike_id": "70980614a030c13943aa669a11a3258d", "lon": -76.9473265, "rental_uris": {"ios": "https://dc.lft.to/lastmile_qr_scan", "android": "https://dc.lft.to/lastmile_qr_scan"}}, {"name": "03ece8fdd6829e50b63a1b9f48bcf6f2", "fusion_lat": 0.0, "type": "electric_bike", "lat": 38.86870666666667, "is_reserved": 0, "is_disabled": 0, "fusion_lon": 0.0, "bike_id": "03ece8fdd6829e50b63a1b9f48bcf6f2", "lon": -76.916639, "rental_uris": {"ios": "https://dc.lft.to/lastmile_qr_scan", "android": "https://dc.lft.to/lastmile_qr_scan"}}, {"name": "65b5222c493f3c1a563c10b0d2c9cc64", "fusion_lat": 0.0, "type": "electric_scooter", "lat": 38.8789075, "is_reserved": 0, "is_disabled": 0, "fusion_lon": 0.0, "bike_id": "65b5222c493f3c1a563c10b0d2c9cc64", "lon": -77.02271866666666, "rental_uris": {"ios": "https://dc.lft.to/lastmile_qr_scan", "android": "https://dc.lft.to/lastmile_qr_scan"}}, {"name": "e1216f0d5b17d75c73bb8c92587cbe94", "fusion_lat": 0.0, "type": "electric_bike", "lat": 38.8965025, "is_reserved": 0, "is_disabled": 0, "fusion_lon": 0.0, "bike_id": "e1216f0d5b17d75c73bb8c92587cbe94", "lon": -77.1045545, "rental_uris": {"ios": "https://dc.lft.to/lastmile_qr_scan", "android": "https://dc.lft.to/lastmile_qr_scan"}}, {"name": "e1c7b9b22defe5e11f4845fbb60eb881", "fusion_lat": 0.0, "type": "electric_bike", "lat": 38.942297333333336, "is_reserved": 0, "is_disabled": 0, "fusion_lon": 0.0, "bike_id": "e1c7b9b22defe5e11f4845fbb60eb881", "lon": -77.01387783333334, "rental_uris": {"ios": "https://dc.lft.to/lastmile_qr_scan", "android": "https://dc.lft.to/lastmile_qr_scan"}}, {"name": "feb288907645cbff200f60f0e65dd388", "fusion_lat": 0.0, "type": "electric_scooter", "lat": 38.91109766666667, "is_reserved": 0, "is_disabled": 0, "fusion_lon": 0.0, "bike_id": "feb288907645cbff200f60f0e65dd388", "lon": -77.03135083333333, "rental_uris": {"ios": "https://dc.lft.to/lastmile_qr_scan", "android": "https://dc.lft.to/lastmile_qr_scan"}}, {"name": "4064a01abdf326a85fbe670731e627fa", "fusion_lat": 0.0, "type": "electric_scooter", "lat": 38.90016766666667, "is_reserved": 0, "is_disabled": 0, "fusion_lon": 0.0, "bike_id": "4064a01abdf326a85fbe670731e627fa", "lon": -77.0022015, "rental_uris": {"ios": "https://dc.lft.to/lastmile_qr_scan", "android": "https://dc.lft.to/lastmile_qr_scan"}}, {"name": "00607564fb7ea380c31aafa28b8854ab", "fusion_lat": 0.0, "type": "electric_scooter", "lat": 38.921654333333336, "is_reserved": 0, "is_disabled": 0, "fusion_lon": 0.0, "bike_id": "00607564fb7ea380c31aafa28b8854ab", "lon": -77.0422855, "rental_uris": {"ios": "https://dc.lft.to/lastmile_qr_scan", "android": "https://dc.lft.to/lastmile_qr_scan"}}, {"name": "d660a477bbfbdf309f76a68e7b1c13c1", "fusion_lat": 0.0, "type": "electric_scooter", "lat": 38.885769, "is_reserved": 0, "is_disabled": 0, "fusion_lon": 0.0, "bike_id": "d660a477bbfbdf309f76a68e7b1c13c1", "lon": -76.99627383333333, "rental_uris": {"ios": "https://dc.lft.to/lastmile_qr_scan", "android": "https://dc.lft.to/lastmile_qr_scan"}}, {"name": "075cc295d1d1ff45bc804f22df8343d1", "fusion_lat": 0.0, "type": "electric_scooter", "lat": 38.85848816666667, "is_reserved": 0, "is_disabled": 0, "fusion_lon": 0.0, "bike_id": "075cc295d1d1ff45bc804f22df8343d1", "lon": -76.95882216666666, "rental_uris": {"ios": "https://dc.lft.to/lastmile_qr_scan", "android": "https://dc.lft.to/lastmile_qr_scan"}}, {"name": "ccb6ebb1e6c1f8ef500cd1463bf5ec9c", "fusion_lat": 0.0, "type": "electric_bike", "lat": 38.896512, "is_reserved": 0, "is_disabled": 0, "fusion_lon": 0.0, "bike_id": "ccb6ebb1e6c1f8ef500cd1463bf5ec9c", "lon": -77.08636283333334, "rental_uris": {"ios": "https://dc.lft.to/lastmile_qr_scan", "android": "https://dc.lft.to/lastmile_qr_scan"}}, {"name": "add75060ddaa6e718f44e82cd61f5fdb", "fusion_lat": 0.0, "type": "electric_scooter", "lat": 38.894569833333335, "is_reserved": 0, "is_disabled": 0, "fusion_lon": 0.0, "bike_id": "add75060ddaa6e718f44e82cd61f5fdb", "lon": -77.01922533333334, "rental_uris": {"ios": "https://dc.lft.to/lastmile_qr_scan", "android": "https://dc.lft.to/lastmile_qr_scan"}}, {"name": "8e8391ccc0348780774122c46fe4f737", "fusion_lat": 0.0, "type": "electric_scooter", "lat": 38.93288583333333, "is_reserved": 0, "is_disabled": 0, "fusion_lon": 0.0, "bike_id": "8e8391ccc0348780774122c46fe4f737", "lon": -77.03982733333333, "rental_uris": {"ios": "https://dc.lft.to/lastmile_qr_scan", "android": "https://dc.lft.to/lastmile_qr_scan"}}, {"name": "b8d4867eee8c4f05051eab397b992600", "fusion_lat": 0.0, "type": "electric_scooter", "lat": 38.8868475, "is_reserved": 0, "is_disabled": 0, "fusion_lon": 0.0, "bike_id": "b8d4867eee8c4f05051eab397b992600", "lon": -76.957573, "rental_uris": {"ios": "https://dc.lft.to/lastmile_qr_scan", "android": "https://dc.lft.to/lastmile_qr_scan"}}, {"name": "412d39d446f29970dd621f03c503a249", "fusion_lat": 0.0, "type": "electric_bike", "lat": 38.8382835, "is_reserved": 0, "is_disabled": 0, "fusion_lon": 0.0, "bike_id": "412d39d446f29970dd621f03c503a249", "lon": -76.99682483333333, "rental_uris": {"ios": "https://dc.lft.to/lastmile_qr_scan", "android": "https://dc.lft.to/lastmile_qr_scan"}}, {"name": "c54147a41eb4e489924003292f4fc6b4", "fusion_lat": 0.0, "type": "electric_scooter", "lat": 38.907778666666665, "is_reserved": 0, "is_disabled": 0, "fusion_lon": 0.0, "bike_id": "c54147a41eb4e489924003292f4fc6b4", "lon": -77.071645, "rental_uris": {"ios": "https://dc.lft.to/lastmile_qr_scan", "android": "https://dc.lft.to/lastmile_qr_scan"}}, {"name": "1922a731bc073c4c93ffe55fa37ba2f5", "fusion_lat": 0.0, "type": "electric_scooter", "lat": 38.89738766666667, "is_reserved": 0, "is_disabled": 0, "fusion_lon": 0.0, "bike_id": "1922a731bc073c4c93ffe55fa37ba2f5", "lon": -76.93846283333333, "rental_uris": {"ios": "https://dc.lft.to/lastmile_qr_scan", "android": "https://dc.lft.to/lastmile_qr_scan"}}, {"name": "cd751001f9685354d894427c8ebce441", "fusion_lat": 0.0, "type": "electric_scooter", "lat": 38.93780683333333, "is_reserved": 0, "is_disabled": 0, "fusion_lon": 0.0, "bike_id": "cd751001f9685354d894427c8ebce441", "lon": -77.05998, "rental_uris": {"ios": "https://dc.lft.to/lastmile_qr_scan", "android": "https://dc.lft.to/lastmile_qr_scan"}}, {"name": "6439690f8ff6bf5fddf3d935c825d002", "fusion_lat": 0.0, "type": "electric_scooter", "lat": 38.905091, "is_reserved": 0, "is_disabled": 0, "fusion_lon": 0.0, "bike_id": "6439690f8ff6bf5fddf3d935c825d002", "lon": -77.0693995, "rental_uris": {"ios": "https://dc.lft.to/lastmile_qr_scan", "android": "https://dc.lft.to/lastmile_qr_scan"}}, {"name": "354e64631be4be43264cd2dc788547c7", "fusion_lat": 0.0, "type": "electric_scooter", "lat": 38.9508385, "is_reserved": 0, "is_disabled": 0, "fusion_lon": 0.0, "bike_id": "354e64631be4be43264cd2dc788547c7", "lon": -77.02838216666666, "rental_uris": {"ios": "https://dc.lft.to/lastmile_qr_scan", "android": "https://dc.lft.to/lastmile_qr_scan"}}, {"name": "7320ef9056877372689ff79ecd3d34f9", "fusion_lat": 0.0, "type": "electric_scooter", "lat": 38.938711833333336, "is_reserved": 0, "is_disabled": 0, "fusion_lon": 0.0, "bike_id": "7320ef9056877372689ff79ecd3d34f9", "lon": -77.03217733333334, "rental_uris": {"ios": "https://dc.lft.to/lastmile_qr_scan", "android": "https://dc.lft.to/lastmile_qr_scan"}}, {"name": "f92b91afc765de83e7c2cfdaad216533", "fusion_lat": 0.0, "type": "electric_scooter", "lat": 38.907379, "is_reserved": 0, "is_disabled": 0, "fusion_lon": 0.0, "bike_id": "f92b91afc765de83e7c2cfdaad216533", "lon": -77.04664316666667, "rental_uris": {"ios": "https://dc.lft.to/lastmile_qr_scan", "android": "https://dc.lft.to/lastmile_qr_scan"}}, {"name": "d21099533656ae422e84672d37f62f59", "fusion_lat": 0.0, "type": "electric_scooter", "lat": 38.8923785, "is_reserved": 0, "is_disabled": 0, "fusion_lon": 0.0, "bike_id": "d21099533656ae422e84672d37f62f59", "lon": -77.03188683333333, "rental_uris": {"ios": "https://dc.lft.to/lastmile_qr_scan", "android": "https://dc.lft.to/lastmile_qr_scan"}}, {"name": "b6ac3339330ba3e9785115eddc07d1ad", "fusion_lat": 0.0, "type": "electric_scooter", "lat": 38.9118735, "is_reserved": 0, "is_disabled": 0, "fusion_lon": 0.0, "bike_id": "b6ac3339330ba3e9785115eddc07d1ad", "lon": -77.00729533333333, "rental_uris": {"ios": "https://dc.lft.to/lastmile_qr_scan", "android": "https://dc.lft.to/lastmile_qr_scan"}}, {"name": "38e8a4c2f7b80236b934b05aadcffa19", "fusion_lat": 0.0, "type": "electric_scooter", "lat": 38.92557733333334, "is_reserved": 0, "is_disabled": 0, "fusion_lon": 0.0, "bike_id": "38e8a4c2f7b80236b934b05aadcffa19", "lon": -77.0327265, "rental_uris": {"ios": "https://dc.lft.to/lastmile_qr_scan", "android": "https://dc.lft.to/lastmile_qr_scan"}}, {"name": "d1fc6e4045cb6156b1e13f40ec5c2fb5", "fusion_lat": 0.0, "type": "electric_scooter", "lat": 38.91107566666667, "is_reserved": 0, "is_disabled": 0, "fusion_lon": 0.0, "bike_id": "d1fc6e4045cb6156b1e13f40ec5c2fb5", "lon": -77.010615, "rental_uris": {"ios": "https://dc.lft.to/lastmile_qr_scan", "android": "https://dc.lft.to/lastmile_qr_scan"}}, {"name": "967ad3109b6098ee23c37a2fbd737c97", "fusion_lat": 0.0, "type": "electric_scooter", "lat": 38.902711833333335, "is_reserved": 0, "is_disabled": 0, "fusion_lon": 0.0, "bike_id": "967ad3109b6098ee23c37a2fbd737c97", "lon": -77.01538833333333, "rental_uris": {"ios": "https://dc.lft.to/lastmile_qr_scan", "android": "https://dc.lft.to/lastmile_qr_scan"}}, {"name": "fef0a9d3060987d1d4d3ea5e0a1ba7fa", "fusion_lat": 0.0, "type": "electric_scooter", "lat": 38.923170999999996, "is_reserved": 0, "is_disabled": 0, "fusion_lon": 0.0, "bike_id": "fef0a9d3060987d1d4d3ea5e0a1ba7fa", "lon": -77.0395415, "rental_uris": {"ios": "https://dc.lft.to/lastmile_qr_scan", "android": "https://dc.lft.to/lastmile_qr_scan"}}, {"name": "3a8c559ca8ebf2698c8dfb075bd36dc6", "fusion_lat": 0.0, "type": "electric_scooter", "lat": 38.90539183333333, "is_reserved": 0, "is_disabled": 0, "fusion_lon": 0.0, "bike_id": "3a8c559ca8ebf2698c8dfb075bd36dc6", "lon": -77.06270616666667, "rental_uris": {"ios": "https://dc.lft.to/lastmile_qr_scan", "android": "https://dc.lft.to/lastmile_qr_scan"}}, {"name": "313479b7d91fbe848ebe07939f4c9212", "fusion_lat": 0.0, "type": "electric_scooter", "lat": 38.89556266666666, "is_reserved": 0, "is_disabled": 0, "fusion_lon": 0.0, "bike_id": "313479b7d91fbe848ebe07939f4c9212", "lon": -77.0110265, "rental_uris": {"ios": "https://dc.lft.to/lastmile_qr_scan", "android": "https://dc.lft.to/lastmile_qr_scan"}}, {"name": "8855a60fb4546102566791fbb8c55b2e", "fusion_lat": 0.0, "type": "electric_scooter", "lat": 38.939406, "is_reserved": 0, "is_disabled": 0, "fusion_lon": 0.0, "bike_id": "8855a60fb4546102566791fbb8c55b2e", "lon": -77.036216, "rental_uris": {"ios": "https://dc.lft.to/lastmile_qr_scan", "android": "https://dc.lft.to/lastmile_qr_scan"}}, {"name": "062a702a69791a37d6ffda1be4cd8cec", "fusion_lat": 0.0, "type": "electric_scooter", "lat": 38.91987666666667, "is_reserved": 0, "is_disabled": 0, "fusion_lon": 0.0, "bike_id": "062a702a69791a37d6ffda1be4cd8cec", "lon": -77.03194483333333, "rental_uris": {"ios": "https://dc.lft.to/lastmile_qr_scan", "android": "https://dc.lft.to/lastmile_qr_scan"}}, {"name": "d5459a213bd6f012a6daee9f65868db3", "fusion_lat": 0.0, "type": "electric_scooter", "lat": 38.924330166666664, "is_reserved": 0, "is_disabled": 0, "fusion_lon": 0.0, "bike_id": "d5459a213bd6f012a6daee9f65868db3", "lon": -77.04224133333334, "rental_uris": {"ios": "https://dc.lft.to/lastmile_qr_scan", "android": "https://dc.lft.to/lastmile_qr_scan"}}, {"name": "1827b6ee1427cbeff2f018889449d513", "fusion_lat": 0.0, "type": "electric_scooter", "lat": 38.88514933333333, "is_reserved": 0, "is_disabled": 0, "fusion_lon": 0.0, "bike_id": "1827b6ee1427cbeff2f018889449d513", "lon": -77.02113033333333, "rental_uris": {"ios": "https://dc.lft.to/lastmile_qr_scan", "android": "https://dc.lft.to/lastmile_qr_scan"}}, {"name": "733b78debf86479cb0412942ef55ee66", "fusion_lat": 0.0, "type": "electric_scooter", "lat": 38.90755583333333, "is_reserved": 0, "is_disabled": 0, "fusion_lon": 0.0, "bike_id": "733b78debf86479cb0412942ef55ee66", "lon": -77.035755, "rental_uris": {"ios": "https://dc.lft.to/lastmile_qr_scan", "android": "https://dc.lft.to/lastmile_qr_scan"}}, {"name": "60936a71bfd68d27227c85281ef23674", "fusion_lat": 0.0, "type": "electric_scooter", "lat": 38.8666215, "is_reserved": 0, "is_disabled": 0, "fusion_lon": 0.0, "bike_id": "60936a71bfd68d27227c85281ef23674", "lon": -76.98883316666667, "rental_uris": {"ios": "https://dc.lft.to/lastmile_qr_scan", "android": "https://dc.lft.to/lastmile_qr_scan"}}, {"name": "37543c4677135f801bf6457dcbd3650d", "fusion_lat": 0.0, "type": "electric_scooter", "lat": 38.92429766666667, "is_reserved": 0, "is_disabled": 0, "fusion_lon": 0.0, "bike_id": "37543c4677135f801bf6457dcbd3650d", "lon": -77.04246883333333, "rental_uris": {"ios": "https://dc.lft.to/lastmile_qr_scan", "android": "https://dc.lft.to/lastmile_qr_scan"}}, {"name": "4bd91734259e0fdf6285bc03d48b6611", "fusion_lat": 0.0, "type": "electric_scooter", "lat": 38.920374333333335, "is_reserved": 0, "is_disabled": 0, "fusion_lon": 0.0, "bike_id": "4bd91734259e0fdf6285bc03d48b6611", "lon": -77.07147966666666, "rental_uris": {"ios": "https://dc.lft.to/lastmile_qr_scan", "android": "https://dc.lft.to/lastmile_qr_scan"}}, {"name": "f3935d17a22c4f4205cb93abde37729a", "fusion_lat": 0.0, "type": "electric_scooter", "lat": 38.887366, "is_reserved": 0, "is_disabled": 0, "fusion_lon": 0.0, "bike_id": "f3935d17a22c4f4205cb93abde37729a", "lon": -77.03192416666667, "rental_uris": {"ios": "https://dc.lft.to/lastmile_qr_scan", "android": "https://dc.lft.to/lastmile_qr_scan"}}, {"name": "79d4aa1bd9f4dec646d26c6905f7c230", "fusion_lat": 0.0, "type": "electric_scooter", "lat": 38.929378666666665, "is_reserved": 0, "is_disabled": 0, "fusion_lon": 0.0, "bike_id": "79d4aa1bd9f4dec646d26c6905f7c230", "lon": -77.03676066666667, "rental_uris": {"ios": "https://dc.lft.to/lastmile_qr_scan", "android": "https://dc.lft.to/lastmile_qr_scan"}}, {"name": "e3c5e790a1fbe82bf4baaba19a5eed83", "fusion_lat": 0.0, "type": "electric_scooter", "lat": 38.9013725, "is_reserved": 0, "is_disabled": 0, "fusion_lon": 0.0, "bike_id": "e3c5e790a1fbe82bf4baaba19a5eed83", "lon": -77.04228133333334, "rental_uris": {"ios": "https://dc.lft.to/lastmile_qr_scan", "android": "https://dc.lft.to/lastmile_qr_scan"}}, {"name": "0245bbec20611e95f1c3641a61caf4b9", "fusion_lat": 0.0, "type": "electric_scooter", "lat": 38.946016166666666, "is_reserved": 0, "is_disabled": 0, "fusion_lon": 0.0, "bike_id": "0245bbec20611e95f1c3641a61caf4b9", "lon": -77.0298005, "rental_uris": {"ios": "https://dc.lft.to/lastmile_qr_scan", "android": "https://dc.lft.to/lastmile_qr_scan"}}, {"name": "b2cff70b633d625c67c4375b16cb55f7", "fusion_lat": 0.0, "type": "electric_scooter", "lat": 38.9194845, "is_reserved": 0, "is_disabled": 0, "fusion_lon": 0.0, "bike_id": "b2cff70b633d625c67c4375b16cb55f7", "lon": -77.03238033333334, "rental_uris": {"ios": "https://dc.lft.to/lastmile_qr_scan", "android": "https://dc.lft.to/lastmile_qr_scan"}}, {"name": "56e1cf9cd6df9d9c225a2f71d71bc355", "fusion_lat": 0.0, "type": "electric_scooter", "lat": 38.90046783333333, "is_reserved": 0, "is_disabled": 0, "fusion_lon": 0.0, "bike_id": "56e1cf9cd6df9d9c225a2f71d71bc355", "lon": -77.00068316666666, "rental_uris": {"ios": "https://dc.lft.to/lastmile_qr_scan", "android": "https://dc.lft.to/lastmile_qr_scan"}}, {"name": "6a91d5230015d34dec12bd3c79138498", "fusion_lat": 0.0, "type": "electric_scooter", "lat": 38.91599183333334, "is_reserved": 0, "is_disabled": 0, "fusion_lon": 0.0, "bike_id": "6a91d5230015d34dec12bd3c79138498", "lon": -77.0416075, "rental_uris": {"ios": "https://dc.lft.to/lastmile_qr_scan", "android": "https://dc.lft.to/lastmile_qr_scan"}}, {"name": "db828fb7931b0192997dda2a536f480e", "fusion_lat": 0.0, "type": "electric_scooter", "lat": 38.93608533333333, "is_reserved": 0, "is_disabled": 0, "fusion_lon": 0.0, "bike_id": "db828fb7931b0192997dda2a536f480e", "lon": -77.05863783333334, "rental_uris": {"ios": "https://dc.lft.to/lastmile_qr_scan", "android": "https://dc.lft.to/lastmile_qr_scan"}}, {"name": "bfd288a16ee899ca8e5c22f20df1413d", "fusion_lat": 0.0, "type": "electric_scooter", "lat": 38.91119783333333, "is_reserved": 0, "is_disabled": 0, "fusion_lon": 0.0, "bike_id": "bfd288a16ee899ca8e5c22f20df1413d", "lon": -77.03733, "rental_uris": {"ios": "https://dc.lft.to/lastmile_qr_scan", "android": "https://dc.lft.to/lastmile_qr_scan"}}, {"name": "839b98d03b62b93c6aaeb0da6ea02ec5", "fusion_lat": 0.0, "type": "electric_scooter", "lat": 38.8835445, "is_reserved": 0, "is_disabled": 0, "fusion_lon": 0.0, "bike_id": "839b98d03b62b93c6aaeb0da6ea02ec5", "lon": -76.99610366666667, "rental_uris": {"ios": "https://dc.lft.to/lastmile_qr_scan", "android": "https://dc.lft.to/lastmile_qr_scan"}}, {"name": "468697fae0cdc63b04080ffc7b3d680f", "fusion_lat": 0.0, "type": "electric_scooter", "lat": 38.9233785, "is_reserved": 0, "is_disabled": 0, "fusion_lon": 0.0, "bike_id": "468697fae0cdc63b04080ffc7b3d680f", "lon": -77.0418525, "rental_uris": {"ios": "https://dc.lft.to/lastmile_qr_scan", "android": "https://dc.lft.to/lastmile_qr_scan"}}, {"name": "2b52ea22d581dae2ca34f480cfe146d4", "fusion_lat": 0.0, "type": "electric_scooter", "lat": 38.92577633333333, "is_reserved": 0, "is_disabled": 0, "fusion_lon": 0.0, "bike_id": "2b52ea22d581dae2ca34f480cfe146d4", "lon": -77.0437605, "rental_uris": {"ios": "https://dc.lft.to/lastmile_qr_scan", "android": "https://dc.lft.to/lastmile_qr_scan"}}, {"name": "1a99b17552649d0e78cf9be324f6562a", "fusion_lat": 0.0, "type": "electric_scooter", "lat": 38.909512166666666, "is_reserved": 0, "is_disabled": 0, "fusion_lon": 0.0, "bike_id": "1a99b17552649d0e78cf9be324f6562a", "lon": -77.04937316666667, "rental_uris": {"ios": "https://dc.lft.to/lastmile_qr_scan", "android": "https://dc.lft.to/lastmile_qr_scan"}}, {"name": "65187b15bc5acb57896f2c6866e3661d", "fusion_lat": 0.0, "type": "electric_scooter", "lat": 38.9178, "is_reserved": 0, "is_disabled": 0, "fusion_lon": 0.0, "bike_id": "65187b15bc5acb57896f2c6866e3661d", "lon": -77.023095, "rental_uris": {"ios": "https://dc.lft.to/lastmile_qr_scan", "android": "https://dc.lft.to/lastmile_qr_scan"}}, {"name": "bc3ab533c21597964315a490466be0fc", "fusion_lat": 0.0, "type": "electric_scooter", "lat": 38.917978833333336, "is_reserved": 0, "is_disabled": 0, "fusion_lon": 0.0, "bike_id": "bc3ab533c21597964315a490466be0fc", "lon": -77.0281305, "rental_uris": {"ios": "https://dc.lft.to/lastmile_qr_scan", "android": "https://dc.lft.to/lastmile_qr_scan"}}, {"name": "a69b5cd8f2dcd392becf0232e1d1151b", "fusion_lat": 0.0, "type": "electric_scooter", "lat": 38.92210333333333, "is_reserved": 0, "is_disabled": 0, "fusion_lon": 0.0, "bike_id": "a69b5cd8f2dcd392becf0232e1d1151b", "lon": -77.04242466666666, "rental_uris": {"ios": "https://dc.lft.to/lastmile_qr_scan", "android": "https://dc.lft.to/lastmile_qr_scan"}}, {"name": "c4fcbee1af0ff003af331c1985344986", "fusion_lat": 0.0, "type": "electric_scooter", "lat": 38.931071833333334, "is_reserved": 0, "is_disabled": 0, "fusion_lon": 0.0, "bike_id": "c4fcbee1af0ff003af331c1985344986", "lon": -77.02417566666666, "rental_uris": {"ios": "https://dc.lft.to/lastmile_qr_scan", "android": "https://dc.lft.to/lastmile_qr_scan"}}, {"name": "7933ea7b129704e81b518644e8c5afbe", "fusion_lat": 0.0, "type": "electric_scooter", "lat": 38.90140783333333, "is_reserved": 0, "is_disabled": 0, "fusion_lon": 0.0, "bike_id": "7933ea7b129704e81b518644e8c5afbe", "lon": -76.99969683333333, "rental_uris": {"ios": "https://dc.lft.to/lastmile_qr_scan", "android": "https://dc.lft.to/lastmile_qr_scan"}}, {"name": "bbce09f784871e8c4d2ea4f180cb0fae", "fusion_lat": 0.0, "type": "electric_scooter", "lat": 38.93961766666666, "is_reserved": 0, "is_disabled": 0, "fusion_lon": 0.0, "bike_id": "bbce09f784871e8c4d2ea4f180cb0fae", "lon": -77.03281783333334, "rental_uris": {"ios": "https://dc.lft.to/lastmile_qr_scan", "android": "https://dc.lft.to/lastmile_qr_scan"}}, {"name": "a5cfe92681edef9204a089926134747d", "fusion_lat": 0.0, "type": "electric_scooter", "lat": 38.91423916666667, "is_reserved": 0, "is_disabled": 0, "fusion_lon": 0.0, "bike_id": "a5cfe92681edef9204a089926134747d", "lon": -77.0261245, "rental_uris": {"ios": "https://dc.lft.to/lastmile_qr_scan", "android": "https://dc.lft.to/lastmile_qr_scan"}}, {"name": "c282546a1a780c9aec3736bec86634b0", "fusion_lat": 0.0, "type": "electric_scooter", "lat": 38.90295116666667, "is_reserved": 0, "is_disabled": 0, "fusion_lon": 0.0, "bike_id": "c282546a1a780c9aec3736bec86634b0", "lon": -77.0320575, "rental_uris": {"ios": "https://dc.lft.to/lastmile_qr_scan", "android": "https://dc.lft.to/lastmile_qr_scan"}}, {"name": "44d179048fc085d9234b5383639411fd", "fusion_lat": 0.0, "type": "electric_scooter", "lat": 38.889319666666665, "is_reserved": 0, "is_disabled": 0, "fusion_lon": 0.0, "bike_id": "44d179048fc085d9234b5383639411fd", "lon": -76.9478265, "rental_uris": {"ios": "https://dc.lft.to/lastmile_qr_scan", "android": "https://dc.lft.to/lastmile_qr_scan"}}, {"name": "52cd524378e033c259ec8b1008adf2a9", "fusion_lat": 0.0, "type": "electric_bike", "lat": 38.838632833333335, "is_reserved": 0, "is_disabled": 0, "fusion_lon": 0.0, "bike_id": "52cd524378e033c259ec8b1008adf2a9", "lon": -77.08862583333334, "rental_uris": {"ios": "https://dc.lft.to/lastmile_qr_scan", "android": "https://dc.lft.to/lastmile_qr_scan"}}, {"name": "c81aaa27673e9d52c57ce2d2696a880e", "fusion_lat": 0.0, "type": "electric_bike", "lat": 38.973222, "is_reserved": 0, "is_disabled": 0, "fusion_lon": 0.0, "bike_id": "c81aaa27673e9d52c57ce2d2696a880e", "lon": -77.02148816666667, "rental_uris": {"ios": "https://dc.lft.to/lastmile_qr_scan", "android": "https://dc.lft.to/lastmile_qr_scan"}}, {"name": "3ad7bbfa21a0331c6ce630df639f1f53", "fusion_lat": 0.0, "type": "electric_scooter", "lat": 38.903187, "is_reserved": 0, "is_disabled": 0, "fusion_lon": 0.0, "bike_id": "3ad7bbfa21a0331c6ce630df639f1f53", "lon": -77.0381895, "rental_uris": {"ios": "https://dc.lft.to/lastmile_qr_scan", "android": "https://dc.lft.to/lastmile_qr_scan"}}, {"name": "b3bdc85e4c4df1fc7616d85606c4423d", "fusion_lat": 0.0, "type": "electric_scooter", "lat": 38.9036405, "is_reserved": 0, "is_disabled": 0, "fusion_lon": 0.0, "bike_id": "b3bdc85e4c4df1fc7616d85606c4423d", "lon": -77.0452265, "rental_uris": {"ios": "https://dc.lft.to/lastmile_qr_scan", "android": "https://dc.lft.to/lastmile_qr_scan"}}, {"name": "d520ce6d5d4dd00a6900fb1b569bb0f9", "fusion_lat": 0.0, "type": "electric_scooter", "lat": 38.93472216666667, "is_reserved": 0, "is_disabled": 0, "fusion_lon": 0.0, "bike_id": "d520ce6d5d4dd00a6900fb1b569bb0f9", "lon": -77.02844116666667, "rental_uris": {"ios": "https://dc.lft.to/lastmile_qr_scan", "android": "https://dc.lft.to/lastmile_qr_scan"}}, {"name": "42facd73440cf3df5211f1aadd703842", "fusion_lat": 0.0, "type": "electric_scooter", "lat": 38.92646333333333, "is_reserved": 0, "is_disabled": 0, "fusion_lon": 0.0, "bike_id": "42facd73440cf3df5211f1aadd703842", "lon": -77.03696866666667, "rental_uris": {"ios": "https://dc.lft.to/lastmile_qr_scan", "android": "https://dc.lft.to/lastmile_qr_scan"}}, {"name": "03b3e5729f0abb374cb9754c00e481d6", "fusion_lat": 0.0, "type": "electric_scooter", "lat": 38.902603166666665, "is_reserved": 0, "is_disabled": 0, "fusion_lon": 0.0, "bike_id": "03b3e5729f0abb374cb9754c00e481d6", "lon": -76.99601333333334, "rental_uris": {"ios": "https://dc.lft.to/lastmile_qr_scan", "android": "https://dc.lft.to/lastmile_qr_scan"}}, {"name": "dfc19f17ba101c3e76ab66bd2fc6caa1", "fusion_lat": 0.0, "type": "electric_scooter", "lat": 38.93764733333333, "is_reserved": 0, "is_disabled": 0, "fusion_lon": 0.0, "bike_id": "dfc19f17ba101c3e76ab66bd2fc6caa1", "lon": -77.0328435, "rental_uris": {"ios": "https://dc.lft.to/lastmile_qr_scan", "android": "https://dc.lft.to/lastmile_qr_scan"}}, {"name": "a5f1d7c7e2f89fb97a48e1427f019468", "fusion_lat": 0.0, "type": "electric_scooter", "lat": 38.911917, "is_reserved": 0, "is_disabled": 0, "fusion_lon": 0.0, "bike_id": "a5f1d7c7e2f89fb97a48e1427f019468", "lon": -77.04463733333333, "rental_uris": {"ios": "https://dc.lft.to/lastmile_qr_scan", "android": "https://dc.lft.to/lastmile_qr_scan"}}, {"name": "dc66b0858b9af34bf655f0ffa906e5bb", "fusion_lat": 0.0, "type": "electric_scooter", "lat": 38.8891455, "is_reserved": 0, "is_disabled": 0, "fusion_lon": 0.0, "bike_id": "dc66b0858b9af34bf655f0ffa906e5bb", "lon": -76.9537665, "rental_uris": {"ios": "https://dc.lft.to/lastmile_qr_scan", "android": "https://dc.lft.to/lastmile_qr_scan"}}, {"name": "c1c214944163770b3b0d91a05f3241df", "fusion_lat": 0.0, "type": "electric_scooter", "lat": 38.928893333333335, "is_reserved": 0, "is_disabled": 0, "fusion_lon": 0.0, "bike_id": "c1c214944163770b3b0d91a05f3241df", "lon": -77.02317366666666, "rental_uris": {"ios": "https://dc.lft.to/lastmile_qr_scan", "android": "https://dc.lft.to/lastmile_qr_scan"}}, {"name": "d402112295d7fcfacb602ecceded039c", "fusion_lat": 0.0, "type": "electric_scooter", "lat": 38.905673166666666, "is_reserved": 0, "is_disabled": 0, "fusion_lon": 0.0, "bike_id": "d402112295d7fcfacb602ecceded039c", "lon": -77.02758416666667, "rental_uris": {"ios": "https://dc.lft.to/lastmile_qr_scan", "android": "https://dc.lft.to/lastmile_qr_scan"}}, {"name": "e32dfc0ee9f478828b12e5102e132844", "fusion_lat": 0.0, "type": "electric_scooter", "lat": 38.89204133333333, "is_reserved": 0, "is_disabled": 0, "fusion_lon": 0.0, "bike_id": "e32dfc0ee9f478828b12e5102e132844", "lon": -77.00231533333333, "rental_uris": {"ios": "https://dc.lft.to/lastmile_qr_scan", "android": "https://dc.lft.to/lastmile_qr_scan"}}, {"name": "178684f2d0fe7c473a566cb896582a25", "fusion_lat": 0.0, "type": "electric_scooter", "lat": 38.89960083333333, "is_reserved": 0, "is_disabled": 0, "fusion_lon": 0.0, "bike_id": "178684f2d0fe7c473a566cb896582a25", "lon": -77.0409845, "rental_uris": {"ios": "https://dc.lft.to/lastmile_qr_scan", "android": "https://dc.lft.to/lastmile_qr_scan"}}, {"name": "a29cd82582409a20834425494bc19e20", "fusion_lat": 0.0, "type": "electric_scooter", "lat": 38.922426, "is_reserved": 0, "is_disabled": 0, "fusion_lon": 0.0, "bike_id": "a29cd82582409a20834425494bc19e20", "lon": -77.03662583333333, "rental_uris": {"ios": "https://dc.lft.to/lastmile_qr_scan", "android": "https://dc.lft.to/lastmile_qr_scan"}}, {"name": "3690d8e28264ac2e3824a63c714ceeaa", "fusion_lat": 0.0, "type": "electric_scooter", "lat": 38.94301883333333, "is_reserved": 0, "is_disabled": 0, "fusion_lon": 0.0, "bike_id": "3690d8e28264ac2e3824a63c714ceeaa", "lon": -77.06806683333333, "rental_uris": {"ios": "https://dc.lft.to/lastmile_qr_scan", "android": "https://dc.lft.to/lastmile_qr_scan"}}, {"name": "46a791c207c9e7dba6e0bae9be7bfe77", "fusion_lat": 0.0, "type": "electric_scooter", "lat": 38.92313933333333, "is_reserved": 0, "is_disabled": 0, "fusion_lon": 0.0, "bike_id": "46a791c207c9e7dba6e0bae9be7bfe77", "lon": -77.029822, "rental_uris": {"ios": "https://dc.lft.to/lastmile_qr_scan", "android": "https://dc.lft.to/lastmile_qr_scan"}}, {"name": "ede2741de9454743bcbb67dc86986269", "fusion_lat": 0.0, "type": "electric_bike", "lat": 39.03045133333333, "is_reserved": 0, "is_disabled": 0, "fusion_lon": 0.0, "bike_id": "ede2741de9454743bcbb67dc86986269", "lon": -77.0947855, "rental_uris": {"ios": "https://dc.lft.to/lastmile_qr_scan", "android": "https://dc.lft.to/lastmile_qr_scan"}}, {"name": "a5f51f9148b54c18cc5b3689d79d47f5", "fusion_lat": 0.0, "type": "electric_scooter", "lat": 38.922664166666664, "is_reserved": 0, "is_disabled": 0, "fusion_lon": 0.0, "bike_id": "a5f51f9148b54c18cc5b3689d79d47f5", "lon": -77.034033, "rental_uris": {"ios": "https://dc.lft.to/lastmile_qr_scan", "android": "https://dc.lft.to/lastmile_qr_scan"}}, {"name": "5be48a9cc721c52289791d20a8abf7a0", "fusion_lat": 0.0, "type": "electric_scooter", "lat": 38.95402083333333, "is_reserved": 0, "is_disabled": 0, "fusion_lon": 0.0, "bike_id": "5be48a9cc721c52289791d20a8abf7a0", "lon": -77.02746416666666, "rental_uris": {"ios": "https://dc.lft.to/lastmile_qr_scan", "android": "https://dc.lft.to/lastmile_qr_scan"}}, {"name": "4bf186511f2c408689cf4a8fd5deeadf", "fusion_lat": 0.0, "type": "electric_scooter", "lat": 38.8941715, "is_reserved": 0, "is_disabled": 0, "fusion_lon": 0.0, "bike_id": "4bf186511f2c408689cf4a8fd5deeadf", "lon": -77.02166383333333, "rental_uris": {"ios": "https://dc.lft.to/lastmile_qr_scan", "android": "https://dc.lft.to/lastmile_qr_scan"}}, {"name": "94fb18db4d4079a2fd85f571a5f29aa9", "fusion_lat": 0.0, "type": "electric_scooter", "lat": 38.90014516666667, "is_reserved": 0, "is_disabled": 0, "fusion_lon": 0.0, "bike_id": "94fb18db4d4079a2fd85f571a5f29aa9", "lon": -76.99469383333333, "rental_uris": {"ios": "https://dc.lft.to/lastmile_qr_scan", "android": "https://dc.lft.to/lastmile_qr_scan"}}, {"name": "40e8d1b07098f7067b33c2bc05a2892b", "fusion_lat": 0.0, "type": "electric_scooter", "lat": 38.914164, "is_reserved": 0, "is_disabled": 0, "fusion_lon": 0.0, "bike_id": "40e8d1b07098f7067b33c2bc05a2892b", "lon": -77.0449885, "rental_uris": {"ios": "https://dc.lft.to/lastmile_qr_scan", "android": "https://dc.lft.to/lastmile_qr_scan"}}, {"name": "574e33b0838f06042be63cf9cdead977", "fusion_lat": 0.0, "type": "electric_scooter", "lat": 38.935804833333336, "is_reserved": 0, "is_disabled": 0, "fusion_lon": 0.0, "bike_id": "574e33b0838f06042be63cf9cdead977", "lon": -77.02844033333334, "rental_uris": {"ios": "https://dc.lft.to/lastmile_qr_scan", "android": "https://dc.lft.to/lastmile_qr_scan"}}, {"name": "5c384d25b9bdc0cc52205d0d051e98eb", "fusion_lat": 0.0, "type": "electric_scooter", "lat": 38.908095333333335, "is_reserved": 0, "is_disabled": 0, "fusion_lon": 0.0, "bike_id": "5c384d25b9bdc0cc52205d0d051e98eb", "lon": -77.04345666666667, "rental_uris": {"ios": "https://dc.lft.to/lastmile_qr_scan", "android": "https://dc.lft.to/lastmile_qr_scan"}},