{"data": {"bikes": [{"fusion_lat": 0.0, "type": "electric_scooter", "name": "42cd2ed13dc0ae80353fe091177ec71b", "fusion_lon": 0.0, "bike_id": "42cd2ed13dc0ae80353fe091177ec71b", "is_reserved": 0, "rental_uris": {"android": "https://dc.lft.to/lastmile_qr_scan", "ios": "https://dc.lft.to/lastmile_qr_scan"}, "lat": 38.9169425, "is_disabled": 0, "lon": -77.04054866666667}, {"fusion_lat": 0.0, "type": "electric_scooter", "name": "7278ce049dc27bae6d469b723179ad2d", "fusion_lon": 0.0, "bike_id": "7278ce049dc27bae6d469b723179ad2d", "is_reserved": 0, "rental_uris": {"android": "https://dc.lft.to/lastmile_qr_scan", "ios": "https://dc.lft.to/lastmile_qr_scan"}, "lat": 38.91547933333333, "is_disabled": 0, "lon": -77.03852266666667}, {"fusion_lat": 0.0, "type": "electric_scooter", "name": "b64bde488404c892984ca9df6406cf78", "fusion_lon": 0.0, "bike_id": "b64bde488404c892984ca9df6406cf78", "is_reserved": 0, "rental_uris": {"android": "https://dc.lft.to/lastmile_qr_scan", "ios": "https://dc.lft.to/lastmile_qr_scan"}, "lat": 38.894261666666665, "is_disabled": 0, "lon": -76.94877983333333}, {"fusion_lat": 0.0, "type": "electric_scooter", "name": "32039a2e054e8463cd2d75292b22aa76", "fusion_lon": 0.0, "bike_id": "32039a2e054e8463cd2d75292b22aa76", "is_reserved": 0, "rental_uris": {"android": "https://dc.lft.to/lastmile_qr_scan", "ios": "https://dc.lft.to/lastmile_qr_scan"}, "lat": 38.920550666666664, "is_disabled": 0, "lon": -77.03651733333334}, {"fusion_lat": 0.0, "type": "electric_scooter", "name": "01b5cd2109a7d5918e225c02a47226d6", "fusion_lon": 0.0, "bike_id": "01b5cd2109a7d5918e225c02a47226d6", "is_reserved": 0, "rental_uris": {"android": "https://dc.lft.to/lastmile_qr_scan", "ios": "https://dc.lft.to/lastmile_qr_scan"}, "lat": 38.931658, "is_disabled": 0, "lon": -77.05605616666666}, {"fusion_lat": 0.0, "type": "electric_scooter", "name": "bde24b1fcfacb34f3c7d87608d2365f7", "fusion_lon": 0.0, "bike_id": "bde24b1fcfacb34f3c7d87608d2365f7", "is_reserved": 0, "rental_uris": {"android": "https://dc.lft.to/lastmile_qr_scan", "ios": "https://dc.lft.to/lastmile_qr_scan"}, "lat": 38.921959333333334, "is_disabled": 0, "lon": -77.04235333333334}, {"fusion_lat": 0.0, "type": "electric_scooter", "name": "5c00ee12f5d84b64ad05a258ec3dd480", "fusion_lon": 0.0, "bike_id": "5c00ee12f5d84b64ad05a258ec3dd480", "is_reserved": 0, "rental_uris": {"android": "https://dc.lft.to/lastmile_qr_scan", "ios": "https://dc.lft.to/lastmile_qr_scan"}, "lat": 38.8910035, "is_disabled": 0, "lon": -77.002834}, {"fusion_lat": 0.0, "type": "electric_scooter", "name": "6ee1aa366e6a2eedf2c17cd19cdb67f1", "fusion_lon": 0.0, "bike_id": "6ee1aa366e6a2eedf2c17cd19cdb67f1", "is_reserved": 0, "rental_uris": {"android": "https://dc.lft.to/lastmile_qr_scan", "ios": "https://dc.lft.to/lastmile_qr_scan"}, "lat": 38.941013, "is_disabled": 0, "lon": -77.021079}, {"fusion_lat": 0.0, "type": "electric_scooter", "name": "06240bdad455ad0dc7e652b42a939bc0", "fusion_lon": 0.0, "bike_id": "06240bdad455ad0dc7e652b42a939bc0", "is_reserved": 0, "rental_uris": {"android": "https://dc.lft.to/lastmile_qr_scan", "ios": "https://dc.lft.to/lastmile_qr_scan"}, "lat": 38.934031833333336, "is_disabled": 0, "lon": -77.04130883333333}, {"fusion_lat": 0.0, "type": "electric_scooter", "name": "ea5d19f93a279df2b80337dcd1fd1bc0", "fusion_lon": 0.0, "bike_id": "ea5d19f93a279df2b80337dcd1fd1bc0", "is_reserved": 0, "rental_uris": {"android": "https://dc.lft.to/lastmile_qr_scan", "ios": "https://dc.lft.to/lastmile_qr_scan"}, "lat": 38.894544333333336, "is_disabled": 0, "lon": -76.998337}, {"fusion_lat": 0.0, "type": "electric_scooter", "name": "857579df0d9211f9eb4c30a95b62e4b9", "fusion_lon": 0.0, "bike_id": "857579df0d9211f9eb4c30a95b62e4b9", "is_reserved": 0, "rental_uris": {"android": "https://dc.lft.to/lastmile_qr_scan", "ios": "https://dc.lft.to/lastmile_qr_scan"}, "lat": 38.922918333333335, "is_disabled": 0, "lon": -77.029619}, {"fusion_lat": 0.0, "type": "electric_scooter", "name": "33772803f797a52af2a5ea006f99082e", "fusion_lon": 0.0, "bike_id": "33772803f797a52af2a5ea006f99082e", "is_reserved": 0, "rental_uris": {"android": "https://dc.lft.to/lastmile_qr_scan", "ios": "https://dc.lft.to/lastmile_qr_scan"}, "lat": 38.91930766666667, "is_disabled": 0, "lon": -76.99939716666667}, {"fusion_lat": 0.0, "type": "electric_scooter", "name": "f508ccdd9119576be12b00fbd3686d0e", "fusion_lon": 0.0, "bike_id": "f508ccdd9119576be12b00fbd3686d0e", "is_reserved": 0, "rental_uris": {"android": "https://dc.lft.to/lastmile_qr_scan", "ios": "https://dc.lft.to/lastmile_qr_scan"}, "lat": 38.915857333333335, "is_disabled": 0, "lon": -77.04374416666667}, {"fusion_lat": 0.0, "type": "electric_scooter", "name": "6a49f73f45078adf54a1cc6ba6a64698", "fusion_lon": 0.0, "bike_id": "6a49f73f45078adf54a1cc6ba6a64698", "is_reserved": 0, "rental_uris": {"android": "https://dc.lft.to/lastmile_qr_scan", "ios": "https://dc.lft.to/lastmile_qr_scan"}, "lat": 38.90706016666667, "is_disabled": 0, "lon": -77.044808}, {"fusion_lat": 0.0, "type": "electric_scooter", "name": "38dbbc5c3e9ffac0176147e9e4be6b3c", "fusion_lon": 0.0, "bike_id": "38dbbc5c3e9ffac0176147e9e4be6b3c", "is_reserved": 0, "rental_uris": {"android": "https://dc.lft.to/lastmile_qr_scan", "ios": "https://dc.lft.to/lastmile_qr_scan"}, "lat": 38.924618833333334, "is_disabled": 0, "lon": -77.057598}, {"fusion_lat": 0.0, "type": "electric_bike", "name": "6bc3ff2f69c90c59c5d7e1c88ec2bb19", "fusion_lon": 0.0, "bike_id": "6bc3ff2f69c90c59c5d7e1c88ec2bb19", "is_reserved": 0, "rental_uris": {"android": "https://dc.lft.to/lastmile_qr_scan", "ios": "https://dc.lft.to/lastmile_qr_scan"}, "lat": 38.89561666666667, "is_disabled": 0, "lon": -77.1273095}, {"fusion_lat": 0.0, "type": "electric_scooter", "name": "f0323a2e496cb9cb509aecbf3cd4d57f", "fusion_lon": 0.0, "bike_id": "f0323a2e496cb9cb509aecbf3cd4d57f", "is_reserved": 0, "rental_uris": {"android": "https://dc.lft.to/lastmile_qr_scan", "ios": "https://dc.lft.to/lastmile_qr_scan"}, "lat": 38.91859683333333, "is_disabled": 0, "lon": -77.04597616666666}, {"fusion_lat": 0.0, "type": "electric_scooter", "name": "f5a49f5a858fc4dccf3dcc6fda5c783d", "fusion_lon": 0.0, "bike_id": "f5a49f5a858fc4dccf3dcc6fda5c783d", "is_reserved": 0, "rental_uris": {"android": "https://dc.lft.to/lastmile_qr_scan", "ios": "https://dc.lft.to/lastmile_qr_scan"}, "lat": 38.863786833333336, "is_disabled": 0, "lon": -76.990568}, {"fusion_lat": 0.0, "type": "electric_bike", "name": "73bb42f093bc0b53efc7f626c780d34c", "fusion_lon": 0.0, "bike_id": "73bb42f093bc0b53efc7f626c780d34c", "is_reserved": 0, "rental_uris": {"android": "https://dc.lft.to/lastmile_qr_scan", "ios": "https://dc.lft.to/lastmile_qr_scan"}, "lat": 38.90272083333333, "is_disabled": 0, "lon": -76.92926916666667}, {"fusion_lat": 0.0, "type": "electric_scooter", "name": "e166f13418caf52949a0538dd10adc3b", "fusion_lon": 0.0, "bike_id": "e166f13418caf52949a0538dd10adc3b", "is_reserved": 0, "rental_uris": {"android": "https://dc.lft.to/lastmile_qr_scan", "ios": "https://dc.lft.to/lastmile_qr_scan"}, "lat": 38.909572833333335, "is_disabled": 0, "lon": -77.05483466666666}, {"fusion_lat": 0.0, "type": "electric_scooter", "name": "2e4d23e73b644543a1d70583bc0c4709", "fusion_lon": 0.0, "bike_id": "2e4d23e73b644543a1d70583bc0c4709", "is_reserved": 0, "rental_uris": {"android": "https://dc.lft.to/lastmile_qr_scan", "ios": "https://dc.lft.to/lastmile_qr_scan"}, "lat": 38.911783166666666, "is_disabled": 0, "lon": -77.02955866666667}, {"fusion_lat": 0.0, "type": "electric_bike", "name": "6589cd12dc4f10a682d031b51bc10e02", "fusion_lon": 0.0, "bike_id": "6589cd12dc4f10a682d031b51bc10e02", "is_reserved": 0, "rental_uris": {"android": "https://dc.lft.to/lastmile_qr_scan", "ios": "https://dc.lft.to/lastmile_qr_scan"}, "lat": 39.04233816666667, "is_disabled": 0, "lon": -76.99736616666667}, {"fusion_lat": 0.0, "type": "electric_scooter", "name": "c24456bd0baf8fdbe54eb7323df6e5bf", "fusion_lon": 0.0, "bike_id": "c24456bd0baf8fdbe54eb7323df6e5bf", "is_reserved": 0, "rental_uris": {"android": "https://dc.lft.to/lastmile_qr_scan", "ios": "https://dc.lft.to/lastmile_qr_scan"}, "lat": 38.90951716666667, "is_disabled": 0, "lon": -77.0081225}, {"fusion_lat": 0.0, "type": "electric_scooter", "name": "49739c6103a7ec11c80536b8c3547983", "fusion_lon": 0.0, "bike_id": "49739c6103a7ec11c80536b8c3547983", "is_reserved": 0, "rental_uris": {"android": "https://dc.lft.to/lastmile_qr_scan", "ios": "https://dc.lft.to/lastmile_qr_scan"}, "lat": 38.913480166666666, "is_disabled": 0, "lon": -77.0318215}, {"fusion_lat": 0.0, "type": "electric_scooter", "name": "0a96af86d9ba1c6d37a90f7b9b946e69", "fusion_lon": 0.0, "bike_id": "0a96af86d9ba1c6d37a90f7b9b946e69", "is_reserved": 0, "rental_uris": {"android": "https://dc.lft.to/lastmile_qr_scan", "ios": "https://dc.lft.to/lastmile_qr_scan"}, "lat": 38.89226333333333, "is_disabled": 0, "lon": -77.04376016666667}, {"fusion_lat": 0.0, "type": "electric_scooter", "name": "21d5e5ea76d214de60d77e4b46e993d6", "fusion_lon": 0.0, "bike_id": "21d5e5ea76d214de60d77e4b46e993d6", "is_reserved": 0, "rental_uris": {"android": "https://dc.lft.to/lastmile_qr_scan", "ios": "https://dc.lft.to/lastmile_qr_scan"}, "lat": 38.894298166666665, "is_disabled": 0, "lon": -76.91158566666667}, {"fusion_lat": 0.0, "type": "electric_scooter", "name": "4668752f1cd2c61d145032fd0bab0cd3", "fusion_lon": 0.0, "bike_id": "4668752f1cd2c61d145032fd0bab0cd3", "is_reserved": 0, "rental_uris": {"android": "https://dc.lft.to/lastmile_qr_scan", "ios": "https://dc.lft.to/lastmile_qr_scan"}, "lat": 38.900302333333336, "is_disabled": 0, "lon": -77.029554}, {"fusion_lat": 0.0, "type": "electric_scooter", "name": "78a4c47c594dd88aeaa9fb5f9ae52cbf", "fusion_lon": 0.0, "bike_id": "78a4c47c594dd88aeaa9fb5f9ae52cbf", "is_reserved": 0, "rental_uris": {"android": "https://dc.lft.to/lastmile_qr_scan", "ios": "https://dc.lft.to/lastmile_qr_scan"}, "lat": 38.87681883333333, "is_disabled": 0, "lon": -76.9982585}, {"fusion_lat": 0.0, "type": "electric_scooter", "name": "c7f4380c6a9002269d463a6d92f58400", "fusion_lon": 0.0, "bike_id": "c7f4380c6a9002269d463a6d92f58400", "is_reserved": 0, "rental_uris": {"android": "https://dc.lft.to/lastmile_qr_scan", "ios": "https://dc.lft.to/lastmile_qr_scan"}, "lat": 38.8968035, "is_disabled": 0, "lon": -76.93535566666667}, {"fusion_lat": 0.0, "type": "electric_scooter", "name": "ab7f2112318afce5c1286d2a10c5ea5d", "fusion_lon": 0.0, "bike_id": "ab7f2112318afce5c1286d2a10c5ea5d", "is_reserved": 0, "rental_uris": {"android": "https://dc.lft.to/lastmile_qr_scan", "ios": "https://dc.lft.to/lastmile_qr_scan"}, "lat": 38.94183866666667, "is_disabled": 0, "lon": -77.02532033333334}, {"fusion_lat": 0.0, "type": "electric_scooter", "name": "fe00831e04ef506c0caa7aba5b1cb84c", "fusion_lon": 0.0, "bike_id": "fe00831e04ef506c0caa7aba5b1cb84c", "is_reserved": 0, "rental_uris": {"android": "https://dc.lft.to/lastmile_qr_scan", "ios": "https://dc.lft.to/lastmile_qr_scan"}, "lat": 38.916265, "is_disabled": 0, "lon": -77.031345}, {"fusion_lat": 0.0, "type": "electric_scooter", "name": "76575e382ba533af306b89a894df5750", "fusion_lon": 0.0, "bike_id": "76575e382ba533af306b89a894df5750", "is_reserved": 0, "rental_uris": {"android": "https://dc.lft.to/lastmile_qr_scan", "ios": "https://dc.lft.to/lastmile_qr_scan"}, "lat": 38.907771833333335, "is_disabled": 0, "lon": -77.01109416666667}, {"fusion_lat": 0.0, "type": "electric_scooter", "name": "b85dcd77b45928e96addd2c39e624d48", "fusion_lon": 0.0, "bike_id": "b85dcd77b45928e96addd2c39e624d48", "is_reserved": 0, "rental_uris": {"android": "https://dc.lft.to/lastmile_qr_scan", "ios": "https://dc.lft.to/lastmile_qr_scan"}, "lat": 38.915706666666665, "is_disabled": 0, "lon": -77.03859333333334}, {"fusion_lat": 0.0, "type": "electric_scooter", "name": "6413006dd1a273733eb6591ced1733bb", "fusion_lon": 0.0, "bike_id": "6413006dd1a273733eb6591ced1733bb", "is_reserved": 0, "rental_uris": {"android": "https://dc.lft.to/lastmile_qr_scan", "ios": "https://dc.lft.to/lastmile_qr_scan"}, "lat": 38.8936565, "is_disabled": 0, "lon": -77.054929}, {"fusion_lat": 0.0, "type": "electric_scooter", "name": "7892210706e4a5a199251930c1a42cf5", "fusion_lon": 0.0, "bike_id": "7892210706e4a5a199251930c1a42cf5", "is_reserved": 0, "rental_uris": {"android": "https://dc.lft.to/lastmile_qr_scan", "ios": "https://dc.lft.to/lastmile_qr_scan"}, "lat": 38.92711366666666, "is_disabled": 0, "lon": -77.02395183333333}, {"fusion_lat": 0.0, "type": "electric_scooter", "name": "1a36814de7317be4f57ff0b94fbff5b5", "fusion_lon": 0.0, "bike_id": "1a36814de7317be4f57ff0b94fbff5b5", "is_reserved": 0, "rental_uris": {"android": "https://dc.lft.to/lastmile_qr_scan", "ios": "https://dc.lft.to/lastmile_qr_scan"}, "lat": 38.907359, "is_disabled": 0, "lon": -77.03442733333333}, {"fusion_lat": 0.0, "type": "electric_scooter", "name": "51a92d6ca1d487fbfba42f2208cff7d6", "fusion_lon": 0.0, "bike_id": "51a92d6ca1d487fbfba42f2208cff7d6", "is_reserved": 0, "rental_uris": {"android": "https://dc.lft.to/lastmile_qr_scan", "ios": "https://dc.lft.to/lastmile_qr_scan"}, "lat": 38.89430216666667, "is_disabled": 0, "lon": -76.94879716666667}, {"fusion_lat": 0.0, "type": "electric_scooter", "name": "7e149cc8bd3c2286d8a67dd70e124a5c", "fusion_lon": 0.0, "bike_id": "7e149cc8bd3c2286d8a67dd70e124a5c", "is_reserved": 0, "rental_uris": {"android": "https://dc.lft.to/lastmile_qr_scan", "ios": "https://dc.lft.to/lastmile_qr_scan"}, "lat": 38.8922155, "is_disabled": 0, "lon": -77.0321515}, {"fusion_lat": 0.0, "type": "electric_scooter", "name": "532e8c695c08be55d0455bbe29fd5f45", "fusion_lon": 0.0, "bike_id": "532e8c695c08be55d0455bbe29fd5f45", "is_reserved": 0, "rental_uris": {"android": "https://dc.lft.to/lastmile_qr_scan", "ios": "https://dc.lft.to/lastmile_qr_scan"}, "lat": 38.9526095, "is_disabled": 0, "lon": -77.02569416666667}, {"fusion_lat": 0.0, "type": "electric_scooter", "name": "6a79afe48ab88ec24b7fc052b2210fc4", "fusion_lon": 0.0, "bike_id": "6a79afe48ab88ec24b7fc052b2210fc4", "is_reserved": 0, "rental_uris": {"android": "https://dc.lft.to/lastmile_qr_scan", "ios": "https://dc.lft.to/lastmile_qr_scan"}, "lat": 38.9239165, "is_disabled": 0, "lon": -77.02741233333333}, {"fusion_lat": 0.0, "type": "electric_scooter", "name": "d692562d6437be8c93ddc1eb6fa041c5", "fusion_lon": 0.0, "bike_id": "d692562d6437be8c93ddc1eb6fa041c5", "is_reserved": 0, "rental_uris": {"android": "https://dc.lft.to/lastmile_qr_scan", "ios": "https://dc.lft.to/lastmile_qr_scan"}, "lat": 38.88609233333333, "is_disabled": 0, "lon": -76.955827}, {"fusion_lat": 0.0, "type": "electric_scooter", "name": "c12b1e64e02fecfad33cb82d9528b096", "fusion_lon": 0.0, "bike_id": "c12b1e64e02fecfad33cb82d9528b096", "is_reserved": 0, "rental_uris": {"android": "https://dc.lft.to/lastmile_qr_scan", "ios": "https://dc.lft.to/lastmile_qr_scan"}, "lat": 38.89298766666667, "is_disabled": 0, "lon": -76.9982225}, {"fusion_lat": 0.0, "type": "electric_scooter", "name": "77b0d19870390dcf267ef2be46dc4efa", "fusion_lon": 0.0, "bike_id": "77b0d19870390dcf267ef2be46dc4efa", "is_reserved": 0, "rental_uris": {"android": "https://dc.lft.to/lastmile_qr_scan", "ios": "https://dc.lft.to/lastmile_qr_scan"}, "lat": 38.9206625, "is_disabled": 0, "lon": -77.03462533333334}, {"fusion_lat": 0.0, "type": "electric_scooter", "name": "1c1c0f8545aae072fcddd29cda3f57b8", "fusion_lon": 0.0, "bike_id": "1c1c0f8545aae072fcddd29cda3f57b8", "is_reserved": 0, "rental_uris": {"android": "https://dc.lft.to/lastmile_qr_scan", "ios": "https://dc.lft.to/lastmile_qr_scan"}, "lat": 38.923419833333334, "is_disabled": 0, "lon": -77.02433383333333}, {"fusion_lat": 0.0, "type": "electric_scooter", "name": "45b3b85504777c9408c1698ac536de59", "fusion_lon": 0.0, "bike_id": "45b3b85504777c9408c1698ac536de59", "is_reserved": 0, "rental_uris": {"android": "https://dc.lft.to/lastmile_qr_scan", "ios": "https://dc.lft.to/lastmile_qr_scan"}, "lat": 38.934059166666664, "is_disabled": 0, "lon": -77.0325905}, {"fusion_lat": 0.0, "type": "electric_scooter", "name": "3b8d1c0a90b806061adc8d55712f7d86", "fusion_lon": 0.0, "bike_id": "3b8d1c0a90b806061adc8d55712f7d86", "is_reserved": 0, "rental_uris": {"android": "https://dc.lft.to/lastmile_qr_scan", "ios": "https://dc.lft.to/lastmile_qr_scan"}, "lat": 38.91252583333333, "is_disabled": 0, "lon": -77.03308083333333}, {"fusion_lat": 0.0, "type": "electric_scooter", "name": "071fdeef04ac0465a1699adac379c8e8", "fusion_lon": 0.0, "bike_id": "071fdeef04ac0465a1699adac379c8e8", "is_reserved": 0, "rental_uris": {"android": "https://dc.lft.to/lastmile_qr_scan", "ios": "https://dc.lft.to/lastmile_qr_scan"}, "lat": 38.916947, "is_disabled": 0, "lon": -77.03490283333333}, {"fusion_lat": 0.0, "type": "electric_scooter", "name": "f73df9748dcf2eac23f809203186de22", "fusion_lon": 0.0, "bike_id": "f73df9748dcf2eac23f809203186de22", "is_reserved": 0, "rental_uris": {"android": "https://dc.lft.to/lastmile_qr_scan", "ios": "https://dc.lft.to/lastmile_qr_scan"}, "lat": 38.908863833333335, "is_disabled": 0, "lon": -77.02187766666667}, {"fusion_lat": 0.0, "type": "electric_scooter", "name": "4e910a0a670000e4335b5e2a2db15fd1", "fusion_lon": 0.0, "bike_id": "4e910a0a670000e4335b5e2a2db15fd1", "is_reserved": 0, "rental_uris": {"android": "https://dc.lft.to/lastmile_qr_scan", "ios": "https://dc.lft.to/lastmile_qr_scan"}, "lat": 38.9446425, "is_disabled": 0, "lon": -77.06025983333333}, {"fusion_lat": 0.0, "type": "electric_bike", "name": "8b4d35a3c451882f4e960bab80428143", "fusion_lon": 0.0, "bike_id": "8b4d35a3c451882f4e960bab80428143", "is_reserved": 0, "rental_uris": {"android": "https://dc.lft.to/lastmile_qr_scan", "ios": "https://dc.lft.to/lastmile_qr_scan"}, "lat": 38.9272645, "is_disabled": 0, "lon": -77.07331966666666}, {"fusion_lat": 0.0, "type": "electric_scooter", "name": "79b67c37e36ba25ab828c2a621d8a124", "fusion_lon": 0.0, "bike_id": "79b67c37e36ba25ab828c2a621d8a124", "is_reserved": 0, "rental_uris": {"android": "https://dc.lft.to/lastmile_qr_scan", "ios": "https://dc.lft.to/lastmile_qr_scan"}, "lat": 38.895689833333336, "is_disabled": 0, "lon": -77.04669683333333}, {"fusion_lat": 0.0, "type": "electric_scooter", "name": "4de66c03535dbb48dc0c1b776b0e776f", "fusion_lon": 0.0, "bike_id": "4de66c03535dbb48dc0c1b776b0e776f", "is_reserved": 0, "rental_uris": {"android": "https://dc.lft.to/lastmile_qr_scan", "ios": "https://dc.lft.to/lastmile_qr_scan"}, "lat": 38.90737333333333, "is_disabled": 0, "lon": -77.02693133333334}, {"fusion_lat": 0.0, "type": "electric_scooter", "name": "dc62047f13adaab47570a64c8530db0a", "fusion_lon": 0.0, "bike_id": "dc62047f13adaab47570a64c8530db0a", "is_reserved": 0, "rental_uris": {"android": "https://dc.lft.to/lastmile_qr_scan", "ios": "https://dc.lft.to/lastmile_qr_scan"}, "lat": 38.918777166666665, "is_disabled": 0, "lon": -77.03479816666666}, {"fusion_lat": 0.0, "type": "electric_scooter", "name": "1e8654dc3cac568065aeab7771668add", "fusion_lon": 0.0, "bike_id": "1e8654dc3cac568065aeab7771668add", "is_reserved": 0, "rental_uris": {"android": "https://dc.lft.to/lastmile_qr_scan", "ios": "https://dc.lft.to/lastmile_qr_scan"}, "lat": 38.904204666666665, "is_disabled": 0, "lon": -77.02953383333333}, {"fusion_lat": 0.0, "type": "electric_scooter", "name": "bc0dfcefbf1db412503290772c0d807c", "fusion_lon": 0.0, "bike_id": "bc0dfcefbf1db412503290772c0d807c", "is_reserved": 0, "rental_uris": {"android": "https://dc.lft.to/lastmile_qr_scan", "ios": "https://dc.lft.to/lastmile_qr_scan"}, "lat": 38.9290295, "is_disabled": 0, "lon": -77.05453233333333}, {"fusion_lat": 0.0, "type": "electric_scooter", "name": "efd31949c2c38b7c090f47267082bba4", "fusion_lon": 0.0, "bike_id": "efd31949c2c38b7c090f47267082bba4", "is_reserved": 0, "rental_uris": {"android": "https://dc.lft.to/lastmile_qr_scan", "ios": "https://dc.lft.to/lastmile_qr_scan"}, "lat": 38.880887666666666, "is_disabled": 0, "lon": -76.93008866666666}, {"fusion_lat": 0.0, "type": "electric_scooter", "name": "892ec7e3ceae752f0411fdfae8e1db3a", "fusion_lon": 0.0, "bike_id": "892ec7e3ceae752f0411fdfae8e1db3a", "is_reserved": 0, "rental_uris": {"android": "https://dc.lft.to/lastmile_qr_scan", "ios": "https://dc.lft.to/lastmile_qr_scan"}, "lat": 38.911236833333334, "is_disabled": 0, "lon": -77.06530533333333}, {"fusion_lat": 0.0, "type": "electric_scooter", "name": "4167c593b1817ee5cf59ff4911d596a0", "fusion_lon": 0.0, "bike_id": "4167c593b1817ee5cf59ff4911d596a0", "is_reserved": 0, "rental_uris": {"android": "https://dc.lft.to/lastmile_qr_scan", "ios": "https://dc.lft.to/lastmile_qr_scan"}, "lat": 38.9181015, "is_disabled": 0, "lon": -77.0317745}, {"fusion_lat": 0.0, "type": "electric_scooter", "name": "8e7d9a7645fc4ded54714ed08a14c029", "fusion_lon": 0.0, "bike_id": "8e7d9a7645fc4ded54714ed08a14c029", "is_reserved": 0, "rental_uris": {"android": "https://dc.lft.to/lastmile_qr_scan", "ios": "https://dc.lft.to/lastmile_qr_scan"}, "lat": 38.85199433333333, "is_disabled": 0, "lon": -76.9707105}, {"fusion_lat": 0.0, "type": "electric_scooter", "name": "998f1b53e9412f793b197919af721e76", "fusion_lon": 0.0, "bike_id": "998f1b53e9412f793b197919af721e76", "is_reserved": 0, "rental_uris": {"android": "https://dc.lft.to/lastmile_qr_scan", "ios": "https://dc.lft.to/lastmile_qr_scan"}, "lat": 38.892283666666664, "is_disabled": 0, "lon": -77.0318595}, {"fusion_lat": 0.0, "type": "electric_bike", "name": "be9e78819f3ee21ff3f72d263e966403", "fusion_lon": 0.0, "bike_id": "be9e78819f3ee21ff3f72d263e966403", "is_reserved": 0, "rental_uris": {"android": "https://dc.lft.to/lastmile_qr_scan", "ios": "https://dc.lft.to/lastmile_qr_scan"}, "lat": 38.8981125, "is_disabled": 0, "lon": -76.99086666666666}, {"fusion_lat": 0.0, "type": "electric_scooter", "name": "89b1005c690f7acb1613d3df4afef786", "fusion_lon": 0.0, "bike_id": "89b1005c690f7acb1613d3df4afef786", "is_reserved": 0, "rental_uris": {"android": "https://dc.lft.to/lastmile_qr_scan", "ios": "https://dc.lft.to/lastmile_qr_scan"}, "lat": 38.93386233333333, "is_disabled": 0, "lon": -77.0354775}, {"fusion_lat": 0.0, "type": "electric_scooter", "name": "fdf0e85441017bb396fe5aabee7caa00", "fusion_lon": 0.0, "bike_id": "fdf0e85441017bb396fe5aabee7caa00", "is_reserved": 0, "rental_uris": {"android": "https://dc.lft.to/lastmile_qr_scan", "ios": "https://dc.lft.to/lastmile_qr_scan"}, "lat": 38.91348266666667, "is_disabled": 0, "lon": -77.031809}, {"fusion_lat": 0.0, "type": "electric_bike", "name": "70098da35c98f315fd06453319a9b527", "fusion_lon": 0.0, "bike_id": "70098da35c98f315fd06453319a9b527", "is_reserved": 0, "rental_uris": {"android": "https://dc.lft.to/lastmile_qr_scan", "ios": "https://dc.lft.to/lastmile_qr_scan"}, "lat": 38.929662, "is_disabled": 0, "lon": -77.18561533333333}, {"fusion_lat": 0.0, "type": "electric_bike", "name": "a508ce5fb7f54d448c49c514940565b3", "fusion_lon": 0.0, "bike_id": "a508ce5fb7f54d448c49c514940565b3", "is_reserved": 0, "rental_uris": {"android": "https://dc.lft.to/lastmile_qr_scan", "ios": "https://dc.lft.to/lastmile_qr_scan"}, "lat": 38.954407833333335, "is_disabled": 0, "lon": -76.98913783333333}, {"fusion_lat": 0.0, "type": "electric_bike", "name": "e5fa6f11fb8e4e63d5cc917f581aca43", "fusion_lon": 0.0, "bike_id": "e5fa6f11fb8e4e63d5cc917f581aca43", "is_reserved": 0, "rental_uris": {"android": "https://dc.lft.to/lastmile_qr_scan", "ios": "https://dc.lft.to/lastmile_qr_scan"}, "lat": 38.93170816666667, "is_disabled": 0, "lon": -76.88400983333334}, {"fusion_lat": 0.0, "type": "electric_scooter", "name": "8c4f837c97cefe0a4dd6ccd3fc904857", "fusion_lon": 0.0, "bike_id": "8c4f837c97cefe0a4dd6ccd3fc904857", "is_reserved": 0, "rental_uris": {"android": "https://dc.lft.to/lastmile_qr_scan", "ios": "https://dc.lft.to/lastmile_qr_scan"}, "lat": 38.902407833333335, "is_disabled": 0, "lon": -77.03954233333333}, {"fusion_lat": 0.0, "type": "electric_bike", "name": "fa82c1a1f30f6d81f132df3969596d92", "fusion_lon": 0.0, "bike_id": "fa82c1a1f30f6d81f132df3969596d92", "is_reserved": 0, "rental_uris": {"android": "https://dc.lft.to/lastmile_qr_scan", "ios": "https://dc.lft.to/lastmile_qr_scan"}, "lat": 38.864906500000004, "is_disabled": 0, "lon": -76.97747966666667}, {"fusion_lat": 0.0, "type": "electric_bike", "name": "c69140c7bbe5cd8c45e60ce6e193e288", "fusion_lon": 0.0, "bike_id": "c69140c7bbe5cd8c45e60ce6e193e288", "is_reserved": 0, "rental_uris": {"android": "https://dc.lft.to/lastmile_qr_scan", "ios": "https://dc.lft.to/lastmile_qr_scan"}, "lat": 38.953307333333335, "is_disabled": 0, "lon": -76.98242116666667}, {"fusion_lat": 0.0, "type": "electric_scooter", "name": "28d18ca15813d804ac7503e3acc5bd1c", "fusion_lon": 0.0, "bike_id": "28d18ca15813d804ac7503e3acc5bd1c", "is_reserved": 0, "rental_uris": {"android": "https://dc.lft.to/lastmile_qr_scan", "ios": "https://dc.lft.to/lastmile_qr_scan"}, "lat": 38.9602615, "is_disabled": 0, "lon": -77.000531}, {"fusion_lat": 0.0, "type": "electric_bike", "name": "96615d3a8e1d4e6ad8038a71fab22443", "fusion_lon": 0.0, "bike_id": "96615d3a8e1d4e6ad8038a71fab22443", "is_reserved": 0, "rental_uris": {"android": "https://dc.lft.to/lastmile_qr_scan", "ios": "https://dc.lft.to/lastmile_qr_scan"}, "lat": 39.05499416666667, "is_disabled": 0, "lon": -77.04651616666666}, {"fusion_lat": 0.0, "type": "electric_scooter", "name": "053be1066cb74f7e43fb6932fc13a207", "fusion_lon": 0.0, "bike_id": "053be1066cb74f7e43fb6932fc13a207", "is_reserved": 0, "rental_uris": {"android": "https://dc.lft.to/lastmile_qr_scan", "ios": "https://dc.lft.to/lastmile_qr_scan"}, "lat": 38.949489666666665, "is_disabled": 0, "lon": -77.02445616666667}, {"fusion_lat": 0.0, "type": "electric_scooter", "name": "84d14f7d92739b6be4de4ecced82a2c6", "fusion_lon": 0.0, "bike_id": "84d14f7d92739b6be4de4ecced82a2c6", "is_reserved": 0, "rental_uris": {"android": "https://dc.lft.to/lastmile_qr_scan", "ios": "https://dc.lft.to/lastmile_qr_scan"}, "lat": 38.892205833333335, "is_disabled": 0, "lon": -77.0262555}, {"fusion_lat": 0.0, "type": "electric_scooter", "name": "61b3244446aeea527725c50b35b97aee", "fusion_lon": 0.0, "bike_id": "61b3244446aeea527725c50b35b97aee", "is_reserved": 0, "rental_uris": {"android": "https://dc.lft.to/lastmile_qr_scan", "ios": "https://dc.lft.to/lastmile_qr_scan"}, "lat": 38.93855933333333, "is_disabled": 0, "lon": -77.0247355}, {"fusion_lat": 0.0, "type": "electric_scooter", "name": "1b87ee31b31e53f8d0e6d69779925dc1", "fusion_lon": 0.0, "bike_id": "1b87ee31b31e53f8d0e6d69779925dc1", "is_reserved": 0, "rental_uris": {"android": "https://dc.lft.to/lastmile_qr_scan", "ios": "https://dc.lft.to/lastmile_qr_scan"}, "lat": 38.93478116666667, "is_disabled": 0, "lon": -77.02833083333333}, {"fusion_lat": 0.0, "type": "electric_bike", "name": "5226c1f4a70172dcc279894cc0643c78", "fusion_lon": 0.0, "bike_id": "5226c1f4a70172dcc279894cc0643c78", "is_reserved": 0, "rental_uris": {"android": "https://dc.lft.to/lastmile_qr_scan", "ios": "https://dc.lft.to/lastmile_qr_scan"}, "lat": 38.967491, "is_disabled": 0, "lon": -76.981927}, {"fusion_lat": 0.0, "type": "electric_bike", "name": "2a8b3bfe3066c06f4e335fc165dba024", "fusion_lon": 0.0, "bike_id": "2a8b3bfe3066c06f4e335fc165dba024", "is_reserved": 0, "rental_uris": {"android": "https://dc.lft.to/lastmile_qr_scan", "ios": "https://dc.lft.to/lastmile_qr_scan"}, "lat": 39.0147965, "is_disabled": 0, "lon": -77.0549535}, {"fusion_lat": 0.0, "type": "electric_scooter", "name": "3216b5af4760e9ddd50a91baee146326", "fusion_lon": 0.0, "bike_id": "3216b5af4760e9ddd50a91baee146326", "is_reserved": 0, "rental_uris": {"android": "https://dc.lft.to/lastmile_qr_scan", "ios": "https://dc.lft.to/lastmile_qr_scan"}, "lat": 38.9245875, "is_disabled": 0, "lon": -77.03283783333333}, {"fusion_lat": 0.0, "type": "electric_scooter", "name": "60241b7d5d9e51ef099dc7dff8b4893b", "fusion_lon": 0.0, "bike_id": "60241b7d5d9e51ef099dc7dff8b4893b", "is_reserved": 0, "rental_uris": {"android": "https://dc.lft.to/lastmile_qr_scan", "ios": "https://dc.lft.to/lastmile_qr_scan"}, "lat": 38.89199633333333, "is_disabled": 0, "lon": -77.02770566666666}, {"fusion_lat": 0.0, "type": "electric_scooter", "name": "22ef3d0a5aefda2ae4f6cd305c81099b", "fusion_lon": 0.0, "bike_id": "22ef3d0a5aefda2ae4f6cd305c81099b", "is_reserved": 0, "rental_uris": {"android": "https://dc.lft.to/lastmile_qr_scan", "ios": "https://dc.lft.to/lastmile_qr_scan"}, "lat": 38.916352, "is_disabled": 0, "lon": -77.04810883333333}, {"fusion_lat": 0.0, "type": "electric_scooter", "name": "ad8e4219ec45c82ed590a3d4b0a38c01", "fusion_lon": 0.0, "bike_id": "ad8e4219ec45c82ed590a3d4b0a38c01", "is_reserved": 0, "rental_uris": {"android": "https://dc.lft.to/lastmile_qr_scan", "ios": "https://dc.lft.to/lastmile_qr_scan"}, "lat": 38.907902166666666, "is_disabled": 0, "lon": -77.02293583333334}, {"fusion_lat": 0.0, "type": "electric_scooter", "name": "8a67ff72746c71b42efa2c12f0da58a6", "fusion_lon": 0.0, "bike_id": "8a67ff72746c71b42efa2c12f0da58a6", "is_reserved": 0, "rental_uris": {"android": "https://dc.lft.to/lastmile_qr_scan", "ios": "https://dc.lft.to/lastmile_qr_scan"}, "lat": 38.90249083333333, "is_disabled": 0, "lon": -76.99888016666667}, {"fusion_lat": 0.0, "type": "electric_scooter", "name": "c9df0b4ee9de6aa43b9a74c7bbbee774", "fusion_lon": 0.0, "bike_id": "c9df0b4ee9de6aa43b9a74c7bbbee774", "is_reserved": 0, "rental_uris": {"android": "https://dc.lft.to/lastmile_qr_scan", "ios": "https://dc.lft.to/lastmile_qr_scan"}, "lat": 38.91392883333333, "is_disabled": 0, "lon": -77.0417485}, {"fusion_lat": 0.0, "type": "electric_scooter", "name": "a4d2784bfa313c8cb07ec842e12c54ec", "fusion_lon": 0.0, "bike_id": "a4d2784bfa313c8cb07ec842e12c54ec", "is_reserved": 0, "rental_uris": {"android": "https://dc.lft.to/lastmile_qr_scan", "ios": "https://dc.lft.to/lastmile_qr_scan"}, "lat": 38.9006335, "is_disabled": 0, "lon": -76.92747516666667}, {"fusion_lat": 0.0, "type": "electric_scooter", "name": "c37243aac1373a9765eb1febb323b466", "fusion_lon": 0.0, "bike_id": "c37243aac1373a9765eb1febb323b466", "is_reserved": 0, "rental_uris": {"android": "https://dc.lft.to/lastmile_qr_scan", "ios": "https://dc.lft.to/lastmile_qr_scan"}, "lat": 38.90150383333334, "is_disabled": 0, "lon": -77.03233333333333}, {"fusion_lat": 0.0, "type": "electric_scooter", "name": "74799297fd444d39805d5c8802cb76b5", "fusion_lon": 0.0, "bike_id": "74799297fd444d39805d5c8802cb76b5", "is_reserved": 0, "rental_uris": {"android": "https://dc.lft.to/lastmile_qr_scan", "ios": "https://dc.lft.to/lastmile_qr_scan"}, "lat": 38.89992266666667, "is_disabled": 0, "lon": -77.04822033333333}, {"fusion_lat": 0.0, "type": "electric_scooter", "name": "27d9a3ae174db748044dd8d725743220", "fusion_lon": 0.0, "bike_id": "27d9a3ae174db748044dd8d725743220", "is_reserved": 0, "rental_uris": {"android": "https://dc.lft.to/lastmile_qr_scan", "ios": "https://dc.lft.to/lastmile_qr_scan"}, "lat": 38.93918466666667, "is_disabled": 0, "lon": -77.0326875}, {"fusion_lat": 0.0, "type": "electric_scooter", "name": "027483c01925ba472e33ac1f38f8cac6", "fusion_lon": 0.0, "bike_id": "027483c01925ba472e33ac1f38f8cac6", "is_reserved": 0, "rental_uris": {"android": "https://dc.lft.to/lastmile_qr_scan", "ios": "https://dc.lft.to/lastmile_qr_scan"}, "lat": 38.88323716666667, "is_disabled": 0, "lon": -76.992208}, {"fusion_lat": 0.0, "type": "electric_scooter", "name": "f999328e3c800b885cd39eada19b2184", "fusion_lon": 0.0, "bike_id": "f999328e3c800b885cd39eada19b2184", "is_reserved": 0, "rental_uris": {"android": "https://dc.lft.to/lastmile_qr_scan", "ios": "https://dc.lft.to/lastmile_qr_scan"}, "lat": 38.88800083333334, "is_disabled": 0, "lon": -76.93357216666666}, {"fusion_lat": 0.0, "type": "electric_scooter", "name": "f047d08af24d5e208e7071aadbbe3b48", "fusion_lon": 0.0, "bike_id": "f047d08af24d5e208e7071aadbbe3b48", "is_reserved": 0, "rental_uris": {"android": "https://dc.lft.to/lastmile_qr_scan", "ios": "https://dc.lft.to/lastmile_qr_scan"}, "lat": 38.83568733333333, "is_disabled": 0, "lon": -76.994968}, {"fusion_lat": 0.0, "type": "electric_scooter", "name": "2e0b3f41062c3e6cab92668592a73328", "fusion_lon": 0.0, "bike_id": "2e0b3f41062c3e6cab92668592a73328", "is_reserved": 0, "rental_uris": {"android": "https://dc.lft.to/lastmile_qr_scan", "ios": "https://dc.lft.to/lastmile_qr_scan"}, "lat": 38.9155445, "is_disabled": 0, "lon": -77.02556866666667}, {"fusion_lat": 0.0, "type": "electric_scooter", "name": "54d5c59daca4bf759c93072ada14f402", "fusion_lon": 0.0, "bike_id": "54d5c59daca4bf759c93072ada14f402", "is_reserved": 0, "rental_uris": {"android": "https://dc.lft.to/lastmile_qr_scan", "ios": "https://dc.lft.to/lastmile_qr_scan"}, "lat": 38.90968633333333, "is_disabled": 0, "lon": -77.03471083333334}, {"fusion_lat": 0.0, "type": "electric_scooter", "name": "aea81c494cf244a7d4493354274dd160", "fusion_lon": 0.0, "bike_id": "aea81c494cf244a7d4493354274dd160", "is_reserved": 0, "rental_uris": {"android": "https://dc.lft.to/lastmile_qr_scan", "ios": "https://dc.lft.to/lastmile_qr_scan"}, "lat": 38.91796466666667, "is_disabled": 0, "lon": -77.03189566666667}, {"fusion_lat": 0.0, "type": "electric_scooter", "name": "9db103690b32ef8f7364fde200961c67", "fusion_lon": 0.0, "bike_id": "9db103690b32ef8f7364fde200961c67", "is_reserved": 0, "rental_uris": {"android": "https://dc.lft.to/lastmile_qr_scan", "ios": "https://dc.lft.to/lastmile_qr_scan"}, "lat": 38.918051, "is_disabled": 0, "lon": -77.034335}, {"fusion_lat": 0.0, "type": "electric_scooter", "name": "d95ec61e5503a07151c247f5d738fb70", "fusion_lon": 0.0, "bike_id": "d95ec61e5503a07151c247f5d738fb70", "is_reserved": 0, "rental_uris": {"android": "https://dc.lft.to/lastmile_qr_scan", "ios": "https://dc.lft.to/lastmile_qr_scan"}, "lat": 38.87622733333333, "is_disabled": 0, "lon": -77.00567}, {"fusion_lat": 0.0, "type": "electric_scooter", "name": "64cfcec999a04c4b6e2968031bb692f8", "fusion_lon": 0.0, "bike_id": "64cfcec999a04c4b6e2968031bb692f8", "is_reserved": 0, "rental_uris": {"android": "https://dc.lft.to/lastmile_qr_scan", "ios": "https://dc.lft.to/lastmile_qr_scan"}, "lat": 38.9224195, "is_disabled": 0, "lon": -77.03091483333333}, {"fusion_lat": 0.0, "type": "electric_scooter", "name": "08f243f232535370db845bbc000440aa", "fusion_lon": 0.0, "bike_id": "08f243f232535370db845bbc000440aa", "is_reserved": 0, "rental_uris": {"android": "https://dc.lft.to/lastmile_qr_scan", "ios": "https://dc.lft.to/lastmile_qr_scan"}, "lat": 38.90969883333333, "is_disabled": 0, "lon": -77.0387045}, {"fusion_lat": 0.0, "type": "electric_bike", "name": "0035e063f5eebb50b38490c907050eb7", "fusion_lon": 0.0, "bike_id": "0035e063f5eebb50b38490c907050eb7", "is_reserved": 0, "rental_uris": {"android": "https://dc.lft.to/lastmile_qr_scan", "ios": "https://dc.lft.to/lastmile_qr_scan"}, "lat": 38.80765133333333, "is_disabled": 0, "lon": -77.09470266666666}, {"fusion_lat": 0.0, "type": "electric_scooter", "name": "31ab647f62ef02f95794aecdb4cda1c8", "fusion_lon": 0.0, "bike_id": "31ab647f62ef02f95794aecdb4cda1c8", "is_reserved": 0, "rental_uris": {"android": "https://dc.lft.to/lastmile_qr_scan", "ios": "https://dc.lft.to/lastmile_qr_scan"}, "lat": 38.8923055, "is_disabled": 0, "lon": -77.0437565}, {"fusion_lat": 0.0, "type": "electric_scooter", "name": "e1f9e45d7154bb4ca90699f165cffe14", "fusion_lon": 0.0, "bike_id": "e1f9e45d7154bb4ca90699f165cffe14", "is_reserved": 0, "rental_uris": {"android": "https://dc.lft.to/lastmile_qr_scan", "ios": "https://dc.lft.to/lastmile_qr_scan"}, "lat": 38.86431266666666, "is_disabled": 0, "lon": -76.97433533333333}, {"fusion_lat": 0.0, "type": "electric_scooter", "name": "07c3b0fd1ffc19c77d6896d4bd18816e", "fusion_lon": 0.0, "bike_id": "07c3b0fd1ffc19c77d6896d4bd18816e", "is_reserved": 0, "rental_uris": {"android": "https://dc.lft.to/lastmile_qr_scan", "ios": "https://dc.lft.to/lastmile_qr_scan"}, "lat": 38.957324666666665, "is_disabled": 0, "lon": -77.02401633333334}, {"fusion_lat": 0.0, "type": "electric_scooter", "name": "66d9d18a1685527c42dd3cb1165d0158", "fusion_lon": 0.0, "bike_id": "66d9d18a1685527c42dd3cb1165d0158", "is_reserved": 0, "rental_uris": {"android": "https://dc.lft.to/lastmile_qr_scan", "ios": "https://dc.lft.to/lastmile_qr_scan"}, "lat": 38.935529833333334, "is_disabled": 0, "lon": -77.02220383333334}, {"fusion_lat": 0.0, "type": "electric_scooter", "name": "46a8319271a4cf39ad77c7d7a093b924", "fusion_lon": 0.0, "bike_id": "46a8319271a4cf39ad77c7d7a093b924", "is_reserved": 0, "rental_uris": {"android": "https://dc.lft.to/lastmile_qr_scan", "ios": "https://dc.lft.to/lastmile_qr_scan"}, "lat": 38.929452833333336, "is_disabled": 0, "lon": -77.0164425}, {"fusion_lat": 0.0, "type": "electric_scooter", "name": "66c55ece68788442a55268d66d22b558", "fusion_lon": 0.0, "bike_id": "66c55ece68788442a55268d66d22b558", "is_reserved": 0, "rental_uris": {"android": "https://dc.lft.to/lastmile_qr_scan", "ios": "https://dc.lft.to/lastmile_qr_scan"}, "lat": 38.906761, "is_disabled": 0, "lon": -77.00046816666666}, {"fusion_lat": 0.0, "type": "electric_scooter", "name": "41fad77dc0ec9e1a154131c4747e7ab5", "fusion_lon": 0.0, "bike_id": "41fad77dc0ec9e1a154131c4747e7ab5", "is_reserved": 0, "rental_uris": {"android": "https://dc.lft.to/lastmile_qr_scan", "ios": "https://dc.lft.to/lastmile_qr_scan"}, "lat": 38.9107295, "is_disabled": 0, "lon": -77.03468216666667}, {"fusion_lat": 0.0, "type": "electric_scooter", "name": "db8737c77269d26d2b2832851c76041e", "fusion_lon": 0.0, "bike_id": "db8737c77269d26d2b2832851c76041e", "is_reserved": 0, "rental_uris": {"android": "https://dc.lft.to/lastmile_qr_scan", "ios": "https://dc.lft.to/lastmile_qr_scan"}, "lat": 38.923575166666666, "is_disabled": 0, "lon": -77.07296016666666}, {"fusion_lat": 0.0, "type": "electric_scooter", "name": "ba33c21ab6a18dce7f5fddf330f898b3", "fusion_lon": 0.0, "bike_id": "ba33c21ab6a18dce7f5fddf330f898b3", "is_reserved": 0, "rental_uris": {"android": "https://dc.lft.to/lastmile_qr_scan", "ios": "https://dc.lft.to/lastmile_qr_scan"}, "lat": 38.922818, "is_disabled": 0, "lon": -77.03412783333333}, {"fusion_lat": 0.0, "type": "electric_scooter", "name": "939c7b489a2fbac9ba44155090356b31", "fusion_lon": 0.0, "bike_id": "939c7b489a2fbac9ba44155090356b31", "is_reserved": 0, "rental_uris": {"android": "https://dc.lft.to/lastmile_qr_scan", "ios": "https://dc.lft.to/lastmile_qr_scan"}, "lat": 38.9313465, "is_disabled": 0, "lon": -77.023685}, {"fusion_lat": 0.0, "type": "electric_scooter", "name": "46096525b969356861a3bc0b0e1db34e", "fusion_lon": 0.0, "bike_id": "46096525b969356861a3bc0b0e1db34e", "is_reserved": 0, "rental_uris": {"android": "https://dc.lft.to/lastmile_qr_scan", "ios": "https://dc.lft.to/lastmile_qr_scan"}, "lat": 38.905040666666665, "is_disabled": 0, "lon": -77.0483575}, {"fusion_lat": 0.0, "type": "electric_scooter", "name": "19385c3aa6dcd2b5688d3e23fffb8e50", "fusion_lon": 0.0, "bike_id": "19385c3aa6dcd2b5688d3e23fffb8e50", "is_reserved": 0, "rental_uris": {"android": "https://dc.lft.to/lastmile_qr_scan", "ios": "https://dc.lft.to/lastmile_qr_scan"}, "lat": 38.88591683333333, "is_disabled": 0, "lon": -77.0123055}, {"fusion_lat": 0.0, "type": "electric_scooter", "name": "8f3199ab040c6e7a75aa1be7cabd0e4a", "fusion_lon": 0.0, "bike_id": "8f3199ab040c6e7a75aa1be7cabd0e4a", "is_reserved": 0, "rental_uris": {"android": "https://dc.lft.to/lastmile_qr_scan", "ios": "https://dc.lft.to/lastmile_qr_scan"}, "lat": 38.892894, "is_disabled": 0, "lon": -77.03204316666667}, {"fusion_lat": 0.0, "type": "electric_scooter", "name": "025e488fed0831427b52dd6eca1c4ac7", "fusion_lon": 0.0, "bike_id": "025e488fed0831427b52dd6eca1c4ac7", "is_reserved": 0, "rental_uris": {"android": "https://dc.lft.to/lastmile_qr_scan", "ios": "https://dc.lft.to/lastmile_qr_scan"}, "lat": 38.93105033333333, "is_disabled": 0, "lon": -77.03266116666667}, {"fusion_lat": 0.0, "type": "electric_scooter", "name": "7d8afbb1b2be7e1388a131fcd27065a4", "fusion_lon": 0.0, "bike_id": "7d8afbb1b2be7e1388a131fcd27065a4", "is_reserved": 0, "rental_uris": {"android": "https://dc.lft.to/lastmile_qr_scan", "ios": "https://dc.lft.to/lastmile_qr_scan"}, "lat": 38.9051735, "is_disabled": 0, "lon": -77.06861483333333}, {"fusion_lat": 0.0, "type": "electric_scooter", "name": "e50ba9b8fba22f535d7982bc8e59275f", "fusion_lon": 0.0, "bike_id": "e50ba9b8fba22f535d7982bc8e59275f", "is_reserved": 0, "rental_uris": {"android": "https://dc.lft.to/lastmile_qr_scan", "ios": "https://dc.lft.to/lastmile_qr_scan"}, "lat": 38.91964483333334, "is_disabled": 0, "lon": -77.04515116666667}, {"fusion_lat": 0.0, "type": "electric_bike", "name": "9cfd0d624bd2ca7eb3bc1e3eaad15787", "fusion_lon": 0.0, "bike_id": "9cfd0d624bd2ca7eb3bc1e3eaad15787", "is_reserved": 0, "rental_uris": {"android": "https://dc.lft.to/lastmile_qr_scan", "ios": "https://dc.lft.to/lastmile_qr_scan"}, "lat": 38.869441, "is_disabled": 0, "lon": -77.0946585}, {"fusion_lat": 0.0, "type": "electric_scooter", "name": "cb166b4096be7ed488ea4105077ae6bf", "fusion_lon": 0.0, "bike_id": "cb166b4096be7ed488ea4105077ae6bf", "is_reserved": 0, "rental_uris": {"android": "https://dc.lft.to/lastmile_qr_scan", "ios": "https://dc.lft.to/lastmile_qr_scan"}, "lat": 38.87231516666667, "is_disabled": 0, "lon": -77.01171916666667}, {"fusion_lat": 0.0, "type": "electric_scooter", "name": "140662fb451be7ff861ba78c4f8b78ad", "fusion_lon": 0.0, "bike_id": "140662fb451be7ff861ba78c4f8b78ad", "is_reserved": 0, "rental_uris": {"android": "https://dc.lft.to/lastmile_qr_scan", "ios": "https://dc.lft.to/lastmile_qr_scan"}, "lat": 38.888511333333334, "is_disabled": 0, "lon": -76.92679516666666}, {"fusion_lat": 0.0, "type": "electric_scooter", "name": "eb413af69cd30a32455c7e307beedd7a", "fusion_lon": 0.0, "bike_id": "eb413af69cd30a32455c7e307beedd7a", "is_reserved": 0, "rental_uris": {"android": "https://dc.lft.to/lastmile_qr_scan", "ios": "https://dc.lft.to/lastmile_qr_scan"}, "lat": 38.91818133333334, "is_disabled": 0, "lon": -77.03359433333334}, {"fusion_lat": 0.0, "type": "electric_bike", "name": "911126b384a4a75dde78945269329b58", "fusion_lon": 0.0, "bike_id": "911126b384a4a75dde78945269329b58", "is_reserved": 0, "rental_uris": {"android": "https://dc.lft.to/lastmile_qr_scan", "ios": "https://dc.lft.to/lastmile_qr_scan"}, "lat": 38.98550266666667, "is_disabled": 0, "lon": -77.00400416666666}, {"fusion_lat": 0.0, "type": "electric_scooter", "name": "be7868660d773065d3e9a8f6527ab925", "fusion_lon": 0.0, "bike_id": "be7868660d773065d3e9a8f6527ab925", "is_reserved": 0, "rental_uris": {"android": "https://dc.lft.to/lastmile_qr_scan", "ios": "https://dc.lft.to/lastmile_qr_scan"}, "lat": 38.91651316666667, "is_disabled": 0, "lon": -77.03666266666667}, {"fusion_lat": 0.0, "type": "electric_scooter", "name": "d9f56d656b19fffa11385cb6e5a75710", "fusion_lon": 0.0, "bike_id": "d9f56d656b19fffa11385cb6e5a75710", "is_reserved": 0, "rental_uris": {"android": "https://dc.lft.to/lastmile_qr_scan", "ios": "https://dc.lft.to/lastmile_qr_scan"}, "lat": 38.871993833333335, "is_disabled": 0, "lon": -77.00569616666667}, {"fusion_lat": 0.0, "type": "electric_scooter", "name": "7754f29eab04df2402203136c2231f31", "fusion_lon": 0.0, "bike_id": "7754f29eab04df2402203136c2231f31", "is_reserved": 0, "rental_uris": {"android": "https://dc.lft.to/lastmile_qr_scan", "ios": "https://dc.lft.to/lastmile_qr_scan"}, "lat": 38.907548, "is_disabled": 0, "lon": -77.00772133333334}, {"fusion_lat": 0.0, "type": "electric_scooter", "name": "bc09474864f6e5f815741dd20e2bab53", "fusion_lon": 0.0, "bike_id": "bc09474864f6e5f815741dd20e2bab53", "is_reserved": 0, "rental_uris": {"android": "https://dc.lft.to/lastmile_qr_scan", "ios": "https://dc.lft.to/lastmile_qr_scan"}, "lat": 38.89995616666667, "is_disabled": 0, "lon": -77.02614283333334}, {"fusion_lat": 0.0, "type": "electric_scooter", "name": "a0b3f1e9498805cb813ed1ae3067c38d", "fusion_lon": 0.0, "bike_id": "a0b3f1e9498805cb813ed1ae3067c38d", "is_reserved": 0, "rental_uris": {"android": "https://dc.lft.to/lastmile_qr_scan", "ios": "https://dc.lft.to/lastmile_qr_scan"}, "lat": 38.892224166666665, "is_disabled": 0, "lon": -77.02347516666667}, {"fusion_lat": 0.0, "type": "electric_scooter", "name": "793d8b279ba6d2adb015a97e53b56b3c", "fusion_lon": 0.0, "bike_id": "793d8b279ba6d2adb015a97e53b56b3c", "is_reserved": 0, "rental_uris": {"android": "https://dc.lft.to/lastmile_qr_scan", "ios": "https://dc.lft.to/lastmile_qr_scan"}, "lat": 38.9356545, "is_disabled": 0, "lon": -77.0820115}, {"fusion_lat": 0.0, "type": "electric_scooter", "name": "555208e499a8ceaacab82e04c8fdb1dd", "fusion_lon": 0.0, "bike_id": "555208e499a8ceaacab82e04c8fdb1dd", "is_reserved": 0, "rental_uris": {"android": "https://dc.lft.to/lastmile_qr_scan", "ios": "https://dc.lft.to/lastmile_qr_scan"}, "lat": 38.8813845, "is_disabled": 0, "lon": -77.01664383333333}, {"fusion_lat": 0.0, "type": "electric_scooter", "name": "0c38aad3c2774dbb2dcc4620211be154", "fusion_lon": 0.0, "bike_id": "0c38aad3c2774dbb2dcc4620211be154", "is_reserved": 0, "rental_uris": {"android": "https://dc.lft.to/lastmile_qr_scan", "ios": "https://dc.lft.to/lastmile_qr_scan"}, "lat": 38.882655666666665, "is_disabled": 0, "lon": -76.99028166666666}, {"fusion_lat": 0.0, "type": "electric_scooter", "name": "d4e2f97730790727f9bf109eebfa8cdf", "fusion_lon": 0.0, "bike_id": "d4e2f97730790727f9bf109eebfa8cdf", "is_reserved": 0, "rental_uris": {"android": "https://dc.lft.to/lastmile_qr_scan", "ios": "https://dc.lft.to/lastmile_qr_scan"}, "lat": 38.91960183333333, "is_disabled": 0, "lon": -77.04313783333333}, {"fusion_lat": 0.0, "type": "electric_bike", "name": "a9e33a6e07b65ddc61092f9c87d0b11c", "fusion_lon": 0.0, "bike_id": "a9e33a6e07b65ddc61092f9c87d0b11c", "is_reserved": 0, "rental_uris": {"android": "https://dc.lft.to/lastmile_qr_scan", "ios": "https://dc.lft.to/lastmile_qr_scan"}, "lat": 39.0563615, "is_disabled": 0, "lon": -77.1252785}, {"fusion_lat": 0.0, "type": "electric_scooter", "name": "580f9e10e55f0dbef51c3a89e7a2d4a1", "fusion_lon": 0.0, "bike_id": "580f9e10e55f0dbef51c3a89e7a2d4a1", "is_reserved": 0, "rental_uris": {"android": "https://dc.lft.to/lastmile_qr_scan", "ios": "https://dc.lft.to/lastmile_qr_scan"}, "lat": 38.91811833333333, "is_disabled": 0, "lon": -77.03181483333333}, {"fusion_lat": 0.0, "type": "electric_scooter", "name": "5b9f093a1ef3ee50db35c72538d62a09", "fusion_lon": 0.0, "bike_id": "5b9f093a1ef3ee50db35c72538d62a09", "is_reserved": 0, "rental_uris": {"android": "https://dc.lft.to/lastmile_qr_scan", "ios": "https://dc.lft.to/lastmile_qr_scan"}, "lat": 38.91890133333333, "is_disabled": 0, "lon": -77.02975016666667}, {"fusion_lat": 0.0, "type": "electric_scooter", "name": "8fa3209bd3768a429972655bf55d31c7", "fusion_lon": 0.0, "bike_id": "8fa3209bd3768a429972655bf55d31c7", "is_reserved": 0, "rental_uris": {"android": "https://dc.lft.to/lastmile_qr_scan", "ios": "https://dc.lft.to/lastmile_qr_scan"}, "lat": 38.92262683333333, "is_disabled": 0, "lon": -77.036873}, {"fusion_lat": 0.0, "type": "electric_scooter", "name": "ae7dedcd4d731ea237237bc8b741b002", "fusion_lon": 0.0, "bike_id": "ae7dedcd4d731ea237237bc8b741b002", "is_reserved": 0, "rental_uris": {"android": "https://dc.lft.to/lastmile_qr_scan", "ios": "https://dc.lft.to/lastmile_qr_scan"}, "lat": 38.90317433333333, "is_disabled": 0, "lon": -77.03313566666667}, {"fusion_lat": 0.0, "type": "electric_scooter", "name": "47affda85d3282411818f1f1b304b7cd", "fusion_lon": 0.0, "bike_id": "47affda85d3282411818f1f1b304b7cd", "is_reserved": 0, "rental_uris": {"android": "https://dc.lft.to/lastmile_qr_scan", "ios": "https://dc.lft.to/lastmile_qr_scan"}, "lat": 38.89500866666667, "is_disabled": 0, "lon": -76.93470916666666}, {"fusion_lat": 0.0, "type": "electric_scooter", "name": "b41a1f5abaded8b8e09c9064cf800d2c", "fusion_lon": 0.0, "bike_id": "b41a1f5abaded8b8e09c9064cf800d2c", "is_reserved": 0, "rental_uris": {"android": "https://dc.lft.to/lastmile_qr_scan", "ios": "https://dc.lft.to/lastmile_qr_scan"}, "lat": 38.89174716666667, "is_disabled": 0, "lon": -77.01566466666667}, {"fusion_lat": 0.0, "type": "electric_scooter", "name": "460ce67301fc758b6133c00e57f2b04b", "fusion_lon": 0.0, "bike_id": "460ce67301fc758b6133c00e57f2b04b", "is_reserved": 0, "rental_uris": {"android": "https://dc.lft.to/lastmile_qr_scan", "ios": "https://dc.lft.to/lastmile_qr_scan"}, "lat": 38.920661833333334, "is_disabled": 0, "lon": -77.04704383333333}, {"fusion_lat": 0.0, "type": "electric_scooter", "name": "9398ef6c74d2477066a46e3945385338", "fusion_lon": 0.0, "bike_id": "9398ef6c74d2477066a46e3945385338", "is_reserved": 0, "rental_uris": {"android": "https://dc.lft.to/lastmile_qr_scan", "ios": "https://dc.lft.to/lastmile_qr_scan"}, "lat": 38.945077166666664, "is_disabled": 0, "lon": -77.07452166666667}, {"fusion_lat": 0.0, "type": "electric_scooter", "name": "071bfb12b0b90a344276b72724846fc2", "fusion_lon": 0.0, "bike_id": "071bfb12b0b90a344276b72724846fc2", "is_reserved": 0, "rental_uris": {"android": "https://dc.lft.to/lastmile_qr_scan", "ios": "https://dc.lft.to/lastmile_qr_scan"}, "lat": 38.900697, "is_disabled": 0, "lon": -77.05036933333334}, {"fusion_lat": 0.0, "type": "electric_scooter", "name": "fa27d0a885432ee146088dd58d38c691", "fusion_lon": 0.0, "bike_id": "fa27d0a885432ee146088dd58d38c691", "is_reserved": 0, "rental_uris": {"android": "https://dc.lft.to/lastmile_qr_scan", "ios": "https://dc.lft.to/lastmile_qr_scan"}, "lat": 38.84317, "is_disabled": 0, "lon": -76.999327}, {"fusion_lat": 0.0, "type": "electric_scooter", "name": "571f7f8e108223987510383f7752be53", "fusion_lon": 0.0, "bike_id": "571f7f8e108223987510383f7752be53", "is_reserved": 0, "rental_uris": {"android": "https://dc.lft.to/lastmile_qr_scan", "ios": "https://dc.lft.to/lastmile_qr_scan"}, "lat": 38.9111305, "is_disabled": 0, "lon": -77.03828766666666}, {"fusion_lat": 0.0, "type": "electric_scooter", "name": "eb3b99842e2e37894fc0a4a029617a52", "fusion_lon": 0.0, "bike_id": "eb3b99842e2e37894fc0a4a029617a52", "is_reserved": 0, "rental_uris": {"android": "https://dc.lft.to/lastmile_qr_scan", "ios": "https://dc.lft.to/lastmile_qr_scan"}, "lat": 38.8989005, "is_disabled": 0, "lon": -77.0258835}, {"fusion_lat": 0.0, "type": "electric_scooter", "name": "f96efcb4b0cbfdef9318b750818dd54a", "fusion_lon": 0.0, "bike_id": "f96efcb4b0cbfdef9318b750818dd54a", "is_reserved": 0, "rental_uris": {"android": "https://dc.lft.to/lastmile_qr_scan", "ios": "https://dc.lft.to/lastmile_qr_scan"}, "lat": 38.906445833333336, "is_disabled": 0, "lon": -77.0113785}, {"fusion_lat": 0.0, "type": "electric_scooter", "name": "fc381b128ee8e208ec28f527d660d32d", "fusion_lon": 0.0, "bike_id": "fc381b128ee8e208ec28f527d660d32d", "is_reserved": 0, "rental_uris": {"android": "https://dc.lft.to/lastmile_qr_scan", "ios": "https://dc.lft.to/lastmile_qr_scan"}, "lat": 38.902542, "is_disabled": 0, "lon": -77.005846}, {"fusion_lat": 0.0, "type": "electric_scooter", "name": "a20bdc23670034e940a9ad30fb0c459d", "fusion_lon": 0.0, "bike_id": "a20bdc23670034e940a9ad30fb0c459d", "is_reserved": 0, "rental_uris": {"android": "https://dc.lft.to/lastmile_qr_scan", "ios": "https://dc.lft.to/lastmile_qr_scan"}, "lat": 38.90953833333333, "is_disabled": 0, "lon": -77.02715716666667}, {"fusion_lat": 0.0, "type": "electric_scooter", "name": "17dfd56db9d4058f518a79b60fd63e35", "fusion_lon": 0.0, "bike_id": "17dfd56db9d4058f518a79b60fd63e35", "is_reserved": 0, "rental_uris": {"android": "https://dc.lft.to/lastmile_qr_scan", "ios": "https://dc.lft.to/lastmile_qr_scan"}, "lat": 38.9121195, "is_disabled": 0, "lon": -77.03464533333333}, {"fusion_lat": 0.0, "type": "electric_scooter", "name": "485d9c96cd9cd0868b516be03e0311ec", "fusion_lon": 0.0, "bike_id": "485d9c96cd9cd0868b516be03e0311ec", "is_reserved": 0, "rental_uris": {"android": "https://dc.lft.to/lastmile_qr_scan", "ios": "https://dc.lft.to/lastmile_qr_scan"}, "lat": 38.87470966666667, "is_disabled": 0, "lon": -77.00519433333334}, {"fusion_lat": 0.0, "type": "electric_scooter", "name": "2e2df13bb92f86670dc9c376a7081975", "fusion_lon": 0.0, "bike_id": "2e2df13bb92f86670dc9c376a7081975", "is_reserved": 0, "rental_uris": {"android": "https://dc.lft.to/lastmile_qr_scan", "ios": "https://dc.lft.to/lastmile_qr_scan"}, "lat": 38.9218035, "is_disabled": 0, "lon": -77.04225183333334}, {"fusion_lat": 0.0, "type": "electric_scooter", "name": "42291058d390e27666fa6b56dfa75142", "fusion_lon": 0.0, "bike_id": "42291058d390e27666fa6b56dfa75142", "is_reserved": 0, "rental_uris": {"android": "https://dc.lft.to/lastmile_qr_scan", "ios": "https://dc.lft.to/lastmile_qr_scan"}, "lat": 38.937669, "is_disabled": 0, "lon": -77.02268033333333}, {"fusion_lat": 0.0, "type": "electric_scooter", "name": "e4180aa2f028919e2affc9f6625586a0", "fusion_lon": 0.0, "bike_id": "e4180aa2f028919e2affc9f6625586a0", "is_reserved": 0, "rental_uris": {"android": "https://dc.lft.to/lastmile_qr_scan", "ios": "https://dc.lft.to/lastmile_qr_scan"}, "lat": 38.93104016666667, "is_disabled": 0, "lon": -77.03639483333333}, {"fusion_lat": 0.0, "type": "electric_scooter", "name": "796ab1bc172344dcb07a49dc6ce806a0", "fusion_lon": 0.0, "bike_id": "796ab1bc172344dcb07a49dc6ce806a0", "is_reserved": 0, "rental_uris": {"android": "https://dc.lft.to/lastmile_qr_scan", "ios": "https://dc.lft.to/lastmile_qr_scan"}, "lat": 38.86355416666667, "is_disabled": 0, "lon": -76.99065183333333}, {"fusion_lat": 0.0, "type": "electric_scooter", "name": "228a27926fd96967d8135c06dfdc5b7d", "fusion_lon": 0.0, "bike_id": "228a27926fd96967d8135c06dfdc5b7d", "is_reserved": 0, "rental_uris": {"android": "https://dc.lft.to/lastmile_qr_scan", "ios": "https://dc.lft.to/lastmile_qr_scan"}, "lat": 38.912565666666666, "is_disabled": 0, "lon": -77.04468066666666}, {"fusion_lat": 0.0, "type": "electric_scooter", "name": "9e785ccf9a46663e34e0b6294a7d5495", "fusion_lon": 0.0, "bike_id": "9e785ccf9a46663e34e0b6294a7d5495", "is_reserved": 0, "rental_uris": {"android": "https://dc.lft.to/lastmile_qr_scan", "ios": "https://dc.lft.to/lastmile_qr_scan"}, "lat": 38.91408066666666, "is_disabled": 0, "lon": -77.03826733333334}, {"fusion_lat": 0.0, "type": "electric_bike", "name": "221a8e39746d768ae4c27b5c2d3948b4", "fusion_lon": 0.0, "bike_id": "221a8e39746d768ae4c27b5c2d3948b4", "is_reserved": 0, "rental_uris": {"android": "https://dc.lft.to/lastmile_qr_scan", "ios": "https://dc.lft.to/lastmile_qr_scan"}, "lat": 38.8551715, "is_disabled": 0, "lon": -76.98425516666667}, {"fusion_lat": 0.0, "type": "electric_scooter", "name": "7ed517cadfcf1a975b119da77795d221", "fusion_lon": 0.0, "bike_id": "7ed517cadfcf1a975b119da77795d221", "is_reserved": 0, "rental_uris": {"android": "https://dc.lft.to/lastmile_qr_scan", "ios": "https://dc.lft.to/lastmile_qr_scan"}, "lat": 38.92283183333333, "is_disabled": 0, "lon": -77.03895533333333}, {"fusion_lat": 0.0, "type": "electric_scooter", "name": "94937a7ef1f75436d93530002a4290c7", "fusion_lon": 0.0, "bike_id": "94937a7ef1f75436d93530002a4290c7", "is_reserved": 0, "rental_uris": {"android": "https://dc.lft.to/lastmile_qr_scan", "ios": "https://dc.lft.to/lastmile_qr_scan"}, "lat": 38.87466166666667, "is_disabled": 0, "lon": -77.01127}, {"fusion_lat": 0.0, "type": "electric_scooter", "name": "7cd76c4a47084d855585f531001420b0", "fusion_lon": 0.0, "bike_id": "7cd76c4a47084d855585f531001420b0", "is_reserved": 0, "rental_uris": {"android": "https://dc.lft.to/lastmile_qr_scan", "ios": "https://dc.lft.to/lastmile_qr_scan"}, "lat": 38.87659716666667, "is_disabled": 0, "lon": -76.99451433333333}, {"fusion_lat": 0.0, "type": "electric_scooter", "name": "e66ea05f8650f131f8e1d58b698d1a4a", "fusion_lon": 0.0, "bike_id": "e66ea05f8650f131f8e1d58b698d1a4a", "is_reserved": 0, "rental_uris": {"android": "https://dc.lft.to/lastmile_qr_scan", "ios": "https://dc.lft.to/lastmile_qr_scan"}, "lat": 38.9001595, "is_disabled": 0, "lon": -77.01862766666666}, {"fusion_lat": 0.0, "type": "electric_scooter", "name": "37b3f036c981cbb6e0db774920f0216b", "fusion_lon": 0.0, "bike_id": "37b3f036c981cbb6e0db774920f0216b", "is_reserved": 0, "rental_uris": {"android": "https://dc.lft.to/lastmile_qr_scan", "ios": "https://dc.lft.to/lastmile_qr_scan"}, "lat": 38.94899083333333, "is_disabled": 0, "lon": -77.0064425}, {"fusion_lat": 0.0, "type": "electric_scooter", "name": "debdda2f0528f1a6cbe4bc8773bd292d", "fusion_lon": 0.0, "bike_id": "debdda2f0528f1a6cbe4bc8773bd292d", "is_reserved": 0, "rental_uris": {"android": "https://dc.lft.to/lastmile_qr_scan", "ios": "https://dc.lft.to/lastmile_qr_scan"}, "lat": 38.9112415, "is_disabled": 0, "lon": -77.04366283333333}, {"fusion_lat": 0.0, "type": "electric_bike", "name": "adc892a5ace35f8976eef4c78ea427ee", "fusion_lon": 0.0, "bike_id": "adc892a5ace35f8976eef4c78ea427ee", "is_reserved": 0, "rental_uris": {"android": "https://dc.lft.to/lastmile_qr_scan", "ios": "https://dc.lft.to/lastmile_qr_scan"}, "lat": 38.92211566666667, "is_disabled": 0, "lon": -77.0818635}, {"fusion_lat": 0.0, "type": "electric_scooter", "name": "9f789a8637813e8dc37102feea3515ca", "fusion_lon": 0.0, "bike_id": "9f789a8637813e8dc37102feea3515ca", "is_reserved": 0, "rental_uris": {"android": "https://dc.lft.to/lastmile_qr_scan", "ios": "https://dc.lft.to/lastmile_qr_scan"}, "lat": 38.8922035, "is_disabled": 0, "lon": -77.0234795}, {"fusion_lat": 0.0, "type": "electric_scooter", "name": "5091dc7cdfa8d1294e08b2430c0cd39e", "fusion_lon": 0.0, "bike_id": "5091dc7cdfa8d1294e08b2430c0cd39e", "is_reserved": 0, "rental_uris": {"android": "https://dc.lft.to/lastmile_qr_scan", "ios": "https://dc.lft.to/lastmile_qr_scan"}, "lat": 38.919991, "is_disabled": 0, "lon": -77.02371266666667}, {"fusion_lat": 0.0, "type": "electric_scooter", "name": "070700a8f918091c825dd208919fe44c", "fusion_lon": 0.0, "bike_id": "070700a8f918091c825dd208919fe44c", "is_reserved": 0, "rental_uris": {"android": "https://dc.lft.to/lastmile_qr_scan", "ios": "https://dc.lft.to/lastmile_qr_scan"}, "lat": 38.91884016666667, "is_disabled": 0, "lon": -77.03762133333333}, {"fusion_lat": 0.0, "type": "electric_scooter", "name": "1912e1c6089af97a5c1b958110ac3a6f", "fusion_lon": 0.0, "bike_id": "1912e1c6089af97a5c1b958110ac3a6f", "is_reserved": 0, "rental_uris": {"android": "https://dc.lft.to/lastmile_qr_scan", "ios": "https://dc.lft.to/lastmile_qr_scan"}, "lat": 38.89819683333333, "is_disabled": 0, "lon": -77.033094}, {"fusion_lat": 0.0, "type": "electric_scooter", "name": "6b9b030d6eccaac2b28f8bf8f82e6cce", "fusion_lon": 0.0, "bike_id": "6b9b030d6eccaac2b28f8bf8f82e6cce", "is_reserved": 0, "rental_uris": {"android": "https://dc.lft.to/lastmile_qr_scan", "ios": "https://dc.lft.to/lastmile_qr_scan"}, "lat": 38.857206, "is_disabled": 0, "lon": -76.9893775}, {"fusion_lat": 0.0, "type": "electric_scooter", "name": "af36ee41db7451e08c4d8309b775a7bf", "fusion_lon": 0.0, "bike_id": "af36ee41db7451e08c4d8309b775a7bf", "is_reserved": 0, "rental_uris": {"android": "https://dc.lft.to/lastmile_qr_scan", "ios": "https://dc.lft.to/lastmile_qr_scan"}, "lat": 38.8874505, "is_disabled": 0, "lon": -77.02735216666666}, {"fusion_lat": 0.0, "type": "electric_scooter", "name": "042f8f4dc2f66b03d63ca1693525d484", "fusion_lon": 0.0, "bike_id": "042f8f4dc2f66b03d63ca1693525d484", "is_reserved": 0, "rental_uris": {"android": "https://dc.lft.to/lastmile_qr_scan", "ios": "https://dc.lft.to/lastmile_qr_scan"}, "lat": 38.877835, "is_disabled": 0, "lon": -76.99359816666667}, {"fusion_lat": 0.0, "type": "electric_scooter", "name": "c2c97e028b0a7adfe966b872ed1dfa9f", "fusion_lon": 0.0, "bike_id": "c2c97e028b0a7adfe966b872ed1dfa9f", "is_reserved": 0, "rental_uris": {"android": "https://dc.lft.to/lastmile_qr_scan", "ios": "https://dc.lft.to/lastmile_qr_scan"}, "lat": 38.907651, "is_disabled": 0, "lon": -76.99302833333333}, {"fusion_lat": 0.0, "type": "electric_scooter", "name": "c3c508bce876c308034c7e8a17039aa6", "fusion_lon": 0.0, "bike_id": "c3c508bce876c308034c7e8a17039aa6", "is_reserved": 0, "rental_uris": {"android": "https://dc.lft.to/lastmile_qr_scan", "ios": "https://dc.lft.to/lastmile_qr_scan"}, "lat": 38.92247, "is_disabled": 0, "lon": -77.02120766666667}, {"fusion_lat": 0.0, "type": "electric_bike", "name": "35822bf8398ca979840cc9eeb050360c", "fusion_lon": 0.0, "bike_id": "35822bf8398ca979840cc9eeb050360c", "is_reserved": 0, "rental_uris": {"android": "https://dc.lft.to/lastmile_qr_scan", "ios": "https://dc.lft.to/lastmile_qr_scan"}, "lat": 38.910155333333336, "is_disabled": 0, "lon": -77.22799866666666}, {"fusion_lat": 0.0, "type": "electric_scooter", "name": "375a71594d0db16e2d5c27a38621ac4d", "fusion_lon": 0.0, "bike_id": "375a71594d0db16e2d5c27a38621ac4d", "is_reserved": 0, "rental_uris": {"android": "https://dc.lft.to/lastmile_qr_scan", "ios": "https://dc.lft.to/lastmile_qr_scan"}, "lat": 38.921264666666666, "is_disabled": 0, "lon": -77.03189333333333}, {"fusion_lat": 0.0, "type": "electric_scooter", "name": "27ec29c6858faa9e6ba4eab57e76b843", "fusion_lon": 0.0, "bike_id": "27ec29c6858faa9e6ba4eab57e76b843", "is_reserved": 0, "rental_uris": {"android": "https://dc.lft.to/lastmile_qr_scan", "ios": "https://dc.lft.to/lastmile_qr_scan"}, "lat": 38.8872945, "is_disabled": 0, "lon": -77.02832716666667}, {"fusion_lat": 0.0, "type": "electric_bike", "name": "8221948fc6ef3e260479a01e70062bcd", "fusion_lon": 0.0, "bike_id": "8221948fc6ef3e260479a01e70062bcd", "is_reserved": 0, "rental_uris": {"android": "https://dc.lft.to/lastmile_qr_scan", "ios": "https://dc.lft.to/lastmile_qr_scan"}, "lat": 38.872778333333336, "is_disabled": 0, "lon": -77.23317583333333}, {"fusion_lat": 0.0, "type": "electric_scooter", "name": "66b69307161cfedec4e495f4419931b3", "fusion_lon": 0.0, "bike_id": "66b69307161cfedec4e495f4419931b3", "is_reserved": 0, "rental_uris": {"android": "https://dc.lft.to/lastmile_qr_scan", "ios": "https://dc.lft.to/lastmile_qr_scan"}, "lat": 38.892974333333335, "is_disabled": 0, "lon": -77.012306}, {"fusion_lat": 0.0, "type": "electric_scooter", "name": "68642522f050358d311a84ecc8a8d1bb", "fusion_lon": 0.0, "bike_id": "68642522f050358d311a84ecc8a8d1bb", "is_reserved": 0, "rental_uris": {"android": "https://dc.lft.to/lastmile_qr_scan", "ios": "https://dc.lft.to/lastmile_qr_scan"}, "lat": 38.94206533333333, "is_disabled": 0, "lon": -77.02503433333334}, {"fusion_lat": 0.0, "type": "electric_scooter", "name": "f5e8780305643e7e8797fa75ab48ea01", "fusion_lon": 0.0, "bike_id": "f5e8780305643e7e8797fa75ab48ea01", "is_reserved": 0, "rental_uris": {"android": "https://dc.lft.to/lastmile_qr_scan", "ios": "https://dc.lft.to/lastmile_qr_scan"}, "lat": 38.86538933333333, "is_disabled": 0, "lon": -76.9870545}, {"fusion_lat": 0.0, "type": "electric_bike", "name": "09b6b6e24f77285a4aa3ef4634965f00", "fusion_lon": 0.0, "bike_id": "09b6b6e24f77285a4aa3ef4634965f00", "is_reserved": 0, "rental_uris": {"android": "https://dc.lft.to/lastmile_qr_scan", "ios": "https://dc.lft.to/lastmile_qr_scan"}, "lat": 38.94232783333333, "is_disabled": 0, "lon": -76.96618166666667}, {"fusion_lat": 0.0, "type": "electric_scooter", "name": "6319303220d81d9f3045cc373a09b28d", "fusion_lon": 0.0, "bike_id": "6319303220d81d9f3045cc373a09b28d", "is_reserved": 0, "rental_uris": {"android": "https://dc.lft.to/lastmile_qr_scan", "ios": "https://dc.lft.to/lastmile_qr_scan"}, "lat": 38.9185295, "is_disabled": 0, "lon": -77.01666266666666}, {"fusion_lat": 0.0, "type": "electric_scooter", "name": "64ee123ba92c6dc2dba3a37f17c39618", "fusion_lon": 0.0, "bike_id": "64ee123ba92c6dc2dba3a37f17c39618", "is_reserved": 0, "rental_uris": {"android": "https://dc.lft.to/lastmile_qr_scan", "ios": "https://dc.lft.to/lastmile_qr_scan"}, "lat": 38.9274855, "is_disabled": 0, "lon": -77.03560216666666}, {"fusion_lat": 0.0, "type": "electric_scooter", "name": "051c50a70a01191072b9198aa9593f44", "fusion_lon": 0.0, "bike_id": "051c50a70a01191072b9198aa9593f44", "is_reserved": 0, "rental_uris": {"android": "https://dc.lft.to/lastmile_qr_scan", "ios": "https://dc.lft.to/lastmile_qr_scan"}, "lat": 38.867022, "is_disabled": 0, "lon": -76.98595233333333}, {"fusion_lat": 0.0, "type": "electric_scooter", "name": "22c722b8dd9e85a5ce119770cb0329ee", "fusion_lon": 0.0, "bike_id": "22c722b8dd9e85a5ce119770cb0329ee", "is_reserved": 0, "rental_uris": {"android": "https://dc.lft.to/lastmile_qr_scan", "ios": "https://dc.lft.to/lastmile_qr_scan"}, "lat": 38.9215545, "is_disabled": 0, "lon": -77.04211683333334}, {"fusion_lat": 0.0, "type": "electric_scooter", "name": "a50498b5875dccfbcc3dff43e689838f", "fusion_lon": 0.0, "bike_id": "a50498b5875dccfbcc3dff43e689838f", "is_reserved": 0, "rental_uris": {"android": "https://dc.lft.to/lastmile_qr_scan", "ios": "https://dc.lft.to/lastmile_qr_scan"}, "lat": 38.900676, "is_disabled": 0, "lon": -77.04760766666666}, {"fusion_lat": 0.0, "type": "electric_scooter", "name": "8fd3293135f9f36cb730ad0f840a9223", "fusion_lon": 0.0, "bike_id": "8fd3293135f9f36cb730ad0f840a9223", "is_reserved": 0, "rental_uris": {"android": "https://dc.lft.to/lastmile_qr_scan", "ios": "https://dc.lft.to/lastmile_qr_scan"}, "lat": 38.90955666666667, "is_disabled": 0, "lon": -77.03212516666666}, {"fusion_lat": 0.0, "type": "electric_scooter", "name": "1a0bff825d700f6c2f81035293dc6b55", "fusion_lon": 0.0, "bike_id": "1a0bff825d700f6c2f81035293dc6b55", "is_reserved": 0, "rental_uris": {"android": "https://dc.lft.to/lastmile_qr_scan", "ios": "https://dc.lft.to/lastmile_qr_scan"}, "lat": 38.89221033333333, "is_disabled": 0, "lon": -77.02235366666666}, {"fusion_lat": 0.0, "type": "electric_scooter", "name": "420af51c53ec1e950b76c7698e265702", "fusion_lon": 0.0, "bike_id": "420af51c53ec1e950b76c7698e265702", "is_reserved": 0, "rental_uris": {"android": "https://dc.lft.to/lastmile_qr_scan", "ios": "https://dc.lft.to/lastmile_qr_scan"}, "lat": 38.92150866666667, "is_disabled": 0, "lon": -77.03877866666667}, {"fusion_lat": 0.0, "type": "electric_scooter", "name": "10e99d8b8c58dec22c434125306afa91", "fusion_lon": 0.0, "bike_id": "10e99d8b8c58dec22c434125306afa91", "is_reserved": 0, "rental_uris": {"android": "https://dc.lft.to/lastmile_qr_scan", "ios": "https://dc.lft.to/lastmile_qr_scan"}, "lat": 38.9291425, "is_disabled": 0, "lon": -77.02191333333333}, {"fusion_lat": 0.0, "type": "electric_scooter", "name": "727860e9d8d29f8f99e96ff4be54e078", "fusion_lon": 0.0, "bike_id": "727860e9d8d29f8f99e96ff4be54e078", "is_reserved": 0, "rental_uris": {"android": "https://dc.lft.to/lastmile_qr_scan", "ios": "https://dc.lft.to/lastmile_qr_scan"}, "lat": 38.899179833333335, "is_disabled": 0, "lon": -76.93368766666667}, {"fusion_lat": 0.0, "type": "electric_scooter", "name": "e505a2a8d2df9bf930ca7fb3ff59f108", "fusion_lon": 0.0, "bike_id": "e505a2a8d2df9bf930ca7fb3ff59f108", "is_reserved": 0, "rental_uris": {"android": "https://dc.lft.to/lastmile_qr_scan", "ios": "https://dc.lft.to/lastmile_qr_scan"}, "lat": 38.90007383333333, "is_disabled": 0, "lon": -77.0260665}, {"fusion_lat": 0.0, "type": "electric_scooter", "name": "853feb72a146039f40351ecbcab5ecae", "fusion_lon": 0.0, "bike_id": "853feb72a146039f40351ecbcab5ecae", "is_reserved": 0, "rental_uris": {"android": "https://dc.lft.to/lastmile_qr_scan", "ios": "https://dc.lft.to/lastmile_qr_scan"}, "lat": 38.9140305, "is_disabled": 0, "lon": -77.02019866666667}, {"fusion_lat": 0.0, "type": "electric_scooter", "name": "28ea24168c090cb0a0fe57bd343542b5", "fusion_lon": 0.0, "bike_id": "28ea24168c090cb0a0fe57bd343542b5", "is_reserved": 0, "rental_uris": {"android": "https://dc.lft.to/lastmile_qr_scan", "ios": "https://dc.lft.to/lastmile_qr_scan"}, "lat": 38.89608583333333, "is_disabled": 0, "lon": -77.04466766666667}, {"fusion_lat": 0.0, "type": "electric_scooter", "name": "1e546dfc15d7c693356aae53929a94d8", "fusion_lon": 0.0, "bike_id": "1e546dfc15d7c693356aae53929a94d8", "is_reserved": 0, "rental_uris": {"android": "https://dc.lft.to/lastmile_qr_scan", "ios": "https://dc.lft.to/lastmile_qr_scan"}, "lat": 38.90264633333334, "is_disabled": 0, "lon": -77.00326583333333}, {"fusion_lat": 0.0, "type": "electric_bike", "name": "1c932d42759543fceb2b9443d109cfd1", "fusion_lon": 0.0, "bike_id": "1c932d42759543fceb2b9443d109cfd1", "is_reserved": 0, "rental_uris": {"android": "https://dc.lft.to/lastmile_qr_scan", "ios": "https://dc.lft.to/lastmile_qr_scan"}, "lat": 38.9190195, "is_disabled": 0, "lon": -77.0704765}, {"fusion_lat": 0.0, "type": "electric_scooter", "name": "161138d44eefb224fcccfd368d0c2b04", "fusion_lon": 0.0, "bike_id": "161138d44eefb224fcccfd368d0c2b04", "is_reserved": 0, "rental_uris": {"android": "https://dc.lft.to/lastmile_qr_scan", "ios": "https://dc.lft.to/lastmile_qr_scan"}, "lat": 38.897429333333335, "is_disabled": 0, "lon": -77.04308916666666}, {"fusion_lat": 0.0, "type": "electric_scooter", "name": "4753969f9187a1546691246af64dfadf", "fusion_lon": 0.0, "bike_id": "4753969f9187a1546691246af64dfadf", "is_reserved": 0, "rental_uris": {"android": "https://dc.lft.to/lastmile_qr_scan", "ios": "https://dc.lft.to/lastmile_qr_scan"}, "lat": 38.91988533333333, "is_disabled": 0, "lon": -77.0321265}, {"fusion_lat": 0.0, "type": "electric_scooter", "name": "b2f9c0a047cb003b0a3575a6613ae7e8", "fusion_lon": 0.0, "bike_id": "b2f9c0a047cb003b0a3575a6613ae7e8", "is_reserved": 0, "rental_uris": {"android": "https://dc.lft.to/lastmile_qr_scan", "ios": "https://dc.lft.to/lastmile_qr_scan"}, "lat": 38.864726833333336, "is_disabled": 0, "lon": -76.98226633333333}, {"fusion_lat": 0.0, "type": "electric_scooter", "name": "7d169ff7ea334af7e07103402409e715", "fusion_lon": 0.0, "bike_id": "7d169ff7ea334af7e07103402409e715", "is_reserved": 0, "rental_uris": {"android": "https://dc.lft.to/lastmile_qr_scan", "ios": "https://dc.lft.to/lastmile_qr_scan"}, "lat": 38.92141816666667, "is_disabled": 0, "lon": -77.03376883333334}, {"fusion_lat": 0.0, "type": "electric_bike", "name": "c46530d0b77619ce4e2fb2dbc2275d78", "fusion_lon": 0.0, "bike_id": "c46530d0b77619ce4e2fb2dbc2275d78", "is_reserved": 0, "rental_uris": {"android": "https://dc.lft.to/lastmile_qr_scan", "ios": "https://dc.lft.to/lastmile_qr_scan"}, "lat": 38.85938933333333, "is_disabled": 0, "lon": -77.11829733333333}, {"fusion_lat": 0.0, "type": "electric_bike", "name": "95eee8adb413a9cb6ed4cc65ac2cd877", "fusion_lon": 0.0, "bike_id": "95eee8adb413a9cb6ed4cc65ac2cd877", "is_reserved": 0, "rental_uris": {"android": "https://dc.lft.to/lastmile_qr_scan", "ios": "https://dc.lft.to/lastmile_qr_scan"}, "lat": 38.98156216666667, "is_disabled": 0, "lon": -77.02641633333333}, {"fusion_lat": 0.0, "type": "electric_scooter", "name": "035b68721284dbb9217bb607e16337de", "fusion_lon": 0.0, "bike_id": "035b68721284dbb9217bb607e16337de", "is_reserved": 0, "rental_uris": {"android": "https://dc.lft.to/lastmile_qr_scan", "ios": "https://dc.lft.to/lastmile_qr_scan"}, "lat": 38.8872025, "is_disabled": 0, "lon": -77.02204533333334}, {"fusion_lat": 0.0, "type": "electric_scooter", "name": "f895763ecb72aaf17a00e487345536a5", "fusion_lon": 0.0, "bike_id": "f895763ecb72aaf17a00e487345536a5", "is_reserved": 0, "rental_uris": {"android": "https://dc.lft.to/lastmile_qr_scan", "ios": "https://dc.lft.to/lastmile_qr_scan"}, "lat": 38.94992833333333, "is_disabled": 0, "lon": -77.02702416666666}, {"fusion_lat": 0.0, "type": "electric_scooter", "name": "7817a2ee04f55e4eda74586ecb7936cd", "fusion_lon": 0.0, "bike_id": "7817a2ee04f55e4eda74586ecb7936cd", "is_reserved": 0, "rental_uris": {"android": "https://dc.lft.to/lastmile_qr_scan", "ios": "https://dc.lft.to/lastmile_qr_scan"}, "lat": 38.919984, "is_disabled": 0, "lon": -77.024043}, {"fusion_lat": 0.0, "type": "electric_scooter", "name": "2fbf9e01c520a9571deca3406b27d99d", "fusion_lon": 0.0, "bike_id": "2fbf9e01c520a9571deca3406b27d99d", "is_reserved": 0, "rental_uris": {"android": "https://dc.lft.to/lastmile_qr_scan", "ios": "https://dc.lft.to/lastmile_qr_scan"}, "lat": 38.8861075, "is_disabled": 0, "lon": -77.00136016666667}, {"fusion_lat": 0.0, "type": "electric_scooter", "name": "f380b20a261ba5673e5bd105eb7306de", "fusion_lon": 0.0, "bike_id": "f380b20a261ba5673e5bd105eb7306de", "is_reserved": 0, "rental_uris": {"android": "https://dc.lft.to/lastmile_qr_scan", "ios": "https://dc.lft.to/lastmile_qr_scan"}, "lat": 38.9271935, "is_disabled": 0, "lon": -77.02084783333333}, {"fusion_lat": 0.0, "type": "electric_scooter", "name": "e2bd0d84c776142e67302575f1b01840", "fusion_lon": 0.0, "bike_id": "e2bd0d84c776142e67302575f1b01840", "is_reserved": 0, "rental_uris": {"android": "https://dc.lft.to/lastmile_qr_scan", "ios": "https://dc.lft.to/lastmile_qr_scan"}, "lat": 38.892292833333336, "is_disabled": 0, "lon": -77.03184566666667}, {"fusion_lat": 0.0, "type": "electric_scooter", "name": "02e8ea429ef7dcd106e067979e465825", "fusion_lon": 0.0, "bike_id": "02e8ea429ef7dcd106e067979e465825", "is_reserved": 0, "rental_uris": {"android": "https://dc.lft.to/lastmile_qr_scan", "ios": "https://dc.lft.to/lastmile_qr_scan"}, "lat": 38.931765666666664, "is_disabled": 0, "lon": -77.0710205}, {"fusion_lat": 0.0, "type": "electric_scooter", "name": "7047328af20cb6fb9ca3ece091a76512", "fusion_lon": 0.0, "bike_id": "7047328af20cb6fb9ca3ece091a76512", "is_reserved": 0, "rental_uris": {"android": "https://dc.lft.to/lastmile_qr_scan", "ios": "https://dc.lft.to/lastmile_qr_scan"}, "lat": 38.944174333333336, "is_disabled": 0, "lon": -77.0259945}, {"fusion_lat": 0.0, "type": "electric_scooter", "name": "85aef1dbdc8d4c84810b196d74ff5110", "fusion_lon": 0.0, "bike_id": "85aef1dbdc8d4c84810b196d74ff5110", "is_reserved": 0, "rental_uris": {"android": "https://dc.lft.to/lastmile_qr_scan", "ios": "https://dc.lft.to/lastmile_qr_scan"}, "lat": 38.8927505, "is_disabled": 0, "lon": -77.048754}, {"fusion_lat": 0.0, "type": "electric_scooter", "name": "7df2bf3deb7024627db14b50ab469d8a", "fusion_lon": 0.0, "bike_id": "7df2bf3deb7024627db14b50ab469d8a", "is_reserved": 0, "rental_uris": {"android": "https://dc.lft.to/lastmile_qr_scan", "ios": "https://dc.lft.to/lastmile_qr_scan"}, "lat": 38.90082016666667, "is_disabled": 0, "lon": -76.93019566666666}, {"fusion_lat": 0.0, "type": "electric_bike", "name": "79c1294745dc73b0e9b2813c6fe12605", "fusion_lon": 0.0, "bike_id": "79c1294745dc73b0e9b2813c6fe12605", "is_reserved": 0, "rental_uris": {"android": "https://dc.lft.to/lastmile_qr_scan", "ios": "https://dc.lft.to/lastmile_qr_scan"}, "lat": 38.916459, "is_disabled": 0, "lon": -76.9730395}, {"fusion_lat": 0.0, "type": "electric_scooter", "name": "36a8955e3bffb0d82745a15f91ab2f17", "fusion_lon": 0.0, "bike_id": "36a8955e3bffb0d82745a15f91ab2f17", "is_reserved": 0, "rental_uris": {"android": "https://dc.lft.to/lastmile_qr_scan", "ios": "https://dc.lft.to/lastmile_qr_scan"}, "lat": 38.87208183333333, "is_disabled": 0, "lon": -76.97835316666666}, {"fusion_lat": 0.0, "type": "electric_scooter", "name": "6ba2f62da418760c8e6e8b4714b424f6", "fusion_lon": 0.0, "bike_id": "6ba2f62da418760c8e6e8b4714b424f6", "is_reserved": 0, "rental_uris": {"android": "https://dc.lft.to/lastmile_qr_scan", "ios": "https://dc.lft.to/lastmile_qr_scan"}, "lat": 38.855379666666664, "is_disabled": 0, "lon": -76.98420066666667}, {"fusion_lat": 0.0, "type": "electric_scooter", "name": "4951409e738538331825cc64cdf7c304", "fusion_lon": 0.0, "bike_id": "4951409e738538331825cc64cdf7c304", "is_reserved": 0, "rental_uris": {"android": "https://dc.lft.to/lastmile_qr_scan", "ios": "https://dc.lft.to/lastmile_qr_scan"}, "lat": 38.95070166666667, "is_disabled": 0, "lon": -77.08013283333334}, {"fusion_lat": 0.0, "type": "electric_scooter", "name": "958f6677e2cd8e77934f615439b9f74f", "fusion_lon": 0.0, "bike_id": "958f6677e2cd8e77934f615439b9f74f", "is_reserved": 0, "rental_uris": {"android": "https://dc.lft.to/lastmile_qr_scan", "ios": "https://dc.lft.to/lastmile_qr_scan"}, "lat": 38.9358115, "is_disabled": 0, "lon": -77.0811495}, {"fusion_lat": 0.0, "type": "electric_scooter", "name": "6cb5413558c5d03df73a64352e85f834", "fusion_lon": 0.0, "bike_id": "6cb5413558c5d03df73a64352e85f834", "is_reserved": 0, "rental_uris": {"android": "https://dc.lft.to/lastmile_qr_scan", "ios": "https://dc.lft.to/lastmile_qr_scan"}, "lat": 38.89727766666667, "is_disabled": 0, "lon": -77.02729883333333}, {"fusion_lat": 0.0, "type": "electric_bike", "name": "7c58f8d85f9803e95556be038b927180", "fusion_lon": 0.0, "bike_id": "7c58f8d85f9803e95556be038b927180", "is_reserved": 0, "rental_uris": {"android": "https://dc.lft.to/lastmile_qr_scan", "ios": "https://dc.lft.to/lastmile_qr_scan"}, "lat": 38.922491, "is_disabled": 0, "lon": -77.030729}, {"fusion_lat": 0.0, "type": "electric_scooter", "name": "464bf2b1ccafa9b571ad55c5bd9e6e88", "fusion_lon": 0.0, "bike_id": "464bf2b1ccafa9b571ad55c5bd9e6e88", "is_reserved": 0, "rental_uris": {"android": "https://dc.lft.to/lastmile_qr_scan", "ios": "https://dc.lft.to/lastmile_qr_scan"}, "lat": 38.88487133333334, "is_disabled": 0, "lon": -76.92621133333333}, {"fusion_lat": 0.0, "type": "electric_scooter", "name": "88bf801f956f37ebf512d0ade236c355", "fusion_lon": 0.0, "bike_id": "88bf801f956f37ebf512d0ade236c355", "is_reserved": 0, "rental_uris": {"android": "https://dc.lft.to/lastmile_qr_scan", "ios": "https://dc.lft.to/lastmile_qr_scan"}, "lat": 38.886774833333334, "is_disabled": 0, "lon": -76.95471283333333}, {"fusion_lat": 0.0, "type": "electric_scooter", "name": "9efd38315c11c7db6a44105563ab3bdb", "fusion_lon": 0.0, "bike_id": "9efd38315c11c7db6a44105563ab3bdb", "is_reserved": 0, "rental_uris": {"android": "https://dc.lft.to/lastmile_qr_scan", "ios": "https://dc.lft.to/lastmile_qr_scan"}, "lat": 38.908875333333334, "is_disabled": 0, "lon": -76.98537983333334}, {"fusion_lat": 0.0, "type": "electric_scooter", "name": "b4718663ed2bf0f632e7e16681d75051", "fusion_lon": 0.0, "bike_id": "b4718663ed2bf0f632e7e16681d75051", "is_reserved": 0, "rental_uris": {"android": "https://dc.lft.to/lastmile_qr_scan", "ios": "https://dc.lft.to/lastmile_qr_scan"}, "lat": 38.865061, "is_disabled": 0, "lon": -76.98998916666666}, {"fusion_lat": 0.0, "type": "electric_scooter", "name": "7370338492ad3db75a2422dc76fca398", "fusion_lon": 0.0, "bike_id": "7370338492ad3db75a2422dc76fca398", "is_reserved": 0, "rental_uris": {"android": "https://dc.lft.to/lastmile_qr_scan", "ios": "https://dc.lft.to/lastmile_qr_scan"}, "lat": 38.892274, "is_disabled": 0, "lon": -77.031373}, {"fusion_lat": 0.0, "type": "electric_scooter", "name": "6c719cfaea5e30470fde3461acf0ca5d", "fusion_lon": 0.0, "bike_id": "6c719cfaea5e30470fde3461acf0ca5d", "is_reserved": 0, "rental_uris": {"android": "https://dc.lft.to/lastmile_qr_scan", "ios": "https://dc.lft.to/lastmile_qr_scan"}, "lat": 38.92579683333334, "is_disabled": 0, "lon": -77.02614583333333}, {"fusion_lat": 0.0, "type": "electric_scooter", "name": "a3aeb03253dafb2d6bb95c830bca87fc", "fusion_lon": 0.0, "bike_id": "a3aeb03253dafb2d6bb95c830bca87fc", "is_reserved": 0, "rental_uris": {"android": "https://dc.lft.to/lastmile_qr_scan", "ios": "https://dc.lft.to/lastmile_qr_scan"}, "lat": 38.887475, "is_disabled": 0, "lon": -77.02733616666667}, {"fusion_lat": 0.0, "type": "electric_scooter", "name": "e27cfeba28d76b238d58bac790f51f14", "fusion_lon": 0.0, "bike_id": "e27cfeba28d76b238d58bac790f51f14", "is_reserved": 0, "rental_uris": {"android": "https://dc.lft.to/lastmile_qr_scan", "ios": "https://dc.lft.to/lastmile_qr_scan"}, "lat": 38.90729233333333, "is_disabled": 0, "lon": -77.03192816666666}, {"fusion_lat": 0.0, "type": "electric_scooter", "name": "967a0f0e36a6ba454c63880453927253", "fusion_lon": 0.0, "bike_id": "967a0f0e36a6ba454c63880453927253", "is_reserved": 0, "rental_uris": {"android": "https://dc.lft.to/lastmile_qr_scan", "ios": "https://dc.lft.to/lastmile_qr_scan"}, "lat": 38.91058366666667, "is_disabled": 0, "lon": -77.05322616666666}, {"fusion_lat": 0.0, "type": "electric_scooter", "name": "03d24f2b36ea6fd1702042b9344d80f9", "fusion_lon": 0.0, "bike_id": "03d24f2b36ea6fd1702042b9344d80f9", "is_reserved": 0, "rental_uris": {"android": "https://dc.lft.to/lastmile_qr_scan", "ios": "https://dc.lft.to/lastmile_qr_scan"}, "lat": 38.9363275, "is_disabled": 0, "lon": -77.036616}, {"fusion_lat": 0.0, "type": "electric_scooter", "name": "7158167b45addb14477c346108e1bf3c", "fusion_lon": 0.0, "bike_id": "7158167b45addb14477c346108e1bf3c", "is_reserved": 0, "rental_uris": {"android": "https://dc.lft.to/lastmile_qr_scan", "ios": "https://dc.lft.to/lastmile_qr_scan"}, "lat": 38.93095433333333, "is_disabled": 0, "lon": -77.03743466666667}, {"fusion_lat": 0.0, "type": "electric_scooter", "name": "0788e28382e88bcd391572faa042c582", "fusion_lon": 0.0, "bike_id": "0788e28382e88bcd391572faa042c582", "is_reserved": 0, "rental_uris": {"android": "https://dc.lft.to/lastmile_qr_scan", "ios": "https://dc.lft.to/lastmile_qr_scan"}, "lat": 38.902527166666665, "is_disabled": 0, "lon": -76.974107}, {"fusion_lat": 0.0, "type": "electric_scooter", "name": "da3a515587ea672905bd447ee454a0ac", "fusion_lon": 0.0, "bike_id": "da3a515587ea672905bd447ee454a0ac", "is_reserved": 0, "rental_uris": {"android": "https://dc.lft.to/lastmile_qr_scan", "ios": "https://dc.lft.to/lastmile_qr_scan"}, "lat": 38.912369166666664, "is_disabled": 0, "lon": -77.00918233333333}, {"fusion_lat": 0.0, "type": "electric_scooter", "name": "8af035006f6e466cc55b99e9527b3add", "fusion_lon": 0.0, "bike_id": "8af035006f6e466cc55b99e9527b3add", "is_reserved": 0, "rental_uris": {"android": "https://dc.lft.to/lastmile_qr_scan", "ios": "https://dc.lft.to/lastmile_qr_scan"}, "lat": 38.92248566666667, "is_disabled": 0, "lon": -77.02860933333334}, {"fusion_lat": 0.0, "type": "electric_scooter", "name": "f2c27ed53417d6cbc5b27dee69ce3ff7", "fusion_lon": 0.0, "bike_id": "f2c27ed53417d6cbc5b27dee69ce3ff7", "is_reserved": 0, "rental_uris": {"android": "https://dc.lft.to/lastmile_qr_scan", "ios": "https://dc.lft.to/lastmile_qr_scan"}, "lat": 38.9086515, "is_disabled": 0, "lon": -77.023531}, {"fusion_lat": 0.0, "type": "electric_scooter", "name": "c73764e8de870352788a8fbb4b148293", "fusion_lon": 0.0, "bike_id": "c73764e8de870352788a8fbb4b148293", "is_reserved": 0, "rental_uris": {"android": "https://dc.lft.to/lastmile_qr_scan", "ios": "https://dc.lft.to/lastmile_qr_scan"}, "lat": 38.874757833333334, "is_disabled": 0, "lon": -77.01593933333334}, {"fusion_lat": 0.0, "type": "electric_scooter", "name": "3871a3e23746216a681ea241180f22ba", "fusion_lon": 0.0, "bike_id": "3871a3e23746216a681ea241180f22ba", "is_reserved": 0, "rental_uris": {"android": "https://dc.lft.to/lastmile_qr_scan", "ios": "https://dc.lft.to/lastmile_qr_scan"}, "lat": 38.89786016666667, "is_disabled": 0, "lon": -77.05467483333334}, {"fusion_lat": 0.0, "type": "electric_scooter", "name": "d855fb3677828c517a9a3be4d78744f0", "fusion_lon": 0.0, "bike_id": "d855fb3677828c517a9a3be4d78744f0", "is_reserved": 0, "rental_uris": {"android": "https://dc.lft.to/lastmile_qr_scan", "ios": "https://dc.lft.to/lastmile_qr_scan"}, "lat": 38.92824916666667, "is_disabled": 0, "lon": -77.0225505}, {"fusion_lat": 0.0, "type": "electric_scooter", "name": "9ddd08c48d7e66efdec03c62711ede61", "fusion_lon": 0.0, "bike_id": "9ddd08c48d7e66efdec03c62711ede61", "is_reserved": 0, "rental_uris": {"android": "https://dc.lft.to/lastmile_qr_scan", "ios": "https://dc.lft.to/lastmile_qr_scan"}, "lat": 38.9439005, "is_disabled": 0, "lon": -77.02681766666667}, {"fusion_lat": 0.0, "type": "electric_scooter", "name": "2a4d109784d2e218d84cc94b8f27c67e", "fusion_lon": 0.0, "bike_id": "2a4d109784d2e218d84cc94b8f27c67e", "is_reserved": 0, "rental_uris": {"android": "https://dc.lft.to/lastmile_qr_scan", "ios": "https://dc.lft.to/lastmile_qr_scan"}, "lat": 38.86660833333333, "is_disabled": 0, "lon": -76.98518383333334}, {"fusion_lat": 0.0, "type": "electric_bike", "name": "2ed6835857655a3fc1884b98923fed2e", "fusion_lon": 0.0, "bike_id": "2ed6835857655a3fc1884b98923fed2e", "is_reserved": 0, "rental_uris": {"android": "https://dc.lft.to/lastmile_qr_scan", "ios": "https://dc.lft.to/lastmile_qr_scan"}, "lat": 38.8961845, "is_disabled": 0, "lon": -76.90743516666667}, {"fusion_lat": 0.0, "type": "electric_scooter", "name": "26af5170f3560bce377b1398cd217367", "fusion_lon": 0.0, "bike_id": "26af5170f3560bce377b1398cd217367", "is_reserved": 0, "rental_uris": {"android": "https://dc.lft.to/lastmile_qr_scan", "ios": "https://dc.lft.to/lastmile_qr_scan"}, "lat": 38.9119935, "is_disabled": 0, "lon": -77.02200516666667}, {"fusion_lat": 0.0, "type": "electric_bike", "name": "dece00653492c1c560b140599fd8b34b", "fusion_lon": 0.0, "bike_id": "dece00653492c1c560b140599fd8b34b", "is_reserved": 0, "rental_uris": {"android": "https://dc.lft.to/lastmile_qr_scan", "ios": "https://dc.lft.to/lastmile_qr_scan"}, "lat": 38.89655833333333, "is_disabled": 0, "lon": -76.9301325}, {"fusion_lat": 0.0, "type": "electric_scooter", "name": "9c2eea13d7e5dbe00587b0dfe33ca096", "fusion_lon": 0.0, "bike_id": "9c2eea13d7e5dbe00587b0dfe33ca096", "is_reserved": 0, "rental_uris": {"android": "https://dc.lft.to/lastmile_qr_scan", "ios": "https://dc.lft.to/lastmile_qr_scan"}, "lat": 38.905215166666665, "is_disabled": 0, "lon": -77.04830516666667}, {"fusion_lat": 0.0, "type": "electric_scooter", "name": "9731fe2faafab9364628bba5ec69f914", "fusion_lon": 0.0, "bike_id": "9731fe2faafab9364628bba5ec69f914", "is_reserved": 0, "rental_uris": {"android": "https://dc.lft.to/lastmile_qr_scan", "ios": "https://dc.lft.to/lastmile_qr_scan"}, "lat": 38.921298666666665, "is_disabled": 0, "lon": -77.0253085}, {"fusion_lat": 0.0, "type": "electric_scooter", "name": "f8bcee6c384d497ff67249937e1c7b5f", "fusion_lon": 0.0, "bike_id": "f8bcee6c384d497ff67249937e1c7b5f", "is_reserved": 0, "rental_uris": {"android": "https://dc.lft.to/lastmile_qr_scan", "ios": "https://dc.lft.to/lastmile_qr_scan"}, "lat": 38.918285833333336, "is_disabled": 0, "lon": -77.03442933333334}, {"fusion_lat": 0.0, "type": "electric_bike", "name": "fe14bb55eef83a6a2a2852c597ef5707", "fusion_lon": 0.0, "bike_id": "fe14bb55eef83a6a2a2852c597ef5707", "is_reserved": 0, "rental_uris": {"android": "https://dc.lft.to/lastmile_qr_scan", "ios": "https://dc.lft.to/lastmile_qr_scan"}, "lat": 38.90325833333333, "is_disabled": 0, "lon": -76.97532933333333}, {"fusion_lat": 0.0, "type": "electric_scooter", "name": "da371e65d1f7e5cf7f35b70f91bd94b1", "fusion_lon": 0.0, "bike_id": "da371e65d1f7e5cf7f35b70f91bd94b1", "is_reserved": 0, "rental_uris": {"android": "https://dc.lft.to/lastmile_qr_scan", "ios": "https://dc.lft.to/lastmile_qr_scan"}, "lat": 38.91326166666666, "is_disabled": 0, "lon": -77.04533}, {"fusion_lat": 0.0, "type": "electric_scooter", "name": "365df6b4ddb0c6ef1fcc1612ea8fe1b1", "fusion_lon": 0.0, "bike_id": "365df6b4ddb0c6ef1fcc1612ea8fe1b1", "is_reserved": 0, "rental_uris": {"android": "https://dc.lft.to/lastmile_qr_scan", "ios": "https://dc.lft.to/lastmile_qr_scan"}, "lat": 38.93520066666667, "is_disabled": 0, "lon": -77.07283933333333}, {"fusion_lat": 0.0, "type": "electric_scooter", "name": "d22a872aad1df04789e8291f347ee54b", "fusion_lon": 0.0, "bike_id": "d22a872aad1df04789e8291f347ee54b", "is_reserved": 0, "rental_uris": {"android": "https://dc.lft.to/lastmile_qr_scan", "ios": "https://dc.lft.to/lastmile_qr_scan"}, "lat": 38.919512166666664, "is_disabled": 0, "lon": -76.98077933333333}, {"fusion_lat": 0.0, "type": "electric_scooter", "name": "f608a96281c8f71d416391dc41bd4ead", "fusion_lon": 0.0, "bike_id": "f608a96281c8f71d416391dc41bd4ead", "is_reserved": 0, "rental_uris": {"android": "https://dc.lft.to/lastmile_qr_scan", "ios": "https://dc.lft.to/lastmile_qr_scan"}, "lat": 38.908527666666664, "is_disabled": 0, "lon": -77.04258566666667}, {"fusion_lat": 0.0, "type": "electric_scooter", "name": "182a6a60412f54e2bff775539dbd7674", "fusion_lon": 0.0, "bike_id": "182a6a60412f54e2bff775539dbd7674", "is_reserved": 0, "rental_uris": {"android": "https://dc.lft.to/lastmile_qr_scan", "ios": "https://dc.lft.to/lastmile_qr_scan"}, "lat": 38.92242016666667, "is_disabled": 0, "lon": -77.04366516666667}, {"fusion_lat": 0.0, "type": "electric_scooter", "name": "4bcef7bc6215ff408064acf8cb6f2bb1", "fusion_lon": 0.0, "bike_id": "4bcef7bc6215ff408064acf8cb6f2bb1", "is_reserved": 0, "rental_uris": {"android": "https://dc.lft.to/lastmile_qr_scan", "ios": "https://dc.lft.to/lastmile_qr_scan"}, "lat": 38.939065166666666, "is_disabled": 0, "lon": -77.024746}, {"fusion_lat": 0.0, "type": "electric_scooter", "name": "859d15f463069d4d5eaf389e35d49b62", "fusion_lon": 0.0, "bike_id": "859d15f463069d4d5eaf389e35d49b62", "is_reserved": 0, "rental_uris": {"android": "https://dc.lft.to/lastmile_qr_scan", "ios": "https://dc.lft.to/lastmile_qr_scan"}, "lat": 38.92925983333333, "is_disabled": 0, "lon": -77.03743783333333}, {"fusion_lat": 0.0, "type": "electric_bike", "name": "d0b7e6a05d67b6552535f9d2cd76ddfc", "fusion_lon": 0.0, "bike_id": "d0b7e6a05d67b6552535f9d2cd76ddfc", "is_reserved": 0, "rental_uris": {"android": "https://dc.lft.to/lastmile_qr_scan", "ios": "https://dc.lft.to/lastmile_qr_scan"}, "lat": 38.86580566666667, "is_disabled": 0, "lon": -77.04759466666667}, {"fusion_lat": 0.0, "type": "electric_scooter", "name": "f167acb0f9ea28d1f1389e37a8f81699", "fusion_lon": 0.0, "bike_id": "f167acb0f9ea28d1f1389e37a8f81699", "is_reserved": 0, "rental_uris": {"android": "https://dc.lft.to/lastmile_qr_scan", "ios": "https://dc.lft.to/lastmile_qr_scan"}, "lat": 38.96045133333333, "is_disabled": 0, "lon": -77.08548166666667}, {"fusion_lat": 0.0, "type": "electric_bike", "name": "c79904efa4393677fbb7c9d40cb91f76", "fusion_lon": 0.0, "bike_id": "c79904efa4393677fbb7c9d40cb91f76", "is_reserved": 0, "rental_uris": {"android": "https://dc.lft.to/lastmile_qr_scan", "ios": "https://dc.lft.to/lastmile_qr_scan"}, "lat": 38.95427933333333, "is_disabled": 0, "lon": -76.93279133333333}, {"fusion_lat": 0.0, "type": "electric_scooter", "name": "e305f9aaca07272c2965cb4f72259b8e", "fusion_lon": 0.0, "bike_id": "e305f9aaca07272c2965cb4f72259b8e", "is_reserved": 0, "rental_uris": {"android": "https://dc.lft.to/lastmile_qr_scan", "ios": "https://dc.lft.to/lastmile_qr_scan"}, "lat": 38.88741666666667, "is_disabled": 0, "lon": -77.02738266666667}, {"fusion_lat": 0.0, "type": "electric_scooter", "name": "d425c559c75e70c45d7ef857764ef312", "fusion_lon": 0.0, "bike_id": "d425c559c75e70c45d7ef857764ef312", "is_reserved": 0, "rental_uris": {"android": "https://dc.lft.to/lastmile_qr_scan", "ios": "https://dc.lft.to/lastmile_qr_scan"}, "lat": 38.905483833333335, "is_disabled": 0, "lon": -77.04642016666666}, {"fusion_lat": 0.0, "type": "electric_scooter", "name": "476453e2a2717fa6450e5b942d333d9e", "fusion_lon": 0.0, "bike_id": "476453e2a2717fa6450e5b942d333d9e", "is_reserved": 0, "rental_uris": {"android": "https://dc.lft.to/lastmile_qr_scan", "ios": "https://dc.lft.to/lastmile_qr_scan"}, "lat": 38.92256, "is_disabled": 0, "lon": -77.04300433333333}, {"fusion_lat": 0.0, "type": "electric_scooter", "name": "b2c1939c89b90148cf075c5493d40ad0", "fusion_lon": 0.0, "bike_id": "b2c1939c89b90148cf075c5493d40ad0", "is_reserved": 0, "rental_uris": {"android": "https://dc.lft.to/lastmile_qr_scan", "ios": "https://dc.lft.to/lastmile_qr_scan"}, "lat": 38.9089885, "is_disabled": 0, "lon": -77.0188745}, {"fusion_lat": 0.0, "type": "electric_scooter", "name": "04c1eb6531a2e69b51561e96da86887c", "fusion_lon": 0.0, "bike_id": "04c1eb6531a2e69b51561e96da86887c", "is_reserved": 0, "rental_uris": {"android": "https://dc.lft.to/lastmile_qr_scan", "ios": "https://dc.lft.to/lastmile_qr_scan"}, "lat": 38.86506633333333, "is_disabled": 0, "lon": -76.99001766666666}, {"fusion_lat": 0.0, "type": "electric_bike", "name": "5b8bb926c59f2e5c4e066fee50f52fae", "fusion_lon": 0.0, "bike_id": "5b8bb926c59f2e5c4e066fee50f52fae", "is_reserved": 0, "rental_uris": {"android": "https://dc.lft.to/lastmile_qr_scan", "ios": "https://dc.lft.to/lastmile_qr_scan"}, "lat": 38.8651935, "is_disabled": 0, "lon": -76.97335183333334}, {"fusion_lat": 0.0, "type": "electric_scooter", "name": "bfa84eb31af6e11f56391a67ff9fbba6", "fusion_lon": 0.0, "bike_id": "bfa84eb31af6e11f56391a67ff9fbba6", "is_reserved": 0, "rental_uris": {"android": "https://dc.lft.to/lastmile_qr_scan", "ios": "https://dc.lft.to/lastmile_qr_scan"}, "lat": 38.87454433333333, "is_disabled": 0, "lon": -77.00866533333334}, {"fusion_lat": 0.0, "type": "electric_scooter", "name": "e9a4489519ba117f97018d656d3a6e32", "fusion_lon": 0.0, "bike_id": "e9a4489519ba117f97018d656d3a6e32", "is_reserved": 0, "rental_uris": {"android": "https://dc.lft.to/lastmile_qr_scan", "ios": "https://dc.lft.to/lastmile_qr_scan"}, "lat": 38.9303055, "is_disabled": 0, "lon": -77.03356166666667}, {"fusion_lat": 0.0, "type": "electric_scooter", "name": "74fb80128cc5b38881245ec07bd335e0", "fusion_lon": 0.0, "bike_id": "74fb80128cc5b38881245ec07bd335e0", "is_reserved": 0, "rental_uris": {"android": "https://dc.lft.to/lastmile_qr_scan", "ios": "https://dc.lft.to/lastmile_qr_scan"}, "lat": 38.93952066666667, "is_disabled": 0, "lon": -77.07238583333333}, {"fusion_lat": 0.0, "type": "electric_scooter", "name": "1fa371fb80679130ff50cbd88613d170", "fusion_lon": 0.0, "bike_id": "1fa371fb80679130ff50cbd88613d170", "is_reserved": 0, "rental_uris": {"android": "https://dc.lft.to/lastmile_qr_scan", "ios": "https://dc.lft.to/lastmile_qr_scan"}, "lat": 38.94199916666667, "is_disabled": 0, "lon": -77.02505683333334}, {"fusion_lat": 0.0, "type": "electric_scooter", "name": "35daf42ddd76e8433a3b37846075d2ef", "fusion_lon": 0.0, "bike_id": "35daf42ddd76e8433a3b37846075d2ef", "is_reserved": 0, "rental_uris": {"android": "https://dc.lft.to/lastmile_qr_scan", "ios": "https://dc.lft.to/lastmile_qr_scan"}, "lat": 38.91715266666667, "is_disabled": 0, "lon": -77.0341535}, {"fusion_lat": 0.0, "type": "electric_scooter", "name": "168a2f1c0f372349e691a707224cf115", "fusion_lon": 0.0, "bike_id": "168a2f1c0f372349e691a707224cf115", "is_reserved": 0, "rental_uris": {"android": "https://dc.lft.to/lastmile_qr_scan", "ios": "https://dc.lft.to/lastmile_qr_scan"}, "lat": 38.9247405, "is_disabled": 0, "lon": -77.02986783333333}, {"fusion_lat": 0.0, "type": "electric_scooter", "name": "5dc065df182216c23ba3af24f973874a", "fusion_lon": 0.0, "bike_id": "5dc065df182216c23ba3af24f973874a", "is_reserved": 0, "rental_uris": {"android": "https://dc.lft.to/lastmile_qr_scan", "ios": "https://dc.lft.to/lastmile_qr_scan"}, "lat": 38.89371916666666, "is_disabled": 0, "lon": -76.949869}, {"fusion_lat": 0.0, "type": "electric_scooter", "name": "e12c7c859a54381810294e6759ba2d0e", "fusion_lon": 0.0, "bike_id": "e12c7c859a54381810294e6759ba2d0e", "is_reserved": 0, "rental_uris": {"android": "https://dc.lft.to/lastmile_qr_scan", "ios": "https://dc.lft.to/lastmile_qr_scan"}, "lat": 38.89919866666666, "is_disabled": 0, "lon": -76.9336655}, {"fusion_lat": 0.0, "type": "electric_scooter", "name": "d24e84e6bf8850cc0b5a9f8e58dc9767", "fusion_lon": 0.0, "bike_id": "d24e84e6bf8850cc0b5a9f8e58dc9767", "is_reserved": 0, "rental_uris": {"android": "https://dc.lft.to/lastmile_qr_scan", "ios": "https://dc.lft.to/lastmile_qr_scan"}, "lat": 38.935717333333336, "is_disabled": 0, "lon": -77.021194}, {"fusion_lat": 0.0, "type": "electric_scooter", "name": "6892ec34f787f842980e24b5f792ab38", "fusion_lon": 0.0, "bike_id": "6892ec34f787f842980e24b5f792ab38", "is_reserved": 0, "rental_uris": {"android": "https://dc.lft.to/lastmile_qr_scan", "ios": "https://dc.lft.to/lastmile_qr_scan"}, "lat": 38.90780016666667, "is_disabled": 0, "lon": -77.044785}, {"fusion_lat": 0.0, "type": "electric_scooter", "name": "02164eb5382b47c26711c0309ab5af16", "fusion_lon": 0.0, "bike_id": "02164eb5382b47c26711c0309ab5af16", "is_reserved": 0, "rental_uris": {"android": "https://dc.lft.to/lastmile_qr_scan", "ios": "https://dc.lft.to/lastmile_qr_scan"}, "lat": 38.92141433333333, "is_disabled": 0, "lon": -77.0350605}, {"fusion_lat": 0.0, "type": "electric_scooter", "name": "f75820c275c09cbc3ef6f28cb7422f78", "fusion_lon": 0.0, "bike_id": "f75820c275c09cbc3ef6f28cb7422f78", "is_reserved": 0, "rental_uris": {"android": "https://dc.lft.to/lastmile_qr_scan", "ios": "https://dc.lft.to/lastmile_qr_scan"}, "lat": 38.88718683333333, "is_disabled": 0, "lon": -77.02207566666667}, {"fusion_lat": 0.0, "type": "electric_bike", "name": "d7cc891d14814d417cd72094c697df4a", "fusion_lon": 0.0, "bike_id": "d7cc891d14814d417cd72094c697df4a", "is_reserved": 0, "rental_uris": {"android": "https://dc.lft.to/lastmile_qr_scan", "ios": "https://dc.lft.to/lastmile_qr_scan"}, "lat": 38.94667916666667, "is_disabled": 0, "lon": -76.983068}, {"fusion_lat": 0.0, "type": "electric_scooter", "name": "7ae1b0437c4f4ec2a79eca1065d32cdb", "fusion_lon": 0.0, "bike_id": "7ae1b0437c4f4ec2a79eca1065d32cdb", "is_reserved": 0, "rental_uris": {"android": "https://dc.lft.to/lastmile_qr_scan", "ios": "https://dc.lft.to/lastmile_qr_scan"}, "lat": 38.9041895, "is_disabled": 0, "lon": -77.03001766666667}, {"fusion_lat": 0.0, "type": "electric_scooter", "name": "1d5edd8bd3dad3a85c4dd2783d6d314f", "fusion_lon": 0.0, "bike_id": "1d5edd8bd3dad3a85c4dd2783d6d314f", "is_reserved": 0, "rental_uris": {"android": "https://dc.lft.to/lastmile_qr_scan", "ios": "https://dc.lft.to/lastmile_qr_scan"}, "lat": 38.956321, "is_disabled": 0, "lon": -77.024598}, {"fusion_lat": 0.0, "type": "electric_bike", "name": "1850dca5a42d3e8ef8a755b38d81a05c", "fusion_lon": 0.0, "bike_id": "1850dca5a42d3e8ef8a755b38d81a05c", "is_reserved": 0, "rental_uris": {"android": "https://dc.lft.to/lastmile_qr_scan", "ios": "https://dc.lft.to/lastmile_qr_scan"}, "lat": 38.85204683333333, "is_disabled": 0, "lon": -77.10129666666667}, {"fusion_lat": 0.0, "type": "electric_scooter", "name": "1def5ef278602aba140c615318b32e0d", "fusion_lon": 0.0, "bike_id": "1def5ef278602aba140c615318b32e0d", "is_reserved": 0, "rental_uris": {"android": "https://dc.lft.to/lastmile_qr_scan", "ios": "https://dc.lft.to/lastmile_qr_scan"}, "lat": 38.8787655, "is_disabled": 0, "lon": -77.02323166666666}, {"fusion_lat": 0.0, "type": "electric_scooter", "name": "21ae0140ecdd73d48a672213df793516", "fusion_lon": 0.0, "bike_id": "21ae0140ecdd73d48a672213df793516", "is_reserved": 0, "rental_uris": {"android": "https://dc.lft.to/lastmile_qr_scan", "ios": "https://dc.lft.to/lastmile_qr_scan"}, "lat": 38.9111195, "is_disabled": 0, "lon": -77.03386}, {"fusion_lat": 0.0, "type": "electric_scooter", "name": "5bc8e880f2aca85a6c1ce89368fc8c89", "fusion_lon": 0.0, "bike_id": "5bc8e880f2aca85a6c1ce89368fc8c89", "is_reserved": 0, "rental_uris": {"android": "https://dc.lft.to/lastmile_qr_scan", "ios": "https://dc.lft.to/lastmile_qr_scan"}, "lat": 38.9224835, "is_disabled": 0, "lon": -77.02996933333333}, {"fusion_lat": 0.0, "type": "electric_scooter", "name": "287c37cce75336d3cffe6bf00ffe977a", "fusion_lon": 0.0, "bike_id": "287c37cce75336d3cffe6bf00ffe977a", "is_reserved": 0, "rental_uris": {"android": "https://dc.lft.to/lastmile_qr_scan", "ios": "https://dc.lft.to/lastmile_qr_scan"}, "lat": 38.883661333333336, "is_disabled": 0, "lon": -76.94155066666667}, {"fusion_lat": 0.0, "type": "electric_scooter", "name": "ac079e100f4f473c619d3deb496258ac", "fusion_lon": 0.0, "bike_id": "ac079e100f4f473c619d3deb496258ac", "is_reserved": 0, "rental_uris": {"android": "https://dc.lft.to/lastmile_qr_scan", "ios": "https://dc.lft.to/lastmile_qr_scan"}, "lat": 38.90724766666666, "is_disabled": 0, "lon": -77.0504895}, {"fusion_lat": 0.0, "type": "electric_scooter", "name": "87f5a8f1d5a54bbe979247305e8a7475", "fusion_lon": 0.0, "bike_id": "87f5a8f1d5a54bbe979247305e8a7475", "is_reserved": 0, "rental_uris": {"android": "https://dc.lft.to/lastmile_qr_scan", "ios": "https://dc.lft.to/lastmile_qr_scan"}, "lat": 38.92579466666667, "is_disabled": 0, "lon": -77.0401645}, {"fusion_lat": 0.0, "type": "electric_scooter", "name": "67cfda61fe21d3d22fadbde178ca9308", "fusion_lon": 0.0, "bike_id": "67cfda61fe21d3d22fadbde178ca9308", "is_reserved": 0, "rental_uris": {"android": "https://dc.lft.to/lastmile_qr_scan", "ios": "https://dc.lft.to/lastmile_qr_scan"}, "lat": 38.8939475, "is_disabled": 0, "lon": -77.02248183333333}, {"fusion_lat": 0.0, "type": "electric_scooter", "name": "cd85a96c1272030ae70d8ef617f4085a", "fusion_lon": 0.0, "bike_id": "cd85a96c1272030ae70d8ef617f4085a", "is_reserved": 0, "rental_uris": {"android": "https://dc.lft.to/lastmile_qr_scan", "ios": "https://dc.lft.to/lastmile_qr_scan"}, "lat": 38.91362216666667, "is_disabled": 0, "lon": -77.01999233333333},