{"data": {"bikes": [{"is_disabled": 0, "fusion_lat": 0.0, "lat": 38.88867533333333, "type": "electric_bike", "lon": -76.99467516666667, "is_reserved": 0, "fusion_lon": 0.0, "bike_id": "9e9b5ff6c1862faaa5d1b865ea9f339a", "name": "9e9b5ff6c1862faaa5d1b865ea9f339a", "rental_uris": {"ios": "https://dc.lft.to/lastmile_qr_scan", "android": "https://dc.lft.to/lastmile_qr_scan"}}, {"is_disabled": 0, "fusion_lat": 0.0, "lat": 38.9307725, "type": "electric_scooter", "lon": -77.03129283333334, "is_reserved": 0, "fusion_lon": 0.0, "bike_id": "da636e2ae88a903c2d27633fe345da63", "name": "da636e2ae88a903c2d27633fe345da63", "rental_uris": {"ios": "https://dc.lft.to/lastmile_qr_scan", "android": "https://dc.lft.to/lastmile_qr_scan"}}, {"is_disabled": 0, "fusion_lat": 0.0, "lat": 38.89737383333333, "type": "electric_scooter", "lon": -77.0556775, "is_reserved": 0, "fusion_lon": 0.0, "bike_id": "5f477f0c3be14bbdaf251c2e92bf3fc5", "name": "5f477f0c3be14bbdaf251c2e92bf3fc5", "rental_uris": {"ios": "https://dc.lft.to/lastmile_qr_scan", "android": "https://dc.lft.to/lastmile_qr_scan"}}, {"is_disabled": 0, "fusion_lat": 0.0, "lat": 38.8938065, "type": "electric_scooter", "lon": -77.04774316666666, "is_reserved": 0, "fusion_lon": 0.0, "bike_id": "b7150fd06b7f9f26e9f4b0338dfe75b6", "name": "b7150fd06b7f9f26e9f4b0338dfe75b6", "rental_uris": {"ios": "https://dc.lft.to/lastmile_qr_scan", "android": "https://dc.lft.to/lastmile_qr_scan"}}, {"is_disabled": 0, "fusion_lat": 0.0, "lat": 38.949088833333334, "type": "electric_bike", "lon": -76.97237816666667, "is_reserved": 0, "fusion_lon": 0.0, "bike_id": "73d42bfe6c8ad81f0fed1ab46176ea0f", "name": "73d42bfe6c8ad81f0fed1ab46176ea0f", "rental_uris": {"ios": "https://dc.lft.to/lastmile_qr_scan", "android": "https://dc.lft.to/lastmile_qr_scan"}}, {"is_disabled": 0, "fusion_lat": 0.0, "lat": 38.942383166666666, "type": "electric_scooter", "lon": -77.07235333333334, "is_reserved": 0, "fusion_lon": 0.0, "bike_id": "b54493e2737e2f05495a903be95fd797", "name": "b54493e2737e2f05495a903be95fd797", "rental_uris": {"ios": "https://dc.lft.to/lastmile_qr_scan", "android": "https://dc.lft.to/lastmile_qr_scan"}}, {"is_disabled": 0, "fusion_lat": 0.0, "lat": 38.933202333333334, "type": "electric_scooter", "lon": -77.032857, "is_reserved": 0, "fusion_lon": 0.0, "bike_id": "f47aab7b83926c9899cc96ef6017eec2", "name": "f47aab7b83926c9899cc96ef6017eec2", "rental_uris": {"ios": "https://dc.lft.to/lastmile_qr_scan", "android": "https://dc.lft.to/lastmile_qr_scan"}}, {"is_disabled": 0, "fusion_lat": 0.0, "lat": 38.96509533333333, "type": "electric_bike", "lon": -77.02832016666666, "is_reserved": 0, "fusion_lon": 0.0, "bike_id": "747af65bb3269206a30822b9d3a74740", "name": "747af65bb3269206a30822b9d3a74740", "rental_uris": {"ios": "https://dc.lft.to/lastmile_qr_scan", "android": "https://dc.lft.to/lastmile_qr_scan"}}, {"is_disabled": 0, "fusion_lat": 0.0, "lat": 38.925582, "type": "electric_scooter", "lon": -77.05295416666667, "is_reserved": 0, "fusion_lon": 0.0, "bike_id": "f4a6acafdd8a7d8f6d486e76d83233df", "name": "f4a6acafdd8a7d8f6d486e76d83233df", "rental_uris": {"ios": "https://dc.lft.to/lastmile_qr_scan", "android": "https://dc.lft.to/lastmile_qr_scan"}}, {"is_disabled": 0, "fusion_lat": 0.0, "lat": 38.903787666666666, "type": "electric_scooter", "lon": -77.01094683333334, "is_reserved": 0, "fusion_lon": 0.0, "bike_id": "ba9bb7790f7a52d14b0067dd6503db4c", "name": "ba9bb7790f7a52d14b0067dd6503db4c", "rental_uris": {"ios": "https://dc.lft.to/lastmile_qr_scan", "android": "https://dc.lft.to/lastmile_qr_scan"}}, {"is_disabled": 0, "fusion_lat": 0.0, "lat": 38.951974, "type": "electric_bike", "lon": -76.96720683333334, "is_reserved": 0, "fusion_lon": 0.0, "bike_id": "15020c1f12129cab72bfed4bc05942e9", "name": "15020c1f12129cab72bfed4bc05942e9", "rental_uris": {"ios": "https://dc.lft.to/lastmile_qr_scan", "android": "https://dc.lft.to/lastmile_qr_scan"}}, {"is_disabled": 0, "fusion_lat": 0.0, "lat": 38.903463, "type": "electric_scooter", "lon": -76.97557816666666, "is_reserved": 0, "fusion_lon": 0.0, "bike_id": "fab168e6716bd85b0c9c35fc01ba55e0", "name": "fab168e6716bd85b0c9c35fc01ba55e0", "rental_uris": {"ios": "https://dc.lft.to/lastmile_qr_scan", "android": "https://dc.lft.to/lastmile_qr_scan"}}, {"is_disabled": 0, "fusion_lat": 0.0, "lat": 38.998209833333334, "type": "electric_bike", "lon": -76.88367066666666, "is_reserved": 0, "fusion_lon": 0.0, "bike_id": "67dcfc888672e9b1ac44f9534a657984", "name": "67dcfc888672e9b1ac44f9534a657984", "rental_uris": {"ios": "https://dc.lft.to/lastmile_qr_scan", "android": "https://dc.lft.to/lastmile_qr_scan"}}, {"is_disabled": 0, "fusion_lat": 0.0, "lat": 38.913396166666665, "type": "electric_scooter", "lon": -77.03007216666667, "is_reserved": 0, "fusion_lon": 0.0, "bike_id": "ed3fdc3447b233f420311059083484d9", "name": "ed3fdc3447b233f420311059083484d9", "rental_uris": {"ios": "https://dc.lft.to/lastmile_qr_scan", "android": "https://dc.lft.to/lastmile_qr_scan"}}, {"is_disabled": 0, "fusion_lat": 0.0, "lat": 38.94169766666667, "type": "electric_scooter", "lon": -77.04134233333333, "is_reserved": 0, "fusion_lon": 0.0, "bike_id": "63beaba64a22232f0a855cab37ccde2f", "name": "63beaba64a22232f0a855cab37ccde2f", "rental_uris": {"ios": "https://dc.lft.to/lastmile_qr_scan", "android": "https://dc.lft.to/lastmile_qr_scan"}}, {"is_disabled": 0, "fusion_lat": 0.0, "lat": 38.8639145, "type": "electric_bike", "lon": -76.98986266666667, "is_reserved": 0, "fusion_lon": 0.0, "bike_id": "9cd5f60bab3a82de20c4b821ca80a7c3", "name": "9cd5f60bab3a82de20c4b821ca80a7c3", "rental_uris": {"ios": "https://dc.lft.to/lastmile_qr_scan", "android": "https://dc.lft.to/lastmile_qr_scan"}}, {"is_disabled": 0, "fusion_lat": 0.0, "lat": 38.906896, "type": "electric_scooter", "lon": -77.0635735, "is_reserved": 0, "fusion_lon": 0.0, "bike_id": "59ed95076918aac69e0da9c3b94df536", "name": "59ed95076918aac69e0da9c3b94df536", "rental_uris": {"ios": "https://dc.lft.to/lastmile_qr_scan", "android": "https://dc.lft.to/lastmile_qr_scan"}}, {"is_disabled": 0, "fusion_lat": 0.0, "lat": 38.911310666666665, "type": "electric_scooter", "lon": -77.04453316666667, "is_reserved": 0, "fusion_lon": 0.0, "bike_id": "ae7ae1fcb801d893794b0300531bf262", "name": "ae7ae1fcb801d893794b0300531bf262", "rental_uris": {"ios": "https://dc.lft.to/lastmile_qr_scan", "android": "https://dc.lft.to/lastmile_qr_scan"}}, {"is_disabled": 0, "fusion_lat": 0.0, "lat": 38.92470633333333, "type": "electric_scooter", "lon": -77.07863683333333, "is_reserved": 0, "fusion_lon": 0.0, "bike_id": "b6be3760a36c611df05f0bd009e13494", "name": "b6be3760a36c611df05f0bd009e13494", "rental_uris": {"ios": "https://dc.lft.to/lastmile_qr_scan", "android": "https://dc.lft.to/lastmile_qr_scan"}}, {"is_disabled": 0, "fusion_lat": 0.0, "lat": 38.92254, "type": "electric_scooter", "lon": -77.0425055, "is_reserved": 0, "fusion_lon": 0.0, "bike_id": "b34d7bf0ceb1e0d5d7f6bba4feb01b5b", "name": "b34d7bf0ceb1e0d5d7f6bba4feb01b5b", "rental_uris": {"ios": "https://dc.lft.to/lastmile_qr_scan", "android": "https://dc.lft.to/lastmile_qr_scan"}}, {"is_disabled": 0, "fusion_lat": 0.0, "lat": 38.907807, "type": "electric_scooter", "lon": -77.03864316666666, "is_reserved": 0, "fusion_lon": 0.0, "bike_id": "4042f895f64c22fd994f159e9fc6c8b2", "name": "4042f895f64c22fd994f159e9fc6c8b2", "rental_uris": {"ios": "https://dc.lft.to/lastmile_qr_scan", "android": "https://dc.lft.to/lastmile_qr_scan"}}, {"is_disabled": 0, "fusion_lat": 0.0, "lat": 38.915560666666664, "type": "electric_scooter", "lon": -77.00955233333333, "is_reserved": 0, "fusion_lon": 0.0, "bike_id": "e13ec91d1ff1914041647d02e94bc974", "name": "e13ec91d1ff1914041647d02e94bc974", "rental_uris": {"ios": "https://dc.lft.to/lastmile_qr_scan", "android": "https://dc.lft.to/lastmile_qr_scan"}}, {"is_disabled": 0, "fusion_lat": 0.0, "lat": 38.90153866666667, "type": "electric_scooter", "lon": -77.04229883333333, "is_reserved": 0, "fusion_lon": 0.0, "bike_id": "8896fb88a49fd0daf6061b78597448fe", "name": "8896fb88a49fd0daf6061b78597448fe", "rental_uris": {"ios": "https://dc.lft.to/lastmile_qr_scan", "android": "https://dc.lft.to/lastmile_qr_scan"}}, {"is_disabled": 0, "fusion_lat": 0.0, "lat": 38.89832883333333, "type": "electric_scooter", "lon": -76.94635766666667, "is_reserved": 0, "fusion_lon": 0.0, "bike_id": "1e10d81cb84effc7250c146d31cb4bb8", "name": "1e10d81cb84effc7250c146d31cb4bb8", "rental_uris": {"ios": "https://dc.lft.to/lastmile_qr_scan", "android": "https://dc.lft.to/lastmile_qr_scan"}}, {"is_disabled": 0, "fusion_lat": 0.0, "lat": 38.904228833333335, "type": "electric_scooter", "lon": -77.048604, "is_reserved": 0, "fusion_lon": 0.0, "bike_id": "f799bf2b1cf5d4a46169461ab342e845", "name": "f799bf2b1cf5d4a46169461ab342e845", "rental_uris": {"ios": "https://dc.lft.to/lastmile_qr_scan", "android": "https://dc.lft.to/lastmile_qr_scan"}}, {"is_disabled": 0, "fusion_lat": 0.0, "lat": 38.91551616666667, "type": "electric_scooter", "lon": -77.04153766666667, "is_reserved": 0, "fusion_lon": 0.0, "bike_id": "c69b9f0be24e7edf5daa5bf99466495b", "name": "c69b9f0be24e7edf5daa5bf99466495b", "rental_uris": {"ios": "https://dc.lft.to/lastmile_qr_scan", "android": "https://dc.lft.to/lastmile_qr_scan"}}, {"is_disabled": 0, "fusion_lat": 0.0, "lat": 38.932742166666664, "type": "electric_bike", "lon": -77.03986433333333, "is_reserved": 0, "fusion_lon": 0.0, "bike_id": "4c5fc8f7e911f6e4a90cc7b87b0e3cfc", "name": "4c5fc8f7e911f6e4a90cc7b87b0e3cfc", "rental_uris": {"ios": "https://dc.lft.to/lastmile_qr_scan", "android": "https://dc.lft.to/lastmile_qr_scan"}}, {"is_disabled": 0, "fusion_lat": 0.0, "lat": 38.91107083333333, "type": "electric_scooter", "lon": -77.042013, "is_reserved": 0, "fusion_lon": 0.0, "bike_id": "93a1bf3fa067f9672aed7bfa888f7dae", "name": "93a1bf3fa067f9672aed7bfa888f7dae", "rental_uris": {"ios": "https://dc.lft.to/lastmile_qr_scan", "android": "https://dc.lft.to/lastmile_qr_scan"}}, {"is_disabled": 0, "fusion_lat": 0.0, "lat": 38.91828316666667, "type": "electric_scooter", "lon": -77.03641933333333, "is_reserved": 0, "fusion_lon": 0.0, "bike_id": "60e47b3005d201de478c5995a00f40fe", "name": "60e47b3005d201de478c5995a00f40fe", "rental_uris": {"ios": "https://dc.lft.to/lastmile_qr_scan", "android": "https://dc.lft.to/lastmile_qr_scan"}}, {"is_disabled": 0, "fusion_lat": 0.0, "lat": 39.052095666666666, "type": "electric_bike", "lon": -77.1091105, "is_reserved": 0, "fusion_lon": 0.0, "bike_id": "3f9ecfe6bb26a32b7d628bde57f8cc1c", "name": "3f9ecfe6bb26a32b7d628bde57f8cc1c", "rental_uris": {"ios": "https://dc.lft.to/lastmile_qr_scan", "android": "https://dc.lft.to/lastmile_qr_scan"}}, {"is_disabled": 0, "fusion_lat": 0.0, "lat": 38.92428266666667, "type": "electric_scooter", "lon": -77.05762366666667, "is_reserved": 0, "fusion_lon": 0.0, "bike_id": "c70af4eb887df1b0f3c5620d69e5df45", "name": "c70af4eb887df1b0f3c5620d69e5df45", "rental_uris": {"ios": "https://dc.lft.to/lastmile_qr_scan", "android": "https://dc.lft.to/lastmile_qr_scan"}}, {"is_disabled": 0, "fusion_lat": 0.0, "lat": 38.90998183333333, "type": "electric_scooter", "lon": -77.0400885, "is_reserved": 0, "fusion_lon": 0.0, "bike_id": "1d57c103a99147c1bcd14cc0b927d1fa", "name": "1d57c103a99147c1bcd14cc0b927d1fa", "rental_uris": {"ios": "https://dc.lft.to/lastmile_qr_scan", "android": "https://dc.lft.to/lastmile_qr_scan"}}, {"is_disabled": 0, "fusion_lat": 0.0, "lat": 38.9175425, "type": "electric_scooter", "lon": -77.03182833333334, "is_reserved": 0, "fusion_lon": 0.0, "bike_id": "1148467ec843cc63ddaf0d46b3d43e15", "name": "1148467ec843cc63ddaf0d46b3d43e15", "rental_uris": {"ios": "https://dc.lft.to/lastmile_qr_scan", "android": "https://dc.lft.to/lastmile_qr_scan"}}, {"is_disabled": 0, "fusion_lat": 0.0, "lat": 38.92741683333333, "type": "electric_scooter", "lon": -77.03561233333333, "is_reserved": 0, "fusion_lon": 0.0, "bike_id": "5d841ac3c3bc78861a9c5e6673a385ea", "name": "5d841ac3c3bc78861a9c5e6673a385ea", "rental_uris": {"ios": "https://dc.lft.to/lastmile_qr_scan", "android": "https://dc.lft.to/lastmile_qr_scan"}}, {"is_disabled": 0, "fusion_lat": 0.0, "lat": 38.97879433333333, "type": "electric_scooter", "lon": -77.02547416666667, "is_reserved": 0, "fusion_lon": 0.0, "bike_id": "e26cad656a02421d5eccba0a04853c7e", "name": "e26cad656a02421d5eccba0a04853c7e", "rental_uris": {"ios": "https://dc.lft.to/lastmile_qr_scan", "android": "https://dc.lft.to/lastmile_qr_scan"}}, {"is_disabled": 0, "fusion_lat": 0.0, "lat": 38.90920766666667, "type": "electric_scooter", "lon": -77.04385783333333, "is_reserved": 0, "fusion_lon": 0.0, "bike_id": "1b411a62449dc6a28fb54ba22804d411", "name": "1b411a62449dc6a28fb54ba22804d411", "rental_uris": {"ios": "https://dc.lft.to/lastmile_qr_scan", "android": "https://dc.lft.to/lastmile_qr_scan"}}, {"is_disabled": 0, "fusion_lat": 0.0, "lat": 38.91112966666667, "type": "electric_scooter", "lon": -77.04503283333334, "is_reserved": 0, "fusion_lon": 0.0, "bike_id": "d19459c88db08ad836fe1589c8c5db11", "name": "d19459c88db08ad836fe1589c8c5db11", "rental_uris": {"ios": "https://dc.lft.to/lastmile_qr_scan", "android": "https://dc.lft.to/lastmile_qr_scan"}}, {"is_disabled": 0, "fusion_lat": 0.0, "lat": 38.9059285, "type": "electric_scooter", "lon": -77.0325225, "is_reserved": 0, "fusion_lon": 0.0, "bike_id": "9cfe32bd32fa747f4dae2900017a67b6", "name": "9cfe32bd32fa747f4dae2900017a67b6", "rental_uris": {"ios": "https://dc.lft.to/lastmile_qr_scan", "android": "https://dc.lft.to/lastmile_qr_scan"}}, {"is_disabled": 0, "fusion_lat": 0.0, "lat": 38.88994666666667, "type": "electric_scooter", "lon": -76.947036, "is_reserved": 0, "fusion_lon": 0.0, "bike_id": "4cf68fffcbebd557634018bc1a385697", "name": "4cf68fffcbebd557634018bc1a385697", "rental_uris": {"ios": "https://dc.lft.to/lastmile_qr_scan", "android": "https://dc.lft.to/lastmile_qr_scan"}}, {"is_disabled": 0, "fusion_lat": 0.0, "lat": 38.90552266666667, "type": "electric_bike", "lon": -77.002181, "is_reserved": 0, "fusion_lon": 0.0, "bike_id": "7e897b618b2c95a3c6d9f8af9e216c95", "name": "7e897b618b2c95a3c6d9f8af9e216c95", "rental_uris": {"ios": "https://dc.lft.to/lastmile_qr_scan", "android": "https://dc.lft.to/lastmile_qr_scan"}}, {"is_disabled": 0, "fusion_lat": 0.0, "lat": 38.8323865, "type": "electric_bike", "lon": -76.94630016666666, "is_reserved": 0, "fusion_lon": 0.0, "bike_id": "477b10857ccf5eb56ca02fb32c3be531", "name": "477b10857ccf5eb56ca02fb32c3be531", "rental_uris": {"ios": "https://dc.lft.to/lastmile_qr_scan", "android": "https://dc.lft.to/lastmile_qr_scan"}}, {"is_disabled": 0, "fusion_lat": 0.0, "lat": 38.925497166666666, "type": "electric_scooter", "lon": -77.0336655, "is_reserved": 0, "fusion_lon": 0.0, "bike_id": "d23148e085c4a67c5d76849d99dc27f4", "name": "d23148e085c4a67c5d76849d99dc27f4", "rental_uris": {"ios": "https://dc.lft.to/lastmile_qr_scan", "android": "https://dc.lft.to/lastmile_qr_scan"}}, {"is_disabled": 0, "fusion_lat": 0.0, "lat": 38.92449233333333, "type": "electric_scooter", "lon": -77.0203355, "is_reserved": 0, "fusion_lon": 0.0, "bike_id": "616afa61feb0b2ba5fc0c3427bee4cc2", "name": "616afa61feb0b2ba5fc0c3427bee4cc2", "rental_uris": {"ios": "https://dc.lft.to/lastmile_qr_scan", "android": "https://dc.lft.to/lastmile_qr_scan"}}, {"is_disabled": 0, "fusion_lat": 0.0, "lat": 38.91122816666667, "type": "electric_scooter", "lon": -77.03829116666667, "is_reserved": 0, "fusion_lon": 0.0, "bike_id": "ed27e97502ba7af110260a2e37fdd2d6", "name": "ed27e97502ba7af110260a2e37fdd2d6", "rental_uris": {"ios": "https://dc.lft.to/lastmile_qr_scan", "android": "https://dc.lft.to/lastmile_qr_scan"}}, {"is_disabled": 0, "fusion_lat": 0.0, "lat": 38.86460966666667, "type": "electric_scooter", "lon": -76.98244316666667, "is_reserved": 0, "fusion_lon": 0.0, "bike_id": "7b91e434f300e783641ba0297df7a139", "name": "7b91e434f300e783641ba0297df7a139", "rental_uris": {"ios": "https://dc.lft.to/lastmile_qr_scan", "android": "https://dc.lft.to/lastmile_qr_scan"}}, {"is_disabled": 0, "fusion_lat": 0.0, "lat": 38.9157775, "type": "electric_scooter", "lon": -77.04698816666667, "is_reserved": 0, "fusion_lon": 0.0, "bike_id": "d939b3d4c85e29208e71c649e6040220", "name": "d939b3d4c85e29208e71c649e6040220", "rental_uris": {"ios": "https://dc.lft.to/lastmile_qr_scan", "android": "https://dc.lft.to/lastmile_qr_scan"}}, {"is_disabled": 0, "fusion_lat": 0.0, "lat": 38.867265333333336, "type": "electric_scooter", "lon": -76.987855, "is_reserved": 0, "fusion_lon": 0.0, "bike_id": "e8d3f193c569d800eea7a65d8d533742", "name": "e8d3f193c569d800eea7a65d8d533742", "rental_uris": {"ios": "https://dc.lft.to/lastmile_qr_scan", "android": "https://dc.lft.to/lastmile_qr_scan"}}, {"is_disabled": 0, "fusion_lat": 0.0, "lat": 38.91984566666667, "type": "electric_scooter", "lon": -77.04164566666667, "is_reserved": 0, "fusion_lon": 0.0, "bike_id": "d2e37f91e550dbd76125979a4204bac1", "name": "d2e37f91e550dbd76125979a4204bac1", "rental_uris": {"ios": "https://dc.lft.to/lastmile_qr_scan", "android": "https://dc.lft.to/lastmile_qr_scan"}}, {"is_disabled": 0, "fusion_lat": 0.0, "lat": 38.902549, "type": "electric_scooter", "lon": -77.01746, "is_reserved": 0, "fusion_lon": 0.0, "bike_id": "861ecae0205ce3b175f043fce781aa1c", "name": "861ecae0205ce3b175f043fce781aa1c", "rental_uris": {"ios": "https://dc.lft.to/lastmile_qr_scan", "android": "https://dc.lft.to/lastmile_qr_scan"}}, {"is_disabled": 0, "fusion_lat": 0.0, "lat": 38.91670116666667, "type": "electric_scooter", "lon": -77.00661033333333, "is_reserved": 0, "fusion_lon": 0.0, "bike_id": "fa29b303c490a8f713bce5cd2183e467", "name": "fa29b303c490a8f713bce5cd2183e467", "rental_uris": {"ios": "https://dc.lft.to/lastmile_qr_scan", "android": "https://dc.lft.to/lastmile_qr_scan"}}, {"is_disabled": 0, "fusion_lat": 0.0, "lat": 38.90140316666667, "type": "electric_scooter", "lon": -77.038605, "is_reserved": 0, "fusion_lon": 0.0, "bike_id": "36acfa8ba5a228a27ef0966ea3b09d72", "name": "36acfa8ba5a228a27ef0966ea3b09d72", "rental_uris": {"ios": "https://dc.lft.to/lastmile_qr_scan", "android": "https://dc.lft.to/lastmile_qr_scan"}}, {"is_disabled": 0, "fusion_lat": 0.0, "lat": 38.876364333333335, "type": "electric_scooter", "lon": -77.01640333333333, "is_reserved": 0, "fusion_lon": 0.0, "bike_id": "5fb91cd1a0e33dc533322adb53ea2bc8", "name": "5fb91cd1a0e33dc533322adb53ea2bc8", "rental_uris": {"ios": "https://dc.lft.to/lastmile_qr_scan", "android": "https://dc.lft.to/lastmile_qr_scan"}}, {"is_disabled": 0, "fusion_lat": 0.0, "lat": 38.9405205, "type": "electric_scooter", "lon": -77.09269133333333, "is_reserved": 0, "fusion_lon": 0.0, "bike_id": "4a456399519cdbb050ab9975c7688190", "name": "4a456399519cdbb050ab9975c7688190", "rental_uris": {"ios": "https://dc.lft.to/lastmile_qr_scan", "android": "https://dc.lft.to/lastmile_qr_scan"}}, {"is_disabled": 0, "fusion_lat": 0.0, "lat": 38.90145833333333, "type": "electric_scooter", "lon": -77.01815583333334, "is_reserved": 0, "fusion_lon": 0.0, "bike_id": "9949d72d8b0862f6a91ae549ebffc6f7", "name": "9949d72d8b0862f6a91ae549ebffc6f7", "rental_uris": {"ios": "https://dc.lft.to/lastmile_qr_scan", "android": "https://dc.lft.to/lastmile_qr_scan"}}, {"is_disabled": 0, "fusion_lat": 0.0, "lat": 38.90504816666667, "type": "electric_scooter", "lon": -77.02949366666667, "is_reserved": 0, "fusion_lon": 0.0, "bike_id": "f54f53868afac8ecde2460a56891fa9b", "name": "f54f53868afac8ecde2460a56891fa9b", "rental_uris": {"ios": "https://dc.lft.to/lastmile_qr_scan", "android": "https://dc.lft.to/lastmile_qr_scan"}}, {"is_disabled": 0, "fusion_lat": 0.0, "lat": 38.8429415, "type": "electric_scooter", "lon": -76.99945866666667, "is_reserved": 0, "fusion_lon": 0.0, "bike_id": "1313ea2e79b4b3b10652369ff2393f64", "name": "1313ea2e79b4b3b10652369ff2393f64", "rental_uris": {"ios": "https://dc.lft.to/lastmile_qr_scan", "android": "https://dc.lft.to/lastmile_qr_scan"}}, {"is_disabled": 0, "fusion_lat": 0.0, "lat": 38.91478583333333, "type": "electric_scooter", "lon": -77.03838383333333, "is_reserved": 0, "fusion_lon": 0.0, "bike_id": "aad5245ce7c49953fdf9c543fdf0e6a5", "name": "aad5245ce7c49953fdf9c543fdf0e6a5", "rental_uris": {"ios": "https://dc.lft.to/lastmile_qr_scan", "android": "https://dc.lft.to/lastmile_qr_scan"}}, {"is_disabled": 0, "fusion_lat": 0.0, "lat": 38.9736965, "type": "electric_scooter", "lon": -77.01863033333333, "is_reserved": 0, "fusion_lon": 0.0, "bike_id": "5056f17cd27da56b2153fb93a432bd1d", "name": "5056f17cd27da56b2153fb93a432bd1d", "rental_uris": {"ios": "https://dc.lft.to/lastmile_qr_scan", "android": "https://dc.lft.to/lastmile_qr_scan"}}, {"is_disabled": 0, "fusion_lat": 0.0, "lat": 38.93983166666666, "type": "electric_scooter", "lon": -77.02882883333334, "is_reserved": 0, "fusion_lon": 0.0, "bike_id": "ae0bafff8ac533c2617acc75d53e121f", "name": "ae0bafff8ac533c2617acc75d53e121f", "rental_uris": {"ios": "https://dc.lft.to/lastmile_qr_scan", "android": "https://dc.lft.to/lastmile_qr_scan"}}, {"is_disabled": 0, "fusion_lat": 0.0, "lat": 38.859613833333334, "type": "electric_scooter", "lon": -76.9910645, "is_reserved": 0, "fusion_lon": 0.0, "bike_id": "a893430b4bbaeec04a22522048bbb71c", "name": "a893430b4bbaeec04a22522048bbb71c", "rental_uris": {"ios": "https://dc.lft.to/lastmile_qr_scan", "android": "https://dc.lft.to/lastmile_qr_scan"}}, {"is_disabled": 0, "fusion_lat": 0.0, "lat": 38.92475783333333, "type": "electric_scooter", "lon": -77.02635883333333, "is_reserved": 0, "fusion_lon": 0.0, "bike_id": "67149188d896e53929dd9d2e2eb55790", "name": "67149188d896e53929dd9d2e2eb55790", "rental_uris": {"ios": "https://dc.lft.to/lastmile_qr_scan", "android": "https://dc.lft.to/lastmile_qr_scan"}}, {"is_disabled": 0, "fusion_lat": 0.0, "lat": 38.944534833333336, "type": "electric_scooter", "lon": -77.06350383333333, "is_reserved": 0, "fusion_lon": 0.0, "bike_id": "7a244edeb3f56a81156412b4f6253589", "name": "7a244edeb3f56a81156412b4f6253589", "rental_uris": {"ios": "https://dc.lft.to/lastmile_qr_scan", "android": "https://dc.lft.to/lastmile_qr_scan"}}, {"is_disabled": 0, "fusion_lat": 0.0, "lat": 38.91811933333334, "type": "electric_scooter", "lon": -77.03302183333334, "is_reserved": 0, "fusion_lon": 0.0, "bike_id": "d833daa9885709e2d3822c18efc997d7", "name": "d833daa9885709e2d3822c18efc997d7", "rental_uris": {"ios": "https://dc.lft.to/lastmile_qr_scan", "android": "https://dc.lft.to/lastmile_qr_scan"}}, {"is_disabled": 0, "fusion_lat": 0.0, "lat": 38.923149, "type": "electric_scooter", "lon": -77.03910283333333, "is_reserved": 0, "fusion_lon": 0.0, "bike_id": "9db77eb9446341d748d558e780e34d0e", "name": "9db77eb9446341d748d558e780e34d0e", "rental_uris": {"ios": "https://dc.lft.to/lastmile_qr_scan", "android": "https://dc.lft.to/lastmile_qr_scan"}}, {"is_disabled": 0, "fusion_lat": 0.0, "lat": 38.878414166666666, "type": "electric_scooter", "lon": -77.01957833333333, "is_reserved": 0, "fusion_lon": 0.0, "bike_id": "7b96377f94228cdbe9da3c8374223025", "name": "7b96377f94228cdbe9da3c8374223025", "rental_uris": {"ios": "https://dc.lft.to/lastmile_qr_scan", "android": "https://dc.lft.to/lastmile_qr_scan"}}, {"is_disabled": 0, "fusion_lat": 0.0, "lat": 38.89224516666667, "type": "electric_scooter", "lon": -77.04652833333333, "is_reserved": 0, "fusion_lon": 0.0, "bike_id": "81a0d34445e6af0c28adda2094666dfe", "name": "81a0d34445e6af0c28adda2094666dfe", "rental_uris": {"ios": "https://dc.lft.to/lastmile_qr_scan", "android": "https://dc.lft.to/lastmile_qr_scan"}}, {"is_disabled": 0, "fusion_lat": 0.0, "lat": 38.9169435, "type": "electric_scooter", "lon": -77.04602433333334, "is_reserved": 0, "fusion_lon": 0.0, "bike_id": "52afaedf1ab8aca3025718bb5ec1badd", "name": "52afaedf1ab8aca3025718bb5ec1badd", "rental_uris": {"ios": "https://dc.lft.to/lastmile_qr_scan", "android": "https://dc.lft.to/lastmile_qr_scan"}}, {"is_disabled": 0, "fusion_lat": 0.0, "lat": 38.91299683333333, "type": "electric_scooter", "lon": -77.01961733333333, "is_reserved": 0, "fusion_lon": 0.0, "bike_id": "3091cdaa900a8a6fb972687c66bc6271", "name": "3091cdaa900a8a6fb972687c66bc6271", "rental_uris": {"ios": "https://dc.lft.to/lastmile_qr_scan", "android": "https://dc.lft.to/lastmile_qr_scan"}}, {"is_disabled": 0, "fusion_lat": 0.0, "lat": 38.93249633333333, "type": "electric_scooter", "lon": -77.032771, "is_reserved": 0, "fusion_lon": 0.0, "bike_id": "0671531d96146485611eb9662d0dd936", "name": "0671531d96146485611eb9662d0dd936", "rental_uris": {"ios": "https://dc.lft.to/lastmile_qr_scan", "android": "https://dc.lft.to/lastmile_qr_scan"}}, {"is_disabled": 0, "fusion_lat": 0.0, "lat": 38.92855016666667, "type": "electric_scooter", "lon": -77.05420383333333, "is_reserved": 0, "fusion_lon": 0.0, "bike_id": "75a190d2bc46a2434cad2572e4935915", "name": "75a190d2bc46a2434cad2572e4935915", "rental_uris": {"ios": "https://dc.lft.to/lastmile_qr_scan", "android": "https://dc.lft.to/lastmile_qr_scan"}}, {"is_disabled": 0, "fusion_lat": 0.0, "lat": 38.93287, "type": "electric_scooter", "lon": -77.03974583333333, "is_reserved": 0, "fusion_lon": 0.0, "bike_id": "6746822ae5fd1422e2c0979d3dc218ba", "name": "6746822ae5fd1422e2c0979d3dc218ba", "rental_uris": {"ios": "https://dc.lft.to/lastmile_qr_scan", "android": "https://dc.lft.to/lastmile_qr_scan"}}, {"is_disabled": 0, "fusion_lat": 0.0, "lat": 38.911214, "type": "electric_scooter", "lon": -77.04843233333334, "is_reserved": 0, "fusion_lon": 0.0, "bike_id": "c1ecc65b75bbb3ca499c2288691b4efd", "name": "c1ecc65b75bbb3ca499c2288691b4efd", "rental_uris": {"ios": "https://dc.lft.to/lastmile_qr_scan", "android": "https://dc.lft.to/lastmile_qr_scan"}}, {"is_disabled": 0, "fusion_lat": 0.0, "lat": 38.89625383333333, "type": "electric_scooter", "lon": -76.99850616666667, "is_reserved": 0, "fusion_lon": 0.0, "bike_id": "d267f7c439b2f0adac8ab09c2ec74c8c", "name": "d267f7c439b2f0adac8ab09c2ec74c8c", "rental_uris": {"ios": "https://dc.lft.to/lastmile_qr_scan", "android": "https://dc.lft.to/lastmile_qr_scan"}}, {"is_disabled": 0, "fusion_lat": 0.0, "lat": 38.86909683333333, "type": "electric_bike", "lon": -77.1317845, "is_reserved": 0, "fusion_lon": 0.0, "bike_id": "ae549d6b1922f382b630e67924a6856b", "name": "ae549d6b1922f382b630e67924a6856b", "rental_uris": {"ios": "https://dc.lft.to/lastmile_qr_scan", "android": "https://dc.lft.to/lastmile_qr_scan"}}, {"is_disabled": 0, "fusion_lat": 0.0, "lat": 38.898293333333335, "type": "electric_scooter", "lon": -77.033162, "is_reserved": 0, "fusion_lon": 0.0, "bike_id": "bcdcbc9b7121e101051d5fb95957b13c", "name": "bcdcbc9b7121e101051d5fb95957b13c", "rental_uris": {"ios": "https://dc.lft.to/lastmile_qr_scan", "android": "https://dc.lft.to/lastmile_qr_scan"}}, {"is_disabled": 0, "fusion_lat": 0.0, "lat": 38.905689833333334, "type": "electric_scooter", "lon": -77.03074266666667, "is_reserved": 0, "fusion_lon": 0.0, "bike_id": "1dcb892c15246e6674b08ced62c8e8b8", "name": "1dcb892c15246e6674b08ced62c8e8b8", "rental_uris": {"ios": "https://dc.lft.to/lastmile_qr_scan", "android": "https://dc.lft.to/lastmile_qr_scan"}}, {"is_disabled": 0, "fusion_lat": 0.0, "lat": 38.92916433333333, "type": "electric_scooter", "lon": -77.03185466666666, "is_reserved": 0, "fusion_lon": 0.0, "bike_id": "17dafdc0e581429e62580175bce60055", "name": "17dafdc0e581429e62580175bce60055", "rental_uris": {"ios": "https://dc.lft.to/lastmile_qr_scan", "android": "https://dc.lft.to/lastmile_qr_scan"}}, {"is_disabled": 0, "fusion_lat": 0.0, "lat": 38.8922645, "type": "electric_scooter", "lon": -77.04635833333333, "is_reserved": 0, "fusion_lon": 0.0, "bike_id": "5b8215e07e88ade71067188aaad5a1e4", "name": "5b8215e07e88ade71067188aaad5a1e4", "rental_uris": {"ios": "https://dc.lft.to/lastmile_qr_scan", "android": "https://dc.lft.to/lastmile_qr_scan"}}, {"is_disabled": 0, "fusion_lat": 0.0, "lat": 38.8197895, "type": "electric_bike", "lon": -76.99816316666667, "is_reserved": 0, "fusion_lon": 0.0, "bike_id": "80463d6b3ece94898c563269507f252b", "name": "80463d6b3ece94898c563269507f252b", "rental_uris": {"ios": "https://dc.lft.to/lastmile_qr_scan", "android": "https://dc.lft.to/lastmile_qr_scan"}}, {"is_disabled": 0, "fusion_lat": 0.0, "lat": 38.941513, "type": "electric_scooter", "lon": -77.02983033333334, "is_reserved": 0, "fusion_lon": 0.0, "bike_id": "f6e34b4c058e76a9b3073425a2216498", "name": "f6e34b4c058e76a9b3073425a2216498", "rental_uris": {"ios": "https://dc.lft.to/lastmile_qr_scan", "android": "https://dc.lft.to/lastmile_qr_scan"}}, {"is_disabled": 0, "fusion_lat": 0.0, "lat": 38.93249566666667, "type": "electric_scooter", "lon": -77.03108633333333, "is_reserved": 0, "fusion_lon": 0.0, "bike_id": "98f9bb1aa0ac397386c9f13f361c60b4", "name": "98f9bb1aa0ac397386c9f13f361c60b4", "rental_uris": {"ios": "https://dc.lft.to/lastmile_qr_scan", "android": "https://dc.lft.to/lastmile_qr_scan"}}, {"is_disabled": 0, "fusion_lat": 0.0, "lat": 38.927747, "type": "electric_scooter", "lon": -77.02713983333334, "is_reserved": 0, "fusion_lon": 0.0, "bike_id": "6d33b0a97debdd672403a0a213e28eee", "name": "6d33b0a97debdd672403a0a213e28eee", "rental_uris": {"ios": "https://dc.lft.to/lastmile_qr_scan", "android": "https://dc.lft.to/lastmile_qr_scan"}}, {"is_disabled": 0, "fusion_lat": 0.0, "lat": 38.8988525, "type": "electric_scooter", "lon": -77.03317333333334, "is_reserved": 0, "fusion_lon": 0.0, "bike_id": "ba2fc8324b5ce12553c65e2cd24e0d28", "name": "ba2fc8324b5ce12553c65e2cd24e0d28", "rental_uris": {"ios": "https://dc.lft.to/lastmile_qr_scan", "android": "https://dc.lft.to/lastmile_qr_scan"}}, {"is_disabled": 0, "fusion_lat": 0.0, "lat": 38.89227366666667, "type": "electric_scooter", "lon": -77.04638933333334, "is_reserved": 0, "fusion_lon": 0.0, "bike_id": "9775ab027cfec3d66458a8b453bb2074", "name": "9775ab027cfec3d66458a8b453bb2074", "rental_uris": {"ios": "https://dc.lft.to/lastmile_qr_scan", "android": "https://dc.lft.to/lastmile_qr_scan"}}, {"is_disabled": 0, "fusion_lat": 0.0, "lat": 38.927050666666666, "type": "electric_scooter", "lon": -77.02083116666667, "is_reserved": 0, "fusion_lon": 0.0, "bike_id": "ef32d8be73138f6f1450d542d3a431f3", "name": "ef32d8be73138f6f1450d542d3a431f3", "rental_uris": {"ios": "https://dc.lft.to/lastmile_qr_scan", "android": "https://dc.lft.to/lastmile_qr_scan"}}, {"is_disabled": 0, "fusion_lat": 0.0, "lat": 38.87190483333333, "type": "electric_bike", "lon": -77.084072, "is_reserved": 0, "fusion_lon": 0.0, "bike_id": "12bf4f88fb70889daadf049be141e402", "name": "12bf4f88fb70889daadf049be141e402", "rental_uris": {"ios": "https://dc.lft.to/lastmile_qr_scan", "android": "https://dc.lft.to/lastmile_qr_scan"}}, {"is_disabled": 0, "fusion_lat": 0.0, "lat": 38.89368966666667, "type": "electric_scooter", "lon": -76.949619, "is_reserved": 0, "fusion_lon": 0.0, "bike_id": "9fb9fd197e813b316fd8c0c82b0e43f6", "name": "9fb9fd197e813b316fd8c0c82b0e43f6", "rental_uris": {"ios": "https://dc.lft.to/lastmile_qr_scan", "android": "https://dc.lft.to/lastmile_qr_scan"}}, {"is_disabled": 0, "fusion_lat": 0.0, "lat": 38.90968983333333, "type": "electric_scooter", "lon": -77.04040583333334, "is_reserved": 0, "fusion_lon": 0.0, "bike_id": "380a9d4e3d1e90f413f8d1123acd70e5", "name": "380a9d4e3d1e90f413f8d1123acd70e5", "rental_uris": {"ios": "https://dc.lft.to/lastmile_qr_scan", "android": "https://dc.lft.to/lastmile_qr_scan"}}, {"is_disabled": 0, "fusion_lat": 0.0, "lat": 38.91496333333333, "type": "electric_scooter", "lon": -76.98380883333333, "is_reserved": 0, "fusion_lon": 0.0, "bike_id": "6cba773e89bc412aeb85cb0b5e6fbe51", "name": "6cba773e89bc412aeb85cb0b5e6fbe51", "rental_uris": {"ios": "https://dc.lft.to/lastmile_qr_scan", "android": "https://dc.lft.to/lastmile_qr_scan"}}, {"is_disabled": 0, "fusion_lat": 0.0, "lat": 38.905732, "type": "electric_scooter", "lon": -77.03829633333334, "is_reserved": 0, "fusion_lon": 0.0, "bike_id": "cdf8f08fa920f6dbc4d86dd502b9695d", "name": "cdf8f08fa920f6dbc4d86dd502b9695d", "rental_uris": {"ios": "https://dc.lft.to/lastmile_qr_scan", "android": "https://dc.lft.to/lastmile_qr_scan"}}, {"is_disabled": 0, "fusion_lat": 0.0, "lat": 38.9621875, "type": "electric_bike", "lon": -77.02632166666666, "is_reserved": 0, "fusion_lon": 0.0, "bike_id": "74af8754cd1ff3f5ae569cec7e457d69", "name": "74af8754cd1ff3f5ae569cec7e457d69", "rental_uris": {"ios": "https://dc.lft.to/lastmile_qr_scan", "android": "https://dc.lft.to/lastmile_qr_scan"}}, {"is_disabled": 0, "fusion_lat": 0.0, "lat": 38.857720666666665, "type": "electric_bike", "lon": -76.98764133333333, "is_reserved": 0, "fusion_lon": 0.0, "bike_id": "1339b29e9aaef7a7ecd0678775080681", "name": "1339b29e9aaef7a7ecd0678775080681", "rental_uris": {"ios": "https://dc.lft.to/lastmile_qr_scan", "android": "https://dc.lft.to/lastmile_qr_scan"}}, {"is_disabled": 0, "fusion_lat": 0.0, "lat": 38.901303, "type": "electric_scooter", "lon": -77.002792, "is_reserved": 0, "fusion_lon": 0.0, "bike_id": "e2937ff237916244c98e4d2c6c7ee688", "name": "e2937ff237916244c98e4d2c6c7ee688", "rental_uris": {"ios": "https://dc.lft.to/lastmile_qr_scan", "android": "https://dc.lft.to/lastmile_qr_scan"}}, {"is_disabled": 0, "fusion_lat": 0.0, "lat": 38.930606, "type": "electric_scooter", "lon": -77.0265965, "is_reserved": 0, "fusion_lon": 0.0, "bike_id": "a35cbb2f419412f6f79a8c74f28e8dc4", "name": "a35cbb2f419412f6f79a8c74f28e8dc4", "rental_uris": {"ios": "https://dc.lft.to/lastmile_qr_scan", "android": "https://dc.lft.to/lastmile_qr_scan"}}, {"is_disabled": 0, "fusion_lat": 0.0, "lat": 38.866246333333336, "type": "electric_scooter", "lon": -76.98703383333333, "is_reserved": 0, "fusion_lon": 0.0, "bike_id": "06f8f3955068167b20bcae8fafd63558", "name": "06f8f3955068167b20bcae8fafd63558", "rental_uris": {"ios": "https://dc.lft.to/lastmile_qr_scan", "android": "https://dc.lft.to/lastmile_qr_scan"}}, {"is_disabled": 0, "fusion_lat": 0.0, "lat": 38.930968166666666, "type": "electric_scooter", "lon": -77.03745283333333, "is_reserved": 0, "fusion_lon": 0.0, "bike_id": "e2df8d9a65b4e28fefaf1513a50c1e80", "name": "e2df8d9a65b4e28fefaf1513a50c1e80", "rental_uris": {"ios": "https://dc.lft.to/lastmile_qr_scan", "android": "https://dc.lft.to/lastmile_qr_scan"}}, {"is_disabled": 0, "fusion_lat": 0.0, "lat": 38.84938416666667, "type": "electric_bike", "lon": -77.100144, "is_reserved": 0, "fusion_lon": 0.0, "bike_id": "95c24a21b3a70146c92ddd4b24f4add0", "name": "95c24a21b3a70146c92ddd4b24f4add0", "rental_uris": {"ios": "https://dc.lft.to/lastmile_qr_scan", "android": "https://dc.lft.to/lastmile_qr_scan"}}, {"is_disabled": 0, "fusion_lat": 0.0, "lat": 38.84298666666667, "type": "electric_scooter", "lon": -76.99945133333334, "is_reserved": 0, "fusion_lon": 0.0, "bike_id": "68c2b99d5fd09e6cdd4830680f9aa505", "name": "68c2b99d5fd09e6cdd4830680f9aa505", "rental_uris": {"ios": "https://dc.lft.to/lastmile_qr_scan", "android": "https://dc.lft.to/lastmile_qr_scan"}}, {"is_disabled": 0, "fusion_lat": 0.0, "lat": 38.89374683333333, "type": "electric_scooter", "lon": -76.94997466666666, "is_reserved": 0, "fusion_lon": 0.0, "bike_id": "e0fdefc23fcbea2d185312dfee629a8b", "name": "e0fdefc23fcbea2d185312dfee629a8b", "rental_uris": {"ios": "https://dc.lft.to/lastmile_qr_scan", "android": "https://dc.lft.to/lastmile_qr_scan"}}, {"is_disabled": 0, "fusion_lat": 0.0, "lat": 38.905680333333336, "type": "electric_scooter", "lon": -77.00715766666667, "is_reserved": 0, "fusion_lon": 0.0, "bike_id": "e1e851219b54b4a57531b01863d40ecf", "name": "e1e851219b54b4a57531b01863d40ecf", "rental_uris": {"ios": "https://dc.lft.to/lastmile_qr_scan", "android": "https://dc.lft.to/lastmile_qr_scan"}}, {"is_disabled": 0, "fusion_lat": 0.0, "lat": 38.91888683333333, "type": "electric_scooter", "lon": -77.0297175, "is_reserved": 0, "fusion_lon": 0.0, "bike_id": "0f7df9ec7d6a4deff04bf421899ca3cc", "name": "0f7df9ec7d6a4deff04bf421899ca3cc", "rental_uris": {"ios": "https://dc.lft.to/lastmile_qr_scan", "android": "https://dc.lft.to/lastmile_qr_scan"}}, {"is_disabled": 0, "fusion_lat": 0.0, "lat": 38.884888, "type": "electric_scooter", "lon": -77.0152765, "is_reserved": 0, "fusion_lon": 0.0, "bike_id": "a1c251b0d5597b1ed77122169aa594bb", "name": "a1c251b0d5597b1ed77122169aa594bb", "rental_uris": {"ios": "https://dc.lft.to/lastmile_qr_scan", "android": "https://dc.lft.to/lastmile_qr_scan"}}, {"is_disabled": 0, "fusion_lat": 0.0, "lat": 38.907146833333336, "type": "electric_scooter", "lon": -77.0436405, "is_reserved": 0, "fusion_lon": 0.0, "bike_id": "df6d1b266c3a283a70d717d41a59901d", "name": "df6d1b266c3a283a70d717d41a59901d", "rental_uris": {"ios": "https://dc.lft.to/lastmile_qr_scan", "android": "https://dc.lft.to/lastmile_qr_scan"}}, {"is_disabled": 0, "fusion_lat": 0.0, "lat": 38.96391966666667, "type": "electric_scooter", "lon": -77.0259255, "is_reserved": 0, "fusion_lon": 0.0, "bike_id": "24557e19dbdc01493aa19eb7fe0bb8b7", "name": "24557e19dbdc01493aa19eb7fe0bb8b7", "rental_uris": {"ios": "https://dc.lft.to/lastmile_qr_scan", "android": "https://dc.lft.to/lastmile_qr_scan"}}, {"is_disabled": 0, "fusion_lat": 0.0, "lat": 38.92144716666667, "type": "electric_scooter", "lon": -77.01796983333334, "is_reserved": 0, "fusion_lon": 0.0, "bike_id": "6f0f5c006db5a96c3bc33df3c7fe10ef", "name": "6f0f5c006db5a96c3bc33df3c7fe10ef", "rental_uris": {"ios": "https://dc.lft.to/lastmile_qr_scan", "android": "https://dc.lft.to/lastmile_qr_scan"}}, {"is_disabled": 0, "fusion_lat": 0.0, "lat": 38.88186983333333, "type": "electric_scooter", "lon": -77.0208325, "is_reserved": 0, "fusion_lon": 0.0, "bike_id": "ccf70187c6f64a69f5aff36b71c39b99", "name": "ccf70187c6f64a69f5aff36b71c39b99", "rental_uris": {"ios": "https://dc.lft.to/lastmile_qr_scan", "android": "https://dc.lft.to/lastmile_qr_scan"}}, {"is_disabled": 0, "fusion_lat": 0.0, "lat": 38.93247616666667, "type": "electric_scooter", "lon": -77.03279416666666, "is_reserved": 0, "fusion_lon": 0.0, "bike_id": "8a75a85fc4e875997984b55bb3e92343", "name": "8a75a85fc4e875997984b55bb3e92343", "rental_uris": {"ios": "https://dc.lft.to/lastmile_qr_scan", "android": "https://dc.lft.to/lastmile_qr_scan"}}, {"is_disabled": 0, "fusion_lat": 0.0, "lat": 38.806217, "type": "electric_bike", "lon": -77.06347366666667, "is_reserved": 0, "fusion_lon": 0.0, "bike_id": "eb46fa0df40024d24a8a26627bbc0af9", "name": "eb46fa0df40024d24a8a26627bbc0af9", "rental_uris": {"ios": "https://dc.lft.to/lastmile_qr_scan", "android": "https://dc.lft.to/lastmile_qr_scan"}}, {"is_disabled": 0, "fusion_lat": 0.0, "lat": 38.941674166666665, "type": "electric_scooter", "lon": -77.02534033333333, "is_reserved": 0, "fusion_lon": 0.0, "bike_id": "fcaa124aa7bd7e353bed5105179cf0e0", "name": "fcaa124aa7bd7e353bed5105179cf0e0", "rental_uris": {"ios": "https://dc.lft.to/lastmile_qr_scan", "android": "https://dc.lft.to/lastmile_qr_scan"}}, {"is_disabled": 0, "fusion_lat": 0.0, "lat": 38.92099, "type": "electric_scooter", "lon": -77.02532683333334, "is_reserved": 0, "fusion_lon": 0.0, "bike_id": "5b0b01e723b4d12d16c291ab7750c48a", "name": "5b0b01e723b4d12d16c291ab7750c48a", "rental_uris": {"ios": "https://dc.lft.to/lastmile_qr_scan", "android": "https://dc.lft.to/lastmile_qr_scan"}}, {"is_disabled": 0, "fusion_lat": 0.0, "lat": 38.98512683333333, "type": "electric_bike", "lon": -76.98228466666667, "is_reserved": 0, "fusion_lon": 0.0, "bike_id": "90e10d87d0260af970bce1d8a24ff8f5", "name": "90e10d87d0260af970bce1d8a24ff8f5", "rental_uris": {"ios": "https://dc.lft.to/lastmile_qr_scan", "android": "https://dc.lft.to/lastmile_qr_scan"}}, {"is_disabled": 0, "fusion_lat": 0.0, "lat": 38.92476116666667, "type": "electric_scooter", "lon": -77.026311, "is_reserved": 0, "fusion_lon": 0.0, "bike_id": "5c759a8d4c66febc130ccc0f2ec110a1", "name": "5c759a8d4c66febc130ccc0f2ec110a1", "rental_uris": {"ios": "https://dc.lft.to/lastmile_qr_scan", "android": "https://dc.lft.to/lastmile_qr_scan"}}, {"is_disabled": 0, "fusion_lat": 0.0, "lat": 38.86062283333333, "type": "electric_scooter", "lon": -76.9842345, "is_reserved": 0, "fusion_lon": 0.0, "bike_id": "965c3f03b84799c5b3fc6a40ce4486f0", "name": "965c3f03b84799c5b3fc6a40ce4486f0", "rental_uris": {"ios": "https://dc.lft.to/lastmile_qr_scan", "android": "https://dc.lft.to/lastmile_qr_scan"}}, {"is_disabled": 0, "fusion_lat": 0.0, "lat": 38.9078915, "type": "electric_scooter", "lon": -77.03661016666666, "is_reserved": 0, "fusion_lon": 0.0, "bike_id": "c288286da2bee698a23dc6afc8e031ca", "name": "c288286da2bee698a23dc6afc8e031ca", "rental_uris": {"ios": "https://dc.lft.to/lastmile_qr_scan", "android": "https://dc.lft.to/lastmile_qr_scan"}}, {"is_disabled": 0, "fusion_lat": 0.0, "lat": 38.9301925, "type": "electric_scooter", "lon": -77.0208695, "is_reserved": 0, "fusion_lon": 0.0, "bike_id": "63c68a373d10592a508bc600ae66b4d2", "name": "63c68a373d10592a508bc600ae66b4d2", "rental_uris": {"ios": "https://dc.lft.to/lastmile_qr_scan", "android": "https://dc.lft.to/lastmile_qr_scan"}}, {"is_disabled": 0, "fusion_lat": 0.0, "lat": 38.8226905, "type": "electric_bike", "lon": -77.058093, "is_reserved": 0, "fusion_lon": 0.0, "bike_id": "5a405e1ef80dfef4bd9f73df8c802310", "name": "5a405e1ef80dfef4bd9f73df8c802310", "rental_uris": {"ios": "https://dc.lft.to/lastmile_qr_scan", "android": "https://dc.lft.to/lastmile_qr_scan"}}, {"is_disabled": 0, "fusion_lat": 0.0, "lat": 38.91050216666667, "type": "electric_scooter", "lon": -77.00999716666666, "is_reserved": 0, "fusion_lon": 0.0, "bike_id": "d5183b788f26d12a6a456fe0a30ee108", "name": "d5183b788f26d12a6a456fe0a30ee108", "rental_uris": {"ios": "https://dc.lft.to/lastmile_qr_scan", "android": "https://dc.lft.to/lastmile_qr_scan"}}, {"is_disabled": 0, "fusion_lat": 0.0, "lat": 38.8982945, "type": "electric_scooter", "lon": -77.03151483333333, "is_reserved": 0, "fusion_lon": 0.0, "bike_id": "c93e3f51dc0f07a8ca0a154a1ff8aeca", "name": "c93e3f51dc0f07a8ca0a154a1ff8aeca", "rental_uris": {"ios": "https://dc.lft.to/lastmile_qr_scan", "android": "https://dc.lft.to/lastmile_qr_scan"}}, {"is_disabled": 0, "fusion_lat": 0.0, "lat": 38.8787815, "type": "electric_scooter", "lon": -77.005825, "is_reserved": 0, "fusion_lon": 0.0, "bike_id": "a66725c1e78987578aea26e7db594687", "name": "a66725c1e78987578aea26e7db594687", "rental_uris": {"ios": "https://dc.lft.to/lastmile_qr_scan", "android": "https://dc.lft.to/lastmile_qr_scan"}}, {"is_disabled": 0, "fusion_lat": 0.0, "lat": 38.86996366666666, "type": "electric_bike", "lon": -76.95986383333333, "is_reserved": 0, "fusion_lon": 0.0, "bike_id": "5c2340af192028aecd1d3b8cddb97756", "name": "5c2340af192028aecd1d3b8cddb97756", "rental_uris": {"ios": "https://dc.lft.to/lastmile_qr_scan", "android": "https://dc.lft.to/lastmile_qr_scan"}}, {"is_disabled": 0, "fusion_lat": 0.0, "lat": 38.884978, "type": "electric_scooter", "lon": -77.00713483333334, "is_reserved": 0, "fusion_lon": 0.0, "bike_id": "8432f2f2ce822b2b06604165407834fe", "name": "8432f2f2ce822b2b06604165407834fe", "rental_uris": {"ios": "https://dc.lft.to/lastmile_qr_scan", "android": "https://dc.lft.to/lastmile_qr_scan"}}, {"is_disabled": 0, "fusion_lat": 0.0, "lat": 38.92461083333333, "type": "electric_bike", "lon": -76.97558866666667, "is_reserved": 0, "fusion_lon": 0.0, "bike_id": "ebd97ffa1fc435fcda31df410dcc1060", "name": "ebd97ffa1fc435fcda31df410dcc1060", "rental_uris": {"ios": "https://dc.lft.to/lastmile_qr_scan", "android": "https://dc.lft.to/lastmile_qr_scan"}}, {"is_disabled": 0, "fusion_lat": 0.0, "lat": 38.855654333333334, "type": "electric_scooter", "lon": -76.99500333333333, "is_reserved": 0, "fusion_lon": 0.0, "bike_id": "98d3d5ac423db06f883606a13540aeb7", "name": "98d3d5ac423db06f883606a13540aeb7", "rental_uris": {"ios": "https://dc.lft.to/lastmile_qr_scan", "android": "https://dc.lft.to/lastmile_qr_scan"}}, {"is_disabled": 0, "fusion_lat": 0.0, "lat": 38.920085666666665, "type": "electric_scooter", "lon": -77.02200816666667, "is_reserved": 0, "fusion_lon": 0.0, "bike_id": "fe7b6de62686ed5012ded769a86d7bc3", "name": "fe7b6de62686ed5012ded769a86d7bc3", "rental_uris": {"ios": "https://dc.lft.to/lastmile_qr_scan", "android": "https://dc.lft.to/lastmile_qr_scan"}}, {"is_disabled": 0, "fusion_lat": 0.0, "lat": 38.927265166666665, "type": "electric_scooter", "lon": -77.03656633333334, "is_reserved": 0, "fusion_lon": 0.0, "bike_id": "2a2fa2ce7b64d50c76eff177abc82124", "name": "2a2fa2ce7b64d50c76eff177abc82124", "rental_uris": {"ios": "https://dc.lft.to/lastmile_qr_scan", "android": "https://dc.lft.to/lastmile_qr_scan"}}, {"is_disabled": 0, "fusion_lat": 0.0, "lat": 38.90297316666667, "type": "electric_scooter", "lon": -77.04024383333334, "is_reserved": 0, "fusion_lon": 0.0, "bike_id": "4ee0d9d170d4414730d7ec33a1d91580", "name": "4ee0d9d170d4414730d7ec33a1d91580", "rental_uris": {"ios": "https://dc.lft.to/lastmile_qr_scan", "android": "https://dc.lft.to/lastmile_qr_scan"}}, {"is_disabled": 0, "fusion_lat": 0.0, "lat": 38.9155475, "type": "electric_scooter", "lon": -77.02158666666666, "is_reserved": 0, "fusion_lon": 0.0, "bike_id": "7d40017c4b6b9bdc34b0c5558b5af5c4", "name": "7d40017c4b6b9bdc34b0c5558b5af5c4", "rental_uris": {"ios": "https://dc.lft.to/lastmile_qr_scan", "android": "https://dc.lft.to/lastmile_qr_scan"}}, {"is_disabled": 0, "fusion_lat": 0.0, "lat": 38.9324815, "type": "electric_scooter", "lon": -77.0295125, "is_reserved": 0, "fusion_lon": 0.0, "bike_id": "42e9a5d7d578c0f03ca1fc0163c75933", "name": "42e9a5d7d578c0f03ca1fc0163c75933", "rental_uris": {"ios": "https://dc.lft.to/lastmile_qr_scan", "android": "https://dc.lft.to/lastmile_qr_scan"}}, {"is_disabled": 0, "fusion_lat": 0.0, "lat": 38.91740333333333, "type": "electric_scooter", "lon": -77.03438566666667, "is_reserved": 0, "fusion_lon": 0.0, "bike_id": "8a4372dc92f68bed05b4e9fe45584ee6", "name": "8a4372dc92f68bed05b4e9fe45584ee6", "rental_uris": {"ios": "https://dc.lft.to/lastmile_qr_scan", "android": "https://dc.lft.to/lastmile_qr_scan"}}, {"is_disabled": 0, "fusion_lat": 0.0, "lat": 38.902575666666664, "type": "electric_scooter", "lon": -77.01857033333333, "is_reserved": 0, "fusion_lon": 0.0, "bike_id": "d241bd6da7917b6b14a142e31f9bc7a7", "name": "d241bd6da7917b6b14a142e31f9bc7a7", "rental_uris": {"ios": "https://dc.lft.to/lastmile_qr_scan", "android": "https://dc.lft.to/lastmile_qr_scan"}}, {"is_disabled": 0, "fusion_lat": 0.0, "lat": 38.91549416666667, "type": "electric_scooter", "lon": -77.03854433333333, "is_reserved": 0, "fusion_lon": 0.0, "bike_id": "ce30d87f69e8e78e97616d6c46934e79", "name": "ce30d87f69e8e78e97616d6c46934e79", "rental_uris": {"ios": "https://dc.lft.to/lastmile_qr_scan", "android": "https://dc.lft.to/lastmile_qr_scan"}}, {"is_disabled": 0, "fusion_lat": 0.0, "lat": 38.91264533333333, "type": "electric_scooter", "lon": -77.03631266666666, "is_reserved": 0, "fusion_lon": 0.0, "bike_id": "f800e28ff1ba9bb6f001227798b097e4", "name": "f800e28ff1ba9bb6f001227798b097e4", "rental_uris": {"ios": "https://dc.lft.to/lastmile_qr_scan", "android": "https://dc.lft.to/lastmile_qr_scan"}}, {"is_disabled": 0, "fusion_lat": 0.0, "lat": 38.86372516666667, "type": "electric_scooter", "lon": -76.9904555, "is_reserved": 0, "fusion_lon": 0.0, "bike_id": "a6d0ecc5155bdd157f0b93f9caa1e896", "name": "a6d0ecc5155bdd157f0b93f9caa1e896", "rental_uris": {"ios": "https://dc.lft.to/lastmile_qr_scan", "android": "https://dc.lft.to/lastmile_qr_scan"}}, {"is_disabled": 0, "fusion_lat": 0.0, "lat": 38.87119883333333, "type": "electric_scooter", "lon": -77.01070866666667, "is_reserved": 0, "fusion_lon": 0.0, "bike_id": "58a384e269be3248d0c992e3411c3866", "name": "58a384e269be3248d0c992e3411c3866", "rental_uris": {"ios": "https://dc.lft.to/lastmile_qr_scan", "android": "https://dc.lft.to/lastmile_qr_scan"}}, {"is_disabled": 0, "fusion_lat": 0.0, "lat": 38.94515333333333, "type": "electric_bike", "lon": -77.00670933333333, "is_reserved": 0, "fusion_lon": 0.0, "bike_id": "b5bbe6091e47971f5c106394998715a3", "name": "b5bbe6091e47971f5c106394998715a3", "rental_uris": {"ios": "https://dc.lft.to/lastmile_qr_scan", "android": "https://dc.lft.to/lastmile_qr_scan"}}, {"is_disabled": 0, "fusion_lat": 0.0, "lat": 38.8773455, "type": "electric_bike", "lon": -77.11848516666667, "is_reserved": 0, "fusion_lon": 0.0, "bike_id": "6b2a3cd3883c12a373e45f98f512aafe", "name": "6b2a3cd3883c12a373e45f98f512aafe", "rental_uris": {"ios": "https://dc.lft.to/lastmile_qr_scan", "android": "https://dc.lft.to/lastmile_qr_scan"}}, {"is_disabled": 0, "fusion_lat": 0.0, "lat": 38.951870666666665, "type": "electric_bike", "lon": -76.93542233333334, "is_reserved": 0, "fusion_lon": 0.0, "bike_id": "1675fb7cc4d9c20155478857b55d32f4", "name": "1675fb7cc4d9c20155478857b55d32f4", "rental_uris": {"ios": "https://dc.lft.to/lastmile_qr_scan", "android": "https://dc.lft.to/lastmile_qr_scan"}}, {"is_disabled": 0, "fusion_lat": 0.0, "lat": 38.9285955, "type": "electric_scooter", "lon": -77.0287975, "is_reserved": 0, "fusion_lon": 0.0, "bike_id": "ac5b2c56d1ae0a6df2eccf28bbf830ad", "name": "ac5b2c56d1ae0a6df2eccf28bbf830ad", "rental_uris": {"ios": "https://dc.lft.to/lastmile_qr_scan", "android": "https://dc.lft.to/lastmile_qr_scan"}}, {"is_disabled": 0, "fusion_lat": 0.0, "lat": 38.939758833333336, "type": "electric_scooter", "lon": -77.03588416666666, "is_reserved": 0, "fusion_lon": 0.0, "bike_id": "c57ecf62c5c838b8485bb86d8484c432", "name": "c57ecf62c5c838b8485bb86d8484c432", "rental_uris": {"ios": "https://dc.lft.to/lastmile_qr_scan", "android": "https://dc.lft.to/lastmile_qr_scan"}}, {"is_disabled": 0, "fusion_lat": 0.0, "lat": 38.904798166666666, "type": "electric_scooter", "lon": -77.04871866666667, "is_reserved": 0, "fusion_lon": 0.0, "bike_id": "e412c748ba5049d3d835ef119e5d6245", "name": "e412c748ba5049d3d835ef119e5d6245", "rental_uris": {"ios": "https://dc.lft.to/lastmile_qr_scan", "android": "https://dc.lft.to/lastmile_qr_scan"}}, {"is_disabled": 0, "fusion_lat": 0.0, "lat": 38.93455266666667, "type": "electric_scooter", "lon": -77.03051966666666, "is_reserved": 0, "fusion_lon": 0.0, "bike_id": "c40c5897482464cd46af320bf653d7ad", "name": "c40c5897482464cd46af320bf653d7ad", "rental_uris": {"ios": "https://dc.lft.to/lastmile_qr_scan", "android": "https://dc.lft.to/lastmile_qr_scan"}}, {"is_disabled": 0, "fusion_lat": 0.0, "lat": 38.942143333333334, "type": "electric_bike", "lon": -77.01825483333333, "is_reserved": 0, "fusion_lon": 0.0, "bike_id": "5e86f68dcceb696acffd9d491fe6c42e", "name": "5e86f68dcceb696acffd9d491fe6c42e", "rental_uris": {"ios": "https://dc.lft.to/lastmile_qr_scan", "android": "https://dc.lft.to/lastmile_qr_scan"}}, {"is_disabled": 0, "fusion_lat": 0.0, "lat": 38.8948315, "type": "electric_scooter", "lon": -77.05020066666667, "is_reserved": 0, "fusion_lon": 0.0, "bike_id": "af9629137f271a38fc8f899b267a1e8b", "name": "af9629137f271a38fc8f899b267a1e8b", "rental_uris": {"ios": "https://dc.lft.to/lastmile_qr_scan", "android": "https://dc.lft.to/lastmile_qr_scan"}}, {"is_disabled": 0, "fusion_lat": 0.0, "lat": 38.902753833333335, "type": "electric_scooter", "lon": -77.0600955, "is_reserved": 0, "fusion_lon": 0.0, "bike_id": "3acba94750146c1515a983f47ed591fe", "name": "3acba94750146c1515a983f47ed591fe", "rental_uris": {"ios": "https://dc.lft.to/lastmile_qr_scan", "android": "https://dc.lft.to/lastmile_qr_scan"}}, {"is_disabled": 0, "fusion_lat": 0.0, "lat": 38.92489483333333, "type": "electric_scooter", "lon": -77.02137516666667, "is_reserved": 0, "fusion_lon": 0.0, "bike_id": "8644a665931daa862388b01f3d9f9a90", "name": "8644a665931daa862388b01f3d9f9a90", "rental_uris": {"ios": "https://dc.lft.to/lastmile_qr_scan", "android": "https://dc.lft.to/lastmile_qr_scan"}}, {"is_disabled": 0, "fusion_lat": 0.0, "lat": 38.909964, "type": "electric_scooter", "lon": -77.03850716666666, "is_reserved": 0, "fusion_lon": 0.0, "bike_id": "70c31af28236602bd61252a8e0b2eb2c", "name": "70c31af28236602bd61252a8e0b2eb2c", "rental_uris": {"ios": "https://dc.lft.to/lastmile_qr_scan", "android": "https://dc.lft.to/lastmile_qr_scan"}}, {"is_disabled": 0, "fusion_lat": 0.0, "lat": 38.93192616666666, "type": "electric_bike", "lon": -77.03444566666667, "is_reserved": 0, "fusion_lon": 0.0, "bike_id": "5df9db568614055184bc13a11ceeb6de", "name": "5df9db568614055184bc13a11ceeb6de", "rental_uris": {"ios": "https://dc.lft.to/lastmile_qr_scan", "android": "https://dc.lft.to/lastmile_qr_scan"}}, {"is_disabled": 0, "fusion_lat": 0.0, "lat": 38.85917666666667, "type": "electric_scooter", "lon": -76.98978183333334, "is_reserved": 0, "fusion_lon": 0.0, "bike_id": "9af3ff8e49bdcb28effc3cb8e086ed3f", "name": "9af3ff8e49bdcb28effc3cb8e086ed3f", "rental_uris": {"ios": "https://dc.lft.to/lastmile_qr_scan", "android": "https://dc.lft.to/lastmile_qr_scan"}}, {"is_disabled": 0, "fusion_lat": 0.0, "lat": 38.866579333333334, "type": "electric_scooter", "lon": -76.98885766666666, "is_reserved": 0, "fusion_lon": 0.0, "bike_id": "90144dedcac99a4d7f592526d46c4b83", "name": "90144dedcac99a4d7f592526d46c4b83", "rental_uris": {"ios": "https://dc.lft.to/lastmile_qr_scan", "android": "https://dc.lft.to/lastmile_qr_scan"}}, {"is_disabled": 0, "fusion_lat": 0.0, "lat": 38.905011333333334, "type": "electric_scooter", "lon": -77.04069466666667, "is_reserved": 0, "fusion_lon": 0.0, "bike_id": "a52abe139413630c67dd6b9f08bc1dfb", "name": "a52abe139413630c67dd6b9f08bc1dfb", "rental_uris": {"ios": "https://dc.lft.to/lastmile_qr_scan", "android": "https://dc.lft.to/lastmile_qr_scan"}}, {"is_disabled": 0, "fusion_lat": 0.0, "lat": 38.8618855, "type": "electric_scooter", "lon": -76.99458866666667, "is_reserved": 0, "fusion_lon": 0.0, "bike_id": "f38efe8c1d56871b65f3ea29f9e22d7f", "name": "f38efe8c1d56871b65f3ea29f9e22d7f", "rental_uris": {"ios": "https://dc.lft.to/lastmile_qr_scan", "android": "https://dc.lft.to/lastmile_qr_scan"}}, {"is_disabled": 0, "fusion_lat": 0.0, "lat": 38.9033315, "type": "electric_scooter", "lon": -77.062243, "is_reserved": 0, "fusion_lon": 0.0, "bike_id": "2fcfa2af00578e636278acef3c006a32", "name": "2fcfa2af00578e636278acef3c006a32", "rental_uris": {"ios": "https://dc.lft.to/lastmile_qr_scan", "android": "https://dc.lft.to/lastmile_qr_scan"}}, {"is_disabled": 0, "fusion_lat": 0.0, "lat": 38.93402716666667, "type": "electric_scooter", "lon": -77.038888, "is_reserved": 0, "fusion_lon": 0.0, "bike_id": "0597113b6b7d392835540cda8c2d87e1", "name": "0597113b6b7d392835540cda8c2d87e1", "rental_uris": {"ios": "https://dc.lft.to/lastmile_qr_scan", "android": "https://dc.lft.to/lastmile_qr_scan"}}, {"is_disabled": 0, "fusion_lat": 0.0, "lat": 38.936899833333335, "type": "electric_scooter", "lon": -77.03626816666667, "is_reserved": 0, "fusion_lon": 0.0, "bike_id": "90f9c51cc5c90316b14cfb58de588c3b", "name": "90f9c51cc5c90316b14cfb58de588c3b", "rental_uris": {"ios": "https://dc.lft.to/lastmile_qr_scan", "android": "https://dc.lft.to/lastmile_qr_scan"}}, {"is_disabled": 0, "fusion_lat": 0.0, "lat": 38.89822216666666, "type": "electric_scooter", "lon": -77.00911033333334, "is_reserved": 0, "fusion_lon": 0.0, "bike_id": "978909bcae934befb017535a22480b8a", "name": "978909bcae934befb017535a22480b8a", "rental_uris": {"ios": "https://dc.lft.to/lastmile_qr_scan", "android": "https://dc.lft.to/lastmile_qr_scan"}}, {"is_disabled": 0, "fusion_lat": 0.0, "lat": 38.87477233333333, "type": "electric_scooter", "lon": -77.00937416666666, "is_reserved": 0, "fusion_lon": 0.0, "bike_id": "84f7d4dea25c5a5d5e2d3ea97a79901c", "name": "84f7d4dea25c5a5d5e2d3ea97a79901c", "rental_uris": {"ios": "https://dc.lft.to/lastmile_qr_scan", "android": "https://dc.lft.to/lastmile_qr_scan"}}, {"is_disabled": 0, "fusion_lat": 0.0, "lat": 38.91336066666667, "type": "electric_scooter", "lon": -77.04275083333333, "is_reserved": 0, "fusion_lon": 0.0, "bike_id": "56fdc35ba999ab67b98c851e6fc6130e", "name": "56fdc35ba999ab67b98c851e6fc6130e", "rental_uris": {"ios": "https://dc.lft.to/lastmile_qr_scan", "android": "https://dc.lft.to/lastmile_qr_scan"}}, {"is_disabled": 0, "fusion_lat": 0.0, "lat": 38.91055933333333, "type": "electric_scooter", "lon": -77.0152585, "is_reserved": 0, "fusion_lon": 0.0, "bike_id": "7ddc32458710a82acb610478fa366fdf", "name": "7ddc32458710a82acb610478fa366fdf", "rental_uris": {"ios": "https://dc.lft.to/lastmile_qr_scan", "android": "https://dc.lft.to/lastmile_qr_scan"}}, {"is_disabled": 0, "fusion_lat": 0.0, "lat": 38.90261816666667, "type": "electric_scooter", "lon": -77.04901433333333, "is_reserved": 0, "fusion_lon": 0.0, "bike_id": "3709f053c829a3fb1b93728d51514ed1", "name": "3709f053c829a3fb1b93728d51514ed1", "rental_uris": {"ios": "https://dc.lft.to/lastmile_qr_scan", "android": "https://dc.lft.to/lastmile_qr_scan"}}, {"is_disabled": 0, "fusion_lat": 0.0, "lat": 38.933626, "type": "electric_scooter", "lon": -77.05713583333333, "is_reserved": 0, "fusion_lon": 0.0, "bike_id": "c60db26d41190293c10478d1e1fac6f5", "name": "c60db26d41190293c10478d1e1fac6f5", "rental_uris": {"ios": "https://dc.lft.to/lastmile_qr_scan", "android": "https://dc.lft.to/lastmile_qr_scan"}}, {"is_disabled": 0, "fusion_lat": 0.0, "lat": 38.9256195, "type": "electric_scooter", "lon": -77.03788633333333, "is_reserved": 0, "fusion_lon": 0.0, "bike_id": "d6ee3cdec3cbbe2195f423f9e68e46f4", "name": "d6ee3cdec3cbbe2195f423f9e68e46f4", "rental_uris": {"ios": "https://dc.lft.to/lastmile_qr_scan", "android": "https://dc.lft.to/lastmile_qr_scan"}}, {"is_disabled": 0, "fusion_lat": 0.0, "lat": 38.87658616666667, "type": "electric_scooter", "lon": -77.01577516666667, "is_reserved": 0, "fusion_lon": 0.0, "bike_id": "52b486719813cb8def6329665fae5887", "name": "52b486719813cb8def6329665fae5887", "rental_uris": {"ios": "https://dc.lft.to/lastmile_qr_scan", "android": "https://dc.lft.to/lastmile_qr_scan"}}, {"is_disabled": 0, "fusion_lat": 0.0, "lat": 38.905114166666664, "type": "electric_scooter", "lon": -77.06658433333334, "is_reserved": 0, "fusion_lon": 0.0, "bike_id": "f42a05b9640991d1039d455b93453c0a", "name": "f42a05b9640991d1039d455b93453c0a", "rental_uris": {"ios": "https://dc.lft.to/lastmile_qr_scan", "android": "https://dc.lft.to/lastmile_qr_scan"}}, {"is_disabled": 0, "fusion_lat": 0.0, "lat": 38.87484383333334, "type": "electric_scooter", "lon": -77.00115983333333, "is_reserved": 0, "fusion_lon": 0.0, "bike_id": "5034143b6cb16983acefe9d9707abe29", "name": "5034143b6cb16983acefe9d9707abe29", "rental_uris": {"ios": "https://dc.lft.to/lastmile_qr_scan", "android": "https://dc.lft.to/lastmile_qr_scan"}}, {"is_disabled": 0, "fusion_lat": 0.0, "lat": 38.956375666666666, "type": "electric_scooter", "lon": -77.03305533333334, "is_reserved": 0, "fusion_lon": 0.0, "bike_id": "acae1a15fb651b657818b988d35492e4", "name": "acae1a15fb651b657818b988d35492e4", "rental_uris": {"ios": "https://dc.lft.to/lastmile_qr_scan", "android": "https://dc.lft.to/lastmile_qr_scan"}}, {"is_disabled": 0, "fusion_lat": 0.0, "lat": 38.900736333333334, "type": "electric_scooter", "lon": -77.05029233333333, "is_reserved": 0, "fusion_lon": 0.0, "bike_id": "9c318d2e549d66dbb9d106a8dd64859c", "name": "9c318d2e549d66dbb9d106a8dd64859c", "rental_uris": {"ios": "https://dc.lft.to/lastmile_qr_scan", "android": "https://dc.lft.to/lastmile_qr_scan"}}, {"is_disabled": 0, "fusion_lat": 0.0, "lat": 38.871995166666665, "type": "electric_scooter", "lon": -77.006089, "is_reserved": 0, "fusion_lon": 0.0, "bike_id": "de135b20adbb49ddbe15c809ac666f35", "name": "de135b20adbb49ddbe15c809ac666f35", "rental_uris": {"ios": "https://dc.lft.to/lastmile_qr_scan", "android": "https://dc.lft.to/lastmile_qr_scan"}}, {"is_disabled": 0, "fusion_lat": 0.0, "lat": 38.892218, "type": "electric_scooter", "lon": -77.0464335, "is_reserved": 0, "fusion_lon": 0.0, "bike_id": "dc51b4748b05f510f6a5579b53b80f72", "name": "dc51b4748b05f510f6a5579b53b80f72", "rental_uris": {"ios": "https://dc.lft.to/lastmile_qr_scan", "android": "https://dc.lft.to/lastmile_qr_scan"}}, {"is_disabled": 0, "fusion_lat": 0.0, "lat": 38.90958083333334, "type": "electric_scooter", "lon": -77.04649116666667, "is_reserved": 0, "fusion_lon": 0.0, "bike_id": "fee75e2eebd79a66f01c2cd1160071ae", "name": "fee75e2eebd79a66f01c2cd1160071ae", "rental_uris": {"ios": "https://dc.lft.to/lastmile_qr_scan", "android": "https://dc.lft.to/lastmile_qr_scan"}}, {"is_disabled": 0, "fusion_lat": 0.0, "lat": 38.918209, "type": "electric_scooter", "lon": -77.03841266666667, "is_reserved": 0, "fusion_lon": 0.0, "bike_id": "3a6e1bcea4583f475d1efe38edbcb43e", "name": "3a6e1bcea4583f475d1efe38edbcb43e", "rental_uris": {"ios": "https://dc.lft.to/lastmile_qr_scan", "android": "https://dc.lft.to/lastmile_qr_scan"}}, {"is_disabled": 0, "fusion_lat": 0.0, "lat": 38.90488233333333, "type": "electric_scooter", "lon": -77.06788783333333, "is_reserved": 0, "fusion_lon": 0.0, "bike_id": "b76f969e0c2d5068971a5a6f6b130299", "name": "b76f969e0c2d5068971a5a6f6b130299", "rental_uris": {"ios": "https://dc.lft.to/lastmile_qr_scan", "android": "https://dc.lft.to/lastmile_qr_scan"}}, {"is_disabled": 0, "fusion_lat": 0.0, "lat": 38.90513133333333, "type": "electric_scooter", "lon": -77.05909533333333, "is_reserved": 0, "fusion_lon": 0.0, "bike_id": "bfb6a9d3fd120b6450feeb13ed9bdd1e", "name": "bfb6a9d3fd120b6450feeb13ed9bdd1e", "rental_uris": {"ios": "https://dc.lft.to/lastmile_qr_scan", "android": "https://dc.lft.to/lastmile_qr_scan"}}, {"is_disabled": 0, "fusion_lat": 0.0, "lat": 38.893463, "type": "electric_scooter", "lon": -77.01203083333333, "is_reserved": 0, "fusion_lon": 0.0, "bike_id": "9879aebb27072f5d5f5c03e4d459c56a", "name": "9879aebb27072f5d5f5c03e4d459c56a", "rental_uris": {"ios": "https://dc.lft.to/lastmile_qr_scan", "android": "https://dc.lft.to/lastmile_qr_scan"}}, {"is_disabled": 0, "fusion_lat": 0.0, "lat": 38.88434683333333, "type": "electric_scooter", "lon": -76.95756583333333, "is_reserved": 0, "fusion_lon": 0.0, "bike_id": "891f24b0a3235c0c7150a408959ecd08", "name": "891f24b0a3235c0c7150a408959ecd08", "rental_uris": {"ios": "https://dc.lft.to/lastmile_qr_scan", "android": "https://dc.lft.to/lastmile_qr_scan"}}, {"is_disabled": 0, "fusion_lat": 0.0, "lat": 38.90758016666667, "type": "electric_scooter", "lon": -77.00114566666667, "is_reserved": 0, "fusion_lon": 0.0, "bike_id": "6c6afd5f792a8313390ee8e3915ca2f1", "name": "6c6afd5f792a8313390ee8e3915ca2f1", "rental_uris": {"ios": "https://dc.lft.to/lastmile_qr_scan", "android": "https://dc.lft.to/lastmile_qr_scan"}}, {"is_disabled": 0, "fusion_lat": 0.0, "lat": 38.93843283333333, "type": "electric_scooter", "lon": -77.02453266666667, "is_reserved": 0, "fusion_lon": 0.0, "bike_id": "a9e7dc8019b4343c3b2dd929a3144cb4", "name": "a9e7dc8019b4343c3b2dd929a3144cb4", "rental_uris": {"ios": "https://dc.lft.to/lastmile_qr_scan", "android": "https://dc.lft.to/lastmile_qr_scan"}}, {"is_disabled": 0, "fusion_lat": 0.0, "lat": 38.915526666666665, "type": "electric_scooter", "lon": -77.01990866666667, "is_reserved": 0, "fusion_lon": 0.0, "bike_id": "00d92d7b7467c67202794232d5f0c567", "name": "00d92d7b7467c67202794232d5f0c567", "rental_uris": {"ios": "https://dc.lft.to/lastmile_qr_scan", "android": "https://dc.lft.to/lastmile_qr_scan"}}, {"is_disabled": 0, "fusion_lat": 0.0, "lat": 38.92501216666667, "type": "electric_scooter", "lon": -77.008879, "is_reserved": 0, "fusion_lon": 0.0, "bike_id": "0b9a670a62f986a352f8bc7a6bc1ac5e", "name": "0b9a670a62f986a352f8bc7a6bc1ac5e", "rental_uris": {"ios": "https://dc.lft.to/lastmile_qr_scan", "android": "https://dc.lft.to/lastmile_qr_scan"}}, {"is_disabled": 0, "fusion_lat": 0.0, "lat": 38.88231416666667, "type": "electric_scooter", "lon": -76.926631, "is_reserved": 0, "fusion_lon": 0.0, "bike_id": "6f4c06c387245c96e8a4f3b2114c8aee", "name": "6f4c06c387245c96e8a4f3b2114c8aee", "rental_uris": {"ios": "https://dc.lft.to/lastmile_qr_scan", "android": "https://dc.lft.to/lastmile_qr_scan"}}, {"is_disabled": 0, "fusion_lat": 0.0, "lat": 38.83939266666667, "type": "electric_bike", "lon": -77.07900366666667, "is_reserved": 0, "fusion_lon": 0.0, "bike_id": "26839d22ecba2c8a47a34c43ee89b9b2", "name": "26839d22ecba2c8a47a34c43ee89b9b2", "rental_uris": {"ios": "https://dc.lft.to/lastmile_qr_scan", "android": "https://dc.lft.to/lastmile_qr_scan"}}, {"is_disabled": 0, "fusion_lat": 0.0, "lat": 38.918270166666666, "type": "electric_scooter", "lon": -77.0363885, "is_reserved": 0, "fusion_lon": 0.0, "bike_id": "57e0f11fa58485ad15a6fd2df57e0532", "name": "57e0f11fa58485ad15a6fd2df57e0532", "rental_uris": {"ios": "https://dc.lft.to/lastmile_qr_scan", "android": "https://dc.lft.to/lastmile_qr_scan"}}, {"is_disabled": 0, "fusion_lat": 0.0, "lat": 38.961766833333336, "type": "electric_bike", "lon": -76.99586966666666, "is_reserved": 0, "fusion_lon": 0.0, "bike_id": "bd72331b14b1a5765d7a5db1eb60ec09", "name": "bd72331b14b1a5765d7a5db1eb60ec09", "rental_uris": {"ios": "https://dc.lft.to/lastmile_qr_scan", "android": "https://dc.lft.to/lastmile_qr_scan"}}, {"is_disabled": 0, "fusion_lat": 0.0, "lat": 38.934378333333335, "type": "electric_scooter", "lon": -77.03442366666667, "is_reserved": 0, "fusion_lon": 0.0, "bike_id": "cbfb66c08eb61fa9303063827ded739a", "name": "cbfb66c08eb61fa9303063827ded739a", "rental_uris": {"ios": "https://dc.lft.to/lastmile_qr_scan", "android": "https://dc.lft.to/lastmile_qr_scan"}}, {"is_disabled": 0, "fusion_lat": 0.0, "lat": 38.9074535, "type": "electric_scooter", "lon": -77.02394366666667, "is_reserved": 0, "fusion_lon": 0.0, "bike_id": "98fa6dcc5d2499e45fbb808f88842f1d", "name": "98fa6dcc5d2499e45fbb808f88842f1d", "rental_uris": {"ios": "https://dc.lft.to/lastmile_qr_scan", "android": "https://dc.lft.to/lastmile_qr_scan"}}, {"is_disabled": 0, "fusion_lat": 0.0, "lat": 38.893745, "type": "electric_scooter", "lon": -76.95000133333333, "is_reserved": 0, "fusion_lon": 0.0, "bike_id": "4505df0d926437945a9c69ce33a08c8b", "name": "4505df0d926437945a9c69ce33a08c8b", "rental_uris": {"ios": "https://dc.lft.to/lastmile_qr_scan", "android": "https://dc.lft.to/lastmile_qr_scan"}}, {"is_disabled": 0, "fusion_lat": 0.0, "lat": 38.893750833333335, "type": "electric_scooter", "lon": -76.94999016666667, "is_reserved": 0, "fusion_lon": 0.0, "bike_id": "ab86bc5259051690343a27c1fc97aac9", "name": "ab86bc5259051690343a27c1fc97aac9", "rental_uris": {"ios": "https://dc.lft.to/lastmile_qr_scan", "android": "https://dc.lft.to/lastmile_qr_scan"}}, {"is_disabled": 0, "fusion_lat": 0.0, "lat": 38.900719, "type": "electric_scooter", "lon": -76.998407, "is_reserved": 0, "fusion_lon": 0.0, "bike_id": "9fb0a617703b5efff5ce26786a19376b", "name": "9fb0a617703b5efff5ce26786a19376b", "rental_uris": {"ios": "https://dc.lft.to/lastmile_qr_scan", "android": "https://dc.lft.to/lastmile_qr_scan"}}, {"is_disabled": 0, "fusion_lat": 0.0, "lat": 38.97329033333333, "type": "electric_bike", "lon": -77.02149, "is_reserved": 0, "fusion_lon": 0.0, "bike_id": "5652c4635006045d83abf873a61440dd", "name": "5652c4635006045d83abf873a61440dd", "rental_uris": {"ios": "https://dc.lft.to/lastmile_qr_scan", "android": "https://dc.lft.to/lastmile_qr_scan"}}, {"is_disabled": 0, "fusion_lat": 0.0, "lat": 38.88183766666667, "type": "electric_scooter", "lon": -77.02812183333333, "is_reserved": 0, "fusion_lon": 0.0, "bike_id": "153035809c71787c0be4df79d36dfcaf", "name": "153035809c71787c0be4df79d36dfcaf", "rental_uris": {"ios": "https://dc.lft.to/lastmile_qr_scan", "android": "https://dc.lft.to/lastmile_qr_scan"}}, {"is_disabled": 0, "fusion_lat": 0.0, "lat": 38.903182666666666, "type": "electric_scooter", "lon": -77.03811983333334, "is_reserved": 0, "fusion_lon": 0.0, "bike_id": "b65ec09e2680d5a7cbee4aa7600d4af1", "name": "b65ec09e2680d5a7cbee4aa7600d4af1", "rental_uris": {"ios": "https://dc.lft.to/lastmile_qr_scan", "android": "https://dc.lft.to/lastmile_qr_scan"}}, {"is_disabled": 0, "fusion_lat": 0.0, "lat": 38.92548016666667, "type": "electric_scooter", "lon": -76.98123783333334, "is_reserved": 0, "fusion_lon": 0.0, "bike_id": "a4114649ab1220f3fedf7a8badbcfdab", "name": "a4114649ab1220f3fedf7a8badbcfdab", "rental_uris": {"ios": "https://dc.lft.to/lastmile_qr_scan", "android": "https://dc.lft.to/lastmile_qr_scan"}}, {"is_disabled": 0, "fusion_lat": 0.0, "lat": 38.95748483333333, "type": "electric_scooter", "lon": -77.020668, "is_reserved": 0, "fusion_lon": 0.0, "bike_id": "923329a6cf14ca2fb1ea9c1632315053", "name": "923329a6cf14ca2fb1ea9c1632315053", "rental_uris": {"ios": "https://dc.lft.to/lastmile_qr_scan", "android": "https://dc.lft.to/lastmile_qr_scan"}}, {"is_disabled": 0, "fusion_lat": 0.0, "lat": 38.95887533333333, "type": "electric_bike", "lon": -76.92485483333333, "is_reserved": 0, "fusion_lon": 0.0, "bike_id": "2e3c25973c94cd5d109697b8062cee7f", "name": "2e3c25973c94cd5d109697b8062cee7f", "rental_uris": {"ios": "https://dc.lft.to/lastmile_qr_scan", "android": "https://dc.lft.to/lastmile_qr_scan"}}, {"is_disabled": 0, "fusion_lat": 0.0, "lat": 38.904316, "type": "electric_scooter", "lon": -77.03191766666667, "is_reserved": 0, "fusion_lon": 0.0, "bike_id": "73d1d6e90f820cd4744bdc44c1c9ee45", "name": "73d1d6e90f820cd4744bdc44c1c9ee45", "rental_uris": {"ios": "https://dc.lft.to/lastmile_qr_scan", "android": "https://dc.lft.to/lastmile_qr_scan"}}, {"is_disabled": 0, "fusion_lat": 0.0, "lat": 38.916790166666665, "type": "electric_scooter", "lon": -77.0368355, "is_reserved": 0, "fusion_lon": 0.0, "bike_id": "c7a1010e9e99ef401cc42893b163f4c6", "name": "c7a1010e9e99ef401cc42893b163f4c6", "rental_uris": {"ios": "https://dc.lft.to/lastmile_qr_scan", "android": "https://dc.lft.to/lastmile_qr_scan"}}, {"is_disabled": 0, "fusion_lat": 0.0, "lat": 38.8763245, "type": "electric_scooter", "lon": -76.96525066666666, "is_reserved": 0, "fusion_lon": 0.0, "bike_id": "ab49eb4b8efad3879d794171edab96b6", "name": "ab49eb4b8efad3879d794171edab96b6", "rental_uris": {"ios": "https://dc.lft.to/lastmile_qr_scan", "android": "https://dc.lft.to/lastmile_qr_scan"}}, {"is_disabled": 0, "fusion_lat": 0.0, "lat": 38.91022566666667, "type": "electric_scooter", "lon": -77.02910616666666, "is_reserved": 0, "fusion_lon": 0.0, "bike_id": "bbd9a1a5992cde24454b58839251e3e8", "name": "bbd9a1a5992cde24454b58839251e3e8", "rental_uris": {"ios": "https://dc.lft.to/lastmile_qr_scan", "android": "https://dc.lft.to/lastmile_qr_scan"}}, {"is_disabled": 0, "fusion_lat": 0.0, "lat": 38.921825, "type": "electric_scooter", "lon": -77.03207416666666, "is_reserved": 0, "fusion_lon": 0.0, "bike_id": "6c520760ef9808795bb4bc062df4b9a7", "name": "6c520760ef9808795bb4bc062df4b9a7", "rental_uris": {"ios": "https://dc.lft.to/lastmile_qr_scan", "android": "https://dc.lft.to/lastmile_qr_scan"}}, {"is_disabled": 0, "fusion_lat": 0.0, "lat": 38.90516266666667, "type": "electric_scooter", "lon": -76.98837683333333, "is_reserved": 0, "fusion_lon": 0.0, "bike_id": "4fc7bd5a8351ba4fa997146d1f0fc056", "name": "4fc7bd5a8351ba4fa997146d1f0fc056", "rental_uris": {"ios": "https://dc.lft.to/lastmile_qr_scan", "android": "https://dc.lft.to/lastmile_qr_scan"}}, {"is_disabled": 0, "fusion_lat": 0.0, "lat": 38.893341666666664, "type": "electric_scooter", "lon": -76.92991366666666, "is_reserved": 0, "fusion_lon": 0.0, "bike_id": "b18f52ff38c57683cf18f6bca345d339", "name": "b18f52ff38c57683cf18f6bca345d339", "rental_uris": {"ios": "https://dc.lft.to/lastmile_qr_scan", "android": "https://dc.lft.to/lastmile_qr_scan"}}, {"is_disabled": 0, "fusion_lat": 0.0, "lat": 38.905126833333334, "type": "electric_scooter", "lon": -77.05130733333333, "is_reserved": 0, "fusion_lon": 0.0, "bike_id": "10f52e756c1348cb2792e0a13537d57e", "name": "10f52e756c1348cb2792e0a13537d57e", "rental_uris": {"ios": "https://dc.lft.to/lastmile_qr_scan", "android": "https://dc.lft.to/lastmile_qr_scan"}}, {"is_disabled": 0, "fusion_lat": 0.0, "lat": 38.92674483333333, "type": "electric_scooter", "lon": -76.99537266666667, "is_reserved": 0, "fusion_lon": 0.0, "bike_id": "92ffd07c7442f8c459ede5a15725110f", "name": "92ffd07c7442f8c459ede5a15725110f", "rental_uris": {"ios": "https://dc.lft.to/lastmile_qr_scan", "android": "https://dc.lft.to/lastmile_qr_scan"}}, {"is_disabled": 0, "fusion_lat": 0.0, "lat": 38.87375766666667, "type": "electric_scooter", "lon": -77.0008915, "is_reserved": 0, "fusion_lon": 0.0, "bike_id": "df9152c170321bcfbf2acce315936d50", "name": "df9152c170321bcfbf2acce315936d50", "rental_uris": {"ios": "https://dc.lft.to/lastmile_qr_scan", "android": "https://dc.lft.to/lastmile_qr_scan"}}, {"is_disabled": 0, "fusion_lat": 0.0, "lat": 38.903179333333334, "type": "electric_scooter", "lon": -77.05179166666667, "is_reserved": 0, "fusion_lon": 0.0, "bike_id": "e0d6405a04e2fa3034791982294d10f6", "name": "e0d6405a04e2fa3034791982294d10f6", "rental_uris": {"ios": "https://dc.lft.to/lastmile_qr_scan", "android": "https://dc.lft.to/lastmile_qr_scan"}}, {"is_disabled": 0, "fusion_lat": 0.0, "lat": 38.9229815, "type": "electric_scooter", "lon": -77.042177, "is_reserved": 0, "fusion_lon": 0.0, "bike_id": "1cbc7fe2165e1cd714dd862ed6c6de8b", "name": "1cbc7fe2165e1cd714dd862ed6c6de8b", "rental_uris": {"ios": "https://dc.lft.to/lastmile_qr_scan", "android": "https://dc.lft.to/lastmile_qr_scan"}}, {"is_disabled": 0, "fusion_lat": 0.0, "lat": 38.984670333333334, "type": "electric_bike", "lon": -76.9552675, "is_reserved": 0, "fusion_lon": 0.0, "bike_id": "25ee4145e157c2d61a0833e6f05342dd", "name": "25ee4145e157c2d61a0833e6f05342dd", "rental_uris": {"ios": "https://dc.lft.to/lastmile_qr_scan", "android": "https://dc.lft.to/lastmile_qr_scan"}}, {"is_disabled": 0, "fusion_lat": 0.0, "lat": 38.892273833333334, "type": "electric_scooter", "lon": -77.04651633333333, "is_reserved": 0, "fusion_lon": 0.0, "bike_id": "9408cbe2063989a68d6d67933264bd93", "name": "9408cbe2063989a68d6d67933264bd93", "rental_uris": {"ios": "https://dc.lft.to/lastmile_qr_scan", "android": "https://dc.lft.to/lastmile_qr_scan"}}, {"is_disabled": 0, "fusion_lat": 0.0, "lat": 38.902452833333335, "type": "electric_scooter", "lon": -77.04073166666667, "is_reserved": 0, "fusion_lon": 0.0, "bike_id": "7770a24b8abf27bad1a10a999224689c", "name": "7770a24b8abf27bad1a10a999224689c", "rental_uris": {"ios": "https://dc.lft.to/lastmile_qr_scan", "android": "https://dc.lft.to/lastmile_qr_scan"}}, {"is_disabled": 0, "fusion_lat": 0.0, "lat": 38.90043383333333, "type": "electric_scooter", "lon": -76.9883755, "is_reserved": 0, "fusion_lon": 0.0, "bike_id": "64d0d49479a4c35aae322204822188bb", "name": "64d0d49479a4c35aae322204822188bb", "rental_uris": {"ios": "https://dc.lft.to/lastmile_qr_scan", "android": "https://dc.lft.to/lastmile_qr_scan"}}, {"is_disabled": 0, "fusion_lat": 0.0, "lat": 38.921707, "type": "electric_scooter", "lon": -77.05134866666667, "is_reserved": 0, "fusion_lon": 0.0, "bike_id": "1ba760dee83b1ccbb2de2eb3baabbc40", "name": "1ba760dee83b1ccbb2de2eb3baabbc40", "rental_uris": {"ios": "https://dc.lft.to/lastmile_qr_scan", "android": "https://dc.lft.to/lastmile_qr_scan"}}, {"is_disabled": 0, "fusion_lat": 0.0, "lat": 38.91112066666667, "type": "electric_scooter", "lon": -77.04498766666667, "is_reserved": 0, "fusion_lon": 0.0, "bike_id": "8e30d22b6e3d04dcc7d9f1a8a89cbbe6", "name": "8e30d22b6e3d04dcc7d9f1a8a89cbbe6", "rental_uris": {"ios": "https://dc.lft.to/lastmile_qr_scan", "android": "https://dc.lft.to/lastmile_qr_scan"}}, {"is_disabled": 0, "fusion_lat": 0.0, "lat": 38.852219833333336, "type": "electric_bike", "lon": -77.12958433333333, "is_reserved": 0, "fusion_lon": 0.0, "bike_id": "fa9861197efc4b8f156948de5bcdf51d", "name": "fa9861197efc4b8f156948de5bcdf51d", "rental_uris": {"ios": "https://dc.lft.to/lastmile_qr_scan", "android": "https://dc.lft.to/lastmile_qr_scan"}}, {"is_disabled": 0, "fusion_lat": 0.0, "lat": 38.90053866666667, "type": "electric_scooter", "lon": -77.00767716666667, "is_reserved": 0, "fusion_lon": 0.0, "bike_id": "4b42c32210ad6ed337c3f19b41a6a3b7", "name": "4b42c32210ad6ed337c3f19b41a6a3b7", "rental_uris": {"ios": "https://dc.lft.to/lastmile_qr_scan", "android": "https://dc.lft.to/lastmile_qr_scan"}}, {"is_disabled": 0, "fusion_lat": 0.0, "lat": 38.865983666666665, "type": "electric_bike", "lon": -76.93225916666667, "is_reserved": 0, "fusion_lon": 0.0, "bike_id": "0936a81775842dc64c04a6c594b6c7fd", "name": "0936a81775842dc64c04a6c594b6c7fd", "rental_uris": {"ios": "https://dc.lft.to/lastmile_qr_scan", "android": "https://dc.lft.to/lastmile_qr_scan"}}, {"is_disabled": 0, "fusion_lat": 0.0, "lat": 38.985983166666664, "type": "electric_bike", "lon": -77.03754633333334, "is_reserved": 0, "fusion_lon": 0.0, "bike_id": "e94d7808acb145262a02bb980dd2e34e", "name": "e94d7808acb145262a02bb980dd2e34e", "rental_uris": {"ios": "https://dc.lft.to/lastmile_qr_scan", "android": "https://dc.lft.to/lastmile_qr_scan"}}, {"is_disabled": 0, "fusion_lat": 0.0, "lat": 38.94273333333334, "type": "electric_scooter", "lon": -77.03259966666667, "is_reserved": 0, "fusion_lon": 0.0, "bike_id": "f2efefcb7adbbe3bca9ecdc5e5eb131d", "name": "f2efefcb7adbbe3bca9ecdc5e5eb131d", "rental_uris": {"ios": "https://dc.lft.to/lastmile_qr_scan", "android": "https://dc.lft.to/lastmile_qr_scan"}}, {"is_disabled": 0, "fusion_lat": 0.0, "lat": 38.89417566666667, "type": "electric_scooter", "lon": -76.95662616666667, "is_reserved": 0, "fusion_lon": 0.0, "bike_id": "d1643db04de1579f7ce1f773d605a7d4", "name": "d1643db04de1579f7ce1f773d605a7d4", "rental_uris": {"ios": "https://dc.lft.to/lastmile_qr_scan", "android": "https://dc.lft.to/lastmile_qr_scan"}}, {"is_disabled": 0, "fusion_lat": 0.0, "lat": 38.92137183333333, "type": "electric_scooter", "lon": -77.017891, "is_reserved": 0, "fusion_lon": 0.0, "bike_id": "ab5fadc1988b680198d99ea306f11240", "name": "ab5fadc1988b680198d99ea306f11240", "rental_uris": {"ios": "https://dc.lft.to/lastmile_qr_scan", "android": "https://dc.lft.to/lastmile_qr_scan"}}, {"is_disabled": 0, "fusion_lat": 0.0, "lat": 38.915495666666665, "type": "electric_scooter", "lon": -77.038402, "is_reserved": 0, "fusion_lon": 0.0, "bike_id": "294664ec3f5caee029102537389553ae", "name": "294664ec3f5caee029102537389553ae", "rental_uris": {"ios": "https://dc.lft.to/lastmile_qr_scan", "android": "https://dc.lft.to/lastmile_qr_scan"}}, {"is_disabled": 0, "fusion_lat": 0.0, "lat": 38.936293166666665, "type": "electric_bike", "lon": -77.0365495, "is_reserved": 0, "fusion_lon": 0.0, "bike_id": "760f7926e85def214f1426d985af8284", "name": "760f7926e85def214f1426d985af8284", "rental_uris": {"ios": "https://dc.lft.to/lastmile_qr_scan", "android": "https://dc.lft.to/lastmile_qr_scan"}}, {"is_disabled": 0, "fusion_lat": 0.0, "lat": 38.91636916666667, "type": "electric_scooter", "lon": -77.03194416666666, "is_reserved": 0, "fusion_lon": 0.0, "bike_id": "f73f168604886d1438926405ce53f9a6", "name": "f73f168604886d1438926405ce53f9a6", "rental_uris": {"ios": "https://dc.lft.to/lastmile_qr_scan", "android": "https://dc.lft.to/lastmile_qr_scan"}}, {"is_disabled": 0, "fusion_lat": 0.0, "lat": 38.927969166666664, "type": "electric_scooter", "lon": -77.03153166666667, "is_reserved": 0, "fusion_lon": 0.0, "bike_id": "61896483fce609f58848621e72e90399", "name": "61896483fce609f58848621e72e90399", "rental_uris": {"ios": "https://dc.lft.to/lastmile_qr_scan", "android": "https://dc.lft.to/lastmile_qr_scan"}}, {"is_disabled": 0, "fusion_lat": 0.0, "lat": 38.91268566666667, "type": "electric_scooter", "lon": -77.038707, "is_reserved": 0, "fusion_lon": 0.0, "bike_id": "1cd7dfa04f991adbf06561b83962f19b", "name": "1cd7dfa04f991adbf06561b83962f19b", "rental_uris": {"ios": "https://dc.lft.to/lastmile_qr_scan", "android": "https://dc.lft.to/lastmile_qr_scan"}}, {"is_disabled": 0, "fusion_lat": 0.0, "lat": 38.933627333333334, "type": "electric_scooter", "lon": -77.03448783333333, "is_reserved": 0, "fusion_lon": 0.0, "bike_id": "2f083e62ed0c75288b1a3ac0d022c494", "name": "2f083e62ed0c75288b1a3ac0d022c494", "rental_uris": {"ios": "https://dc.lft.to/lastmile_qr_scan", "android": "https://dc.lft.to/lastmile_qr_scan"}}, {"is_disabled": 0, "fusion_lat": 0.0, "lat": 38.9133535, "type": "electric_scooter", "lon": -77.0481755, "is_reserved": 0, "fusion_lon": 0.0, "bike_id": "50ed717fe02702d1db18940d331cd23f", "name": "50ed717fe02702d1db18940d331cd23f", "rental_uris": {"ios": "https://dc.lft.to/lastmile_qr_scan", "android": "https://dc.lft.to/lastmile_qr_scan"}}, {"is_disabled": 0, "fusion_lat": 0.0, "lat": 38.91305083333334, "type": "electric_bike", "lon": -77.08288483333334, "is_reserved": 0, "fusion_lon": 0.0, "bike_id": "b1e20fe3dc3d9c214368cabebf341d8c", "name": "b1e20fe3dc3d9c214368cabebf341d8c", "rental_uris": {"ios": "https://dc.lft.to/lastmile_qr_scan", "android": "https://dc.lft.to/lastmile_qr_scan"}}, {"is_disabled": 0, "fusion_lat": 0.0, "lat": 38.89806166666666, "type": "electric_scooter", "lon": -77.0189955, "is_reserved": 0, "fusion_lon": 0.0, "bike_id": "92884bc672b61c4279fd72ba64b5a72c", "name": "92884bc672b61c4279fd72ba64b5a72c", "rental_uris": {"ios": "https://dc.lft.to/lastmile_qr_scan", "android": "https://dc.lft.to/lastmile_qr_scan"}}, {"is_disabled": 0, "fusion_lat": 0.0, "lat": 38.879265333333336, "type": "electric_scooter", "lon": -76.992503, "is_reserved": 0, "fusion_lon": 0.0, "bike_id": "fedeef4fc3ba1a8ef6bbce1237d4cdcb", "name": "fedeef4fc3ba1a8ef6bbce1237d4cdcb", "rental_uris": {"ios": "https://dc.lft.to/lastmile_qr_scan", "android": "https://dc.lft.to/lastmile_qr_scan"}}, {"is_disabled": 0, "fusion_lat": 0.0, "lat": 38.92301033333333, "type": "electric_scooter", "lon": -77.041289, "is_reserved": 0, "fusion_lon": 0.0, "bike_id": "e13b9633a93eddfbf96a331a6c9ffd71", "name": "e13b9633a93eddfbf96a331a6c9ffd71", "rental_uris": {"ios": "https://dc.lft.to/lastmile_qr_scan", "android": "https://dc.lft.to/lastmile_qr_scan"}}, {"is_disabled": 0, "fusion_lat": 0.0, "lat": 38.938032166666666, "type": "electric_scooter", "lon": -77.0599805, "is_reserved": 0, "fusion_lon": 0.0, "bike_id": "f7f5b6b3116829f7fc53707bc020545a", "name": "f7f5b6b3116829f7fc53707bc020545a", "rental_uris": {"ios": "https://dc.lft.to/lastmile_qr_scan", "android": "https://dc.lft.to/lastmile_qr_scan"}}, {"is_disabled": 0, "fusion_lat": 0.0, "lat": 38.91255833333334, "type": "electric_scooter", "lon": -77.022256, "is_reserved": 0, "fusion_lon": 0.0, "bike_id": "d90054672292d66b4e3154569dfba9ea", "name": "d90054672292d66b4e3154569dfba9ea", "rental_uris": {"ios": "https://dc.lft.to/lastmile_qr_scan", "android": "https://dc.lft.to/lastmile_qr_scan"}}, {"is_disabled": 0, "fusion_lat": 0.0, "lat": 38.91697583333333, "type": "electric_scooter", "lon": -77.01233666666667, "is_reserved": 0, "fusion_lon": 0.0, "bike_id": "2b57d67f67bad8da521caeea022299b5", "name": "2b57d67f67bad8da521caeea022299b5", "rental_uris": {"ios": "https://dc.lft.to/lastmile_qr_scan", "android": "https://dc.lft.to/lastmile_qr_scan"}}, {"is_disabled": 0, "fusion_lat": 0.0, "lat": 38.905717833333334, "type": "electric_scooter", "lon": -77.0298495, "is_reserved": 0, "fusion_lon": 0.0, "bike_id": "ba5faa2111c7c5c98d0475013cf9a3cd", "name": "ba5faa2111c7c5c98d0475013cf9a3cd", "rental_uris": {"ios": "https://dc.lft.to/lastmile_qr_scan", "android": "https://dc.lft.to/lastmile_qr_scan"}}, {"is_disabled": 0, "fusion_lat": 0.0, "lat": 38.8922435, "type": "electric_scooter", "lon": -77.02644316666667, "is_reserved": 0, "fusion_lon": 0.0, "bike_id": "b34ed1b625bbd97af367a9bc11657bb6", "name": "b34ed1b625bbd97af367a9bc11657bb6", "rental_uris": {"ios": "https://dc.lft.to/lastmile_qr_scan", "android": "https://dc.lft.to/lastmile_qr_scan"}}, {"is_disabled": 0, "fusion_lat": 0.0, "lat": 38.89264333333333, "type": "electric_scooter", "lon": -76.94157016666666, "is_reserved": 0, "fusion_lon": 0.0, "bike_id": "28d73931e9efc39f9c4a54a61e782148", "name": "28d73931e9efc39f9c4a54a61e782148", "rental_uris": {"ios": "https://dc.lft.to/lastmile_qr_scan", "android": "https://dc.lft.to/lastmile_qr_scan"}}, {"is_disabled": 0, "fusion_lat": 0.0, "lat": 38.92624566666667, "type": "electric_scooter", "lon": -77.03786433333333, "is_reserved": 0, "fusion_lon": 0.0, "bike_id": "fbad704f9096d4da1f72ef0b6d79090d", "name": "fbad704f9096d4da1f72ef0b6d79090d", "rental_uris": {"ios": "https://dc.lft.to/lastmile_qr_scan", "android": "https://dc.lft.to/lastmile_qr_scan"}}, {"is_disabled": 0, "fusion_lat": 0.0, "lat": 38.91416666666667, "type": "electric_scooter", "lon": -77.012806, "is_reserved": 0, "fusion_lon": 0.0, "bike_id": "bee40f5b3d06ac4e8da6c1199a631640", "name": "bee40f5b3d06ac4e8da6c1199a631640", "rental_uris": {"ios": "https://dc.lft.to/lastmile_qr_scan", "android": "https://dc.lft.to/lastmile_qr_scan"}}, {"is_disabled": 0, "fusion_lat": 0.0, "lat": 38.892269, "type": "electric_scooter", "lon": -77.046502, "is_reserved": 0, "fusion_lon": 0.0, "bike_id": "cf484540eb140cdac62492a9dc9907c4", "name": "cf484540eb140cdac62492a9dc9907c4", "rental_uris": {"ios": "https://dc.lft.to/lastmile_qr_scan", "android": "https://dc.lft.to/lastmile_qr_scan"}}, {"is_disabled": 0, "fusion_lat": 0.0, "lat": 38.92256316666667, "type": "electric_scooter", "lon": -77.0340735, "is_reserved": 0, "fusion_lon": 0.0, "bike_id": "632a39d07181b303e382dd7821ce0934", "name": "632a39d07181b303e382dd7821ce0934", "rental_uris": {"ios": "https://dc.lft.to/lastmile_qr_scan", "android": "https://dc.lft.to/lastmile_qr_scan"}}, {"is_disabled": 0, "fusion_lat": 0.0, "lat": 38.923354, "type": "electric_scooter", "lon": -77.035759, "is_reserved": 0, "fusion_lon": 0.0, "bike_id": "edfe4b3942a00fe1f61c7caf3bd6de04", "name": "edfe4b3942a00fe1f61c7caf3bd6de04", "rental_uris": {"ios": "https://dc.lft.to/lastmile_qr_scan", "android": "https://dc.lft.to/lastmile_qr_scan"}}, {"is_disabled": 0, "fusion_lat": 0.0, "lat": 38.87479316666666, "type": "electric_scooter", "lon": -77.01066433333334, "is_reserved": 0, "fusion_lon": 0.0, "bike_id": "1d8c50583f844d45c750e9f29b6d1cd3", "name": "1d8c50583f844d45c750e9f29b6d1cd3", "rental_uris": {"ios": "https://dc.lft.to/lastmile_qr_scan", "android": "https://dc.lft.to/lastmile_qr_scan"}}, {"is_disabled": 0, "fusion_lat": 0.0, "lat": 38.87672716666667, "type": "electric_scooter", "lon": -77.00430416666667, "is_reserved": 0, "fusion_lon": 0.0, "bike_id": "d042491d9b64367e9ed302cadb3f66a7", "name": "d042491d9b64367e9ed302cadb3f66a7", "rental_uris": {"ios": "https://dc.lft.to/lastmile_qr_scan", "android": "https://dc.lft.to/lastmile_qr_scan"}}, {"is_disabled": 0, "fusion_lat": 0.0, "lat": 38.89456083333334, "type": "electric_bike", "lon": -76.970379, "is_reserved": 0, "fusion_lon": 0.0, "bike_id": "251e5a6b86326927260f61438c00d1bf", "name": "251e5a6b86326927260f61438c00d1bf", "rental_uris": {"ios": "https://dc.lft.to/lastmile_qr_scan", "android": "https://dc.lft.to/lastmile_qr_scan"}}, {"is_disabled": 0, "fusion_lat": 0.0, "lat": 38.864431, "type": "electric_scooter", "lon": -76.973748, "is_reserved": 0, "fusion_lon": 0.0, "bike_id": "20d57ee3cd40d8ed17e4819149bbee6d", "name": "20d57ee3cd40d8ed17e4819149bbee6d", "rental_uris": {"ios": "https://dc.lft.to/lastmile_qr_scan", "android": "https://dc.lft.to/lastmile_qr_scan"}}, {"is_disabled": 0, "fusion_lat": 0.0, "lat": 38.908144, "type": "electric_scooter", "lon": -76.99847433333333, "is_reserved": 0, "fusion_lon": 0.0, "bike_id": "99b7896020cfc689006dd908e2a7fc05", "name": "99b7896020cfc689006dd908e2a7fc05", "rental_uris": {"ios": "https://dc.lft.to/lastmile_qr_scan", "android": "https://dc.lft.to/lastmile_qr_scan"}}, {"is_disabled": 0, "fusion_lat": 0.0, "lat": 38.82264216666667, "type": "electric_bike", "lon": -77.0055495, "is_reserved": 0, "fusion_lon": 0.0, "bike_id": "00bce027aea0dd2c893c2e869a517bc7", "name": "00bce027aea0dd2c893c2e869a517bc7", "rental_uris": {"ios": "https://dc.lft.to/lastmile_qr_scan", "android": "https://dc.lft.to/lastmile_qr_scan"}}, {"is_disabled": 0, "fusion_lat": 0.0, "lat": 38.92383816666667, "type": "electric_scooter", "lon": -77.030671, "is_reserved": 0, "fusion_lon": 0.0, "bike_id": "3f0b9a5338d1cee38721844b266c5edd", "name": "3f0b9a5338d1cee38721844b266c5edd", "rental_uris": {"ios": "https://dc.lft.to/lastmile_qr_scan", "android": "https://dc.lft.to/lastmile_qr_scan"}}, {"is_disabled": 0, "fusion_lat": 0.0, "lat": 38.911117, "type": "electric_scooter", "lon": -77.02416466666666, "is_reserved": 0, "fusion_lon": 0.0, "bike_id": "0347fde47a267b00f3d3a49974e2ed6e", "name": "0347fde47a267b00f3d3a49974e2ed6e", "rental_uris": {"ios": "https://dc.lft.to/lastmile_qr_scan", "android": "https://dc.lft.to/lastmile_qr_scan"}}, {"is_disabled": 0, "fusion_lat": 0.0, "lat": 38.899541166666666, "type": "electric_scooter", "lon": -77.051728, "is_reserved": 0, "fusion_lon": 0.0, "bike_id": "f643ea0ce92dec6add8f0138ae3a7672", "name": "f643ea0ce92dec6add8f0138ae3a7672", "rental_uris": {"ios": "https://dc.lft.to/lastmile_qr_scan", "android": "https://dc.lft.to/lastmile_qr_scan"}}, {"is_disabled": 0, "fusion_lat": 0.0, "lat": 38.90811, "type": "electric_scooter", "lon": -77.04330766666666, "is_reserved": 0, "fusion_lon": 0.0, "bike_id": "b1aea3f6f55a849c945b73adf9da5043", "name": "b1aea3f6f55a849c945b73adf9da5043", "rental_uris": {"ios": "https://dc.lft.to/lastmile_qr_scan", "android": "https://dc.lft.to/lastmile_qr_scan"}}, {"is_disabled": 0, "fusion_lat": 0.0, "lat": 38.865624, "type": "electric_scooter", "lon": -76.98949283333333, "is_reserved": 0, "fusion_lon": 0.0, "bike_id": "5149e3d0947d48db01e8f431e5f8e537", "name": "5149e3d0947d48db01e8f431e5f8e537", "rental_uris": {"ios": "https://dc.lft.to/lastmile_qr_scan", "android": "https://dc.lft.to/lastmile_qr_scan"}}, {"is_disabled": 0, "fusion_lat": 0.0, "lat": 38.900597166666664, "type": "electric_scooter", "lon": -77.001995, "is_reserved": 0, "fusion_lon": 0.0, "bike_id": "9f6ba4bd6b1a527feddbe5aa3d19609b", "name": "9f6ba4bd6b1a527feddbe5aa3d19609b", "rental_uris": {"ios": "https://dc.lft.to/lastmile_qr_scan", "android": "https://dc.lft.to/lastmile_qr_scan"}}, {"is_disabled": 0, "fusion_lat": 0.0, "lat": 38.90218, "type": "electric_scooter", "lon": -77.04351683333333, "is_reserved": 0, "fusion_lon": 0.0, "bike_id": "c06f8495e3342ce42c284eb8e8a502b9", "name": "c06f8495e3342ce42c284eb8e8a502b9", "rental_uris": {"ios": "https://dc.lft.to/lastmile_qr_scan", "android": "https://dc.lft.to/lastmile_qr_scan"}}, {"is_disabled": 0, "fusion_lat": 0.0, "lat": 38.948349666666665, "type": "electric_scooter", "lon": -77.02554466666666, "is_reserved": 0, "fusion_lon": 0.0, "bike_id": "c93aa87631325db8965055cd54604942", "name": "c93aa87631325db8965055cd54604942", "rental_uris": {"ios": "https://dc.lft.to/lastmile_qr_scan", "android": "https://dc.lft.to/lastmile_qr_scan"}}, {"is_disabled": 0, "fusion_lat": 0.0, "lat": 38.95930416666667, "type": "electric_scooter", "lon": -77.03327116666667, "is_reserved": 0, "fusion_lon": 0.0, "bike_id": "6926c3f8c92ed131feaf402b2b5cfba6", "name": "6926c3f8c92ed131feaf402b2b5cfba6", "rental_uris": {"ios": "https://dc.lft.to/lastmile_qr_scan", "android": "https://dc.lft.to/lastmile_qr_scan"}}, {"is_disabled": 0, "fusion_lat": 0.0, "lat": 38.91764216666667, "type": "electric_scooter", "lon": -77.0319655, "is_reserved": 0, "fusion_lon": 0.0, "bike_id": "0c9bfe1eb86aba773c1c1923bf0de705", "name": "0c9bfe1eb86aba773c1c1923bf0de705", "rental_uris": {"ios": "https://dc.lft.to/lastmile_qr_scan", "android": "https://dc.lft.to/lastmile_qr_scan"}}, {"is_disabled": 0, "fusion_lat": 0.0, "lat": 38.908024833333336, "type": "electric_scooter", "lon": -77.01864633333334, "is_reserved": 0, "fusion_lon": 0.0, "bike_id": "34dd349d6ed1854ca84eb47d8b6a6143", "name": "34dd349d6ed1854ca84eb47d8b6a6143", "rental_uris": {"ios": "https://dc.lft.to/lastmile_qr_scan", "android": "https://dc.lft.to/lastmile_qr_scan"}}, {"is_disabled": 0, "fusion_lat": 0.0, "lat": 38.86528116666667, "type": "electric_scooter", "lon": -76.99029183333333, "is_reserved": 0, "fusion_lon": 0.0, "bike_id": "22ef95cc4ac2bf87fb7f336d7c64bb9b", "name": "22ef95cc4ac2bf87fb7f336d7c64bb9b", "rental_uris": {"ios": "https://dc.lft.to/lastmile_qr_scan", "android": "https://dc.lft.to/lastmile_qr_scan"}}, {"is_disabled": 0, "fusion_lat": 0.0, "lat": 38.907289666666664, "type": "electric_scooter", "lon": -77.02319333333334, "is_reserved": 0, "fusion_lon": 0.0, "bike_id": "72cd4713353ece4dfc241e85546936c8", "name": "72cd4713353ece4dfc241e85546936c8", "rental_uris": {"ios": "https://dc.lft.to/lastmile_qr_scan", "android": "https://dc.lft.to/lastmile_qr_scan"}}, {"is_disabled": 0, "fusion_lat": 0.0, "lat": 38.89283233333333, "type": "electric_scooter", "lon": -77.02593183333333, "is_reserved": 0, "fusion_lon": 0.0, "bike_id": "c89a9c867a9852909b3a9e48731555ea", "name": "c89a9c867a9852909b3a9e48731555ea", "rental_uris": {"ios": "https://dc.lft.to/lastmile_qr_scan", "android": "https://dc.lft.to/lastmile_qr_scan"}}, {"is_disabled": 0, "fusion_lat": 0.0, "lat": 38.90368616666667, "type": "electric_scooter", "lon": -77.02636666666666, "is_reserved": 0, "fusion_lon": 0.0, "bike_id": "5a605de64b837c886e15ab88ba82d569", "name": "5a605de64b837c886e15ab88ba82d569", "rental_uris": {"ios": "https://dc.lft.to/lastmile_qr_scan", "android": "https://dc.lft.to/lastmile_qr_scan"}}, {"is_disabled": 0, "fusion_lat": 0.0, "lat": 38.93867183333333, "type": "electric_bike", "lon": -77.02629833333333, "is_reserved": 0, "fusion_lon": 0.0, "bike_id": "609ee37917134f3711ae3c61b5c2110f", "name": "609ee37917134f3711ae3c61b5c2110f", "rental_uris": {"ios": "https://dc.lft.to/lastmile_qr_scan", "android": "https://dc.lft.to/lastmile_qr_scan"}}, {"is_disabled": 0, "fusion_lat": 0.0, "lat": 38.86516983333333, "type": "electric_bike", "lon": -76.973421, "is_reserved": 0, "fusion_lon": 0.0, "bike_id": "af3963cfe0ade58716c029871cb227c3", "name": "af3963cfe0ade58716c029871cb227c3", "rental_uris": {"ios": "https://dc.lft.to/lastmile_qr_scan", "android": "https://dc.lft.to/lastmile_qr_scan"}}, {"is_disabled": 0, "fusion_lat": 0.0, "lat": 38.93947516666667, "type": "electric_scooter", "lon": -77.06107283333333, "is_reserved": 0, "fusion_lon": 0.0, "bike_id": "84ed911173f21cff814e8caa70ace4a1", "name": "84ed911173f21cff814e8caa70ace4a1", "rental_uris": {"ios": "https://dc.lft.to/lastmile_qr_scan", "android": "https://dc.lft.to/lastmile_qr_scan"}}, {"is_disabled": 0, "fusion_lat": 0.0, "lat": 38.901031333333336, "type": "electric_scooter", "lon": -77.05067466666667, "is_reserved": 0, "fusion_lon": 0.0, "bike_id": "aacc995ed4c9f6de558c936356b47031", "name": "aacc995ed4c9f6de558c936356b47031", "rental_uris": {"ios": "https://dc.lft.to/lastmile_qr_scan", "android": "https://dc.lft.to/lastmile_qr_scan"}}, {"is_disabled": 0, "fusion_lat": 0.0, "lat": 38.908184166666665, "type": "electric_scooter", "lon": -77.0433685, "is_reserved": 0, "fusion_lon": 0.0, "bike_id": "396d85ba40e74a26f7d400a9eeba9e66", "name": "396d85ba40e74a26f7d400a9eeba9e66", "rental_uris": {"ios": "https://dc.lft.to/lastmile_qr_scan", "android": "https://dc.lft.to/lastmile_qr_scan"}}, {"is_disabled": 0, "fusion_lat": 0.0, "lat": 38.89224466666667, "type": "electric_scooter", "lon": -77.04869566666666, "is_reserved": 0, "fusion_lon": 0.0, "bike_id": "cf9dfc8a1b0f79e3dadbb9945e9cd398", "name": "cf9dfc8a1b0f79e3dadbb9945e9cd398", "rental_uris": {"ios": "https://dc.lft.to/lastmile_qr_scan", "android": "https://dc.lft.to/lastmile_qr_scan"}}, {"is_disabled": 0, "fusion_lat": 0.0, "lat": 38.86184766666667, "type": "electric_scooter", "lon": -76.99430633333333, "is_reserved": 0, "fusion_lon": 0.0, "bike_id": "78d0965c4d57f4eee6221fe8e5900e0e", "name": "78d0965c4d57f4eee6221fe8e5900e0e", "rental_uris": {"ios": "https://dc.lft.to/lastmile_qr_scan", "android": "https://dc.lft.to/lastmile_qr_scan"}}, {"is_disabled": 0, "fusion_lat": 0.0, "lat": 38.90580883333333, "type": "electric_scooter", "lon": -77.0487445, "is_reserved": 0, "fusion_lon": 0.0, "bike_id": "424e89dd18bd66b88afea67b1b9d964a", "name": "424e89dd18bd66b88afea67b1b9d964a", "rental_uris": {"ios": "https://dc.lft.to/lastmile_qr_scan", "android": "https://dc.lft.to/lastmile_qr_scan"}}, {"is_disabled": 0, "fusion_lat": 0.0, "lat": 38.90658783333333, "type": "electric_scooter", "lon": -77.04156316666666, "is_reserved": 0, "fusion_lon": 0.0, "bike_id": "b17561a4323166f96fd3f84436f3ecc3", "name": "b17561a4323166f96fd3f84436f3ecc3", "rental_uris": {"ios": "https://dc.lft.to/lastmile_qr_scan", "android": "https://dc.lft.to/lastmile_qr_scan"}}, {"is_disabled": 0, "fusion_lat": 0.0, "lat": 38.9081235, "type": "electric_scooter", "lon": -76.99849566666667, "is_reserved": 0, "fusion_lon": 0.0, "bike_id": "e14948d62edc6ad6a2cf34b8155a92fe", "name": "e14948d62edc6ad6a2cf34b8155a92fe", "rental_uris": {"ios": "https://dc.lft.to/lastmile_qr_scan", "android": "https://dc.lft.to/lastmile_qr_scan"}}, {"is_disabled": 0, "fusion_lat": 0.0, "lat": 38.92336133333333, "type": "electric_scooter", "lon": -77.03615616666667, "is_reserved": 0, "fusion_lon": 0.0, "bike_id": "8e759afa7f0d4d6b04d6eb01801ba978", "name": "8e759afa7f0d4d6b04d6eb01801ba978", "rental_uris": {"ios": "https://dc.lft.to/lastmile_qr_scan", "android": "https://dc.lft.to/lastmile_qr_scan"}}, {"is_disabled": 0, "fusion_lat": 0.0, "lat": 38.966263166666664, "type": "electric_bike", "lon": -77.03424416666667, "is_reserved": 0, "fusion_lon": 0.0, "bike_id": "bf3731a4edd69d86e1da5941c38627c5", "name": "bf3731a4edd69d86e1da5941c38627c5", "rental_uris": {"ios": "https://dc.lft.to/lastmile_qr_scan", "android": "https://dc.lft.to/lastmile_qr_scan"}}, {"is_disabled": 0, "fusion_lat": 0.0, "lat": 38.885946, "type": "electric_scooter", "lon": -77.01984766666666, "is_reserved": 0, "fusion_lon": 0.0, "bike_id": "cc43ab20d1785317767f14b568c2f2cf", "name": "cc43ab20d1785317767f14b568c2f2cf", "rental_uris": {"ios": "https://dc.lft.to/lastmile_qr_scan", "android": "https://dc.lft.to/lastmile_qr_scan"}}, {"is_disabled": 0, "fusion_lat": 0.0, "lat": 38.92073166666667, "type": "electric_scooter", "lon": -77.045521, "is_reserved": 0, "fusion_lon": 0.0, "bike_id": "d6ed77172bedcac0a4c61091a453a7df", "name": "d6ed77172bedcac0a4c61091a453a7df", "rental_uris": {"ios": "https://dc.lft.to/lastmile_qr_scan", "android": "https://dc.lft.to/lastmile_qr_scan"}}, {"is_disabled": 0, "fusion_lat": 0.0, "lat": 38.9169895, "type": "electric_scooter", "lon": -77.03483216666666, "is_reserved": 0, "fusion_lon": 0.0, "bike_id": "b25a79012fd4e37fc0a55b4351a6fa21", "name": "b25a79012fd4e37fc0a55b4351a6fa21", "rental_uris": {"ios": "https://dc.lft.to/lastmile_qr_scan", "android": "https://dc.lft.to/lastmile_qr_scan"}}, {"is_disabled": 0, "fusion_lat": 0.0, "lat": 38.9603175, "type": "electric_bike", "lon": -77.033919, "is_reserved": 0, "fusion_lon": 0.0, "bike_id": "d2f4bf4e24d0ea0126d15d81f74d88d4", "name": "d2f4bf4e24d0ea0126d15d81f74d88d4", "rental_uris": {"ios": "https://dc.lft.to/lastmile_qr_scan", "android": "https://dc.lft.to/lastmile_qr_scan"}}, {"is_disabled": 0, "fusion_lat": 0.0, "lat": 38.92067516666667, "type": "electric_scooter", "lon": -77.03217816666667, "is_reserved": 0, "fusion_lon": 0.0, "bike_id": "1df9324af3de6665d22ab2de40328704", "name": "1df9324af3de6665d22ab2de40328704", "rental_uris": {"ios": "https://dc.lft.to/lastmile_qr_scan", "android": "https://dc.lft.to/lastmile_qr_scan"}}, {"is_disabled": 0, "fusion_lat": 0.0, "lat": 38.92321333333334, "type": "electric_scooter", "lon": -77.04122933333333, "is_reserved": 0, "fusion_lon": 0.0, "bike_id": "7771a2ca838ba8b4835edc5b7c9ea172", "name": "7771a2ca838ba8b4835edc5b7c9ea172", "rental_uris": {"ios": "https://dc.lft.to/lastmile_qr_scan", "android": "https://dc.lft.to/lastmile_qr_scan"}}, {"is_disabled": 0, "fusion_lat": 0.0, "lat": 38.90473316666667, "type": "electric_scooter", "lon": -76.989183, "is_reserved": 0, "fusion_lon": 0.0, "bike_id": "c940f77d73e1e6e6fd137c7a7a29a4d9", "name": "c940f77d73e1e6e6fd137c7a7a29a4d9", "rental_uris": {"ios": "https://dc.lft.to/lastmile_qr_scan", "android": "https://dc.lft.to/lastmile_qr_scan"}}, {"is_disabled": 0, "fusion_lat": 0.0, "lat": 38.892708166666665, "type": "electric_scooter", "lon": -76.94922966666667, "is_reserved": 0, "fusion_lon": 0.0, "bike_id": "589be70761f8e3a50251e043a96832cd", "name": "589be70761f8e3a50251e043a96832cd", "rental_uris": {"ios": "https://dc.lft.to/lastmile_qr_scan", "android": "https://dc.lft.to/lastmile_qr_scan"}},