{"data": {"bikes": [{"fusion_lat": 0.0, "name": "b39227dc07ab3ba481a7f6289bf290c0", "is_disabled": 0, "rental_uris": {"android": "https://dc.lft.to/lastmile_qr_scan", "ios": "https://dc.lft.to/lastmile_qr_scan"}, "fusion_lon": 0.0, "lat": 38.902163333333334, "bike_id": "b39227dc07ab3ba481a7f6289bf290c0", "type": "electric_scooter", "is_reserved": 0, "lon": -77.01921283333333}, {"fusion_lat": 0.0, "name": "0794eed1bd9187d16f69d2c8936f2ba4", "is_disabled": 0, "rental_uris": {"android": "https://dc.lft.to/lastmile_qr_scan", "ios": "https://dc.lft.to/lastmile_qr_scan"}, "fusion_lon": 0.0, "lat": 38.83626666666667, "bike_id": "0794eed1bd9187d16f69d2c8936f2ba4", "type": "electric_bike", "is_reserved": 0, "lon": -77.06950566666667}, {"fusion_lat": 0.0, "name": "db1288919e5d90fa04e6b8ba87a5360d", "is_disabled": 0, "rental_uris": {"android": "https://dc.lft.to/lastmile_qr_scan", "ios": "https://dc.lft.to/lastmile_qr_scan"}, "fusion_lon": 0.0, "lat": 38.93484633333333, "bike_id": "db1288919e5d90fa04e6b8ba87a5360d", "type": "electric_scooter", "is_reserved": 0, "lon": -77.0727545}, {"fusion_lat": 0.0, "name": "c8bbe387ec056ae8a7856df543cb33f4", "is_disabled": 0, "rental_uris": {"android": "https://dc.lft.to/lastmile_qr_scan", "ios": "https://dc.lft.to/lastmile_qr_scan"}, "fusion_lon": 0.0, "lat": 38.91853616666667, "bike_id": "c8bbe387ec056ae8a7856df543cb33f4", "type": "electric_bike", "is_reserved": 0, "lon": -76.96091483333333}, {"fusion_lat": 0.0, "name": "a756278d9324b7a0581d279bcc79b422", "is_disabled": 0, "rental_uris": {"android": "https://dc.lft.to/lastmile_qr_scan", "ios": "https://dc.lft.to/lastmile_qr_scan"}, "fusion_lon": 0.0, "lat": 38.906798, "bike_id": "a756278d9324b7a0581d279bcc79b422", "type": "electric_scooter", "is_reserved": 0, "lon": -76.95197416666667}, {"fusion_lat": 0.0, "name": "da0f649f929b0131449dd1f9aa433dd6", "is_disabled": 0, "rental_uris": {"android": "https://dc.lft.to/lastmile_qr_scan", "ios": "https://dc.lft.to/lastmile_qr_scan"}, "fusion_lon": 0.0, "lat": 38.916571166666664, "bike_id": "da0f649f929b0131449dd1f9aa433dd6", "type": "electric_scooter", "is_reserved": 0, "lon": -77.03860516666667}, {"fusion_lat": 0.0, "name": "c62befca990a2e49773fed49205c4b7d", "is_disabled": 0, "rental_uris": {"android": "https://dc.lft.to/lastmile_qr_scan", "ios": "https://dc.lft.to/lastmile_qr_scan"}, "fusion_lon": 0.0, "lat": 38.905649333333336, "bike_id": "c62befca990a2e49773fed49205c4b7d", "type": "electric_scooter", "is_reserved": 0, "lon": -77.02101833333333}, {"fusion_lat": 0.0, "name": "7d5d7b1b2054d694f014a3d1a483e6af", "is_disabled": 0, "rental_uris": {"android": "https://dc.lft.to/lastmile_qr_scan", "ios": "https://dc.lft.to/lastmile_qr_scan"}, "fusion_lon": 0.0, "lat": 38.91110883333333, "bike_id": "7d5d7b1b2054d694f014a3d1a483e6af", "type": "electric_scooter", "is_reserved": 0, "lon": -77.02170066666666}, {"fusion_lat": 0.0, "name": "97365334b2fc8ae68aa2e33a2f00f8f8", "is_disabled": 0, "rental_uris": {"android": "https://dc.lft.to/lastmile_qr_scan", "ios": "https://dc.lft.to/lastmile_qr_scan"}, "fusion_lon": 0.0, "lat": 38.907098500000004, "bike_id": "97365334b2fc8ae68aa2e33a2f00f8f8", "type": "electric_scooter", "is_reserved": 0, "lon": -77.02392416666666}, {"fusion_lat": 0.0, "name": "58c89c2563b050bd7b5016c7239afa45", "is_disabled": 0, "rental_uris": {"android": "https://dc.lft.to/lastmile_qr_scan", "ios": "https://dc.lft.to/lastmile_qr_scan"}, "fusion_lon": 0.0, "lat": 38.90628316666667, "bike_id": "58c89c2563b050bd7b5016c7239afa45", "type": "electric_scooter", "is_reserved": 0, "lon": -77.009715}, {"fusion_lat": 0.0, "name": "ce318f5f37e3e95e4ddd95822c64d661", "is_disabled": 0, "rental_uris": {"android": "https://dc.lft.to/lastmile_qr_scan", "ios": "https://dc.lft.to/lastmile_qr_scan"}, "fusion_lon": 0.0, "lat": 38.91399833333333, "bike_id": "ce318f5f37e3e95e4ddd95822c64d661", "type": "electric_scooter", "is_reserved": 0, "lon": -77.04575516666667}, {"fusion_lat": 0.0, "name": "8e0f28a9cc70d4d2221472b80d792a03", "is_disabled": 0, "rental_uris": {"android": "https://dc.lft.to/lastmile_qr_scan", "ios": "https://dc.lft.to/lastmile_qr_scan"}, "fusion_lon": 0.0, "lat": 38.902318, "bike_id": "8e0f28a9cc70d4d2221472b80d792a03", "type": "electric_scooter", "is_reserved": 0, "lon": -77.046028}, {"fusion_lat": 0.0, "name": "2e740a6ddc3ea1df0e0ab76f8ed89865", "is_disabled": 0, "rental_uris": {"android": "https://dc.lft.to/lastmile_qr_scan", "ios": "https://dc.lft.to/lastmile_qr_scan"}, "fusion_lon": 0.0, "lat": 38.88550333333333, "bike_id": "2e740a6ddc3ea1df0e0ab76f8ed89865", "type": "electric_scooter", "is_reserved": 0, "lon": -77.0332375}, {"fusion_lat": 0.0, "name": "64cc79053956582d4be59c7d7a0076fc", "is_disabled": 0, "rental_uris": {"android": "https://dc.lft.to/lastmile_qr_scan", "ios": "https://dc.lft.to/lastmile_qr_scan"}, "fusion_lon": 0.0, "lat": 38.921414166666665, "bike_id": "64cc79053956582d4be59c7d7a0076fc", "type": "electric_scooter", "is_reserved": 0, "lon": -77.0401225}, {"fusion_lat": 0.0, "name": "b1a1c492266e301a4fba42a478a05367", "is_disabled": 0, "rental_uris": {"android": "https://dc.lft.to/lastmile_qr_scan", "ios": "https://dc.lft.to/lastmile_qr_scan"}, "fusion_lon": 0.0, "lat": 38.88361116666667, "bike_id": "b1a1c492266e301a4fba42a478a05367", "type": "electric_scooter", "is_reserved": 0, "lon": -77.01985783333333}, {"fusion_lat": 0.0, "name": "92fcb1f7a0e789d598ce3e64d4df1646", "is_disabled": 0, "rental_uris": {"android": "https://dc.lft.to/lastmile_qr_scan", "ios": "https://dc.lft.to/lastmile_qr_scan"}, "fusion_lon": 0.0, "lat": 38.858004, "bike_id": "92fcb1f7a0e789d598ce3e64d4df1646", "type": "electric_bike", "is_reserved": 0, "lon": -76.98732083333333}, {"fusion_lat": 0.0, "name": "209cfa521ffc6d1298dbffda0bc99fa2", "is_disabled": 0, "rental_uris": {"android": "https://dc.lft.to/lastmile_qr_scan", "ios": "https://dc.lft.to/lastmile_qr_scan"}, "fusion_lon": 0.0, "lat": 38.892224166666665, "bike_id": "209cfa521ffc6d1298dbffda0bc99fa2", "type": "electric_scooter", "is_reserved": 0, "lon": -77.026357}, {"fusion_lat": 0.0, "name": "3add219368b59b6e7685257a278a7fec", "is_disabled": 0, "rental_uris": {"android": "https://dc.lft.to/lastmile_qr_scan", "ios": "https://dc.lft.to/lastmile_qr_scan"}, "fusion_lon": 0.0, "lat": 38.901003, "bike_id": "3add219368b59b6e7685257a278a7fec", "type": "electric_scooter", "is_reserved": 0, "lon": -77.01976533333334}, {"fusion_lat": 0.0, "name": "b7ef49d86addb6ebca7dbaf87e5e2dd8", "is_disabled": 0, "rental_uris": {"android": "https://dc.lft.to/lastmile_qr_scan", "ios": "https://dc.lft.to/lastmile_qr_scan"}, "fusion_lon": 0.0, "lat": 38.9181745, "bike_id": "b7ef49d86addb6ebca7dbaf87e5e2dd8", "type": "electric_scooter", "is_reserved": 0, "lon": -77.0400795}, {"fusion_lat": 0.0, "name": "28db78935e49a1cff9f13435c1ea7355", "is_disabled": 0, "rental_uris": {"android": "https://dc.lft.to/lastmile_qr_scan", "ios": "https://dc.lft.to/lastmile_qr_scan"}, "fusion_lon": 0.0, "lat": 38.91714116666667, "bike_id": "28db78935e49a1cff9f13435c1ea7355", "type": "electric_scooter", "is_reserved": 0, "lon": -77.00847866666666}, {"fusion_lat": 0.0, "name": "08d7430c34e9d0053db2ae2a931d376b", "is_disabled": 0, "rental_uris": {"android": "https://dc.lft.to/lastmile_qr_scan", "ios": "https://dc.lft.to/lastmile_qr_scan"}, "fusion_lon": 0.0, "lat": 38.921593333333334, "bike_id": "08d7430c34e9d0053db2ae2a931d376b", "type": "electric_scooter", "is_reserved": 0, "lon": -76.996929}, {"fusion_lat": 0.0, "name": "0d2e609ee4688f82d6c0a4728a7b544a", "is_disabled": 0, "rental_uris": {"android": "https://dc.lft.to/lastmile_qr_scan", "ios": "https://dc.lft.to/lastmile_qr_scan"}, "fusion_lon": 0.0, "lat": 38.9230865, "bike_id": "0d2e609ee4688f82d6c0a4728a7b544a", "type": "electric_scooter", "is_reserved": 0, "lon": -77.0375215}, {"fusion_lat": 0.0, "name": "1f09f18ce9f59ce41fc8d809e9ab4f54", "is_disabled": 0, "rental_uris": {"android": "https://dc.lft.to/lastmile_qr_scan", "ios": "https://dc.lft.to/lastmile_qr_scan"}, "fusion_lon": 0.0, "lat": 38.86248783333333, "bike_id": "1f09f18ce9f59ce41fc8d809e9ab4f54", "type": "electric_bike", "is_reserved": 0, "lon": -76.98339383333334}, {"fusion_lat": 0.0, "name": "a0d4b57862f48e514e3cc15eb469613a", "is_disabled": 0, "rental_uris": {"android": "https://dc.lft.to/lastmile_qr_scan", "ios": "https://dc.lft.to/lastmile_qr_scan"}, "fusion_lon": 0.0, "lat": 38.92065433333333, "bike_id": "a0d4b57862f48e514e3cc15eb469613a", "type": "electric_scooter", "is_reserved": 0, "lon": -77.03245433333333}, {"fusion_lat": 0.0, "name": "1d7a8539fce21f0e987942f1bde7205f", "is_disabled": 0, "rental_uris": {"android": "https://dc.lft.to/lastmile_qr_scan", "ios": "https://dc.lft.to/lastmile_qr_scan"}, "fusion_lon": 0.0, "lat": 38.941778166666666, "bike_id": "1d7a8539fce21f0e987942f1bde7205f", "type": "electric_scooter", "is_reserved": 0, "lon": -77.03656383333333}, {"fusion_lat": 0.0, "name": "2d01f7b4369ab0be241e5fab0c0559cb", "is_disabled": 0, "rental_uris": {"android": "https://dc.lft.to/lastmile_qr_scan", "ios": "https://dc.lft.to/lastmile_qr_scan"}, "fusion_lon": 0.0, "lat": 38.8890125, "bike_id": "2d01f7b4369ab0be241e5fab0c0559cb", "type": "electric_scooter", "is_reserved": 0, "lon": -76.99212633333333}, {"fusion_lat": 0.0, "name": "8beba56b1a1eeb0865eeda1f4623b9fb", "is_disabled": 0, "rental_uris": {"android": "https://dc.lft.to/lastmile_qr_scan", "ios": "https://dc.lft.to/lastmile_qr_scan"}, "fusion_lon": 0.0, "lat": 38.898504, "bike_id": "8beba56b1a1eeb0865eeda1f4623b9fb", "type": "electric_scooter", "is_reserved": 0, "lon": -76.9903595}, {"fusion_lat": 0.0, "name": "36b05e347e903434624f91fc90b1c12b", "is_disabled": 0, "rental_uris": {"android": "https://dc.lft.to/lastmile_qr_scan", "ios": "https://dc.lft.to/lastmile_qr_scan"}, "fusion_lon": 0.0, "lat": 38.878193, "bike_id": "36b05e347e903434624f91fc90b1c12b", "type": "electric_scooter", "is_reserved": 0, "lon": -77.001395}, {"fusion_lat": 0.0, "name": "bd528cf7df979169182f4e0bf88cac75", "is_disabled": 0, "rental_uris": {"android": "https://dc.lft.to/lastmile_qr_scan", "ios": "https://dc.lft.to/lastmile_qr_scan"}, "fusion_lon": 0.0, "lat": 38.93119466666667, "bike_id": "bd528cf7df979169182f4e0bf88cac75", "type": "electric_scooter", "is_reserved": 0, "lon": -77.03033633333334}, {"fusion_lat": 0.0, "name": "33173e12a4ad8aed32e8771c4c279cea", "is_disabled": 0, "rental_uris": {"android": "https://dc.lft.to/lastmile_qr_scan", "ios": "https://dc.lft.to/lastmile_qr_scan"}, "fusion_lon": 0.0, "lat": 38.865127, "bike_id": "33173e12a4ad8aed32e8771c4c279cea", "type": "electric_bike", "is_reserved": 0, "lon": -76.973319}, {"fusion_lat": 0.0, "name": "a706bba8c620da64f6a91ef83732be6d", "is_disabled": 0, "rental_uris": {"android": "https://dc.lft.to/lastmile_qr_scan", "ios": "https://dc.lft.to/lastmile_qr_scan"}, "fusion_lon": 0.0, "lat": 38.91708766666667, "bike_id": "a706bba8c620da64f6a91ef83732be6d", "type": "electric_scooter", "is_reserved": 0, "lon": -77.032103}, {"fusion_lat": 0.0, "name": "1abdb98948f481f7ce3468c6721cc894", "is_disabled": 0, "rental_uris": {"android": "https://dc.lft.to/lastmile_qr_scan", "ios": "https://dc.lft.to/lastmile_qr_scan"}, "fusion_lon": 0.0, "lat": 38.918405, "bike_id": "1abdb98948f481f7ce3468c6721cc894", "type": "electric_scooter", "is_reserved": 0, "lon": -77.0238955}, {"fusion_lat": 0.0, "name": "c1d27b0e3db324936774d2b676bdbe93", "is_disabled": 0, "rental_uris": {"android": "https://dc.lft.to/lastmile_qr_scan", "ios": "https://dc.lft.to/lastmile_qr_scan"}, "fusion_lon": 0.0, "lat": 38.88749716666667, "bike_id": "c1d27b0e3db324936774d2b676bdbe93", "type": "electric_scooter", "is_reserved": 0, "lon": -77.02263466666666}, {"fusion_lat": 0.0, "name": "5391f7a27984bd45ea109bf21f859476", "is_disabled": 0, "rental_uris": {"android": "https://dc.lft.to/lastmile_qr_scan", "ios": "https://dc.lft.to/lastmile_qr_scan"}, "fusion_lon": 0.0, "lat": 38.901013, "bike_id": "5391f7a27984bd45ea109bf21f859476", "type": "electric_scooter", "is_reserved": 0, "lon": -77.03167383333333}, {"fusion_lat": 0.0, "name": "fd4bc4e5068d334934ba32d93a2445e9", "is_disabled": 0, "rental_uris": {"android": "https://dc.lft.to/lastmile_qr_scan", "ios": "https://dc.lft.to/lastmile_qr_scan"}, "fusion_lon": 0.0, "lat": 38.916624, "bike_id": "fd4bc4e5068d334934ba32d93a2445e9", "type": "electric_scooter", "is_reserved": 0, "lon": -77.03859016666667}, {"fusion_lat": 0.0, "name": "42736d9ef21240cfe005ed7e5d2d5f9d", "is_disabled": 0, "rental_uris": {"android": "https://dc.lft.to/lastmile_qr_scan", "ios": "https://dc.lft.to/lastmile_qr_scan"}, "fusion_lon": 0.0, "lat": 38.849112, "bike_id": "42736d9ef21240cfe005ed7e5d2d5f9d", "type": "electric_bike", "is_reserved": 0, "lon": -77.09982983333333}, {"fusion_lat": 0.0, "name": "304df43e6cd08ded81f2e3488f8d6a37", "is_disabled": 0, "rental_uris": {"android": "https://dc.lft.to/lastmile_qr_scan", "ios": "https://dc.lft.to/lastmile_qr_scan"}, "fusion_lon": 0.0, "lat": 38.9198895, "bike_id": "304df43e6cd08ded81f2e3488f8d6a37", "type": "electric_scooter", "is_reserved": 0, "lon": -77.04184183333334}, {"fusion_lat": 0.0, "name": "0077631ee6c2027445dd1ac67f7866bd", "is_disabled": 0, "rental_uris": {"android": "https://dc.lft.to/lastmile_qr_scan", "ios": "https://dc.lft.to/lastmile_qr_scan"}, "fusion_lon": 0.0, "lat": 38.915871833333334, "bike_id": "0077631ee6c2027445dd1ac67f7866bd", "type": "electric_scooter", "is_reserved": 0, "lon": -77.04490483333333}, {"fusion_lat": 0.0, "name": "f39ea24843012742f6427c944c518334", "is_disabled": 0, "rental_uris": {"android": "https://dc.lft.to/lastmile_qr_scan", "ios": "https://dc.lft.to/lastmile_qr_scan"}, "fusion_lon": 0.0, "lat": 38.92431933333334, "bike_id": "f39ea24843012742f6427c944c518334", "type": "electric_scooter", "is_reserved": 0, "lon": -77.044699}, {"fusion_lat": 0.0, "name": "4a83d26ef82f8b309a52eda13d533476", "is_disabled": 0, "rental_uris": {"android": "https://dc.lft.to/lastmile_qr_scan", "ios": "https://dc.lft.to/lastmile_qr_scan"}, "fusion_lon": 0.0, "lat": 38.961825166666664, "bike_id": "4a83d26ef82f8b309a52eda13d533476", "type": "electric_bike", "is_reserved": 0, "lon": -77.05272183333334}, {"fusion_lat": 0.0, "name": "faab1bcb793f4ba5f6aa26bb15d88ee1", "is_disabled": 0, "rental_uris": {"android": "https://dc.lft.to/lastmile_qr_scan", "ios": "https://dc.lft.to/lastmile_qr_scan"}, "fusion_lon": 0.0, "lat": 38.89696383333333, "bike_id": "faab1bcb793f4ba5f6aa26bb15d88ee1", "type": "electric_scooter", "is_reserved": 0, "lon": -77.01296}, {"fusion_lat": 0.0, "name": "8c77f0417f4b666709ff182870a8b3ef", "is_disabled": 0, "rental_uris": {"android": "https://dc.lft.to/lastmile_qr_scan", "ios": "https://dc.lft.to/lastmile_qr_scan"}, "fusion_lon": 0.0, "lat": 38.915606, "bike_id": "8c77f0417f4b666709ff182870a8b3ef", "type": "electric_scooter", "is_reserved": 0, "lon": -77.03873883333333}, {"fusion_lat": 0.0, "name": "e9a405ea2e24d050a87be66c1db70aad", "is_disabled": 0, "rental_uris": {"android": "https://dc.lft.to/lastmile_qr_scan", "ios": "https://dc.lft.to/lastmile_qr_scan"}, "fusion_lon": 0.0, "lat": 38.9025475, "bike_id": "e9a405ea2e24d050a87be66c1db70aad", "type": "electric_scooter", "is_reserved": 0, "lon": -77.05327533333333}, {"fusion_lat": 0.0, "name": "9f4289cd6f34f48c013bcd78870c24b6", "is_disabled": 0, "rental_uris": {"android": "https://dc.lft.to/lastmile_qr_scan", "ios": "https://dc.lft.to/lastmile_qr_scan"}, "fusion_lon": 0.0, "lat": 38.9206965, "bike_id": "9f4289cd6f34f48c013bcd78870c24b6", "type": "electric_scooter", "is_reserved": 0, "lon": -77.0147975}, {"fusion_lat": 0.0, "name": "537b457d8ca5d6f52fcb3b886ce3e8b1", "is_disabled": 0, "rental_uris": {"android": "https://dc.lft.to/lastmile_qr_scan", "ios": "https://dc.lft.to/lastmile_qr_scan"}, "fusion_lon": 0.0, "lat": 38.92681283333334, "bike_id": "537b457d8ca5d6f52fcb3b886ce3e8b1", "type": "electric_scooter", "is_reserved": 0, "lon": -77.0279685}, {"fusion_lat": 0.0, "name": "d3834751c1e0e0224f1fd07220ce8100", "is_disabled": 0, "rental_uris": {"android": "https://dc.lft.to/lastmile_qr_scan", "ios": "https://dc.lft.to/lastmile_qr_scan"}, "fusion_lon": 0.0, "lat": 38.9172535, "bike_id": "d3834751c1e0e0224f1fd07220ce8100", "type": "electric_scooter", "is_reserved": 0, "lon": -77.02706433333333}, {"fusion_lat": 0.0, "name": "f74b5505a2965ed9fc6c9c0591e23001", "is_disabled": 0, "rental_uris": {"android": "https://dc.lft.to/lastmile_qr_scan", "ios": "https://dc.lft.to/lastmile_qr_scan"}, "fusion_lon": 0.0, "lat": 38.920834166666666, "bike_id": "f74b5505a2965ed9fc6c9c0591e23001", "type": "electric_scooter", "is_reserved": 0, "lon": -77.022247}, {"fusion_lat": 0.0, "name": "7bc6fa91ef6337094cd46a8936a61321", "is_disabled": 0, "rental_uris": {"android": "https://dc.lft.to/lastmile_qr_scan", "ios": "https://dc.lft.to/lastmile_qr_scan"}, "fusion_lon": 0.0, "lat": 38.901836333333335, "bike_id": "7bc6fa91ef6337094cd46a8936a61321", "type": "electric_scooter", "is_reserved": 0, "lon": -77.02738816666667}, {"fusion_lat": 0.0, "name": "2878d8915e99aed80b9c571bd84e53e0", "is_disabled": 0, "rental_uris": {"android": "https://dc.lft.to/lastmile_qr_scan", "ios": "https://dc.lft.to/lastmile_qr_scan"}, "fusion_lon": 0.0, "lat": 38.900241, "bike_id": "2878d8915e99aed80b9c571bd84e53e0", "type": "electric_scooter", "is_reserved": 0, "lon": -77.011875}, {"fusion_lat": 0.0, "name": "f66dfb476f446ded7623a177b04a448c", "is_disabled": 0, "rental_uris": {"android": "https://dc.lft.to/lastmile_qr_scan", "ios": "https://dc.lft.to/lastmile_qr_scan"}, "fusion_lon": 0.0, "lat": 38.972854166666664, "bike_id": "f66dfb476f446ded7623a177b04a448c", "type": "electric_scooter", "is_reserved": 0, "lon": -77.0116155}, {"fusion_lat": 0.0, "name": "8af483eb9b018c6479d759e24f9fb154", "is_disabled": 0, "rental_uris": {"android": "https://dc.lft.to/lastmile_qr_scan", "ios": "https://dc.lft.to/lastmile_qr_scan"}, "fusion_lon": 0.0, "lat": 38.86739216666667, "bike_id": "8af483eb9b018c6479d759e24f9fb154", "type": "electric_scooter", "is_reserved": 0, "lon": -76.98791933333334}, {"fusion_lat": 0.0, "name": "69f978fbc091b7a4a089f7f6a24130da", "is_disabled": 0, "rental_uris": {"android": "https://dc.lft.to/lastmile_qr_scan", "ios": "https://dc.lft.to/lastmile_qr_scan"}, "fusion_lon": 0.0, "lat": 38.9175045, "bike_id": "69f978fbc091b7a4a089f7f6a24130da", "type": "electric_scooter", "is_reserved": 0, "lon": -77.06934366666667}, {"fusion_lat": 0.0, "name": "d18ada5e2b8014541d71d4df09ed2eab", "is_disabled": 0, "rental_uris": {"android": "https://dc.lft.to/lastmile_qr_scan", "ios": "https://dc.lft.to/lastmile_qr_scan"}, "fusion_lon": 0.0, "lat": 38.87748366666667, "bike_id": "d18ada5e2b8014541d71d4df09ed2eab", "type": "electric_scooter", "is_reserved": 0, "lon": -77.00599983333333}, {"fusion_lat": 0.0, "name": "723bd8e6bbc493cd64bf6b432a4fdb41", "is_disabled": 0, "rental_uris": {"android": "https://dc.lft.to/lastmile_qr_scan", "ios": "https://dc.lft.to/lastmile_qr_scan"}, "fusion_lon": 0.0, "lat": 38.909125833333334, "bike_id": "723bd8e6bbc493cd64bf6b432a4fdb41", "type": "electric_scooter", "is_reserved": 0, "lon": -77.04217816666667}, {"fusion_lat": 0.0, "name": "9050de5e0a39fd91f5c741e116bcfbdc", "is_disabled": 0, "rental_uris": {"android": "https://dc.lft.to/lastmile_qr_scan", "ios": "https://dc.lft.to/lastmile_qr_scan"}, "fusion_lon": 0.0, "lat": 38.91608816666667, "bike_id": "9050de5e0a39fd91f5c741e116bcfbdc", "type": "electric_scooter", "is_reserved": 0, "lon": -77.0239925}, {"fusion_lat": 0.0, "name": "a4a5d87241af6d5fdfd232ee2b188e10", "is_disabled": 0, "rental_uris": {"android": "https://dc.lft.to/lastmile_qr_scan", "ios": "https://dc.lft.to/lastmile_qr_scan"}, "fusion_lon": 0.0, "lat": 38.89994216666667, "bike_id": "a4a5d87241af6d5fdfd232ee2b188e10", "type": "electric_bike", "is_reserved": 0, "lon": -76.99858433333333}, {"fusion_lat": 0.0, "name": "2833b65f31d0266d43a4e320fbc00a05", "is_disabled": 0, "rental_uris": {"android": "https://dc.lft.to/lastmile_qr_scan", "ios": "https://dc.lft.to/lastmile_qr_scan"}, "fusion_lon": 0.0, "lat": 38.93827866666667, "bike_id": "2833b65f31d0266d43a4e320fbc00a05", "type": "electric_scooter", "is_reserved": 0, "lon": -76.99191583333334}, {"fusion_lat": 0.0, "name": "efc755d05c05b2a1a8476f84c4140584", "is_disabled": 0, "rental_uris": {"android": "https://dc.lft.to/lastmile_qr_scan", "ios": "https://dc.lft.to/lastmile_qr_scan"}, "fusion_lon": 0.0, "lat": 38.91205866666667, "bike_id": "efc755d05c05b2a1a8476f84c4140584", "type": "electric_scooter", "is_reserved": 0, "lon": -77.000902}, {"fusion_lat": 0.0, "name": "56203b8d7a9e170f95311e9a20c98d14", "is_disabled": 0, "rental_uris": {"android": "https://dc.lft.to/lastmile_qr_scan", "ios": "https://dc.lft.to/lastmile_qr_scan"}, "fusion_lon": 0.0, "lat": 38.9078395, "bike_id": "56203b8d7a9e170f95311e9a20c98d14", "type": "electric_scooter", "is_reserved": 0, "lon": -77.03518533333333}, {"fusion_lat": 0.0, "name": "df2d1cf1e729f14f4f04523a06b88481", "is_disabled": 0, "rental_uris": {"android": "https://dc.lft.to/lastmile_qr_scan", "ios": "https://dc.lft.to/lastmile_qr_scan"}, "fusion_lon": 0.0, "lat": 38.903840833333334, "bike_id": "df2d1cf1e729f14f4f04523a06b88481", "type": "electric_scooter", "is_reserved": 0, "lon": -77.03839483333333}, {"fusion_lat": 0.0, "name": "e7315a8fc610dfcae26ec87172d42536", "is_disabled": 0, "rental_uris": {"android": "https://dc.lft.to/lastmile_qr_scan", "ios": "https://dc.lft.to/lastmile_qr_scan"}, "fusion_lon": 0.0, "lat": 38.917269, "bike_id": "e7315a8fc610dfcae26ec87172d42536", "type": "electric_scooter", "is_reserved": 0, "lon": -77.02699283333334}, {"fusion_lat": 0.0, "name": "cc189ba68b6dd00c7d3e02a6cf4fc9f8", "is_disabled": 0, "rental_uris": {"android": "https://dc.lft.to/lastmile_qr_scan", "ios": "https://dc.lft.to/lastmile_qr_scan"}, "fusion_lon": 0.0, "lat": 38.902321666666666, "bike_id": "cc189ba68b6dd00c7d3e02a6cf4fc9f8", "type": "electric_scooter", "is_reserved": 0, "lon": -77.043617}, {"fusion_lat": 0.0, "name": "d5dca06f6e9043fdfaaca5cbd1669095", "is_disabled": 0, "rental_uris": {"android": "https://dc.lft.to/lastmile_qr_scan", "ios": "https://dc.lft.to/lastmile_qr_scan"}, "fusion_lon": 0.0, "lat": 38.904712833333335, "bike_id": "d5dca06f6e9043fdfaaca5cbd1669095", "type": "electric_scooter", "is_reserved": 0, "lon": -77.026158}, {"fusion_lat": 0.0, "name": "159995fbd012c9e1d0c704d0268f4e99", "is_disabled": 0, "rental_uris": {"android": "https://dc.lft.to/lastmile_qr_scan", "ios": "https://dc.lft.to/lastmile_qr_scan"}, "fusion_lon": 0.0, "lat": 38.93955166666667, "bike_id": "159995fbd012c9e1d0c704d0268f4e99", "type": "electric_scooter", "is_reserved": 0, "lon": -77.03293383333333}, {"fusion_lat": 0.0, "name": "36c55d02e87dd7532f162e815604a527", "is_disabled": 0, "rental_uris": {"android": "https://dc.lft.to/lastmile_qr_scan", "ios": "https://dc.lft.to/lastmile_qr_scan"}, "fusion_lon": 0.0, "lat": 38.92315833333333, "bike_id": "36c55d02e87dd7532f162e815604a527", "type": "electric_scooter", "is_reserved": 0, "lon": -77.03804866666667}, {"fusion_lat": 0.0, "name": "1cf4e90c49a0499a4eb5efea74ddf03a", "is_disabled": 0, "rental_uris": {"android": "https://dc.lft.to/lastmile_qr_scan", "ios": "https://dc.lft.to/lastmile_qr_scan"}, "fusion_lon": 0.0, "lat": 38.92858433333333, "bike_id": "1cf4e90c49a0499a4eb5efea74ddf03a", "type": "electric_scooter", "is_reserved": 0, "lon": -77.0353475}, {"fusion_lat": 0.0, "name": "557b9085889c7b5642b98538cabe7eeb", "is_disabled": 0, "rental_uris": {"android": "https://dc.lft.to/lastmile_qr_scan", "ios": "https://dc.lft.to/lastmile_qr_scan"}, "fusion_lon": 0.0, "lat": 38.902114, "bike_id": "557b9085889c7b5642b98538cabe7eeb", "type": "electric_scooter", "is_reserved": 0, "lon": -76.98618283333333}, {"fusion_lat": 0.0, "name": "a5986d21caf40e3526f5e237e18828f8", "is_disabled": 0, "rental_uris": {"android": "https://dc.lft.to/lastmile_qr_scan", "ios": "https://dc.lft.to/lastmile_qr_scan"}, "fusion_lon": 0.0, "lat": 38.87886566666667, "bike_id": "a5986d21caf40e3526f5e237e18828f8", "type": "electric_scooter", "is_reserved": 0, "lon": -77.005766}, {"fusion_lat": 0.0, "name": "a94aa154290fd187ac1f9e58c33fb42e", "is_disabled": 0, "rental_uris": {"android": "https://dc.lft.to/lastmile_qr_scan", "ios": "https://dc.lft.to/lastmile_qr_scan"}, "fusion_lon": 0.0, "lat": 38.8850835, "bike_id": "a94aa154290fd187ac1f9e58c33fb42e", "type": "electric_scooter", "is_reserved": 0, "lon": -77.01116533333334}, {"fusion_lat": 0.0, "name": "20ddf54537e54f3313b51cf685c760b5", "is_disabled": 0, "rental_uris": {"android": "https://dc.lft.to/lastmile_qr_scan", "ios": "https://dc.lft.to/lastmile_qr_scan"}, "fusion_lon": 0.0, "lat": 38.9088185, "bike_id": "20ddf54537e54f3313b51cf685c760b5", "type": "electric_scooter", "is_reserved": 0, "lon": -77.04413}, {"fusion_lat": 0.0, "name": "88b95390d428f49768ea3369e2f5ed3c", "is_disabled": 0, "rental_uris": {"android": "https://dc.lft.to/lastmile_qr_scan", "ios": "https://dc.lft.to/lastmile_qr_scan"}, "fusion_lon": 0.0, "lat": 38.908283833333336, "bike_id": "88b95390d428f49768ea3369e2f5ed3c", "type": "electric_scooter", "is_reserved": 0, "lon": -77.00232983333333}, {"fusion_lat": 0.0, "name": "4bd77b58502c4809214bdce9b65d860c", "is_disabled": 0, "rental_uris": {"android": "https://dc.lft.to/lastmile_qr_scan", "ios": "https://dc.lft.to/lastmile_qr_scan"}, "fusion_lon": 0.0, "lat": 38.90033233333333, "bike_id": "4bd77b58502c4809214bdce9b65d860c", "type": "electric_scooter", "is_reserved": 0, "lon": -76.99265283333334}, {"fusion_lat": 0.0, "name": "9994aad576209cd53c87d4ee82cfb684", "is_disabled": 0, "rental_uris": {"android": "https://dc.lft.to/lastmile_qr_scan", "ios": "https://dc.lft.to/lastmile_qr_scan"}, "fusion_lon": 0.0, "lat": 38.94180433333333, "bike_id": "9994aad576209cd53c87d4ee82cfb684", "type": "electric_scooter", "is_reserved": 0, "lon": -77.0249565}, {"fusion_lat": 0.0, "name": "20411b1167ec96ef4fa37cc41f4a3fa0", "is_disabled": 0, "rental_uris": {"android": "https://dc.lft.to/lastmile_qr_scan", "ios": "https://dc.lft.to/lastmile_qr_scan"}, "fusion_lon": 0.0, "lat": 38.914403166666666, "bike_id": "20411b1167ec96ef4fa37cc41f4a3fa0", "type": "electric_scooter", "is_reserved": 0, "lon": -77.02286033333333}, {"fusion_lat": 0.0, "name": "f2b11a9502eea02a221074cffd3650f3", "is_disabled": 0, "rental_uris": {"android": "https://dc.lft.to/lastmile_qr_scan", "ios": "https://dc.lft.to/lastmile_qr_scan"}, "fusion_lon": 0.0, "lat": 38.92050833333333, "bike_id": "f2b11a9502eea02a221074cffd3650f3", "type": "electric_scooter", "is_reserved": 0, "lon": -77.024359}, {"fusion_lat": 0.0, "name": "1e74a900287a46647a2eb17b619e0085", "is_disabled": 0, "rental_uris": {"android": "https://dc.lft.to/lastmile_qr_scan", "ios": "https://dc.lft.to/lastmile_qr_scan"}, "fusion_lon": 0.0, "lat": 38.930767333333336, "bike_id": "1e74a900287a46647a2eb17b619e0085", "type": "electric_scooter", "is_reserved": 0, "lon": -77.02005983333333}, {"fusion_lat": 0.0, "name": "536f9fbef486158c37d651fd0f7f3b82", "is_disabled": 0, "rental_uris": {"android": "https://dc.lft.to/lastmile_qr_scan", "ios": "https://dc.lft.to/lastmile_qr_scan"}, "fusion_lon": 0.0, "lat": 38.99384933333333, "bike_id": "536f9fbef486158c37d651fd0f7f3b82", "type": "electric_bike", "is_reserved": 0, "lon": -76.92887083333333}, {"fusion_lat": 0.0, "name": "1ede9de96515fba257c4c33779ed08b4", "is_disabled": 0, "rental_uris": {"android": "https://dc.lft.to/lastmile_qr_scan", "ios": "https://dc.lft.to/lastmile_qr_scan"}, "fusion_lon": 0.0, "lat": 38.9175665, "bike_id": "1ede9de96515fba257c4c33779ed08b4", "type": "electric_scooter", "is_reserved": 0, "lon": -77.016111}, {"fusion_lat": 0.0, "name": "1122fb76a4660ac685331874ce9459db", "is_disabled": 0, "rental_uris": {"android": "https://dc.lft.to/lastmile_qr_scan", "ios": "https://dc.lft.to/lastmile_qr_scan"}, "fusion_lon": 0.0, "lat": 38.91676533333333, "bike_id": "1122fb76a4660ac685331874ce9459db", "type": "electric_scooter", "is_reserved": 0, "lon": -77.02717633333333}, {"fusion_lat": 0.0, "name": "aee46bd5e3de62b7fa4ba8d900ace726", "is_disabled": 0, "rental_uris": {"android": "https://dc.lft.to/lastmile_qr_scan", "ios": "https://dc.lft.to/lastmile_qr_scan"}, "fusion_lon": 0.0, "lat": 38.90123766666667, "bike_id": "aee46bd5e3de62b7fa4ba8d900ace726", "type": "electric_scooter", "is_reserved": 0, "lon": -77.04491716666666}, {"fusion_lat": 0.0, "name": "db18d949a871bf2123f0209f78afe8c7", "is_disabled": 0, "rental_uris": {"android": "https://dc.lft.to/lastmile_qr_scan", "ios": "https://dc.lft.to/lastmile_qr_scan"}, "fusion_lon": 0.0, "lat": 38.920427833333335, "bike_id": "db18d949a871bf2123f0209f78afe8c7", "type": "electric_scooter", "is_reserved": 0, "lon": -77.03415383333333}, {"fusion_lat": 0.0, "name": "0abb7293c403d86346d76e1f8711776b", "is_disabled": 0, "rental_uris": {"android": "https://dc.lft.to/lastmile_qr_scan", "ios": "https://dc.lft.to/lastmile_qr_scan"}, "fusion_lon": 0.0, "lat": 38.900240833333335, "bike_id": "0abb7293c403d86346d76e1f8711776b", "type": "electric_scooter", "is_reserved": 0, "lon": -76.99624066666667}, {"fusion_lat": 0.0, "name": "2493d16b780ae60de497e89908023674", "is_disabled": 0, "rental_uris": {"android": "https://dc.lft.to/lastmile_qr_scan", "ios": "https://dc.lft.to/lastmile_qr_scan"}, "fusion_lon": 0.0, "lat": 38.87700066666667, "bike_id": "2493d16b780ae60de497e89908023674", "type": "electric_scooter", "is_reserved": 0, "lon": -77.01848566666666}, {"fusion_lat": 0.0, "name": "da6d8e333703d8d6adc780d2733b0788", "is_disabled": 0, "rental_uris": {"android": "https://dc.lft.to/lastmile_qr_scan", "ios": "https://dc.lft.to/lastmile_qr_scan"}, "fusion_lon": 0.0, "lat": 38.8956045, "bike_id": "da6d8e333703d8d6adc780d2733b0788", "type": "electric_scooter", "is_reserved": 0, "lon": -77.02161933333333}, {"fusion_lat": 0.0, "name": "66f28aa320d6278cd7d2e7e5999559c8", "is_disabled": 0, "rental_uris": {"android": "https://dc.lft.to/lastmile_qr_scan", "ios": "https://dc.lft.to/lastmile_qr_scan"}, "fusion_lon": 0.0, "lat": 38.91646816666667, "bike_id": "66f28aa320d6278cd7d2e7e5999559c8", "type": "electric_scooter", "is_reserved": 0, "lon": -77.047782}, {"fusion_lat": 0.0, "name": "49e3400a1c9edd2e377e0bda903659a8", "is_disabled": 0, "rental_uris": {"android": "https://dc.lft.to/lastmile_qr_scan", "ios": "https://dc.lft.to/lastmile_qr_scan"}, "fusion_lon": 0.0, "lat": 38.94510483333333, "bike_id": "49e3400a1c9edd2e377e0bda903659a8", "type": "electric_bike", "is_reserved": 0, "lon": -77.00675}, {"fusion_lat": 0.0, "name": "35e76c03ddf5e2de5146f948c0e7877a", "is_disabled": 0, "rental_uris": {"android": "https://dc.lft.to/lastmile_qr_scan", "ios": "https://dc.lft.to/lastmile_qr_scan"}, "fusion_lon": 0.0, "lat": 38.952715, "bike_id": "35e76c03ddf5e2de5146f948c0e7877a", "type": "electric_scooter", "is_reserved": 0, "lon": -77.0688175}, {"fusion_lat": 0.0, "name": "362258ba2d39c5adae404dbefc2b60d7", "is_disabled": 0, "rental_uris": {"android": "https://dc.lft.to/lastmile_qr_scan", "ios": "https://dc.lft.to/lastmile_qr_scan"}, "fusion_lon": 0.0, "lat": 38.91605766666667, "bike_id": "362258ba2d39c5adae404dbefc2b60d7", "type": "electric_scooter", "is_reserved": 0, "lon": -77.02302183333333}, {"fusion_lat": 0.0, "name": "57eadce1722d342315e0ca9278e2b968", "is_disabled": 0, "rental_uris": {"android": "https://dc.lft.to/lastmile_qr_scan", "ios": "https://dc.lft.to/lastmile_qr_scan"}, "fusion_lon": 0.0, "lat": 38.898093333333335, "bike_id": "57eadce1722d342315e0ca9278e2b968", "type": "electric_scooter", "is_reserved": 0, "lon": -77.03366833333334}, {"fusion_lat": 0.0, "name": "9c839f4476e65d6292ea75dc25e05fca", "is_disabled": 0, "rental_uris": {"android": "https://dc.lft.to/lastmile_qr_scan", "ios": "https://dc.lft.to/lastmile_qr_scan"}, "fusion_lon": 0.0, "lat": 38.906883666666666, "bike_id": "9c839f4476e65d6292ea75dc25e05fca", "type": "electric_scooter", "is_reserved": 0, "lon": -77.03595966666667}, {"fusion_lat": 0.0, "name": "b91346f39bbb154a058a2fa61b15c56e", "is_disabled": 0, "rental_uris": {"android": "https://dc.lft.to/lastmile_qr_scan", "ios": "https://dc.lft.to/lastmile_qr_scan"}, "fusion_lon": 0.0, "lat": 38.90601316666667, "bike_id": "b91346f39bbb154a058a2fa61b15c56e", "type": "electric_scooter", "is_reserved": 0, "lon": -77.06279516666666}, {"fusion_lat": 0.0, "name": "c2476ff13263cbe2522514e4752d6427", "is_disabled": 0, "rental_uris": {"android": "https://dc.lft.to/lastmile_qr_scan", "ios": "https://dc.lft.to/lastmile_qr_scan"}, "fusion_lon": 0.0, "lat": 38.88503933333333, "bike_id": "c2476ff13263cbe2522514e4752d6427", "type": "electric_scooter", "is_reserved": 0, "lon": -77.01487016666667}, {"fusion_lat": 0.0, "name": "1f331da41d6aa85601f83c57d7d0391d", "is_disabled": 0, "rental_uris": {"android": "https://dc.lft.to/lastmile_qr_scan", "ios": "https://dc.lft.to/lastmile_qr_scan"}, "fusion_lon": 0.0, "lat": 38.9508765, "bike_id": "1f331da41d6aa85601f83c57d7d0391d", "type": "electric_scooter", "is_reserved": 0, "lon": -77.02715583333334}, {"fusion_lat": 0.0, "name": "ebeb3048c5f309e8ffdf1ef6bb784e07", "is_disabled": 0, "rental_uris": {"android": "https://dc.lft.to/lastmile_qr_scan", "ios": "https://dc.lft.to/lastmile_qr_scan"}, "fusion_lon": 0.0, "lat": 38.921596666666666, "bike_id": "ebeb3048c5f309e8ffdf1ef6bb784e07", "type": "electric_scooter", "is_reserved": 0, "lon": -77.03842633333333}, {"fusion_lat": 0.0, "name": "97309c8ed5652cfe27bbfc306402b35c", "is_disabled": 0, "rental_uris": {"android": "https://dc.lft.to/lastmile_qr_scan", "ios": "https://dc.lft.to/lastmile_qr_scan"}, "fusion_lon": 0.0, "lat": 38.90018216666667, "bike_id": "97309c8ed5652cfe27bbfc306402b35c", "type": "electric_scooter", "is_reserved": 0, "lon": -77.01630883333333}, {"fusion_lat": 0.0, "name": "d22a55fe8c4c4628bd1d83cd0aecdfed", "is_disabled": 0, "rental_uris": {"android": "https://dc.lft.to/lastmile_qr_scan", "ios": "https://dc.lft.to/lastmile_qr_scan"}, "fusion_lon": 0.0, "lat": 38.92890233333333, "bike_id": "d22a55fe8c4c4628bd1d83cd0aecdfed", "type": "electric_scooter", "is_reserved": 0, "lon": -77.03278083333333}, {"fusion_lat": 0.0, "name": "edac78f0b20f4ba89b64d0ae0381c848", "is_disabled": 0, "rental_uris": {"android": "https://dc.lft.to/lastmile_qr_scan", "ios": "https://dc.lft.to/lastmile_qr_scan"}, "fusion_lon": 0.0, "lat": 38.9237235, "bike_id": "edac78f0b20f4ba89b64d0ae0381c848", "type": "electric_scooter", "is_reserved": 0, "lon": -77.0515595}, {"fusion_lat": 0.0, "name": "9f8135dbe5e2424a026b2f8096b9372d", "is_disabled": 0, "rental_uris": {"android": "https://dc.lft.to/lastmile_qr_scan", "ios": "https://dc.lft.to/lastmile_qr_scan"}, "fusion_lon": 0.0, "lat": 38.919288, "bike_id": "9f8135dbe5e2424a026b2f8096b9372d", "type": "electric_scooter", "is_reserved": 0, "lon": -77.048996}, {"fusion_lat": 0.0, "name": "fd821c94ddf271ef7e5487be092666b5", "is_disabled": 0, "rental_uris": {"android": "https://dc.lft.to/lastmile_qr_scan", "ios": "https://dc.lft.to/lastmile_qr_scan"}, "fusion_lon": 0.0, "lat": 38.955481666666664, "bike_id": "fd821c94ddf271ef7e5487be092666b5", "type": "electric_bike", "is_reserved": 0, "lon": -77.069363}, {"fusion_lat": 0.0, "name": "e651f56730df817848ba0b9fdc485ed6", "is_disabled": 0, "rental_uris": {"android": "https://dc.lft.to/lastmile_qr_scan", "ios": "https://dc.lft.to/lastmile_qr_scan"}, "fusion_lon": 0.0, "lat": 38.91567666666667, "bike_id": "e651f56730df817848ba0b9fdc485ed6", "type": "electric_scooter", "is_reserved": 0, "lon": -77.03202}, {"fusion_lat": 0.0, "name": "e3bb286f655d19a5b3331bb4c031e078", "is_disabled": 0, "rental_uris": {"android": "https://dc.lft.to/lastmile_qr_scan", "ios": "https://dc.lft.to/lastmile_qr_scan"}, "fusion_lon": 0.0, "lat": 38.906813, "bike_id": "e3bb286f655d19a5b3331bb4c031e078", "type": "electric_scooter", "is_reserved": 0, "lon": -77.02699683333333}, {"fusion_lat": 0.0, "name": "6375466c92f6e474dcb4a4ecc8e2d87d", "is_disabled": 0, "rental_uris": {"android": "https://dc.lft.to/lastmile_qr_scan", "ios": "https://dc.lft.to/lastmile_qr_scan"}, "fusion_lon": 0.0, "lat": 38.90359183333333, "bike_id": "6375466c92f6e474dcb4a4ecc8e2d87d", "type": "electric_scooter", "is_reserved": 0, "lon": -77.007273}, {"fusion_lat": 0.0, "name": "29712475a97b8b4de0776741fe03de62", "is_disabled": 0, "rental_uris": {"android": "https://dc.lft.to/lastmile_qr_scan", "ios": "https://dc.lft.to/lastmile_qr_scan"}, "fusion_lon": 0.0, "lat": 38.92872716666667, "bike_id": "29712475a97b8b4de0776741fe03de62", "type": "electric_scooter", "is_reserved": 0, "lon": -77.01368316666667}, {"fusion_lat": 0.0, "name": "689108ef27a19857c01bcb5d3d00a3b9", "is_disabled": 0, "rental_uris": {"android": "https://dc.lft.to/lastmile_qr_scan", "ios": "https://dc.lft.to/lastmile_qr_scan"}, "fusion_lon": 0.0, "lat": 38.91156983333333, "bike_id": "689108ef27a19857c01bcb5d3d00a3b9", "type": "electric_scooter", "is_reserved": 0, "lon": -77.0111445}, {"fusion_lat": 0.0, "name": "8ab172bfd536207bfd1d9467ff1222e3", "is_disabled": 0, "rental_uris": {"android": "https://dc.lft.to/lastmile_qr_scan", "ios": "https://dc.lft.to/lastmile_qr_scan"}, "fusion_lon": 0.0, "lat": 38.910082833333334, "bike_id": "8ab172bfd536207bfd1d9467ff1222e3", "type": "electric_scooter", "is_reserved": 0, "lon": -77.03851933333333}, {"fusion_lat": 0.0, "name": "60e83fba162476491ee37e597605020a", "is_disabled": 0, "rental_uris": {"android": "https://dc.lft.to/lastmile_qr_scan", "ios": "https://dc.lft.to/lastmile_qr_scan"}, "fusion_lon": 0.0, "lat": 38.8784195, "bike_id": "60e83fba162476491ee37e597605020a", "type": "electric_scooter", "is_reserved": 0, "lon": -77.0010835}, {"fusion_lat": 0.0, "name": "bc6f8cfb40d425080a03ce4ed5a1255c", "is_disabled": 0, "rental_uris": {"android": "https://dc.lft.to/lastmile_qr_scan", "ios": "https://dc.lft.to/lastmile_qr_scan"}, "fusion_lon": 0.0, "lat": 38.927183166666666, "bike_id": "bc6f8cfb40d425080a03ce4ed5a1255c", "type": "electric_scooter", "is_reserved": 0, "lon": -77.02299966666666}, {"fusion_lat": 0.0, "name": "68582e6c4ff1876b7f3d97cb70351424", "is_disabled": 0, "rental_uris": {"android": "https://dc.lft.to/lastmile_qr_scan", "ios": "https://dc.lft.to/lastmile_qr_scan"}, "fusion_lon": 0.0, "lat": 38.87461, "bike_id": "68582e6c4ff1876b7f3d97cb70351424", "type": "electric_scooter", "is_reserved": 0, "lon": -77.00475583333333}, {"fusion_lat": 0.0, "name": "c172754fd8a4e6bcebb99f28f818f43c", "is_disabled": 0, "rental_uris": {"android": "https://dc.lft.to/lastmile_qr_scan", "ios": "https://dc.lft.to/lastmile_qr_scan"}, "fusion_lon": 0.0, "lat": 38.91130066666667, "bike_id": "c172754fd8a4e6bcebb99f28f818f43c", "type": "electric_scooter", "is_reserved": 0, "lon": -77.03206966666667}, {"fusion_lat": 0.0, "name": "ec8aaf96572f38da682995c414cbad19", "is_disabled": 0, "rental_uris": {"android": "https://dc.lft.to/lastmile_qr_scan", "ios": "https://dc.lft.to/lastmile_qr_scan"}, "fusion_lon": 0.0, "lat": 38.9208285, "bike_id": "ec8aaf96572f38da682995c414cbad19", "type": "electric_scooter", "is_reserved": 0, "lon": -77.02409716666666}, {"fusion_lat": 0.0, "name": "26eda89785ea7476ea74ff238dc13463", "is_disabled": 0, "rental_uris": {"android": "https://dc.lft.to/lastmile_qr_scan", "ios": "https://dc.lft.to/lastmile_qr_scan"}, "fusion_lon": 0.0, "lat": 38.906999166666665, "bike_id": "26eda89785ea7476ea74ff238dc13463", "type": "electric_scooter", "is_reserved": 0, "lon": -77.049687}, {"fusion_lat": 0.0, "name": "b9a6f023bff1511554d0ddcfeab6778a", "is_disabled": 0, "rental_uris": {"android": "https://dc.lft.to/lastmile_qr_scan", "ios": "https://dc.lft.to/lastmile_qr_scan"}, "fusion_lon": 0.0, "lat": 38.90723633333333, "bike_id": "b9a6f023bff1511554d0ddcfeab6778a", "type": "electric_scooter", "is_reserved": 0, "lon": -77.00509866666667}, {"fusion_lat": 0.0, "name": "e1883758bdafabfac28d77dcc83a83ff", "is_disabled": 0, "rental_uris": {"android": "https://dc.lft.to/lastmile_qr_scan", "ios": "https://dc.lft.to/lastmile_qr_scan"}, "fusion_lon": 0.0, "lat": 38.87106966666666, "bike_id": "e1883758bdafabfac28d77dcc83a83ff", "type": "electric_scooter", "is_reserved": 0, "lon": -76.96578816666667}, {"fusion_lat": 0.0, "name": "1119134bc22175dcaa20ef6eb713e95f", "is_disabled": 0, "rental_uris": {"android": "https://dc.lft.to/lastmile_qr_scan", "ios": "https://dc.lft.to/lastmile_qr_scan"}, "fusion_lon": 0.0, "lat": 38.921322, "bike_id": "1119134bc22175dcaa20ef6eb713e95f", "type": "electric_scooter", "is_reserved": 0, "lon": -77.02549516666667}, {"fusion_lat": 0.0, "name": "52d9369d729c8a41689e78f530f74ee2", "is_disabled": 0, "rental_uris": {"android": "https://dc.lft.to/lastmile_qr_scan", "ios": "https://dc.lft.to/lastmile_qr_scan"}, "fusion_lon": 0.0, "lat": 38.910171166666665, "bike_id": "52d9369d729c8a41689e78f530f74ee2", "type": "electric_scooter", "is_reserved": 0, "lon": -77.06917266666666}, {"fusion_lat": 0.0, "name": "d9324b4e9847d873b5021b3bd4eb19fe", "is_disabled": 0, "rental_uris": {"android": "https://dc.lft.to/lastmile_qr_scan", "ios": "https://dc.lft.to/lastmile_qr_scan"}, "fusion_lon": 0.0, "lat": 38.94106716666667, "bike_id": "d9324b4e9847d873b5021b3bd4eb19fe", "type": "electric_scooter", "is_reserved": 0, "lon": -77.00039366666667}, {"fusion_lat": 0.0, "name": "503fa5821c9601a691a66195c35c723f", "is_disabled": 0, "rental_uris": {"android": "https://dc.lft.to/lastmile_qr_scan", "ios": "https://dc.lft.to/lastmile_qr_scan"}, "fusion_lon": 0.0, "lat": 38.89379866666667, "bike_id": "503fa5821c9601a691a66195c35c723f", "type": "electric_scooter", "is_reserved": 0, "lon": -76.92311516666666}, {"fusion_lat": 0.0, "name": "ac88bcdb94c557bb3c9f253997a308cf", "is_disabled": 0, "rental_uris": {"android": "https://dc.lft.to/lastmile_qr_scan", "ios": "https://dc.lft.to/lastmile_qr_scan"}, "fusion_lon": 0.0, "lat": 38.912101, "bike_id": "ac88bcdb94c557bb3c9f253997a308cf", "type": "electric_scooter", "is_reserved": 0, "lon": -77.038636}, {"fusion_lat": 0.0, "name": "ed8c4b240aee2c29d9290927f8de1c2c", "is_disabled": 0, "rental_uris": {"android": "https://dc.lft.to/lastmile_qr_scan", "ios": "https://dc.lft.to/lastmile_qr_scan"}, "fusion_lon": 0.0, "lat": 38.91930166666667, "bike_id": "ed8c4b240aee2c29d9290927f8de1c2c", "type": "electric_scooter", "is_reserved": 0, "lon": -77.0490415}, {"fusion_lat": 0.0, "name": "7ab1b6fc648ce53f8818b930c14eb01f", "is_disabled": 0, "rental_uris": {"android": "https://dc.lft.to/lastmile_qr_scan", "ios": "https://dc.lft.to/lastmile_qr_scan"}, "fusion_lon": 0.0, "lat": 38.952706166666665, "bike_id": "7ab1b6fc648ce53f8818b930c14eb01f", "type": "electric_bike", "is_reserved": 0, "lon": -76.99882616666666}, {"fusion_lat": 0.0, "name": "491998e7e06d6e48ea16e116b428e1e7", "is_disabled": 0, "rental_uris": {"android": "https://dc.lft.to/lastmile_qr_scan", "ios": "https://dc.lft.to/lastmile_qr_scan"}, "fusion_lon": 0.0, "lat": 38.890899166666664, "bike_id": "491998e7e06d6e48ea16e116b428e1e7", "type": "electric_scooter", "is_reserved": 0, "lon": -77.00346916666666}, {"fusion_lat": 0.0, "name": "d312c9a85a0ad3b84299c5ecf2310fe2", "is_disabled": 0, "rental_uris": {"android": "https://dc.lft.to/lastmile_qr_scan", "ios": "https://dc.lft.to/lastmile_qr_scan"}, "fusion_lon": 0.0, "lat": 38.95511416666667, "bike_id": "d312c9a85a0ad3b84299c5ecf2310fe2", "type": "electric_scooter", "is_reserved": 0, "lon": -77.028487}, {"fusion_lat": 0.0, "name": "3fd43b20c1c89aa7d3cdfcbefc5bb471", "is_disabled": 0, "rental_uris": {"android": "https://dc.lft.to/lastmile_qr_scan", "ios": "https://dc.lft.to/lastmile_qr_scan"}, "fusion_lon": 0.0, "lat": 38.90770966666667, "bike_id": "3fd43b20c1c89aa7d3cdfcbefc5bb471", "type": "electric_scooter", "is_reserved": 0, "lon": -76.99738766666667}, {"fusion_lat": 0.0, "name": "62794a2626644bb3b273650df8d4d781", "is_disabled": 0, "rental_uris": {"android": "https://dc.lft.to/lastmile_qr_scan", "ios": "https://dc.lft.to/lastmile_qr_scan"}, "fusion_lon": 0.0, "lat": 38.937552833333335, "bike_id": "62794a2626644bb3b273650df8d4d781", "type": "electric_bike", "is_reserved": 0, "lon": -76.958289}, {"fusion_lat": 0.0, "name": "ccb0e9a7219b2c722aee93b29daf9bd2", "is_disabled": 0, "rental_uris": {"android": "https://dc.lft.to/lastmile_qr_scan", "ios": "https://dc.lft.to/lastmile_qr_scan"}, "fusion_lon": 0.0, "lat": 38.94893666666667, "bike_id": "ccb0e9a7219b2c722aee93b29daf9bd2", "type": "electric_bike", "is_reserved": 0, "lon": -76.9637435}, {"fusion_lat": 0.0, "name": "af5b274652930f8ed64ea8382a87ec8a", "is_disabled": 0, "rental_uris": {"android": "https://dc.lft.to/lastmile_qr_scan", "ios": "https://dc.lft.to/lastmile_qr_scan"}, "fusion_lon": 0.0, "lat": 38.884289333333335, "bike_id": "af5b274652930f8ed64ea8382a87ec8a", "type": "electric_scooter", "is_reserved": 0, "lon": -76.99613333333333}, {"fusion_lat": 0.0, "name": "7ac5256d6f4a4430e2c21f723b3c19da", "is_disabled": 0, "rental_uris": {"android": "https://dc.lft.to/lastmile_qr_scan", "ios": "https://dc.lft.to/lastmile_qr_scan"}, "fusion_lon": 0.0, "lat": 38.92509183333333, "bike_id": "7ac5256d6f4a4430e2c21f723b3c19da", "type": "electric_scooter", "is_reserved": 0, "lon": -77.05237}, {"fusion_lat": 0.0, "name": "867c0eeea150858436c799ed896e8106", "is_disabled": 0, "rental_uris": {"android": "https://dc.lft.to/lastmile_qr_scan", "ios": "https://dc.lft.to/lastmile_qr_scan"}, "fusion_lon": 0.0, "lat": 38.90396716666667, "bike_id": "867c0eeea150858436c799ed896e8106", "type": "electric_scooter", "is_reserved": 0, "lon": -77.0020615}, {"fusion_lat": 0.0, "name": "edbda5e49193f1460744e442c5264fcf", "is_disabled": 0, "rental_uris": {"android": "https://dc.lft.to/lastmile_qr_scan", "ios": "https://dc.lft.to/lastmile_qr_scan"}, "fusion_lon": 0.0, "lat": 38.9074065, "bike_id": "edbda5e49193f1460744e442c5264fcf", "type": "electric_scooter", "is_reserved": 0, "lon": -77.00758233333333}, {"fusion_lat": 0.0, "name": "93cf3e02afcd1c5260ab805cc2f5b924", "is_disabled": 0, "rental_uris": {"android": "https://dc.lft.to/lastmile_qr_scan", "ios": "https://dc.lft.to/lastmile_qr_scan"}, "fusion_lon": 0.0, "lat": 38.9111695, "bike_id": "93cf3e02afcd1c5260ab805cc2f5b924", "type": "electric_scooter", "is_reserved": 0, "lon": -77.00404216666666}, {"fusion_lat": 0.0, "name": "987167b92c871dcd3eade55e8faaac9a", "is_disabled": 0, "rental_uris": {"android": "https://dc.lft.to/lastmile_qr_scan", "ios": "https://dc.lft.to/lastmile_qr_scan"}, "fusion_lon": 0.0, "lat": 38.89730733333333, "bike_id": "987167b92c871dcd3eade55e8faaac9a", "type": "electric_scooter", "is_reserved": 0, "lon": -76.9913855}, {"fusion_lat": 0.0, "name": "628376299ba2abcc1ece3cd0b56fea3a", "is_disabled": 0, "rental_uris": {"android": "https://dc.lft.to/lastmile_qr_scan", "ios": "https://dc.lft.to/lastmile_qr_scan"}, "fusion_lon": 0.0, "lat": 38.9028615, "bike_id": "628376299ba2abcc1ece3cd0b56fea3a", "type": "electric_scooter", "is_reserved": 0, "lon": -77.04262983333334}, {"fusion_lat": 0.0, "name": "a300be65b05d55585259e6bb0c931e6e", "is_disabled": 0, "rental_uris": {"android": "https://dc.lft.to/lastmile_qr_scan", "ios": "https://dc.lft.to/lastmile_qr_scan"}, "fusion_lon": 0.0, "lat": 38.949474333333335, "bike_id": "a300be65b05d55585259e6bb0c931e6e", "type": "electric_scooter", "is_reserved": 0, "lon": -77.066464}, {"fusion_lat": 0.0, "name": "03ba7b5d75dbec133aa8aa397c0052b8", "is_disabled": 0, "rental_uris": {"android": "https://dc.lft.to/lastmile_qr_scan", "ios": "https://dc.lft.to/lastmile_qr_scan"}, "fusion_lon": 0.0, "lat": 38.9207515, "bike_id": "03ba7b5d75dbec133aa8aa397c0052b8", "type": "electric_scooter", "is_reserved": 0, "lon": -77.023998}, {"fusion_lat": 0.0, "name": "85b2bd6e6a5324486a91aee66c2c3ce2", "is_disabled": 0, "rental_uris": {"android": "https://dc.lft.to/lastmile_qr_scan", "ios": "https://dc.lft.to/lastmile_qr_scan"}, "fusion_lon": 0.0, "lat": 38.9357825, "bike_id": "85b2bd6e6a5324486a91aee66c2c3ce2", "type": "electric_scooter", "is_reserved": 0, "lon": -77.021335}, {"fusion_lat": 0.0, "name": "bf9bf61f1261f6beb29d217e7518374b", "is_disabled": 0, "rental_uris": {"android": "https://dc.lft.to/lastmile_qr_scan", "ios": "https://dc.lft.to/lastmile_qr_scan"}, "fusion_lon": 0.0, "lat": 38.9077595, "bike_id": "bf9bf61f1261f6beb29d217e7518374b", "type": "electric_scooter", "is_reserved": 0, "lon": -77.07250516666667}, {"fusion_lat": 0.0, "name": "b30beb8705e32db02067c0f6a3527359", "is_disabled": 0, "rental_uris": {"android": "https://dc.lft.to/lastmile_qr_scan", "ios": "https://dc.lft.to/lastmile_qr_scan"}, "fusion_lon": 0.0, "lat": 38.874825333333334, "bike_id": "b30beb8705e32db02067c0f6a3527359", "type": "electric_scooter", "is_reserved": 0, "lon": -77.0059775}, {"fusion_lat": 0.0, "name": "ac1d3d8c3e4d6d08a2ab6bee439a1f2c", "is_disabled": 0, "rental_uris": {"android": "https://dc.lft.to/lastmile_qr_scan", "ios": "https://dc.lft.to/lastmile_qr_scan"}, "fusion_lon": 0.0, "lat": 38.92457533333334, "bike_id": "ac1d3d8c3e4d6d08a2ab6bee439a1f2c", "type": "electric_scooter", "is_reserved": 0, "lon": -77.03973933333333}, {"fusion_lat": 0.0, "name": "0b3f56ddd1d7791842ecae9ddf44e485", "is_disabled": 0, "rental_uris": {"android": "https://dc.lft.to/lastmile_qr_scan", "ios": "https://dc.lft.to/lastmile_qr_scan"}, "fusion_lon": 0.0, "lat": 38.921001333333336, "bike_id": "0b3f56ddd1d7791842ecae9ddf44e485", "type": "electric_scooter", "is_reserved": 0, "lon": -77.02516733333333}, {"fusion_lat": 0.0, "name": "8a573b09d29682a990f9d4799566bca8", "is_disabled": 0, "rental_uris": {"android": "https://dc.lft.to/lastmile_qr_scan", "ios": "https://dc.lft.to/lastmile_qr_scan"}, "fusion_lon": 0.0, "lat": 38.895782, "bike_id": "8a573b09d29682a990f9d4799566bca8", "type": "electric_scooter", "is_reserved": 0, "lon": -76.98326033333333}, {"fusion_lat": 0.0, "name": "06da3cf0fbd6ee01f79fcc2966deb98d", "is_disabled": 0, "rental_uris": {"android": "https://dc.lft.to/lastmile_qr_scan", "ios": "https://dc.lft.to/lastmile_qr_scan"}, "fusion_lon": 0.0, "lat": 38.9233505, "bike_id": "06da3cf0fbd6ee01f79fcc2966deb98d", "type": "electric_scooter", "is_reserved": 0, "lon": -77.0529925}, {"fusion_lat": 0.0, "name": "fb14c75cebcd59635c776e3bd3d430b8", "is_disabled": 0, "rental_uris": {"android": "https://dc.lft.to/lastmile_qr_scan", "ios": "https://dc.lft.to/lastmile_qr_scan"}, "fusion_lon": 0.0, "lat": 38.9287875, "bike_id": "fb14c75cebcd59635c776e3bd3d430b8", "type": "electric_scooter", "is_reserved": 0, "lon": -77.0325245}, {"fusion_lat": 0.0, "name": "ff85851accce686b62825e36f23bbad2", "is_disabled": 0, "rental_uris": {"android": "https://dc.lft.to/lastmile_qr_scan", "ios": "https://dc.lft.to/lastmile_qr_scan"}, "fusion_lon": 0.0, "lat": 38.87930883333333, "bike_id": "ff85851accce686b62825e36f23bbad2", "type": "electric_scooter", "is_reserved": 0, "lon": -77.02379266666667}, {"fusion_lat": 0.0, "name": "34e95044491244bca80798db271f0b04", "is_disabled": 0, "rental_uris": {"android": "https://dc.lft.to/lastmile_qr_scan", "ios": "https://dc.lft.to/lastmile_qr_scan"}, "fusion_lon": 0.0, "lat": 38.9021805, "bike_id": "34e95044491244bca80798db271f0b04", "type": "electric_scooter", "is_reserved": 0, "lon": -77.0205395}, {"fusion_lat": 0.0, "name": "76a8029c584ce2172926abcbdd0889e0", "is_disabled": 0, "rental_uris": {"android": "https://dc.lft.to/lastmile_qr_scan", "ios": "https://dc.lft.to/lastmile_qr_scan"}, "fusion_lon": 0.0, "lat": 38.902992166666664, "bike_id": "76a8029c584ce2172926abcbdd0889e0", "type": "electric_scooter", "is_reserved": 0, "lon": -77.04958366666666}, {"fusion_lat": 0.0, "name": "ee453ff2d083dcaddffd4f7b25efe63c", "is_disabled": 0, "rental_uris": {"android": "https://dc.lft.to/lastmile_qr_scan", "ios": "https://dc.lft.to/lastmile_qr_scan"}, "fusion_lon": 0.0, "lat": 38.8587105, "bike_id": "ee453ff2d083dcaddffd4f7b25efe63c", "type": "electric_bike", "is_reserved": 0, "lon": -77.09558666666666}, {"fusion_lat": 0.0, "name": "b4b69b015f94d545c108169b94c9397a", "is_disabled": 0, "rental_uris": {"android": "https://dc.lft.to/lastmile_qr_scan", "ios": "https://dc.lft.to/lastmile_qr_scan"}, "fusion_lon": 0.0, "lat": 38.90572, "bike_id": "b4b69b015f94d545c108169b94c9397a", "type": "electric_scooter", "is_reserved": 0, "lon": -77.0408025}, {"fusion_lat": 0.0, "name": "d9931e2760b86bd90290ab9388225c94", "is_disabled": 0, "rental_uris": {"android": "https://dc.lft.to/lastmile_qr_scan", "ios": "https://dc.lft.to/lastmile_qr_scan"}, "fusion_lon": 0.0, "lat": 38.93180383333333, "bike_id": "d9931e2760b86bd90290ab9388225c94", "type": "electric_scooter", "is_reserved": 0, "lon": -77.0370525}, {"fusion_lat": 0.0, "name": "572cb06d240504881a9a22a02238ccf3", "is_disabled": 0, "rental_uris": {"android": "https://dc.lft.to/lastmile_qr_scan", "ios": "https://dc.lft.to/lastmile_qr_scan"}, "fusion_lon": 0.0, "lat": 38.934471, "bike_id": "572cb06d240504881a9a22a02238ccf3", "type": "electric_scooter", "is_reserved": 0, "lon": -77.038744}, {"fusion_lat": 0.0, "name": "62781f6f5a68ed601d00c2ed3cc1b6ac", "is_disabled": 0, "rental_uris": {"android": "https://dc.lft.to/lastmile_qr_scan", "ios": "https://dc.lft.to/lastmile_qr_scan"}, "fusion_lon": 0.0, "lat": 38.928146, "bike_id": "62781f6f5a68ed601d00c2ed3cc1b6ac", "type": "electric_scooter", "is_reserved": 0, "lon": -77.02333233333333}, {"fusion_lat": 0.0, "name": "f0a005eac45492b7e78ab356d4729884", "is_disabled": 0, "rental_uris": {"android": "https://dc.lft.to/lastmile_qr_scan", "ios": "https://dc.lft.to/lastmile_qr_scan"}, "fusion_lon": 0.0, "lat": 38.89267616666667, "bike_id": "f0a005eac45492b7e78ab356d4729884", "type": "electric_scooter", "is_reserved": 0, "lon": -77.031767}, {"fusion_lat": 0.0, "name": "6b68312e53e29259a528385ae8570236", "is_disabled": 0, "rental_uris": {"android": "https://dc.lft.to/lastmile_qr_scan", "ios": "https://dc.lft.to/lastmile_qr_scan"}, "fusion_lon": 0.0, "lat": 38.898005, "bike_id": "6b68312e53e29259a528385ae8570236", "type": "electric_scooter", "is_reserved": 0, "lon": -76.98459683333333}, {"fusion_lat": 0.0, "name": "ca5c117573aed0104f56c2fee664e058", "is_disabled": 0, "rental_uris": {"android": "https://dc.lft.to/lastmile_qr_scan", "ios": "https://dc.lft.to/lastmile_qr_scan"}, "fusion_lon": 0.0, "lat": 38.91659216666667, "bike_id": "ca5c117573aed0104f56c2fee664e058", "type": "electric_scooter", "is_reserved": 0, "lon": -77.03862116666667}, {"fusion_lat": 0.0, "name": "9df8132f21894802c722bf922b787c47", "is_disabled": 0, "rental_uris": {"android": "https://dc.lft.to/lastmile_qr_scan", "ios": "https://dc.lft.to/lastmile_qr_scan"}, "fusion_lon": 0.0, "lat": 38.89231266666667, "bike_id": "9df8132f21894802c722bf922b787c47", "type": "electric_scooter", "is_reserved": 0, "lon": -77.0239235}, {"fusion_lat": 0.0, "name": "39801fbb8df4932da38d1b349883f37e", "is_disabled": 0, "rental_uris": {"android": "https://dc.lft.to/lastmile_qr_scan", "ios": "https://dc.lft.to/lastmile_qr_scan"}, "fusion_lon": 0.0, "lat": 38.92806983333333, "bike_id": "39801fbb8df4932da38d1b349883f37e", "type": "electric_scooter", "is_reserved": 0, "lon": -77.0434125}, {"fusion_lat": 0.0, "name": "bb6aa6a629d17da2d01b67590a054596", "is_disabled": 0, "rental_uris": {"android": "https://dc.lft.to/lastmile_qr_scan", "ios": "https://dc.lft.to/lastmile_qr_scan"}, "fusion_lon": 0.0, "lat": 38.87162566666667, "bike_id": "bb6aa6a629d17da2d01b67590a054596", "type": "electric_scooter", "is_reserved": 0, "lon": -77.00578583333333}, {"fusion_lat": 0.0, "name": "3409588c7ee63c5d9ca901a4caf2ddf6", "is_disabled": 0, "rental_uris": {"android": "https://dc.lft.to/lastmile_qr_scan", "ios": "https://dc.lft.to/lastmile_qr_scan"}, "fusion_lon": 0.0, "lat": 38.905294166666664, "bike_id": "3409588c7ee63c5d9ca901a4caf2ddf6", "type": "electric_scooter", "is_reserved": 0, "lon": -77.06134}, {"fusion_lat": 0.0, "name": "19c481e87b16edea3ee70ccd5c441bff", "is_disabled": 0, "rental_uris": {"android": "https://dc.lft.to/lastmile_qr_scan", "ios": "https://dc.lft.to/lastmile_qr_scan"}, "fusion_lon": 0.0, "lat": 38.908163333333334, "bike_id": "19c481e87b16edea3ee70ccd5c441bff", "type": "electric_scooter", "is_reserved": 0, "lon": -77.036667}, {"fusion_lat": 0.0, "name": "5e696eb51fe25883ddc6d266903c7196", "is_disabled": 0, "rental_uris": {"android": "https://dc.lft.to/lastmile_qr_scan", "ios": "https://dc.lft.to/lastmile_qr_scan"}, "fusion_lon": 0.0, "lat": 38.916918833333334, "bike_id": "5e696eb51fe25883ddc6d266903c7196", "type": "electric_scooter", "is_reserved": 0, "lon": -77.02437883333333}, {"fusion_lat": 0.0, "name": "51d7db97ee1c014ef1ec93cf3e05d4e8", "is_disabled": 0, "rental_uris": {"android": "https://dc.lft.to/lastmile_qr_scan", "ios": "https://dc.lft.to/lastmile_qr_scan"}, "fusion_lon": 0.0, "lat": 38.93366433333333, "bike_id": "51d7db97ee1c014ef1ec93cf3e05d4e8", "type": "electric_scooter", "is_reserved": 0, "lon": -77.05733466666666}, {"fusion_lat": 0.0, "name": "09974518a97c5c39f84a6b8927beb963", "is_disabled": 0, "rental_uris": {"android": "https://dc.lft.to/lastmile_qr_scan", "ios": "https://dc.lft.to/lastmile_qr_scan"}, "fusion_lon": 0.0, "lat": 38.905066166666664, "bike_id": "09974518a97c5c39f84a6b8927beb963", "type": "electric_scooter", "is_reserved": 0, "lon": -77.00600683333333}, {"fusion_lat": 0.0, "name": "ff22e87bf8a4f46a8a05199ab682c062", "is_disabled": 0, "rental_uris": {"android": "https://dc.lft.to/lastmile_qr_scan", "ios": "https://dc.lft.to/lastmile_qr_scan"}, "fusion_lon": 0.0, "lat": 38.91839866666667, "bike_id": "ff22e87bf8a4f46a8a05199ab682c062", "type": "electric_scooter", "is_reserved": 0, "lon": -77.0161435}, {"fusion_lat": 0.0, "name": "f8c897a704e7c812f368aaebcbe02c10", "is_disabled": 0, "rental_uris": {"android": "https://dc.lft.to/lastmile_qr_scan", "ios": "https://dc.lft.to/lastmile_qr_scan"}, "fusion_lon": 0.0, "lat": 38.91987833333334, "bike_id": "f8c897a704e7c812f368aaebcbe02c10", "type": "electric_scooter", "is_reserved": 0, "lon": -77.02200983333333}, {"fusion_lat": 0.0, "name": "e2c3c6aedbf26a6b11e16ab456d85ac5", "is_disabled": 0, "rental_uris": {"android": "https://dc.lft.to/lastmile_qr_scan", "ios": "https://dc.lft.to/lastmile_qr_scan"}, "fusion_lon": 0.0, "lat": 38.920176166666664, "bike_id": "e2c3c6aedbf26a6b11e16ab456d85ac5", "type": "electric_scooter", "is_reserved": 0, "lon": -77.0819875}, {"fusion_lat": 0.0, "name": "fa2c01b1ea3739dcaa6e36cd0ff83547", "is_disabled": 0, "rental_uris": {"android": "https://dc.lft.to/lastmile_qr_scan", "ios": "https://dc.lft.to/lastmile_qr_scan"}, "fusion_lon": 0.0, "lat": 38.84880866666666, "bike_id": "fa2c01b1ea3739dcaa6e36cd0ff83547", "type": "electric_bike", "is_reserved": 0, "lon": -77.08012083333334}, {"fusion_lat": 0.0, "name": "2c339e2e1948c08d407925fe86e34edf", "is_disabled": 0, "rental_uris": {"android": "https://dc.lft.to/lastmile_qr_scan", "ios": "https://dc.lft.to/lastmile_qr_scan"}, "fusion_lon": 0.0, "lat": 38.930971666666665, "bike_id": "2c339e2e1948c08d407925fe86e34edf", "type": "electric_scooter", "is_reserved": 0, "lon": -77.0381745}, {"fusion_lat": 0.0, "name": "42ac3e374ba48786e022530eff6f6c26", "is_disabled": 0, "rental_uris": {"android": "https://dc.lft.to/lastmile_qr_scan", "ios": "https://dc.lft.to/lastmile_qr_scan"}, "fusion_lon": 0.0, "lat": 38.91817983333333, "bike_id": "42ac3e374ba48786e022530eff6f6c26", "type": "electric_scooter", "is_reserved": 0, "lon": -77.02690033333333}, {"fusion_lat": 0.0, "name": "bf8a40cea768acc4e8746d4f33eb5906", "is_disabled": 0, "rental_uris": {"android": "https://dc.lft.to/lastmile_qr_scan", "ios": "https://dc.lft.to/lastmile_qr_scan"}, "fusion_lon": 0.0, "lat": 38.96440333333334, "bike_id": "bf8a40cea768acc4e8746d4f33eb5906", "type": "electric_bike", "is_reserved": 0, "lon": -77.0207625}, {"fusion_lat": 0.0, "name": "5da01e16112a09721eb035f52da6b527", "is_disabled": 0, "rental_uris": {"android": "https://dc.lft.to/lastmile_qr_scan", "ios": "https://dc.lft.to/lastmile_qr_scan"}, "fusion_lon": 0.0, "lat": 38.920770833333336, "bike_id": "5da01e16112a09721eb035f52da6b527", "type": "electric_scooter", "is_reserved": 0, "lon": -77.02389166666667}, {"fusion_lat": 0.0, "name": "edba81d7305f13e2c665bbde25da975f", "is_disabled": 0, "rental_uris": {"android": "https://dc.lft.to/lastmile_qr_scan", "ios": "https://dc.lft.to/lastmile_qr_scan"}, "fusion_lon": 0.0, "lat": 38.93048533333334, "bike_id": "edba81d7305f13e2c665bbde25da975f", "type": "electric_scooter", "is_reserved": 0, "lon": -77.032303}, {"fusion_lat": 0.0, "name": "9b3daca01f7fb220b9304f423210c80f", "is_disabled": 0, "rental_uris": {"android": "https://dc.lft.to/lastmile_qr_scan", "ios": "https://dc.lft.to/lastmile_qr_scan"}, "fusion_lon": 0.0, "lat": 38.92611483333334, "bike_id": "9b3daca01f7fb220b9304f423210c80f", "type": "electric_scooter", "is_reserved": 0, "lon": -77.04194}, {"fusion_lat": 0.0, "name": "86e93dabeddb41cf7edd6f95d2c5ed0b", "is_disabled": 0, "rental_uris": {"android": "https://dc.lft.to/lastmile_qr_scan", "ios": "https://dc.lft.to/lastmile_qr_scan"}, "fusion_lon": 0.0, "lat": 38.839319, "bike_id": "86e93dabeddb41cf7edd6f95d2c5ed0b", "type": "electric_bike", "is_reserved": 0, "lon": -77.0790435}, {"fusion_lat": 0.0, "name": "9d04761e3462f4ce201f647c9c8cae9f", "is_disabled": 0, "rental_uris": {"android": "https://dc.lft.to/lastmile_qr_scan", "ios": "https://dc.lft.to/lastmile_qr_scan"}, "fusion_lon": 0.0, "lat": 38.933809833333335, "bike_id": "9d04761e3462f4ce201f647c9c8cae9f", "type": "electric_scooter", "is_reserved": 0, "lon": -77.04425016666667}, {"fusion_lat": 0.0, "name": "52c55a3b235679802bfabe6edaedecfa", "is_disabled": 0, "rental_uris": {"android": "https://dc.lft.to/lastmile_qr_scan", "ios": "https://dc.lft.to/lastmile_qr_scan"}, "fusion_lon": 0.0, "lat": 38.90733066666667, "bike_id": "52c55a3b235679802bfabe6edaedecfa", "type": "electric_scooter", "is_reserved": 0, "lon": -77.0075435}, {"fusion_lat": 0.0, "name": "30fbe23c851fd72dab6efad58ae36ca9", "is_disabled": 0, "rental_uris": {"android": "https://dc.lft.to/lastmile_qr_scan", "ios": "https://dc.lft.to/lastmile_qr_scan"}, "fusion_lon": 0.0, "lat": 38.87734583333334, "bike_id": "30fbe23c851fd72dab6efad58ae36ca9", "type": "electric_scooter", "is_reserved": 0, "lon": -77.02143066666666}, {"fusion_lat": 0.0, "name": "45407e7c0289a26ff8c7cd8adc6b3331", "is_disabled": 0, "rental_uris": {"android": "https://dc.lft.to/lastmile_qr_scan", "ios": "https://dc.lft.to/lastmile_qr_scan"}, "fusion_lon": 0.0, "lat": 38.93369233333333, "bike_id": "45407e7c0289a26ff8c7cd8adc6b3331", "type": "electric_scooter", "is_reserved": 0, "lon": -77.0390185}, {"fusion_lat": 0.0, "name": "47957c4f4ef1cfc138fb7d61fe924d01", "is_disabled": 0, "rental_uris": {"android": "https://dc.lft.to/lastmile_qr_scan", "ios": "https://dc.lft.to/lastmile_qr_scan"}, "fusion_lon": 0.0, "lat": 38.894999166666665, "bike_id": "47957c4f4ef1cfc138fb7d61fe924d01", "type": "electric_scooter", "is_reserved": 0, "lon": -77.00339966666667}, {"fusion_lat": 0.0, "name": "19082fbb518b4b14e46a276bbd1cc235", "is_disabled": 0, "rental_uris": {"android": "https://dc.lft.to/lastmile_qr_scan", "ios": "https://dc.lft.to/lastmile_qr_scan"}, "fusion_lon": 0.0, "lat": 38.92603733333333, "bike_id": "19082fbb518b4b14e46a276bbd1cc235", "type": "electric_scooter", "is_reserved": 0, "lon": -77.0239305}, {"fusion_lat": 0.0, "name": "c2dd7117628857ca46431e568633b822", "is_disabled": 0, "rental_uris": {"android": "https://dc.lft.to/lastmile_qr_scan", "ios": "https://dc.lft.to/lastmile_qr_scan"}, "fusion_lon": 0.0, "lat": 38.92312583333333, "bike_id": "c2dd7117628857ca46431e568633b822", "type": "electric_scooter", "is_reserved": 0, "lon": -77.04145266666667}, {"fusion_lat": 0.0, "name": "8be35b044f1a902ad2953dd23f254840", "is_disabled": 0, "rental_uris": {"android": "https://dc.lft.to/lastmile_qr_scan", "ios": "https://dc.lft.to/lastmile_qr_scan"}, "fusion_lon": 0.0, "lat": 38.9229795, "bike_id": "8be35b044f1a902ad2953dd23f254840", "type": "electric_bike", "is_reserved": 0, "lon": -76.993754}, {"fusion_lat": 0.0, "name": "675a94bc1dcb67ee8ec74e20fad97968", "is_disabled": 0, "rental_uris": {"android": "https://dc.lft.to/lastmile_qr_scan", "ios": "https://dc.lft.to/lastmile_qr_scan"}, "fusion_lon": 0.0, "lat": 38.908493666666665, "bike_id": "675a94bc1dcb67ee8ec74e20fad97968", "type": "electric_scooter", "is_reserved": 0, "lon": -76.99765533333333}, {"fusion_lat": 0.0, "name": "f100683230b19ae50bc776366340513c", "is_disabled": 0, "rental_uris": {"android": "https://dc.lft.to/lastmile_qr_scan", "ios": "https://dc.lft.to/lastmile_qr_scan"}, "fusion_lon": 0.0, "lat": 38.91711433333333, "bike_id": "f100683230b19ae50bc776366340513c", "type": "electric_scooter", "is_reserved": 0, "lon": -77.02435716666666}, {"fusion_lat": 0.0, "name": "b73a048a9a37d362a5f7304bf3d679ca", "is_disabled": 0, "rental_uris": {"android": "https://dc.lft.to/lastmile_qr_scan", "ios": "https://dc.lft.to/lastmile_qr_scan"}, "fusion_lon": 0.0, "lat": 38.9141585, "bike_id": "b73a048a9a37d362a5f7304bf3d679ca", "type": "electric_scooter", "is_reserved": 0, "lon": -77.0281905}, {"fusion_lat": 0.0, "name": "2eaa63734aa4f1cf09f7126a2e7ce20f", "is_disabled": 0, "rental_uris": {"android": "https://dc.lft.to/lastmile_qr_scan", "ios": "https://dc.lft.to/lastmile_qr_scan"}, "fusion_lon": 0.0, "lat": 38.901492833333336, "bike_id": "2eaa63734aa4f1cf09f7126a2e7ce20f", "type": "electric_scooter", "is_reserved": 0, "lon": -76.9307165}, {"fusion_lat": 0.0, "name": "c8987d057164d32bd781939e808b773f", "is_disabled": 0, "rental_uris": {"android": "https://dc.lft.to/lastmile_qr_scan", "ios": "https://dc.lft.to/lastmile_qr_scan"}, "fusion_lon": 0.0, "lat": 38.922314666666665, "bike_id": "c8987d057164d32bd781939e808b773f", "type": "electric_scooter", "is_reserved": 0, "lon": -77.04251383333333}, {"fusion_lat": 0.0, "name": "3a9959105550ecc10dc238b36206a9d5", "is_disabled": 0, "rental_uris": {"android": "https://dc.lft.to/lastmile_qr_scan", "ios": "https://dc.lft.to/lastmile_qr_scan"}, "fusion_lon": 0.0, "lat": 38.928604, "bike_id": "3a9959105550ecc10dc238b36206a9d5", "type": "electric_scooter", "is_reserved": 0, "lon": -77.034435}, {"fusion_lat": 0.0, "name": "7cfb843eceba25470346bbab10f612d6", "is_disabled": 0, "rental_uris": {"android": "https://dc.lft.to/lastmile_qr_scan", "ios": "https://dc.lft.to/lastmile_qr_scan"}, "fusion_lon": 0.0, "lat": 38.878898666666664, "bike_id": "7cfb843eceba25470346bbab10f612d6", "type": "electric_bike", "is_reserved": 0, "lon": -76.99163716666666}, {"fusion_lat": 0.0, "name": "0108ad06ea1c5c11a83658079f8454e0", "is_disabled": 0, "rental_uris": {"android": "https://dc.lft.to/lastmile_qr_scan", "ios": "https://dc.lft.to/lastmile_qr_scan"}, "fusion_lon": 0.0, "lat": 38.9068385, "bike_id": "0108ad06ea1c5c11a83658079f8454e0", "type": "electric_bike", "is_reserved": 0, "lon": -76.94495183333333}, {"fusion_lat": 0.0, "name": "1f20f36f8e13e909e68545f9217a398c", "is_disabled": 0, "rental_uris": {"android": "https://dc.lft.to/lastmile_qr_scan", "ios": "https://dc.lft.to/lastmile_qr_scan"}, "fusion_lon": 0.0, "lat": 38.9240125, "bike_id": "1f20f36f8e13e909e68545f9217a398c", "type": "electric_scooter", "is_reserved": 0, "lon": -77.05173466666666}, {"fusion_lat": 0.0, "name": "21c94cba1e948307eb4808ac9c14811d", "is_disabled": 0, "rental_uris": {"android": "https://dc.lft.to/lastmile_qr_scan", "ios": "https://dc.lft.to/lastmile_qr_scan"}, "fusion_lon": 0.0, "lat": 38.915510833333336, "bike_id": "21c94cba1e948307eb4808ac9c14811d", "type": "electric_scooter", "is_reserved": 0, "lon": -77.02985583333333}, {"fusion_lat": 0.0, "name": "0c2ee2e90a0a08fb02eb61385131500f", "is_disabled": 0, "rental_uris": {"android": "https://dc.lft.to/lastmile_qr_scan", "ios": "https://dc.lft.to/lastmile_qr_scan"}, "fusion_lon": 0.0, "lat": 38.91836333333333, "bike_id": "0c2ee2e90a0a08fb02eb61385131500f", "type": "electric_scooter", "is_reserved": 0, "lon": -77.03521933333333}, {"fusion_lat": 0.0, "name": "87ea397f53f5e3da34f388f7924de2be", "is_disabled": 0, "rental_uris": {"android": "https://dc.lft.to/lastmile_qr_scan", "ios": "https://dc.lft.to/lastmile_qr_scan"}, "fusion_lon": 0.0, "lat": 38.892157166666664, "bike_id": "87ea397f53f5e3da34f388f7924de2be", "type": "electric_scooter", "is_reserved": 0, "lon": -76.957476}, {"fusion_lat": 0.0, "name": "b4fbd75e8eca79d59f634e11cbf868bb", "is_disabled": 0, "rental_uris": {"android": "https://dc.lft.to/lastmile_qr_scan", "ios": "https://dc.lft.to/lastmile_qr_scan"}, "fusion_lon": 0.0, "lat": 38.91707516666666, "bike_id": "b4fbd75e8eca79d59f634e11cbf868bb", "type": "electric_scooter", "is_reserved": 0, "lon": -77.02420133333334}, {"fusion_lat": 0.0, "name": "4376b08036a50ebab45e6ab7ec7710c1", "is_disabled": 0, "rental_uris": {"android": "https://dc.lft.to/lastmile_qr_scan", "ios": "https://dc.lft.to/lastmile_qr_scan"}, "fusion_lon": 0.0, "lat": 38.89573, "bike_id": "4376b08036a50ebab45e6ab7ec7710c1", "type": "electric_scooter", "is_reserved": 0, "lon": -76.98323766666667}, {"fusion_lat": 0.0, "name": "193595eedb386d4cce9ad4245edb4341", "is_disabled": 0, "rental_uris": {"android": "https://dc.lft.to/lastmile_qr_scan", "ios": "https://dc.lft.to/lastmile_qr_scan"}, "fusion_lon": 0.0, "lat": 38.887643833333335, "bike_id": "193595eedb386d4cce9ad4245edb4341", "type": "electric_scooter", "is_reserved": 0, "lon": -76.95580633333333}, {"fusion_lat": 0.0, "name": "43e75389f6b22769f9ee3285d6250e5e", "is_disabled": 0, "rental_uris": {"android": "https://dc.lft.to/lastmile_qr_scan", "ios": "https://dc.lft.to/lastmile_qr_scan"}, "fusion_lon": 0.0, "lat": 38.92060266666667, "bike_id": "43e75389f6b22769f9ee3285d6250e5e", "type": "electric_scooter", "is_reserved": 0, "lon": -77.02426433333333}, {"fusion_lat": 0.0, "name": "26ffb5ebdfc04666978efd3eb676d0d0", "is_disabled": 0, "rental_uris": {"android": "https://dc.lft.to/lastmile_qr_scan", "ios": "https://dc.lft.to/lastmile_qr_scan"}, "fusion_lon": 0.0, "lat": 38.9335645, "bike_id": "26ffb5ebdfc04666978efd3eb676d0d0", "type": "electric_scooter", "is_reserved": 0, "lon": -77.0731715}, {"fusion_lat": 0.0, "name": "3bca2b3193e77c6a8fdbe71e57ad230a", "is_disabled": 0, "rental_uris": {"android": "https://dc.lft.to/lastmile_qr_scan", "ios": "https://dc.lft.to/lastmile_qr_scan"}, "fusion_lon": 0.0, "lat": 38.91237, "bike_id": "3bca2b3193e77c6a8fdbe71e57ad230a", "type": "electric_scooter", "is_reserved": 0, "lon": -77.04514516666667}, {"fusion_lat": 0.0, "name": "d50f205d00f79673b4d74b1a4639545c", "is_disabled": 0, "rental_uris": {"android": "https://dc.lft.to/lastmile_qr_scan", "ios": "https://dc.lft.to/lastmile_qr_scan"}, "fusion_lon": 0.0, "lat": 38.963877333333336, "bike_id": "d50f205d00f79673b4d74b1a4639545c", "type": "electric_bike", "is_reserved": 0, "lon": -76.95040133333333}, {"fusion_lat": 0.0, "name": "0156f7517c75a65066699a123eb3c4d8", "is_disabled": 0, "rental_uris": {"android": "https://dc.lft.to/lastmile_qr_scan", "ios": "https://dc.lft.to/lastmile_qr_scan"}, "fusion_lon": 0.0, "lat": 38.871598666666664, "bike_id": "0156f7517c75a65066699a123eb3c4d8", "type": "electric_bike", "is_reserved": 0, "lon": -77.13147383333333}, {"fusion_lat": 0.0, "name": "7af3e04fddaa391cae446c319f52d5c5", "is_disabled": 0, "rental_uris": {"android": "https://dc.lft.to/lastmile_qr_scan", "ios": "https://dc.lft.to/lastmile_qr_scan"}, "fusion_lon": 0.0, "lat": 38.897272666666666, "bike_id": "7af3e04fddaa391cae446c319f52d5c5", "type": "electric_scooter", "is_reserved": 0, "lon": -76.9470515}, {"fusion_lat": 0.0, "name": "3accf352ca28f4719987a2c50bad2d98", "is_disabled": 0, "rental_uris": {"android": "https://dc.lft.to/lastmile_qr_scan", "ios": "https://dc.lft.to/lastmile_qr_scan"}, "fusion_lon": 0.0, "lat": 38.9323975, "bike_id": "3accf352ca28f4719987a2c50bad2d98", "type": "electric_scooter", "is_reserved": 0, "lon": -77.03414866666667}, {"fusion_lat": 0.0, "name": "96dd7f9ae2bed2c484503340b8e79e88", "is_disabled": 0, "rental_uris": {"android": "https://dc.lft.to/lastmile_qr_scan", "ios": "https://dc.lft.to/lastmile_qr_scan"}, "fusion_lon": 0.0, "lat": 38.919100666666665, "bike_id": "96dd7f9ae2bed2c484503340b8e79e88", "type": "electric_scooter", "is_reserved": 0, "lon": -77.0334145}, {"fusion_lat": 0.0, "name": "f32b7edd6bc89b54eb75209550324c13", "is_disabled": 0, "rental_uris": {"android": "https://dc.lft.to/lastmile_qr_scan", "ios": "https://dc.lft.to/lastmile_qr_scan"}, "fusion_lon": 0.0, "lat": 38.93203916666667, "bike_id": "f32b7edd6bc89b54eb75209550324c13", "type": "electric_scooter", "is_reserved": 0, "lon": -77.038663}, {"fusion_lat": 0.0, "name": "4c82c7039a2e754481bc380085c08499", "is_disabled": 0, "rental_uris": {"android": "https://dc.lft.to/lastmile_qr_scan", "ios": "https://dc.lft.to/lastmile_qr_scan"}, "fusion_lon": 0.0, "lat": 38.90591633333333, "bike_id": "4c82c7039a2e754481bc380085c08499", "type": "electric_scooter", "is_reserved": 0, "lon": -77.041978}, {"fusion_lat": 0.0, "name": "d380e11ac61ca8ffe2ccf45be9b972da", "is_disabled": 0, "rental_uris": {"android": "https://dc.lft.to/lastmile_qr_scan", "ios": "https://dc.lft.to/lastmile_qr_scan"}, "fusion_lon": 0.0, "lat": 38.960694333333336, "bike_id": "d380e11ac61ca8ffe2ccf45be9b972da", "type": "electric_scooter", "is_reserved": 0, "lon": -77.00106333333333}, {"fusion_lat": 0.0, "name": "c7468ff042bd24cc094d8a060a416c71", "is_disabled": 0, "rental_uris": {"android": "https://dc.lft.to/lastmile_qr_scan", "ios": "https://dc.lft.to/lastmile_qr_scan"}, "fusion_lon": 0.0, "lat": 38.898798, "bike_id": "c7468ff042bd24cc094d8a060a416c71", "type": "electric_scooter", "is_reserved": 0, "lon": -77.00927883333334}, {"fusion_lat": 0.0, "name": "296b0250f5575600929fb7140df7342b", "is_disabled": 0, "rental_uris": {"android": "https://dc.lft.to/lastmile_qr_scan", "ios": "https://dc.lft.to/lastmile_qr_scan"}, "fusion_lon": 0.0, "lat": 38.916039833333336, "bike_id": "296b0250f5575600929fb7140df7342b", "type": "electric_scooter", "is_reserved": 0, "lon": -77.04561133333333}, {"fusion_lat": 0.0, "name": "1b4b469855ff73dae8ac5bef2e4aa14e", "is_disabled": 0, "rental_uris": {"android": "https://dc.lft.to/lastmile_qr_scan", "ios": "https://dc.lft.to/lastmile_qr_scan"}, "fusion_lon": 0.0, "lat": 38.90514616666667, "bike_id": "1b4b469855ff73dae8ac5bef2e4aa14e", "type": "electric_scooter", "is_reserved": 0, "lon": -77.06137816666667}, {"fusion_lat": 0.0, "name": "c8bf57d9fd300e4e489aa3c52f070080", "is_disabled": 0, "rental_uris": {"android": "https://dc.lft.to/lastmile_qr_scan", "ios": "https://dc.lft.to/lastmile_qr_scan"}, "fusion_lon": 0.0, "lat": 38.92615716666667, "bike_id": "c8bf57d9fd300e4e489aa3c52f070080", "type": "electric_scooter", "is_reserved": 0, "lon": -77.07571216666666}, {"fusion_lat": 0.0, "name": "f18b29a607d4883aba1b569018d94c1b", "is_disabled": 0, "rental_uris": {"android": "https://dc.lft.to/lastmile_qr_scan", "ios": "https://dc.lft.to/lastmile_qr_scan"}, "fusion_lon": 0.0, "lat": 38.92292583333333, "bike_id": "f18b29a607d4883aba1b569018d94c1b", "type": "electric_scooter", "is_reserved": 0, "lon": -77.02334483333334}, {"fusion_lat": 0.0, "name": "347c2686fee4e6c0d0ec0a192a477061", "is_disabled": 0, "rental_uris": {"android": "https://dc.lft.to/lastmile_qr_scan", "ios": "https://dc.lft.to/lastmile_qr_scan"}, "fusion_lon": 0.0, "lat": 38.901116, "bike_id": "347c2686fee4e6c0d0ec0a192a477061", "type": "electric_scooter", "is_reserved": 0, "lon": -76.97429316666667}, {"fusion_lat": 0.0, "name": "a390a78685b5d92e21f73a89ed4584ad", "is_disabled": 0, "rental_uris": {"android": "https://dc.lft.to/lastmile_qr_scan", "ios": "https://dc.lft.to/lastmile_qr_scan"}, "fusion_lon": 0.0, "lat": 38.92154816666667, "bike_id": "a390a78685b5d92e21f73a89ed4584ad", "type": "electric_scooter", "is_reserved": 0, "lon": -77.03677766666667}, {"fusion_lat": 0.0, "name": "48800c5d926a693105cedaa5eacd0467", "is_disabled": 0, "rental_uris": {"android": "https://dc.lft.to/lastmile_qr_scan", "ios": "https://dc.lft.to/lastmile_qr_scan"}, "fusion_lon": 0.0, "lat": 38.92432933333333, "bike_id": "48800c5d926a693105cedaa5eacd0467", "type": "electric_scooter", "is_reserved": 0, "lon": -77.05178416666666}, {"fusion_lat": 0.0, "name": "06b8ead2f05c977fa1d996f8f55f05d0", "is_disabled": 0, "rental_uris": {"android": "https://dc.lft.to/lastmile_qr_scan", "ios": "https://dc.lft.to/lastmile_qr_scan"}, "fusion_lon": 0.0, "lat": 38.90013883333334, "bike_id": "06b8ead2f05c977fa1d996f8f55f05d0", "type": "electric_scooter", "is_reserved": 0, "lon": -77.00337416666666}, {"fusion_lat": 0.0, "name": "bef86d2ad5949b5ee893855b8a2e7df6", "is_disabled": 0, "rental_uris": {"android": "https://dc.lft.to/lastmile_qr_scan", "ios": "https://dc.lft.to/lastmile_qr_scan"}, "fusion_lon": 0.0, "lat": 38.89722316666667, "bike_id": "bef86d2ad5949b5ee893855b8a2e7df6", "type": "electric_scooter", "is_reserved": 0, "lon": -77.046226}, {"fusion_lat": 0.0, "name": "241697d604738ef50a0cdd35ae9b5fd7", "is_disabled": 0, "rental_uris": {"android": "https://dc.lft.to/lastmile_qr_scan", "ios": "https://dc.lft.to/lastmile_qr_scan"}, "fusion_lon": 0.0, "lat": 38.896884666666665, "bike_id": "241697d604738ef50a0cdd35ae9b5fd7", "type": "electric_scooter", "is_reserved": 0, "lon": -77.01191466666667}, {"fusion_lat": 0.0, "name": "b576348634412476863f8d5a84994e06", "is_disabled": 0, "rental_uris": {"android": "https://dc.lft.to/lastmile_qr_scan", "ios": "https://dc.lft.to/lastmile_qr_scan"}, "fusion_lon": 0.0, "lat": 38.87124433333334, "bike_id": "b576348634412476863f8d5a84994e06", "type": "electric_scooter", "is_reserved": 0, "lon": -77.01229233333333}, {"fusion_lat": 0.0, "name": "13a4867f87e8c07bda413d57fce31310", "is_disabled": 0, "rental_uris": {"android": "https://dc.lft.to/lastmile_qr_scan", "ios": "https://dc.lft.to/lastmile_qr_scan"}, "fusion_lon": 0.0, "lat": 38.90039383333333, "bike_id": "13a4867f87e8c07bda413d57fce31310", "type": "electric_scooter", "is_reserved": 0, "lon": -77.02957683333334}, {"fusion_lat": 0.0, "name": "bf1bef46016411c4ee3c0e19044af09f", "is_disabled": 0, "rental_uris": {"android": "https://dc.lft.to/lastmile_qr_scan", "ios": "https://dc.lft.to/lastmile_qr_scan"}, "fusion_lon": 0.0, "lat": 38.91045883333334, "bike_id": "bf1bef46016411c4ee3c0e19044af09f", "type": "electric_scooter", "is_reserved": 0, "lon": -77.0441105}, {"fusion_lat": 0.0, "name": "c25d52f3a678729130a86ae4005dc8a8", "is_disabled": 0, "rental_uris": {"android": "https://dc.lft.to/lastmile_qr_scan", "ios": "https://dc.lft.to/lastmile_qr_scan"}, "fusion_lon": 0.0, "lat": 38.898151166666665, "bike_id": "c25d52f3a678729130a86ae4005dc8a8", "type": "electric_scooter", "is_reserved": 0, "lon": -77.05014916666667}, {"fusion_lat": 0.0, "name": "e6d37c68c3b2943ab607a330b5c77a98", "is_disabled": 0, "rental_uris": {"android": "https://dc.lft.to/lastmile_qr_scan", "ios": "https://dc.lft.to/lastmile_qr_scan"}, "fusion_lon": 0.0, "lat": 38.91564916666667, "bike_id": "e6d37c68c3b2943ab607a330b5c77a98", "type": "electric_scooter", "is_reserved": 0, "lon": -77.03143333333334}, {"fusion_lat": 0.0, "name": "eb558a35867436704e4679cdbbca68a8", "is_disabled": 0, "rental_uris": {"android": "https://dc.lft.to/lastmile_qr_scan", "ios": "https://dc.lft.to/lastmile_qr_scan"}, "fusion_lon": 0.0, "lat": 38.915571666666665, "bike_id": "eb558a35867436704e4679cdbbca68a8", "type": "electric_scooter", "is_reserved": 0, "lon": -77.01060333333334}, {"fusion_lat": 0.0, "name": "a8992ebe18819cb3c1ce779a6493334c", "is_disabled": 0, "rental_uris": {"android": "https://dc.lft.to/lastmile_qr_scan", "ios": "https://dc.lft.to/lastmile_qr_scan"}, "fusion_lon": 0.0, "lat": 38.89218283333334, "bike_id": "a8992ebe18819cb3c1ce779a6493334c", "type": "electric_scooter", "is_reserved": 0, "lon": -77.02049666666667}, {"fusion_lat": 0.0, "name": "f8e6614e1abb8692a3e82714e0665762", "is_disabled": 0, "rental_uris": {"android": "https://dc.lft.to/lastmile_qr_scan", "ios": "https://dc.lft.to/lastmile_qr_scan"}, "fusion_lon": 0.0, "lat": 38.886222833333335, "bike_id": "f8e6614e1abb8692a3e82714e0665762", "type": "electric_scooter", "is_reserved": 0, "lon": -77.02832366666667}, {"fusion_lat": 0.0, "name": "d6b749f632bf3be43d443e4aa9cbfa26", "is_disabled": 0, "rental_uris": {"android": "https://dc.lft.to/lastmile_qr_scan", "ios": "https://dc.lft.to/lastmile_qr_scan"}, "fusion_lon": 0.0, "lat": 38.90397633333333, "bike_id": "d6b749f632bf3be43d443e4aa9cbfa26", "type": "electric_scooter", "is_reserved": 0, "lon": -77.02476783333333}, {"fusion_lat": 0.0, "name": "ecf6aaa55d2489eabbd27305bcc2cef0", "is_disabled": 0, "rental_uris": {"android": "https://dc.lft.to/lastmile_qr_scan", "ios": "https://dc.lft.to/lastmile_qr_scan"}, "fusion_lon": 0.0, "lat": 38.91705866666667, "bike_id": "ecf6aaa55d2489eabbd27305bcc2cef0", "type": "electric_scooter", "is_reserved": 0, "lon": -77.02414533333334}, {"fusion_lat": 0.0, "name": "533d3b0e252c5c2b41e01e012c0a93d3", "is_disabled": 0, "rental_uris": {"android": "https://dc.lft.to/lastmile_qr_scan", "ios": "https://dc.lft.to/lastmile_qr_scan"}, "fusion_lon": 0.0, "lat": 38.90499633333334, "bike_id": "533d3b0e252c5c2b41e01e012c0a93d3", "type": "electric_scooter", "is_reserved": 0, "lon": -77.06022516666667}, {"fusion_lat": 0.0, "name": "19a8196eb5ae06803342580c0c4571fc", "is_disabled": 0, "rental_uris": {"android": "https://dc.lft.to/lastmile_qr_scan", "ios": "https://dc.lft.to/lastmile_qr_scan"}, "fusion_lon": 0.0, "lat": 38.90957816666667, "bike_id": "19a8196eb5ae06803342580c0c4571fc", "type": "electric_scooter", "is_reserved": 0, "lon": -77.03946683333334}, {"fusion_lat": 0.0, "name": "7b38b5bac30228dd08d7bb7c13b5693d", "is_disabled": 0, "rental_uris": {"android": "https://dc.lft.to/lastmile_qr_scan", "ios": "https://dc.lft.to/lastmile_qr_scan"}, "fusion_lon": 0.0, "lat": 38.87761783333333, "bike_id": "7b38b5bac30228dd08d7bb7c13b5693d", "type": "electric_scooter", "is_reserved": 0, "lon": -77.0035125}, {"fusion_lat": 0.0, "name": "e10fd9be1e96158b3b988d2c46c0bf6c", "is_disabled": 0, "rental_uris": {"android": "https://dc.lft.to/lastmile_qr_scan", "ios": "https://dc.lft.to/lastmile_qr_scan"}, "fusion_lon": 0.0, "lat": 38.91225283333333, "bike_id": "e10fd9be1e96158b3b988d2c46c0bf6c", "type": "electric_scooter", "is_reserved": 0, "lon": -77.04796466666667}, {"fusion_lat": 0.0, "name": "4e8a1cc7df9ce402f4a807646814a51b", "is_disabled": 0, "rental_uris": {"android": "https://dc.lft.to/lastmile_qr_scan", "ios": "https://dc.lft.to/lastmile_qr_scan"}, "fusion_lon": 0.0, "lat": 38.9050925, "bike_id": "4e8a1cc7df9ce402f4a807646814a51b", "type": "electric_scooter", "is_reserved": 0, "lon": -77.01721133333334}, {"fusion_lat": 0.0, "name": "973630904aa1ebfbf68086af717576a5", "is_disabled": 0, "rental_uris": {"android": "https://dc.lft.to/lastmile_qr_scan", "ios": "https://dc.lft.to/lastmile_qr_scan"}, "fusion_lon": 0.0, "lat": 38.91466783333333, "bike_id": "973630904aa1ebfbf68086af717576a5", "type": "electric_scooter", "is_reserved": 0, "lon": -77.01560666666667}, {"fusion_lat": 0.0, "name": "467579a214a950712e599ae143d6982e", "is_disabled": 0, "rental_uris": {"android": "https://dc.lft.to/lastmile_qr_scan", "ios": "https://dc.lft.to/lastmile_qr_scan"}, "fusion_lon": 0.0, "lat": 38.902705, "bike_id": "467579a214a950712e599ae143d6982e", "type": "electric_scooter", "is_reserved": 0, "lon": -76.98988233333333}, {"fusion_lat": 0.0, "name": "2574e44dc7ca112c17532049e73cfde7", "is_disabled": 0, "rental_uris": {"android": "https://dc.lft.to/lastmile_qr_scan", "ios": "https://dc.lft.to/lastmile_qr_scan"}, "fusion_lon": 0.0, "lat": 38.899139166666664, "bike_id": "2574e44dc7ca112c17532049e73cfde7", "type": "electric_scooter", "is_reserved": 0, "lon": -77.05134366666667}, {"fusion_lat": 0.0, "name": "bbbfd755d49575dfdd0ae8c3bd444b5a", "is_disabled": 0, "rental_uris": {"android": "https://dc.lft.to/lastmile_qr_scan", "ios": "https://dc.lft.to/lastmile_qr_scan"}, "fusion_lon": 0.0, "lat": 38.959681, "bike_id": "bbbfd755d49575dfdd0ae8c3bd444b5a", "type": "electric_bike", "is_reserved": 0, "lon": -76.981507}, {"fusion_lat": 0.0, "name": "b435aa3e1119b334d16c15031ea194bd", "is_disabled": 0, "rental_uris": {"android": "https://dc.lft.to/lastmile_qr_scan", "ios": "https://dc.lft.to/lastmile_qr_scan"}, "fusion_lon": 0.0, "lat": 38.9004215, "bike_id": "b435aa3e1119b334d16c15031ea194bd", "type": "electric_scooter", "is_reserved": 0, "lon": -77.02965766666667}, {"fusion_lat": 0.0, "name": "cb50a8200d108606e5b1b96c0a1c1b0e", "is_disabled": 0, "rental_uris": {"android": "https://dc.lft.to/lastmile_qr_scan", "ios": "https://dc.lft.to/lastmile_qr_scan"}, "fusion_lon": 0.0, "lat": 38.894965666666664, "bike_id": "cb50a8200d108606e5b1b96c0a1c1b0e", "type": "electric_scooter", "is_reserved": 0, "lon": -77.00211866666666}, {"fusion_lat": 0.0, "name": "ee2968a3b9b1af239f5ce18fc2516ef9", "is_disabled": 0, "rental_uris": {"android": "https://dc.lft.to/lastmile_qr_scan", "ios": "https://dc.lft.to/lastmile_qr_scan"}, "fusion_lon": 0.0, "lat": 38.91208266666667, "bike_id": "ee2968a3b9b1af239f5ce18fc2516ef9", "type": "electric_scooter", "is_reserved": 0, "lon": -77.01984766666666}, {"fusion_lat": 0.0, "name": "05249b48d96496cbb1d431fd95d58799", "is_disabled": 0, "rental_uris": {"android": "https://dc.lft.to/lastmile_qr_scan", "ios": "https://dc.lft.to/lastmile_qr_scan"}, "fusion_lon": 0.0, "lat": 38.8560735, "bike_id": "05249b48d96496cbb1d431fd95d58799", "type": "electric_bike", "is_reserved": 0, "lon": -77.1081025}, {"fusion_lat": 0.0, "name": "c54e17b7c2229f64f7b324fa8689e10e", "is_disabled": 0, "rental_uris": {"android": "https://dc.lft.to/lastmile_qr_scan", "ios": "https://dc.lft.to/lastmile_qr_scan"}, "fusion_lon": 0.0, "lat": 38.8993315, "bike_id": "c54e17b7c2229f64f7b324fa8689e10e", "type": "electric_scooter", "is_reserved": 0, "lon": -77.02203416666667}, {"fusion_lat": 0.0, "name": "9103e287f92c34e069d1aee8d56d686b", "is_disabled": 0, "rental_uris": {"android": "https://dc.lft.to/lastmile_qr_scan", "ios": "https://dc.lft.to/lastmile_qr_scan"}, "fusion_lon": 0.0, "lat": 38.9244895, "bike_id": "9103e287f92c34e069d1aee8d56d686b", "type": "electric_scooter", "is_reserved": 0, "lon": -77.039822}, {"fusion_lat": 0.0, "name": "662cf98295a15c605859c58ebdd34bd2", "is_disabled": 0, "rental_uris": {"android": "https://dc.lft.to/lastmile_qr_scan", "ios": "https://dc.lft.to/lastmile_qr_scan"}, "fusion_lon": 0.0, "lat": 38.92117866666667, "bike_id": "662cf98295a15c605859c58ebdd34bd2", "type": "electric_scooter", "is_reserved": 0, "lon": -77.0443605}, {"fusion_lat": 0.0, "name": "edaaaa23f8056a965eecb792ba4cd6bd", "is_disabled": 0, "rental_uris": {"android": "https://dc.lft.to/lastmile_qr_scan", "ios": "https://dc.lft.to/lastmile_qr_scan"}, "fusion_lon": 0.0, "lat": 38.905846333333336, "bike_id": "edaaaa23f8056a965eecb792ba4cd6bd", "type": "electric_scooter", "is_reserved": 0, "lon": -77.00308316666667}, {"fusion_lat": 0.0, "name": "7f7142b7a8c45351424ac60cd5aca094", "is_disabled": 0, "rental_uris": {"android": "https://dc.lft.to/lastmile_qr_scan", "ios": "https://dc.lft.to/lastmile_qr_scan"}, "fusion_lon": 0.0, "lat": 38.9111515, "bike_id": "7f7142b7a8c45351424ac60cd5aca094", "type": "electric_scooter", "is_reserved": 0, "lon": -77.0343985}, {"fusion_lat": 0.0, "name": "ebbb54c3c04bf7c681143bbfec79bea8", "is_disabled": 0, "rental_uris": {"android": "https://dc.lft.to/lastmile_qr_scan", "ios": "https://dc.lft.to/lastmile_qr_scan"}, "fusion_lon": 0.0, "lat": 38.88727133333333, "bike_id": "ebbb54c3c04bf7c681143bbfec79bea8", "type": "electric_scooter", "is_reserved": 0, "lon": -77.02133016666667}, {"fusion_lat": 0.0, "name": "dd08966f36a55a65d073e9fe015b38e0", "is_disabled": 0, "rental_uris": {"android": "https://dc.lft.to/lastmile_qr_scan", "ios": "https://dc.lft.to/lastmile_qr_scan"}, "fusion_lon": 0.0, "lat": 38.906659166666664, "bike_id": "dd08966f36a55a65d073e9fe015b38e0", "type": "electric_scooter", "is_reserved": 0, "lon": -77.02699633333333}, {"fusion_lat": 0.0, "name": "4766d64a8377bb372534a8402288df04", "is_disabled": 0, "rental_uris": {"android": "https://dc.lft.to/lastmile_qr_scan", "ios": "https://dc.lft.to/lastmile_qr_scan"}, "fusion_lon": 0.0, "lat": 38.90238466666667, "bike_id": "4766d64a8377bb372534a8402288df04", "type": "electric_scooter", "is_reserved": 0, "lon": -77.00204383333333}, {"fusion_lat": 0.0, "name": "16a17b05200495632a329de756888984", "is_disabled": 0, "rental_uris": {"android": "https://dc.lft.to/lastmile_qr_scan", "ios": "https://dc.lft.to/lastmile_qr_scan"}, "fusion_lon": 0.0, "lat": 38.931469166666666, "bike_id": "16a17b05200495632a329de756888984", "type": "electric_scooter", "is_reserved": 0, "lon": -77.02149416666667}, {"fusion_lat": 0.0, "name": "9a583ffd5e18b1868d315d1dd23e3f28", "is_disabled": 0, "rental_uris": {"android": "https://dc.lft.to/lastmile_qr_scan", "ios": "https://dc.lft.to/lastmile_qr_scan"}, "fusion_lon": 0.0, "lat": 38.892628, "bike_id": "9a583ffd5e18b1868d315d1dd23e3f28", "type": "electric_scooter", "is_reserved": 0, "lon": -77.03169016666666}, {"fusion_lat": 0.0, "name": "1975e8c2cf43787589bcf44cc49eb718", "is_disabled": 0, "rental_uris": {"android": "https://dc.lft.to/lastmile_qr_scan", "ios": "https://dc.lft.to/lastmile_qr_scan"}, "fusion_lon": 0.0, "lat": 38.90691416666667, "bike_id": "1975e8c2cf43787589bcf44cc49eb718", "type": "electric_scooter", "is_reserved": 0, "lon": -77.063381}, {"fusion_lat": 0.0, "name": "23d0bf6e915852e9c306b814b0148ed8", "is_disabled": 0, "rental_uris": {"android": "https://dc.lft.to/lastmile_qr_scan", "ios": "https://dc.lft.to/lastmile_qr_scan"}, "fusion_lon": 0.0, "lat": 38.873799, "bike_id": "23d0bf6e915852e9c306b814b0148ed8", "type": "electric_scooter", "is_reserved": 0, "lon": -77.00069983333333}, {"fusion_lat": 0.0, "name": "db130827bf11b3f3deda7417c7073e67", "is_disabled": 0, "rental_uris": {"android": "https://dc.lft.to/lastmile_qr_scan", "ios": "https://dc.lft.to/lastmile_qr_scan"}, "fusion_lon": 0.0, "lat": 38.92757233333333, "bike_id": "db130827bf11b3f3deda7417c7073e67", "type": "electric_scooter", "is_reserved": 0, "lon": -77.02958966666667}, {"fusion_lat": 0.0, "name": "c411fcae53c15173380e3aafcd0812f4", "is_disabled": 0, "rental_uris": {"android": "https://dc.lft.to/lastmile_qr_scan", "ios": "https://dc.lft.to/lastmile_qr_scan"}, "fusion_lon": 0.0, "lat": 38.92645683333333, "bike_id": "c411fcae53c15173380e3aafcd0812f4", "type": "electric_scooter", "is_reserved": 0, "lon": -77.041467}, {"fusion_lat": 0.0, "name": "64a08b8fbb8f8cb84d3887eca965077f", "is_disabled": 0, "rental_uris": {"android": "https://dc.lft.to/lastmile_qr_scan", "ios": "https://dc.lft.to/lastmile_qr_scan"}, "fusion_lon": 0.0, "lat": 38.874625, "bike_id": "64a08b8fbb8f8cb84d3887eca965077f", "type": "electric_scooter", "is_reserved": 0, "lon": -77.0047795}, {"fusion_lat": 0.0, "name": "d1fdaa8f24f825d01eecfaf1e94e3e52", "is_disabled": 0, "rental_uris": {"android": "https://dc.lft.to/lastmile_qr_scan", "ios": "https://dc.lft.to/lastmile_qr_scan"}, "fusion_lon": 0.0, "lat": 38.9002455, "bike_id": "d1fdaa8f24f825d01eecfaf1e94e3e52", "type": "electric_scooter", "is_reserved": 0, "lon": -76.996124}, {"fusion_lat": 0.0, "name": "f9129b82a1ceb165afea7976a1ca4509", "is_disabled": 0, "rental_uris": {"android": "https://dc.lft.to/lastmile_qr_scan", "ios": "https://dc.lft.to/lastmile_qr_scan"}, "fusion_lon": 0.0, "lat": 38.89470933333333, "bike_id": "f9129b82a1ceb165afea7976a1ca4509", "type": "electric_scooter", "is_reserved": 0, "lon": -77.01768316666667}, {"fusion_lat": 0.0, "name": "793eb1944a32e9deff2581be76b04051", "is_disabled": 0, "rental_uris": {"android": "https://dc.lft.to/lastmile_qr_scan", "ios": "https://dc.lft.to/lastmile_qr_scan"}, "fusion_lon": 0.0, "lat": 38.918321, "bike_id": "793eb1944a32e9deff2581be76b04051", "type": "electric_scooter", "is_reserved": 0, "lon": -77.02681833333334}, {"fusion_lat": 0.0, "name": "2507d88eaea70b67831c33df267100cd", "is_disabled": 0, "rental_uris": {"android": "https://dc.lft.to/lastmile_qr_scan", "ios": "https://dc.lft.to/lastmile_qr_scan"}, "fusion_lon": 0.0, "lat": 38.9229775, "bike_id": "2507d88eaea70b67831c33df267100cd", "type": "electric_scooter", "is_reserved": 0, "lon": -77.0421195}, {"fusion_lat": 0.0, "name": "4fbe19c0aff7a80625bb54eadd635cb5", "is_disabled": 0, "rental_uris": {"android": "https://dc.lft.to/lastmile_qr_scan", "ios": "https://dc.lft.to/lastmile_qr_scan"}, "fusion_lon": 0.0, "lat": 38.900747, "bike_id": "4fbe19c0aff7a80625bb54eadd635cb5", "type": "electric_scooter", "is_reserved": 0, "lon": -77.0465045}, {"fusion_lat": 0.0, "name": "44eb593d4225474eccb3f3531f2ce4da", "is_disabled": 0, "rental_uris": {"android": "https://dc.lft.to/lastmile_qr_scan", "ios": "https://dc.lft.to/lastmile_qr_scan"}, "fusion_lon": 0.0, "lat": 38.8982935, "bike_id": "44eb593d4225474eccb3f3531f2ce4da", "type": "electric_scooter", "is_reserved": 0, "lon": -76.94637066666667}, {"fusion_lat": 0.0, "name": "02a3d321c2d083ece37372a1aad714c6", "is_disabled": 0, "rental_uris": {"android": "https://dc.lft.to/lastmile_qr_scan", "ios": "https://dc.lft.to/lastmile_qr_scan"}, "fusion_lon": 0.0, "lat": 38.9050225, "bike_id": "02a3d321c2d083ece37372a1aad714c6", "type": "electric_scooter", "is_reserved": 0, "lon": -77.0477825}, {"fusion_lat": 0.0, "name": "2b5f8061e3720ba3beb50d150cb24176", "is_disabled": 0, "rental_uris": {"android": "https://dc.lft.to/lastmile_qr_scan", "ios": "https://dc.lft.to/lastmile_qr_scan"}, "fusion_lon": 0.0, "lat": 38.912053, "bike_id": "2b5f8061e3720ba3beb50d150cb24176", "type": "electric_scooter", "is_reserved": 0, "lon": -77.032116}, {"fusion_lat": 0.0, "name": "38c77d64f9f0cb3e0670290dffdeb36a", "is_disabled": 0, "rental_uris": {"android": "https://dc.lft.to/lastmile_qr_scan", "ios": "https://dc.lft.to/lastmile_qr_scan"}, "fusion_lon": 0.0, "lat": 38.923219833333334, "bike_id": "38c77d64f9f0cb3e0670290dffdeb36a", "type": "electric_scooter", "is_reserved": 0, "lon": -77.035853}, {"fusion_lat": 0.0, "name": "9a0781bb9373b972e598690759cc3e44", "is_disabled": 0, "rental_uris": {"android": "https://dc.lft.to/lastmile_qr_scan", "ios": "https://dc.lft.to/lastmile_qr_scan"}, "fusion_lon": 0.0, "lat": 38.87650633333333, "bike_id": "9a0781bb9373b972e598690759cc3e44", "type": "electric_scooter", "is_reserved": 0, "lon": -77.00128733333334}, {"fusion_lat": 0.0, "name": "7678b0d937e744565773c1f366fcadb8", "is_disabled": 0, "rental_uris": {"android": "https://dc.lft.to/lastmile_qr_scan", "ios": "https://dc.lft.to/lastmile_qr_scan"}, "fusion_lon": 0.0, "lat": 38.90624583333334, "bike_id": "7678b0d937e744565773c1f366fcadb8", "type": "electric_scooter", "is_reserved": 0, "lon": -77.02616383333333}, {"fusion_lat": 0.0, "name": "847c7cfecad5d7fe71562947973d47e3", "is_disabled": 0, "rental_uris": {"android": "https://dc.lft.to/lastmile_qr_scan", "ios": "https://dc.lft.to/lastmile_qr_scan"}, "fusion_lon": 0.0, "lat": 38.905061833333335, "bike_id": "847c7cfecad5d7fe71562947973d47e3", "type": "electric_scooter", "is_reserved": 0, "lon": -77.048224}, {"fusion_lat": 0.0, "name": "cd3daf681739295f6eadaf34766b693e", "is_disabled": 0, "rental_uris": {"android": "https://dc.lft.to/lastmile_qr_scan", "ios": "https://dc.lft.to/lastmile_qr_scan"}, "fusion_lon": 0.0, "lat": 38.907134, "bike_id": "cd3daf681739295f6eadaf34766b693e", "type": "electric_scooter", "is_reserved": 0, "lon": -77.04342116666666}, {"fusion_lat": 0.0, "name": "8af44cd2ae5a75cf2ccabb1db81705ba", "is_disabled": 0, "rental_uris": {"android": "https://dc.lft.to/lastmile_qr_scan", "ios": "https://dc.lft.to/lastmile_qr_scan"}, "fusion_lon": 0.0, "lat": 38.92376566666667, "bike_id": "8af44cd2ae5a75cf2ccabb1db81705ba", "type": "electric_scooter", "is_reserved": 0, "lon": -77.05257583333334}, {"fusion_lat": 0.0, "name": "8137a7ac9a02e593706451f40478bde3", "is_disabled": 0, "rental_uris": {"android": "https://dc.lft.to/lastmile_qr_scan", "ios": "https://dc.lft.to/lastmile_qr_scan"}, "fusion_lon": 0.0, "lat": 38.95371766666667, "bike_id": "8137a7ac9a02e593706451f40478bde3", "type": "electric_scooter", "is_reserved": 0, "lon": -76.99844933333333}, {"fusion_lat": 0.0, "name": "3d985842db73f49d7c2d3693d1b8e4f5", "is_disabled": 0, "rental_uris": {"android": "https://dc.lft.to/lastmile_qr_scan", "ios": "https://dc.lft.to/lastmile_qr_scan"}, "fusion_lon": 0.0, "lat": 38.831418166666666, "bike_id": "3d985842db73f49d7c2d3693d1b8e4f5", "type": "electric_bike", "is_reserved": 0, "lon": -77.05342416666667}, {"fusion_lat": 0.0, "name": "d991cd3929db714276198b240a4237c3", "is_disabled": 0, "rental_uris": {"android": "https://dc.lft.to/lastmile_qr_scan", "ios": "https://dc.lft.to/lastmile_qr_scan"}, "fusion_lon": 0.0, "lat": 38.9199765, "bike_id": "d991cd3929db714276198b240a4237c3", "type": "electric_scooter", "is_reserved": 0, "lon": -77.02164433333333}, {"fusion_lat": 0.0, "name": "2e1519dcb5ceba3321de0dde1c9593ee", "is_disabled": 0, "rental_uris": {"android": "https://dc.lft.to/lastmile_qr_scan", "ios": "https://dc.lft.to/lastmile_qr_scan"}, "fusion_lon": 0.0, "lat": 38.90063883333333, "bike_id": "2e1519dcb5ceba3321de0dde1c9593ee", "type": "electric_scooter", "is_reserved": 0, "lon": -76.93388433333334}, {"fusion_lat": 0.0, "name": "893ee6fc6889235205fdad87a39acb52", "is_disabled": 0, "rental_uris": {"android": "https://dc.lft.to/lastmile_qr_scan", "ios": "https://dc.lft.to/lastmile_qr_scan"}, "fusion_lon": 0.0, "lat": 38.92873083333333, "bike_id": "893ee6fc6889235205fdad87a39acb52", "type": "electric_scooter", "is_reserved": 0, "lon": -77.03344833333334}, {"fusion_lat": 0.0, "name": "ac10a262089bd22692ac4889edc1b3bd", "is_disabled": 0, "rental_uris": {"android": "https://dc.lft.to/lastmile_qr_scan", "ios": "https://dc.lft.to/lastmile_qr_scan"}, "fusion_lon": 0.0, "lat": 38.933, "bike_id": "ac10a262089bd22692ac4889edc1b3bd", "type": "electric_scooter", "is_reserved": 0, "lon": -77.0309195}, {"fusion_lat": 0.0, "name": "1d7ebcdc00e4bbf407393fcfdf76769f", "is_disabled": 0, "rental_uris": {"android": "https://dc.lft.to/lastmile_qr_scan", "ios": "https://dc.lft.to/lastmile_qr_scan"}, "fusion_lon": 0.0, "lat": 38.874760333333334, "bike_id": "1d7ebcdc00e4bbf407393fcfdf76769f", "type": "electric_scooter", "is_reserved": 0, "lon": -77.0058705}, {"fusion_lat": 0.0, "name": "fdb2700807f8ae42083f656631522a7e", "is_disabled": 0, "rental_uris": {"android": "https://dc.lft.to/lastmile_qr_scan", "ios": "https://dc.lft.to/lastmile_qr_scan"}, "fusion_lon": 0.0, "lat": 38.905357333333335, "bike_id": "fdb2700807f8ae42083f656631522a7e", "type": "electric_scooter", "is_reserved": 0, "lon": -77.04303}, {"fusion_lat": 0.0, "name": "118aafb652d0476ad49b1fbf8b86a59f", "is_disabled": 0, "rental_uris": {"android": "https://dc.lft.to/lastmile_qr_scan", "ios": "https://dc.lft.to/lastmile_qr_scan"}, "fusion_lon": 0.0, "lat": 38.92142483333333, "bike_id": "118aafb652d0476ad49b1fbf8b86a59f", "type": "electric_scooter", "is_reserved": 0, "lon": -77.04347783333333}, {"fusion_lat": 0.0, "name": "173bdf7a2f612ebac4987b9170124da5", "is_disabled": 0, "rental_uris": {"android": "https://dc.lft.to/lastmile_qr_scan", "ios": "https://dc.lft.to/lastmile_qr_scan"}, "fusion_lon": 0.0, "lat": 38.9064005, "bike_id": "173bdf7a2f612ebac4987b9170124da5", "type": "electric_scooter", "is_reserved": 0, "lon": -77.06293816666667}, {"fusion_lat": 0.0, "name": "a803918a462e027a8551b8aaba32a611", "is_disabled": 0, "rental_uris": {"android": "https://dc.lft.to/lastmile_qr_scan", "ios": "https://dc.lft.to/lastmile_qr_scan"}, "fusion_lon": 0.0, "lat": 38.90563866666667, "bike_id": "a803918a462e027a8551b8aaba32a611", "type": "electric_scooter", "is_reserved": 0, "lon": -77.00566116666667}, {"fusion_lat": 0.0, "name": "6b667ad253b3ccb42b762bff702f9568", "is_disabled": 0, "rental_uris": {"android": "https://dc.lft.to/lastmile_qr_scan", "ios": "https://dc.lft.to/lastmile_qr_scan"}, "fusion_lon": 0.0, "lat": 38.92421433333333, "bike_id": "6b667ad253b3ccb42b762bff702f9568", "type": "electric_scooter", "is_reserved": 0, "lon": -77.04461233333333}, {"fusion_lat": 0.0, "name": "50b157269ae8de897143533b70ebe305", "is_disabled": 0, "rental_uris": {"android": "https://dc.lft.to/lastmile_qr_scan", "ios": "https://dc.lft.to/lastmile_qr_scan"}, "fusion_lon": 0.0, "lat": 38.87092283333333, "bike_id": "50b157269ae8de897143533b70ebe305", "type": "electric_scooter", "is_reserved": 0, "lon": -77.0121475}, {"fusion_lat": 0.0, "name": "9c71f06b2a077fe9db47254f06fc6aaf", "is_disabled": 0, "rental_uris": {"android": "https://dc.lft.to/lastmile_qr_scan", "ios": "https://dc.lft.to/lastmile_qr_scan"},