{"data": {"bikes": [{"lon": -77.0279225, "bike_id": "1a04a083c81059a661e256c7d711f867", "lat": 38.95402766666667, "fusion_lon": 0.0, "fusion_lat": 0.0, "type": "electric_scooter", "name": "1a04a083c81059a661e256c7d711f867", "is_disabled": 0, "rental_uris": {"ios": "https://dc.lft.to/lastmile_qr_scan", "android": "https://dc.lft.to/lastmile_qr_scan"}, "is_reserved": 0}, {"lon": -77.0209315, "bike_id": "e3e0043fb3d7786275f4f49a6338b2df", "lat": 38.929119166666666, "fusion_lon": 0.0, "fusion_lat": 0.0, "type": "electric_scooter", "name": "e3e0043fb3d7786275f4f49a6338b2df", "is_disabled": 0, "rental_uris": {"ios": "https://dc.lft.to/lastmile_qr_scan", "android": "https://dc.lft.to/lastmile_qr_scan"}, "is_reserved": 0}, {"lon": -77.00747283333334, "bike_id": "980e8ff72696ae3021687d22685d67e5", "lat": 38.925278, "fusion_lon": 0.0, "fusion_lat": 0.0, "type": "electric_scooter", "name": "980e8ff72696ae3021687d22685d67e5", "is_disabled": 0, "rental_uris": {"ios": "https://dc.lft.to/lastmile_qr_scan", "android": "https://dc.lft.to/lastmile_qr_scan"}, "is_reserved": 0}, {"lon": -77.02165133333334, "bike_id": "f91506240c5df8532471d82222be9e24", "lat": 38.89727883333333, "fusion_lon": 0.0, "fusion_lat": 0.0, "type": "electric_scooter", "name": "f91506240c5df8532471d82222be9e24", "is_disabled": 0, "rental_uris": {"ios": "https://dc.lft.to/lastmile_qr_scan", "android": "https://dc.lft.to/lastmile_qr_scan"}, "is_reserved": 0}, {"lon": -77.04345633333334, "bike_id": "5f0905050e8341b83ab28178e1927a75", "lat": 38.91046683333333, "fusion_lon": 0.0, "fusion_lat": 0.0, "type": "electric_scooter", "name": "5f0905050e8341b83ab28178e1927a75", "is_disabled": 0, "rental_uris": {"ios": "https://dc.lft.to/lastmile_qr_scan", "android": "https://dc.lft.to/lastmile_qr_scan"}, "is_reserved": 0}, {"lon": -77.0364105, "bike_id": "50ced6bdea89faf8eb5688643951b9e8", "lat": 38.91273233333333, "fusion_lon": 0.0, "fusion_lat": 0.0, "type": "electric_scooter", "name": "50ced6bdea89faf8eb5688643951b9e8", "is_disabled": 0, "rental_uris": {"ios": "https://dc.lft.to/lastmile_qr_scan", "android": "https://dc.lft.to/lastmile_qr_scan"}, "is_reserved": 0}, {"lon": -77.04339933333333, "bike_id": "7659d5b4a04948fac5d642d5b86991e4", "lat": 38.9104425, "fusion_lon": 0.0, "fusion_lat": 0.0, "type": "electric_scooter", "name": "7659d5b4a04948fac5d642d5b86991e4", "is_disabled": 0, "rental_uris": {"ios": "https://dc.lft.to/lastmile_qr_scan", "android": "https://dc.lft.to/lastmile_qr_scan"}, "is_reserved": 0}, {"lon": -77.05734283333334, "bike_id": "104d686573152cc1c1154999cc5032e3", "lat": 38.92429683333334, "fusion_lon": 0.0, "fusion_lat": 0.0, "type": "electric_scooter", "name": "104d686573152cc1c1154999cc5032e3", "is_disabled": 0, "rental_uris": {"ios": "https://dc.lft.to/lastmile_qr_scan", "android": "https://dc.lft.to/lastmile_qr_scan"}, "is_reserved": 0}, {"lon": -77.02239833333333, "bike_id": "8774d6cbf21aad7c578dab7713cdc30b", "lat": 38.90863066666667, "fusion_lon": 0.0, "fusion_lat": 0.0, "type": "electric_scooter", "name": "8774d6cbf21aad7c578dab7713cdc30b", "is_disabled": 0, "rental_uris": {"ios": "https://dc.lft.to/lastmile_qr_scan", "android": "https://dc.lft.to/lastmile_qr_scan"}, "is_reserved": 0}, {"lon": -77.03334566666666, "bike_id": "9814fcfde0998f24489e4d30fec1f55c", "lat": 38.960474833333336, "fusion_lon": 0.0, "fusion_lat": 0.0, "type": "electric_scooter", "name": "9814fcfde0998f24489e4d30fec1f55c", "is_disabled": 0, "rental_uris": {"ios": "https://dc.lft.to/lastmile_qr_scan", "android": "https://dc.lft.to/lastmile_qr_scan"}, "is_reserved": 0}, {"lon": -77.01982266666667, "bike_id": "79a3bfe97d2b6918e598cec4c5b3c10e", "lat": 38.91099666666667, "fusion_lon": 0.0, "fusion_lat": 0.0, "type": "electric_scooter", "name": "79a3bfe97d2b6918e598cec4c5b3c10e", "is_disabled": 0, "rental_uris": {"ios": "https://dc.lft.to/lastmile_qr_scan", "android": "https://dc.lft.to/lastmile_qr_scan"}, "is_reserved": 0}, {"lon": -77.0312365, "bike_id": "41d509b8b03ed9e972a2ed0e0d250bfe", "lat": 38.98826583333334, "fusion_lon": 0.0, "fusion_lat": 0.0, "type": "electric_scooter", "name": "41d509b8b03ed9e972a2ed0e0d250bfe", "is_disabled": 0, "rental_uris": {"ios": "https://dc.lft.to/lastmile_qr_scan", "android": "https://dc.lft.to/lastmile_qr_scan"}, "is_reserved": 0}, {"lon": -77.22802816666666, "bike_id": "d011f015af5b18dd40aca07deab14cf7", "lat": 38.9101075, "fusion_lon": 0.0, "fusion_lat": 0.0, "type": "electric_bike", "name": "d011f015af5b18dd40aca07deab14cf7", "is_disabled": 0, "rental_uris": {"ios": "https://dc.lft.to/lastmile_qr_scan", "android": "https://dc.lft.to/lastmile_qr_scan"}, "is_reserved": 0}, {"lon": -77.02262383333333, "bike_id": "f25371b8019001c9537af3cd233cfb89", "lat": 38.928253, "fusion_lon": 0.0, "fusion_lat": 0.0, "type": "electric_scooter", "name": "f25371b8019001c9537af3cd233cfb89", "is_disabled": 0, "rental_uris": {"ios": "https://dc.lft.to/lastmile_qr_scan", "android": "https://dc.lft.to/lastmile_qr_scan"}, "is_reserved": 0}, {"lon": -76.96381783333334, "bike_id": "28093845a8e426eb6bd3512f31aa2002", "lat": 38.951809, "fusion_lon": 0.0, "fusion_lat": 0.0, "type": "electric_bike", "name": "28093845a8e426eb6bd3512f31aa2002", "is_disabled": 0, "rental_uris": {"ios": "https://dc.lft.to/lastmile_qr_scan", "android": "https://dc.lft.to/lastmile_qr_scan"}, "is_reserved": 0}, {"lon": -77.04330283333333, "bike_id": "577cd469110cdf1f4796f3eb4082fbe8", "lat": 38.9071885, "fusion_lon": 0.0, "fusion_lat": 0.0, "type": "electric_scooter", "name": "577cd469110cdf1f4796f3eb4082fbe8", "is_disabled": 0, "rental_uris": {"ios": "https://dc.lft.to/lastmile_qr_scan", "android": "https://dc.lft.to/lastmile_qr_scan"}, "is_reserved": 0}, {"lon": -77.0035585, "bike_id": "4069d3d30855f4f928245043dc21403f", "lat": 38.89926066666666, "fusion_lon": 0.0, "fusion_lat": 0.0, "type": "electric_scooter", "name": "4069d3d30855f4f928245043dc21403f", "is_disabled": 0, "rental_uris": {"ios": "https://dc.lft.to/lastmile_qr_scan", "android": "https://dc.lft.to/lastmile_qr_scan"}, "is_reserved": 0}, {"lon": -77.0531235, "bike_id": "a98576ce50e9389190c3f747138fbf28", "lat": 38.940989, "fusion_lon": 0.0, "fusion_lat": 0.0, "type": "electric_bike", "name": "a98576ce50e9389190c3f747138fbf28", "is_disabled": 0, "rental_uris": {"ios": "https://dc.lft.to/lastmile_qr_scan", "android": "https://dc.lft.to/lastmile_qr_scan"}, "is_reserved": 0}, {"lon": -77.048693, "bike_id": "dc5532c1be50d879e630215ea3c37b3a", "lat": 38.892202833333336, "fusion_lon": 0.0, "fusion_lat": 0.0, "type": "electric_scooter", "name": "dc5532c1be50d879e630215ea3c37b3a", "is_disabled": 0, "rental_uris": {"ios": "https://dc.lft.to/lastmile_qr_scan", "android": "https://dc.lft.to/lastmile_qr_scan"}, "is_reserved": 0}, {"lon": -77.0387055, "bike_id": "2a7b1118bc64c332f7f5d0f79414060c", "lat": 38.915645833333336, "fusion_lon": 0.0, "fusion_lat": 0.0, "type": "electric_scooter", "name": "2a7b1118bc64c332f7f5d0f79414060c", "is_disabled": 0, "rental_uris": {"ios": "https://dc.lft.to/lastmile_qr_scan", "android": "https://dc.lft.to/lastmile_qr_scan"}, "is_reserved": 0}, {"lon": -77.03446133333334, "bike_id": "f6d20c3f2b0e032c5f15d61bb59909af", "lat": 38.90964683333333, "fusion_lon": 0.0, "fusion_lat": 0.0, "type": "electric_scooter", "name": "f6d20c3f2b0e032c5f15d61bb59909af", "is_disabled": 0, "rental_uris": {"ios": "https://dc.lft.to/lastmile_qr_scan", "android": "https://dc.lft.to/lastmile_qr_scan"}, "is_reserved": 0}, {"lon": -77.00644666666666, "bike_id": "ab2f459acee1b8067fe17c2b59e67f1d", "lat": 38.92618566666667, "fusion_lon": 0.0, "fusion_lat": 0.0, "type": "electric_scooter", "name": "ab2f459acee1b8067fe17c2b59e67f1d", "is_disabled": 0, "rental_uris": {"ios": "https://dc.lft.to/lastmile_qr_scan", "android": "https://dc.lft.to/lastmile_qr_scan"}, "is_reserved": 0}, {"lon": -77.00239133333334, "bike_id": "56a216642f5b3a039c3d6d0bf4e17485", "lat": 38.900282, "fusion_lon": 0.0, "fusion_lat": 0.0, "type": "electric_scooter", "name": "56a216642f5b3a039c3d6d0bf4e17485", "is_disabled": 0, "rental_uris": {"ios": "https://dc.lft.to/lastmile_qr_scan", "android": "https://dc.lft.to/lastmile_qr_scan"}, "is_reserved": 0}, {"lon": -76.97480266666666, "bike_id": "595d75009b88faf1bb36d97f35108a6d", "lat": 38.903485, "fusion_lon": 0.0, "fusion_lat": 0.0, "type": "electric_scooter", "name": "595d75009b88faf1bb36d97f35108a6d", "is_disabled": 0, "rental_uris": {"ios": "https://dc.lft.to/lastmile_qr_scan", "android": "https://dc.lft.to/lastmile_qr_scan"}, "is_reserved": 0}, {"lon": -77.06515366666666, "bike_id": "9324cb59f23be59a9517bdbf7139e3e5", "lat": 38.90394, "fusion_lon": 0.0, "fusion_lat": 0.0, "type": "electric_scooter", "name": "9324cb59f23be59a9517bdbf7139e3e5", "is_disabled": 0, "rental_uris": {"ios": "https://dc.lft.to/lastmile_qr_scan", "android": "https://dc.lft.to/lastmile_qr_scan"}, "is_reserved": 0}, {"lon": -77.03422066666667, "bike_id": "5d195cc14ef3bdfd4b65aeb570d94606", "lat": 38.905524, "fusion_lon": 0.0, "fusion_lat": 0.0, "type": "electric_scooter", "name": "5d195cc14ef3bdfd4b65aeb570d94606", "is_disabled": 0, "rental_uris": {"ios": "https://dc.lft.to/lastmile_qr_scan", "android": "https://dc.lft.to/lastmile_qr_scan"}, "is_reserved": 0}, {"lon": -77.012894, "bike_id": "c700abff983c28ae529b38282345c82b", "lat": 38.92017933333333, "fusion_lon": 0.0, "fusion_lat": 0.0, "type": "electric_scooter", "name": "c700abff983c28ae529b38282345c82b", "is_disabled": 0, "rental_uris": {"ios": "https://dc.lft.to/lastmile_qr_scan", "android": "https://dc.lft.to/lastmile_qr_scan"}, "is_reserved": 0}, {"lon": -76.9901885, "bike_id": "d6a8e2379704d95c0656b957451c5cab", "lat": 38.86644533333333, "fusion_lon": 0.0, "fusion_lat": 0.0, "type": "electric_scooter", "name": "d6a8e2379704d95c0656b957451c5cab", "is_disabled": 0, "rental_uris": {"ios": "https://dc.lft.to/lastmile_qr_scan", "android": "https://dc.lft.to/lastmile_qr_scan"}, "is_reserved": 0}, {"lon": -77.08070016666667, "bike_id": "5c732077feb54a776c94141e2b0827eb", "lat": 39.05278466666667, "fusion_lon": 0.0, "fusion_lat": 0.0, "type": "electric_bike", "name": "5c732077feb54a776c94141e2b0827eb", "is_disabled": 0, "rental_uris": {"ios": "https://dc.lft.to/lastmile_qr_scan", "android": "https://dc.lft.to/lastmile_qr_scan"}, "is_reserved": 0}, {"lon": -77.01943216666666, "bike_id": "2c501f775a0c2d85e84686bbb31f32ec", "lat": 38.93528633333333, "fusion_lon": 0.0, "fusion_lat": 0.0, "type": "electric_scooter", "name": "2c501f775a0c2d85e84686bbb31f32ec", "is_disabled": 0, "rental_uris": {"ios": "https://dc.lft.to/lastmile_qr_scan", "android": "https://dc.lft.to/lastmile_qr_scan"}, "is_reserved": 0}, {"lon": -76.99088816666666, "bike_id": "1d7e6f7bcc5c7aee96252745db1c4a58", "lat": 38.862333, "fusion_lon": 0.0, "fusion_lat": 0.0, "type": "electric_bike", "name": "1d7e6f7bcc5c7aee96252745db1c4a58", "is_disabled": 0, "rental_uris": {"ios": "https://dc.lft.to/lastmile_qr_scan", "android": "https://dc.lft.to/lastmile_qr_scan"}, "is_reserved": 0}, {"lon": -76.99532216666667, "bike_id": "5f93367f01dc59893b771642e8b36e5b", "lat": 38.883683166666664, "fusion_lon": 0.0, "fusion_lat": 0.0, "type": "electric_scooter", "name": "5f93367f01dc59893b771642e8b36e5b", "is_disabled": 0, "rental_uris": {"ios": "https://dc.lft.to/lastmile_qr_scan", "android": "https://dc.lft.to/lastmile_qr_scan"}, "is_reserved": 0}, {"lon": -77.02431483333334, "bike_id": "a4b431a4ffdcc99f00bab2a538088139", "lat": 38.92344083333333, "fusion_lon": 0.0, "fusion_lat": 0.0, "type": "electric_scooter", "name": "a4b431a4ffdcc99f00bab2a538088139", "is_disabled": 0, "rental_uris": {"ios": "https://dc.lft.to/lastmile_qr_scan", "android": "https://dc.lft.to/lastmile_qr_scan"}, "is_reserved": 0}, {"lon": -77.050559, "bike_id": "6af82f1ce78448f0093fc01e2512a9fa", "lat": 38.9258035, "fusion_lon": 0.0, "fusion_lat": 0.0, "type": "electric_scooter", "name": "6af82f1ce78448f0093fc01e2512a9fa", "is_disabled": 0, "rental_uris": {"ios": "https://dc.lft.to/lastmile_qr_scan", "android": "https://dc.lft.to/lastmile_qr_scan"}, "is_reserved": 0}, {"lon": -77.04117216666667, "bike_id": "c00ea364646a3cf3d2e64e0a779197f2", "lat": 38.90642366666667, "fusion_lon": 0.0, "fusion_lat": 0.0, "type": "electric_scooter", "name": "c00ea364646a3cf3d2e64e0a779197f2", "is_disabled": 0, "rental_uris": {"ios": "https://dc.lft.to/lastmile_qr_scan", "android": "https://dc.lft.to/lastmile_qr_scan"}, "is_reserved": 0}, {"lon": -77.03762033333334, "bike_id": "759883fdc818b165d5552595da6f7d99", "lat": 38.9288195, "fusion_lon": 0.0, "fusion_lat": 0.0, "type": "electric_scooter", "name": "759883fdc818b165d5552595da6f7d99", "is_disabled": 0, "rental_uris": {"ios": "https://dc.lft.to/lastmile_qr_scan", "android": "https://dc.lft.to/lastmile_qr_scan"}, "is_reserved": 0}, {"lon": -77.0328615, "bike_id": "565affe859d236dcfb9e35a4902a47b2", "lat": 38.93881533333333, "fusion_lon": 0.0, "fusion_lat": 0.0, "type": "electric_scooter", "name": "565affe859d236dcfb9e35a4902a47b2", "is_disabled": 0, "rental_uris": {"ios": "https://dc.lft.to/lastmile_qr_scan", "android": "https://dc.lft.to/lastmile_qr_scan"}, "is_reserved": 0}, {"lon": -76.98454966666667, "bike_id": "f90895099b02ec7bc21c2ed933781363", "lat": 38.90550316666667, "fusion_lon": 0.0, "fusion_lat": 0.0, "type": "electric_scooter", "name": "f90895099b02ec7bc21c2ed933781363", "is_disabled": 0, "rental_uris": {"ios": "https://dc.lft.to/lastmile_qr_scan", "android": "https://dc.lft.to/lastmile_qr_scan"}, "is_reserved": 0}, {"lon": -76.99176183333333, "bike_id": "95cd02aed05e1ef879603b7919a2ace7", "lat": 38.889896666666665, "fusion_lon": 0.0, "fusion_lat": 0.0, "type": "electric_scooter", "name": "95cd02aed05e1ef879603b7919a2ace7", "is_disabled": 0, "rental_uris": {"ios": "https://dc.lft.to/lastmile_qr_scan", "android": "https://dc.lft.to/lastmile_qr_scan"}, "is_reserved": 0}, {"lon": -77.00347366666666, "bike_id": "fc910a809c2568ec008607b77fa2427b", "lat": 38.91624266666667, "fusion_lon": 0.0, "fusion_lat": 0.0, "type": "electric_scooter", "name": "fc910a809c2568ec008607b77fa2427b", "is_disabled": 0, "rental_uris": {"ios": "https://dc.lft.to/lastmile_qr_scan", "android": "https://dc.lft.to/lastmile_qr_scan"}, "is_reserved": 0}, {"lon": -77.030362, "bike_id": "d80eeb7f651b3506f5290b7404cd0ea7", "lat": 38.937143666666664, "fusion_lon": 0.0, "fusion_lat": 0.0, "type": "electric_scooter", "name": "d80eeb7f651b3506f5290b7404cd0ea7", "is_disabled": 0, "rental_uris": {"ios": "https://dc.lft.to/lastmile_qr_scan", "android": "https://dc.lft.to/lastmile_qr_scan"}, "is_reserved": 0}, {"lon": -77.0271225, "bike_id": "70552a85827598d05184f445acd2981c", "lat": 38.9228485, "fusion_lon": 0.0, "fusion_lat": 0.0, "type": "electric_scooter", "name": "70552a85827598d05184f445acd2981c", "is_disabled": 0, "rental_uris": {"ios": "https://dc.lft.to/lastmile_qr_scan", "android": "https://dc.lft.to/lastmile_qr_scan"}, "is_reserved": 0}, {"lon": -77.04331683333334, "bike_id": "5e3581a3b911f0a325a956a4edea2c79", "lat": 38.922199166666665, "fusion_lon": 0.0, "fusion_lat": 0.0, "type": "electric_scooter", "name": "5e3581a3b911f0a325a956a4edea2c79", "is_disabled": 0, "rental_uris": {"ios": "https://dc.lft.to/lastmile_qr_scan", "android": "https://dc.lft.to/lastmile_qr_scan"}, "is_reserved": 0}, {"lon": -77.02820133333333, "bike_id": "6b17aed2443d71048609392cc059bcdc", "lat": 38.895292166666664, "fusion_lon": 0.0, "fusion_lat": 0.0, "type": "electric_scooter", "name": "6b17aed2443d71048609392cc059bcdc", "is_disabled": 0, "rental_uris": {"ios": "https://dc.lft.to/lastmile_qr_scan", "android": "https://dc.lft.to/lastmile_qr_scan"}, "is_reserved": 0}, {"lon": -77.03818816666667, "bike_id": "0fa996304ac311bb75489fd3accc9eea", "lat": 38.909746166666665, "fusion_lon": 0.0, "fusion_lat": 0.0, "type": "electric_scooter", "name": "0fa996304ac311bb75489fd3accc9eea", "is_disabled": 0, "rental_uris": {"ios": "https://dc.lft.to/lastmile_qr_scan", "android": "https://dc.lft.to/lastmile_qr_scan"}, "is_reserved": 0}, {"lon": -77.04719683333333, "bike_id": "014189a7d22d580d505d946305f75b4a", "lat": 38.90324783333333, "fusion_lon": 0.0, "fusion_lat": 0.0, "type": "electric_scooter", "name": "014189a7d22d580d505d946305f75b4a", "is_disabled": 0, "rental_uris": {"ios": "https://dc.lft.to/lastmile_qr_scan", "android": "https://dc.lft.to/lastmile_qr_scan"}, "is_reserved": 0}, {"lon": -77.04468483333333, "bike_id": "fddf6b9909c68899fce93183e3f43f8c", "lat": 38.9243215, "fusion_lon": 0.0, "fusion_lat": 0.0, "type": "electric_scooter", "name": "fddf6b9909c68899fce93183e3f43f8c", "is_disabled": 0, "rental_uris": {"ios": "https://dc.lft.to/lastmile_qr_scan", "android": "https://dc.lft.to/lastmile_qr_scan"}, "is_reserved": 0}, {"lon": -77.0848465, "bike_id": "d5367f93bd69c22908818c9e42d20bfa", "lat": 38.8484395, "fusion_lon": 0.0, "fusion_lat": 0.0, "type": "electric_bike", "name": "d5367f93bd69c22908818c9e42d20bfa", "is_disabled": 0, "rental_uris": {"ios": "https://dc.lft.to/lastmile_qr_scan", "android": "https://dc.lft.to/lastmile_qr_scan"}, "is_reserved": 0}, {"lon": -76.94589433333333, "bike_id": "ca90a51c4f9bb4c20adae45850a2b03f", "lat": 38.901434333333334, "fusion_lon": 0.0, "fusion_lat": 0.0, "type": "electric_scooter", "name": "ca90a51c4f9bb4c20adae45850a2b03f", "is_disabled": 0, "rental_uris": {"ios": "https://dc.lft.to/lastmile_qr_scan", "android": "https://dc.lft.to/lastmile_qr_scan"}, "is_reserved": 0}, {"lon": -76.931884, "bike_id": "1d746820b7ac2ea8ab68c47857fa9c77", "lat": 38.898755333333334, "fusion_lon": 0.0, "fusion_lat": 0.0, "type": "electric_scooter", "name": "1d746820b7ac2ea8ab68c47857fa9c77", "is_disabled": 0, "rental_uris": {"ios": "https://dc.lft.to/lastmile_qr_scan", "android": "https://dc.lft.to/lastmile_qr_scan"}, "is_reserved": 0}, {"lon": -77.02165816666667, "bike_id": "de2ee3ad06195ddb56add9c695b9520f", "lat": 38.8974295, "fusion_lon": 0.0, "fusion_lat": 0.0, "type": "electric_scooter", "name": "de2ee3ad06195ddb56add9c695b9520f", "is_disabled": 0, "rental_uris": {"ios": "https://dc.lft.to/lastmile_qr_scan", "android": "https://dc.lft.to/lastmile_qr_scan"}, "is_reserved": 0}, {"lon": -77.02711983333333, "bike_id": "3a699f3c0b31dfc0bdaeefdda9aa708b", "lat": 38.904154, "fusion_lon": 0.0, "fusion_lat": 0.0, "type": "electric_scooter", "name": "3a699f3c0b31dfc0bdaeefdda9aa708b", "is_disabled": 0, "rental_uris": {"ios": "https://dc.lft.to/lastmile_qr_scan", "android": "https://dc.lft.to/lastmile_qr_scan"}, "is_reserved": 0}, {"lon": -77.03996533333333, "bike_id": "0fef47eef00f684d474e0bfafb8b2227", "lat": 38.9342685, "fusion_lon": 0.0, "fusion_lat": 0.0, "type": "electric_scooter", "name": "0fef47eef00f684d474e0bfafb8b2227", "is_disabled": 0, "rental_uris": {"ios": "https://dc.lft.to/lastmile_qr_scan", "android": "https://dc.lft.to/lastmile_qr_scan"}, "is_reserved": 0}, {"lon": -76.97395683333333, "bike_id": "cafb72b22bd5a3a3084afdd020e6b4e0", "lat": 38.90295733333333, "fusion_lon": 0.0, "fusion_lat": 0.0, "type": "electric_scooter", "name": "cafb72b22bd5a3a3084afdd020e6b4e0", "is_disabled": 0, "rental_uris": {"ios": "https://dc.lft.to/lastmile_qr_scan", "android": "https://dc.lft.to/lastmile_qr_scan"}, "is_reserved": 0}, {"lon": -77.04212833333334, "bike_id": "baff26d7a8e54e27d026cb022482f919", "lat": 38.91119666666667, "fusion_lon": 0.0, "fusion_lat": 0.0, "type": "electric_scooter", "name": "baff26d7a8e54e27d026cb022482f919", "is_disabled": 0, "rental_uris": {"ios": "https://dc.lft.to/lastmile_qr_scan", "android": "https://dc.lft.to/lastmile_qr_scan"}, "is_reserved": 0}, {"lon": -77.02407683333334, "bike_id": "43bd6836e8698d2113d3d146e76a711c", "lat": 38.9198925, "fusion_lon": 0.0, "fusion_lat": 0.0, "type": "electric_scooter", "name": "43bd6836e8698d2113d3d146e76a711c", "is_disabled": 0, "rental_uris": {"ios": "https://dc.lft.to/lastmile_qr_scan", "android": "https://dc.lft.to/lastmile_qr_scan"}, "is_reserved": 0}, {"lon": -77.02715933333333, "bike_id": "54a5aa7368e812ffdf1b1514c3c28067", "lat": 38.924667666666664, "fusion_lon": 0.0, "fusion_lat": 0.0, "type": "electric_scooter", "name": "54a5aa7368e812ffdf1b1514c3c28067", "is_disabled": 0, "rental_uris": {"ios": "https://dc.lft.to/lastmile_qr_scan", "android": "https://dc.lft.to/lastmile_qr_scan"}, "is_reserved": 0}, {"lon": -76.98909533333334, "bike_id": "235750f54630c393e6556adac587237e", "lat": 38.8649485, "fusion_lon": 0.0, "fusion_lat": 0.0, "type": "electric_scooter", "name": "235750f54630c393e6556adac587237e", "is_disabled": 0, "rental_uris": {"ios": "https://dc.lft.to/lastmile_qr_scan", "android": "https://dc.lft.to/lastmile_qr_scan"}, "is_reserved": 0}, {"lon": -77.1856155, "bike_id": "71f1117796e959ee9b90e566c0c773ed", "lat": 39.09975383333333, "fusion_lon": 0.0, "fusion_lat": 0.0, "type": "electric_bike", "name": "71f1117796e959ee9b90e566c0c773ed", "is_disabled": 0, "rental_uris": {"ios": "https://dc.lft.to/lastmile_qr_scan", "android": "https://dc.lft.to/lastmile_qr_scan"}, "is_reserved": 0}, {"lon": -76.96256933333333, "bike_id": "77f857056717ab914cbab6eafe88f42e", "lat": 38.8824255, "fusion_lon": 0.0, "fusion_lat": 0.0, "type": "electric_bike", "name": "77f857056717ab914cbab6eafe88f42e", "is_disabled": 0, "rental_uris": {"ios": "https://dc.lft.to/lastmile_qr_scan", "android": "https://dc.lft.to/lastmile_qr_scan"}, "is_reserved": 0}, {"lon": -77.02387433333334, "bike_id": "f88ae0e5b93948fff86d0b3d804c0eb9", "lat": 38.9201245, "fusion_lon": 0.0, "fusion_lat": 0.0, "type": "electric_scooter", "name": "f88ae0e5b93948fff86d0b3d804c0eb9", "is_disabled": 0, "rental_uris": {"ios": "https://dc.lft.to/lastmile_qr_scan", "android": "https://dc.lft.to/lastmile_qr_scan"}, "is_reserved": 0}, {"lon": -76.97749433333334, "bike_id": "5c091fabd069083fd75f5764be487a09", "lat": 38.86491983333333, "fusion_lon": 0.0, "fusion_lat": 0.0, "type": "electric_bike", "name": "5c091fabd069083fd75f5764be487a09", "is_disabled": 0, "rental_uris": {"ios": "https://dc.lft.to/lastmile_qr_scan", "android": "https://dc.lft.to/lastmile_qr_scan"}, "is_reserved": 0}, {"lon": -77.00659116666667, "bike_id": "1e74f056c321443fcb2503367a70ed12", "lat": 38.944641, "fusion_lon": 0.0, "fusion_lat": 0.0, "type": "electric_scooter", "name": "1e74f056c321443fcb2503367a70ed12", "is_disabled": 0, "rental_uris": {"ios": "https://dc.lft.to/lastmile_qr_scan", "android": "https://dc.lft.to/lastmile_qr_scan"}, "is_reserved": 0}, {"lon": -77.03176216666667, "bike_id": "eaf7d72fb3fb585faca168e749132608", "lat": 38.936050333333334, "fusion_lon": 0.0, "fusion_lat": 0.0, "type": "electric_scooter", "name": "eaf7d72fb3fb585faca168e749132608", "is_disabled": 0, "rental_uris": {"ios": "https://dc.lft.to/lastmile_qr_scan", "android": "https://dc.lft.to/lastmile_qr_scan"}, "is_reserved": 0}, {"lon": -77.03438966666667, "bike_id": "cef617b7c0a0f82e8c984ceb671c2019", "lat": 38.910103, "fusion_lon": 0.0, "fusion_lat": 0.0, "type": "electric_scooter", "name": "cef617b7c0a0f82e8c984ceb671c2019", "is_disabled": 0, "rental_uris": {"ios": "https://dc.lft.to/lastmile_qr_scan", "android": "https://dc.lft.to/lastmile_qr_scan"}, "is_reserved": 0}, {"lon": -77.02942216666666, "bike_id": "0726f0103fb265f350d35c31f8d06ac4", "lat": 38.896503, "fusion_lon": 0.0, "fusion_lat": 0.0, "type": "electric_scooter", "name": "0726f0103fb265f350d35c31f8d06ac4", "is_disabled": 0, "rental_uris": {"ios": "https://dc.lft.to/lastmile_qr_scan", "android": "https://dc.lft.to/lastmile_qr_scan"}, "is_reserved": 0}, {"lon": -77.03437566666666, "bike_id": "240dbeb295d6a39766af1422da5d8d4f", "lat": 38.91796183333334, "fusion_lon": 0.0, "fusion_lat": 0.0, "type": "electric_scooter", "name": "240dbeb295d6a39766af1422da5d8d4f", "is_disabled": 0, "rental_uris": {"ios": "https://dc.lft.to/lastmile_qr_scan", "android": "https://dc.lft.to/lastmile_qr_scan"}, "is_reserved": 0}, {"lon": -77.03209333333334, "bike_id": "59ce85a1dedbf0749f659329ef8bcf30", "lat": 38.91920666666667, "fusion_lon": 0.0, "fusion_lat": 0.0, "type": "electric_scooter", "name": "59ce85a1dedbf0749f659329ef8bcf30", "is_disabled": 0, "rental_uris": {"ios": "https://dc.lft.to/lastmile_qr_scan", "android": "https://dc.lft.to/lastmile_qr_scan"}, "is_reserved": 0}, {"lon": -77.048752, "bike_id": "a74a6f7c2e9e936b882db8d14da91eca", "lat": 38.8923025, "fusion_lon": 0.0, "fusion_lat": 0.0, "type": "electric_scooter", "name": "a74a6f7c2e9e936b882db8d14da91eca", "is_disabled": 0, "rental_uris": {"ios": "https://dc.lft.to/lastmile_qr_scan", "android": "https://dc.lft.to/lastmile_qr_scan"}, "is_reserved": 0}, {"lon": -76.9875215, "bike_id": "161862a3ae1b0d9264d3982347fa2873", "lat": 38.90029233333333, "fusion_lon": 0.0, "fusion_lat": 0.0, "type": "electric_scooter", "name": "161862a3ae1b0d9264d3982347fa2873", "is_disabled": 0, "rental_uris": {"ios": "https://dc.lft.to/lastmile_qr_scan", "android": "https://dc.lft.to/lastmile_qr_scan"}, "is_reserved": 0}, {"lon": -77.07007733333333, "bike_id": "9d41fcdaef58e6affd402411c4a0beb2", "lat": 38.958511333333334, "fusion_lon": 0.0, "fusion_lat": 0.0, "type": "electric_scooter", "name": "9d41fcdaef58e6affd402411c4a0beb2", "is_disabled": 0, "rental_uris": {"ios": "https://dc.lft.to/lastmile_qr_scan", "android": "https://dc.lft.to/lastmile_qr_scan"}, "is_reserved": 0}, {"lon": -77.04493083333334, "bike_id": "b682f47ec29694586e445d1311087088", "lat": 38.91731433333333, "fusion_lon": 0.0, "fusion_lat": 0.0, "type": "electric_bike", "name": "b682f47ec29694586e445d1311087088", "is_disabled": 0, "rental_uris": {"ios": "https://dc.lft.to/lastmile_qr_scan", "android": "https://dc.lft.to/lastmile_qr_scan"}, "is_reserved": 0}, {"lon": -77.03937733333333, "bike_id": "95905702aff66a4fddcc75be342bf2f0", "lat": 38.90070733333334, "fusion_lon": 0.0, "fusion_lat": 0.0, "type": "electric_scooter", "name": "95905702aff66a4fddcc75be342bf2f0", "is_disabled": 0, "rental_uris": {"ios": "https://dc.lft.to/lastmile_qr_scan", "android": "https://dc.lft.to/lastmile_qr_scan"}, "is_reserved": 0}, {"lon": -77.01308033333333, "bike_id": "8c28282d8184261f06ce48da198dba63", "lat": 38.9432455, "fusion_lon": 0.0, "fusion_lat": 0.0, "type": "electric_scooter", "name": "8c28282d8184261f06ce48da198dba63", "is_disabled": 0, "rental_uris": {"ios": "https://dc.lft.to/lastmile_qr_scan", "android": "https://dc.lft.to/lastmile_qr_scan"}, "is_reserved": 0}, {"lon": -77.04431366666667, "bike_id": "13df0823baaf87d66aefc33d9d92abd9", "lat": 38.90955, "fusion_lon": 0.0, "fusion_lat": 0.0, "type": "electric_scooter", "name": "13df0823baaf87d66aefc33d9d92abd9", "is_disabled": 0, "rental_uris": {"ios": "https://dc.lft.to/lastmile_qr_scan", "android": "https://dc.lft.to/lastmile_qr_scan"}, "is_reserved": 0}, {"lon": -76.993752, "bike_id": "4f15e1c4ee53e30b14b63659d371ee87", "lat": 38.97184583333333, "fusion_lon": 0.0, "fusion_lat": 0.0, "type": "electric_bike", "name": "4f15e1c4ee53e30b14b63659d371ee87", "is_disabled": 0, "rental_uris": {"ios": "https://dc.lft.to/lastmile_qr_scan", "android": "https://dc.lft.to/lastmile_qr_scan"}, "is_reserved": 0}, {"lon": -77.005752, "bike_id": "c576e8582cc09b068a519e384c29e14e", "lat": 38.8359115, "fusion_lon": 0.0, "fusion_lat": 0.0, "type": "electric_scooter", "name": "c576e8582cc09b068a519e384c29e14e", "is_disabled": 0, "rental_uris": {"ios": "https://dc.lft.to/lastmile_qr_scan", "android": "https://dc.lft.to/lastmile_qr_scan"}, "is_reserved": 0}, {"lon": -77.02672216666667, "bike_id": "72dd653b8ea2d02fa3175340fb33ae7c", "lat": 38.88123916666667, "fusion_lon": 0.0, "fusion_lat": 0.0, "type": "electric_bike", "name": "72dd653b8ea2d02fa3175340fb33ae7c", "is_disabled": 0, "rental_uris": {"ios": "https://dc.lft.to/lastmile_qr_scan", "android": "https://dc.lft.to/lastmile_qr_scan"}, "is_reserved": 0}, {"lon": -77.02322316666667, "bike_id": "b9af0a44da5201caad37bf23fe1cd5b0", "lat": 38.8948935, "fusion_lon": 0.0, "fusion_lat": 0.0, "type": "electric_scooter", "name": "b9af0a44da5201caad37bf23fe1cd5b0", "is_disabled": 0, "rental_uris": {"ios": "https://dc.lft.to/lastmile_qr_scan", "android": "https://dc.lft.to/lastmile_qr_scan"}, "is_reserved": 0}, {"lon": -77.0365325, "bike_id": "2a2fb5b75fe2074279b2652826fe2c9d", "lat": 38.917376833333336, "fusion_lon": 0.0, "fusion_lat": 0.0, "type": "electric_scooter", "name": "2a2fb5b75fe2074279b2652826fe2c9d", "is_disabled": 0, "rental_uris": {"ios": "https://dc.lft.to/lastmile_qr_scan", "android": "https://dc.lft.to/lastmile_qr_scan"}, "is_reserved": 0}, {"lon": -77.0465245, "bike_id": "6122553d653d3769016b387d3a07e4d4", "lat": 38.909573, "fusion_lon": 0.0, "fusion_lat": 0.0, "type": "electric_scooter", "name": "6122553d653d3769016b387d3a07e4d4", "is_disabled": 0, "rental_uris": {"ios": "https://dc.lft.to/lastmile_qr_scan", "android": "https://dc.lft.to/lastmile_qr_scan"}, "is_reserved": 0}, {"lon": -77.04769766666666, "bike_id": "f5c38fe9cbf334fc9d181dc2588a26f0", "lat": 38.917624, "fusion_lon": 0.0, "fusion_lat": 0.0, "type": "electric_scooter", "name": "f5c38fe9cbf334fc9d181dc2588a26f0", "is_disabled": 0, "rental_uris": {"ios": "https://dc.lft.to/lastmile_qr_scan", "android": "https://dc.lft.to/lastmile_qr_scan"}, "is_reserved": 0}, {"lon": -77.02983816666666, "bike_id": "a8488c4878b3e8b4f9c6033df00b415b", "lat": 38.92274466666667, "fusion_lon": 0.0, "fusion_lat": 0.0, "type": "electric_scooter", "name": "a8488c4878b3e8b4f9c6033df00b415b", "is_disabled": 0, "rental_uris": {"ios": "https://dc.lft.to/lastmile_qr_scan", "android": "https://dc.lft.to/lastmile_qr_scan"}, "is_reserved": 0}, {"lon": -76.998095, "bike_id": "cd9b24e261c7c00cefbd5bf88c2b8f12", "lat": 38.82911933333333, "fusion_lon": 0.0, "fusion_lat": 0.0, "type": "electric_bike", "name": "cd9b24e261c7c00cefbd5bf88c2b8f12", "is_disabled": 0, "rental_uris": {"ios": "https://dc.lft.to/lastmile_qr_scan", "android": "https://dc.lft.to/lastmile_qr_scan"}, "is_reserved": 0}, {"lon": -76.95749533333333, "bike_id": "2fc873129050453730cfd6bda29d4466", "lat": 38.88425933333333, "fusion_lon": 0.0, "fusion_lat": 0.0, "type": "electric_scooter", "name": "2fc873129050453730cfd6bda29d4466", "is_disabled": 0, "rental_uris": {"ios": "https://dc.lft.to/lastmile_qr_scan", "android": "https://dc.lft.to/lastmile_qr_scan"}, "is_reserved": 0}, {"lon": -76.98084983333334, "bike_id": "f810536ba3050e9fb993b45fdf269374", "lat": 38.8793695, "fusion_lon": 0.0, "fusion_lat": 0.0, "type": "electric_bike", "name": "f810536ba3050e9fb993b45fdf269374", "is_disabled": 0, "rental_uris": {"ios": "https://dc.lft.to/lastmile_qr_scan", "android": "https://dc.lft.to/lastmile_qr_scan"}, "is_reserved": 0}, {"lon": -77.00339616666666, "bike_id": "185de82b68b08835020d489234cb8ba1", "lat": 38.8918905, "fusion_lon": 0.0, "fusion_lat": 0.0, "type": "electric_scooter", "name": "185de82b68b08835020d489234cb8ba1", "is_disabled": 0, "rental_uris": {"ios": "https://dc.lft.to/lastmile_qr_scan", "android": "https://dc.lft.to/lastmile_qr_scan"}, "is_reserved": 0}, {"lon": -77.02364233333333, "bike_id": "ac2c7859e2c758cc8f3bc770b1b05a8c", "lat": 38.92221033333333, "fusion_lon": 0.0, "fusion_lat": 0.0, "type": "electric_scooter", "name": "ac2c7859e2c758cc8f3bc770b1b05a8c", "is_disabled": 0, "rental_uris": {"ios": "https://dc.lft.to/lastmile_qr_scan", "android": "https://dc.lft.to/lastmile_qr_scan"}, "is_reserved": 0}, {"lon": -77.0014465, "bike_id": "aa2fa7f3bd461035ace0e332063dff46", "lat": 38.91077216666667, "fusion_lon": 0.0, "fusion_lat": 0.0, "type": "electric_scooter", "name": "aa2fa7f3bd461035ace0e332063dff46", "is_disabled": 0, "rental_uris": {"ios": "https://dc.lft.to/lastmile_qr_scan", "android": "https://dc.lft.to/lastmile_qr_scan"}, "is_reserved": 0}, {"lon": -76.9853855, "bike_id": "97ac75ee5cf98fd9575bf1d0c725ad72", "lat": 38.90316133333334, "fusion_lon": 0.0, "fusion_lat": 0.0, "type": "electric_scooter", "name": "97ac75ee5cf98fd9575bf1d0c725ad72", "is_disabled": 0, "rental_uris": {"ios": "https://dc.lft.to/lastmile_qr_scan", "android": "https://dc.lft.to/lastmile_qr_scan"}, "is_reserved": 0}, {"lon": -77.03188733333333, "bike_id": "71447253b5998021c90ccd5e9b5dca39", "lat": 38.897603833333335, "fusion_lon": 0.0, "fusion_lat": 0.0, "type": "electric_scooter", "name": "71447253b5998021c90ccd5e9b5dca39", "is_disabled": 0, "rental_uris": {"ios": "https://dc.lft.to/lastmile_qr_scan", "android": "https://dc.lft.to/lastmile_qr_scan"}, "is_reserved": 0}, {"lon": -77.1171095, "bike_id": "194ea2f1a2a8f7600d9fd6374013c4bb", "lat": 38.867471333333334, "fusion_lon": 0.0, "fusion_lat": 0.0, "type": "electric_bike", "name": "194ea2f1a2a8f7600d9fd6374013c4bb", "is_disabled": 0, "rental_uris": {"ios": "https://dc.lft.to/lastmile_qr_scan", "android": "https://dc.lft.to/lastmile_qr_scan"}, "is_reserved": 0}, {"lon": -77.032134, "bike_id": "bc050d2a49efda97eca3e586fd1bb147", "lat": 38.90732216666667, "fusion_lon": 0.0, "fusion_lat": 0.0, "type": "electric_scooter", "name": "bc050d2a49efda97eca3e586fd1bb147", "is_disabled": 0, "rental_uris": {"ios": "https://dc.lft.to/lastmile_qr_scan", "android": "https://dc.lft.to/lastmile_qr_scan"}, "is_reserved": 0}, {"lon": -77.0405725, "bike_id": "6431ea9ed48e9100f01af69b16a770e5", "lat": 38.92878, "fusion_lon": 0.0, "fusion_lat": 0.0, "type": "electric_scooter", "name": "6431ea9ed48e9100f01af69b16a770e5", "is_disabled": 0, "rental_uris": {"ios": "https://dc.lft.to/lastmile_qr_scan", "android": "https://dc.lft.to/lastmile_qr_scan"}, "is_reserved": 0}, {"lon": -77.00055916666666, "bike_id": "ed7967cb7d3660f2b434e2a95f2c1bed", "lat": 38.923965833333334, "fusion_lon": 0.0, "fusion_lat": 0.0, "type": "electric_scooter", "name": "ed7967cb7d3660f2b434e2a95f2c1bed", "is_disabled": 0, "rental_uris": {"ios": "https://dc.lft.to/lastmile_qr_scan", "android": "https://dc.lft.to/lastmile_qr_scan"}, "is_reserved": 0}, {"lon": -77.0302435, "bike_id": "ac71190308258b3d89440053fa01f03d", "lat": 38.884396, "fusion_lon": 0.0, "fusion_lat": 0.0, "type": "electric_scooter", "name": "ac71190308258b3d89440053fa01f03d", "is_disabled": 0, "rental_uris": {"ios": "https://dc.lft.to/lastmile_qr_scan", "android": "https://dc.lft.to/lastmile_qr_scan"}, "is_reserved": 0}, {"lon": -76.93281083333333, "bike_id": "6a348a36752153d25128eafe1f3a2248", "lat": 38.95424033333333, "fusion_lon": 0.0, "fusion_lat": 0.0, "type": "electric_bike", "name": "6a348a36752153d25128eafe1f3a2248", "is_disabled": 0, "rental_uris": {"ios": "https://dc.lft.to/lastmile_qr_scan", "android": "https://dc.lft.to/lastmile_qr_scan"}, "is_reserved": 0}, {"lon": -77.02308033333334, "bike_id": "882e58ad317c5db2967f198155f7db3b", "lat": 38.91683666666667, "fusion_lon": 0.0, "fusion_lat": 0.0, "type": "electric_scooter", "name": "882e58ad317c5db2967f198155f7db3b", "is_disabled": 0, "rental_uris": {"ios": "https://dc.lft.to/lastmile_qr_scan", "android": "https://dc.lft.to/lastmile_qr_scan"}, "is_reserved": 0}, {"lon": -77.03634016666666, "bike_id": "4e12bfa9d08a9f884c1488f18480c3c0", "lat": 38.9155455, "fusion_lon": 0.0, "fusion_lat": 0.0, "type": "electric_scooter", "name": "4e12bfa9d08a9f884c1488f18480c3c0", "is_disabled": 0, "rental_uris": {"ios": "https://dc.lft.to/lastmile_qr_scan", "android": "https://dc.lft.to/lastmile_qr_scan"}, "is_reserved": 0}, {"lon": -77.01661233333333, "bike_id": "2c82bff986ffa4583edef9e0a01bdbff", "lat": 38.89997133333333, "fusion_lon": 0.0, "fusion_lat": 0.0, "type": "electric_scooter", "name": "2c82bff986ffa4583edef9e0a01bdbff", "is_disabled": 0, "rental_uris": {"ios": "https://dc.lft.to/lastmile_qr_scan", "android": "https://dc.lft.to/lastmile_qr_scan"}, "is_reserved": 0}, {"lon": -77.02945066666666, "bike_id": "2e6e00fddd51ee9d1edfad5499ae3cbd", "lat": 38.89648116666667, "fusion_lon": 0.0, "fusion_lat": 0.0, "type": "electric_scooter", "name": "2e6e00fddd51ee9d1edfad5499ae3cbd", "is_disabled": 0, "rental_uris": {"ios": "https://dc.lft.to/lastmile_qr_scan", "android": "https://dc.lft.to/lastmile_qr_scan"}, "is_reserved": 0}, {"lon": -77.00140183333333, "bike_id": "c5a50b0d83011a0acecc2df4a349f96e", "lat": 38.878223, "fusion_lon": 0.0, "fusion_lat": 0.0, "type": "electric_scooter", "name": "c5a50b0d83011a0acecc2df4a349f96e", "is_disabled": 0, "rental_uris": {"ios": "https://dc.lft.to/lastmile_qr_scan", "android": "https://dc.lft.to/lastmile_qr_scan"}, "is_reserved": 0}, {"lon": -77.00538416666667, "bike_id": "bbaf5623086b60d8dc32eb173fbd5d7e", "lat": 38.8754455, "fusion_lon": 0.0, "fusion_lat": 0.0, "type": "electric_scooter", "name": "bbaf5623086b60d8dc32eb173fbd5d7e", "is_disabled": 0, "rental_uris": {"ios": "https://dc.lft.to/lastmile_qr_scan", "android": "https://dc.lft.to/lastmile_qr_scan"}, "is_reserved": 0}, {"lon": -77.03501983333334, "bike_id": "3ed82b060ca94b465a79faa3fc45ef6e", "lat": 38.911808, "fusion_lon": 0.0, "fusion_lat": 0.0, "type": "electric_scooter", "name": "3ed82b060ca94b465a79faa3fc45ef6e", "is_disabled": 0, "rental_uris": {"ios": "https://dc.lft.to/lastmile_qr_scan", "android": "https://dc.lft.to/lastmile_qr_scan"}, "is_reserved": 0}, {"lon": -77.02389233333334, "bike_id": "0ea1e673a2796c84cf2fbd87d78bb755", "lat": 38.906255333333334, "fusion_lon": 0.0, "fusion_lat": 0.0, "type": "electric_scooter", "name": "0ea1e673a2796c84cf2fbd87d78bb755", "is_disabled": 0, "rental_uris": {"ios": "https://dc.lft.to/lastmile_qr_scan", "android": "https://dc.lft.to/lastmile_qr_scan"}, "is_reserved": 0}, {"lon": -77.04501416666666, "bike_id": "f30cddaa6243756db553602a96fa1c8d", "lat": 38.9110915, "fusion_lon": 0.0, "fusion_lat": 0.0, "type": "electric_scooter", "name": "f30cddaa6243756db553602a96fa1c8d", "is_disabled": 0, "rental_uris": {"ios": "https://dc.lft.to/lastmile_qr_scan", "android": "https://dc.lft.to/lastmile_qr_scan"}, "is_reserved": 0}, {"lon": -77.0328065, "bike_id": "f2e0a128860562dad00666593d06baa3", "lat": 38.92869233333333, "fusion_lon": 0.0, "fusion_lat": 0.0, "type": "electric_scooter", "name": "f2e0a128860562dad00666593d06baa3", "is_disabled": 0, "rental_uris": {"ios": "https://dc.lft.to/lastmile_qr_scan", "android": "https://dc.lft.to/lastmile_qr_scan"}, "is_reserved": 0}, {"lon": -77.020928, "bike_id": "cff90cef34d67672e25cfc0f35a06dee", "lat": 38.929124333333334, "fusion_lon": 0.0, "fusion_lat": 0.0, "type": "electric_scooter", "name": "cff90cef34d67672e25cfc0f35a06dee", "is_disabled": 0, "rental_uris": {"ios": "https://dc.lft.to/lastmile_qr_scan", "android": "https://dc.lft.to/lastmile_qr_scan"}, "is_reserved": 0}, {"lon": -77.0319345, "bike_id": "87ca09b01888ed5711788bf91b809553", "lat": 38.91568016666667, "fusion_lon": 0.0, "fusion_lat": 0.0, "type": "electric_scooter", "name": "87ca09b01888ed5711788bf91b809553", "is_disabled": 0, "rental_uris": {"ios": "https://dc.lft.to/lastmile_qr_scan", "android": "https://dc.lft.to/lastmile_qr_scan"}, "is_reserved": 0}, {"lon": -77.06118666666667, "bike_id": "143bc9792053782e411553a4b0267b49", "lat": 38.90476183333333, "fusion_lon": 0.0, "fusion_lat": 0.0, "type": "electric_scooter", "name": "143bc9792053782e411553a4b0267b49", "is_disabled": 0, "rental_uris": {"ios": "https://dc.lft.to/lastmile_qr_scan", "android": "https://dc.lft.to/lastmile_qr_scan"}, "is_reserved": 0}, {"lon": -77.03215483333334, "bike_id": "54152f40ad34c0759ab022741a7d916c", "lat": 38.93612816666667, "fusion_lon": 0.0, "fusion_lat": 0.0, "type": "electric_scooter", "name": "54152f40ad34c0759ab022741a7d916c", "is_disabled": 0, "rental_uris": {"ios": "https://dc.lft.to/lastmile_qr_scan", "android": "https://dc.lft.to/lastmile_qr_scan"}, "is_reserved": 0}, {"lon": -77.05598883333333, "bike_id": "e694a4620f91fd8c95420f75e474a1f5", "lat": 38.93698666666667, "fusion_lon": 0.0, "fusion_lat": 0.0, "type": "electric_scooter", "name": "e694a4620f91fd8c95420f75e474a1f5", "is_disabled": 0, "rental_uris": {"ios": "https://dc.lft.to/lastmile_qr_scan", "android": "https://dc.lft.to/lastmile_qr_scan"}, "is_reserved": 0}, {"lon": -77.02221633333333, "bike_id": "1f005cc02aee3f9635f184a7d1b6b5db", "lat": 38.892199, "fusion_lon": 0.0, "fusion_lat": 0.0, "type": "electric_scooter", "name": "1f005cc02aee3f9635f184a7d1b6b5db", "is_disabled": 0, "rental_uris": {"ios": "https://dc.lft.to/lastmile_qr_scan", "android": "https://dc.lft.to/lastmile_qr_scan"}, "is_reserved": 0}, {"lon": -77.01743766666667, "bike_id": "f14bd18d9a1cf14d909e122f9dc985ab", "lat": 38.880511166666665, "fusion_lon": 0.0, "fusion_lat": 0.0, "type": "electric_scooter", "name": "f14bd18d9a1cf14d909e122f9dc985ab", "is_disabled": 0, "rental_uris": {"ios": "https://dc.lft.to/lastmile_qr_scan", "android": "https://dc.lft.to/lastmile_qr_scan"}, "is_reserved": 0}, {"lon": -77.08592616666667, "bike_id": "e0bd532a9dbe770c38828f018aaed09a", "lat": 38.908698333333334, "fusion_lon": 0.0, "fusion_lat": 0.0, "type": "electric_scooter", "name": "e0bd532a9dbe770c38828f018aaed09a", "is_disabled": 0, "rental_uris": {"ios": "https://dc.lft.to/lastmile_qr_scan", "android": "https://dc.lft.to/lastmile_qr_scan"}, "is_reserved": 0}, {"lon": -77.017455, "bike_id": "168d31792ec0cbf24c40697fc27f75fa", "lat": 38.8811995, "fusion_lon": 0.0, "fusion_lat": 0.0, "type": "electric_scooter", "name": "168d31792ec0cbf24c40697fc27f75fa", "is_disabled": 0, "rental_uris": {"ios": "https://dc.lft.to/lastmile_qr_scan", "android": "https://dc.lft.to/lastmile_qr_scan"}, "is_reserved": 0}, {"lon": -77.02183783333334, "bike_id": "a56dc539c0d07eeba3a45e42cce58fac", "lat": 38.91420083333333, "fusion_lon": 0.0, "fusion_lat": 0.0, "type": "electric_scooter", "name": "a56dc539c0d07eeba3a45e42cce58fac", "is_disabled": 0, "rental_uris": {"ios": "https://dc.lft.to/lastmile_qr_scan", "android": "https://dc.lft.to/lastmile_qr_scan"}, "is_reserved": 0}, {"lon": -77.03187983333333, "bike_id": "970efb9203db2c9071ee56cb2dd70660", "lat": 38.9037205, "fusion_lon": 0.0, "fusion_lat": 0.0, "type": "electric_scooter", "name": "970efb9203db2c9071ee56cb2dd70660", "is_disabled": 0, "rental_uris": {"ios": "https://dc.lft.to/lastmile_qr_scan", "android": "https://dc.lft.to/lastmile_qr_scan"}, "is_reserved": 0}, {"lon": -77.034215, "bike_id": "2dd49b638b7974ef7bbd2122fdfb779c", "lat": 38.918021833333334, "fusion_lon": 0.0, "fusion_lat": 0.0, "type": "electric_scooter", "name": "2dd49b638b7974ef7bbd2122fdfb779c", "is_disabled": 0, "rental_uris": {"ios": "https://dc.lft.to/lastmile_qr_scan", "android": "https://dc.lft.to/lastmile_qr_scan"}, "is_reserved": 0}, {"lon": -76.94636816666667, "bike_id": "6b6173431efb0de533f2c251b788185d", "lat": 38.898283666666664, "fusion_lon": 0.0, "fusion_lat": 0.0, "type": "electric_scooter", "name": "6b6173431efb0de533f2c251b788185d", "is_disabled": 0, "rental_uris": {"ios": "https://dc.lft.to/lastmile_qr_scan", "android": "https://dc.lft.to/lastmile_qr_scan"}, "is_reserved": 0}, {"lon": -76.98376733333333, "bike_id": "9065243105cdb75eb1db399622d6fa5a", "lat": 38.906482, "fusion_lon": 0.0, "fusion_lat": 0.0, "type": "electric_scooter", "name": "9065243105cdb75eb1db399622d6fa5a", "is_disabled": 0, "rental_uris": {"ios": "https://dc.lft.to/lastmile_qr_scan", "android": "https://dc.lft.to/lastmile_qr_scan"}, "is_reserved": 0}, {"lon": -76.99609533333333, "bike_id": "7286a1e3f8ffe5b4196f3998c40ab2ca", "lat": 38.902187833333336, "fusion_lon": 0.0, "fusion_lat": 0.0, "type": "electric_scooter", "name": "7286a1e3f8ffe5b4196f3998c40ab2ca", "is_disabled": 0, "rental_uris": {"ios": "https://dc.lft.to/lastmile_qr_scan", "android": "https://dc.lft.to/lastmile_qr_scan"}, "is_reserved": 0}, {"lon": -77.0137045, "bike_id": "5dbe38895205347661754048f34c8e1f", "lat": 38.906173833333334, "fusion_lon": 0.0, "fusion_lat": 0.0, "type": "electric_scooter", "name": "5dbe38895205347661754048f34c8e1f", "is_disabled": 0, "rental_uris": {"ios": "https://dc.lft.to/lastmile_qr_scan", "android": "https://dc.lft.to/lastmile_qr_scan"}, "is_reserved": 0}, {"lon": -77.05028366666667, "bike_id": "138e721edef80f8d392d2621b59d8805", "lat": 38.903806333333335, "fusion_lon": 0.0, "fusion_lat": 0.0, "type": "electric_scooter", "name": "138e721edef80f8d392d2621b59d8805", "is_disabled": 0, "rental_uris": {"ios": "https://dc.lft.to/lastmile_qr_scan", "android": "https://dc.lft.to/lastmile_qr_scan"}, "is_reserved": 0}, {"lon": -77.02971483333333, "bike_id": "98835992ac1ab8cf4dc9cb0bca8e1791", "lat": 38.932744666666665, "fusion_lon": 0.0, "fusion_lat": 0.0, "type": "electric_scooter", "name": "98835992ac1ab8cf4dc9cb0bca8e1791", "is_disabled": 0, "rental_uris": {"ios": "https://dc.lft.to/lastmile_qr_scan", "android": "https://dc.lft.to/lastmile_qr_scan"}, "is_reserved": 0}, {"lon": -77.02381216666667, "bike_id": "aeeaf92ec6ab5a439ad0b2391c992cfd", "lat": 38.90730833333333, "fusion_lon": 0.0, "fusion_lat": 0.0, "type": "electric_scooter", "name": "aeeaf92ec6ab5a439ad0b2391c992cfd", "is_disabled": 0, "rental_uris": {"ios": "https://dc.lft.to/lastmile_qr_scan", "android": "https://dc.lft.to/lastmile_qr_scan"}, "is_reserved": 0}, {"lon": -77.0394095, "bike_id": "ca956c9d105eaf23bbf61ece49827a5e", "lat": 38.9306165, "fusion_lon": 0.0, "fusion_lat": 0.0, "type": "electric_scooter", "name": "ca956c9d105eaf23bbf61ece49827a5e", "is_disabled": 0, "rental_uris": {"ios": "https://dc.lft.to/lastmile_qr_scan", "android": "https://dc.lft.to/lastmile_qr_scan"}, "is_reserved": 0}, {"lon": -77.032119, "bike_id": "49f7fb0a5fc60a8d0beb1a67f5711c45", "lat": 38.911973, "fusion_lon": 0.0, "fusion_lat": 0.0, "type": "electric_scooter", "name": "49f7fb0a5fc60a8d0beb1a67f5711c45", "is_disabled": 0, "rental_uris": {"ios": "https://dc.lft.to/lastmile_qr_scan", "android": "https://dc.lft.to/lastmile_qr_scan"}, "is_reserved": 0}, {"lon": -77.03864566666667, "bike_id": "7576cbcf391fb222f429baad54b98976", "lat": 38.91262866666667, "fusion_lon": 0.0, "fusion_lat": 0.0, "type": "electric_scooter", "name": "7576cbcf391fb222f429baad54b98976", "is_disabled": 0, "rental_uris": {"ios": "https://dc.lft.to/lastmile_qr_scan", "android": "https://dc.lft.to/lastmile_qr_scan"}, "is_reserved": 0}, {"lon": -77.06754666666667, "bike_id": "0bc64b808a0f78d11847b8aadb7d2027", "lat": 38.90333483333333, "fusion_lon": 0.0, "fusion_lat": 0.0, "type": "electric_scooter", "name": "0bc64b808a0f78d11847b8aadb7d2027", "is_disabled": 0, "rental_uris": {"ios": "https://dc.lft.to/lastmile_qr_scan", "android": "https://dc.lft.to/lastmile_qr_scan"}, "is_reserved": 0}, {"lon": -77.04488783333333, "bike_id": "5903d778f1fbf91670b28baa0da3e2a7", "lat": 38.900799166666665, "fusion_lon": 0.0, "fusion_lat": 0.0, "type": "electric_scooter", "name": "5903d778f1fbf91670b28baa0da3e2a7", "is_disabled": 0, "rental_uris": {"ios": "https://dc.lft.to/lastmile_qr_scan", "android": "https://dc.lft.to/lastmile_qr_scan"}, "is_reserved": 0}, {"lon": -77.0434265, "bike_id": "2b29e40228106bc9bb0103a8af60c866", "lat": 38.929669, "fusion_lon": 0.0, "fusion_lat": 0.0, "type": "electric_scooter", "name": "2b29e40228106bc9bb0103a8af60c866", "is_disabled": 0, "rental_uris": {"ios": "https://dc.lft.to/lastmile_qr_scan", "android": "https://dc.lft.to/lastmile_qr_scan"}, "is_reserved": 0}, {"lon": -77.03183083333333, "bike_id": "2b8d67a03dfdc1091dad1bf5feb61133", "lat": 38.887335666666665, "fusion_lon": 0.0, "fusion_lat": 0.0, "type": "electric_scooter", "name": "2b8d67a03dfdc1091dad1bf5feb61133", "is_disabled": 0, "rental_uris": {"ios": "https://dc.lft.to/lastmile_qr_scan", "android": "https://dc.lft.to/lastmile_qr_scan"}, "is_reserved": 0}, {"lon": -76.98371166666666, "bike_id": "70ebcb02cf5599128ff3e59a3c3616e7", "lat": 38.899793833333334, "fusion_lon": 0.0, "fusion_lat": 0.0, "type": "electric_scooter", "name": "70ebcb02cf5599128ff3e59a3c3616e7", "is_disabled": 0, "rental_uris": {"ios": "https://dc.lft.to/lastmile_qr_scan", "android": "https://dc.lft.to/lastmile_qr_scan"}, "is_reserved": 0}, {"lon": -77.022921, "bike_id": "bf5fad7fbae9e96ab85e288ddb4396a9", "lat": 38.90981216666667, "fusion_lon": 0.0, "fusion_lat": 0.0, "type": "electric_scooter", "name": "bf5fad7fbae9e96ab85e288ddb4396a9", "is_disabled": 0, "rental_uris": {"ios": "https://dc.lft.to/lastmile_qr_scan", "android": "https://dc.lft.to/lastmile_qr_scan"}, "is_reserved": 0}, {"lon": -76.93367416666666, "bike_id": "900171eeb667db9a8676030765543458", "lat": 38.899162, "fusion_lon": 0.0, "fusion_lat": 0.0, "type": "electric_scooter", "name": "900171eeb667db9a8676030765543458", "is_disabled": 0, "rental_uris": {"ios": "https://dc.lft.to/lastmile_qr_scan", "android": "https://dc.lft.to/lastmile_qr_scan"}, "is_reserved": 0}, {"lon": -77.026923, "bike_id": "59a559f1aae09997159f025928083f67", "lat": 38.9062135, "fusion_lon": 0.0, "fusion_lat": 0.0, "type": "electric_scooter", "name": "59a559f1aae09997159f025928083f67", "is_disabled": 0, "rental_uris": {"ios": "https://dc.lft.to/lastmile_qr_scan", "android": "https://dc.lft.to/lastmile_qr_scan"}, "is_reserved": 0}, {"lon": -77.03151933333334, "bike_id": "8b7737167f21b294f13bc7d1aed1064b", "lat": 38.920074, "fusion_lon": 0.0, "fusion_lat": 0.0, "type": "electric_scooter", "name": "8b7737167f21b294f13bc7d1aed1064b", "is_disabled": 0, "rental_uris": {"ios": "https://dc.lft.to/lastmile_qr_scan", "android": "https://dc.lft.to/lastmile_qr_scan"}, "is_reserved": 0}, {"lon": -76.96523083333334, "bike_id": "289a9a8df313048468f583d7b0ba15f7", "lat": 38.874813333333336, "fusion_lon": 0.0, "fusion_lat": 0.0, "type": "electric_scooter", "name": "289a9a8df313048468f583d7b0ba15f7", "is_disabled": 0, "rental_uris": {"ios": "https://dc.lft.to/lastmile_qr_scan", "android": "https://dc.lft.to/lastmile_qr_scan"}, "is_reserved": 0}, {"lon": -77.02170766666667, "bike_id": "452646e508e45a8dddaabbd1c0af5066", "lat": 38.94292683333333, "fusion_lon": 0.0, "fusion_lat": 0.0, "type": "electric_scooter", "name": "452646e508e45a8dddaabbd1c0af5066", "is_disabled": 0, "rental_uris": {"ios": "https://dc.lft.to/lastmile_qr_scan", "android": "https://dc.lft.to/lastmile_qr_scan"}, "is_reserved": 0}, {"lon": -77.03338083333334, "bike_id": "5ad991c0c04ebf33e0aa1306d424acd7", "lat": 38.89827666666667, "fusion_lon": 0.0, "fusion_lat": 0.0, "type": "electric_scooter", "name": "5ad991c0c04ebf33e0aa1306d424acd7", "is_disabled": 0, "rental_uris": {"ios": "https://dc.lft.to/lastmile_qr_scan", "android": "https://dc.lft.to/lastmile_qr_scan"}, "is_reserved": 0}, {"lon": -77.03244433333333, "bike_id": "f9761fbb462f524aa7366db6f67d93a5", "lat": 38.928487833333335, "fusion_lon": 0.0, "fusion_lat": 0.0, "type": "electric_scooter", "name": "f9761fbb462f524aa7366db6f67d93a5", "is_disabled": 0, "rental_uris": {"ios": "https://dc.lft.to/lastmile_qr_scan", "android": "https://dc.lft.to/lastmile_qr_scan"}, "is_reserved": 0}, {"lon": -77.01765216666666, "bike_id": "ba258a5cf90c027f599bb093995c703f", "lat": 38.921211, "fusion_lon": 0.0, "fusion_lat": 0.0, "type": "electric_scooter", "name": "ba258a5cf90c027f599bb093995c703f", "is_disabled": 0, "rental_uris": {"ios": "https://dc.lft.to/lastmile_qr_scan", "android": "https://dc.lft.to/lastmile_qr_scan"}, "is_reserved": 0}, {"lon": -77.025629, "bike_id": "e8f5b4a325c5fa4f7ffb3314e5095bb9", "lat": 38.9335135, "fusion_lon": 0.0, "fusion_lat": 0.0, "type": "electric_scooter", "name": "e8f5b4a325c5fa4f7ffb3314e5095bb9", "is_disabled": 0, "rental_uris": {"ios": "https://dc.lft.to/lastmile_qr_scan", "android": "https://dc.lft.to/lastmile_qr_scan"}, "is_reserved": 0}, {"lon": -77.0214125, "bike_id": "0b8510587d976337dce02faf79b49bdb", "lat": 38.895015, "fusion_lon": 0.0, "fusion_lat": 0.0, "type": "electric_scooter", "name": "0b8510587d976337dce02faf79b49bdb", "is_disabled": 0, "rental_uris": {"ios": "https://dc.lft.to/lastmile_qr_scan", "android": "https://dc.lft.to/lastmile_qr_scan"}, "is_reserved": 0}, {"lon": -77.0321955, "bike_id": "ef18a46b54e14d41a7f2416afec9bcfc", "lat": 38.91841183333333, "fusion_lon": 0.0, "fusion_lat": 0.0, "type": "electric_scooter", "name": "ef18a46b54e14d41a7f2416afec9bcfc", "is_disabled": 0, "rental_uris": {"ios": "https://dc.lft.to/lastmile_qr_scan", "android": "https://dc.lft.to/lastmile_qr_scan"}, "is_reserved": 0}, {"lon": -76.94633983333334, "bike_id": "a86be328cc18725d2c406e3a619c1c42", "lat": 38.898323, "fusion_lon": 0.0, "fusion_lat": 0.0, "type": "electric_scooter", "name": "a86be328cc18725d2c406e3a619c1c42", "is_disabled": 0, "rental_uris": {"ios": "https://dc.lft.to/lastmile_qr_scan", "android": "https://dc.lft.to/lastmile_qr_scan"}, "is_reserved": 0}, {"lon": -76.992015, "bike_id": "d0596f43feaf1582f644d271c1bb8ee2", "lat": 38.898284, "fusion_lon": 0.0, "fusion_lat": 0.0, "type": "electric_scooter", "name": "d0596f43feaf1582f644d271c1bb8ee2", "is_disabled": 0, "rental_uris": {"ios": "https://dc.lft.to/lastmile_qr_scan", "android": "https://dc.lft.to/lastmile_qr_scan"}, "is_reserved": 0}, {"lon": -77.0722405, "bike_id": "5ebd9f312ba35022f69fd271f41c3793", "lat": 38.922639833333335, "fusion_lon": 0.0, "fusion_lat": 0.0, "type": "electric_scooter", "name": "5ebd9f312ba35022f69fd271f41c3793", "is_disabled": 0, "rental_uris": {"ios": "https://dc.lft.to/lastmile_qr_scan", "android": "https://dc.lft.to/lastmile_qr_scan"}, "is_reserved": 0}, {"lon": -77.0224595, "bike_id": "48efc156a2edafff423f04c7fc9a7e82", "lat": 38.92895433333333, "fusion_lon": 0.0, "fusion_lat": 0.0, "type": "electric_scooter", "name": "48efc156a2edafff423f04c7fc9a7e82", "is_disabled": 0, "rental_uris": {"ios": "https://dc.lft.to/lastmile_qr_scan", "android": "https://dc.lft.to/lastmile_qr_scan"}, "is_reserved": 0}, {"lon": -77.007505, "bike_id": "cf0b308190a6361a7cbd89b8b07e5fbd", "lat": 38.8710605, "fusion_lon": 0.0, "fusion_lat": 0.0, "type": "electric_scooter", "name": "cf0b308190a6361a7cbd89b8b07e5fbd", "is_disabled": 0, "rental_uris": {"ios": "https://dc.lft.to/lastmile_qr_scan", "android": "https://dc.lft.to/lastmile_qr_scan"}, "is_reserved": 0}, {"lon": -77.03868433333334, "bike_id": "0b7abb73399817a6e6fd01485d9f162b", "lat": 38.91174016666667, "fusion_lon": 0.0, "fusion_lat": 0.0, "type": "electric_scooter", "name": "0b7abb73399817a6e6fd01485d9f162b", "is_disabled": 0, "rental_uris": {"ios": "https://dc.lft.to/lastmile_qr_scan", "android": "https://dc.lft.to/lastmile_qr_scan"}, "is_reserved": 0}, {"lon": -76.9936345, "bike_id": "e7db2c4c47fe0f94585d7bbfbc1db7ef", "lat": 38.94021433333333, "fusion_lon": 0.0, "fusion_lat": 0.0, "type": "electric_scooter", "name": "e7db2c4c47fe0f94585d7bbfbc1db7ef", "is_disabled": 0, "rental_uris": {"ios": "https://dc.lft.to/lastmile_qr_scan", "android": "https://dc.lft.to/lastmile_qr_scan"}, "is_reserved": 0}, {"lon": -76.9901215, "bike_id": "fac07d751a6ab075a399c6d5dd54941f", "lat": 38.945969, "fusion_lon": 0.0, "fusion_lat": 0.0, "type": "electric_scooter", "name": "fac07d751a6ab075a399c6d5dd54941f", "is_disabled": 0, "rental_uris": {"ios": "https://dc.lft.to/lastmile_qr_scan", "android": "https://dc.lft.to/lastmile_qr_scan"}, "is_reserved": 0}, {"lon": -77.03863416666667, "bike_id": "6d0b2a7f6bed23f6ba08db7753ef5efb", "lat": 38.920117, "fusion_lon": 0.0, "fusion_lat": 0.0, "type": "electric_scooter", "name": "6d0b2a7f6bed23f6ba08db7753ef5efb", "is_disabled": 0, "rental_uris": {"ios": "https://dc.lft.to/lastmile_qr_scan", "android": "https://dc.lft.to/lastmile_qr_scan"}, "is_reserved": 0}, {"lon": -77.07658133333334, "bike_id": "fdb08a479fe6bb13a6cc0e47e42b54ac", "lat": 38.86280516666667, "fusion_lon": 0.0, "fusion_lat": 0.0, "type": "electric_bike", "name": "fdb08a479fe6bb13a6cc0e47e42b54ac", "is_disabled": 0, "rental_uris": {"ios": "https://dc.lft.to/lastmile_qr_scan", "android": "https://dc.lft.to/lastmile_qr_scan"}, "is_reserved": 0}, {"lon": -77.04979016666667, "bike_id": "03db48b3b60f42334f740ffa5da8c239", "lat": 39.062926, "fusion_lon": 0.0, "fusion_lat": 0.0, "type": "electric_bike", "name": "03db48b3b60f42334f740ffa5da8c239", "is_disabled": 0, "rental_uris": {"ios": "https://dc.lft.to/lastmile_qr_scan", "android": "https://dc.lft.to/lastmile_qr_scan"}, "is_reserved": 0}, {"lon": -77.02489733333333, "bike_id": "1c25d428cda7c13e965d93f49ff3134c", "lat": 38.919524833333334, "fusion_lon": 0.0, "fusion_lat": 0.0, "type": "electric_scooter", "name": "1c25d428cda7c13e965d93f49ff3134c", "is_disabled": 0, "rental_uris": {"ios": "https://dc.lft.to/lastmile_qr_scan", "android": "https://dc.lft.to/lastmile_qr_scan"}, "is_reserved": 0}, {"lon": -77.03194933333333, "bike_id": "a7e36c8b8b5e21f9ba1ad827d225c1ae", "lat": 38.919269666666665, "fusion_lon": 0.0, "fusion_lat": 0.0, "type": "electric_scooter", "name": "a7e36c8b8b5e21f9ba1ad827d225c1ae", "is_disabled": 0, "rental_uris": {"ios": "https://dc.lft.to/lastmile_qr_scan", "android": "https://dc.lft.to/lastmile_qr_scan"}, "is_reserved": 0}, {"lon": -76.9786485, "bike_id": "dddd6a59683c40852049eb690a401de1", "lat": 38.883021666666664, "fusion_lon": 0.0, "fusion_lat": 0.0, "type": "electric_scooter", "name": "dddd6a59683c40852049eb690a401de1", "is_disabled": 0, "rental_uris": {"ios": "https://dc.lft.to/lastmile_qr_scan", "android": "https://dc.lft.to/lastmile_qr_scan"}, "is_reserved": 0}, {"lon": -76.9948655, "bike_id": "387406cb20c86785842f90aa4066730f", "lat": 38.87947616666666, "fusion_lon": 0.0, "fusion_lat": 0.0, "type": "electric_scooter", "name": "387406cb20c86785842f90aa4066730f", "is_disabled": 0, "rental_uris": {"ios": "https://dc.lft.to/lastmile_qr_scan", "android": "https://dc.lft.to/lastmile_qr_scan"}, "is_reserved": 0}, {"lon": -77.05149516666667, "bike_id": "2ee9559de20da6bd45e862800ae6f832", "lat": 38.898584166666666, "fusion_lon": 0.0, "fusion_lat": 0.0, "type": "electric_scooter", "name": "2ee9559de20da6bd45e862800ae6f832", "is_disabled": 0, "rental_uris": {"ios": "https://dc.lft.to/lastmile_qr_scan", "android": "https://dc.lft.to/lastmile_qr_scan"}, "is_reserved": 0}, {"lon": -77.0021055, "bike_id": "c66914d25b0c86e2b304f6ce11f4ff2d", "lat": 38.88127333333333, "fusion_lon": 0.0, "fusion_lat": 0.0, "type": "electric_scooter", "name": "c66914d25b0c86e2b304f6ce11f4ff2d", "is_disabled": 0, "rental_uris": {"ios": "https://dc.lft.to/lastmile_qr_scan", "android": "https://dc.lft.to/lastmile_qr_scan"}, "is_reserved": 0}, {"lon": -77.04498683333334, "bike_id": "f58c823e4a37da58961b83ace9432629", "lat": 38.91609583333333, "fusion_lon": 0.0, "fusion_lat": 0.0, "type": "electric_scooter", "name": "f58c823e4a37da58961b83ace9432629", "is_disabled": 0, "rental_uris": {"ios": "https://dc.lft.to/lastmile_qr_scan", "android": "https://dc.lft.to/lastmile_qr_scan"}, "is_reserved": 0}, {"lon": -77.12651166666667, "bike_id": "76fe5c0cf4f34522637f9194f33f4043", "lat": 38.81511183333333, "fusion_lon": 0.0, "fusion_lat": 0.0, "type": "electric_bike", "name": "76fe5c0cf4f34522637f9194f33f4043", "is_disabled": 0, "rental_uris": {"ios": "https://dc.lft.to/lastmile_qr_scan", "android": "https://dc.lft.to/lastmile_qr_scan"}, "is_reserved": 0}, {"lon": -77.0318895, "bike_id": "e13fbf13a25634f697b4c6da78fa0e81", "lat": 38.911962, "fusion_lon": 0.0, "fusion_lat": 0.0, "type": "electric_scooter", "name": "e13fbf13a25634f697b4c6da78fa0e81", "is_disabled": 0, "rental_uris": {"ios": "https://dc.lft.to/lastmile_qr_scan", "android": "https://dc.lft.to/lastmile_qr_scan"}, "is_reserved": 0}, {"lon": -77.02354033333333, "bike_id": "bc5bd5119bcde7403582eddb269af6f1", "lat": 38.92064383333334, "fusion_lon": 0.0, "fusion_lat": 0.0, "type": "electric_scooter", "name": "bc5bd5119bcde7403582eddb269af6f1", "is_disabled": 0, "rental_uris": {"ios": "https://dc.lft.to/lastmile_qr_scan", "android": "https://dc.lft.to/lastmile_qr_scan"}, "is_reserved": 0}, {"lon": -76.9335265, "bike_id": "fc31a8f0201ec8aaa8413c52a7dfc10c", "lat": 38.89902633333333, "fusion_lon": 0.0, "fusion_lat": 0.0, "type": "electric_scooter", "name": "fc31a8f0201ec8aaa8413c52a7dfc10c", "is_disabled": 0, "rental_uris": {"ios": "https://dc.lft.to/lastmile_qr_scan", "android": "https://dc.lft.to/lastmile_qr_scan"}, "is_reserved": 0}, {"lon": -77.04448266666667, "bike_id": "1115891b564f2357b57effce5e615b02", "lat": 38.918754166666666, "fusion_lon": 0.0, "fusion_lat": 0.0, "type": "electric_scooter", "name": "1115891b564f2357b57effce5e615b02", "is_disabled": 0, "rental_uris": {"ios": "https://dc.lft.to/lastmile_qr_scan", "android": "https://dc.lft.to/lastmile_qr_scan"}, "is_reserved": 0}, {"lon": -77.027129, "bike_id": "90e5fee4b7a5ccb420aca245761c3272", "lat": 38.927710166666664, "fusion_lon": 0.0, "fusion_lat": 0.0, "type": "electric_scooter", "name": "90e5fee4b7a5ccb420aca245761c3272", "is_disabled": 0, "rental_uris": {"ios": "https://dc.lft.to/lastmile_qr_scan", "android": "https://dc.lft.to/lastmile_qr_scan"}, "is_reserved": 0}, {"lon": -76.9910935, "bike_id": "8f9fbeae0b43a3f0cbc046aa4b8cedaf", "lat": 38.90319066666667, "fusion_lon": 0.0, "fusion_lat": 0.0, "type": "electric_scooter", "name": "8f9fbeae0b43a3f0cbc046aa4b8cedaf", "is_disabled": 0, "rental_uris": {"ios": "https://dc.lft.to/lastmile_qr_scan", "android": "https://dc.lft.to/lastmile_qr_scan"}, "is_reserved": 0}, {"lon": -77.047836, "bike_id": "a74656a5294f88e558c5eadc4986f286", "lat": 38.90975516666666, "fusion_lon": 0.0, "fusion_lat": 0.0, "type": "electric_scooter", "name": "a74656a5294f88e558c5eadc4986f286", "is_disabled": 0, "rental_uris": {"ios": "https://dc.lft.to/lastmile_qr_scan", "android": "https://dc.lft.to/lastmile_qr_scan"}, "is_reserved": 0}, {"lon": -76.92739783333333, "bike_id": "c2f3f6a8e40856518c1b60072d633783", "lat": 38.8896445, "fusion_lon": 0.0, "fusion_lat": 0.0, "type": "electric_scooter", "name": "c2f3f6a8e40856518c1b60072d633783", "is_disabled": 0, "rental_uris": {"ios": "https://dc.lft.to/lastmile_qr_scan", "android": "https://dc.lft.to/lastmile_qr_scan"}, "is_reserved": 0}, {"lon": -77.02296933333334, "bike_id": "4498bbc4781c1cbe6540ad20588cec09", "lat": 38.91828833333334, "fusion_lon": 0.0, "fusion_lat": 0.0, "type": "electric_bike", "name": "4498bbc4781c1cbe6540ad20588cec09", "is_disabled": 0, "rental_uris": {"ios": "https://dc.lft.to/lastmile_qr_scan", "android": "https://dc.lft.to/lastmile_qr_scan"}, "is_reserved": 0}, {"lon": -76.98559383333334, "bike_id": "b431af8b19c8c2356f09d126cbf4b3fa", "lat": 38.89953166666667, "fusion_lon": 0.0, "fusion_lat": 0.0, "type": "electric_scooter", "name": "b431af8b19c8c2356f09d126cbf4b3fa", "is_disabled": 0, "rental_uris": {"ios": "https://dc.lft.to/lastmile_qr_scan", "android": "https://dc.lft.to/lastmile_qr_scan"}, "is_reserved": 0}, {"lon": -76.93341883333333, "bike_id": "68d1fc193c1371954621975510dcaeae", "lat": 38.91064266666667, "fusion_lon": 0.0, "fusion_lat": 0.0, "type": "electric_scooter", "name": "68d1fc193c1371954621975510dcaeae", "is_disabled": 0, "rental_uris": {"ios": "https://dc.lft.to/lastmile_qr_scan", "android": "https://dc.lft.to/lastmile_qr_scan"}, "is_reserved": 0}, {"lon": -76.981856, "bike_id": "403a8c83a93d993a1a50e5d9bd33eb0c", "lat": 38.9260765, "fusion_lon": 0.0, "fusion_lat": 0.0, "type": "electric_scooter", "name": "403a8c83a93d993a1a50e5d9bd33eb0c", "is_disabled": 0, "rental_uris": {"ios": "https://dc.lft.to/lastmile_qr_scan", "android": "https://dc.lft.to/lastmile_qr_scan"}, "is_reserved": 0}, {"lon": -77.04809116666667, "bike_id": "63b5aae9af25e0f944e82c3fd5d52968", "lat": 38.90726933333333, "fusion_lon": 0.0, "fusion_lat": 0.0, "type": "electric_scooter", "name": "63b5aae9af25e0f944e82c3fd5d52968", "is_disabled": 0, "rental_uris": {"ios": "https://dc.lft.to/lastmile_qr_scan", "android": "https://dc.lft.to/lastmile_qr_scan"}, "is_reserved": 0}, {"lon": -77.0344355, "bike_id": "35ed118e1cc685c65b8d5101463288ca", "lat": 38.9179685, "fusion_lon": 0.0, "fusion_lat": 0.0, "type": "electric_scooter", "name": "35ed118e1cc685c65b8d5101463288ca", "is_disabled": 0, "rental_uris": {"ios": "https://dc.lft.to/lastmile_qr_scan", "android": "https://dc.lft.to/lastmile_qr_scan"}, "is_reserved": 0}, {"lon": -77.04631966666666, "bike_id": "77641a0c2b5b2c5628ca84360d6e3aaa", "lat": 38.9192175, "fusion_lon": 0.0, "fusion_lat": 0.0, "type": "electric_scooter", "name": "77641a0c2b5b2c5628ca84360d6e3aaa", "is_disabled": 0, "rental_uris": {"ios": "https://dc.lft.to/lastmile_qr_scan", "android": "https://dc.lft.to/lastmile_qr_scan"}, "is_reserved": 0}, {"lon": -77.03076, "bike_id": "4d3b9ea25ed97a5ff4483b27af091e99", "lat": 38.90269933333333, "fusion_lon": 0.0, "fusion_lat": 0.0, "type": "electric_scooter", "name": "4d3b9ea25ed97a5ff4483b27af091e99", "is_disabled": 0, "rental_uris": {"ios": "https://dc.lft.to/lastmile_qr_scan", "android": "https://dc.lft.to/lastmile_qr_scan"}, "is_reserved": 0}, {"lon": -76.97533783333333, "bike_id": "370a38237fc77cacf6cc2701b292fe23", "lat": 38.903265833333336, "fusion_lon": 0.0, "fusion_lat": 0.0, "type": "electric_bike", "name": "370a38237fc77cacf6cc2701b292fe23", "is_disabled": 0, "rental_uris": {"ios": "https://dc.lft.to/lastmile_qr_scan", "android": "https://dc.lft.to/lastmile_qr_scan"}, "is_reserved": 0}, {"lon": -77.01754183333334, "bike_id": "c98301596193013c51dcc71538b4014b", "lat": 38.90282283333333, "fusion_lon": 0.0, "fusion_lat": 0.0, "type": "electric_scooter", "name": "c98301596193013c51dcc71538b4014b", "is_disabled": 0, "rental_uris": {"ios": "https://dc.lft.to/lastmile_qr_scan", "android": "https://dc.lft.to/lastmile_qr_scan"}, "is_reserved": 0}, {"lon": -77.04330266666666, "bike_id": "c8bb58b7b935f5ed4c8e501c08b2c300", "lat": 38.90828233333333, "fusion_lon": 0.0, "fusion_lat": 0.0, "type": "electric_scooter", "name": "c8bb58b7b935f5ed4c8e501c08b2c300", "is_disabled": 0, "rental_uris": {"ios": "https://dc.lft.to/lastmile_qr_scan", "android": "https://dc.lft.to/lastmile_qr_scan"}, "is_reserved": 0}, {"lon": -77.02147383333333, "bike_id": "5d9a4654901d1edf3b2c3d4647b52b88", "lat": 38.900887166666664, "fusion_lon": 0.0, "fusion_lat": 0.0, "type": "electric_scooter", "name": "5d9a4654901d1edf3b2c3d4647b52b88", "is_disabled": 0, "rental_uris": {"ios": "https://dc.lft.to/lastmile_qr_scan", "android": "https://dc.lft.to/lastmile_qr_scan"}, "is_reserved": 0}, {"lon": -77.009431, "bike_id": "a1d1ad4ca58043c23ee9dfd8b1dfb35f", "lat": 38.87108766666667, "fusion_lon": 0.0, "fusion_lat": 0.0, "type": "electric_scooter", "name": "a1d1ad4ca58043c23ee9dfd8b1dfb35f", "is_disabled": 0, "rental_uris": {"ios": "https://dc.lft.to/lastmile_qr_scan", "android": "https://dc.lft.to/lastmile_qr_scan"}, "is_reserved": 0}, {"lon": -77.03825283333333, "bike_id": "24e0da19a8a1c40a09d1a3ba033546f0", "lat": 38.906719833333334, "fusion_lon": 0.0, "fusion_lat": 0.0, "type": "electric_scooter", "name": "24e0da19a8a1c40a09d1a3ba033546f0", "is_disabled": 0, "rental_uris": {"ios": "https://dc.lft.to/lastmile_qr_scan", "android": "https://dc.lft.to/lastmile_qr_scan"}, "is_reserved": 0}, {"lon": -77.02115166666667, "bike_id": "5a061f11701b9fb1a810881cf9889fde", "lat": 38.9096705, "fusion_lon": 0.0, "fusion_lat": 0.0, "type": "electric_scooter", "name": "5a061f11701b9fb1a810881cf9889fde", "is_disabled": 0, "rental_uris": {"ios": "https://dc.lft.to/lastmile_qr_scan", "android": "https://dc.lft.to/lastmile_qr_scan"}, "is_reserved": 0}, {"lon": -77.0586005, "bike_id": "578bf66fdf26224aa10ea6f0d45fe501", "lat": 38.936053, "fusion_lon": 0.0, "fusion_lat": 0.0, "type": "electric_scooter", "name": "578bf66fdf26224aa10ea6f0d45fe501", "is_disabled": 0, "rental_uris": {"ios": "https://dc.lft.to/lastmile_qr_scan", "android": "https://dc.lft.to/lastmile_qr_scan"}, "is_reserved": 0}, {"lon": -77.02756516666666, "bike_id": "bbde3cb646cbe964f5d623a048e0e2f5", "lat": 38.944034333333335, "fusion_lon": 0.0, "fusion_lat": 0.0, "type": "electric_scooter", "name": "bbde3cb646cbe964f5d623a048e0e2f5", "is_disabled": 0, "rental_uris": {"ios": "https://dc.lft.to/lastmile_qr_scan", "android": "https://dc.lft.to/lastmile_qr_scan"}, "is_reserved": 0}, {"lon": -77.04554666666667, "bike_id": "b2c82ebf21478773e882bba383a15723", "lat": 38.91262116666667, "fusion_lon": 0.0, "fusion_lat": 0.0, "type": "electric_scooter", "name": "b2c82ebf21478773e882bba383a15723", "is_disabled": 0, "rental_uris": {"ios": "https://dc.lft.to/lastmile_qr_scan", "android": "https://dc.lft.to/lastmile_qr_scan"}, "is_reserved": 0}, {"lon": -77.023858, "bike_id": "0a33f39758d5cf0fb78e523b87be9352", "lat": 38.920025, "fusion_lon": 0.0, "fusion_lat": 0.0, "type": "electric_scooter", "name": "0a33f39758d5cf0fb78e523b87be9352", "is_disabled": 0, "rental_uris": {"ios": "https://dc.lft.to/lastmile_qr_scan", "android": "https://dc.lft.to/lastmile_qr_scan"}, "is_reserved": 0}, {"lon": -77.03198233333333, "bike_id": "f1994640835d7bf50e11439a6a784903", "lat": 38.917440666666664, "fusion_lon": 0.0, "fusion_lat": 0.0, "type": "electric_scooter", "name": "f1994640835d7bf50e11439a6a784903", "is_disabled": 0, "rental_uris": {"ios": "https://dc.lft.to/lastmile_qr_scan", "android": "https://dc.lft.to/lastmile_qr_scan"}, "is_reserved": 0}, {"lon": -77.02466116666666, "bike_id": "0a6b290f9776eb78a4607377702999d1", "lat": 38.90079466666667, "fusion_lon": 0.0, "fusion_lat": 0.0, "type": "electric_scooter", "name": "0a6b290f9776eb78a4607377702999d1", "is_disabled": 0, "rental_uris": {"ios": "https://dc.lft.to/lastmile_qr_scan", "android": "https://dc.lft.to/lastmile_qr_scan"}, "is_reserved": 0}, {"lon": -76.98084866666667, "bike_id": "9d8c4339709973b7c4a471cdc9c3892c", "lat": 38.879360166666665, "fusion_lon": 0.0, "fusion_lat": 0.0, "type": "electric_bike", "name": "9d8c4339709973b7c4a471cdc9c3892c", "is_disabled": 0, "rental_uris": {"ios": "https://dc.lft.to/lastmile_qr_scan", "android": "https://dc.lft.to/lastmile_qr_scan"}, "is_reserved": 0}, {"lon": -77.02295216666667, "bike_id": "e104fc562ddd0c1f8422c14370fa713c", "lat": 38.932905833333336, "fusion_lon": 0.0, "fusion_lat": 0.0, "type": "electric_scooter", "name": "e104fc562ddd0c1f8422c14370fa713c", "is_disabled": 0, "rental_uris": {"ios": "https://dc.lft.to/lastmile_qr_scan", "android": "https://dc.lft.to/lastmile_qr_scan"}, "is_reserved": 0}, {"lon": -77.0411065, "bike_id": "ab163c26a3de104cef2faa4bdaa90842", "lat": 38.915527833333336, "fusion_lon": 0.0, "fusion_lat": 0.0, "type": "electric_scooter", "name": "ab163c26a3de104cef2faa4bdaa90842", "is_disabled": 0, "rental_uris": {"ios": "https://dc.lft.to/lastmile_qr_scan", "android": "https://dc.lft.to/lastmile_qr_scan"}, "is_reserved": 0}, {"lon": -77.0234995, "bike_id": "f30b20b82be34cd1824d2bb0d17a7b37", "lat": 38.896223666666664, "fusion_lon": 0.0, "fusion_lat": 0.0, "type": "electric_scooter", "name": "f30b20b82be34cd1824d2bb0d17a7b37", "is_disabled": 0, "rental_uris": {"ios": "https://dc.lft.to/lastmile_qr_scan", "android": "https://dc.lft.to/lastmile_qr_scan"}, "is_reserved": 0}, {"lon": -77.04357583333334, "bike_id": "6bc0c9606998f9cafe5faeda4aa26555", "lat": 38.912194666666664, "fusion_lon": 0.0, "fusion_lat": 0.0, "type": "electric_scooter", "name": "6bc0c9606998f9cafe5faeda4aa26555", "is_disabled": 0, "rental_uris": {"ios": "https://dc.lft.to/lastmile_qr_scan", "android": "https://dc.lft.to/lastmile_qr_scan"}, "is_reserved": 0}, {"lon": -77.07827033333334, "bike_id": "e490cde2390193f658b802899b4a53c9", "lat": 38.923712, "fusion_lon": 0.0, "fusion_lat": 0.0, "type": "electric_scooter", "name": "e490cde2390193f658b802899b4a53c9", "is_disabled": 0, "rental_uris": {"ios": "https://dc.lft.to/lastmile_qr_scan", "android": "https://dc.lft.to/lastmile_qr_scan"}, "is_reserved": 0}, {"lon": -77.0729, "bike_id": "9c8cafcb787bdc8e6015af64cb69ae9e", "lat": 38.9228465, "fusion_lon": 0.0, "fusion_lat": 0.0, "type": "electric_scooter", "name": "9c8cafcb787bdc8e6015af64cb69ae9e", "is_disabled": 0, "rental_uris": {"ios": "https://dc.lft.to/lastmile_qr_scan", "android": "https://dc.lft.to/lastmile_qr_scan"}, "is_reserved": 0}, {"lon": -76.98313083333333, "bike_id": "f05eccef226c3fc7cf63d55476f8930e", "lat": 38.899741666666664, "fusion_lon": 0.0, "fusion_lat": 0.0, "type": "electric_scooter", "name": "f05eccef226c3fc7cf63d55476f8930e", "is_disabled": 0, "rental_uris": {"ios": "https://dc.lft.to/lastmile_qr_scan", "android": "https://dc.lft.to/lastmile_qr_scan"}, "is_reserved": 0}, {"lon": -76.992712, "bike_id": "3efb6f1b46b73c973a6fe6a0cd0eb69c", "lat": 38.90390933333333, "fusion_lon": 0.0, "fusion_lat": 0.0, "type": "electric_scooter", "name": "3efb6f1b46b73c973a6fe6a0cd0eb69c", "is_disabled": 0, "rental_uris": {"ios": "https://dc.lft.to/lastmile_qr_scan", "android": "https://dc.lft.to/lastmile_qr_scan"}, "is_reserved": 0}, {"lon": -77.05563433333333, "bike_id": "7436182df52f0cae28a7eb9a2ce2159c", "lat": 38.93040666666667, "fusion_lon": 0.0, "fusion_lat": 0.0, "type": "electric_scooter", "name": "7436182df52f0cae28a7eb9a2ce2159c", "is_disabled": 0, "rental_uris": {"ios": "https://dc.lft.to/lastmile_qr_scan", "android": "https://dc.lft.to/lastmile_qr_scan"}, "is_reserved": 0}, {"lon": -77.03233983333334, "bike_id": "68f8ceb3ff679dbee5de352d2432dc31", "lat": 38.92987383333333, "fusion_lon": 0.0, "fusion_lat": 0.0, "type": "electric_scooter", "name": "68f8ceb3ff679dbee5de352d2432dc31", "is_disabled": 0, "rental_uris": {"ios": "https://dc.lft.to/lastmile_qr_scan", "android": "https://dc.lft.to/lastmile_qr_scan"}, "is_reserved": 0}, {"lon": -76.98143983333334, "bike_id": "b25bc56f3fb5bd6c75819bd8b4efc9b9", "lat": 38.90564, "fusion_lon": 0.0, "fusion_lat": 0.0, "type": "electric_scooter", "name": "b25bc56f3fb5bd6c75819bd8b4efc9b9", "is_disabled": 0, "rental_uris": {"ios": "https://dc.lft.to/lastmile_qr_scan", "android": "https://dc.lft.to/lastmile_qr_scan"}, "is_reserved": 0}, {"lon": -77.02699533333333, "bike_id": "be532626cd84bae4161023d32e0af671", "lat": 38.906658166666666, "fusion_lon": 0.0, "fusion_lat": 0.0, "type": "electric_scooter", "name": "be532626cd84bae4161023d32e0af671", "is_disabled": 0, "rental_uris": {"ios": "https://dc.lft.to/lastmile_qr_scan", "android": "https://dc.lft.to/lastmile_qr_scan"}, "is_reserved": 0}, {"lon": -77.033574, "bike_id": "0e2518d408f3188e3c0187c023b7795b", "lat": 38.90588483333333, "fusion_lon": 0.0, "fusion_lat": 0.0, "type": "electric_scooter", "name": "0e2518d408f3188e3c0187c023b7795b", "is_disabled": 0, "rental_uris": {"ios": "https://dc.lft.to/lastmile_qr_scan", "android": "https://dc.lft.to/lastmile_qr_scan"}, "is_reserved": 0}, {"lon": -77.09466466666667, "bike_id": "80f9ff388d6d4e35b910c0a866c996c6", "lat": 38.86939983333333, "fusion_lon": 0.0, "fusion_lat": 0.0, "type": "electric_bike", "name": "80f9ff388d6d4e35b910c0a866c996c6", "is_disabled": 0, "rental_uris": {"ios": "https://dc.lft.to/lastmile_qr_scan", "android": "https://dc.lft.to/lastmile_qr_scan"}, "is_reserved": 0}, {"lon": -77.0367245, "bike_id": "af47b2ec655b5c003c47c0a23b61da88", "lat": 38.91810383333333, "fusion_lon": 0.0, "fusion_lat": 0.0, "type": "electric_scooter", "name": "af47b2ec655b5c003c47c0a23b61da88", "is_disabled": 0, "rental_uris": {"ios": "https://dc.lft.to/lastmile_qr_scan", "android": "https://dc.lft.to/lastmile_qr_scan"}, "is_reserved": 0}, {"lon": -77.0238675, "bike_id": "d0c4a82e7382fa2c05b8b16181a776d1", "lat": 38.91144716666667, "fusion_lon": 0.0, "fusion_lat": 0.0, "type": "electric_scooter", "name": "d0c4a82e7382fa2c05b8b16181a776d1", "is_disabled": 0, "rental_uris": {"ios": "https://dc.lft.to/lastmile_qr_scan", "android": "https://dc.lft.to/lastmile_qr_scan"}, "is_reserved": 0}, {"lon": -77.00574116666667, "bike_id": "d30f5b1e023b3769dbf4b074a7d3e4eb", "lat": 38.8299505, "fusion_lon": 0.0, "fusion_lat": 0.0, "type": "electric_scooter", "name": "d30f5b1e023b3769dbf4b074a7d3e4eb", "is_disabled": 0, "rental_uris": {"ios": "https://dc.lft.to/lastmile_qr_scan", "android": "https://dc.lft.to/lastmile_qr_scan"}, "is_reserved": 0}, {"lon": -77.038652, "bike_id": "2f1708b3724aeacfdcfbce46639f2b7b", "lat": 38.909703666666665, "fusion_lon": 0.0, "fusion_lat": 0.0, "type": "electric_scooter", "name": "2f1708b3724aeacfdcfbce46639f2b7b", "is_disabled": 0, "rental_uris": {"ios": "https://dc.lft.to/lastmile_qr_scan", "android": "https://dc.lft.to/lastmile_qr_scan"}, "is_reserved": 0}, {"lon": -77.1052525, "bike_id": "3d9f7c87faffbcf394e21f9554c0e578", "lat": 38.873727, "fusion_lon": 0.0, "fusion_lat": 0.0, "type": "electric_bike", "name": "3d9f7c87faffbcf394e21f9554c0e578", "is_disabled": 0, "rental_uris": {"ios": "https://dc.lft.to/lastmile_qr_scan", "android": "https://dc.lft.to/lastmile_qr_scan"}, "is_reserved": 0}, {"lon": -76.98801266666666, "bike_id": "90dff92a97b10c1248e495c0f068e243", "lat": 38.892451333333334, "fusion_lon": 0.0, "fusion_lat": 0.0, "type": "electric_scooter", "name": "90dff92a97b10c1248e495c0f068e243", "is_disabled": 0, "rental_uris": {"ios": "https://dc.lft.to/lastmile_qr_scan", "android": "https://dc.lft.to/lastmile_qr_scan"}, "is_reserved": 0}, {"lon": -77.03422966666666, "bike_id": "f6fc121b788e583dfd61bb55ba7a4062", "lat": 38.905648166666666, "fusion_lon": 0.0, "fusion_lat": 0.0, "type": "electric_scooter", "name": "f6fc121b788e583dfd61bb55ba7a4062", "is_disabled": 0, "rental_uris": {"ios": "https://dc.lft.to/lastmile_qr_scan", "android": "https://dc.lft.to/lastmile_qr_scan"}, "is_reserved": 0}, {"lon": -77.02487316666667, "bike_id": "72386f0244e7edcea0f25488764c0d9a", "lat": 38.93095616666667, "fusion_lon": 0.0, "fusion_lat": 0.0, "type": "electric_scooter", "name": "72386f0244e7edcea0f25488764c0d9a", "is_disabled": 0, "rental_uris": {"ios": "https://dc.lft.to/lastmile_qr_scan", "android": "https://dc.lft.to/lastmile_qr_scan"}, "is_reserved": 0}, {"lon": -77.02374783333333, "bike_id": "bec4dbf8dd6260516a18f982c17655c6", "lat": 38.90952566666667, "fusion_lon": 0.0, "fusion_lat": 0.0, "type": "electric_scooter", "name": "bec4dbf8dd6260516a18f982c17655c6", "is_disabled": 0, "rental_uris": {"ios": "https://dc.lft.to/lastmile_qr_scan", "android": "https://dc.lft.to/lastmile_qr_scan"}, "is_reserved": 0}, {"lon": -76.98364166666667, "bike_id": "b1b39c780f6495a5b779b3f0529f34dd", "lat": 38.86107766666667, "fusion_lon": 0.0, "fusion_lat": 0.0, "type": "electric_scooter", "name": "b1b39c780f6495a5b779b3f0529f34dd", "is_disabled": 0, "rental_uris": {"ios": "https://dc.lft.to/lastmile_qr_scan", "android": "https://dc.lft.to/lastmile_qr_scan"}, "is_reserved": 0}, {"lon": -77.00812933333333, "bike_id": "3bef4bc0ef7065dff5b40905c3017d4c", "lat": 38.91703116666667, "fusion_lon": 0.0, "fusion_lat": 0.0, "type": "electric_scooter", "name": "3bef4bc0ef7065dff5b40905c3017d4c", "is_disabled": 0, "rental_uris": {"ios": "https://dc.lft.to/lastmile_qr_scan", "android": "https://dc.lft.to/lastmile_qr_scan"}, "is_reserved": 0}, {"lon": -77.037608, "bike_id": "e83dca78cd53fc7206b692d9c74745b0", "lat": 38.90782016666667, "fusion_lon": 0.0, "fusion_lat": 0.0, "type": "electric_scooter", "name": "e83dca78cd53fc7206b692d9c74745b0", "is_disabled": 0, "rental_uris": {"ios": "https://dc.lft.to/lastmile_qr_scan", "android": "https://dc.lft.to/lastmile_qr_scan"}, "is_reserved": 0}, {"lon": -77.03205516666667, "bike_id": "16b4e60be66fcd6c1e947ebcb024056a", "lat": 38.914234666666665, "fusion_lon": 0.0, "fusion_lat": 0.0, "type": "electric_scooter", "name": "16b4e60be66fcd6c1e947ebcb024056a", "is_disabled": 0, "rental_uris": {"ios": "https://dc.lft.to/lastmile_qr_scan", "android": "https://dc.lft.to/lastmile_qr_scan"}, "is_reserved": 0}, {"lon": -77.03888583333334, "bike_id": "43ad355fa7c3b25c76f89470f50fdf12", "lat": 38.9111175, "fusion_lon": 0.0, "fusion_lat": 0.0, "type": "electric_scooter", "name": "43ad355fa7c3b25c76f89470f50fdf12", "is_disabled": 0, "rental_uris": {"ios": "https://dc.lft.to/lastmile_qr_scan", "android": "https://dc.lft.to/lastmile_qr_scan"}, "is_reserved": 0}, {"lon": -77.03394266666666, "bike_id": "eb7b66500c4d53e21f6330d6577470b5", "lat": 38.92054733333333, "fusion_lon": 0.0, "fusion_lat": 0.0, "type": "electric_scooter", "name": "eb7b66500c4d53e21f6330d6577470b5", "is_disabled": 0, "rental_uris": {"ios": "https://dc.lft.to/lastmile_qr_scan", "android": "https://dc.lft.to/lastmile_qr_scan"}, "is_reserved": 0}, {"lon": -76.93369183333333, "bike_id": "9a484c325fd5d12ef675a5abf7539c78", "lat": 38.899124666666665, "fusion_lon": 0.0, "fusion_lat": 0.0, "type": "electric_scooter", "name": "9a484c325fd5d12ef675a5abf7539c78", "is_disabled": 0, "rental_uris": {"ios": "https://dc.lft.to/lastmile_qr_scan", "android": "https://dc.lft.to/lastmile_qr_scan"}, "is_reserved": 0}, {"lon": -77.0450105, "bike_id": "8214ee7c7e9d28686dbdb848db9c34a7", "lat": 38.912094, "fusion_lon": 0.0, "fusion_lat": 0.0, "type": "electric_scooter", "name": "8214ee7c7e9d28686dbdb848db9c34a7", "is_disabled": 0, "rental_uris": {"ios": "https://dc.lft.to/lastmile_qr_scan", "android": "https://dc.lft.to/lastmile_qr_scan"}, "is_reserved": 0}, {"lon": -77.056431, "bike_id": "319c55e73cbd97b137f1b9acbcfe5d19", "lat": 38.894275666666665, "fusion_lon": 0.0, "fusion_lat": 0.0, "type": "electric_scooter", "name": "319c55e73cbd97b137f1b9acbcfe5d19", "is_disabled": 0, "rental_uris": {"ios": "https://dc.lft.to/lastmile_qr_scan", "android": "https://dc.lft.to/lastmile_qr_scan"}, "is_reserved": 0}, {"lon": -76.93177533333333, "bike_id": "78ceb3ffd326d851a935d3e3c44b8227", "lat": 38.898835166666665, "fusion_lon": 0.0, "fusion_lat": 0.0, "type": "electric_scooter", "name": "78ceb3ffd326d851a935d3e3c44b8227", "is_disabled": 0, "rental_uris": {"ios": "https://dc.lft.to/lastmile_qr_scan", "android": "https://dc.lft.to/lastmile_qr_scan"}, "is_reserved": 0}, {"lon": -76.99569433333333, "bike_id": "705d91b290a6825f4072d9e6582c8597", "lat": 38.85179133333333, "fusion_lon": 0.0, "fusion_lat": 0.0, "type": "electric_bike", "name": "705d91b290a6825f4072d9e6582c8597", "is_disabled": 0, "rental_uris": {"ios": "https://dc.lft.to/lastmile_qr_scan", "android": "https://dc.lft.to/lastmile_qr_scan"}, "is_reserved": 0}, {"lon": -76.99608483333333, "bike_id": "42a5b4ff66d677153e7603da03ed9d8e", "lat": 38.883153, "fusion_lon": 0.0, "fusion_lat": 0.0, "type": "electric_scooter", "name": "42a5b4ff66d677153e7603da03ed9d8e", "is_disabled": 0, "rental_uris": {"ios": "https://dc.lft.to/lastmile_qr_scan", "android": "https://dc.lft.to/lastmile_qr_scan"}, "is_reserved": 0}, {"lon": -77.033471, "bike_id": "ce640e822a2bab98efeb3af5c32d4e39", "lat": 38.94716316666667, "fusion_lon": 0.0, "fusion_lat": 0.0, "type": "electric_scooter", "name": "ce640e822a2bab98efeb3af5c32d4e39", "is_disabled": 0, "rental_uris": {"ios": "https://dc.lft.to/lastmile_qr_scan", "android": "https://dc.lft.to/lastmile_qr_scan"}, "is_reserved": 0}, {"lon": -77.02470333333333, "bike_id": "ab0910d3f44a3732d29470f0b9019a8d", "lat": 38.919198333333334, "fusion_lon": 0.0, "fusion_lat": 0.0, "type": "electric_scooter", "name": "ab0910d3f44a3732d29470f0b9019a8d", "is_disabled": 0, "rental_uris": {"ios": "https://dc.lft.to/lastmile_qr_scan", "android": "https://dc.lft.to/lastmile_qr_scan"}, "is_reserved": 0}, {"lon": -77.04451, "bike_id": "cd86d03c90ff8ab2cc64c4ffd012def2", "lat": 38.9193635, "fusion_lon": 0.0, "fusion_lat": 0.0, "type": "electric_scooter", "name": "cd86d03c90ff8ab2cc64c4ffd012def2", "is_disabled": 0, "rental_uris": {"ios": "https://dc.lft.to/lastmile_qr_scan", "android": "https://dc.lft.to/lastmile_qr_scan"}, "is_reserved": 0}, {"lon": -76.95195066666666, "bike_id": "8bce4d19fc237cbb5d5a74b18a971499", "lat": 38.900022666666665, "fusion_lon": 0.0, "fusion_lat": 0.0, "type": "electric_scooter", "name": "8bce4d19fc237cbb5d5a74b18a971499", "is_disabled": 0, "rental_uris": {"ios": "https://dc.lft.to/lastmile_qr_scan", "android": "https://dc.lft.to/lastmile_qr_scan"}, "is_reserved": 0}, {"lon": -77.01577266666666, "bike_id": "71c0a1eb844b264879976f5c761cff4f", "lat": 38.894716333333335, "fusion_lon": 0.0, "fusion_lat": 0.0, "type": "electric_scooter", "name": "71c0a1eb844b264879976f5c761cff4f", "is_disabled": 0, "rental_uris": {"ios": "https://dc.lft.to/lastmile_qr_scan", "android": "https://dc.lft.to/lastmile_qr_scan"}, "is_reserved": 0}, {"lon": -77.04134466666666, "bike_id": "443da42bb93a0a5c7ad779e353882a4c", "lat": 38.9096055, "fusion_lon": 0.0, "fusion_lat": 0.0, "type": "electric_scooter", "name": "443da42bb93a0a5c7ad779e353882a4c", "is_disabled": 0, "rental_uris": {"ios": "https://dc.lft.to/lastmile_qr_scan", "android": "https://dc.lft.to/lastmile_qr_scan"}, "is_reserved": 0}, {"lon": -77.01966716666666, "bike_id": "7f4f909f1e1885e46d00bc3e9452c288", "lat": 38.93581183333333, "fusion_lon": 0.0, "fusion_lat": 0.0, "type": "electric_scooter", "name": "7f4f909f1e1885e46d00bc3e9452c288", "is_disabled": 0, "rental_uris": {"ios": "https://dc.lft.to/lastmile_qr_scan", "android": "https://dc.lft.to/lastmile_qr_scan"}, "is_reserved": 0}, {"lon": -77.02586466666666, "bike_id": "efd6692405b9a292af9d45a19243137e", "lat": 38.88739666666667, "fusion_lon": 0.0, "fusion_lat": 0.0, "type": "electric_scooter", "name": "efd6692405b9a292af9d45a19243137e", "is_disabled": 0, "rental_uris": {"ios": "https://dc.lft.to/lastmile_qr_scan", "android": "https://dc.lft.to/lastmile_qr_scan"}, "is_reserved": 0}, {"lon": -77.030417, "bike_id": "dcaf167bdb0a2ec93a95f55f57215684", "lat": 38.87839183333333, "fusion_lon": 0.0, "fusion_lat": 0.0, "type": "electric_scooter", "name": "dcaf167bdb0a2ec93a95f55f57215684", "is_disabled": 0, "rental_uris": {"ios": "https://dc.lft.to/lastmile_qr_scan", "android": "https://dc.lft.to/lastmile_qr_scan"}, "is_reserved": 0}, {"lon": -77.02463183333333, "bike_id": "c07d26c09259c5bfa2731900a3473a65", "lat": 38.9371, "fusion_lon": 0.0, "fusion_lat": 0.0, "type": "electric_scooter", "name": "c07d26c09259c5bfa2731900a3473a65", "is_disabled": 0, "rental_uris": {"ios": "https://dc.lft.to/lastmile_qr_scan", "android": "https://dc.lft.to/lastmile_qr_scan"}, "is_reserved": 0}, {"lon": -77.03864866666666, "bike_id": "3749fc8e5391f2df15b4d14cf7aaff57", "lat": 38.912543666666664, "fusion_lon": 0.0, "fusion_lat": 0.0, "type": "electric_scooter", "name": "3749fc8e5391f2df15b4d14cf7aaff57", "is_disabled": 0, "rental_uris": {"ios": "https://dc.lft.to/lastmile_qr_scan", "android": "https://dc.lft.to/lastmile_qr_scan"}, "is_reserved": 0}, {"lon": -76.93735033333333, "bike_id": "bf1f570f0a9543091fdc77ca4d99960e", "lat": 38.8901355, "fusion_lon": 0.0, "fusion_lat": 0.0, "type": "electric_scooter", "name": "bf1f570f0a9543091fdc77ca4d99960e", "is_disabled": 0, "rental_uris": {"ios": "https://dc.lft.to/lastmile_qr_scan", "android": "https://dc.lft.to/lastmile_qr_scan"}, "is_reserved": 0}, {"lon": -77.0344925, "bike_id": "c9bd970277be3d3f17c20a97e7ce9731", "lat": 38.90974283333333, "fusion_lon": 0.0, "fusion_lat": 0.0, "type": "electric_scooter", "name": "c9bd970277be3d3f17c20a97e7ce9731", "is_disabled": 0, "rental_uris": {"ios": "https://dc.lft.to/lastmile_qr_scan", "android": "https://dc.lft.to/lastmile_qr_scan"}, "is_reserved": 0}, {"lon": -76.990021, "bike_id": "41ea9c09f35865bd72f96e0b83478377", "lat": 38.86505833333333, "fusion_lon": 0.0, "fusion_lat": 0.0, "type": "electric_scooter", "name": "41ea9c09f35865bd72f96e0b83478377", "is_disabled": 0, "rental_uris": {"ios": "https://dc.lft.to/lastmile_qr_scan", "android": "https://dc.lft.to/lastmile_qr_scan"}, "is_reserved": 0}, {"lon": -76.98939416666667, "bike_id": "46e520cd694235a4ae856fa1a7dd4081", "lat": 38.90182766666667, "fusion_lon": 0.0, "fusion_lat": 0.0, "type": "electric_scooter", "name": "46e520cd694235a4ae856fa1a7dd4081", "is_disabled": 0, "rental_uris": {"ios": "https://dc.lft.to/lastmile_qr_scan", "android": "https://dc.lft.to/lastmile_qr_scan"}, "is_reserved": 0}, {"lon": -77.02721666666666, "bike_id": "08eeae2d4e6972fefedb210c12ce05f5", "lat": 38.89777383333333, "fusion_lon": 0.0, "fusion_lat": 0.0, "type": "electric_scooter", "name": "08eeae2d4e6972fefedb210c12ce05f5", "is_disabled": 0, "rental_uris": {"ios": "https://dc.lft.to/lastmile_qr_scan", "android": "https://dc.lft.to/lastmile_qr_scan"}, "is_reserved": 0}, {"lon": -77.02163366666667, "bike_id": "bc7b16a029eca21e4d6123c2282400ab", "lat": 38.89741083333333, "fusion_lon": 0.0, "fusion_lat": 0.0, "type": "electric_scooter", "name": "bc7b16a029eca21e4d6123c2282400ab", "is_disabled": 0, "rental_uris": {"ios": "https://dc.lft.to/lastmile_qr_scan", "android": "https://dc.lft.to/lastmile_qr_scan"}, "is_reserved": 0}, {"lon": -77.04160716666667, "bike_id": "06fb1c2758b1c58ca0863c4ea0efa503", "lat": 38.91247833333333, "fusion_lon": 0.0, "fusion_lat": 0.0, "type": "electric_scooter", "name": "06fb1c2758b1c58ca0863c4ea0efa503", "is_disabled": 0, "rental_uris": {"ios": "https://dc.lft.to/lastmile_qr_scan", "android": "https://dc.lft.to/lastmile_qr_scan"}, "is_reserved": 0}, {"lon": -77.05274516666667, "bike_id": "a00a40d98fd63dd114d44ca1409e9121", "lat": 38.92559516666667, "fusion_lon": 0.0, "fusion_lat": 0.0, "type": "electric_scooter", "name": "a00a40d98fd63dd114d44ca1409e9121", "is_disabled": 0, "rental_uris": {"ios": "https://dc.lft.to/lastmile_qr_scan", "android": "https://dc.lft.to/lastmile_qr_scan"}, "is_reserved": 0}, {"lon": -76.95753633333334, "bike_id": "0e6b3d7004fff7659d326039607ec704", "lat": 38.88428116666667, "fusion_lon": 0.0, "fusion_lat": 0.0, "type": "electric_scooter", "name": "0e6b3d7004fff7659d326039607ec704", "is_disabled": 0, "rental_uris": {"ios": "https://dc.lft.to/lastmile_qr_scan", "android": "https://dc.lft.to/lastmile_qr_scan"}, "is_reserved": 0}, {"lon": -77.05689283333334, "bike_id": "29cc53f275ced489c3d62e5271a3f0ca", "lat": 38.905139, "fusion_lon": 0.0, "fusion_lat": 0.0, "type": "electric_bike", "name": "29cc53f275ced489c3d62e5271a3f0ca", "is_disabled": 0, "rental_uris": {"ios": "https://dc.lft.to/lastmile_qr_scan", "android": "https://dc.lft.to/lastmile_qr_scan"}, "is_reserved": 0}, {"lon": -76.98554066666667, "bike_id": "a76c34f34cae4f18370ea3a9318fc7f0", "lat": 38.896162833333335, "fusion_lon": 0.0, "fusion_lat": 0.0, "type": "electric_scooter", "name": "a76c34f34cae4f18370ea3a9318fc7f0", "is_disabled": 0, "rental_uris": {"ios": "https://dc.lft.to/lastmile_qr_scan", "android": "https://dc.lft.to/lastmile_qr_scan"}, "is_reserved": 0}, {"lon": -77.05027933333334, "bike_id": "d2e6a3575e9b67faf697f9d140a14297", "lat": 38.90157266666667, "fusion_lon": 0.0, "fusion_lat": 0.0, "type": "electric_scooter", "name": "d2e6a3575e9b67faf697f9d140a14297", "is_disabled": 0, "rental_uris": {"ios": "https://dc.lft.to/lastmile_qr_scan", "android": "https://dc.lft.to/lastmile_qr_scan"}, "is_reserved": 0}, {"lon": -77.0318335, "bike_id": "3c5e08f831d5bef6f7300f5ff17a232f", "lat": 38.9368785, "fusion_lon": 0.0, "fusion_lat": 0.0, "type": "electric_scooter", "name": "3c5e08f831d5bef6f7300f5ff17a232f", "is_disabled": 0, "rental_uris": {"ios": "https://dc.lft.to/lastmile_qr_scan", "android": "https://dc.lft.to/lastmile_qr_scan"}, "is_reserved": 0}, {"lon": -77.025867, "bike_id": "c63cb91711b39ae9ea57e93f83525020", "lat": 38.930871, "fusion_lon": 0.0, "fusion_lat": 0.0, "type": "electric_scooter", "name": "c63cb91711b39ae9ea57e93f83525020", "is_disabled": 0, "rental_uris": {"ios": "https://dc.lft.to/lastmile_qr_scan", "android": "https://dc.lft.to/lastmile_qr_scan"}, "is_reserved": 0}, {"lon": -77.012133, "bike_id": "d50e9c8fa6620fb45b85c062d7b232d6", "lat": 38.92121266666667, "fusion_lon": 0.0, "fusion_lat": 0.0, "type": "electric_scooter", "name": "d50e9c8fa6620fb45b85c062d7b232d6", "is_disabled": 0, "rental_uris": {"ios": "https://dc.lft.to/lastmile_qr_scan", "android": "https://dc.lft.to/lastmile_qr_scan"}, "is_reserved": 0}, {"lon": -77.05697466666666, "bike_id": "c250b2c86a22a9d800e13a2bdfd1d010", "lat": 38.93718066666667, "fusion_lon": 0.0, "fusion_lat": 0.0, "type": "electric_scooter", "name": "c250b2c86a22a9d800e13a2bdfd1d010", "is_disabled": 0, "rental_uris": {"ios": "https://dc.lft.to/lastmile_qr_scan", "android": "https://dc.lft.to/lastmile_qr_scan"}, "is_reserved": 0}, {"lon": -77.00631483333333, "bike_id": "1984788424f73f0c6df0443d0eb22b97", "lat": 38.912609333333336, "fusion_lon": 0.0, "fusion_lat": 0.0, "type": "electric_scooter", "name": "1984788424f73f0c6df0443d0eb22b97", "is_disabled": 0, "rental_uris": {"ios": "https://dc.lft.to/lastmile_qr_scan", "android": "https://dc.lft.to/lastmile_qr_scan"}, "is_reserved": 0}, {"lon": -76.97536466666666, "bike_id": "6d99cd3dc9bd76b3d9ee9efc03efd1c2", "lat": 38.8642335, "fusion_lon": 0.0, "fusion_lat": 0.0, "type": "electric_scooter", "name": "6d99cd3dc9bd76b3d9ee9efc03efd1c2", "is_disabled": 0, "rental_uris": {"ios": "https://dc.lft.to/lastmile_qr_scan", "android": "https://dc.lft.to/lastmile_qr_scan"}, "is_reserved": 0}, {"lon": -76.930114, "bike_id": "3fb36652bcc36232bfc84ea44ca1dbb5", "lat": 38.891964333333334, "fusion_lon": 0.0, "fusion_lat": 0.0, "type": "electric_scooter", "name": "3fb36652bcc36232bfc84ea44ca1dbb5", "is_disabled": 0, "rental_uris": {"ios": "https://dc.lft.to/lastmile_qr_scan", "android": "https://dc.lft.to/lastmile_qr_scan"}, "is_reserved": 0}, {"lon": -77.11169533333333, "bike_id": "389df786b6720e61d3953783ec256c5d", "lat": 38.85508733333333, "fusion_lon": 0.0, "fusion_lat": 0.0, "type": "electric_bike", "name": "389df786b6720e61d3953783ec256c5d", "is_disabled": 0, "rental_uris": {"ios": "https://dc.lft.to/lastmile_qr_scan", "android": "https://dc.lft.to/lastmile_qr_scan"}, "is_reserved": 0}, {"lon": -77.0573215, "bike_id": "fa7c9e13dd1134daa5fbe8c159ab997c", "lat": 38.9336955, "fusion_lon": 0.0, "fusion_lat": 0.0, "type": "electric_scooter", "name": "fa7c9e13dd1134daa5fbe8c159ab997c", "is_disabled": 0, "rental_uris": {"ios": "https://dc.lft.to/lastmile_qr_scan", "android": "https://dc.lft.to/lastmile_qr_scan"}, "is_reserved": 0}, {"lon": -77.01876683333333, "bike_id": "bc54ca4b5c2b1a9ce52b0a6029663cc9", "lat": 38.918329666666665, "fusion_lon": 0.0, "fusion_lat": 0.0, "type": "electric_scooter", "name": "bc54ca4b5c2b1a9ce52b0a6029663cc9", "is_disabled": 0, "rental_uris": {"ios": "https://dc.lft.to/lastmile_qr_scan", "android": "https://dc.lft.to/lastmile_qr_scan"}, "is_reserved": 0}, {"lon": -76.99526366666667, "bike_id": "1ad512b9493ad6ae169d8ec609329cee", "lat": 38.883648666666666, "fusion_lon": 0.0, "fusion_lat": 0.0, "type": "electric_scooter", "name": "1ad512b9493ad6ae169d8ec609329cee", "is_disabled": 0, "rental_uris": {"ios": "https://dc.lft.to/lastmile_qr_scan", "android": "https://dc.lft.to/lastmile_qr_scan"}, "is_reserved": 0}, {"lon": -76.982313, "bike_id": "57a2ed5b33e0a0b03521c00bcffca87f", "lat": 38.88645966666667, "fusion_lon": 0.0, "fusion_lat": 0.0, "type": "electric_scooter", "name": "57a2ed5b33e0a0b03521c00bcffca87f", "is_disabled": 0, "rental_uris": {"ios": "https://dc.lft.to/lastmile_qr_scan", "android": "https://dc.lft.to/lastmile_qr_scan"}, "is_reserved": 0}, {"lon": -77.00056816666667, "bike_id": "1c536e55c33cfef908f87afa5f8f23a6", "lat": 38.8948945, "fusion_lon": 0.0, "fusion_lat": 0.0, "type": "electric_scooter", "name": "1c536e55c33cfef908f87afa5f8f23a6", "is_disabled": 0, "rental_uris": {"ios": "https://dc.lft.to/lastmile_qr_scan", "android": "https://dc.lft.to/lastmile_qr_scan"}, "is_reserved": 0}, {"lon": -77.04338716666666, "bike_id": "f72468096b3315bd4040f6ff18c0fb38", "lat": 38.92220983333333, "fusion_lon": 0.0, "fusion_lat": 0.0, "type": "electric_scooter", "name": "f72468096b3315bd4040f6ff18c0fb38", "is_disabled": 0, "rental_uris": {"ios": "https://dc.lft.to/lastmile_qr_scan", "android": "https://dc.lft.to/lastmile_qr_scan"}, "is_reserved": 0}, {"lon": -77.10490866666666, "bike_id": "7bae5e3b4334c2d81378042110e026e7", "lat": 38.8561085, "fusion_lon": 0.0, "fusion_lat": 0.0, "type": "electric_bike", "name": "7bae5e3b4334c2d81378042110e026e7", "is_disabled": 0, "rental_uris": {"ios": "https://dc.lft.to/lastmile_qr_scan", "android": "https://dc.lft.to/lastmile_qr_scan"}, "is_reserved": 0}, {"lon": -77.04416283333333, "bike_id": "9394e06deef9b34251e8e2904367f96f", "lat": 38.921195166666664, "fusion_lon": 0.0, "fusion_lat": 0.0, "type": "electric_scooter", "name": "9394e06deef9b34251e8e2904367f96f", "is_disabled": 0, "rental_uris": {"ios": "https://dc.lft.to/lastmile_qr_scan", "android": "https://dc.lft.to/lastmile_qr_scan"}, "is_reserved": 0}, {"lon": -77.03759033333333, "bike_id": "1a32c66bd3b61b3164ea0ca437052b5c", "lat": 38.90779416666667, "fusion_lon": 0.0, "fusion_lat": 0.0, "type": "electric_scooter", "name": "1a32c66bd3b61b3164ea0ca437052b5c", "is_disabled": 0, "rental_uris": {"ios": "https://dc.lft.to/lastmile_qr_scan", "android": "https://dc.lft.to/lastmile_qr_scan"}, "is_reserved": 0}, {"lon": -77.046603, "bike_id": "5090fbf415af6048450dc6053d950962", "lat": 38.90549216666667, "fusion_lon": 0.0, "fusion_lat": 0.0, "type": "electric_scooter", "name": "5090fbf415af6048450dc6053d950962", "is_disabled": 0, "rental_uris": {"ios": "https://dc.lft.to/lastmile_qr_scan", "android": "https://dc.lft.to/lastmile_qr_scan"}, "is_reserved": 0}, {"lon": -77.05159233333333, "bike_id": "88bfdbea7b8c275092635f9895eb0e40", "lat": 39.04301733333333, "fusion_lon": 0.0, "fusion_lat": 0.0, "type": "electric_bike", "name": "88bfdbea7b8c275092635f9895eb0e40", "is_disabled": 0, "rental_uris": {"ios": "https://dc.lft.to/lastmile_qr_scan", "android": "https://dc.lft.to/lastmile_qr_scan"}, "is_reserved": 0}, {"lon": -77.04241366666666, "bike_id": "5f826d6f61e75640903134e6414b2dd4", "lat": 38.922213166666666, "fusion_lon": 0.0, "fusion_lat": 0.0, "type": "electric_scooter", "name": "5f826d6f61e75640903134e6414b2dd4", "is_disabled": 0, "rental_uris": {"ios": "https://dc.lft.to/lastmile_qr_scan", "android": "https://dc.lft.to/lastmile_qr_scan"}, "is_reserved": 0}, {"lon": -77.0464375, "bike_id": "041601acf81c7884592d279c143b7c10", "lat": 38.921185333333334, "fusion_lon": 0.0, "fusion_lat": 0.0, "type": "electric_scooter", "name": "041601acf81c7884592d279c143b7c10", "is_disabled": 0, "rental_uris": {"ios": "https://dc.lft.to/lastmile_qr_scan", "android": "https://dc.lft.to/lastmile_qr_scan"}, "is_reserved": 0}, {"lon": -77.04025866666667, "bike_id": "97277cc9159a469d7c4c4ef4738fea93", "lat": 38.924511833333334, "fusion_lon": 0.0, "fusion_lat": 0.0, "type": "electric_scooter", "name": "97277cc9159a469d7c4c4ef4738fea93", "is_disabled": 0, "rental_uris": {"ios": "https://dc.lft.to/lastmile_qr_scan", "android": "https://dc.lft.to/lastmile_qr_scan"}, "is_reserved": 0}, {"lon": -77.03485466666666, "bike_id": "6f2a1af5e723d992aa3f000ec4b89e00", "lat": 38.917126333333336, "fusion_lon": 0.0, "fusion_lat": 0.0, "type": "electric_scooter", "name": "6f2a1af5e723d992aa3f000ec4b89e00", "is_disabled": 0, "rental_uris": {"ios": "https://dc.lft.to/lastmile_qr_scan", "android": "https://dc.lft.to/lastmile_qr_scan"}, "is_reserved": 0}, {"lon": -77.05905766666666, "bike_id": "1c3d6ef4d47e66344b63f0896d010364", "lat": 38.936259, "fusion_lon": 0.0, "fusion_lat": 0.0, "type": "electric_scooter", "name": "1c3d6ef4d47e66344b63f0896d010364", "is_disabled": 0, "rental_uris": {"ios": "https://dc.lft.to/lastmile_qr_scan", "android": "https://dc.lft.to/lastmile_qr_scan"}, "is_reserved": 0}, {"lon": -77.03220666666667, "bike_id": "40a9b6e5ebe8a64319c5738189c4cce5", "lat": 38.918344833333336, "fusion_lon": 0.0, "fusion_lat": 0.0, "type": "electric_scooter", "name": "40a9b6e5ebe8a64319c5738189c4cce5", "is_disabled": 0, "rental_uris": {"ios": "https://dc.lft.to/lastmile_qr_scan", "android": "https://dc.lft.to/lastmile_qr_scan"}, "is_reserved": 0}, {"lon": -77.06107283333333, "bike_id": "acf3b5d100986427beea321099c7f516", "lat": 38.937060833333334, "fusion_lon": 0.0, "fusion_lat": 0.0, "type": "electric_scooter", "name": "acf3b5d100986427beea321099c7f516", "is_disabled": 0, "rental_uris": {"ios": "https://dc.lft.to/lastmile_qr_scan", "android": "https://dc.lft.to/lastmile_qr_scan"}, "is_reserved": 0}, {"lon": -77.00371133333333, "bike_id": "496ab01dcd983852607186660bc68ee9", "lat": 38.897255, "fusion_lon": 0.0, "fusion_lat": 0.0, "type": "electric_scooter", "name": "496ab01dcd983852607186660bc68ee9", "is_disabled": 0, "rental_uris": {"ios": "https://dc.lft.to/lastmile_qr_scan", "android": "https://dc.lft.to/lastmile_qr_scan"}, "is_reserved": 0}, {"lon": -76.94887916666667, "bike_id": "3764ef13c52c336ab9e0da7cb0c80142", "lat": 38.895113, "fusion_lon": 0.0, "fusion_lat": 0.0, "type": "electric_scooter", "name": "3764ef13c52c336ab9e0da7cb0c80142", "is_disabled": 0, "rental_uris": {"ios": "https://dc.lft.to/lastmile_qr_scan", "android": "https://dc.lft.to/lastmile_qr_scan"}, "is_reserved": 0}, {"lon": -77.03459866666667, "bike_id": "02bb0a9429bee36ade4a6c2c31e25f35", "lat": 38.918174, "fusion_lon": 0.0, "fusion_lat": 0.0, "type": "electric_scooter", "name": "02bb0a9429bee36ade4a6c2c31e25f35", "is_disabled": 0, "rental_uris": {"ios": "https://dc.lft.to/lastmile_qr_scan", "android": "https://dc.lft.to/lastmile_qr_scan"}, "is_reserved": 0},