{"data": {"bikes": [{"name": "bf045783be02be92b488d482e21f05ca", "type": "electric_scooter", "lat": 38.863575833333336, "is_reserved": 0, "lon": -76.9906745, "fusion_lon": 0.0, "is_disabled": 0, "fusion_lat": 0.0, "bike_id": "bf045783be02be92b488d482e21f05ca", "rental_uris": {"ios": "https://dc.lft.to/lastmile_qr_scan", "android": "https://dc.lft.to/lastmile_qr_scan"}}, {"name": "62f928cf04e840a3ef83705291c9e2f1", "type": "electric_scooter", "lat": 38.898326833333336, "is_reserved": 0, "lon": -76.94635233333334, "fusion_lon": 0.0, "is_disabled": 0, "fusion_lat": 0.0, "bike_id": "62f928cf04e840a3ef83705291c9e2f1", "rental_uris": {"ios": "https://dc.lft.to/lastmile_qr_scan", "android": "https://dc.lft.to/lastmile_qr_scan"}}, {"name": "76f5c7b80d7fa4b03b2ef2fb78493b89", "type": "electric_scooter", "lat": 38.90958933333334, "is_reserved": 0, "lon": -77.0385865, "fusion_lon": 0.0, "is_disabled": 0, "fusion_lat": 0.0, "bike_id": "76f5c7b80d7fa4b03b2ef2fb78493b89", "rental_uris": {"ios": "https://dc.lft.to/lastmile_qr_scan", "android": "https://dc.lft.to/lastmile_qr_scan"}}, {"name": "6859addf44801f2a4008ab1dad0b3041", "type": "electric_scooter", "lat": 38.89495566666667, "is_reserved": 0, "lon": -77.01102616666667, "fusion_lon": 0.0, "is_disabled": 0, "fusion_lat": 0.0, "bike_id": "6859addf44801f2a4008ab1dad0b3041", "rental_uris": {"ios": "https://dc.lft.to/lastmile_qr_scan", "android": "https://dc.lft.to/lastmile_qr_scan"}}, {"name": "22349d088c73926029651f87ea757e2d", "type": "electric_scooter", "lat": 38.900143, "is_reserved": 0, "lon": -77.03203383333333, "fusion_lon": 0.0, "is_disabled": 0, "fusion_lat": 0.0, "bike_id": "22349d088c73926029651f87ea757e2d", "rental_uris": {"ios": "https://dc.lft.to/lastmile_qr_scan", "android": "https://dc.lft.to/lastmile_qr_scan"}}, {"name": "c86e41a3a765f85b1c50518c751135f3", "type": "electric_scooter", "lat": 38.904421, "is_reserved": 0, "lon": -77.04901283333334, "fusion_lon": 0.0, "is_disabled": 0, "fusion_lat": 0.0, "bike_id": "c86e41a3a765f85b1c50518c751135f3", "rental_uris": {"ios": "https://dc.lft.to/lastmile_qr_scan", "android": "https://dc.lft.to/lastmile_qr_scan"}}, {"name": "ba76e8a3d2e6af79daa83adc3c6bf0fa", "type": "electric_scooter", "lat": 38.922509833333336, "is_reserved": 0, "lon": -77.03517816666667, "fusion_lon": 0.0, "is_disabled": 0, "fusion_lat": 0.0, "bike_id": "ba76e8a3d2e6af79daa83adc3c6bf0fa", "rental_uris": {"ios": "https://dc.lft.to/lastmile_qr_scan", "android": "https://dc.lft.to/lastmile_qr_scan"}}, {"name": "f5a0b5acfa653e7ae854d52489739c0d", "type": "electric_scooter", "lat": 38.91328933333333, "is_reserved": 0, "lon": -77.00223816666667, "fusion_lon": 0.0, "is_disabled": 0, "fusion_lat": 0.0, "bike_id": "f5a0b5acfa653e7ae854d52489739c0d", "rental_uris": {"ios": "https://dc.lft.to/lastmile_qr_scan", "android": "https://dc.lft.to/lastmile_qr_scan"}}, {"name": "40258b3e9ce49c29b441c72bd11f0f35", "type": "electric_scooter", "lat": 38.9259335, "is_reserved": 0, "lon": -77.00478383333333, "fusion_lon": 0.0, "is_disabled": 0, "fusion_lat": 0.0, "bike_id": "40258b3e9ce49c29b441c72bd11f0f35", "rental_uris": {"ios": "https://dc.lft.to/lastmile_qr_scan", "android": "https://dc.lft.to/lastmile_qr_scan"}}, {"name": "4d3db0b011cdc297f56451d184e94454", "type": "electric_scooter", "lat": 38.9209415, "is_reserved": 0, "lon": -77.02587016666666, "fusion_lon": 0.0, "is_disabled": 0, "fusion_lat": 0.0, "bike_id": "4d3db0b011cdc297f56451d184e94454", "rental_uris": {"ios": "https://dc.lft.to/lastmile_qr_scan", "android": "https://dc.lft.to/lastmile_qr_scan"}}, {"name": "795893346c0f086e53cff7c2f11b5b85", "type": "electric_scooter", "lat": 38.88429283333333, "is_reserved": 0, "lon": -76.957564, "fusion_lon": 0.0, "is_disabled": 0, "fusion_lat": 0.0, "bike_id": "795893346c0f086e53cff7c2f11b5b85", "rental_uris": {"ios": "https://dc.lft.to/lastmile_qr_scan", "android": "https://dc.lft.to/lastmile_qr_scan"}}, {"name": "1518d13d4b8fdcc0777956f57ea89d17", "type": "electric_scooter", "lat": 38.91673433333333, "is_reserved": 0, "lon": -77.0271575, "fusion_lon": 0.0, "is_disabled": 0, "fusion_lat": 0.0, "bike_id": "1518d13d4b8fdcc0777956f57ea89d17", "rental_uris": {"ios": "https://dc.lft.to/lastmile_qr_scan", "android": "https://dc.lft.to/lastmile_qr_scan"}}, {"name": "89fc4df163801ee42b15e38c8e58d37d", "type": "electric_bike", "lat": 38.9547855, "is_reserved": 0, "lon": -77.08241916666667, "fusion_lon": 0.0, "is_disabled": 0, "fusion_lat": 0.0, "bike_id": "89fc4df163801ee42b15e38c8e58d37d", "rental_uris": {"ios": "https://dc.lft.to/lastmile_qr_scan", "android": "https://dc.lft.to/lastmile_qr_scan"}}, {"name": "c0e178c79fc3a7d8efdaa58b9a8502d1", "type": "electric_scooter", "lat": 38.920707666666665, "is_reserved": 0, "lon": -77.04247283333333, "fusion_lon": 0.0, "is_disabled": 0, "fusion_lat": 0.0, "bike_id": "c0e178c79fc3a7d8efdaa58b9a8502d1", "rental_uris": {"ios": "https://dc.lft.to/lastmile_qr_scan", "android": "https://dc.lft.to/lastmile_qr_scan"}}, {"name": "a49a40347a1b0e9b4624a14a0b663b84", "type": "electric_scooter", "lat": 38.924188, "is_reserved": 0, "lon": -77.019474, "fusion_lon": 0.0, "is_disabled": 0, "fusion_lat": 0.0, "bike_id": "a49a40347a1b0e9b4624a14a0b663b84", "rental_uris": {"ios": "https://dc.lft.to/lastmile_qr_scan", "android": "https://dc.lft.to/lastmile_qr_scan"}}, {"name": "903540dac1c833c5ceee7e072e02b77b", "type": "electric_scooter", "lat": 38.861995666666665, "is_reserved": 0, "lon": -76.9946585, "fusion_lon": 0.0, "is_disabled": 0, "fusion_lat": 0.0, "bike_id": "903540dac1c833c5ceee7e072e02b77b", "rental_uris": {"ios": "https://dc.lft.to/lastmile_qr_scan", "android": "https://dc.lft.to/lastmile_qr_scan"}}, {"name": "6c153fceb4bb6e3f82c044010a8b260c", "type": "electric_scooter", "lat": 38.90031616666667, "is_reserved": 0, "lon": -77.01161533333334, "fusion_lon": 0.0, "is_disabled": 0, "fusion_lat": 0.0, "bike_id": "6c153fceb4bb6e3f82c044010a8b260c", "rental_uris": {"ios": "https://dc.lft.to/lastmile_qr_scan", "android": "https://dc.lft.to/lastmile_qr_scan"}}, {"name": "043667860e609722cb258af7ff375f07", "type": "electric_scooter", "lat": 38.929708833333336, "is_reserved": 0, "lon": -77.03283266666666, "fusion_lon": 0.0, "is_disabled": 0, "fusion_lat": 0.0, "bike_id": "043667860e609722cb258af7ff375f07", "rental_uris": {"ios": "https://dc.lft.to/lastmile_qr_scan", "android": "https://dc.lft.to/lastmile_qr_scan"}}, {"name": "e0fb99c8e735b1be777acb9638463208", "type": "electric_scooter", "lat": 38.877342, "is_reserved": 0, "lon": -76.97283116666667, "fusion_lon": 0.0, "is_disabled": 0, "fusion_lat": 0.0, "bike_id": "e0fb99c8e735b1be777acb9638463208", "rental_uris": {"ios": "https://dc.lft.to/lastmile_qr_scan", "android": "https://dc.lft.to/lastmile_qr_scan"}}, {"name": "dcf2cdecf39fd516d93062e7f702206b", "type": "electric_scooter", "lat": 38.9483245, "is_reserved": 0, "lon": -77.025524, "fusion_lon": 0.0, "is_disabled": 0, "fusion_lat": 0.0, "bike_id": "dcf2cdecf39fd516d93062e7f702206b", "rental_uris": {"ios": "https://dc.lft.to/lastmile_qr_scan", "android": "https://dc.lft.to/lastmile_qr_scan"}}, {"name": "8d100ca7f1c1734def0aad03285207db", "type": "electric_scooter", "lat": 38.90364666666667, "is_reserved": 0, "lon": -77.01719566666667, "fusion_lon": 0.0, "is_disabled": 0, "fusion_lat": 0.0, "bike_id": "8d100ca7f1c1734def0aad03285207db", "rental_uris": {"ios": "https://dc.lft.to/lastmile_qr_scan", "android": "https://dc.lft.to/lastmile_qr_scan"}}, {"name": "7d667802f90e2ab83b544da43d8ce940", "type": "electric_scooter", "lat": 38.934990666666664, "is_reserved": 0, "lon": -77.0272065, "fusion_lon": 0.0, "is_disabled": 0, "fusion_lat": 0.0, "bike_id": "7d667802f90e2ab83b544da43d8ce940", "rental_uris": {"ios": "https://dc.lft.to/lastmile_qr_scan", "android": "https://dc.lft.to/lastmile_qr_scan"}}, {"name": "b77b81012af3ce3bb0d6244a1ec33b70", "type": "electric_scooter", "lat": 38.8947835, "is_reserved": 0, "lon": -77.0500745, "fusion_lon": 0.0, "is_disabled": 0, "fusion_lat": 0.0, "bike_id": "b77b81012af3ce3bb0d6244a1ec33b70", "rental_uris": {"ios": "https://dc.lft.to/lastmile_qr_scan", "android": "https://dc.lft.to/lastmile_qr_scan"}}, {"name": "f708022e56243a9d9b8c3de58f6cddff", "type": "electric_scooter", "lat": 38.904519, "is_reserved": 0, "lon": -77.02898733333333, "fusion_lon": 0.0, "is_disabled": 0, "fusion_lat": 0.0, "bike_id": "f708022e56243a9d9b8c3de58f6cddff", "rental_uris": {"ios": "https://dc.lft.to/lastmile_qr_scan", "android": "https://dc.lft.to/lastmile_qr_scan"}}, {"name": "c64e02f1571b7c79d3b8fa9737b9f434", "type": "electric_bike", "lat": 38.9033415, "is_reserved": 0, "lon": -77.0450695, "fusion_lon": 0.0, "is_disabled": 0, "fusion_lat": 0.0, "bike_id": "c64e02f1571b7c79d3b8fa9737b9f434", "rental_uris": {"ios": "https://dc.lft.to/lastmile_qr_scan", "android": "https://dc.lft.to/lastmile_qr_scan"}}, {"name": "feb8fe0c65167cacf9563dc911b6bf01", "type": "electric_scooter", "lat": 38.932466833333336, "is_reserved": 0, "lon": -77.03275566666667, "fusion_lon": 0.0, "is_disabled": 0, "fusion_lat": 0.0, "bike_id": "feb8fe0c65167cacf9563dc911b6bf01", "rental_uris": {"ios": "https://dc.lft.to/lastmile_qr_scan", "android": "https://dc.lft.to/lastmile_qr_scan"}}, {"name": "00309eaab64e2937b34396e703b7c113", "type": "electric_scooter", "lat": 38.939753833333334, "is_reserved": 0, "lon": -77.03588433333333, "fusion_lon": 0.0, "is_disabled": 0, "fusion_lat": 0.0, "bike_id": "00309eaab64e2937b34396e703b7c113", "rental_uris": {"ios": "https://dc.lft.to/lastmile_qr_scan", "android": "https://dc.lft.to/lastmile_qr_scan"}}, {"name": "11f991b7fc977f627697c52147999d19", "type": "electric_scooter", "lat": 38.91946183333334, "is_reserved": 0, "lon": -77.04548066666666, "fusion_lon": 0.0, "is_disabled": 0, "fusion_lat": 0.0, "bike_id": "11f991b7fc977f627697c52147999d19", "rental_uris": {"ios": "https://dc.lft.to/lastmile_qr_scan", "android": "https://dc.lft.to/lastmile_qr_scan"}}, {"name": "6fbdbd407d423227882bade0bd1eefcf", "type": "electric_scooter", "lat": 38.9408395, "is_reserved": 0, "lon": -77.0618635, "fusion_lon": 0.0, "is_disabled": 0, "fusion_lat": 0.0, "bike_id": "6fbdbd407d423227882bade0bd1eefcf", "rental_uris": {"ios": "https://dc.lft.to/lastmile_qr_scan", "android": "https://dc.lft.to/lastmile_qr_scan"}}, {"name": "897ad0cad60517558b228c650cbc0c88", "type": "electric_scooter", "lat": 38.86525966666667, "is_reserved": 0, "lon": -76.9902865, "fusion_lon": 0.0, "is_disabled": 0, "fusion_lat": 0.0, "bike_id": "897ad0cad60517558b228c650cbc0c88", "rental_uris": {"ios": "https://dc.lft.to/lastmile_qr_scan", "android": "https://dc.lft.to/lastmile_qr_scan"}}, {"name": "3951c2cb7fb8dc57d3b35d30bf2e7b45", "type": "electric_scooter", "lat": 38.922631833333334, "is_reserved": 0, "lon": -77.03641, "fusion_lon": 0.0, "is_disabled": 0, "fusion_lat": 0.0, "bike_id": "3951c2cb7fb8dc57d3b35d30bf2e7b45", "rental_uris": {"ios": "https://dc.lft.to/lastmile_qr_scan", "android": "https://dc.lft.to/lastmile_qr_scan"}}, {"name": "4e2a20bfed1581f6c6a7531079cf2fe0", "type": "electric_scooter", "lat": 38.89520133333333, "is_reserved": 0, "lon": -77.02817216666666, "fusion_lon": 0.0, "is_disabled": 0, "fusion_lat": 0.0, "bike_id": "4e2a20bfed1581f6c6a7531079cf2fe0", "rental_uris": {"ios": "https://dc.lft.to/lastmile_qr_scan", "android": "https://dc.lft.to/lastmile_qr_scan"}}, {"name": "052649bff267eea635672ddbfc4f3794", "type": "electric_scooter", "lat": 38.90633666666667, "is_reserved": 0, "lon": -77.039687, "fusion_lon": 0.0, "is_disabled": 0, "fusion_lat": 0.0, "bike_id": "052649bff267eea635672ddbfc4f3794", "rental_uris": {"ios": "https://dc.lft.to/lastmile_qr_scan", "android": "https://dc.lft.to/lastmile_qr_scan"}}, {"name": "1fdbf05b204b88c9d69fe7b84f44071a", "type": "electric_scooter", "lat": 38.92473233333333, "is_reserved": 0, "lon": -77.02666433333333, "fusion_lon": 0.0, "is_disabled": 0, "fusion_lat": 0.0, "bike_id": "1fdbf05b204b88c9d69fe7b84f44071a", "rental_uris": {"ios": "https://dc.lft.to/lastmile_qr_scan", "android": "https://dc.lft.to/lastmile_qr_scan"}}, {"name": "1e555b3e3a502db195853f7794e75e31", "type": "electric_scooter", "lat": 38.9008195, "is_reserved": 0, "lon": -77.04908, "fusion_lon": 0.0, "is_disabled": 0, "fusion_lat": 0.0, "bike_id": "1e555b3e3a502db195853f7794e75e31", "rental_uris": {"ios": "https://dc.lft.to/lastmile_qr_scan", "android": "https://dc.lft.to/lastmile_qr_scan"}}, {"name": "9a990e96a3b18e5aee343b661947ac1f", "type": "electric_scooter", "lat": 38.905155, "is_reserved": 0, "lon": -77.06936083333333, "fusion_lon": 0.0, "is_disabled": 0, "fusion_lat": 0.0, "bike_id": "9a990e96a3b18e5aee343b661947ac1f", "rental_uris": {"ios": "https://dc.lft.to/lastmile_qr_scan", "android": "https://dc.lft.to/lastmile_qr_scan"}}, {"name": "0ccdc02f42e9086be7bdc5eacdcd149e", "type": "electric_scooter", "lat": 38.92340383333333, "is_reserved": 0, "lon": -77.0190515, "fusion_lon": 0.0, "is_disabled": 0, "fusion_lat": 0.0, "bike_id": "0ccdc02f42e9086be7bdc5eacdcd149e", "rental_uris": {"ios": "https://dc.lft.to/lastmile_qr_scan", "android": "https://dc.lft.to/lastmile_qr_scan"}}, {"name": "689a7da1853684317593fb13cf9d4028", "type": "electric_scooter", "lat": 38.89251433333333, "is_reserved": 0, "lon": -77.031791, "fusion_lon": 0.0, "is_disabled": 0, "fusion_lat": 0.0, "bike_id": "689a7da1853684317593fb13cf9d4028", "rental_uris": {"ios": "https://dc.lft.to/lastmile_qr_scan", "android": "https://dc.lft.to/lastmile_qr_scan"}}, {"name": "0668b82eec9d633e7c190f0c2be5a33c", "type": "electric_bike", "lat": 38.861642, "is_reserved": 0, "lon": -76.950649, "fusion_lon": 0.0, "is_disabled": 0, "fusion_lat": 0.0, "bike_id": "0668b82eec9d633e7c190f0c2be5a33c", "rental_uris": {"ios": "https://dc.lft.to/lastmile_qr_scan", "android": "https://dc.lft.to/lastmile_qr_scan"}}, {"name": "14b2970d423ae818204f15c118b00a6a", "type": "electric_scooter", "lat": 38.91678233333333, "is_reserved": 0, "lon": -77.02972866666667, "fusion_lon": 0.0, "is_disabled": 0, "fusion_lat": 0.0, "bike_id": "14b2970d423ae818204f15c118b00a6a", "rental_uris": {"ios": "https://dc.lft.to/lastmile_qr_scan", "android": "https://dc.lft.to/lastmile_qr_scan"}}, {"name": "e8a8f876e3035282c2039961c0c5b1ee", "type": "electric_scooter", "lat": 38.9232755, "is_reserved": 0, "lon": -77.03889633333333, "fusion_lon": 0.0, "is_disabled": 0, "fusion_lat": 0.0, "bike_id": "e8a8f876e3035282c2039961c0c5b1ee", "rental_uris": {"ios": "https://dc.lft.to/lastmile_qr_scan", "android": "https://dc.lft.to/lastmile_qr_scan"}}, {"name": "0b9fba13a1062591f5d1472b11a0ac63", "type": "electric_scooter", "lat": 38.90315533333333, "is_reserved": 0, "lon": -77.0432905, "fusion_lon": 0.0, "is_disabled": 0, "fusion_lat": 0.0, "bike_id": "0b9fba13a1062591f5d1472b11a0ac63", "rental_uris": {"ios": "https://dc.lft.to/lastmile_qr_scan", "android": "https://dc.lft.to/lastmile_qr_scan"}}, {"name": "cb663f4d0c4e281117a3e371c78b49cd", "type": "electric_scooter", "lat": 38.90022116666667, "is_reserved": 0, "lon": -77.02385116666666, "fusion_lon": 0.0, "is_disabled": 0, "fusion_lat": 0.0, "bike_id": "cb663f4d0c4e281117a3e371c78b49cd", "rental_uris": {"ios": "https://dc.lft.to/lastmile_qr_scan", "android": "https://dc.lft.to/lastmile_qr_scan"}}, {"name": "925db1ce9b4b9f453977a0934ed40918", "type": "electric_scooter", "lat": 38.927420166666664, "is_reserved": 0, "lon": -77.01625383333334, "fusion_lon": 0.0, "is_disabled": 0, "fusion_lat": 0.0, "bike_id": "925db1ce9b4b9f453977a0934ed40918", "rental_uris": {"ios": "https://dc.lft.to/lastmile_qr_scan", "android": "https://dc.lft.to/lastmile_qr_scan"}}, {"name": "41b5a5d98a403ca18c2adbcf7398c9a1", "type": "electric_scooter", "lat": 38.9202515, "is_reserved": 0, "lon": -77.03877066666666, "fusion_lon": 0.0, "is_disabled": 0, "fusion_lat": 0.0, "bike_id": "41b5a5d98a403ca18c2adbcf7398c9a1", "rental_uris": {"ios": "https://dc.lft.to/lastmile_qr_scan", "android": "https://dc.lft.to/lastmile_qr_scan"}}, {"name": "40fe9d14d52dfef6672bbde943f87817", "type": "electric_scooter", "lat": 38.925143166666665, "is_reserved": 0, "lon": -77.033215, "fusion_lon": 0.0, "is_disabled": 0, "fusion_lat": 0.0, "bike_id": "40fe9d14d52dfef6672bbde943f87817", "rental_uris": {"ios": "https://dc.lft.to/lastmile_qr_scan", "android": "https://dc.lft.to/lastmile_qr_scan"}}, {"name": "5742f5c1e89dab82573e7edea9f12f96", "type": "electric_scooter", "lat": 38.915597166666664, "is_reserved": 0, "lon": -77.03930283333334, "fusion_lon": 0.0, "is_disabled": 0, "fusion_lat": 0.0, "bike_id": "5742f5c1e89dab82573e7edea9f12f96", "rental_uris": {"ios": "https://dc.lft.to/lastmile_qr_scan", "android": "https://dc.lft.to/lastmile_qr_scan"}}, {"name": "054f95edbdf37262521379be472c7c19", "type": "electric_scooter", "lat": 38.892209, "is_reserved": 0, "lon": -77.0433215, "fusion_lon": 0.0, "is_disabled": 0, "fusion_lat": 0.0, "bike_id": "054f95edbdf37262521379be472c7c19", "rental_uris": {"ios": "https://dc.lft.to/lastmile_qr_scan", "android": "https://dc.lft.to/lastmile_qr_scan"}}, {"name": "44a721f5e9fc68a9bdafe403fad308be", "type": "electric_scooter", "lat": 38.866558, "is_reserved": 0, "lon": -76.98880683333333, "fusion_lon": 0.0, "is_disabled": 0, "fusion_lat": 0.0, "bike_id": "44a721f5e9fc68a9bdafe403fad308be", "rental_uris": {"ios": "https://dc.lft.to/lastmile_qr_scan", "android": "https://dc.lft.to/lastmile_qr_scan"}}, {"name": "fc88895a1f685375d9fc4649d4917a2e", "type": "electric_scooter", "lat": 38.906141, "is_reserved": 0, "lon": -77.074891, "fusion_lon": 0.0, "is_disabled": 0, "fusion_lat": 0.0, "bike_id": "fc88895a1f685375d9fc4649d4917a2e", "rental_uris": {"ios": "https://dc.lft.to/lastmile_qr_scan", "android": "https://dc.lft.to/lastmile_qr_scan"}}, {"name": "e03f1e073e31f01498ad8e58a4948fcb", "type": "electric_scooter", "lat": 38.92514333333333, "is_reserved": 0, "lon": -77.0017355, "fusion_lon": 0.0, "is_disabled": 0, "fusion_lat": 0.0, "bike_id": "e03f1e073e31f01498ad8e58a4948fcb", "rental_uris": {"ios": "https://dc.lft.to/lastmile_qr_scan", "android": "https://dc.lft.to/lastmile_qr_scan"}}, {"name": "e74ba89cbec7b88252f35f83db4d3c35", "type": "electric_scooter", "lat": 38.89605183333333, "is_reserved": 0, "lon": -77.00925466666666, "fusion_lon": 0.0, "is_disabled": 0, "fusion_lat": 0.0, "bike_id": "e74ba89cbec7b88252f35f83db4d3c35", "rental_uris": {"ios": "https://dc.lft.to/lastmile_qr_scan", "android": "https://dc.lft.to/lastmile_qr_scan"}}, {"name": "03103d9cecf8b9c63c79ce38f41f4c17", "type": "electric_scooter", "lat": 38.92364, "is_reserved": 0, "lon": -77.05839016666667, "fusion_lon": 0.0, "is_disabled": 0, "fusion_lat": 0.0, "bike_id": "03103d9cecf8b9c63c79ce38f41f4c17", "rental_uris": {"ios": "https://dc.lft.to/lastmile_qr_scan", "android": "https://dc.lft.to/lastmile_qr_scan"}}, {"name": "df360288d8c4f40a038fc742e7a65149", "type": "electric_scooter", "lat": 38.91847283333333, "is_reserved": 0, "lon": -77.03224766666666, "fusion_lon": 0.0, "is_disabled": 0, "fusion_lat": 0.0, "bike_id": "df360288d8c4f40a038fc742e7a65149", "rental_uris": {"ios": "https://dc.lft.to/lastmile_qr_scan", "android": "https://dc.lft.to/lastmile_qr_scan"}}, {"name": "246671d87440e578ce37d5139c857014", "type": "electric_scooter", "lat": 38.883739166666665, "is_reserved": 0, "lon": -76.92374216666667, "fusion_lon": 0.0, "is_disabled": 0, "fusion_lat": 0.0, "bike_id": "246671d87440e578ce37d5139c857014", "rental_uris": {"ios": "https://dc.lft.to/lastmile_qr_scan", "android": "https://dc.lft.to/lastmile_qr_scan"}}, {"name": "ff2d2d84a1a4ca40a5f9afb846d0f52e", "type": "electric_scooter", "lat": 38.9012115, "is_reserved": 0, "lon": -77.0422565, "fusion_lon": 0.0, "is_disabled": 0, "fusion_lat": 0.0, "bike_id": "ff2d2d84a1a4ca40a5f9afb846d0f52e", "rental_uris": {"ios": "https://dc.lft.to/lastmile_qr_scan", "android": "https://dc.lft.to/lastmile_qr_scan"}}, {"name": "a073940ddfacff98a0767d172491d445", "type": "electric_scooter", "lat": 38.915515166666665, "is_reserved": 0, "lon": -77.07273583333334, "fusion_lon": 0.0, "is_disabled": 0, "fusion_lat": 0.0, "bike_id": "a073940ddfacff98a0767d172491d445", "rental_uris": {"ios": "https://dc.lft.to/lastmile_qr_scan", "android": "https://dc.lft.to/lastmile_qr_scan"}}, {"name": "d11bd6650c7cff087a3a14dde473baee", "type": "electric_scooter", "lat": 38.9105065, "is_reserved": 0, "lon": -77.01687383333334, "fusion_lon": 0.0, "is_disabled": 0, "fusion_lat": 0.0, "bike_id": "d11bd6650c7cff087a3a14dde473baee", "rental_uris": {"ios": "https://dc.lft.to/lastmile_qr_scan", "android": "https://dc.lft.to/lastmile_qr_scan"}}, {"name": "35500c38aa677ae5eeaa5b37e843366d", "type": "electric_scooter", "lat": 38.92347, "is_reserved": 0, "lon": -77.03480283333333, "fusion_lon": 0.0, "is_disabled": 0, "fusion_lat": 0.0, "bike_id": "35500c38aa677ae5eeaa5b37e843366d", "rental_uris": {"ios": "https://dc.lft.to/lastmile_qr_scan", "android": "https://dc.lft.to/lastmile_qr_scan"}}, {"name": "bd27050644216e2c7b40067a9fc3b5d0", "type": "electric_scooter", "lat": 38.842932, "is_reserved": 0, "lon": -76.99943866666666, "fusion_lon": 0.0, "is_disabled": 0, "fusion_lat": 0.0, "bike_id": "bd27050644216e2c7b40067a9fc3b5d0", "rental_uris": {"ios": "https://dc.lft.to/lastmile_qr_scan", "android": "https://dc.lft.to/lastmile_qr_scan"}}, {"name": "842e1b969ed0e56acabd4156febf2ca4", "type": "electric_scooter", "lat": 38.94015133333333, "is_reserved": 0, "lon": -77.0631685, "fusion_lon": 0.0, "is_disabled": 0, "fusion_lat": 0.0, "bike_id": "842e1b969ed0e56acabd4156febf2ca4", "rental_uris": {"ios": "https://dc.lft.to/lastmile_qr_scan", "android": "https://dc.lft.to/lastmile_qr_scan"}}, {"name": "251c58de05ff721c96a8884971719381", "type": "electric_scooter", "lat": 38.932949666666666, "is_reserved": 0, "lon": -77.02799016666667, "fusion_lon": 0.0, "is_disabled": 0, "fusion_lat": 0.0, "bike_id": "251c58de05ff721c96a8884971719381", "rental_uris": {"ios": "https://dc.lft.to/lastmile_qr_scan", "android": "https://dc.lft.to/lastmile_qr_scan"}}, {"name": "468ba7acb4a1002c487cc4f89d72c7c2", "type": "electric_bike", "lat": 38.8579825, "is_reserved": 0, "lon": -76.98752633333334, "fusion_lon": 0.0, "is_disabled": 0, "fusion_lat": 0.0, "bike_id": "468ba7acb4a1002c487cc4f89d72c7c2", "rental_uris": {"ios": "https://dc.lft.to/lastmile_qr_scan", "android": "https://dc.lft.to/lastmile_qr_scan"}}, {"name": "d280c9a713192c93cdda5fff5e3b24af", "type": "electric_scooter", "lat": 38.9202875, "is_reserved": 0, "lon": -77.01115566666667, "fusion_lon": 0.0, "is_disabled": 0, "fusion_lat": 0.0, "bike_id": "d280c9a713192c93cdda5fff5e3b24af", "rental_uris": {"ios": "https://dc.lft.to/lastmile_qr_scan", "android": "https://dc.lft.to/lastmile_qr_scan"}}, {"name": "b0193ab4f73e8666aa57ea4414199897", "type": "electric_scooter", "lat": 38.91706766666667, "is_reserved": 0, "lon": -77.032273, "fusion_lon": 0.0, "is_disabled": 0, "fusion_lat": 0.0, "bike_id": "b0193ab4f73e8666aa57ea4414199897", "rental_uris": {"ios": "https://dc.lft.to/lastmile_qr_scan", "android": "https://dc.lft.to/lastmile_qr_scan"}}, {"name": "ea2ad34008faf424e689fa1369ae0c46", "type": "electric_scooter", "lat": 38.90389966666667, "is_reserved": 0, "lon": -77.04200866666666, "fusion_lon": 0.0, "is_disabled": 0, "fusion_lat": 0.0, "bike_id": "ea2ad34008faf424e689fa1369ae0c46", "rental_uris": {"ios": "https://dc.lft.to/lastmile_qr_scan", "android": "https://dc.lft.to/lastmile_qr_scan"}}, {"name": "0c8b053639c7484074a43582df9b9154", "type": "electric_scooter", "lat": 38.961061666666666, "is_reserved": 0, "lon": -77.02802333333334, "fusion_lon": 0.0, "is_disabled": 0, "fusion_lat": 0.0, "bike_id": "0c8b053639c7484074a43582df9b9154", "rental_uris": {"ios": "https://dc.lft.to/lastmile_qr_scan", "android": "https://dc.lft.to/lastmile_qr_scan"}}, {"name": "abfe164761d5a89cdc4578feee02edc5", "type": "electric_scooter", "lat": 38.905775, "is_reserved": 0, "lon": -77.03430266666666, "fusion_lon": 0.0, "is_disabled": 0, "fusion_lat": 0.0, "bike_id": "abfe164761d5a89cdc4578feee02edc5", "rental_uris": {"ios": "https://dc.lft.to/lastmile_qr_scan", "android": "https://dc.lft.to/lastmile_qr_scan"}}, {"name": "9a26fc609bfcc98129be984f95ffafaa", "type": "electric_scooter", "lat": 38.91461366666667, "is_reserved": 0, "lon": -77.01430866666666, "fusion_lon": 0.0, "is_disabled": 0, "fusion_lat": 0.0, "bike_id": "9a26fc609bfcc98129be984f95ffafaa", "rental_uris": {"ios": "https://dc.lft.to/lastmile_qr_scan", "android": "https://dc.lft.to/lastmile_qr_scan"}}, {"name": "33349cc595940bcd4a9c252aa8124591", "type": "electric_scooter", "lat": 38.900255333333334, "is_reserved": 0, "lon": -77.040088, "fusion_lon": 0.0, "is_disabled": 0, "fusion_lat": 0.0, "bike_id": "33349cc595940bcd4a9c252aa8124591", "rental_uris": {"ios": "https://dc.lft.to/lastmile_qr_scan", "android": "https://dc.lft.to/lastmile_qr_scan"}}, {"name": "7db7c923098599080b5a1cf6140c9ab1", "type": "electric_scooter", "lat": 38.89725466666667, "is_reserved": 0, "lon": -77.04339466666667, "fusion_lon": 0.0, "is_disabled": 0, "fusion_lat": 0.0, "bike_id": "7db7c923098599080b5a1cf6140c9ab1", "rental_uris": {"ios": "https://dc.lft.to/lastmile_qr_scan", "android": "https://dc.lft.to/lastmile_qr_scan"}}, {"name": "1eac4334025bdbff0668a90695c48da6", "type": "electric_scooter", "lat": 38.907474, "is_reserved": 0, "lon": -77.04164183333333, "fusion_lon": 0.0, "is_disabled": 0, "fusion_lat": 0.0, "bike_id": "1eac4334025bdbff0668a90695c48da6", "rental_uris": {"ios": "https://dc.lft.to/lastmile_qr_scan", "android": "https://dc.lft.to/lastmile_qr_scan"}}, {"name": "1345705708fb7ff1f465d50479cf5e94", "type": "electric_scooter", "lat": 38.9066725, "is_reserved": 0, "lon": -77.05140583333333, "fusion_lon": 0.0, "is_disabled": 0, "fusion_lat": 0.0, "bike_id": "1345705708fb7ff1f465d50479cf5e94", "rental_uris": {"ios": "https://dc.lft.to/lastmile_qr_scan", "android": "https://dc.lft.to/lastmile_qr_scan"}}, {"name": "3076fc58b43c7ec7b26a261c4fdffd7a", "type": "electric_scooter", "lat": 38.9002435, "is_reserved": 0, "lon": -77.0118025, "fusion_lon": 0.0, "is_disabled": 0, "fusion_lat": 0.0, "bike_id": "3076fc58b43c7ec7b26a261c4fdffd7a", "rental_uris": {"ios": "https://dc.lft.to/lastmile_qr_scan", "android": "https://dc.lft.to/lastmile_qr_scan"}}, {"name": "fca0b90e79116d8e27a61fad79c4f424", "type": "electric_scooter", "lat": 38.914045333333334, "is_reserved": 0, "lon": -77.03220083333333, "fusion_lon": 0.0, "is_disabled": 0, "fusion_lat": 0.0, "bike_id": "fca0b90e79116d8e27a61fad79c4f424", "rental_uris": {"ios": "https://dc.lft.to/lastmile_qr_scan", "android": "https://dc.lft.to/lastmile_qr_scan"}}, {"name": "e69cbfbbce9f46f32b4fd027638be0dc", "type": "electric_scooter", "lat": 38.906113, "is_reserved": 0, "lon": -77.03980333333334, "fusion_lon": 0.0, "is_disabled": 0, "fusion_lat": 0.0, "bike_id": "e69cbfbbce9f46f32b4fd027638be0dc", "rental_uris": {"ios": "https://dc.lft.to/lastmile_qr_scan", "android": "https://dc.lft.to/lastmile_qr_scan"}}, {"name": "ebc5a76ae29733b122ab80475fe3bb08", "type": "electric_scooter", "lat": 38.86655583333334, "is_reserved": 0, "lon": -76.9901545, "fusion_lon": 0.0, "is_disabled": 0, "fusion_lat": 0.0, "bike_id": "ebc5a76ae29733b122ab80475fe3bb08", "rental_uris": {"ios": "https://dc.lft.to/lastmile_qr_scan", "android": "https://dc.lft.to/lastmile_qr_scan"}}, {"name": "c75d538823aecdbcbe999a8f1a10158b", "type": "electric_scooter", "lat": 38.900603833333335, "is_reserved": 0, "lon": -77.05045166666666, "fusion_lon": 0.0, "is_disabled": 0, "fusion_lat": 0.0, "bike_id": "c75d538823aecdbcbe999a8f1a10158b", "rental_uris": {"ios": "https://dc.lft.to/lastmile_qr_scan", "android": "https://dc.lft.to/lastmile_qr_scan"}}, {"name": "48af7cf4fdd95ea1e63660e198e77733", "type": "electric_bike", "lat": 38.839887, "is_reserved": 0, "lon": -77.00563383333333, "fusion_lon": 0.0, "is_disabled": 0, "fusion_lat": 0.0, "bike_id": "48af7cf4fdd95ea1e63660e198e77733", "rental_uris": {"ios": "https://dc.lft.to/lastmile_qr_scan", "android": "https://dc.lft.to/lastmile_qr_scan"}}, {"name": "800413a505dfaea11fa40326300db213", "type": "electric_scooter", "lat": 38.90530733333333, "is_reserved": 0, "lon": -77.05999766666666, "fusion_lon": 0.0, "is_disabled": 0, "fusion_lat": 0.0, "bike_id": "800413a505dfaea11fa40326300db213", "rental_uris": {"ios": "https://dc.lft.to/lastmile_qr_scan", "android": "https://dc.lft.to/lastmile_qr_scan"}}, {"name": "49bcc26b0f9452077b265b08337bca33", "type": "electric_scooter", "lat": 38.900528333333334, "is_reserved": 0, "lon": -77.051427, "fusion_lon": 0.0, "is_disabled": 0, "fusion_lat": 0.0, "bike_id": "49bcc26b0f9452077b265b08337bca33", "rental_uris": {"ios": "https://dc.lft.to/lastmile_qr_scan", "android": "https://dc.lft.to/lastmile_qr_scan"}}, {"name": "83b1ec9623cc8ab5a6ab8dbb440c2e3f", "type": "electric_scooter", "lat": 38.919934166666664, "is_reserved": 0, "lon": -77.03465233333333, "fusion_lon": 0.0, "is_disabled": 0, "fusion_lat": 0.0, "bike_id": "83b1ec9623cc8ab5a6ab8dbb440c2e3f", "rental_uris": {"ios": "https://dc.lft.to/lastmile_qr_scan", "android": "https://dc.lft.to/lastmile_qr_scan"}}, {"name": "dba414806362eb4c81290606cd27fb09", "type": "electric_scooter", "lat": 38.9015175, "is_reserved": 0, "lon": -77.02911416666667, "fusion_lon": 0.0, "is_disabled": 0, "fusion_lat": 0.0, "bike_id": "dba414806362eb4c81290606cd27fb09", "rental_uris": {"ios": "https://dc.lft.to/lastmile_qr_scan", "android": "https://dc.lft.to/lastmile_qr_scan"}}, {"name": "dd2205a6c68768c4a2a5b82fac6cb4dc", "type": "electric_scooter", "lat": 38.93770216666667, "is_reserved": 0, "lon": -77.0226715, "fusion_lon": 0.0, "is_disabled": 0, "fusion_lat": 0.0, "bike_id": "dd2205a6c68768c4a2a5b82fac6cb4dc", "rental_uris": {"ios": "https://dc.lft.to/lastmile_qr_scan", "android": "https://dc.lft.to/lastmile_qr_scan"}}, {"name": "1852fc0bf76d0cec0d4d9e8e8ffabed0", "type": "electric_scooter", "lat": 38.898263666666665, "is_reserved": 0, "lon": -76.94651866666666, "fusion_lon": 0.0, "is_disabled": 0, "fusion_lat": 0.0, "bike_id": "1852fc0bf76d0cec0d4d9e8e8ffabed0", "rental_uris": {"ios": "https://dc.lft.to/lastmile_qr_scan", "android": "https://dc.lft.to/lastmile_qr_scan"}}, {"name": "490f3057d9657303b66030a7e2e60344", "type": "electric_scooter", "lat": 38.90864966666667, "is_reserved": 0, "lon": -77.04278516666666, "fusion_lon": 0.0, "is_disabled": 0, "fusion_lat": 0.0, "bike_id": "490f3057d9657303b66030a7e2e60344", "rental_uris": {"ios": "https://dc.lft.to/lastmile_qr_scan", "android": "https://dc.lft.to/lastmile_qr_scan"}}, {"name": "9090953061e8469f5bd16d67415cb503", "type": "electric_scooter", "lat": 38.91268633333333, "is_reserved": 0, "lon": -77.0222545, "fusion_lon": 0.0, "is_disabled": 0, "fusion_lat": 0.0, "bike_id": "9090953061e8469f5bd16d67415cb503", "rental_uris": {"ios": "https://dc.lft.to/lastmile_qr_scan", "android": "https://dc.lft.to/lastmile_qr_scan"}}, {"name": "92305e1ff04d8a0d5d75c1bcc2f6023c", "type": "electric_scooter", "lat": 38.89789066666667, "is_reserved": 0, "lon": -77.0273685, "fusion_lon": 0.0, "is_disabled": 0, "fusion_lat": 0.0, "bike_id": "92305e1ff04d8a0d5d75c1bcc2f6023c", "rental_uris": {"ios": "https://dc.lft.to/lastmile_qr_scan", "android": "https://dc.lft.to/lastmile_qr_scan"}}, {"name": "e787f5dded381eed2d914a6d6fe87cb9", "type": "electric_scooter", "lat": 38.921685333333336, "is_reserved": 0, "lon": -77.02688116666667, "fusion_lon": 0.0, "is_disabled": 0, "fusion_lat": 0.0, "bike_id": "e787f5dded381eed2d914a6d6fe87cb9", "rental_uris": {"ios": "https://dc.lft.to/lastmile_qr_scan", "android": "https://dc.lft.to/lastmile_qr_scan"}}, {"name": "5505264d79ccd7ea105e32a3f2603fee", "type": "electric_scooter", "lat": 38.90569033333333, "is_reserved": 0, "lon": -77.04165983333333, "fusion_lon": 0.0, "is_disabled": 0, "fusion_lat": 0.0, "bike_id": "5505264d79ccd7ea105e32a3f2603fee", "rental_uris": {"ios": "https://dc.lft.to/lastmile_qr_scan", "android": "https://dc.lft.to/lastmile_qr_scan"}}, {"name": "3ab8a9c5f4f417a75e079c2eece07f73", "type": "electric_scooter", "lat": 38.9284325, "is_reserved": 0, "lon": -77.015877, "fusion_lon": 0.0, "is_disabled": 0, "fusion_lat": 0.0, "bike_id": "3ab8a9c5f4f417a75e079c2eece07f73", "rental_uris": {"ios": "https://dc.lft.to/lastmile_qr_scan", "android": "https://dc.lft.to/lastmile_qr_scan"}}, {"name": "ecb6d90bb1591b71e0b35989e25c037f", "type": "electric_scooter", "lat": 38.9183735, "is_reserved": 0, "lon": -77.0323595, "fusion_lon": 0.0, "is_disabled": 0, "fusion_lat": 0.0, "bike_id": "ecb6d90bb1591b71e0b35989e25c037f", "rental_uris": {"ios": "https://dc.lft.to/lastmile_qr_scan", "android": "https://dc.lft.to/lastmile_qr_scan"}}, {"name": "3e43247f95065c3310b6d20b7bab6fbb", "type": "electric_scooter", "lat": 38.927069333333336, "is_reserved": 0, "lon": -77.02094133333334, "fusion_lon": 0.0, "is_disabled": 0, "fusion_lat": 0.0, "bike_id": "3e43247f95065c3310b6d20b7bab6fbb", "rental_uris": {"ios": "https://dc.lft.to/lastmile_qr_scan", "android": "https://dc.lft.to/lastmile_qr_scan"}}, {"name": "8a960300409228ac444eacf5a9b01f71", "type": "electric_scooter", "lat": 38.92683683333333, "is_reserved": 0, "lon": -77.01570466666666, "fusion_lon": 0.0, "is_disabled": 0, "fusion_lat": 0.0, "bike_id": "8a960300409228ac444eacf5a9b01f71", "rental_uris": {"ios": "https://dc.lft.to/lastmile_qr_scan", "android": "https://dc.lft.to/lastmile_qr_scan"}}, {"name": "8d5d597412356489741a620956132340", "type": "electric_scooter", "lat": 38.89380633333333, "is_reserved": 0, "lon": -76.94976183333333, "fusion_lon": 0.0, "is_disabled": 0, "fusion_lat": 0.0, "bike_id": "8d5d597412356489741a620956132340", "rental_uris": {"ios": "https://dc.lft.to/lastmile_qr_scan", "android": "https://dc.lft.to/lastmile_qr_scan"}}, {"name": "0d9ea91a4f2eae7da2b45f45a3bbf827", "type": "electric_bike", "lat": 38.874743333333335, "is_reserved": 0, "lon": -76.9651875, "fusion_lon": 0.0, "is_disabled": 0, "fusion_lat": 0.0, "bike_id": "0d9ea91a4f2eae7da2b45f45a3bbf827", "rental_uris": {"ios": "https://dc.lft.to/lastmile_qr_scan", "android": "https://dc.lft.to/lastmile_qr_scan"}}, {"name": "90bb724a618916ea52866460e54e245a", "type": "electric_scooter", "lat": 38.908191333333335, "is_reserved": 0, "lon": -77.04331833333333, "fusion_lon": 0.0, "is_disabled": 0, "fusion_lat": 0.0, "bike_id": "90bb724a618916ea52866460e54e245a", "rental_uris": {"ios": "https://dc.lft.to/lastmile_qr_scan", "android": "https://dc.lft.to/lastmile_qr_scan"}}, {"name": "72e0ddb08832d8023545aa588f5a1830", "type": "electric_scooter", "lat": 38.925453833333336, "is_reserved": 0, "lon": -77.03517683333334, "fusion_lon": 0.0, "is_disabled": 0, "fusion_lat": 0.0, "bike_id": "72e0ddb08832d8023545aa588f5a1830", "rental_uris": {"ios": "https://dc.lft.to/lastmile_qr_scan", "android": "https://dc.lft.to/lastmile_qr_scan"}}, {"name": "f6e3c659c9adeeb274c6d289fb38e4e6", "type": "electric_bike", "lat": 38.91683316666666, "is_reserved": 0, "lon": -77.02804216666667, "fusion_lon": 0.0, "is_disabled": 0, "fusion_lat": 0.0, "bike_id": "f6e3c659c9adeeb274c6d289fb38e4e6", "rental_uris": {"ios": "https://dc.lft.to/lastmile_qr_scan", "android": "https://dc.lft.to/lastmile_qr_scan"}}, {"name": "df257cef376e873164a7b1ed8a9f119d", "type": "electric_scooter", "lat": 38.93446016666667, "is_reserved": 0, "lon": -77.02845916666666, "fusion_lon": 0.0, "is_disabled": 0, "fusion_lat": 0.0, "bike_id": "df257cef376e873164a7b1ed8a9f119d", "rental_uris": {"ios": "https://dc.lft.to/lastmile_qr_scan", "android": "https://dc.lft.to/lastmile_qr_scan"}}, {"name": "9853894a127e5c9f280bd2483f4ea9d9", "type": "electric_bike", "lat": 38.89778416666667, "is_reserved": 0, "lon": -76.90443183333333, "fusion_lon": 0.0, "is_disabled": 0, "fusion_lat": 0.0, "bike_id": "9853894a127e5c9f280bd2483f4ea9d9", "rental_uris": {"ios": "https://dc.lft.to/lastmile_qr_scan", "android": "https://dc.lft.to/lastmile_qr_scan"}}, {"name": "f6fa727c34cb1040a606c607d62c2ee2", "type": "electric_scooter", "lat": 38.924735, "is_reserved": 0, "lon": -77.0376875, "fusion_lon": 0.0, "is_disabled": 0, "fusion_lat": 0.0, "bike_id": "f6fa727c34cb1040a606c607d62c2ee2", "rental_uris": {"ios": "https://dc.lft.to/lastmile_qr_scan", "android": "https://dc.lft.to/lastmile_qr_scan"}}, {"name": "f0fa34bb97a7a988dc6b65bd12c48afe", "type": "electric_bike", "lat": 38.970705, "is_reserved": 0, "lon": -76.93609, "fusion_lon": 0.0, "is_disabled": 0, "fusion_lat": 0.0, "bike_id": "f0fa34bb97a7a988dc6b65bd12c48afe", "rental_uris": {"ios": "https://dc.lft.to/lastmile_qr_scan", "android": "https://dc.lft.to/lastmile_qr_scan"}}, {"name": "d6fffa55a63b3052aa0fa0889f89c73e", "type": "electric_scooter", "lat": 38.932474666666664, "is_reserved": 0, "lon": -77.0295365, "fusion_lon": 0.0, "is_disabled": 0, "fusion_lat": 0.0, "bike_id": "d6fffa55a63b3052aa0fa0889f89c73e", "rental_uris": {"ios": "https://dc.lft.to/lastmile_qr_scan", "android": "https://dc.lft.to/lastmile_qr_scan"}}, {"name": "4a08ccb7b60a772af2d4202f5b362315", "type": "electric_scooter", "lat": 38.931241, "is_reserved": 0, "lon": -77.03604716666666, "fusion_lon": 0.0, "is_disabled": 0, "fusion_lat": 0.0, "bike_id": "4a08ccb7b60a772af2d4202f5b362315", "rental_uris": {"ios": "https://dc.lft.to/lastmile_qr_scan", "android": "https://dc.lft.to/lastmile_qr_scan"}}, {"name": "215d3520cab2688eb4834a63e0b08ccf", "type": "electric_scooter", "lat": 38.8994445, "is_reserved": 0, "lon": -77.031974, "fusion_lon": 0.0, "is_disabled": 0, "fusion_lat": 0.0, "bike_id": "215d3520cab2688eb4834a63e0b08ccf", "rental_uris": {"ios": "https://dc.lft.to/lastmile_qr_scan", "android": "https://dc.lft.to/lastmile_qr_scan"}}, {"name": "1cd53f412135e19d76bbe42cff14bf6a", "type": "electric_scooter", "lat": 38.93099683333333, "is_reserved": 0, "lon": -77.03467833333333, "fusion_lon": 0.0, "is_disabled": 0, "fusion_lat": 0.0, "bike_id": "1cd53f412135e19d76bbe42cff14bf6a", "rental_uris": {"ios": "https://dc.lft.to/lastmile_qr_scan", "android": "https://dc.lft.to/lastmile_qr_scan"}}, {"name": "cd78c94619c8c41751226f167a2d87d4", "type": "electric_scooter", "lat": 38.89772133333334, "is_reserved": 0, "lon": -77.02677366666667, "fusion_lon": 0.0, "is_disabled": 0, "fusion_lat": 0.0, "bike_id": "cd78c94619c8c41751226f167a2d87d4", "rental_uris": {"ios": "https://dc.lft.to/lastmile_qr_scan", "android": "https://dc.lft.to/lastmile_qr_scan"}}, {"name": "ce3c47689cf930224292bf116975b8c4", "type": "electric_scooter", "lat": 38.866985666666665, "is_reserved": 0, "lon": -76.98713516666666, "fusion_lon": 0.0, "is_disabled": 0, "fusion_lat": 0.0, "bike_id": "ce3c47689cf930224292bf116975b8c4", "rental_uris": {"ios": "https://dc.lft.to/lastmile_qr_scan", "android": "https://dc.lft.to/lastmile_qr_scan"}}, {"name": "9ca78ef50976e05b5a268a5b21fdb031", "type": "electric_scooter", "lat": 38.897998333333334, "is_reserved": 0, "lon": -76.99164666666667, "fusion_lon": 0.0, "is_disabled": 0, "fusion_lat": 0.0, "bike_id": "9ca78ef50976e05b5a268a5b21fdb031", "rental_uris": {"ios": "https://dc.lft.to/lastmile_qr_scan", "android": "https://dc.lft.to/lastmile_qr_scan"}}, {"name": "7117a199dd50f6ffd43bdacd9e597e8d", "type": "electric_scooter", "lat": 38.921491833333334, "is_reserved": 0, "lon": -77.02423583333334, "fusion_lon": 0.0, "is_disabled": 0, "fusion_lat": 0.0, "bike_id": "7117a199dd50f6ffd43bdacd9e597e8d", "rental_uris": {"ios": "https://dc.lft.to/lastmile_qr_scan", "android": "https://dc.lft.to/lastmile_qr_scan"}}, {"name": "dd688881a77294557aa221a10ff4ee5d", "type": "electric_scooter", "lat": 38.897927833333334, "is_reserved": 0, "lon": -77.01196766666666, "fusion_lon": 0.0, "is_disabled": 0, "fusion_lat": 0.0, "bike_id": "dd688881a77294557aa221a10ff4ee5d", "rental_uris": {"ios": "https://dc.lft.to/lastmile_qr_scan", "android": "https://dc.lft.to/lastmile_qr_scan"}}, {"name": "300325aae6768008626611bc8709aa16", "type": "electric_scooter", "lat": 38.88330116666667, "is_reserved": 0, "lon": -77.0176695, "fusion_lon": 0.0, "is_disabled": 0, "fusion_lat": 0.0, "bike_id": "300325aae6768008626611bc8709aa16", "rental_uris": {"ios": "https://dc.lft.to/lastmile_qr_scan", "android": "https://dc.lft.to/lastmile_qr_scan"}}, {"name": "5a5d60d7b95d13b888d879e3de904e1c", "type": "electric_scooter", "lat": 38.901257666666666, "is_reserved": 0, "lon": -77.043534, "fusion_lon": 0.0, "is_disabled": 0, "fusion_lat": 0.0, "bike_id": "5a5d60d7b95d13b888d879e3de904e1c", "rental_uris": {"ios": "https://dc.lft.to/lastmile_qr_scan", "android": "https://dc.lft.to/lastmile_qr_scan"}}, {"name": "896f154cfb8eb298cf4971fb23053d5a", "type": "electric_scooter", "lat": 38.942709, "is_reserved": 0, "lon": -77.02504033333334, "fusion_lon": 0.0, "is_disabled": 0, "fusion_lat": 0.0, "bike_id": "896f154cfb8eb298cf4971fb23053d5a", "rental_uris": {"ios": "https://dc.lft.to/lastmile_qr_scan", "android": "https://dc.lft.to/lastmile_qr_scan"}}, {"name": "db4193981ec675fad283ba68350c1722", "type": "electric_scooter", "lat": 38.90674766666667, "is_reserved": 0, "lon": -76.97803683333333, "fusion_lon": 0.0, "is_disabled": 0, "fusion_lat": 0.0, "bike_id": "db4193981ec675fad283ba68350c1722", "rental_uris": {"ios": "https://dc.lft.to/lastmile_qr_scan", "android": "https://dc.lft.to/lastmile_qr_scan"}}, {"name": "b49f94af437abcd6cbc18aece7559982", "type": "electric_bike", "lat": 38.92464583333334, "is_reserved": 0, "lon": -77.20844, "fusion_lon": 0.0, "is_disabled": 0, "fusion_lat": 0.0, "bike_id": "b49f94af437abcd6cbc18aece7559982", "rental_uris": {"ios": "https://dc.lft.to/lastmile_qr_scan", "android": "https://dc.lft.to/lastmile_qr_scan"}}, {"name": "90bf8fb0764f5db7c0cb227da213bf75", "type": "electric_scooter", "lat": 38.91108633333333, "is_reserved": 0, "lon": -77.0492765, "fusion_lon": 0.0, "is_disabled": 0, "fusion_lat": 0.0, "bike_id": "90bf8fb0764f5db7c0cb227da213bf75", "rental_uris": {"ios": "https://dc.lft.to/lastmile_qr_scan", "android": "https://dc.lft.to/lastmile_qr_scan"}}, {"name": "310d3be28cf9c7d84f8f51ffb1f5644b", "type": "electric_scooter", "lat": 38.900168, "is_reserved": 0, "lon": -77.040001, "fusion_lon": 0.0, "is_disabled": 0, "fusion_lat": 0.0, "bike_id": "310d3be28cf9c7d84f8f51ffb1f5644b", "rental_uris": {"ios": "https://dc.lft.to/lastmile_qr_scan", "android": "https://dc.lft.to/lastmile_qr_scan"}}, {"name": "9012c2f4ee7f69c2ddc60566629afa9a", "type": "electric_bike", "lat": 38.89188433333333, "is_reserved": 0, "lon": -77.12261483333333, "fusion_lon": 0.0, "is_disabled": 0, "fusion_lat": 0.0, "bike_id": "9012c2f4ee7f69c2ddc60566629afa9a", "rental_uris": {"ios": "https://dc.lft.to/lastmile_qr_scan", "android": "https://dc.lft.to/lastmile_qr_scan"}}, {"name": "932814e5702c767a9bc0b4489569b23e", "type": "electric_scooter", "lat": 38.90356933333333, "is_reserved": 0, "lon": -77.00735533333334, "fusion_lon": 0.0, "is_disabled": 0, "fusion_lat": 0.0, "bike_id": "932814e5702c767a9bc0b4489569b23e", "rental_uris": {"ios": "https://dc.lft.to/lastmile_qr_scan", "android": "https://dc.lft.to/lastmile_qr_scan"}}, {"name": "578b7aefdf12c802ea397488630b41a3", "type": "electric_scooter", "lat": 38.910271333333334, "is_reserved": 0, "lon": -77.03079, "fusion_lon": 0.0, "is_disabled": 0, "fusion_lat": 0.0, "bike_id": "578b7aefdf12c802ea397488630b41a3", "rental_uris": {"ios": "https://dc.lft.to/lastmile_qr_scan", "android": "https://dc.lft.to/lastmile_qr_scan"}}, {"name": "67aec85775f915f2ec57924e3d835f60", "type": "electric_scooter", "lat": 38.910963, "is_reserved": 0, "lon": -77.046733, "fusion_lon": 0.0, "is_disabled": 0, "fusion_lat": 0.0, "bike_id": "67aec85775f915f2ec57924e3d835f60", "rental_uris": {"ios": "https://dc.lft.to/lastmile_qr_scan", "android": "https://dc.lft.to/lastmile_qr_scan"}}, {"name": "fc62be2febfe6ca56c5da15249086ceb", "type": "electric_scooter", "lat": 38.934146, "is_reserved": 0, "lon": -77.0340655, "fusion_lon": 0.0, "is_disabled": 0, "fusion_lat": 0.0, "bike_id": "fc62be2febfe6ca56c5da15249086ceb", "rental_uris": {"ios": "https://dc.lft.to/lastmile_qr_scan", "android": "https://dc.lft.to/lastmile_qr_scan"}}, {"name": "ae677e6911dc7758227ba7aa460eaa03", "type": "electric_scooter", "lat": 38.908316, "is_reserved": 0, "lon": -76.99695583333333, "fusion_lon": 0.0, "is_disabled": 0, "fusion_lat": 0.0, "bike_id": "ae677e6911dc7758227ba7aa460eaa03", "rental_uris": {"ios": "https://dc.lft.to/lastmile_qr_scan", "android": "https://dc.lft.to/lastmile_qr_scan"}}, {"name": "52fc6f1c9f2ddd57a4ba3b6b13510207", "type": "electric_bike", "lat": 38.95551733333333, "is_reserved": 0, "lon": -76.935366, "fusion_lon": 0.0, "is_disabled": 0, "fusion_lat": 0.0, "bike_id": "52fc6f1c9f2ddd57a4ba3b6b13510207", "rental_uris": {"ios": "https://dc.lft.to/lastmile_qr_scan", "android": "https://dc.lft.to/lastmile_qr_scan"}}, {"name": "bf88a2cda9920a60eebb4bb3144fb14c", "type": "electric_scooter", "lat": 38.897226, "is_reserved": 0, "lon": -77.05520416666667, "fusion_lon": 0.0, "is_disabled": 0, "fusion_lat": 0.0, "bike_id": "bf88a2cda9920a60eebb4bb3144fb14c", "rental_uris": {"ios": "https://dc.lft.to/lastmile_qr_scan", "android": "https://dc.lft.to/lastmile_qr_scan"}}, {"name": "dfcf8f6ebeeffb8f969f037823d8f9ca", "type": "electric_scooter", "lat": 38.88039933333334, "is_reserved": 0, "lon": -76.92723183333334, "fusion_lon": 0.0, "is_disabled": 0, "fusion_lat": 0.0, "bike_id": "dfcf8f6ebeeffb8f969f037823d8f9ca", "rental_uris": {"ios": "https://dc.lft.to/lastmile_qr_scan", "android": "https://dc.lft.to/lastmile_qr_scan"}}, {"name": "8dba21e75e1daae6d9a80226ce4698e6", "type": "electric_scooter", "lat": 38.924389, "is_reserved": 0, "lon": -77.03400916666666, "fusion_lon": 0.0, "is_disabled": 0, "fusion_lat": 0.0, "bike_id": "8dba21e75e1daae6d9a80226ce4698e6", "rental_uris": {"ios": "https://dc.lft.to/lastmile_qr_scan", "android": "https://dc.lft.to/lastmile_qr_scan"}}, {"name": "cafce89d058c3d4cf8e21f4971e023c4", "type": "electric_scooter", "lat": 38.89822083333333, "is_reserved": 0, "lon": -76.946507, "fusion_lon": 0.0, "is_disabled": 0, "fusion_lat": 0.0, "bike_id": "cafce89d058c3d4cf8e21f4971e023c4", "rental_uris": {"ios": "https://dc.lft.to/lastmile_qr_scan", "android": "https://dc.lft.to/lastmile_qr_scan"}}, {"name": "93a522db92c92e123408046bbb482d83", "type": "electric_scooter", "lat": 38.89010866666667, "is_reserved": 0, "lon": -76.937344, "fusion_lon": 0.0, "is_disabled": 0, "fusion_lat": 0.0, "bike_id": "93a522db92c92e123408046bbb482d83", "rental_uris": {"ios": "https://dc.lft.to/lastmile_qr_scan", "android": "https://dc.lft.to/lastmile_qr_scan"}}, {"name": "e5f2780408ed90a0d8038c758e7a001a", "type": "electric_scooter", "lat": 38.8982805, "is_reserved": 0, "lon": -76.94654416666667, "fusion_lon": 0.0, "is_disabled": 0, "fusion_lat": 0.0, "bike_id": "e5f2780408ed90a0d8038c758e7a001a", "rental_uris": {"ios": "https://dc.lft.to/lastmile_qr_scan", "android": "https://dc.lft.to/lastmile_qr_scan"}}, {"name": "ca8585900a5ebc8d2728cec6a91fc156", "type": "electric_scooter", "lat": 38.89673033333333, "is_reserved": 0, "lon": -77.026184, "fusion_lon": 0.0, "is_disabled": 0, "fusion_lat": 0.0, "bike_id": "ca8585900a5ebc8d2728cec6a91fc156", "rental_uris": {"ios": "https://dc.lft.to/lastmile_qr_scan", "android": "https://dc.lft.to/lastmile_qr_scan"}}, {"name": "7ae941dc49c970aa6368289ed7aeb2e5", "type": "electric_scooter", "lat": 38.927449, "is_reserved": 0, "lon": -77.0326415, "fusion_lon": 0.0, "is_disabled": 0, "fusion_lat": 0.0, "bike_id": "7ae941dc49c970aa6368289ed7aeb2e5", "rental_uris": {"ios": "https://dc.lft.to/lastmile_qr_scan", "android": "https://dc.lft.to/lastmile_qr_scan"}}, {"name": "a28d158dcbf9ffed37ee0e14c4ca2b65", "type": "electric_scooter", "lat": 38.90281916666667, "is_reserved": 0, "lon": -77.038428, "fusion_lon": 0.0, "is_disabled": 0, "fusion_lat": 0.0, "bike_id": "a28d158dcbf9ffed37ee0e14c4ca2b65", "rental_uris": {"ios": "https://dc.lft.to/lastmile_qr_scan", "android": "https://dc.lft.to/lastmile_qr_scan"}}, {"name": "cdbf280cf2d42bbc12057189b1bf8793", "type": "electric_scooter", "lat": 38.931584666666666, "is_reserved": 0, "lon": -77.05644666666667, "fusion_lon": 0.0, "is_disabled": 0, "fusion_lat": 0.0, "bike_id": "cdbf280cf2d42bbc12057189b1bf8793", "rental_uris": {"ios": "https://dc.lft.to/lastmile_qr_scan", "android": "https://dc.lft.to/lastmile_qr_scan"}}, {"name": "94dbcc3037ea5d4ff41c7f27e8bc8e4a", "type": "electric_scooter", "lat": 38.89222316666667, "is_reserved": 0, "lon": -77.04866183333333, "fusion_lon": 0.0, "is_disabled": 0, "fusion_lat": 0.0, "bike_id": "94dbcc3037ea5d4ff41c7f27e8bc8e4a", "rental_uris": {"ios": "https://dc.lft.to/lastmile_qr_scan", "android": "https://dc.lft.to/lastmile_qr_scan"}}, {"name": "c1aa3e65a6a6031f04472ffa0f31fce5", "type": "electric_scooter", "lat": 38.89775816666667, "is_reserved": 0, "lon": -77.05463233333333, "fusion_lon": 0.0, "is_disabled": 0, "fusion_lat": 0.0, "bike_id": "c1aa3e65a6a6031f04472ffa0f31fce5", "rental_uris": {"ios": "https://dc.lft.to/lastmile_qr_scan", "android": "https://dc.lft.to/lastmile_qr_scan"}}, {"name": "a4f4faf84ddea4fa6d10857d268c59f3", "type": "electric_scooter", "lat": 38.8877315, "is_reserved": 0, "lon": -76.93264333333333, "fusion_lon": 0.0, "is_disabled": 0, "fusion_lat": 0.0, "bike_id": "a4f4faf84ddea4fa6d10857d268c59f3", "rental_uris": {"ios": "https://dc.lft.to/lastmile_qr_scan", "android": "https://dc.lft.to/lastmile_qr_scan"}}, {"name": "effa17270b3a2480ac502e04250d56c9", "type": "electric_scooter", "lat": 38.922534, "is_reserved": 0, "lon": -77.03471633333334, "fusion_lon": 0.0, "is_disabled": 0, "fusion_lat": 0.0, "bike_id": "effa17270b3a2480ac502e04250d56c9", "rental_uris": {"ios": "https://dc.lft.to/lastmile_qr_scan", "android": "https://dc.lft.to/lastmile_qr_scan"}}, {"name": "08b9b8eac71f784f2b4ae6295ac5a576", "type": "electric_scooter", "lat": 38.903806833333334, "is_reserved": 0, "lon": -77.041582, "fusion_lon": 0.0, "is_disabled": 0, "fusion_lat": 0.0, "bike_id": "08b9b8eac71f784f2b4ae6295ac5a576", "rental_uris": {"ios": "https://dc.lft.to/lastmile_qr_scan", "android": "https://dc.lft.to/lastmile_qr_scan"}}, {"name": "8c6560496d554933790de56c7f47c702", "type": "electric_scooter", "lat": 38.905775166666665, "is_reserved": 0, "lon": -77.03854183333333, "fusion_lon": 0.0, "is_disabled": 0, "fusion_lat": 0.0, "bike_id": "8c6560496d554933790de56c7f47c702", "rental_uris": {"ios": "https://dc.lft.to/lastmile_qr_scan", "android": "https://dc.lft.to/lastmile_qr_scan"}}, {"name": "d63e7ee6336b94a9c8f7d25784191fee", "type": "electric_scooter", "lat": 38.90678316666666, "is_reserved": 0, "lon": -77.03463933333333, "fusion_lon": 0.0, "is_disabled": 0, "fusion_lat": 0.0, "bike_id": "d63e7ee6336b94a9c8f7d25784191fee", "rental_uris": {"ios": "https://dc.lft.to/lastmile_qr_scan", "android": "https://dc.lft.to/lastmile_qr_scan"}}, {"name": "f7a32d0008b0580e4a21d9a80812f8eb", "type": "electric_scooter", "lat": 38.92709166666667, "is_reserved": 0, "lon": -77.021055, "fusion_lon": 0.0, "is_disabled": 0, "fusion_lat": 0.0, "bike_id": "f7a32d0008b0580e4a21d9a80812f8eb", "rental_uris": {"ios": "https://dc.lft.to/lastmile_qr_scan", "android": "https://dc.lft.to/lastmile_qr_scan"}}, {"name": "5468bcb1083ed232217bca81887c510e", "type": "electric_scooter", "lat": 38.911027, "is_reserved": 0, "lon": -77.00351933333333, "fusion_lon": 0.0, "is_disabled": 0, "fusion_lat": 0.0, "bike_id": "5468bcb1083ed232217bca81887c510e", "rental_uris": {"ios": "https://dc.lft.to/lastmile_qr_scan", "android": "https://dc.lft.to/lastmile_qr_scan"}}, {"name": "682efd479b76510d45a68de55ac34011", "type": "electric_scooter", "lat": 38.866572833333336, "is_reserved": 0, "lon": -76.988844, "fusion_lon": 0.0, "is_disabled": 0, "fusion_lat": 0.0, "bike_id": "682efd479b76510d45a68de55ac34011", "rental_uris": {"ios": "https://dc.lft.to/lastmile_qr_scan", "android": "https://dc.lft.to/lastmile_qr_scan"}}, {"name": "3067c4279aee62f48caab14ac2b2e7cb", "type": "electric_scooter", "lat": 38.94275866666667, "is_reserved": 0, "lon": -77.02501316666667, "fusion_lon": 0.0, "is_disabled": 0, "fusion_lat": 0.0, "bike_id": "3067c4279aee62f48caab14ac2b2e7cb", "rental_uris": {"ios": "https://dc.lft.to/lastmile_qr_scan", "android": "https://dc.lft.to/lastmile_qr_scan"}}, {"name": "c6ea0d13f6a9e7c35dc9900aa14be298", "type": "electric_scooter", "lat": 38.9056805, "is_reserved": 0, "lon": -77.034686, "fusion_lon": 0.0, "is_disabled": 0, "fusion_lat": 0.0, "bike_id": "c6ea0d13f6a9e7c35dc9900aa14be298", "rental_uris": {"ios": "https://dc.lft.to/lastmile_qr_scan", "android": "https://dc.lft.to/lastmile_qr_scan"}}, {"name": "17330a089a8e45d97afcfeedb4097f88", "type": "electric_bike", "lat": 38.965016, "is_reserved": 0, "lon": -77.1033075, "fusion_lon": 0.0, "is_disabled": 0, "fusion_lat": 0.0, "bike_id": "17330a089a8e45d97afcfeedb4097f88", "rental_uris": {"ios": "https://dc.lft.to/lastmile_qr_scan", "android": "https://dc.lft.to/lastmile_qr_scan"}}, {"name": "d6798222d1d86bc4910530680e858052", "type": "electric_scooter", "lat": 38.900089666666666, "is_reserved": 0, "lon": -77.0471205, "fusion_lon": 0.0, "is_disabled": 0, "fusion_lat": 0.0, "bike_id": "d6798222d1d86bc4910530680e858052", "rental_uris": {"ios": "https://dc.lft.to/lastmile_qr_scan", "android": "https://dc.lft.to/lastmile_qr_scan"}}, {"name": "ea1b4805d74dd5ed1bc496bd77a8f431", "type": "electric_scooter", "lat": 38.88487516666667, "is_reserved": 0, "lon": -77.00727016666667, "fusion_lon": 0.0, "is_disabled": 0, "fusion_lat": 0.0, "bike_id": "ea1b4805d74dd5ed1bc496bd77a8f431", "rental_uris": {"ios": "https://dc.lft.to/lastmile_qr_scan", "android": "https://dc.lft.to/lastmile_qr_scan"}}, {"name": "679669234a025419f731b7e78084c571", "type": "electric_scooter", "lat": 38.93400333333334, "is_reserved": 0, "lon": -77.03885983333333, "fusion_lon": 0.0, "is_disabled": 0, "fusion_lat": 0.0, "bike_id": "679669234a025419f731b7e78084c571", "rental_uris": {"ios": "https://dc.lft.to/lastmile_qr_scan", "android": "https://dc.lft.to/lastmile_qr_scan"}}, {"name": "9b60f5a3077ca2dfdbb18d4e6248e3a9", "type": "electric_scooter", "lat": 38.95900866666667, "is_reserved": 0, "lon": -77.0808165, "fusion_lon": 0.0, "is_disabled": 0, "fusion_lat": 0.0, "bike_id": "9b60f5a3077ca2dfdbb18d4e6248e3a9", "rental_uris": {"ios": "https://dc.lft.to/lastmile_qr_scan", "android": "https://dc.lft.to/lastmile_qr_scan"}}, {"name": "1db73eecbcace4c1610ce692c3ea01fc", "type": "electric_scooter", "lat": 38.8950355, "is_reserved": 0, "lon": -77.0467695, "fusion_lon": 0.0, "is_disabled": 0, "fusion_lat": 0.0, "bike_id": "1db73eecbcace4c1610ce692c3ea01fc", "rental_uris": {"ios": "https://dc.lft.to/lastmile_qr_scan", "android": "https://dc.lft.to/lastmile_qr_scan"}}, {"name": "9d3decdf66f896cc95ff8333378e86dc", "type": "electric_scooter", "lat": 38.918034, "is_reserved": 0, "lon": -77.03443, "fusion_lon": 0.0, "is_disabled": 0, "fusion_lat": 0.0, "bike_id": "9d3decdf66f896cc95ff8333378e86dc", "rental_uris": {"ios": "https://dc.lft.to/lastmile_qr_scan", "android": "https://dc.lft.to/lastmile_qr_scan"}}, {"name": "983931d6069abd0f219c0432eab537b8", "type": "electric_scooter", "lat": 38.880244833333336, "is_reserved": 0, "lon": -76.98838883333333, "fusion_lon": 0.0, "is_disabled": 0, "fusion_lat": 0.0, "bike_id": "983931d6069abd0f219c0432eab537b8", "rental_uris": {"ios": "https://dc.lft.to/lastmile_qr_scan", "android": "https://dc.lft.to/lastmile_qr_scan"}}, {"name": "3d3b922801e38c91c2e444937433944d", "type": "electric_scooter", "lat": 38.91492, "is_reserved": 0, "lon": -77.0184735, "fusion_lon": 0.0, "is_disabled": 0, "fusion_lat": 0.0, "bike_id": "3d3b922801e38c91c2e444937433944d", "rental_uris": {"ios": "https://dc.lft.to/lastmile_qr_scan", "android": "https://dc.lft.to/lastmile_qr_scan"}}, {"name": "6ca7bfca8cb628add9c2be91013016bd", "type": "electric_scooter", "lat": 38.871248666666666, "is_reserved": 0, "lon": -77.00598766666667, "fusion_lon": 0.0, "is_disabled": 0, "fusion_lat": 0.0, "bike_id": "6ca7bfca8cb628add9c2be91013016bd", "rental_uris": {"ios": "https://dc.lft.to/lastmile_qr_scan", "android": "https://dc.lft.to/lastmile_qr_scan"}}, {"name": "6770c43f2d85b0dda9e2fe81ca55d42c", "type": "electric_scooter", "lat": 38.883126, "is_reserved": 0, "lon": -77.00593083333334, "fusion_lon": 0.0, "is_disabled": 0, "fusion_lat": 0.0, "bike_id": "6770c43f2d85b0dda9e2fe81ca55d42c", "rental_uris": {"ios": "https://dc.lft.to/lastmile_qr_scan", "android": "https://dc.lft.to/lastmile_qr_scan"}}, {"name": "6e9ce6ad36fca1fa318e765291648540", "type": "electric_scooter", "lat": 38.844257, "is_reserved": 0, "lon": -76.99778566666667, "fusion_lon": 0.0, "is_disabled": 0, "fusion_lat": 0.0, "bike_id": "6e9ce6ad36fca1fa318e765291648540", "rental_uris": {"ios": "https://dc.lft.to/lastmile_qr_scan", "android": "https://dc.lft.to/lastmile_qr_scan"}}, {"name": "6f7039a11010780bf1eb299ef0d4035e", "type": "electric_scooter", "lat": 38.925689166666665, "is_reserved": 0, "lon": -77.02721833333334, "fusion_lon": 0.0, "is_disabled": 0, "fusion_lat": 0.0, "bike_id": "6f7039a11010780bf1eb299ef0d4035e", "rental_uris": {"ios": "https://dc.lft.to/lastmile_qr_scan", "android": "https://dc.lft.to/lastmile_qr_scan"}}, {"name": "eb5a4d0a7739c6ab4885c06f04061ceb", "type": "electric_scooter", "lat": 38.917022833333334, "is_reserved": 0, "lon": -77.0223845, "fusion_lon": 0.0, "is_disabled": 0, "fusion_lat": 0.0, "bike_id": "eb5a4d0a7739c6ab4885c06f04061ceb", "rental_uris": {"ios": "https://dc.lft.to/lastmile_qr_scan", "android": "https://dc.lft.to/lastmile_qr_scan"}}, {"name": "e9eff030675b9a9c86e01310ddcd338e", "type": "electric_scooter", "lat": 38.905442, "is_reserved": 0, "lon": -77.04749916666667, "fusion_lon": 0.0, "is_disabled": 0, "fusion_lat": 0.0, "bike_id": "e9eff030675b9a9c86e01310ddcd338e", "rental_uris": {"ios": "https://dc.lft.to/lastmile_qr_scan", "android": "https://dc.lft.to/lastmile_qr_scan"}}, {"name": "fed3cb75d0f069abc453e41f1af59d7a", "type": "electric_scooter", "lat": 38.89832883333333, "is_reserved": 0, "lon": -76.946366, "fusion_lon": 0.0, "is_disabled": 0, "fusion_lat": 0.0, "bike_id": "fed3cb75d0f069abc453e41f1af59d7a", "rental_uris": {"ios": "https://dc.lft.to/lastmile_qr_scan", "android": "https://dc.lft.to/lastmile_qr_scan"}}, {"name": "26ffe2057c3f843157617c02384a4e26", "type": "electric_bike", "lat": 38.90545516666667, "is_reserved": 0, "lon": -77.0570725, "fusion_lon": 0.0, "is_disabled": 0, "fusion_lat": 0.0, "bike_id": "26ffe2057c3f843157617c02384a4e26", "rental_uris": {"ios": "https://dc.lft.to/lastmile_qr_scan", "android": "https://dc.lft.to/lastmile_qr_scan"}}, {"name": "886979b424ea9cd93e5baa1a8da75824", "type": "electric_scooter", "lat": 38.910106999999996, "is_reserved": 0, "lon": -76.993848, "fusion_lon": 0.0, "is_disabled": 0, "fusion_lat": 0.0, "bike_id": "886979b424ea9cd93e5baa1a8da75824", "rental_uris": {"ios": "https://dc.lft.to/lastmile_qr_scan", "android": "https://dc.lft.to/lastmile_qr_scan"}}, {"name": "5d780de3088b919bf249e0510fc130c5", "type": "electric_scooter", "lat": 38.89488683333333, "is_reserved": 0, "lon": -77.012169, "fusion_lon": 0.0, "is_disabled": 0, "fusion_lat": 0.0, "bike_id": "5d780de3088b919bf249e0510fc130c5", "rental_uris": {"ios": "https://dc.lft.to/lastmile_qr_scan", "android": "https://dc.lft.to/lastmile_qr_scan"}}, {"name": "b15678f316efb8b4d3014a9b1a104851", "type": "electric_scooter", "lat": 38.914771, "is_reserved": 0, "lon": -77.03214366666667, "fusion_lon": 0.0, "is_disabled": 0, "fusion_lat": 0.0, "bike_id": "b15678f316efb8b4d3014a9b1a104851", "rental_uris": {"ios": "https://dc.lft.to/lastmile_qr_scan", "android": "https://dc.lft.to/lastmile_qr_scan"}}, {"name": "6ae575169f9bc14ee63b53bb0e4ab64f", "type": "electric_scooter", "lat": 38.92880266666667, "is_reserved": 0, "lon": -77.032612, "fusion_lon": 0.0, "is_disabled": 0, "fusion_lat": 0.0, "bike_id": "6ae575169f9bc14ee63b53bb0e4ab64f", "rental_uris": {"ios": "https://dc.lft.to/lastmile_qr_scan", "android": "https://dc.lft.to/lastmile_qr_scan"}}, {"name": "f8b9c75cc2b2b171dfe62c8d7e18e0cc", "type": "electric_scooter", "lat": 38.927158, "is_reserved": 0, "lon": -77.02092433333334, "fusion_lon": 0.0, "is_disabled": 0, "fusion_lat": 0.0, "bike_id": "f8b9c75cc2b2b171dfe62c8d7e18e0cc", "rental_uris": {"ios": "https://dc.lft.to/lastmile_qr_scan", "android": "https://dc.lft.to/lastmile_qr_scan"}}, {"name": "3c046c5fdd1c4be5863d033035d03a23", "type": "electric_scooter", "lat": 38.90025283333333, "is_reserved": 0, "lon": -76.99856333333334, "fusion_lon": 0.0, "is_disabled": 0, "fusion_lat": 0.0, "bike_id": "3c046c5fdd1c4be5863d033035d03a23", "rental_uris": {"ios": "https://dc.lft.to/lastmile_qr_scan", "android": "https://dc.lft.to/lastmile_qr_scan"}}, {"name": "cf5407f45d151aff8a199bf3e9112d8c", "type": "electric_bike", "lat": 38.9732605, "is_reserved": 0, "lon": -77.021495, "fusion_lon": 0.0, "is_disabled": 0, "fusion_lat": 0.0, "bike_id": "cf5407f45d151aff8a199bf3e9112d8c", "rental_uris": {"ios": "https://dc.lft.to/lastmile_qr_scan", "android": "https://dc.lft.to/lastmile_qr_scan"}}, {"name": "22ad6f15c5bc21663189cb73b6243200", "type": "electric_scooter", "lat": 38.93252366666667, "is_reserved": 0, "lon": -77.04005016666666, "fusion_lon": 0.0, "is_disabled": 0, "fusion_lat": 0.0, "bike_id": "22ad6f15c5bc21663189cb73b6243200", "rental_uris": {"ios": "https://dc.lft.to/lastmile_qr_scan", "android": "https://dc.lft.to/lastmile_qr_scan"}}, {"name": "7e83280e634654c156759c3d48dcdde5", "type": "electric_scooter", "lat": 38.910656333333336, "is_reserved": 0, "lon": -77.03024733333334, "fusion_lon": 0.0, "is_disabled": 0, "fusion_lat": 0.0, "bike_id": "7e83280e634654c156759c3d48dcdde5", "rental_uris": {"ios": "https://dc.lft.to/lastmile_qr_scan", "android": "https://dc.lft.to/lastmile_qr_scan"}}, {"name": "903851d07ac3c3c70f50bf9758833bd4", "type": "electric_scooter", "lat": 38.866944333333336, "is_reserved": 0, "lon": -76.98713216666667, "fusion_lon": 0.0, "is_disabled": 0, "fusion_lat": 0.0, "bike_id": "903851d07ac3c3c70f50bf9758833bd4", "rental_uris": {"ios": "https://dc.lft.to/lastmile_qr_scan", "android": "https://dc.lft.to/lastmile_qr_scan"}}, {"name": "1dd5753cb159ec9b2c47468163acf5f4", "type": "electric_bike", "lat": 38.9455165, "is_reserved": 0, "lon": -76.895382, "fusion_lon": 0.0, "is_disabled": 0, "fusion_lat": 0.0, "bike_id": "1dd5753cb159ec9b2c47468163acf5f4", "rental_uris": {"ios": "https://dc.lft.to/lastmile_qr_scan", "android": "https://dc.lft.to/lastmile_qr_scan"}}, {"name": "50500a4760de1a86c43a6260da1e846a", "type": "electric_scooter", "lat": 38.90592, "is_reserved": 0, "lon": -77.04473866666666, "fusion_lon": 0.0, "is_disabled": 0, "fusion_lat": 0.0, "bike_id": "50500a4760de1a86c43a6260da1e846a", "rental_uris": {"ios": "https://dc.lft.to/lastmile_qr_scan", "android": "https://dc.lft.to/lastmile_qr_scan"}}, {"name": "9aedf701976e3142f16e867b9f309f9d", "type": "electric_scooter", "lat": 38.8839575, "is_reserved": 0, "lon": -76.93038816666666, "fusion_lon": 0.0, "is_disabled": 0, "fusion_lat": 0.0, "bike_id": "9aedf701976e3142f16e867b9f309f9d", "rental_uris": {"ios": "https://dc.lft.to/lastmile_qr_scan", "android": "https://dc.lft.to/lastmile_qr_scan"}}, {"name": "5b3aca530c57b13bc7037044f1aa8175", "type": "electric_scooter", "lat": 38.949753333333334, "is_reserved": 0, "lon": -77.07893416666667, "fusion_lon": 0.0, "is_disabled": 0, "fusion_lat": 0.0, "bike_id": "5b3aca530c57b13bc7037044f1aa8175", "rental_uris": {"ios": "https://dc.lft.to/lastmile_qr_scan", "android": "https://dc.lft.to/lastmile_qr_scan"}}, {"name": "9018a4e32c4e5fc4baa1beabbc399145", "type": "electric_scooter", "lat": 38.898324, "is_reserved": 0, "lon": -76.9463635, "fusion_lon": 0.0, "is_disabled": 0, "fusion_lat": 0.0, "bike_id": "9018a4e32c4e5fc4baa1beabbc399145", "rental_uris": {"ios": "https://dc.lft.to/lastmile_qr_scan", "android": "https://dc.lft.to/lastmile_qr_scan"}}, {"name": "07175913538b895150b4b576d5f83da1", "type": "electric_scooter", "lat": 38.89734383333333, "is_reserved": 0, "lon": -77.027309, "fusion_lon": 0.0, "is_disabled": 0, "fusion_lat": 0.0, "bike_id": "07175913538b895150b4b576d5f83da1", "rental_uris": {"ios": "https://dc.lft.to/lastmile_qr_scan", "android": "https://dc.lft.to/lastmile_qr_scan"}}, {"name": "cc3a35cc125988d2f3b62b172b67a886", "type": "electric_scooter", "lat": 38.9238645, "is_reserved": 0, "lon": -77.03133683333333, "fusion_lon": 0.0, "is_disabled": 0, "fusion_lat": 0.0, "bike_id": "cc3a35cc125988d2f3b62b172b67a886", "rental_uris": {"ios": "https://dc.lft.to/lastmile_qr_scan", "android": "https://dc.lft.to/lastmile_qr_scan"}}, {"name": "36ce5080becc3bcfbf544d67bbb40abb", "type": "electric_scooter", "lat": 38.87777, "is_reserved": 0, "lon": -77.00809983333333, "fusion_lon": 0.0, "is_disabled": 0, "fusion_lat": 0.0, "bike_id": "36ce5080becc3bcfbf544d67bbb40abb", "rental_uris": {"ios": "https://dc.lft.to/lastmile_qr_scan", "android": "https://dc.lft.to/lastmile_qr_scan"}}, {"name": "ceb949615006b191879f4f550023e7a3", "type": "electric_scooter", "lat": 38.918035333333336, "is_reserved": 0, "lon": -77.03105266666667, "fusion_lon": 0.0, "is_disabled": 0, "fusion_lat": 0.0, "bike_id": "ceb949615006b191879f4f550023e7a3", "rental_uris": {"ios": "https://dc.lft.to/lastmile_qr_scan", "android": "https://dc.lft.to/lastmile_qr_scan"}}, {"name": "703c3e729cc93b09a2eb90857b26e079", "type": "electric_scooter", "lat": 38.920005, "is_reserved": 0, "lon": -76.95815233333333, "fusion_lon": 0.0, "is_disabled": 0, "fusion_lat": 0.0, "bike_id": "703c3e729cc93b09a2eb90857b26e079", "rental_uris": {"ios": "https://dc.lft.to/lastmile_qr_scan", "android": "https://dc.lft.to/lastmile_qr_scan"}}, {"name": "67f519444a08e7b2c5653223a459817e", "type": "electric_scooter", "lat": 38.890127666666665, "is_reserved": 0, "lon": -76.9373445, "fusion_lon": 0.0, "is_disabled": 0, "fusion_lat": 0.0, "bike_id": "67f519444a08e7b2c5653223a459817e", "rental_uris": {"ios": "https://dc.lft.to/lastmile_qr_scan", "android": "https://dc.lft.to/lastmile_qr_scan"}}, {"name": "422f478349bfb42fed94f9720a3a6fdc", "type": "electric_scooter", "lat": 38.962303666666664, "is_reserved": 0, "lon": -77.02976466666667, "fusion_lon": 0.0, "is_disabled": 0, "fusion_lat": 0.0, "bike_id": "422f478349bfb42fed94f9720a3a6fdc", "rental_uris": {"ios": "https://dc.lft.to/lastmile_qr_scan", "android": "https://dc.lft.to/lastmile_qr_scan"}}, {"name": "3fb5316beb0c38bb29f50f5b3eec0fec", "type": "electric_scooter", "lat": 38.903847, "is_reserved": 0, "lon": -77.04446733333333, "fusion_lon": 0.0, "is_disabled": 0, "fusion_lat": 0.0, "bike_id": "3fb5316beb0c38bb29f50f5b3eec0fec", "rental_uris": {"ios": "https://dc.lft.to/lastmile_qr_scan", "android": "https://dc.lft.to/lastmile_qr_scan"}}, {"name": "e7f0418e9baeef86d837c72781bf4584", "type": "electric_scooter", "lat": 38.9027995, "is_reserved": 0, "lon": -77.03380433333334, "fusion_lon": 0.0, "is_disabled": 0, "fusion_lat": 0.0, "bike_id": "e7f0418e9baeef86d837c72781bf4584", "rental_uris": {"ios": "https://dc.lft.to/lastmile_qr_scan", "android": "https://dc.lft.to/lastmile_qr_scan"}}, {"name": "12373ff2bb903af2641a715b82e42225", "type": "electric_scooter", "lat": 38.923666, "is_reserved": 0, "lon": -77.021195, "fusion_lon": 0.0, "is_disabled": 0, "fusion_lat": 0.0, "bike_id": "12373ff2bb903af2641a715b82e42225", "rental_uris": {"ios": "https://dc.lft.to/lastmile_qr_scan", "android": "https://dc.lft.to/lastmile_qr_scan"}}, {"name": "a94673bd397fce6e0f5aedb8d410f3cb", "type": "electric_scooter", "lat": 38.8853115, "is_reserved": 0, "lon": -77.00580166666667, "fusion_lon": 0.0, "is_disabled": 0, "fusion_lat": 0.0, "bike_id": "a94673bd397fce6e0f5aedb8d410f3cb", "rental_uris": {"ios": "https://dc.lft.to/lastmile_qr_scan", "android": "https://dc.lft.to/lastmile_qr_scan"}}, {"name": "c557bd8803a8c2b0d496634d486cab5a", "type": "electric_scooter", "lat": 38.89764133333333, "is_reserved": 0, "lon": -77.0433695, "fusion_lon": 0.0, "is_disabled": 0, "fusion_lat": 0.0, "bike_id": "c557bd8803a8c2b0d496634d486cab5a", "rental_uris": {"ios": "https://dc.lft.to/lastmile_qr_scan", "android": "https://dc.lft.to/lastmile_qr_scan"}}, {"name": "511d1d97e9f7e615942b6ef44a1a630d", "type": "electric_scooter", "lat": 38.91995283333333, "is_reserved": 0, "lon": -77.03467716666667, "fusion_lon": 0.0, "is_disabled": 0, "fusion_lat": 0.0, "bike_id": "511d1d97e9f7e615942b6ef44a1a630d", "rental_uris": {"ios": "https://dc.lft.to/lastmile_qr_scan", "android": "https://dc.lft.to/lastmile_qr_scan"}}, {"name": "b9557a993e880aa79253e163092b0412", "type": "electric_scooter", "lat": 38.899111166666664, "is_reserved": 0, "lon": -77.03922133333333, "fusion_lon": 0.0, "is_disabled": 0, "fusion_lat": 0.0, "bike_id": "b9557a993e880aa79253e163092b0412", "rental_uris": {"ios": "https://dc.lft.to/lastmile_qr_scan", "android": "https://dc.lft.to/lastmile_qr_scan"}}, {"name": "de51a0b059a4eb338cd4f86bf1d1123d", "type": "electric_scooter", "lat": 38.9028455, "is_reserved": 0, "lon": -77.03837116666666, "fusion_lon": 0.0, "is_disabled": 0, "fusion_lat": 0.0, "bike_id": "de51a0b059a4eb338cd4f86bf1d1123d", "rental_uris": {"ios": "https://dc.lft.to/lastmile_qr_scan", "android": "https://dc.lft.to/lastmile_qr_scan"}}, {"name": "26a95f95dec1e31f7c73062e13632f72", "type": "electric_scooter", "lat": 38.88777316666667, "is_reserved": 0, "lon": -76.9553435, "fusion_lon": 0.0, "is_disabled": 0, "fusion_lat": 0.0, "bike_id": "26a95f95dec1e31f7c73062e13632f72", "rental_uris": {"ios": "https://dc.lft.to/lastmile_qr_scan", "android": "https://dc.lft.to/lastmile_qr_scan"}}, {"name": "16324ebf8ad7b42993fb2d7d1a6d988b", "type": "electric_scooter", "lat": 38.89195983333333, "is_reserved": 0, "lon": -77.00237666666666, "fusion_lon": 0.0, "is_disabled": 0, "fusion_lat": 0.0, "bike_id": "16324ebf8ad7b42993fb2d7d1a6d988b", "rental_uris": {"ios": "https://dc.lft.to/lastmile_qr_scan", "android": "https://dc.lft.to/lastmile_qr_scan"}}, {"name": "36b397533f224eb4d6986385b858b82a", "type": "electric_scooter", "lat": 38.93356216666667, "is_reserved": 0, "lon": -77.06933966666666, "fusion_lon": 0.0, "is_disabled": 0, "fusion_lat": 0.0, "bike_id": "36b397533f224eb4d6986385b858b82a", "rental_uris": {"ios": "https://dc.lft.to/lastmile_qr_scan", "android": "https://dc.lft.to/lastmile_qr_scan"}}, {"name": "f54c5f4835aa2a61e496e4a2b28279d8", "type": "electric_scooter", "lat": 38.90277283333333, "is_reserved": 0, "lon": -77.03455783333334, "fusion_lon": 0.0, "is_disabled": 0, "fusion_lat": 0.0, "bike_id": "f54c5f4835aa2a61e496e4a2b28279d8", "rental_uris": {"ios": "https://dc.lft.to/lastmile_qr_scan", "android": "https://dc.lft.to/lastmile_qr_scan"}}, {"name": "f8cbe690a78cd59a8c0d9d05ee13dae7", "type": "electric_scooter", "lat": 38.97514066666667, "is_reserved": 0, "lon": -77.0174625, "fusion_lon": 0.0, "is_disabled": 0, "fusion_lat": 0.0, "bike_id": "f8cbe690a78cd59a8c0d9d05ee13dae7", "rental_uris": {"ios": "https://dc.lft.to/lastmile_qr_scan", "android": "https://dc.lft.to/lastmile_qr_scan"}}, {"name": "f4cfefbd282e36a3090c41a6ae5f8118", "type": "electric_scooter", "lat": 38.905220166666666, "is_reserved": 0, "lon": -77.063803, "fusion_lon": 0.0, "is_disabled": 0, "fusion_lat": 0.0, "bike_id": "f4cfefbd282e36a3090c41a6ae5f8118", "rental_uris": {"ios": "https://dc.lft.to/lastmile_qr_scan", "android": "https://dc.lft.to/lastmile_qr_scan"}}, {"name": "b524f18481c9f4e8c8b7804c9e5c473d", "type": "electric_scooter", "lat": 38.899398166666664, "is_reserved": 0, "lon": -77.02999366666667, "fusion_lon": 0.0, "is_disabled": 0, "fusion_lat": 0.0, "bike_id": "b524f18481c9f4e8c8b7804c9e5c473d", "rental_uris": {"ios": "https://dc.lft.to/lastmile_qr_scan", "android": "https://dc.lft.to/lastmile_qr_scan"}}, {"name": "52789fa3f306b4d70684b187333b145d", "type": "electric_scooter", "lat": 38.84287783333333, "is_reserved": 0, "lon": -76.99943116666667, "fusion_lon": 0.0, "is_disabled": 0, "fusion_lat": 0.0, "bike_id": "52789fa3f306b4d70684b187333b145d", "rental_uris": {"ios": "https://dc.lft.to/lastmile_qr_scan", "android": "https://dc.lft.to/lastmile_qr_scan"}}, {"name": "fba7f72b533b20dabf97bde15f7ab2ca", "type": "electric_scooter", "lat": 38.9047255, "is_reserved": 0, "lon": -77.04190733333333, "fusion_lon": 0.0, "is_disabled": 0, "fusion_lat": 0.0, "bike_id": "fba7f72b533b20dabf97bde15f7ab2ca", "rental_uris": {"ios": "https://dc.lft.to/lastmile_qr_scan", "android": "https://dc.lft.to/lastmile_qr_scan"}}, {"name": "75dcedb193fb5247ea7da45935b3c62c", "type": "electric_bike", "lat": 38.852456, "is_reserved": 0, "lon": -77.11429533333333, "fusion_lon": 0.0, "is_disabled": 0, "fusion_lat": 0.0, "bike_id": "75dcedb193fb5247ea7da45935b3c62c", "rental_uris": {"ios": "https://dc.lft.to/lastmile_qr_scan", "android": "https://dc.lft.to/lastmile_qr_scan"}}, {"name": "ba747c13e23613ac12acd18ec564efdd", "type": "electric_scooter", "lat": 38.90117333333333, "is_reserved": 0, "lon": -77.0498205, "fusion_lon": 0.0, "is_disabled": 0, "fusion_lat": 0.0, "bike_id": "ba747c13e23613ac12acd18ec564efdd", "rental_uris": {"ios": "https://dc.lft.to/lastmile_qr_scan", "android": "https://dc.lft.to/lastmile_qr_scan"}}, {"name": "d5594acf60a998b10bd22002eabbf528", "type": "electric_scooter", "lat": 38.88374566666667, "is_reserved": 0, "lon": -77.01972516666666, "fusion_lon": 0.0, "is_disabled": 0, "fusion_lat": 0.0, "bike_id": "d5594acf60a998b10bd22002eabbf528", "rental_uris": {"ios": "https://dc.lft.to/lastmile_qr_scan", "android": "https://dc.lft.to/lastmile_qr_scan"}}, {"name": "89ee70fc7d8a857e36f38763822987f4", "type": "electric_scooter", "lat": 38.918018833333335, "is_reserved": 0, "lon": -77.0249145, "fusion_lon": 0.0, "is_disabled": 0, "fusion_lat": 0.0, "bike_id": "89ee70fc7d8a857e36f38763822987f4", "rental_uris": {"ios": "https://dc.lft.to/lastmile_qr_scan", "android": "https://dc.lft.to/lastmile_qr_scan"}}, {"name": "30bf1d9282aeacb4402410d9c592c5d2", "type": "electric_scooter", "lat": 38.90190883333333, "is_reserved": 0, "lon": -77.02178233333333, "fusion_lon": 0.0, "is_disabled": 0, "fusion_lat": 0.0, "bike_id": "30bf1d9282aeacb4402410d9c592c5d2", "rental_uris": {"ios": "https://dc.lft.to/lastmile_qr_scan", "android": "https://dc.lft.to/lastmile_qr_scan"}}, {"name": "6f92194ed502c3e9fb5c1f6da26a2556", "type": "electric_scooter", "lat": 38.927471833333335, "is_reserved": 0, "lon": -77.0537175, "fusion_lon": 0.0, "is_disabled": 0, "fusion_lat": 0.0, "bike_id": "6f92194ed502c3e9fb5c1f6da26a2556", "rental_uris": {"ios": "https://dc.lft.to/lastmile_qr_scan", "android": "https://dc.lft.to/lastmile_qr_scan"}}, {"name": "93ad7d616470a2f42eb191019d07e664", "type": "electric_scooter", "lat": 38.90659616666667, "is_reserved": 0, "lon": -77.01030666666666, "fusion_lon": 0.0, "is_disabled": 0, "fusion_lat": 0.0, "bike_id": "93ad7d616470a2f42eb191019d07e664", "rental_uris": {"ios": "https://dc.lft.to/lastmile_qr_scan", "android": "https://dc.lft.to/lastmile_qr_scan"}}, {"name": "e49b7161cfb88eab7b994bd9c2d897eb", "type": "electric_scooter", "lat": 38.90274333333333, "is_reserved": 0, "lon": -77.0384535, "fusion_lon": 0.0, "is_disabled": 0, "fusion_lat": 0.0, "bike_id": "e49b7161cfb88eab7b994bd9c2d897eb", "rental_uris": {"ios": "https://dc.lft.to/lastmile_qr_scan", "android": "https://dc.lft.to/lastmile_qr_scan"}}, {"name": "9c10fba437954e0054632793f501f0c0", "type": "electric_scooter", "lat": 38.9350665, "is_reserved": 0, "lon": -77.03288616666667, "fusion_lon": 0.0, "is_disabled": 0, "fusion_lat": 0.0, "bike_id": "9c10fba437954e0054632793f501f0c0", "rental_uris": {"ios": "https://dc.lft.to/lastmile_qr_scan", "android": "https://dc.lft.to/lastmile_qr_scan"}}, {"name": "642a78f872985150cba945d7a3bef4db", "type": "electric_scooter", "lat": 38.924125, "is_reserved": 0, "lon": -77.019414, "fusion_lon": 0.0, "is_disabled": 0, "fusion_lat": 0.0, "bike_id": "642a78f872985150cba945d7a3bef4db", "rental_uris": {"ios": "https://dc.lft.to/lastmile_qr_scan", "android": "https://dc.lft.to/lastmile_qr_scan"}}, {"name": "dca23424860f277689a5480028073bd7", "type": "electric_scooter", "lat": 38.887167, "is_reserved": 0, "lon": -77.0177715, "fusion_lon": 0.0, "is_disabled": 0, "fusion_lat": 0.0, "bike_id": "dca23424860f277689a5480028073bd7", "rental_uris": {"ios": "https://dc.lft.to/lastmile_qr_scan", "android": "https://dc.lft.to/lastmile_qr_scan"}}, {"name": "7b0aef05d6aafabe1c575e190a4962c0", "type": "electric_scooter", "lat": 38.91269883333333, "is_reserved": 0, "lon": -77.0296825, "fusion_lon": 0.0, "is_disabled": 0, "fusion_lat": 0.0, "bike_id": "7b0aef05d6aafabe1c575e190a4962c0", "rental_uris": {"ios": "https://dc.lft.to/lastmile_qr_scan", "android": "https://dc.lft.to/lastmile_qr_scan"}}, {"name": "a24933031f572aa281c7ac93764c8003", "type": "electric_scooter", "lat": 38.93151866666667, "is_reserved": 0, "lon": -77.0436675, "fusion_lon": 0.0, "is_disabled": 0, "fusion_lat": 0.0, "bike_id": "a24933031f572aa281c7ac93764c8003", "rental_uris": {"ios": "https://dc.lft.to/lastmile_qr_scan", "android": "https://dc.lft.to/lastmile_qr_scan"}}, {"name": "0373433575fd15cb0576e2201329ef77", "type": "electric_scooter", "lat": 38.91040383333333, "is_reserved": 0, "lon": -77.04387433333333, "fusion_lon": 0.0, "is_disabled": 0, "fusion_lat": 0.0, "bike_id": "0373433575fd15cb0576e2201329ef77", "rental_uris": {"ios": "https://dc.lft.to/lastmile_qr_scan", "android": "https://dc.lft.to/lastmile_qr_scan"}}, {"name": "cc9f61f8fc716bd468cf4059d3674ae4", "type": "electric_scooter", "lat": 38.91190783333333, "is_reserved": 0, "lon": -77.06096433333333, "fusion_lon": 0.0, "is_disabled": 0, "fusion_lat": 0.0, "bike_id": "cc9f61f8fc716bd468cf4059d3674ae4", "rental_uris": {"ios": "https://dc.lft.to/lastmile_qr_scan", "android": "https://dc.lft.to/lastmile_qr_scan"}}, {"name": "720e17aacc4c31dad8c80ee3f91d9b1f", "type": "electric_bike", "lat": 38.8542365, "is_reserved": 0, "lon": -76.9096245, "fusion_lon": 0.0, "is_disabled": 0, "fusion_lat": 0.0, "bike_id": "720e17aacc4c31dad8c80ee3f91d9b1f", "rental_uris": {"ios": "https://dc.lft.to/lastmile_qr_scan", "android": "https://dc.lft.to/lastmile_qr_scan"}}, {"name": "961fc8b7b7bb369fc2a554680e7755c5", "type": "electric_scooter", "lat": 38.91945416666667, "is_reserved": 0, "lon": -77.01797666666667, "fusion_lon": 0.0, "is_disabled": 0, "fusion_lat": 0.0, "bike_id": "961fc8b7b7bb369fc2a554680e7755c5", "rental_uris": {"ios": "https://dc.lft.to/lastmile_qr_scan", "android": "https://dc.lft.to/lastmile_qr_scan"}}, {"name": "02504b780124fbbd85e16d5e629b857d", "type": "electric_bike", "lat": 38.810483833333336, "is_reserved": 0, "lon": -77.085169, "fusion_lon": 0.0, "is_disabled": 0, "fusion_lat": 0.0, "bike_id": "02504b780124fbbd85e16d5e629b857d", "rental_uris": {"ios": "https://dc.lft.to/lastmile_qr_scan", "android": "https://dc.lft.to/lastmile_qr_scan"}}, {"name": "8463b955a92e6193c63d7a6729978b19", "type": "electric_scooter", "lat": 38.934933666666666, "is_reserved": 0, "lon": -77.02845433333333, "fusion_lon": 0.0, "is_disabled": 0, "fusion_lat": 0.0, "bike_id": "8463b955a92e6193c63d7a6729978b19", "rental_uris": {"ios": "https://dc.lft.to/lastmile_qr_scan", "android": "https://dc.lft.to/lastmile_qr_scan"}}, {"name": "cf0cb0a9cf64f605662f5e09f16e0c16", "type": "electric_scooter", "lat": 38.9003355, "is_reserved": 0, "lon": -76.98701483333333, "fusion_lon": 0.0, "is_disabled": 0, "fusion_lat": 0.0, "bike_id": "cf0cb0a9cf64f605662f5e09f16e0c16", "rental_uris": {"ios": "https://dc.lft.to/lastmile_qr_scan", "android": "https://dc.lft.to/lastmile_qr_scan"}}, {"name": "11d828b559ea9d8aa48c57a334f88e15", "type": "electric_bike", "lat": 39.02643416666667, "is_reserved": 0, "lon": -77.1255295, "fusion_lon": 0.0, "is_disabled": 0, "fusion_lat": 0.0, "bike_id": "11d828b559ea9d8aa48c57a334f88e15", "rental_uris": {"ios": "https://dc.lft.to/lastmile_qr_scan", "android": "https://dc.lft.to/lastmile_qr_scan"}}, {"name": "c9b71858c9f96f49743068da96d94969", "type": "electric_scooter", "lat": 38.892232166666666, "is_reserved": 0, "lon": -77.04860416666666, "fusion_lon": 0.0, "is_disabled": 0, "fusion_lat": 0.0, "bike_id": "c9b71858c9f96f49743068da96d94969", "rental_uris": {"ios": "https://dc.lft.to/lastmile_qr_scan", "android": "https://dc.lft.to/lastmile_qr_scan"}}, {"name": "2ee7dec7b0e988a9b92e52ef265141db", "type": "electric_scooter", "lat": 38.90314433333333, "is_reserved": 0, "lon": -77.033185, "fusion_lon": 0.0, "is_disabled": 0, "fusion_lat": 0.0, "bike_id": "2ee7dec7b0e988a9b92e52ef265141db", "rental_uris": {"ios": "https://dc.lft.to/lastmile_qr_scan", "android": "https://dc.lft.to/lastmile_qr_scan"}}, {"name": "0e9e141c6a63e9c9cde7c2ea7b6a7815", "type": "electric_scooter", "lat": 38.8827855, "is_reserved": 0, "lon": -76.97906666666667, "fusion_lon": 0.0, "is_disabled": 0, "fusion_lat": 0.0, "bike_id": "0e9e141c6a63e9c9cde7c2ea7b6a7815", "rental_uris": {"ios": "https://dc.lft.to/lastmile_qr_scan", "android": "https://dc.lft.to/lastmile_qr_scan"}}, {"name": "21da4376a116e0f6679063a9d6e6f7b4", "type": "electric_scooter", "lat": 38.84421966666667, "is_reserved": 0, "lon": -76.9977625, "fusion_lon": 0.0, "is_disabled": 0, "fusion_lat": 0.0, "bike_id": "21da4376a116e0f6679063a9d6e6f7b4", "rental_uris": {"ios": "https://dc.lft.to/lastmile_qr_scan", "android": "https://dc.lft.to/lastmile_qr_scan"}}, {"name": "69cc610ca2f885ab7e64d526b22209b5", "type": "electric_scooter", "lat": 38.90710583333333, "is_reserved": 0, "lon": -77.0301985, "fusion_lon": 0.0, "is_disabled": 0, "fusion_lat": 0.0, "bike_id": "69cc610ca2f885ab7e64d526b22209b5", "rental_uris": {"ios": "https://dc.lft.to/lastmile_qr_scan", "android": "https://dc.lft.to/lastmile_qr_scan"}}, {"name": "c5f3f969e850a65fc398cd4d342a37cd", "type": "electric_scooter", "lat": 38.895276833333334, "is_reserved": 0, "lon": -76.94928966666667, "fusion_lon": 0.0, "is_disabled": 0, "fusion_lat": 0.0, "bike_id": "c5f3f969e850a65fc398cd4d342a37cd", "rental_uris": {"ios": "https://dc.lft.to/lastmile_qr_scan", "android": "https://dc.lft.to/lastmile_qr_scan"}}, {"name": "9671f8a8f5f7d11f45f22c8afcce24fb", "type": "electric_scooter", "lat": 38.929047, "is_reserved": 0, "lon": -77.021662, "fusion_lon": 0.0, "is_disabled": 0, "fusion_lat": 0.0, "bike_id": "9671f8a8f5f7d11f45f22c8afcce24fb", "rental_uris": {"ios": "https://dc.lft.to/lastmile_qr_scan", "android": "https://dc.lft.to/lastmile_qr_scan"}}, {"name": "d528a3cd94fcce655eac4a8aa5f3e38d", "type": "electric_scooter", "lat": 38.907274666666666, "is_reserved": 0, "lon": -77.04345416666666, "fusion_lon": 0.0, "is_disabled": 0, "fusion_lat": 0.0, "bike_id": "d528a3cd94fcce655eac4a8aa5f3e38d", "rental_uris": {"ios": "https://dc.lft.to/lastmile_qr_scan", "android": "https://dc.lft.to/lastmile_qr_scan"}}, {"name": "5335061cb060603e150ffbe22ab418f5", "type": "electric_bike", "lat": 38.920814166666666, "is_reserved": 0, "lon": -77.01100633333333, "fusion_lon": 0.0, "is_disabled": 0, "fusion_lat": 0.0, "bike_id": "5335061cb060603e150ffbe22ab418f5", "rental_uris": {"ios": "https://dc.lft.to/lastmile_qr_scan", "android": "https://dc.lft.to/lastmile_qr_scan"}}, {"name": "6df84a707b81ad7e76f3fc2c750e3a8b", "type": "electric_scooter", "lat": 38.95645866666667, "is_reserved": 0, "lon": -77.03285416666667, "fusion_lon": 0.0, "is_disabled": 0, "fusion_lat": 0.0, "bike_id": "6df84a707b81ad7e76f3fc2c750e3a8b", "rental_uris": {"ios": "https://dc.lft.to/lastmile_qr_scan", "android": "https://dc.lft.to/lastmile_qr_scan"}}, {"name": "17e8526dfc712bf278cf85d0ac250a57", "type": "electric_scooter", "lat": 38.9065935, "is_reserved": 0, "lon": -77.0514415, "fusion_lon": 0.0, "is_disabled": 0, "fusion_lat": 0.0, "bike_id": "17e8526dfc712bf278cf85d0ac250a57", "rental_uris": {"ios": "https://dc.lft.to/lastmile_qr_scan", "android": "https://dc.lft.to/lastmile_qr_scan"}}, {"name": "cc1f74cac58291ae94f8425502a7aa1b", "type": "electric_scooter", "lat": 38.90267683333333, "is_reserved": 0, "lon": -77.01752583333334, "fusion_lon": 0.0, "is_disabled": 0, "fusion_lat": 0.0, "bike_id": "cc1f74cac58291ae94f8425502a7aa1b", "rental_uris": {"ios": "https://dc.lft.to/lastmile_qr_scan", "android": "https://dc.lft.to/lastmile_qr_scan"}}, {"name": "ff4b8d62c756455954a4b4ed6a05ad7d", "type": "electric_bike", "lat": 38.928577833333335, "is_reserved": 0, "lon": -77.22192983333333, "fusion_lon": 0.0, "is_disabled": 0, "fusion_lat": 0.0, "bike_id": "ff4b8d62c756455954a4b4ed6a05ad7d", "rental_uris": {"ios": "https://dc.lft.to/lastmile_qr_scan", "android": "https://dc.lft.to/lastmile_qr_scan"}}, {"name": "3d1c4c4f923a23e328c917f4e09d5469", "type": "electric_scooter", "lat": 38.935425, "is_reserved": 0, "lon": -77.03412083333333, "fusion_lon": 0.0, "is_disabled": 0, "fusion_lat": 0.0, "bike_id": "3d1c4c4f923a23e328c917f4e09d5469", "rental_uris": {"ios": "https://dc.lft.to/lastmile_qr_scan", "android": "https://dc.lft.to/lastmile_qr_scan"}}, {"name": "ca12af23854e6d3c3c1dfb4ec7f95a39", "type": "electric_scooter", "lat": 38.86533416666666, "is_reserved": 0, "lon": -76.98708, "fusion_lon": 0.0, "is_disabled": 0, "fusion_lat": 0.0, "bike_id": "ca12af23854e6d3c3c1dfb4ec7f95a39", "rental_uris": {"ios": "https://dc.lft.to/lastmile_qr_scan", "android": "https://dc.lft.to/lastmile_qr_scan"}}, {"name": "7690a71f5e8ffb312a3e79197fbd6f11", "type": "electric_bike", "lat": 38.93880583333333, "is_reserved": 0, "lon": -76.954059, "fusion_lon": 0.0, "is_disabled": 0, "fusion_lat": 0.0, "bike_id": "7690a71f5e8ffb312a3e79197fbd6f11", "rental_uris": {"ios": "https://dc.lft.to/lastmile_qr_scan", "android": "https://dc.lft.to/lastmile_qr_scan"}}, {"name": "746e4f2ab305fcfe1eeeaf20a75e478d", "type": "electric_bike", "lat": 39.0885305, "is_reserved": 0, "lon": -77.17836883333334, "fusion_lon": 0.0, "is_disabled": 0, "fusion_lat": 0.0, "bike_id": "746e4f2ab305fcfe1eeeaf20a75e478d", "rental_uris": {"ios": "https://dc.lft.to/lastmile_qr_scan", "android": "https://dc.lft.to/lastmile_qr_scan"}}, {"name": "8c4c3ed8948fca1f9c82cd8d24b9b131", "type": "electric_bike", "lat": 38.953362, "is_reserved": 0, "lon": -77.009573, "fusion_lon": 0.0, "is_disabled": 0, "fusion_lat": 0.0, "bike_id": "8c4c3ed8948fca1f9c82cd8d24b9b131", "rental_uris": {"ios": "https://dc.lft.to/lastmile_qr_scan", "android": "https://dc.lft.to/lastmile_qr_scan"}}, {"name": "abef7b59e2a809f12ebd7e8f4eb7bf94", "type": "electric_scooter", "lat": 38.890398, "is_reserved": 0, "lon": -76.93754183333333, "fusion_lon": 0.0, "is_disabled": 0, "fusion_lat": 0.0, "bike_id": "abef7b59e2a809f12ebd7e8f4eb7bf94", "rental_uris": {"ios": "https://dc.lft.to/lastmile_qr_scan", "android": "https://dc.lft.to/lastmile_qr_scan"}}, {"name": "704fe381dacdfd467d2a99404c3c6687", "type": "electric_scooter", "lat": 38.903288, "is_reserved": 0, "lon": -77.03832566666667, "fusion_lon": 0.0, "is_disabled": 0, "fusion_lat": 0.0, "bike_id": "704fe381dacdfd467d2a99404c3c6687", "rental_uris": {"ios": "https://dc.lft.to/lastmile_qr_scan", "android": "https://dc.lft.to/lastmile_qr_scan"}}, {"name": "edf081534b9e8935a1abc79ea910be2f", "type": "electric_scooter", "lat": 38.91003383333333, "is_reserved": 0, "lon": -77.02184666666666, "fusion_lon": 0.0, "is_disabled": 0, "fusion_lat": 0.0, "bike_id": "edf081534b9e8935a1abc79ea910be2f", "rental_uris": {"ios": "https://dc.lft.to/lastmile_qr_scan", "android": "https://dc.lft.to/lastmile_qr_scan"}}, {"name": "a2909929bc5c93f960eb0d3fca819642", "type": "electric_scooter", "lat": 38.900235, "is_reserved": 0, "lon": -76.9944735, "fusion_lon": 0.0, "is_disabled": 0, "fusion_lat": 0.0, "bike_id": "a2909929bc5c93f960eb0d3fca819642", "rental_uris": {"ios": "https://dc.lft.to/lastmile_qr_scan", "android": "https://dc.lft.to/lastmile_qr_scan"}}, {"name": "da55d3a259ca770eb70653da5dfbacc4", "type": "electric_bike", "lat": 38.9732495, "is_reserved": 0, "lon": -77.021478, "fusion_lon": 0.0, "is_disabled": 0, "fusion_lat": 0.0, "bike_id": "da55d3a259ca770eb70653da5dfbacc4", "rental_uris": {"ios": "https://dc.lft.to/lastmile_qr_scan", "android": "https://dc.lft.to/lastmile_qr_scan"}}, {"name": "ca919feb5babcce746a2326b886fcb37", "type": "electric_scooter", "lat": 38.93230633333334, "is_reserved": 0, "lon": -77.03537283333333, "fusion_lon": 0.0, "is_disabled": 0, "fusion_lat": 0.0, "bike_id": "ca919feb5babcce746a2326b886fcb37", "rental_uris": {"ios": "https://dc.lft.to/lastmile_qr_scan", "android": "https://dc.lft.to/lastmile_qr_scan"}}, {"name": "d92fbd21d8d06fae8ae2cd880ef6ca04", "type": "electric_scooter", "lat": 38.92546266666667, "is_reserved": 0, "lon": -77.03265116666667, "fusion_lon": 0.0, "is_disabled": 0, "fusion_lat": 0.0, "bike_id": "d92fbd21d8d06fae8ae2cd880ef6ca04", "rental_uris": {"ios": "https://dc.lft.to/lastmile_qr_scan", "android": "https://dc.lft.to/lastmile_qr_scan"}}, {"name": "e231380ed2b8a6aee48b94cf4b5ba1a3", "type": "electric_scooter", "lat": 38.91707066666667, "is_reserved": 0, "lon": -77.03230583333334, "fusion_lon": 0.0, "is_disabled": 0, "fusion_lat": 0.0, "bike_id": "e231380ed2b8a6aee48b94cf4b5ba1a3", "rental_uris": {"ios": "https://dc.lft.to/lastmile_qr_scan", "android": "https://dc.lft.to/lastmile_qr_scan"}}, {"name": "47a35bfb4a858139704b6af43aae2a6b", "type": "electric_bike", "lat": 38.83857316666667, "is_reserved": 0, "lon": -77.08866516666667, "fusion_lon": 0.0, "is_disabled": 0, "fusion_lat": 0.0, "bike_id": "47a35bfb4a858139704b6af43aae2a6b", "rental_uris": {"ios": "https://dc.lft.to/lastmile_qr_scan", "android": "https://dc.lft.to/lastmile_qr_scan"}}, {"name": "7197eb4c3129749f4ccfa9b4a2272922", "type": "electric_scooter", "lat": 38.904092166666665, "is_reserved": 0, "lon": -77.02964566666667, "fusion_lon": 0.0, "is_disabled": 0, "fusion_lat": 0.0, "bike_id": "7197eb4c3129749f4ccfa9b4a2272922", "rental_uris": {"ios": "https://dc.lft.to/lastmile_qr_scan", "android": "https://dc.lft.to/lastmile_qr_scan"}}, {"name": "a0662f0978d4e0ea593e91a9266c3075", "type": "electric_bike", "lat": 38.900803333333336, "is_reserved": 0, "lon": -76.98007983333333, "fusion_lon": 0.0, "is_disabled": 0, "fusion_lat": 0.0, "bike_id": "a0662f0978d4e0ea593e91a9266c3075", "rental_uris": {"ios": "https://dc.lft.to/lastmile_qr_scan", "android": "https://dc.lft.to/lastmile_qr_scan"}}, {"name": "d48a31803515d3037cc615d788b09dd9", "type": "electric_scooter", "lat": 38.93960916666666, "is_reserved": 0, "lon": -77.02488283333334, "fusion_lon": 0.0, "is_disabled": 0, "fusion_lat": 0.0, "bike_id": "d48a31803515d3037cc615d788b09dd9", "rental_uris": {"ios": "https://dc.lft.to/lastmile_qr_scan", "android": "https://dc.lft.to/lastmile_qr_scan"}}, {"name": "08e75524474b61fbdf62fc8781115e43", "type": "electric_scooter", "lat": 38.9037885, "is_reserved": 0, "lon": -77.03199416666666, "fusion_lon": 0.0, "is_disabled": 0, "fusion_lat": 0.0, "bike_id": "08e75524474b61fbdf62fc8781115e43", "rental_uris": {"ios": "https://dc.lft.to/lastmile_qr_scan", "android": "https://dc.lft.to/lastmile_qr_scan"}}, {"name": "ed2023bf652a3d9321caaa4b75d21d5e", "type": "electric_scooter", "lat": 38.907888, "is_reserved": 0, "lon": -77.03824066666667, "fusion_lon": 0.0, "is_disabled": 0, "fusion_lat": 0.0, "bike_id": "ed2023bf652a3d9321caaa4b75d21d5e", "rental_uris": {"ios": "https://dc.lft.to/lastmile_qr_scan", "android": "https://dc.lft.to/lastmile_qr_scan"}}, {"name": "94bc67a6513b0ca8638fb7d281acc5e9", "type": "electric_scooter", "lat": 38.93344166666667, "is_reserved": 0, "lon": -76.99435783333334, "fusion_lon": 0.0, "is_disabled": 0, "fusion_lat": 0.0, "bike_id": "94bc67a6513b0ca8638fb7d281acc5e9", "rental_uris": {"ios": "https://dc.lft.to/lastmile_qr_scan", "android": "https://dc.lft.to/lastmile_qr_scan"}}, {"name": "75aaab0f11569adb5120206ca0253472", "type": "electric_scooter", "lat": 38.90150216666667, "is_reserved": 0, "lon": -76.93062683333333, "fusion_lon": 0.0, "is_disabled": 0, "fusion_lat": 0.0, "bike_id": "75aaab0f11569adb5120206ca0253472", "rental_uris": {"ios": "https://dc.lft.to/lastmile_qr_scan", "android": "https://dc.lft.to/lastmile_qr_scan"}}, {"name": "d92cb512afb66f1fc5e001a31a489936", "type": "electric_scooter", "lat": 38.92223116666667, "is_reserved": 0, "lon": -77.03363683333333, "fusion_lon": 0.0, "is_disabled": 0, "fusion_lat": 0.0, "bike_id": "d92cb512afb66f1fc5e001a31a489936", "rental_uris": {"ios": "https://dc.lft.to/lastmile_qr_scan", "android": "https://dc.lft.to/lastmile_qr_scan"}}, {"name": "a545369ffa3411286f5357b6b8cad60a", "type": "electric_scooter", "lat": 38.9187505, "is_reserved": 0, "lon": -77.043773, "fusion_lon": 0.0, "is_disabled": 0, "fusion_lat": 0.0, "bike_id": "a545369ffa3411286f5357b6b8cad60a", "rental_uris": {"ios": "https://dc.lft.to/lastmile_qr_scan", "android": "https://dc.lft.to/lastmile_qr_scan"}}, {"name": "870c994c222600edb0beb3909c8917ec", "type": "electric_scooter", "lat": 38.89405633333333, "is_reserved": 0, "lon": -76.94802083333333, "fusion_lon": 0.0, "is_disabled": 0, "fusion_lat": 0.0, "bike_id": "870c994c222600edb0beb3909c8917ec", "rental_uris": {"ios": "https://dc.lft.to/lastmile_qr_scan", "android": "https://dc.lft.to/lastmile_qr_scan"}}, {"name": "f242ae9790eea7be2ffafae274d3b3dc", "type": "electric_scooter", "lat": 38.92478366666667, "is_reserved": 0, "lon": -77.03757983333334, "fusion_lon": 0.0, "is_disabled": 0, "fusion_lat": 0.0, "bike_id": "f242ae9790eea7be2ffafae274d3b3dc", "rental_uris": {"ios": "https://dc.lft.to/lastmile_qr_scan", "android": "https://dc.lft.to/lastmile_qr_scan"}}, {"name": "3228abe127f6eff9037d4bb6e34f7df9", "type": "electric_scooter", "lat": 38.92524516666667, "is_reserved": 0, "lon": -77.0553355, "fusion_lon": 0.0, "is_disabled": 0, "fusion_lat": 0.0, "bike_id": "3228abe127f6eff9037d4bb6e34f7df9", "rental_uris": {"ios": "https://dc.lft.to/lastmile_qr_scan", "android": "https://dc.lft.to/lastmile_qr_scan"}}, {"name": "f8da75862cd0cc53f8b78bead0eba2b6", "type": "electric_scooter", "lat": 38.926821833333335, "is_reserved": 0, "lon": -77.09560983333333, "fusion_lon": 0.0, "is_disabled": 0, "fusion_lat": 0.0, "bike_id": "f8da75862cd0cc53f8b78bead0eba2b6", "rental_uris": {"ios": "https://dc.lft.to/lastmile_qr_scan", "android": "https://dc.lft.to/lastmile_qr_scan"}}, {"name": "17b6e1ecf4d6e8c3d953e5422619ab9d", "type": "electric_scooter", "lat": 38.915968666666664, "is_reserved": 0, "lon": -77.04460233333333, "fusion_lon": 0.0, "is_disabled": 0, "fusion_lat": 0.0, "bike_id": "17b6e1ecf4d6e8c3d953e5422619ab9d", "rental_uris": {"ios": "https://dc.lft.to/lastmile_qr_scan", "android": "https://dc.lft.to/lastmile_qr_scan"}}, {"name": "2692711745c838b699d168daca12324f", "type": "electric_scooter", "lat": 38.924446, "is_reserved": 0, "lon": -77.04028766666667, "fusion_lon": 0.0, "is_disabled": 0, "fusion_lat": 0.0, "bike_id": "2692711745c838b699d168daca12324f", "rental_uris": {"ios": "https://dc.lft.to/lastmile_qr_scan", "android": "https://dc.lft.to/lastmile_qr_scan"}}, {"name": "2c8011bf74531f4caecf9c9070835460", "type": "electric_scooter", "lat": 38.8849255, "is_reserved": 0, "lon": -77.007286, "fusion_lon": 0.0, "is_disabled": 0, "fusion_lat": 0.0, "bike_id": "2c8011bf74531f4caecf9c9070835460", "rental_uris": {"ios": "https://dc.lft.to/lastmile_qr_scan", "android": "https://dc.lft.to/lastmile_qr_scan"}}, {"name": "b6e27057be8115016c6d14c95a1815f5", "type": "electric_scooter", "lat": 38.903851333333336, "is_reserved": 0, "lon": -77.04365016666667, "fusion_lon": 0.0, "is_disabled": 0, "fusion_lat": 0.0, "bike_id": "b6e27057be8115016c6d14c95a1815f5", "rental_uris": {"ios": "https://dc.lft.to/lastmile_qr_scan", "android": "https://dc.lft.to/lastmile_qr_scan"}}, {"name": "2871688fb2ca038df1487e5d67d614f0", "type": "electric_scooter", "lat": 38.911902166666664, "is_reserved": 0, "lon": -77.06094216666666, "fusion_lon": 0.0, "is_disabled": 0, "fusion_lat": 0.0, "bike_id": "2871688fb2ca038df1487e5d67d614f0", "rental_uris": {"ios": "https://dc.lft.to/lastmile_qr_scan", "android": "https://dc.lft.to/lastmile_qr_scan"}}, {"name": "37f90b3fa6c4b7e3e9af7ca6cb9197e4", "type": "electric_scooter", "lat": 38.93199466666667, "is_reserved": 0, "lon": -77.02733016666667, "fusion_lon": 0.0, "is_disabled": 0, "fusion_lat": 0.0, "bike_id": "37f90b3fa6c4b7e3e9af7ca6cb9197e4", "rental_uris": {"ios": "https://dc.lft.to/lastmile_qr_scan", "android": "https://dc.lft.to/lastmile_qr_scan"}}, {"name": "88a3bf011751a239b285ea8aca4cdb7a", "type": "electric_bike", "lat": 38.93586883333333, "is_reserved": 0, "lon": -77.05839766666666, "fusion_lon": 0.0, "is_disabled": 0, "fusion_lat": 0.0, "bike_id": "88a3bf011751a239b285ea8aca4cdb7a", "rental_uris": {"ios": "https://dc.lft.to/lastmile_qr_scan", "android": "https://dc.lft.to/lastmile_qr_scan"}}, {"name": "5c265594845a1b575956c7c682a03a10", "type": "electric_scooter", "lat": 38.90279133333333, "is_reserved": 0, "lon": -77.05953516666666, "fusion_lon": 0.0, "is_disabled": 0, "fusion_lat": 0.0, "bike_id": "5c265594845a1b575956c7c682a03a10", "rental_uris": {"ios": "https://dc.lft.to/lastmile_qr_scan", "android": "https://dc.lft.to/lastmile_qr_scan"}}, {"name": "b35be9b7d9c0d9e1be92fd09223b36a8", "type": "electric_scooter", "lat": 38.912002333333334, "is_reserved": 0, "lon": -77.07310883333334, "fusion_lon": 0.0, "is_disabled": 0, "fusion_lat": 0.0, "bike_id": "b35be9b7d9c0d9e1be92fd09223b36a8", "rental_uris": {"ios": "https://dc.lft.to/lastmile_qr_scan", "android": "https://dc.lft.to/lastmile_qr_scan"}}, {"name": "fe014b263e55a2336ad79a8ec3d8c0ff", "type": "electric_scooter", "lat": 38.906470166666665, "is_reserved": 0, "lon": -77.00895383333334, "fusion_lon": 0.0, "is_disabled": 0, "fusion_lat": 0.0, "bike_id": "fe014b263e55a2336ad79a8ec3d8c0ff", "rental_uris": {"ios": "https://dc.lft.to/lastmile_qr_scan", "android": "https://dc.lft.to/lastmile_qr_scan"}}, {"name": "4fff30e202185a1d9bfdb4f39df381f3", "type": "electric_scooter", "lat": 38.89731483333333, "is_reserved": 0, "lon": -77.02699816666667, "fusion_lon": 0.0, "is_disabled": 0, "fusion_lat": 0.0, "bike_id": "4fff30e202185a1d9bfdb4f39df381f3", "rental_uris": {"ios": "https://dc.lft.to/lastmile_qr_scan", "android": "https://dc.lft.to/lastmile_qr_scan"}}, {"name": "e27c70cbc742ce13242fe54aba3261b5", "type": "electric_scooter", "lat": 38.90265133333333, "is_reserved": 0, "lon": -77.02983816666666, "fusion_lon": 0.0, "is_disabled": 0, "fusion_lat": 0.0, "bike_id": "e27c70cbc742ce13242fe54aba3261b5", "rental_uris": {"ios": "https://dc.lft.to/lastmile_qr_scan", "android": "https://dc.lft.to/lastmile_qr_scan"}}, {"name": "fabd24977d4c51e363da153b55d04177", "type": "electric_scooter", "lat": 38.916981, "is_reserved": 0, "lon": -77.03477783333334, "fusion_lon": 0.0, "is_disabled": 0, "fusion_lat": 0.0, "bike_id": "fabd24977d4c51e363da153b55d04177", "rental_uris": {"ios": "https://dc.lft.to/lastmile_qr_scan", "android": "https://dc.lft.to/lastmile_qr_scan"}}, {"name": "01f97bb14194418344df79098e0fc9ad", "type": "electric_scooter", "lat": 38.92985916666667, "is_reserved": 0, "lon": -77.024827, "fusion_lon": 0.0, "is_disabled": 0, "fusion_lat": 0.0, "bike_id": "01f97bb14194418344df79098e0fc9ad", "rental_uris": {"ios": "https://dc.lft.to/lastmile_qr_scan", "android": "https://dc.lft.to/lastmile_qr_scan"}}, {"name": "d0196923c153e8fa4f52b14b60c44a58", "type": "electric_scooter", "lat": 38.92149633333333, "is_reserved": 0, "lon": -77.0353075, "fusion_lon": 0.0, "is_disabled": 0, "fusion_lat": 0.0, "bike_id": "d0196923c153e8fa4f52b14b60c44a58", "rental_uris": {"ios": "https://dc.lft.to/lastmile_qr_scan", "android": "https://dc.lft.to/lastmile_qr_scan"}}, {"name": "77b55855d7320f921e634d03d5fe4860", "type": "electric_scooter", "lat": 38.8950545, "is_reserved": 0, "lon": -77.00336866666666, "fusion_lon": 0.0, "is_disabled": 0, "fusion_lat": 0.0, "bike_id": "77b55855d7320f921e634d03d5fe4860", "rental_uris": {"ios": "https://dc.lft.to/lastmile_qr_scan", "android": "https://dc.lft.to/lastmile_qr_scan"}}, {"name": "782c4eb65bdd294969fc054e67acd58a", "type": "electric_bike", "lat": 38.87676866666666, "is_reserved": 0, "lon": -77.0143605, "fusion_lon": 0.0, "is_disabled": 0, "fusion_lat": 0.0, "bike_id": "782c4eb65bdd294969fc054e67acd58a", "rental_uris": {"ios": "https://dc.lft.to/lastmile_qr_scan", "android": "https://dc.lft.to/lastmile_qr_scan"}},