{"data": {"bikes": [{"is_reserved": 0, "is_disabled": 0, "fusion_lat": 0.0, "name": "37e1b509ec6c62dcce461b92a9c85de6", "lat": 38.903832666666666, "lon": -76.93770883333333, "bike_id": "37e1b509ec6c62dcce461b92a9c85de6", "rental_uris": {"ios": "https://dc.lft.to/lastmile_qr_scan", "android": "https://dc.lft.to/lastmile_qr_scan"}, "type": "electric_bike", "fusion_lon": 0.0}, {"is_reserved": 0, "is_disabled": 0, "fusion_lat": 0.0, "name": "f2bbfa2471d40449085a8cbcd5f3e326", "lat": 38.8386665, "lon": -76.997049, "bike_id": "f2bbfa2471d40449085a8cbcd5f3e326", "rental_uris": {"ios": "https://dc.lft.to/lastmile_qr_scan", "android": "https://dc.lft.to/lastmile_qr_scan"}, "type": "electric_bike", "fusion_lon": 0.0}, {"is_reserved": 0, "is_disabled": 0, "fusion_lat": 0.0, "name": "4eb84154a642d903ccbd63d065fa9f54", "lat": 38.90489083333333, "lon": -77.0489085, "bike_id": "4eb84154a642d903ccbd63d065fa9f54", "rental_uris": {"ios": "https://dc.lft.to/lastmile_qr_scan", "android": "https://dc.lft.to/lastmile_qr_scan"}, "type": "electric_scooter", "fusion_lon": 0.0}, {"is_reserved": 0, "is_disabled": 0, "fusion_lat": 0.0, "name": "fd71a9b1dfd58ad091b62b01c63839a6", "lat": 38.936055, "lon": -77.05589516666667, "bike_id": "fd71a9b1dfd58ad091b62b01c63839a6", "rental_uris": {"ios": "https://dc.lft.to/lastmile_qr_scan", "android": "https://dc.lft.to/lastmile_qr_scan"}, "type": "electric_scooter", "fusion_lon": 0.0}, {"is_reserved": 0, "is_disabled": 0, "fusion_lat": 0.0, "name": "c45ae1d092de7d77af2bcd630c23cb07", "lat": 38.903692666666664, "lon": -77.06016783333334, "bike_id": "c45ae1d092de7d77af2bcd630c23cb07", "rental_uris": {"ios": "https://dc.lft.to/lastmile_qr_scan", "android": "https://dc.lft.to/lastmile_qr_scan"}, "type": "electric_scooter", "fusion_lon": 0.0}, {"is_reserved": 0, "is_disabled": 0, "fusion_lat": 0.0, "name": "8b3a77a2de961a0840418cac7900bfe4", "lat": 38.915660833333334, "lon": -77.04093366666666, "bike_id": "8b3a77a2de961a0840418cac7900bfe4", "rental_uris": {"ios": "https://dc.lft.to/lastmile_qr_scan", "android": "https://dc.lft.to/lastmile_qr_scan"}, "type": "electric_scooter", "fusion_lon": 0.0}, {"is_reserved": 0, "is_disabled": 0, "fusion_lat": 0.0, "name": "d81d45215b8ccecd238172cc7684bbfb", "lat": 38.9242335, "lon": -77.021342, "bike_id": "d81d45215b8ccecd238172cc7684bbfb", "rental_uris": {"ios": "https://dc.lft.to/lastmile_qr_scan", "android": "https://dc.lft.to/lastmile_qr_scan"}, "type": "electric_scooter", "fusion_lon": 0.0}, {"is_reserved": 0, "is_disabled": 0, "fusion_lat": 0.0, "name": "1aa95b7651b9264c760caefc96d57e11", "lat": 38.87633483333333, "lon": -77.0082195, "bike_id": "1aa95b7651b9264c760caefc96d57e11", "rental_uris": {"ios": "https://dc.lft.to/lastmile_qr_scan", "android": "https://dc.lft.to/lastmile_qr_scan"}, "type": "electric_scooter", "fusion_lon": 0.0}, {"is_reserved": 0, "is_disabled": 0, "fusion_lat": 0.0, "name": "cff561678b3c9922aa2cf05fbc2ea090", "lat": 38.88536166666667, "lon": -76.9805425, "bike_id": "cff561678b3c9922aa2cf05fbc2ea090", "rental_uris": {"ios": "https://dc.lft.to/lastmile_qr_scan", "android": "https://dc.lft.to/lastmile_qr_scan"}, "type": "electric_scooter", "fusion_lon": 0.0}, {"is_reserved": 0, "is_disabled": 0, "fusion_lat": 0.0, "name": "94e08d29ab29a23e446e3ff52ecab167", "lat": 38.92117866666667, "lon": -77.0442645, "bike_id": "94e08d29ab29a23e446e3ff52ecab167", "rental_uris": {"ios": "https://dc.lft.to/lastmile_qr_scan", "android": "https://dc.lft.to/lastmile_qr_scan"}, "type": "electric_scooter", "fusion_lon": 0.0}, {"is_reserved": 0, "is_disabled": 0, "fusion_lat": 0.0, "name": "3f05be8487686b8ff6894f220cafd62b", "lat": 38.90225083333333, "lon": -77.04581566666667, "bike_id": "3f05be8487686b8ff6894f220cafd62b", "rental_uris": {"ios": "https://dc.lft.to/lastmile_qr_scan", "android": "https://dc.lft.to/lastmile_qr_scan"}, "type": "electric_scooter", "fusion_lon": 0.0}, {"is_reserved": 0, "is_disabled": 0, "fusion_lat": 0.0, "name": "a7ff164b9ad2ecc22bdbd65876cafa05", "lat": 38.9034415, "lon": -76.98614566666667, "bike_id": "a7ff164b9ad2ecc22bdbd65876cafa05", "rental_uris": {"ios": "https://dc.lft.to/lastmile_qr_scan", "android": "https://dc.lft.to/lastmile_qr_scan"}, "type": "electric_scooter", "fusion_lon": 0.0}, {"is_reserved": 0, "is_disabled": 0, "fusion_lat": 0.0, "name": "75e853b3ad00337461376d88da6ab837", "lat": 38.92670716666667, "lon": -77.01496933333334, "bike_id": "75e853b3ad00337461376d88da6ab837", "rental_uris": {"ios": "https://dc.lft.to/lastmile_qr_scan", "android": "https://dc.lft.to/lastmile_qr_scan"}, "type": "electric_scooter", "fusion_lon": 0.0}, {"is_reserved": 0, "is_disabled": 0, "fusion_lat": 0.0, "name": "80dbc2d3d793a82ad7f6c580b9e2e85e", "lat": 38.93307583333333, "lon": -77.03085616666667, "bike_id": "80dbc2d3d793a82ad7f6c580b9e2e85e", "rental_uris": {"ios": "https://dc.lft.to/lastmile_qr_scan", "android": "https://dc.lft.to/lastmile_qr_scan"}, "type": "electric_scooter", "fusion_lon": 0.0}, {"is_reserved": 0, "is_disabled": 0, "fusion_lat": 0.0, "name": "e7d3bc02b40a604617638af91506daae", "lat": 38.89697066666667, "lon": -77.03245633333333, "bike_id": "e7d3bc02b40a604617638af91506daae", "rental_uris": {"ios": "https://dc.lft.to/lastmile_qr_scan", "android": "https://dc.lft.to/lastmile_qr_scan"}, "type": "electric_scooter", "fusion_lon": 0.0}, {"is_reserved": 0, "is_disabled": 0, "fusion_lat": 0.0, "name": "24bbd8cb54a8f2965a460a722e21bc16", "lat": 38.92331083333333, "lon": -77.044673, "bike_id": "24bbd8cb54a8f2965a460a722e21bc16", "rental_uris": {"ios": "https://dc.lft.to/lastmile_qr_scan", "android": "https://dc.lft.to/lastmile_qr_scan"}, "type": "electric_scooter", "fusion_lon": 0.0}, {"is_reserved": 0, "is_disabled": 0, "fusion_lat": 0.0, "name": "9e48da177d56f942c85cecbace62c429", "lat": 38.906890833333335, "lon": -77.01018316666666, "bike_id": "9e48da177d56f942c85cecbace62c429", "rental_uris": {"ios": "https://dc.lft.to/lastmile_qr_scan", "android": "https://dc.lft.to/lastmile_qr_scan"}, "type": "electric_scooter", "fusion_lon": 0.0}, {"is_reserved": 0, "is_disabled": 0, "fusion_lat": 0.0, "name": "54b2930e561933b38e3121487f47ce42", "lat": 38.90781916666667, "lon": -77.07256383333333, "bike_id": "54b2930e561933b38e3121487f47ce42", "rental_uris": {"ios": "https://dc.lft.to/lastmile_qr_scan", "android": "https://dc.lft.to/lastmile_qr_scan"}, "type": "electric_scooter", "fusion_lon": 0.0}, {"is_reserved": 0, "is_disabled": 0, "fusion_lat": 0.0, "name": "4f33cba86bdc803fe34055ffb177fde4", "lat": 38.88711383333333, "lon": -76.98381466666666, "bike_id": "4f33cba86bdc803fe34055ffb177fde4", "rental_uris": {"ios": "https://dc.lft.to/lastmile_qr_scan", "android": "https://dc.lft.to/lastmile_qr_scan"}, "type": "electric_scooter", "fusion_lon": 0.0}, {"is_reserved": 0, "is_disabled": 0, "fusion_lat": 0.0, "name": "4a45ec6ecf578f9bd8b04c73235bd877", "lat": 38.92028916666667, "lon": -77.04068333333333, "bike_id": "4a45ec6ecf578f9bd8b04c73235bd877", "rental_uris": {"ios": "https://dc.lft.to/lastmile_qr_scan", "android": "https://dc.lft.to/lastmile_qr_scan"}, "type": "electric_scooter", "fusion_lon": 0.0}, {"is_reserved": 0, "is_disabled": 0, "fusion_lat": 0.0, "name": "17571709244cb80dc985fa4c70e92dea", "lat": 38.915603, "lon": -77.03321283333334, "bike_id": "17571709244cb80dc985fa4c70e92dea", "rental_uris": {"ios": "https://dc.lft.to/lastmile_qr_scan", "android": "https://dc.lft.to/lastmile_qr_scan"}, "type": "electric_scooter", "fusion_lon": 0.0}, {"is_reserved": 0, "is_disabled": 0, "fusion_lat": 0.0, "name": "093fa0192f26ca496958d6988d2ca014", "lat": 38.829296, "lon": -77.0687955, "bike_id": "093fa0192f26ca496958d6988d2ca014", "rental_uris": {"ios": "https://dc.lft.to/lastmile_qr_scan", "android": "https://dc.lft.to/lastmile_qr_scan"}, "type": "electric_bike", "fusion_lon": 0.0}, {"is_reserved": 0, "is_disabled": 0, "fusion_lat": 0.0, "name": "80713cd066e1aa2b903ff2355838ea9e", "lat": 38.9097315, "lon": -77.0484805, "bike_id": "80713cd066e1aa2b903ff2355838ea9e", "rental_uris": {"ios": "https://dc.lft.to/lastmile_qr_scan", "android": "https://dc.lft.to/lastmile_qr_scan"}, "type": "electric_scooter", "fusion_lon": 0.0}, {"is_reserved": 0, "is_disabled": 0, "fusion_lat": 0.0, "name": "d5ad35da2fef0ca14a45ea04735eb3ce", "lat": 38.924790333333334, "lon": -77.02236883333333, "bike_id": "d5ad35da2fef0ca14a45ea04735eb3ce", "rental_uris": {"ios": "https://dc.lft.to/lastmile_qr_scan", "android": "https://dc.lft.to/lastmile_qr_scan"}, "type": "electric_scooter", "fusion_lon": 0.0}, {"is_reserved": 0, "is_disabled": 0, "fusion_lat": 0.0, "name": "645da4114f6d2c34c4f8ab84291d0a44", "lat": 38.922281166666664, "lon": -77.04308383333333, "bike_id": "645da4114f6d2c34c4f8ab84291d0a44", "rental_uris": {"ios": "https://dc.lft.to/lastmile_qr_scan", "android": "https://dc.lft.to/lastmile_qr_scan"}, "type": "electric_scooter", "fusion_lon": 0.0}, {"is_reserved": 0, "is_disabled": 0, "fusion_lat": 0.0, "name": "fd8d0dfb6e5699a181e869e4e2d6fe57", "lat": 38.899119666666664, "lon": -76.9339295, "bike_id": "fd8d0dfb6e5699a181e869e4e2d6fe57", "rental_uris": {"ios": "https://dc.lft.to/lastmile_qr_scan", "android": "https://dc.lft.to/lastmile_qr_scan"}, "type": "electric_scooter", "fusion_lon": 0.0}, {"is_reserved": 0, "is_disabled": 0, "fusion_lat": 0.0, "name": "35bd69a23fbbe5459f80fe4bafa8a6ff", "lat": 38.902711, "lon": -77.02761666666666, "bike_id": "35bd69a23fbbe5459f80fe4bafa8a6ff", "rental_uris": {"ios": "https://dc.lft.to/lastmile_qr_scan", "android": "https://dc.lft.to/lastmile_qr_scan"}, "type": "electric_scooter", "fusion_lon": 0.0}, {"is_reserved": 0, "is_disabled": 0, "fusion_lat": 0.0, "name": "1b06c82db654f2e62e8e7bd3c5990954", "lat": 38.92501216666667, "lon": -77.02534683333333, "bike_id": "1b06c82db654f2e62e8e7bd3c5990954", "rental_uris": {"ios": "https://dc.lft.to/lastmile_qr_scan", "android": "https://dc.lft.to/lastmile_qr_scan"}, "type": "electric_bike", "fusion_lon": 0.0}, {"is_reserved": 0, "is_disabled": 0, "fusion_lat": 0.0, "name": "2ea703e4e89620e3ec30d9fde477501a", "lat": 38.9125075, "lon": -77.04768033333333, "bike_id": "2ea703e4e89620e3ec30d9fde477501a", "rental_uris": {"ios": "https://dc.lft.to/lastmile_qr_scan", "android": "https://dc.lft.to/lastmile_qr_scan"}, "type": "electric_scooter", "fusion_lon": 0.0}, {"is_reserved": 0, "is_disabled": 0, "fusion_lat": 0.0, "name": "5d4d328f6e5a4e2a307d6a6b7efe45df", "lat": 38.919902666666665, "lon": -77.03264016666667, "bike_id": "5d4d328f6e5a4e2a307d6a6b7efe45df", "rental_uris": {"ios": "https://dc.lft.to/lastmile_qr_scan", "android": "https://dc.lft.to/lastmile_qr_scan"}, "type": "electric_scooter", "fusion_lon": 0.0}, {"is_reserved": 0, "is_disabled": 0, "fusion_lat": 0.0, "name": "425f9fdd1805d0bd79ed836daebb4926", "lat": 38.91329616666667, "lon": -77.03168866666667, "bike_id": "425f9fdd1805d0bd79ed836daebb4926", "rental_uris": {"ios": "https://dc.lft.to/lastmile_qr_scan", "android": "https://dc.lft.to/lastmile_qr_scan"}, "type": "electric_scooter", "fusion_lon": 0.0}, {"is_reserved": 0, "is_disabled": 0, "fusion_lat": 0.0, "name": "cb056ec91f441d3c6e6e2be497291b0f", "lat": 38.90891116666667, "lon": -77.045851, "bike_id": "cb056ec91f441d3c6e6e2be497291b0f", "rental_uris": {"ios": "https://dc.lft.to/lastmile_qr_scan", "android": "https://dc.lft.to/lastmile_qr_scan"}, "type": "electric_scooter", "fusion_lon": 0.0}, {"is_reserved": 0, "is_disabled": 0, "fusion_lat": 0.0, "name": "367271aef7780c573e8b65e22b047964", "lat": 38.92806016666667, "lon": -77.03698216666666, "bike_id": "367271aef7780c573e8b65e22b047964", "rental_uris": {"ios": "https://dc.lft.to/lastmile_qr_scan", "android": "https://dc.lft.to/lastmile_qr_scan"}, "type": "electric_scooter", "fusion_lon": 0.0}, {"is_reserved": 0, "is_disabled": 0, "fusion_lat": 0.0, "name": "85543f2436a1f53aca110faff479b010", "lat": 38.87629166666667, "lon": -77.00581816666667, "bike_id": "85543f2436a1f53aca110faff479b010", "rental_uris": {"ios": "https://dc.lft.to/lastmile_qr_scan", "android": "https://dc.lft.to/lastmile_qr_scan"}, "type": "electric_scooter", "fusion_lon": 0.0}, {"is_reserved": 0, "is_disabled": 0, "fusion_lat": 0.0, "name": "f42e645a5d3bf2df473df4a16ca7d584", "lat": 38.8765925, "lon": -77.00737066666667, "bike_id": "f42e645a5d3bf2df473df4a16ca7d584", "rental_uris": {"ios": "https://dc.lft.to/lastmile_qr_scan", "android": "https://dc.lft.to/lastmile_qr_scan"}, "type": "electric_scooter", "fusion_lon": 0.0}, {"is_reserved": 0, "is_disabled": 0, "fusion_lat": 0.0, "name": "b318e6452dcbfb71a50010b9d2d4210c", "lat": 38.918550333333336, "lon": -77.03556783333333, "bike_id": "b318e6452dcbfb71a50010b9d2d4210c", "rental_uris": {"ios": "https://dc.lft.to/lastmile_qr_scan", "android": "https://dc.lft.to/lastmile_qr_scan"}, "type": "electric_scooter", "fusion_lon": 0.0}, {"is_reserved": 0, "is_disabled": 0, "fusion_lat": 0.0, "name": "cca8ff1d556e8e970ce8120e470c1c10", "lat": 38.90240283333333, "lon": -77.00203433333333, "bike_id": "cca8ff1d556e8e970ce8120e470c1c10", "rental_uris": {"ios": "https://dc.lft.to/lastmile_qr_scan", "android": "https://dc.lft.to/lastmile_qr_scan"}, "type": "electric_scooter", "fusion_lon": 0.0}, {"is_reserved": 0, "is_disabled": 0, "fusion_lat": 0.0, "name": "e4c3b309550f238d2602c749cd76ab41", "lat": 38.93592066666667, "lon": -77.0743, "bike_id": "e4c3b309550f238d2602c749cd76ab41", "rental_uris": {"ios": "https://dc.lft.to/lastmile_qr_scan", "android": "https://dc.lft.to/lastmile_qr_scan"}, "type": "electric_scooter", "fusion_lon": 0.0}, {"is_reserved": 0, "is_disabled": 0, "fusion_lat": 0.0, "name": "3d7c898eda8bb1af54ec896c06280b26", "lat": 38.887274833333336, "lon": -76.99611066666667, "bike_id": "3d7c898eda8bb1af54ec896c06280b26", "rental_uris": {"ios": "https://dc.lft.to/lastmile_qr_scan", "android": "https://dc.lft.to/lastmile_qr_scan"}, "type": "electric_scooter", "fusion_lon": 0.0}, {"is_reserved": 0, "is_disabled": 0, "fusion_lat": 0.0, "name": "3f72aa91a0f2731123273c9f79e16b4c", "lat": 38.90085116666667, "lon": -77.0505785, "bike_id": "3f72aa91a0f2731123273c9f79e16b4c", "rental_uris": {"ios": "https://dc.lft.to/lastmile_qr_scan", "android": "https://dc.lft.to/lastmile_qr_scan"}, "type": "electric_scooter", "fusion_lon": 0.0}, {"is_reserved": 0, "is_disabled": 0, "fusion_lat": 0.0, "name": "0878161553d6783f79132aaf9cc6bfad", "lat": 38.90975266666667, "lon": -77.03269166666666, "bike_id": "0878161553d6783f79132aaf9cc6bfad", "rental_uris": {"ios": "https://dc.lft.to/lastmile_qr_scan", "android": "https://dc.lft.to/lastmile_qr_scan"}, "type": "electric_scooter", "fusion_lon": 0.0}, {"is_reserved": 0, "is_disabled": 0, "fusion_lat": 0.0, "name": "ed464d605d8fc3c02850c3f11762aebd", "lat": 38.885796, "lon": -77.01214033333333, "bike_id": "ed464d605d8fc3c02850c3f11762aebd", "rental_uris": {"ios": "https://dc.lft.to/lastmile_qr_scan", "android": "https://dc.lft.to/lastmile_qr_scan"}, "type": "electric_scooter", "fusion_lon": 0.0}, {"is_reserved": 0, "is_disabled": 0, "fusion_lat": 0.0, "name": "ff8bdf0151d3ba266b03afa333a38337", "lat": 38.917492833333334, "lon": -77.03186283333334, "bike_id": "ff8bdf0151d3ba266b03afa333a38337", "rental_uris": {"ios": "https://dc.lft.to/lastmile_qr_scan", "android": "https://dc.lft.to/lastmile_qr_scan"}, "type": "electric_scooter", "fusion_lon": 0.0}, {"is_reserved": 0, "is_disabled": 0, "fusion_lat": 0.0, "name": "bc79ff4d4f60dbcda949ff59baf63fc8", "lat": 38.90239416666667, "lon": -76.99273933333333, "bike_id": "bc79ff4d4f60dbcda949ff59baf63fc8", "rental_uris": {"ios": "https://dc.lft.to/lastmile_qr_scan", "android": "https://dc.lft.to/lastmile_qr_scan"}, "type": "electric_scooter", "fusion_lon": 0.0}, {"is_reserved": 0, "is_disabled": 0, "fusion_lat": 0.0, "name": "42bf671eca0ad06b4ccc2fed1da5da9b", "lat": 38.905176, "lon": -77.04829933333333, "bike_id": "42bf671eca0ad06b4ccc2fed1da5da9b", "rental_uris": {"ios": "https://dc.lft.to/lastmile_qr_scan", "android": "https://dc.lft.to/lastmile_qr_scan"}, "type": "electric_scooter", "fusion_lon": 0.0}, {"is_reserved": 0, "is_disabled": 0, "fusion_lat": 0.0, "name": "98c81255db254d5f25df91c7fd1ee85a", "lat": 38.8787955, "lon": -77.00131133333333, "bike_id": "98c81255db254d5f25df91c7fd1ee85a", "rental_uris": {"ios": "https://dc.lft.to/lastmile_qr_scan", "android": "https://dc.lft.to/lastmile_qr_scan"}, "type": "electric_scooter", "fusion_lon": 0.0}, {"is_reserved": 0, "is_disabled": 0, "fusion_lat": 0.0, "name": "6f7ce6351484613a37e48baf2630374f", "lat": 38.90727433333333, "lon": -77.025326, "bike_id": "6f7ce6351484613a37e48baf2630374f", "rental_uris": {"ios": "https://dc.lft.to/lastmile_qr_scan", "android": "https://dc.lft.to/lastmile_qr_scan"}, "type": "electric_scooter", "fusion_lon": 0.0}, {"is_reserved": 0, "is_disabled": 0, "fusion_lat": 0.0, "name": "533b46124e022f70aee4a5517e809dcc", "lat": 38.85064366666667, "lon": -76.95831166666666, "bike_id": "533b46124e022f70aee4a5517e809dcc", "rental_uris": {"ios": "https://dc.lft.to/lastmile_qr_scan", "android": "https://dc.lft.to/lastmile_qr_scan"}, "type": "electric_bike", "fusion_lon": 0.0}, {"is_reserved": 0, "is_disabled": 0, "fusion_lat": 0.0, "name": "bebd54843b9da9554ba027e7bf88488e", "lat": 38.927003, "lon": -77.02086183333333, "bike_id": "bebd54843b9da9554ba027e7bf88488e", "rental_uris": {"ios": "https://dc.lft.to/lastmile_qr_scan", "android": "https://dc.lft.to/lastmile_qr_scan"}, "type": "electric_scooter", "fusion_lon": 0.0}, {"is_reserved": 0, "is_disabled": 0, "fusion_lat": 0.0, "name": "59a6d41c814341d9faa3155d9755a447", "lat": 38.909547833333335, "lon": -76.995743, "bike_id": "59a6d41c814341d9faa3155d9755a447", "rental_uris": {"ios": "https://dc.lft.to/lastmile_qr_scan", "android": "https://dc.lft.to/lastmile_qr_scan"}, "type": "electric_scooter", "fusion_lon": 0.0}, {"is_reserved": 0, "is_disabled": 0, "fusion_lat": 0.0, "name": "4425631773d419a1c8696449fe26cfd8", "lat": 38.931036, "lon": -77.02479066666666, "bike_id": "4425631773d419a1c8696449fe26cfd8", "rental_uris": {"ios": "https://dc.lft.to/lastmile_qr_scan", "android": "https://dc.lft.to/lastmile_qr_scan"}, "type": "electric_scooter", "fusion_lon": 0.0}, {"is_reserved": 0, "is_disabled": 0, "fusion_lat": 0.0, "name": "191b7f9c99551341f32c93c09c2b30d3", "lat": 38.86086266666667, "lon": -76.98377733333334, "bike_id": "191b7f9c99551341f32c93c09c2b30d3", "rental_uris": {"ios": "https://dc.lft.to/lastmile_qr_scan", "android": "https://dc.lft.to/lastmile_qr_scan"}, "type": "electric_scooter", "fusion_lon": 0.0}, {"is_reserved": 0, "is_disabled": 0, "fusion_lat": 0.0, "name": "2d00959d72f61fc08cebd1b278907c1d", "lat": 38.9044175, "lon": -77.025091, "bike_id": "2d00959d72f61fc08cebd1b278907c1d", "rental_uris": {"ios": "https://dc.lft.to/lastmile_qr_scan", "android": "https://dc.lft.to/lastmile_qr_scan"}, "type": "electric_scooter", "fusion_lon": 0.0}, {"is_reserved": 0, "is_disabled": 0, "fusion_lat": 0.0, "name": "0a32d35f8331cf4642a313e6d756176b", "lat": 38.9287575, "lon": -77.0329635, "bike_id": "0a32d35f8331cf4642a313e6d756176b", "rental_uris": {"ios": "https://dc.lft.to/lastmile_qr_scan", "android": "https://dc.lft.to/lastmile_qr_scan"}, "type": "electric_scooter", "fusion_lon": 0.0}, {"is_reserved": 0, "is_disabled": 0, "fusion_lat": 0.0, "name": "737d800797fb99a1b70d8740713f03ca", "lat": 38.934061666666665, "lon": -77.04548383333334, "bike_id": "737d800797fb99a1b70d8740713f03ca", "rental_uris": {"ios": "https://dc.lft.to/lastmile_qr_scan", "android": "https://dc.lft.to/lastmile_qr_scan"}, "type": "electric_scooter", "fusion_lon": 0.0}, {"is_reserved": 0, "is_disabled": 0, "fusion_lat": 0.0, "name": "46183218c194b48e714c609c44bef95f", "lat": 38.913575333333334, "lon": -76.97141233333333, "bike_id": "46183218c194b48e714c609c44bef95f", "rental_uris": {"ios": "https://dc.lft.to/lastmile_qr_scan", "android": "https://dc.lft.to/lastmile_qr_scan"}, "type": "electric_scooter", "fusion_lon": 0.0}, {"is_reserved": 0, "is_disabled": 0, "fusion_lat": 0.0, "name": "fedc6cc095b86a8b445bfedad8559bf9", "lat": 38.884463833333335, "lon": -77.02910916666667, "bike_id": "fedc6cc095b86a8b445bfedad8559bf9", "rental_uris": {"ios": "https://dc.lft.to/lastmile_qr_scan", "android": "https://dc.lft.to/lastmile_qr_scan"}, "type": "electric_scooter", "fusion_lon": 0.0}, {"is_reserved": 0, "is_disabled": 0, "fusion_lat": 0.0, "name": "7a07a874ab0dcb9662a21c6cb668dc32", "lat": 38.930052333333336, "lon": -77.03778966666667, "bike_id": "7a07a874ab0dcb9662a21c6cb668dc32", "rental_uris": {"ios": "https://dc.lft.to/lastmile_qr_scan", "android": "https://dc.lft.to/lastmile_qr_scan"}, "type": "electric_scooter", "fusion_lon": 0.0}, {"is_reserved": 0, "is_disabled": 0, "fusion_lat": 0.0, "name": "598741e65789ad8581eae660fc636e86", "lat": 38.9205185, "lon": -77.04188866666667, "bike_id": "598741e65789ad8581eae660fc636e86", "rental_uris": {"ios": "https://dc.lft.to/lastmile_qr_scan", "android": "https://dc.lft.to/lastmile_qr_scan"}, "type": "electric_scooter", "fusion_lon": 0.0}, {"is_reserved": 0, "is_disabled": 0, "fusion_lat": 0.0, "name": "d111fe5a372cee2e8c8f8a3b2bb6952e", "lat": 38.912591166666665, "lon": -77.03863616666666, "bike_id": "d111fe5a372cee2e8c8f8a3b2bb6952e", "rental_uris": {"ios": "https://dc.lft.to/lastmile_qr_scan", "android": "https://dc.lft.to/lastmile_qr_scan"}, "type": "electric_scooter", "fusion_lon": 0.0}, {"is_reserved": 0, "is_disabled": 0, "fusion_lat": 0.0, "name": "1b2ac13c053aa76bd504461dfc0ea643", "lat": 38.924206166666664, "lon": -77.020164, "bike_id": "1b2ac13c053aa76bd504461dfc0ea643", "rental_uris": {"ios": "https://dc.lft.to/lastmile_qr_scan", "android": "https://dc.lft.to/lastmile_qr_scan"}, "type": "electric_scooter", "fusion_lon": 0.0}, {"is_reserved": 0, "is_disabled": 0, "fusion_lat": 0.0, "name": "cff5a8b486236fb0c4bff2bacfe5bbbc", "lat": 38.90016216666667, "lon": -77.00700033333334, "bike_id": "cff5a8b486236fb0c4bff2bacfe5bbbc", "rental_uris": {"ios": "https://dc.lft.to/lastmile_qr_scan", "android": "https://dc.lft.to/lastmile_qr_scan"}, "type": "electric_scooter", "fusion_lon": 0.0}, {"is_reserved": 0, "is_disabled": 0, "fusion_lat": 0.0, "name": "1aada596906a74c8e91c9f6f8b3a181b", "lat": 38.92162716666667, "lon": -77.04365733333333, "bike_id": "1aada596906a74c8e91c9f6f8b3a181b", "rental_uris": {"ios": "https://dc.lft.to/lastmile_qr_scan", "android": "https://dc.lft.to/lastmile_qr_scan"}, "type": "electric_scooter", "fusion_lon": 0.0}, {"is_reserved": 0, "is_disabled": 0, "fusion_lat": 0.0, "name": "bf0b20364a4faa39bb78d009aa7669f1", "lat": 38.9104075, "lon": -76.92338166666667, "bike_id": "bf0b20364a4faa39bb78d009aa7669f1", "rental_uris": {"ios": "https://dc.lft.to/lastmile_qr_scan", "android": "https://dc.lft.to/lastmile_qr_scan"}, "type": "electric_bike", "fusion_lon": 0.0}, {"is_reserved": 0, "is_disabled": 0, "fusion_lat": 0.0, "name": "198722d60a17369d6e6975bae30ab2f9", "lat": 38.91936916666667, "lon": -77.03924516666666, "bike_id": "198722d60a17369d6e6975bae30ab2f9", "rental_uris": {"ios": "https://dc.lft.to/lastmile_qr_scan", "android": "https://dc.lft.to/lastmile_qr_scan"}, "type": "electric_scooter", "fusion_lon": 0.0}, {"is_reserved": 0, "is_disabled": 0, "fusion_lat": 0.0, "name": "55dc03840653ce5dfed60d679917acd3", "lat": 38.8779495, "lon": -77.0011545, "bike_id": "55dc03840653ce5dfed60d679917acd3", "rental_uris": {"ios": "https://dc.lft.to/lastmile_qr_scan", "android": "https://dc.lft.to/lastmile_qr_scan"}, "type": "electric_scooter", "fusion_lon": 0.0}, {"is_reserved": 0, "is_disabled": 0, "fusion_lat": 0.0, "name": "d51895ed44e499520256aa7389f062f1", "lat": 38.923226166666666, "lon": -77.04642616666666, "bike_id": "d51895ed44e499520256aa7389f062f1", "rental_uris": {"ios": "https://dc.lft.to/lastmile_qr_scan", "android": "https://dc.lft.to/lastmile_qr_scan"}, "type": "electric_scooter", "fusion_lon": 0.0}, {"is_reserved": 0, "is_disabled": 0, "fusion_lat": 0.0, "name": "9ead1a70983d8218d639e7945d1a170a", "lat": 38.89239166666667, "lon": -77.02606283333333, "bike_id": "9ead1a70983d8218d639e7945d1a170a", "rental_uris": {"ios": "https://dc.lft.to/lastmile_qr_scan", "android": "https://dc.lft.to/lastmile_qr_scan"}, "type": "electric_scooter", "fusion_lon": 0.0}, {"is_reserved": 0, "is_disabled": 0, "fusion_lat": 0.0, "name": "70adf4491d9668137dd0a41a56d53be1", "lat": 38.919876, "lon": -77.0325575, "bike_id": "70adf4491d9668137dd0a41a56d53be1", "rental_uris": {"ios": "https://dc.lft.to/lastmile_qr_scan", "android": "https://dc.lft.to/lastmile_qr_scan"}, "type": "electric_scooter", "fusion_lon": 0.0}, {"is_reserved": 0, "is_disabled": 0, "fusion_lat": 0.0, "name": "92d579b3d4dbf08b6e34ae4aba4176f8", "lat": 38.87683633333333, "lon": -77.00721816666666, "bike_id": "92d579b3d4dbf08b6e34ae4aba4176f8", "rental_uris": {"ios": "https://dc.lft.to/lastmile_qr_scan", "android": "https://dc.lft.to/lastmile_qr_scan"}, "type": "electric_scooter", "fusion_lon": 0.0}, {"is_reserved": 0, "is_disabled": 0, "fusion_lat": 0.0, "name": "d341393ebdc920b4510db13d70743ed6", "lat": 38.92041616666667, "lon": -77.01969333333334, "bike_id": "d341393ebdc920b4510db13d70743ed6", "rental_uris": {"ios": "https://dc.lft.to/lastmile_qr_scan", "android": "https://dc.lft.to/lastmile_qr_scan"}, "type": "electric_scooter", "fusion_lon": 0.0}, {"is_reserved": 0, "is_disabled": 0, "fusion_lat": 0.0, "name": "a0c6e3a9cd1939fd4be2a78da15641b2", "lat": 38.87948333333333, "lon": -77.01004733333333, "bike_id": "a0c6e3a9cd1939fd4be2a78da15641b2", "rental_uris": {"ios": "https://dc.lft.to/lastmile_qr_scan", "android": "https://dc.lft.to/lastmile_qr_scan"}, "type": "electric_scooter", "fusion_lon": 0.0}, {"is_reserved": 0, "is_disabled": 0, "fusion_lat": 0.0, "name": "391267d2e8be4d9a170502b505f79f5e", "lat": 38.91345366666667, "lon": -77.027572, "bike_id": "391267d2e8be4d9a170502b505f79f5e", "rental_uris": {"ios": "https://dc.lft.to/lastmile_qr_scan", "android": "https://dc.lft.to/lastmile_qr_scan"}, "type": "electric_scooter", "fusion_lon": 0.0}, {"is_reserved": 0, "is_disabled": 0, "fusion_lat": 0.0, "name": "d56e5fece43ce2c27b922214a28dd97a", "lat": 38.89965183333333, "lon": -77.01615616666666, "bike_id": "d56e5fece43ce2c27b922214a28dd97a", "rental_uris": {"ios": "https://dc.lft.to/lastmile_qr_scan", "android": "https://dc.lft.to/lastmile_qr_scan"}, "type": "electric_scooter", "fusion_lon": 0.0}, {"is_reserved": 0, "is_disabled": 0, "fusion_lat": 0.0, "name": "688d8f10820bc6f49f9376b31cfb8293", "lat": 38.919273833333335, "lon": -77.04632133333334, "bike_id": "688d8f10820bc6f49f9376b31cfb8293", "rental_uris": {"ios": "https://dc.lft.to/lastmile_qr_scan", "android": "https://dc.lft.to/lastmile_qr_scan"}, "type": "electric_scooter", "fusion_lon": 0.0}, {"is_reserved": 0, "is_disabled": 0, "fusion_lat": 0.0, "name": "30d37a4792bde015255e26426b7495ed", "lat": 38.928676833333334, "lon": -77.03250716666666, "bike_id": "30d37a4792bde015255e26426b7495ed", "rental_uris": {"ios": "https://dc.lft.to/lastmile_qr_scan", "android": "https://dc.lft.to/lastmile_qr_scan"}, "type": "electric_scooter", "fusion_lon": 0.0}, {"is_reserved": 0, "is_disabled": 0, "fusion_lat": 0.0, "name": "e8ad2b25729087a87267b6be1e9704e7", "lat": 38.922033166666665, "lon": -77.04318266666667, "bike_id": "e8ad2b25729087a87267b6be1e9704e7", "rental_uris": {"ios": "https://dc.lft.to/lastmile_qr_scan", "android": "https://dc.lft.to/lastmile_qr_scan"}, "type": "electric_scooter", "fusion_lon": 0.0}, {"is_reserved": 0, "is_disabled": 0, "fusion_lat": 0.0, "name": "3c62141447c63c37cd7d71e14c514a2d", "lat": 38.91819016666667, "lon": -77.03976583333333, "bike_id": "3c62141447c63c37cd7d71e14c514a2d", "rental_uris": {"ios": "https://dc.lft.to/lastmile_qr_scan", "android": "https://dc.lft.to/lastmile_qr_scan"}, "type": "electric_scooter", "fusion_lon": 0.0}, {"is_reserved": 0, "is_disabled": 0, "fusion_lat": 0.0, "name": "f9b58a2a50bdf34eed3d39861c72533e", "lat": 38.90608566666667, "lon": -77.03370933333333, "bike_id": "f9b58a2a50bdf34eed3d39861c72533e", "rental_uris": {"ios": "https://dc.lft.to/lastmile_qr_scan", "android": "https://dc.lft.to/lastmile_qr_scan"}, "type": "electric_scooter", "fusion_lon": 0.0}, {"is_reserved": 0, "is_disabled": 0, "fusion_lat": 0.0, "name": "70e74838330e3fc8c01f188c4d797d49", "lat": 38.892067833333336, "lon": -76.961181, "bike_id": "70e74838330e3fc8c01f188c4d797d49", "rental_uris": {"ios": "https://dc.lft.to/lastmile_qr_scan", "android": "https://dc.lft.to/lastmile_qr_scan"}, "type": "electric_scooter", "fusion_lon": 0.0}, {"is_reserved": 0, "is_disabled": 0, "fusion_lat": 0.0, "name": "b9391aeb17385c3ef2144a74c885ea12", "lat": 38.856296, "lon": -76.99071933333333, "bike_id": "b9391aeb17385c3ef2144a74c885ea12", "rental_uris": {"ios": "https://dc.lft.to/lastmile_qr_scan", "android": "https://dc.lft.to/lastmile_qr_scan"}, "type": "electric_scooter", "fusion_lon": 0.0}, {"is_reserved": 0, "is_disabled": 0, "fusion_lat": 0.0, "name": "2b98806f6bdfc7eee1cd2344acd04a32", "lat": 38.9278315, "lon": -77.02123933333333, "bike_id": "2b98806f6bdfc7eee1cd2344acd04a32", "rental_uris": {"ios": "https://dc.lft.to/lastmile_qr_scan", "android": "https://dc.lft.to/lastmile_qr_scan"}, "type": "electric_scooter", "fusion_lon": 0.0}, {"is_reserved": 0, "is_disabled": 0, "fusion_lat": 0.0, "name": "02d97e3eeb301d18feaef12da50c26d3", "lat": 38.99835266666667, "lon": -76.99732033333333, "bike_id": "02d97e3eeb301d18feaef12da50c26d3", "rental_uris": {"ios": "https://dc.lft.to/lastmile_qr_scan", "android": "https://dc.lft.to/lastmile_qr_scan"}, "type": "electric_bike", "fusion_lon": 0.0}, {"is_reserved": 0, "is_disabled": 0, "fusion_lat": 0.0, "name": "56190ee9b9cddc438307c6866760bc35", "lat": 38.9289685, "lon": -77.038763, "bike_id": "56190ee9b9cddc438307c6866760bc35", "rental_uris": {"ios": "https://dc.lft.to/lastmile_qr_scan", "android": "https://dc.lft.to/lastmile_qr_scan"}, "type": "electric_scooter", "fusion_lon": 0.0}, {"is_reserved": 0, "is_disabled": 0, "fusion_lat": 0.0, "name": "ef93490e0e417c3694ca5ec55f972e00", "lat": 38.90221716666667, "lon": -77.02380083333334, "bike_id": "ef93490e0e417c3694ca5ec55f972e00", "rental_uris": {"ios": "https://dc.lft.to/lastmile_qr_scan", "android": "https://dc.lft.to/lastmile_qr_scan"}, "type": "electric_scooter", "fusion_lon": 0.0}, {"is_reserved": 0, "is_disabled": 0, "fusion_lat": 0.0, "name": "fae4d5870d407be2bcbb1450769dd989", "lat": 38.94411866666667, "lon": -77.02183016666666, "bike_id": "fae4d5870d407be2bcbb1450769dd989", "rental_uris": {"ios": "https://dc.lft.to/lastmile_qr_scan", "android": "https://dc.lft.to/lastmile_qr_scan"}, "type": "electric_bike", "fusion_lon": 0.0}, {"is_reserved": 0, "is_disabled": 0, "fusion_lat": 0.0, "name": "c2861d9e5f8b3f9bfbdab91896f8f55c", "lat": 38.92138166666667, "lon": -77.0285275, "bike_id": "c2861d9e5f8b3f9bfbdab91896f8f55c", "rental_uris": {"ios": "https://dc.lft.to/lastmile_qr_scan", "android": "https://dc.lft.to/lastmile_qr_scan"}, "type": "electric_scooter", "fusion_lon": 0.0}, {"is_reserved": 0, "is_disabled": 0, "fusion_lat": 0.0, "name": "f3dce5ad4586f06874069ebbda37c159", "lat": 38.87543333333333, "lon": -77.0471795, "bike_id": "f3dce5ad4586f06874069ebbda37c159", "rental_uris": {"ios": "https://dc.lft.to/lastmile_qr_scan", "android": "https://dc.lft.to/lastmile_qr_scan"}, "type": "electric_bike", "fusion_lon": 0.0}, {"is_reserved": 0, "is_disabled": 0, "fusion_lat": 0.0, "name": "0bd7d1d201d135ea15434c4e2aa09977", "lat": 38.883833, "lon": -77.04607616666667, "bike_id": "0bd7d1d201d135ea15434c4e2aa09977", "rental_uris": {"ios": "https://dc.lft.to/lastmile_qr_scan", "android": "https://dc.lft.to/lastmile_qr_scan"}, "type": "electric_scooter", "fusion_lon": 0.0}, {"is_reserved": 0, "is_disabled": 0, "fusion_lat": 0.0, "name": "11404a5fd88e5e746b653622916b7a3f", "lat": 38.932987833333335, "lon": -77.023207, "bike_id": "11404a5fd88e5e746b653622916b7a3f", "rental_uris": {"ios": "https://dc.lft.to/lastmile_qr_scan", "android": "https://dc.lft.to/lastmile_qr_scan"}, "type": "electric_scooter", "fusion_lon": 0.0}, {"is_reserved": 0, "is_disabled": 0, "fusion_lat": 0.0, "name": "f89e6d90e69306ae0be909604a4bfb8d", "lat": 38.917978166666664, "lon": -77.03181816666667, "bike_id": "f89e6d90e69306ae0be909604a4bfb8d", "rental_uris": {"ios": "https://dc.lft.to/lastmile_qr_scan", "android": "https://dc.lft.to/lastmile_qr_scan"}, "type": "electric_scooter", "fusion_lon": 0.0}, {"is_reserved": 0, "is_disabled": 0, "fusion_lat": 0.0, "name": "38a5be249e46d7eb95372e57351535d1", "lat": 38.985076, "lon": -76.982099, "bike_id": "38a5be249e46d7eb95372e57351535d1", "rental_uris": {"ios": "https://dc.lft.to/lastmile_qr_scan", "android": "https://dc.lft.to/lastmile_qr_scan"}, "type": "electric_bike", "fusion_lon": 0.0}, {"is_reserved": 0, "is_disabled": 0, "fusion_lat": 0.0, "name": "daa94adbb91718d7ca6cbbac2c653728", "lat": 38.91798716666667, "lon": -77.031888, "bike_id": "daa94adbb91718d7ca6cbbac2c653728", "rental_uris": {"ios": "https://dc.lft.to/lastmile_qr_scan", "android": "https://dc.lft.to/lastmile_qr_scan"}, "type": "electric_scooter", "fusion_lon": 0.0}, {"is_reserved": 0, "is_disabled": 0, "fusion_lat": 0.0, "name": "180e05d81045afa2a9044d77e1ed185c", "lat": 38.9054165, "lon": -77.03140516666667, "bike_id": "180e05d81045afa2a9044d77e1ed185c", "rental_uris": {"ios": "https://dc.lft.to/lastmile_qr_scan", "android": "https://dc.lft.to/lastmile_qr_scan"}, "type": "electric_scooter", "fusion_lon": 0.0}, {"is_reserved": 0, "is_disabled": 0, "fusion_lat": 0.0, "name": "f49831ca4cb5a63b50ec8420515106d5", "lat": 38.916580833333335, "lon": -77.03215183333333, "bike_id": "f49831ca4cb5a63b50ec8420515106d5", "rental_uris": {"ios": "https://dc.lft.to/lastmile_qr_scan", "android": "https://dc.lft.to/lastmile_qr_scan"}, "type": "electric_scooter", "fusion_lon": 0.0}, {"is_reserved": 0, "is_disabled": 0, "fusion_lat": 0.0, "name": "01bb289d53946e4dbe5440a136f6caa6", "lat": 38.904927, "lon": -77.0356135, "bike_id": "01bb289d53946e4dbe5440a136f6caa6", "rental_uris": {"ios": "https://dc.lft.to/lastmile_qr_scan", "android": "https://dc.lft.to/lastmile_qr_scan"}, "type": "electric_scooter", "fusion_lon": 0.0}, {"is_reserved": 0, "is_disabled": 0, "fusion_lat": 0.0, "name": "20ee1cff0c9736254423476fdc3fa173", "lat": 38.91556116666667, "lon": -77.03170983333334, "bike_id": "20ee1cff0c9736254423476fdc3fa173", "rental_uris": {"ios": "https://dc.lft.to/lastmile_qr_scan", "android": "https://dc.lft.to/lastmile_qr_scan"}, "type": "electric_scooter", "fusion_lon": 0.0}, {"is_reserved": 0, "is_disabled": 0, "fusion_lat": 0.0, "name": "1883d8d8717430558d1843af55fb7802", "lat": 38.920603, "lon": -77.017156, "bike_id": "1883d8d8717430558d1843af55fb7802", "rental_uris": {"ios": "https://dc.lft.to/lastmile_qr_scan", "android": "https://dc.lft.to/lastmile_qr_scan"}, "type": "electric_scooter", "fusion_lon": 0.0}, {"is_reserved": 0, "is_disabled": 0, "fusion_lat": 0.0, "name": "288a320d7b438886abf235414836c9bd", "lat": 38.908366, "lon": -77.03213266666667, "bike_id": "288a320d7b438886abf235414836c9bd", "rental_uris": {"ios": "https://dc.lft.to/lastmile_qr_scan", "android": "https://dc.lft.to/lastmile_qr_scan"}, "type": "electric_scooter", "fusion_lon": 0.0}, {"is_reserved": 0, "is_disabled": 0, "fusion_lat": 0.0, "name": "2811e88272f4cac2aa3a8ba11b7d4606", "lat": 38.90240466666667, "lon": -77.03216016666667, "bike_id": "2811e88272f4cac2aa3a8ba11b7d4606", "rental_uris": {"ios": "https://dc.lft.to/lastmile_qr_scan", "android": "https://dc.lft.to/lastmile_qr_scan"}, "type": "electric_scooter", "fusion_lon": 0.0}, {"is_reserved": 0, "is_disabled": 0, "fusion_lat": 0.0, "name": "c87016c0594eafbfcb512aec9b3e6529", "lat": 38.908169, "lon": -77.02399033333333, "bike_id": "c87016c0594eafbfcb512aec9b3e6529", "rental_uris": {"ios": "https://dc.lft.to/lastmile_qr_scan", "android": "https://dc.lft.to/lastmile_qr_scan"}, "type": "electric_scooter", "fusion_lon": 0.0}, {"is_reserved": 0, "is_disabled": 0, "fusion_lat": 0.0, "name": "91fe6f1353f10a1385014a7818398126", "lat": 38.918293166666665, "lon": -77.02710716666667, "bike_id": "91fe6f1353f10a1385014a7818398126", "rental_uris": {"ios": "https://dc.lft.to/lastmile_qr_scan", "android": "https://dc.lft.to/lastmile_qr_scan"}, "type": "electric_scooter", "fusion_lon": 0.0}, {"is_reserved": 0, "is_disabled": 0, "fusion_lat": 0.0, "name": "9a0c43b161aea68655e5191987af3b1c", "lat": 38.90557716666667, "lon": -77.0055995, "bike_id": "9a0c43b161aea68655e5191987af3b1c", "rental_uris": {"ios": "https://dc.lft.to/lastmile_qr_scan", "android": "https://dc.lft.to/lastmile_qr_scan"}, "type": "electric_scooter", "fusion_lon": 0.0}, {"is_reserved": 0, "is_disabled": 0, "fusion_lat": 0.0, "name": "c2ba80ad6b81ebd75f13f0c1098d603c", "lat": 38.8773585, "lon": -77.11846683333333, "bike_id": "c2ba80ad6b81ebd75f13f0c1098d603c", "rental_uris": {"ios": "https://dc.lft.to/lastmile_qr_scan", "android": "https://dc.lft.to/lastmile_qr_scan"}, "type": "electric_bike", "fusion_lon": 0.0}, {"is_reserved": 0, "is_disabled": 0, "fusion_lat": 0.0, "name": "2e2ac5d73593ba20718613ee19547c89", "lat": 38.92350483333333, "lon": -77.0731025, "bike_id": "2e2ac5d73593ba20718613ee19547c89", "rental_uris": {"ios": "https://dc.lft.to/lastmile_qr_scan", "android": "https://dc.lft.to/lastmile_qr_scan"}, "type": "electric_scooter", "fusion_lon": 0.0}, {"is_reserved": 0, "is_disabled": 0, "fusion_lat": 0.0, "name": "e063c620179f316096dae5cf34d0b2f7", "lat": 38.91190733333333, "lon": -77.0054755, "bike_id": "e063c620179f316096dae5cf34d0b2f7", "rental_uris": {"ios": "https://dc.lft.to/lastmile_qr_scan", "android": "https://dc.lft.to/lastmile_qr_scan"}, "type": "electric_scooter", "fusion_lon": 0.0}, {"is_reserved": 0, "is_disabled": 0, "fusion_lat": 0.0, "name": "e2977985298d648b398892d76bf4d5c1", "lat": 38.89787166666667, "lon": -77.04795816666666, "bike_id": "e2977985298d648b398892d76bf4d5c1", "rental_uris": {"ios": "https://dc.lft.to/lastmile_qr_scan", "android": "https://dc.lft.to/lastmile_qr_scan"}, "type": "electric_scooter", "fusion_lon": 0.0}, {"is_reserved": 0, "is_disabled": 0, "fusion_lat": 0.0, "name": "adf8d8cc86ca4d3294f352b653e9c6da", "lat": 38.906046833333335, "lon": -77.05839966666667, "bike_id": "adf8d8cc86ca4d3294f352b653e9c6da", "rental_uris": {"ios": "https://dc.lft.to/lastmile_qr_scan", "android": "https://dc.lft.to/lastmile_qr_scan"}, "type": "electric_scooter", "fusion_lon": 0.0}, {"is_reserved": 0, "is_disabled": 0, "fusion_lat": 0.0, "name": "6b348b03e3d4cf5525cde2a3732a8182", "lat": 38.909367333333336, "lon": -77.05939183333334, "bike_id": "6b348b03e3d4cf5525cde2a3732a8182", "rental_uris": {"ios": "https://dc.lft.to/lastmile_qr_scan", "android": "https://dc.lft.to/lastmile_qr_scan"}, "type": "electric_scooter", "fusion_lon": 0.0}, {"is_reserved": 0, "is_disabled": 0, "fusion_lat": 0.0, "name": "ff425ddeacdb0be26d3ff0a27e2bde1a", "lat": 38.92169083333334, "lon": -77.04338916666667, "bike_id": "ff425ddeacdb0be26d3ff0a27e2bde1a", "rental_uris": {"ios": "https://dc.lft.to/lastmile_qr_scan", "android": "https://dc.lft.to/lastmile_qr_scan"}, "type": "electric_scooter", "fusion_lon": 0.0}, {"is_reserved": 0, "is_disabled": 0, "fusion_lat": 0.0, "name": "e1b019aa50a2c8520344978dc44256ee", "lat": 38.909486666666666, "lon": -77.0384765, "bike_id": "e1b019aa50a2c8520344978dc44256ee", "rental_uris": {"ios": "https://dc.lft.to/lastmile_qr_scan", "android": "https://dc.lft.to/lastmile_qr_scan"}, "type": "electric_scooter", "fusion_lon": 0.0}, {"is_reserved": 0, "is_disabled": 0, "fusion_lat": 0.0, "name": "ae2d4fb015b06b668fde8b50ad3bcca2", "lat": 38.901110333333335, "lon": -77.03210166666666, "bike_id": "ae2d4fb015b06b668fde8b50ad3bcca2", "rental_uris": {"ios": "https://dc.lft.to/lastmile_qr_scan", "android": "https://dc.lft.to/lastmile_qr_scan"}, "type": "electric_scooter", "fusion_lon": 0.0}, {"is_reserved": 0, "is_disabled": 0, "fusion_lat": 0.0, "name": "fe1ac2897594975a59fab524e583f8b7", "lat": 38.80739766666667, "lon": -77.09689066666667, "bike_id": "fe1ac2897594975a59fab524e583f8b7", "rental_uris": {"ios": "https://dc.lft.to/lastmile_qr_scan", "android": "https://dc.lft.to/lastmile_qr_scan"}, "type": "electric_bike", "fusion_lon": 0.0}, {"is_reserved": 0, "is_disabled": 0, "fusion_lat": 0.0, "name": "ac8bc48c699b1dd0386d3b6a3944bf4a", "lat": 38.89828383333333, "lon": -77.0449625, "bike_id": "ac8bc48c699b1dd0386d3b6a3944bf4a", "rental_uris": {"ios": "https://dc.lft.to/lastmile_qr_scan", "android": "https://dc.lft.to/lastmile_qr_scan"}, "type": "electric_scooter", "fusion_lon": 0.0}, {"is_reserved": 0, "is_disabled": 0, "fusion_lat": 0.0, "name": "eccd70d92dfc721acf8357428579cddc", "lat": 38.89550966666667, "lon": -76.983387, "bike_id": "eccd70d92dfc721acf8357428579cddc", "rental_uris": {"ios": "https://dc.lft.to/lastmile_qr_scan", "android": "https://dc.lft.to/lastmile_qr_scan"}, "type": "electric_scooter", "fusion_lon": 0.0}, {"is_reserved": 0, "is_disabled": 0, "fusion_lat": 0.0, "name": "33c1aefe1a14aeb3e6f9b1bdf496c3db", "lat": 38.8739775, "lon": -77.0003395, "bike_id": "33c1aefe1a14aeb3e6f9b1bdf496c3db", "rental_uris": {"ios": "https://dc.lft.to/lastmile_qr_scan", "android": "https://dc.lft.to/lastmile_qr_scan"}, "type": "electric_scooter", "fusion_lon": 0.0}, {"is_reserved": 0, "is_disabled": 0, "fusion_lat": 0.0, "name": "5fcbb193648159e5b7e43eb2ce47cc1e", "lat": 38.8717635, "lon": -77.23397083333333, "bike_id": "5fcbb193648159e5b7e43eb2ce47cc1e", "rental_uris": {"ios": "https://dc.lft.to/lastmile_qr_scan", "android": "https://dc.lft.to/lastmile_qr_scan"}, "type": "electric_bike", "fusion_lon": 0.0}, {"is_reserved": 0, "is_disabled": 0, "fusion_lat": 0.0, "name": "3284fc2b4bf4068f1a17a907cddfc4f8", "lat": 38.919573666666665, "lon": -77.024807, "bike_id": "3284fc2b4bf4068f1a17a907cddfc4f8", "rental_uris": {"ios": "https://dc.lft.to/lastmile_qr_scan", "android": "https://dc.lft.to/lastmile_qr_scan"}, "type": "electric_scooter", "fusion_lon": 0.0}, {"is_reserved": 0, "is_disabled": 0, "fusion_lat": 0.0, "name": "057ec6ed95181ce3316c577836a3437c", "lat": 39.00002283333333, "lon": -76.91801716666667, "bike_id": "057ec6ed95181ce3316c577836a3437c", "rental_uris": {"ios": "https://dc.lft.to/lastmile_qr_scan", "android": "https://dc.lft.to/lastmile_qr_scan"}, "type": "electric_bike", "fusion_lon": 0.0}, {"is_reserved": 0, "is_disabled": 0, "fusion_lat": 0.0, "name": "80172b42b25f2a02a9a3a1d94b2bd414", "lat": 38.898483, "lon": -77.02860266666667, "bike_id": "80172b42b25f2a02a9a3a1d94b2bd414", "rental_uris": {"ios": "https://dc.lft.to/lastmile_qr_scan", "android": "https://dc.lft.to/lastmile_qr_scan"}, "type": "electric_scooter", "fusion_lon": 0.0}, {"is_reserved": 0, "is_disabled": 0, "fusion_lat": 0.0, "name": "9af3d20bafacc42d890f70c822b5ad2e", "lat": 38.88643616666667, "lon": -77.012272, "bike_id": "9af3d20bafacc42d890f70c822b5ad2e", "rental_uris": {"ios": "https://dc.lft.to/lastmile_qr_scan", "android": "https://dc.lft.to/lastmile_qr_scan"}, "type": "electric_scooter", "fusion_lon": 0.0}, {"is_reserved": 0, "is_disabled": 0, "fusion_lat": 0.0, "name": "3602fcf1f61c6cd3959e0197bc7fa708", "lat": 38.923905500000004, "lon": -77.0585465, "bike_id": "3602fcf1f61c6cd3959e0197bc7fa708", "rental_uris": {"ios": "https://dc.lft.to/lastmile_qr_scan", "android": "https://dc.lft.to/lastmile_qr_scan"}, "type": "electric_bike", "fusion_lon": 0.0}, {"is_reserved": 0, "is_disabled": 0, "fusion_lat": 0.0, "name": "b5fdb03d250a6faa3c8108848d9a49eb", "lat": 38.90718, "lon": -77.01504183333333, "bike_id": "b5fdb03d250a6faa3c8108848d9a49eb", "rental_uris": {"ios": "https://dc.lft.to/lastmile_qr_scan", "android": "https://dc.lft.to/lastmile_qr_scan"}, "type": "electric_scooter", "fusion_lon": 0.0}, {"is_reserved": 0, "is_disabled": 0, "fusion_lat": 0.0, "name": "10b7380283e443906596f81f79d9006c", "lat": 38.90344666666667, "lon": -77.01103883333333, "bike_id": "10b7380283e443906596f81f79d9006c", "rental_uris": {"ios": "https://dc.lft.to/lastmile_qr_scan", "android": "https://dc.lft.to/lastmile_qr_scan"}, "type": "electric_scooter", "fusion_lon": 0.0}, {"is_reserved": 0, "is_disabled": 0, "fusion_lat": 0.0, "name": "c12bc3dcf6efb7f121bb636b3fc8829f", "lat": 38.9095435, "lon": -77.02385816666667, "bike_id": "c12bc3dcf6efb7f121bb636b3fc8829f", "rental_uris": {"ios": "https://dc.lft.to/lastmile_qr_scan", "android": "https://dc.lft.to/lastmile_qr_scan"}, "type": "electric_scooter", "fusion_lon": 0.0}, {"is_reserved": 0, "is_disabled": 0, "fusion_lat": 0.0, "name": "b7257cf19aeb0d43d97b736d98668090", "lat": 38.90969883333333, "lon": -77.03275716666667, "bike_id": "b7257cf19aeb0d43d97b736d98668090", "rental_uris": {"ios": "https://dc.lft.to/lastmile_qr_scan", "android": "https://dc.lft.to/lastmile_qr_scan"}, "type": "electric_scooter", "fusion_lon": 0.0}, {"is_reserved": 0, "is_disabled": 0, "fusion_lat": 0.0, "name": "4821d7993d342692b5e08837b32ec90e", "lat": 38.90853766666667, "lon": -76.999683, "bike_id": "4821d7993d342692b5e08837b32ec90e", "rental_uris": {"ios": "https://dc.lft.to/lastmile_qr_scan", "android": "https://dc.lft.to/lastmile_qr_scan"}, "type": "electric_scooter", "fusion_lon": 0.0}, {"is_reserved": 0, "is_disabled": 0, "fusion_lat": 0.0, "name": "785ee9c507e84c1a25592a40d148b088", "lat": 38.9072795, "lon": -77.02507, "bike_id": "785ee9c507e84c1a25592a40d148b088", "rental_uris": {"ios": "https://dc.lft.to/lastmile_qr_scan", "android": "https://dc.lft.to/lastmile_qr_scan"}, "type": "electric_scooter", "fusion_lon": 0.0}, {"is_reserved": 0, "is_disabled": 0, "fusion_lat": 0.0, "name": "5276af760ca323a4ef7a6acb3f763ac4", "lat": 38.91110883333333, "lon": -77.01277416666667, "bike_id": "5276af760ca323a4ef7a6acb3f763ac4", "rental_uris": {"ios": "https://dc.lft.to/lastmile_qr_scan", "android": "https://dc.lft.to/lastmile_qr_scan"}, "type": "electric_scooter", "fusion_lon": 0.0}, {"is_reserved": 0, "is_disabled": 0, "fusion_lat": 0.0, "name": "a52f17b75041c92886aaf0a05ee10bb8", "lat": 38.89974266666667, "lon": -76.93767666666666, "bike_id": "a52f17b75041c92886aaf0a05ee10bb8", "rental_uris": {"ios": "https://dc.lft.to/lastmile_qr_scan", "android": "https://dc.lft.to/lastmile_qr_scan"}, "type": "electric_scooter", "fusion_lon": 0.0}, {"is_reserved": 0, "is_disabled": 0, "fusion_lat": 0.0, "name": "0081eb960e2e597cfe6e4b1e42ff4275", "lat": 38.91423733333333, "lon": -77.03173783333334, "bike_id": "0081eb960e2e597cfe6e4b1e42ff4275", "rental_uris": {"ios": "https://dc.lft.to/lastmile_qr_scan", "android": "https://dc.lft.to/lastmile_qr_scan"}, "type": "electric_scooter", "fusion_lon": 0.0}, {"is_reserved": 0, "is_disabled": 0, "fusion_lat": 0.0, "name": "02ed103d31f8fa508a095a9fd5eca81f", "lat": 38.846321, "lon": -77.0693825, "bike_id": "02ed103d31f8fa508a095a9fd5eca81f", "rental_uris": {"ios": "https://dc.lft.to/lastmile_qr_scan", "android": "https://dc.lft.to/lastmile_qr_scan"}, "type": "electric_bike", "fusion_lon": 0.0}, {"is_reserved": 0, "is_disabled": 0, "fusion_lat": 0.0, "name": "f74e9ed7590949110892dc22c030310a", "lat": 38.829873, "lon": -77.00821983333333, "bike_id": "f74e9ed7590949110892dc22c030310a", "rental_uris": {"ios": "https://dc.lft.to/lastmile_qr_scan", "android": "https://dc.lft.to/lastmile_qr_scan"}, "type": "electric_bike", "fusion_lon": 0.0}, {"is_reserved": 0, "is_disabled": 0, "fusion_lat": 0.0, "name": "54fc32db96d875c2499d6d84eea44060", "lat": 38.91815833333333, "lon": -77.038029, "bike_id": "54fc32db96d875c2499d6d84eea44060", "rental_uris": {"ios": "https://dc.lft.to/lastmile_qr_scan", "android": "https://dc.lft.to/lastmile_qr_scan"}, "type": "electric_scooter", "fusion_lon": 0.0}, {"is_reserved": 0, "is_disabled": 0, "fusion_lat": 0.0, "name": "e7635a130a21cadc4d96cd149d517cc8", "lat": 38.91419033333333, "lon": -77.03818366666667, "bike_id": "e7635a130a21cadc4d96cd149d517cc8", "rental_uris": {"ios": "https://dc.lft.to/lastmile_qr_scan", "android": "https://dc.lft.to/lastmile_qr_scan"}, "type": "electric_scooter", "fusion_lon": 0.0}, {"is_reserved": 0, "is_disabled": 0, "fusion_lat": 0.0, "name": "7ecb2ce2bdfc42aad0f7c695903a280c", "lat": 38.899693, "lon": -77.04717016666666, "bike_id": "7ecb2ce2bdfc42aad0f7c695903a280c", "rental_uris": {"ios": "https://dc.lft.to/lastmile_qr_scan", "android": "https://dc.lft.to/lastmile_qr_scan"}, "type": "electric_scooter", "fusion_lon": 0.0}, {"is_reserved": 0, "is_disabled": 0, "fusion_lat": 0.0, "name": "3f1111f56d20e28013662838e89bc155", "lat": 38.898279333333335, "lon": -77.04816183333334, "bike_id": "3f1111f56d20e28013662838e89bc155", "rental_uris": {"ios": "https://dc.lft.to/lastmile_qr_scan", "android": "https://dc.lft.to/lastmile_qr_scan"}, "type": "electric_scooter", "fusion_lon": 0.0}, {"is_reserved": 0, "is_disabled": 0, "fusion_lat": 0.0, "name": "8a71302829e10d2540d049b0997381cb", "lat": 38.90582916666666, "lon": -77.04538766666667, "bike_id": "8a71302829e10d2540d049b0997381cb", "rental_uris": {"ios": "https://dc.lft.to/lastmile_qr_scan", "android": "https://dc.lft.to/lastmile_qr_scan"}, "type": "electric_scooter", "fusion_lon": 0.0}, {"is_reserved": 0, "is_disabled": 0, "fusion_lat": 0.0, "name": "45c24fdedefdf0ba755cc0f7ad202937", "lat": 38.937798, "lon": -77.0230785, "bike_id": "45c24fdedefdf0ba755cc0f7ad202937", "rental_uris": {"ios": "https://dc.lft.to/lastmile_qr_scan", "android": "https://dc.lft.to/lastmile_qr_scan"}, "type": "electric_scooter", "fusion_lon": 0.0}, {"is_reserved": 0, "is_disabled": 0, "fusion_lat": 0.0, "name": "5477157abf9e007e8443b5ca9435a037", "lat": 38.976101166666666, "lon": -77.02653516666666, "bike_id": "5477157abf9e007e8443b5ca9435a037", "rental_uris": {"ios": "https://dc.lft.to/lastmile_qr_scan", "android": "https://dc.lft.to/lastmile_qr_scan"}, "type": "electric_scooter", "fusion_lon": 0.0}, {"is_reserved": 0, "is_disabled": 0, "fusion_lat": 0.0, "name": "ef372da34d32e480d78c5263b8e1bfbf", "lat": 38.91578233333333, "lon": -77.02011683333333, "bike_id": "ef372da34d32e480d78c5263b8e1bfbf", "rental_uris": {"ios": "https://dc.lft.to/lastmile_qr_scan", "android": "https://dc.lft.to/lastmile_qr_scan"}, "type": "electric_scooter", "fusion_lon": 0.0}, {"is_reserved": 0, "is_disabled": 0, "fusion_lat": 0.0, "name": "b32dc15a935036cd81daf9b13047e38d", "lat": 38.91806616666667, "lon": -77.02452483333333, "bike_id": "b32dc15a935036cd81daf9b13047e38d", "rental_uris": {"ios": "https://dc.lft.to/lastmile_qr_scan", "android": "https://dc.lft.to/lastmile_qr_scan"}, "type": "electric_scooter", "fusion_lon": 0.0}, {"is_reserved": 0, "is_disabled": 0, "fusion_lat": 0.0, "name": "8e309fb6db206e2eaf9e85dacacb54a2", "lat": 38.9085985, "lon": -76.998001, "bike_id": "8e309fb6db206e2eaf9e85dacacb54a2", "rental_uris": {"ios": "https://dc.lft.to/lastmile_qr_scan", "android": "https://dc.lft.to/lastmile_qr_scan"}, "type": "electric_scooter", "fusion_lon": 0.0}, {"is_reserved": 0, "is_disabled": 0, "fusion_lat": 0.0, "name": "ff17275626713a9671f3da7ff7e3c1e0", "lat": 38.9266835, "lon": -77.01476033333333, "bike_id": "ff17275626713a9671f3da7ff7e3c1e0", "rental_uris": {"ios": "https://dc.lft.to/lastmile_qr_scan", "android": "https://dc.lft.to/lastmile_qr_scan"}, "type": "electric_scooter", "fusion_lon": 0.0}, {"is_reserved": 0, "is_disabled": 0, "fusion_lat": 0.0, "name": "ccc3c1c3d2d9f103d759c48a5add0a6f", "lat": 38.8711645, "lon": -77.00754983333333, "bike_id": "ccc3c1c3d2d9f103d759c48a5add0a6f", "rental_uris": {"ios": "https://dc.lft.to/lastmile_qr_scan", "android": "https://dc.lft.to/lastmile_qr_scan"}, "type": "electric_bike", "fusion_lon": 0.0}, {"is_reserved": 0, "is_disabled": 0, "fusion_lat": 0.0, "name": "ee765fa023f80db7ab7be806c41037bc", "lat": 38.922504833333335, "lon": -77.03025483333333, "bike_id": "ee765fa023f80db7ab7be806c41037bc", "rental_uris": {"ios": "https://dc.lft.to/lastmile_qr_scan", "android": "https://dc.lft.to/lastmile_qr_scan"}, "type": "electric_scooter", "fusion_lon": 0.0}, {"is_reserved": 0, "is_disabled": 0, "fusion_lat": 0.0, "name": "3def36bd7029a9b09ad35a727e7b28b6", "lat": 38.9344485, "lon": -77.032927, "bike_id": "3def36bd7029a9b09ad35a727e7b28b6", "rental_uris": {"ios": "https://dc.lft.to/lastmile_qr_scan", "android": "https://dc.lft.to/lastmile_qr_scan"}, "type": "electric_scooter", "fusion_lon": 0.0}, {"is_reserved": 0, "is_disabled": 0, "fusion_lat": 0.0, "name": "a7e319c8df203e88fdcaec9fe2a383ed", "lat": 38.900998666666666, "lon": -77.0449405, "bike_id": "a7e319c8df203e88fdcaec9fe2a383ed", "rental_uris": {"ios": "https://dc.lft.to/lastmile_qr_scan", "android": "https://dc.lft.to/lastmile_qr_scan"}, "type": "electric_scooter", "fusion_lon": 0.0}, {"is_reserved": 0, "is_disabled": 0, "fusion_lat": 0.0, "name": "429c03342525c66f80dc4cf728e5de1f", "lat": 38.906988, "lon": -77.02183016666666, "bike_id": "429c03342525c66f80dc4cf728e5de1f", "rental_uris": {"ios": "https://dc.lft.to/lastmile_qr_scan", "android": "https://dc.lft.to/lastmile_qr_scan"}, "type": "electric_scooter", "fusion_lon": 0.0}, {"is_reserved": 0, "is_disabled": 0, "fusion_lat": 0.0, "name": "c237ac8f0b3b188bbc2646715abbc8c9", "lat": 38.885124166666664, "lon": -77.00566433333333, "bike_id": "c237ac8f0b3b188bbc2646715abbc8c9", "rental_uris": {"ios": "https://dc.lft.to/lastmile_qr_scan", "android": "https://dc.lft.to/lastmile_qr_scan"}, "type": "electric_scooter", "fusion_lon": 0.0}, {"is_reserved": 0, "is_disabled": 0, "fusion_lat": 0.0, "name": "ef02d03a93ad0c63e32a6dbbc9e487df", "lat": 38.900196333333334, "lon": -76.98596416666666, "bike_id": "ef02d03a93ad0c63e32a6dbbc9e487df", "rental_uris": {"ios": "https://dc.lft.to/lastmile_qr_scan", "android": "https://dc.lft.to/lastmile_qr_scan"}, "type": "electric_scooter", "fusion_lon": 0.0}, {"is_reserved": 0, "is_disabled": 0, "fusion_lat": 0.0, "name": "73cb4a7d71ad14ba1defd966e8055a59", "lat": 38.905729, "lon": -77.018878, "bike_id": "73cb4a7d71ad14ba1defd966e8055a59", "rental_uris": {"ios": "https://dc.lft.to/lastmile_qr_scan", "android": "https://dc.lft.to/lastmile_qr_scan"}, "type": "electric_scooter", "fusion_lon": 0.0}, {"is_reserved": 0, "is_disabled": 0, "fusion_lat": 0.0, "name": "f53e72a1fe69ff1c5ec062bce151ee49", "lat": 38.900471, "lon": -77.0140835, "bike_id": "f53e72a1fe69ff1c5ec062bce151ee49", "rental_uris": {"ios": "https://dc.lft.to/lastmile_qr_scan", "android": "https://dc.lft.to/lastmile_qr_scan"}, "type": "electric_scooter", "fusion_lon": 0.0}, {"is_reserved": 0, "is_disabled": 0, "fusion_lat": 0.0, "name": "40fe230c88fb16cc1beb96d159e62886", "lat": 38.908519166666665, "lon": -77.04525083333333, "bike_id": "40fe230c88fb16cc1beb96d159e62886", "rental_uris": {"ios": "https://dc.lft.to/lastmile_qr_scan", "android": "https://dc.lft.to/lastmile_qr_scan"}, "type": "electric_scooter", "fusion_lon": 0.0}, {"is_reserved": 0, "is_disabled": 0, "fusion_lat": 0.0, "name": "91101584892eec737ee81096e40da2c6", "lat": 38.85650283333333, "lon": -77.08528383333334, "bike_id": "91101584892eec737ee81096e40da2c6", "rental_uris": {"ios": "https://dc.lft.to/lastmile_qr_scan", "android": "https://dc.lft.to/lastmile_qr_scan"}, "type": "electric_bike", "fusion_lon": 0.0}, {"is_reserved": 0, "is_disabled": 0, "fusion_lat": 0.0, "name": "da52cc5fd0397d86c91436e883994116", "lat": 38.91674233333333, "lon": -77.02967633333333, "bike_id": "da52cc5fd0397d86c91436e883994116", "rental_uris": {"ios": "https://dc.lft.to/lastmile_qr_scan", "android": "https://dc.lft.to/lastmile_qr_scan"}, "type": "electric_scooter", "fusion_lon": 0.0}, {"is_reserved": 0, "is_disabled": 0, "fusion_lat": 0.0, "name": "2f826d5e0d4fbe4fa86e06747df59177", "lat": 38.9193, "lon": -77.02991216666666, "bike_id": "2f826d5e0d4fbe4fa86e06747df59177", "rental_uris": {"ios": "https://dc.lft.to/lastmile_qr_scan", "android": "https://dc.lft.to/lastmile_qr_scan"}, "type": "electric_scooter", "fusion_lon": 0.0}, {"is_reserved": 0, "is_disabled": 0, "fusion_lat": 0.0, "name": "c14a66feb103a2f9131d26db7e62d6d0", "lat": 38.86568466666667, "lon": -76.97478216666667, "bike_id": "c14a66feb103a2f9131d26db7e62d6d0", "rental_uris": {"ios": "https://dc.lft.to/lastmile_qr_scan", "android": "https://dc.lft.to/lastmile_qr_scan"}, "type": "electric_bike", "fusion_lon": 0.0}, {"is_reserved": 0, "is_disabled": 0, "fusion_lat": 0.0, "name": "747c9a1c94f74b632fa1781cc842631e", "lat": 38.90757516666667, "lon": -77.04549466666667, "bike_id": "747c9a1c94f74b632fa1781cc842631e", "rental_uris": {"ios": "https://dc.lft.to/lastmile_qr_scan", "android": "https://dc.lft.to/lastmile_qr_scan"}, "type": "electric_scooter", "fusion_lon": 0.0}, {"is_reserved": 0, "is_disabled": 0, "fusion_lat": 0.0, "name": "e070677448cb3f173c215a99f7e71c6d", "lat": 38.952482, "lon": -77.09628916666666, "bike_id": "e070677448cb3f173c215a99f7e71c6d", "rental_uris": {"ios": "https://dc.lft.to/lastmile_qr_scan", "android": "https://dc.lft.to/lastmile_qr_scan"}, "type": "electric_bike", "fusion_lon": 0.0}, {"is_reserved": 0, "is_disabled": 0, "fusion_lat": 0.0, "name": "51f1c32e97a049ad0d3c68f05b6b2374", "lat": 38.9027635, "lon": -77.04545816666666, "bike_id": "51f1c32e97a049ad0d3c68f05b6b2374", "rental_uris": {"ios": "https://dc.lft.to/lastmile_qr_scan", "android": "https://dc.lft.to/lastmile_qr_scan"}, "type": "electric_scooter", "fusion_lon": 0.0}, {"is_reserved": 0, "is_disabled": 0, "fusion_lat": 0.0, "name": "ec41c462a1d040678b02e2340fad5fb3", "lat": 38.93227783333333, "lon": -76.99877783333334, "bike_id": "ec41c462a1d040678b02e2340fad5fb3", "rental_uris": {"ios": "https://dc.lft.to/lastmile_qr_scan", "android": "https://dc.lft.to/lastmile_qr_scan"}, "type": "electric_bike", "fusion_lon": 0.0}, {"is_reserved": 0, "is_disabled": 0, "fusion_lat": 0.0, "name": "769fcdc2b080e72a59446d1915497fe1", "lat": 38.91829633333333, "lon": -77.026927, "bike_id": "769fcdc2b080e72a59446d1915497fe1", "rental_uris": {"ios": "https://dc.lft.to/lastmile_qr_scan", "android": "https://dc.lft.to/lastmile_qr_scan"}, "type": "electric_scooter", "fusion_lon": 0.0}, {"is_reserved": 0, "is_disabled": 0, "fusion_lat": 0.0, "name": "68c8edf03b80f6c42b42b9c7a6dc4bab", "lat": 38.92023283333333, "lon": -76.99069583333333, "bike_id": "68c8edf03b80f6c42b42b9c7a6dc4bab", "rental_uris": {"ios": "https://dc.lft.to/lastmile_qr_scan", "android": "https://dc.lft.to/lastmile_qr_scan"}, "type": "electric_bike", "fusion_lon": 0.0}, {"is_reserved": 0, "is_disabled": 0, "fusion_lat": 0.0, "name": "165c67fa83e35184f88b4f177f4f6f07", "lat": 38.8805245, "lon": -77.025, "bike_id": "165c67fa83e35184f88b4f177f4f6f07", "rental_uris": {"ios": "https://dc.lft.to/lastmile_qr_scan", "android": "https://dc.lft.to/lastmile_qr_scan"}, "type": "electric_scooter", "fusion_lon": 0.0}, {"is_reserved": 0, "is_disabled": 0, "fusion_lat": 0.0, "name": "c7387ecb16755444e32be8df0f7f324c", "lat": 38.931166, "lon": -77.02345716666666, "bike_id": "c7387ecb16755444e32be8df0f7f324c", "rental_uris": {"ios": "https://dc.lft.to/lastmile_qr_scan", "android": "https://dc.lft.to/lastmile_qr_scan"}, "type": "electric_scooter", "fusion_lon": 0.0}, {"is_reserved": 0, "is_disabled": 0, "fusion_lat": 0.0, "name": "ca8b058327926062bfaea20ecd03a7cd", "lat": 38.897703166666666, "lon": -77.0261345, "bike_id": "ca8b058327926062bfaea20ecd03a7cd", "rental_uris": {"ios": "https://dc.lft.to/lastmile_qr_scan", "android": "https://dc.lft.to/lastmile_qr_scan"}, "type": "electric_scooter", "fusion_lon": 0.0}, {"is_reserved": 0, "is_disabled": 0, "fusion_lat": 0.0, "name": "9b6f76e731efa7209c49c9ea90e76bf1", "lat": 38.921049833333335, "lon": -77.04206733333334, "bike_id": "9b6f76e731efa7209c49c9ea90e76bf1", "rental_uris": {"ios": "https://dc.lft.to/lastmile_qr_scan", "android": "https://dc.lft.to/lastmile_qr_scan"}, "type": "electric_scooter", "fusion_lon": 0.0}, {"is_reserved": 0, "is_disabled": 0, "fusion_lat": 0.0, "name": "51d8ac28b9bf48fdabb2bd77195b08ee", "lat": 38.91111433333333, "lon": -77.01663016666667, "bike_id": "51d8ac28b9bf48fdabb2bd77195b08ee", "rental_uris": {"ios": "https://dc.lft.to/lastmile_qr_scan", "android": "https://dc.lft.to/lastmile_qr_scan"}, "type": "electric_bike", "fusion_lon": 0.0}, {"is_reserved": 0, "is_disabled": 0, "fusion_lat": 0.0, "name": "d68d0f960cbe8c8ad81cd9c324e8f7a7", "lat": 38.842908333333334, "lon": -77.06379783333334, "bike_id": "d68d0f960cbe8c8ad81cd9c324e8f7a7", "rental_uris": {"ios": "https://dc.lft.to/lastmile_qr_scan", "android": "https://dc.lft.to/lastmile_qr_scan"}, "type": "electric_bike", "fusion_lon": 0.0}, {"is_reserved": 0, "is_disabled": 0, "fusion_lat": 0.0, "name": "64931201b928e0f8115e19630488fd22", "lat": 38.918184833333335, "lon": -77.0247725, "bike_id": "64931201b928e0f8115e19630488fd22", "rental_uris": {"ios": "https://dc.lft.to/lastmile_qr_scan", "android": "https://dc.lft.to/lastmile_qr_scan"}, "type": "electric_scooter", "fusion_lon": 0.0}, {"is_reserved": 0, "is_disabled": 0, "fusion_lat": 0.0, "name": "af6b9e41c21d5a35db6a7b2eb78e0a55", "lat": 38.92418216666667, "lon": -77.01951333333334, "bike_id": "af6b9e41c21d5a35db6a7b2eb78e0a55", "rental_uris": {"ios": "https://dc.lft.to/lastmile_qr_scan", "android": "https://dc.lft.to/lastmile_qr_scan"}, "type": "electric_scooter", "fusion_lon": 0.0}, {"is_reserved": 0, "is_disabled": 0, "fusion_lat": 0.0, "name": "df355884f1dfdc17ab7db5235e1d29cb", "lat": 38.916205, "lon": -77.021818, "bike_id": "df355884f1dfdc17ab7db5235e1d29cb", "rental_uris": {"ios": "https://dc.lft.to/lastmile_qr_scan", "android": "https://dc.lft.to/lastmile_qr_scan"}, "type": "electric_bike", "fusion_lon": 0.0}, {"is_reserved": 0, "is_disabled": 0, "fusion_lat": 0.0, "name": "f7c57b9c32d6c172e9da87f455e8875d", "lat": 38.90420816666666, "lon": -77.0344265, "bike_id": "f7c57b9c32d6c172e9da87f455e8875d", "rental_uris": {"ios": "https://dc.lft.to/lastmile_qr_scan", "android": "https://dc.lft.to/lastmile_qr_scan"}, "type": "electric_scooter", "fusion_lon": 0.0}, {"is_reserved": 0, "is_disabled": 0, "fusion_lat": 0.0, "name": "ec4a1b6d7c786a1f3a0b109eb8e46ab5", "lat": 38.886150666666666, "lon": -76.92635616666666, "bike_id": "ec4a1b6d7c786a1f3a0b109eb8e46ab5", "rental_uris": {"ios": "https://dc.lft.to/lastmile_qr_scan", "android": "https://dc.lft.to/lastmile_qr_scan"}, "type": "electric_scooter", "fusion_lon": 0.0}, {"is_reserved": 0, "is_disabled": 0, "fusion_lat": 0.0, "name": "58d5e73ae97d48a4e06a5086ce8e787e", "lat": 39.02647833333333, "lon": -77.03688033333333, "bike_id": "58d5e73ae97d48a4e06a5086ce8e787e", "rental_uris": {"ios": "https://dc.lft.to/lastmile_qr_scan", "android": "https://dc.lft.to/lastmile_qr_scan"}, "type": "electric_bike", "fusion_lon": 0.0}, {"is_reserved": 0, "is_disabled": 0, "fusion_lat": 0.0, "name": "b89b7040478981e6a3705f72ecb84b0b", "lat": 38.885040833333335, "lon": -77.02098833333334, "bike_id": "b89b7040478981e6a3705f72ecb84b0b", "rental_uris": {"ios": "https://dc.lft.to/lastmile_qr_scan", "android": "https://dc.lft.to/lastmile_qr_scan"}, "type": "electric_scooter", "fusion_lon": 0.0}, {"is_reserved": 0, "is_disabled": 0, "fusion_lat": 0.0, "name": "9e27f9827b460e80e8ce631e63a5494e", "lat": 38.901309833333336, "lon": -77.0270715, "bike_id": "9e27f9827b460e80e8ce631e63a5494e", "rental_uris": {"ios": "https://dc.lft.to/lastmile_qr_scan", "android": "https://dc.lft.to/lastmile_qr_scan"}, "type": "electric_scooter", "fusion_lon": 0.0}, {"is_reserved": 0, "is_disabled": 0, "fusion_lat": 0.0, "name": "49e872577e70ea95c0faa8ba29fa1be0", "lat": 38.93591033333333, "lon": -77.02442516666666, "bike_id": "49e872577e70ea95c0faa8ba29fa1be0", "rental_uris": {"ios": "https://dc.lft.to/lastmile_qr_scan", "android": "https://dc.lft.to/lastmile_qr_scan"}, "type": "electric_scooter", "fusion_lon": 0.0}, {"is_reserved": 0, "is_disabled": 0, "fusion_lat": 0.0, "name": "c5b30e5e0f100b7265f952ad1b0b5f4f", "lat": 38.92712133333333, "lon": -77.0600755, "bike_id": "c5b30e5e0f100b7265f952ad1b0b5f4f", "rental_uris": {"ios": "https://dc.lft.to/lastmile_qr_scan", "android": "https://dc.lft.to/lastmile_qr_scan"}, "type": "electric_scooter", "fusion_lon": 0.0}, {"is_reserved": 0, "is_disabled": 0, "fusion_lat": 0.0, "name": "533aefe0d26b583bd5a761d0f1a6d88e", "lat": 38.92814033333333, "lon": -77.04327816666667, "bike_id": "533aefe0d26b583bd5a761d0f1a6d88e", "rental_uris": {"ios": "https://dc.lft.to/lastmile_qr_scan", "android": "https://dc.lft.to/lastmile_qr_scan"}, "type": "electric_scooter", "fusion_lon": 0.0}, {"is_reserved": 0, "is_disabled": 0, "fusion_lat": 0.0, "name": "fd13e3182e2ab741eceed805ba5d39cb", "lat": 38.9559055, "lon": -77.017851, "bike_id": "fd13e3182e2ab741eceed805ba5d39cb", "rental_uris": {"ios": "https://dc.lft.to/lastmile_qr_scan", "android": "https://dc.lft.to/lastmile_qr_scan"}, "type": "electric_scooter", "fusion_lon": 0.0}, {"is_reserved": 0, "is_disabled": 0, "fusion_lat": 0.0, "name": "332ee14f2629e3ce41d35de2255e3971", "lat": 38.93127366666667, "lon": -77.02254183333334, "bike_id": "332ee14f2629e3ce41d35de2255e3971", "rental_uris": {"ios": "https://dc.lft.to/lastmile_qr_scan", "android": "https://dc.lft.to/lastmile_qr_scan"}, "type": "electric_scooter", "fusion_lon": 0.0}, {"is_reserved": 0, "is_disabled": 0, "fusion_lat": 0.0, "name": "8f9daf0ea62cdcf730fa226c1ff3ba97", "lat": 38.89992383333333, "lon": -76.99481316666666, "bike_id": "8f9daf0ea62cdcf730fa226c1ff3ba97", "rental_uris": {"ios": "https://dc.lft.to/lastmile_qr_scan", "android": "https://dc.lft.to/lastmile_qr_scan"}, "type": "electric_scooter", "fusion_lon": 0.0}, {"is_reserved": 0, "is_disabled": 0, "fusion_lat": 0.0, "name": "f674cad975304db6e7eaddd5c21152e9", "lat": 38.92149033333333, "lon": -77.04370083333333, "bike_id": "f674cad975304db6e7eaddd5c21152e9", "rental_uris": {"ios": "https://dc.lft.to/lastmile_qr_scan", "android": "https://dc.lft.to/lastmile_qr_scan"}, "type": "electric_scooter", "fusion_lon": 0.0}, {"is_reserved": 0, "is_disabled": 0, "fusion_lat": 0.0, "name": "8117205c639b029c0f36d9fd09798a2f", "lat": 38.921992, "lon": -77.0204345, "bike_id": "8117205c639b029c0f36d9fd09798a2f", "rental_uris": {"ios": "https://dc.lft.to/lastmile_qr_scan", "android": "https://dc.lft.to/lastmile_qr_scan"}, "type": "electric_scooter", "fusion_lon": 0.0}, {"is_reserved": 0, "is_disabled": 0, "fusion_lat": 0.0, "name": "520a90455cfc32f6fbf408f1db3ba0a0", "lat": 38.91959516666667, "lon": -77.07869366666667, "bike_id": "520a90455cfc32f6fbf408f1db3ba0a0", "rental_uris": {"ios": "https://dc.lft.to/lastmile_qr_scan", "android": "https://dc.lft.to/lastmile_qr_scan"}, "type": "electric_scooter", "fusion_lon": 0.0}, {"is_reserved": 0, "is_disabled": 0, "fusion_lat": 0.0, "name": "5b4b176cd5f5be56bb910280f3151bcc", "lat": 38.897494333333334, "lon": -76.94691666666667, "bike_id": "5b4b176cd5f5be56bb910280f3151bcc", "rental_uris": {"ios": "https://dc.lft.to/lastmile_qr_scan", "android": "https://dc.lft.to/lastmile_qr_scan"}, "type": "electric_scooter", "fusion_lon": 0.0}, {"is_reserved": 0, "is_disabled": 0, "fusion_lat": 0.0, "name": "847c7713cf166ea4ff67868133b801a1", "lat": 38.8983195, "lon": -77.02700216666666, "bike_id": "847c7713cf166ea4ff67868133b801a1", "rental_uris": {"ios": "https://dc.lft.to/lastmile_qr_scan", "android": "https://dc.lft.to/lastmile_qr_scan"}, "type": "electric_scooter", "fusion_lon": 0.0}, {"is_reserved": 0, "is_disabled": 0, "fusion_lat": 0.0, "name": "de4481e16952158d3aa5d5bf54533247", "lat": 38.906504166666664, "lon": -77.02503933333334, "bike_id": "de4481e16952158d3aa5d5bf54533247", "rental_uris": {"ios": "https://dc.lft.to/lastmile_qr_scan", "android": "https://dc.lft.to/lastmile_qr_scan"}, "type": "electric_scooter", "fusion_lon": 0.0}, {"is_reserved": 0, "is_disabled": 0, "fusion_lat": 0.0, "name": "84c6da477a07dde739cbde2edd972352", "lat": 38.898726, "lon": -77.04652966666667, "bike_id": "84c6da477a07dde739cbde2edd972352", "rental_uris": {"ios": "https://dc.lft.to/lastmile_qr_scan", "android": "https://dc.lft.to/lastmile_qr_scan"}, "type": "electric_scooter", "fusion_lon": 0.0}, {"is_reserved": 0, "is_disabled": 0, "fusion_lat": 0.0, "name": "259ae526ed72c6df2ad8612b7b1c5b82", "lat": 38.927896, "lon": -77.0315195, "bike_id": "259ae526ed72c6df2ad8612b7b1c5b82", "rental_uris": {"ios": "https://dc.lft.to/lastmile_qr_scan", "android": "https://dc.lft.to/lastmile_qr_scan"}, "type": "electric_scooter", "fusion_lon": 0.0}, {"is_reserved": 0, "is_disabled": 0, "fusion_lat": 0.0, "name": "4d8ec880892aeed69bcc3267fd148c2a", "lat": 38.89653933333334, "lon": -77.03349733333333, "bike_id": "4d8ec880892aeed69bcc3267fd148c2a", "rental_uris": {"ios": "https://dc.lft.to/lastmile_qr_scan", "android": "https://dc.lft.to/lastmile_qr_scan"}, "type": "electric_scooter", "fusion_lon": 0.0}, {"is_reserved": 0, "is_disabled": 0, "fusion_lat": 0.0, "name": "c5629d4f9c6622312f8e305512231fcf", "lat": 38.87691066666667, "lon": -77.0034325, "bike_id": "c5629d4f9c6622312f8e305512231fcf", "rental_uris": {"ios": "https://dc.lft.to/lastmile_qr_scan", "android": "https://dc.lft.to/lastmile_qr_scan"}, "type": "electric_scooter", "fusion_lon": 0.0}, {"is_reserved": 0, "is_disabled": 0, "fusion_lat": 0.0, "name": "dc79de95ffcd63b125584c32ecf58006", "lat": 38.894298666666664, "lon": -77.04478216666666, "bike_id": "dc79de95ffcd63b125584c32ecf58006", "rental_uris": {"ios": "https://dc.lft.to/lastmile_qr_scan", "android": "https://dc.lft.to/lastmile_qr_scan"}, "type": "electric_scooter", "fusion_lon": 0.0}, {"is_reserved": 0, "is_disabled": 0, "fusion_lat": 0.0, "name": "8b30acd0886a308f02d88f1738130e7a", "lat": 38.9319885, "lon": -77.01991583333333, "bike_id": "8b30acd0886a308f02d88f1738130e7a", "rental_uris": {"ios": "https://dc.lft.to/lastmile_qr_scan", "android": "https://dc.lft.to/lastmile_qr_scan"}, "type": "electric_scooter", "fusion_lon": 0.0}, {"is_reserved": 0, "is_disabled": 0, "fusion_lat": 0.0, "name": "fcbe88db050e3320a1c7ff2e687d186d", "lat": 38.905377666666666, "lon": -77.05832966666667, "bike_id": "fcbe88db050e3320a1c7ff2e687d186d", "rental_uris": {"ios": "https://dc.lft.to/lastmile_qr_scan", "android": "https://dc.lft.to/lastmile_qr_scan"}, "type": "electric_scooter", "fusion_lon": 0.0}, {"is_reserved": 0, "is_disabled": 0, "fusion_lat": 0.0, "name": "74ff53c1772dfa28a6509e94ff9081b5", "lat": 38.886115, "lon": -77.003318, "bike_id": "74ff53c1772dfa28a6509e94ff9081b5", "rental_uris": {"ios": "https://dc.lft.to/lastmile_qr_scan", "android": "https://dc.lft.to/lastmile_qr_scan"}, "type": "electric_scooter", "fusion_lon": 0.0}, {"is_reserved": 0, "is_disabled": 0, "fusion_lat": 0.0, "name": "d08127817435ca24cac87cc750cf4167", "lat": 38.89349566666667, "lon": -77.04196383333333, "bike_id": "d08127817435ca24cac87cc750cf4167", "rental_uris": {"ios": "https://dc.lft.to/lastmile_qr_scan", "android": "https://dc.lft.to/lastmile_qr_scan"}, "type": "electric_scooter", "fusion_lon": 0.0}, {"is_reserved": 0, "is_disabled": 0, "fusion_lat": 0.0, "name": "466c604df30dcdd1b7ff115e6158e3aa", "lat": 38.923523, "lon": -76.97136033333334, "bike_id": "466c604df30dcdd1b7ff115e6158e3aa", "rental_uris": {"ios": "https://dc.lft.to/lastmile_qr_scan", "android": "https://dc.lft.to/lastmile_qr_scan"}, "type": "electric_bike", "fusion_lon": 0.0}, {"is_reserved": 0, "is_disabled": 0, "fusion_lat": 0.0, "name": "dfc3a6ac5bcee372ce6ff219ed9db93d", "lat": 38.915394166666665, "lon": -77.044353, "bike_id": "dfc3a6ac5bcee372ce6ff219ed9db93d", "rental_uris": {"ios": "https://dc.lft.to/lastmile_qr_scan", "android": "https://dc.lft.to/lastmile_qr_scan"}, "type": "electric_scooter", "fusion_lon": 0.0}, {"is_reserved": 0, "is_disabled": 0, "fusion_lat": 0.0, "name": "9c8f389bc3a96a547e7b11215dacb3f1", "lat": 38.9198695, "lon": -77.04155583333333, "bike_id": "9c8f389bc3a96a547e7b11215dacb3f1", "rental_uris": {"ios": "https://dc.lft.to/lastmile_qr_scan", "android": "https://dc.lft.to/lastmile_qr_scan"}, "type": "electric_scooter", "fusion_lon": 0.0}, {"is_reserved": 0, "is_disabled": 0, "fusion_lat": 0.0, "name": "e6e1cc0e234743ff7d9f5c9655c4dde3", "lat": 38.9056285, "lon": -77.00288233333333, "bike_id": "e6e1cc0e234743ff7d9f5c9655c4dde3", "rental_uris": {"ios": "https://dc.lft.to/lastmile_qr_scan", "android": "https://dc.lft.to/lastmile_qr_scan"}, "type": "electric_scooter", "fusion_lon": 0.0}, {"is_reserved": 0, "is_disabled": 0, "fusion_lat": 0.0, "name": "5a0b16316359d7ae473ea4a0cbb18122", "lat": 38.88548866666667, "lon": -76.95437666666666, "bike_id": "5a0b16316359d7ae473ea4a0cbb18122", "rental_uris": {"ios": "https://dc.lft.to/lastmile_qr_scan", "android": "https://dc.lft.to/lastmile_qr_scan"}, "type": "electric_scooter", "fusion_lon": 0.0}, {"is_reserved": 0, "is_disabled": 0, "fusion_lat": 0.0, "name": "89d0aab635e238c706682b2c9fb84bba", "lat": 38.924097833333335, "lon": -77.04049816666667, "bike_id": "89d0aab635e238c706682b2c9fb84bba", "rental_uris": {"ios": "https://dc.lft.to/lastmile_qr_scan", "android": "https://dc.lft.to/lastmile_qr_scan"}, "type": "electric_scooter", "fusion_lon": 0.0}, {"is_reserved": 0, "is_disabled": 0, "fusion_lat": 0.0, "name": "c8eff44ba42b51ab80c9cdbf5079de65", "lat": 38.92466866666667, "lon": -77.02244683333333, "bike_id": "c8eff44ba42b51ab80c9cdbf5079de65", "rental_uris": {"ios": "https://dc.lft.to/lastmile_qr_scan", "android": "https://dc.lft.to/lastmile_qr_scan"}, "type": "electric_scooter", "fusion_lon": 0.0}, {"is_reserved": 0, "is_disabled": 0, "fusion_lat": 0.0, "name": "538c8e616d1933157ad8e3ab05b2bb59", "lat": 38.8853425, "lon": -76.996257, "bike_id": "538c8e616d1933157ad8e3ab05b2bb59", "rental_uris": {"ios": "https://dc.lft.to/lastmile_qr_scan", "android": "https://dc.lft.to/lastmile_qr_scan"}, "type": "electric_scooter", "fusion_lon": 0.0}, {"is_reserved": 0, "is_disabled": 0, "fusion_lat": 0.0, "name": "f4e112982de72fff63d8c5028d7e05dc", "lat": 38.89979783333333, "lon": -77.041731, "bike_id": "f4e112982de72fff63d8c5028d7e05dc", "rental_uris": {"ios": "https://dc.lft.to/lastmile_qr_scan", "android": "https://dc.lft.to/lastmile_qr_scan"}, "type": "electric_scooter", "fusion_lon": 0.0}, {"is_reserved": 0, "is_disabled": 0, "fusion_lat": 0.0, "name": "83dda6175f798b7be8b1b91caa9ad03e", "lat": 38.919607166666665, "lon": -77.031938, "bike_id": "83dda6175f798b7be8b1b91caa9ad03e", "rental_uris": {"ios": "https://dc.lft.to/lastmile_qr_scan", "android": "https://dc.lft.to/lastmile_qr_scan"}, "type": "electric_scooter", "fusion_lon": 0.0}, {"is_reserved": 0, "is_disabled": 0, "fusion_lat": 0.0, "name": "87b23dc80d11e55de2d3ebab31ad63f8", "lat": 38.91276916666666, "lon": -77.03151616666666, "bike_id": "87b23dc80d11e55de2d3ebab31ad63f8", "rental_uris": {"ios": "https://dc.lft.to/lastmile_qr_scan", "android": "https://dc.lft.to/lastmile_qr_scan"}, "type": "electric_scooter", "fusion_lon": 0.0}, {"is_reserved": 0, "is_disabled": 0, "fusion_lat": 0.0, "name": "6e899c3628fc43c2f26f45c3dcfdc05b", "lat": 38.91895266666667, "lon": -76.96900333333333, "bike_id": "6e899c3628fc43c2f26f45c3dcfdc05b", "rental_uris": {"ios": "https://dc.lft.to/lastmile_qr_scan", "android": "https://dc.lft.to/lastmile_qr_scan"}, "type": "electric_scooter", "fusion_lon": 0.0}, {"is_reserved": 0, "is_disabled": 0, "fusion_lat": 0.0, "name": "4221485ee020c56c73f68ec181bb368a", "lat": 38.80485383333333, "lon": -76.9910535, "bike_id": "4221485ee020c56c73f68ec181bb368a", "rental_uris": {"ios": "https://dc.lft.to/lastmile_qr_scan", "android": "https://dc.lft.to/lastmile_qr_scan"}, "type": "electric_bike", "fusion_lon": 0.0}, {"is_reserved": 0, "is_disabled": 0, "fusion_lat": 0.0, "name": "6709d9862ff491b333820bf8b0eff21f", "lat": 38.90241983333333, "lon": -77.0020665, "bike_id": "6709d9862ff491b333820bf8b0eff21f", "rental_uris": {"ios": "https://dc.lft.to/lastmile_qr_scan", "android": "https://dc.lft.to/lastmile_qr_scan"}, "type": "electric_scooter", "fusion_lon": 0.0}, {"is_reserved": 0, "is_disabled": 0, "fusion_lat": 0.0, "name": "8d815b5eaf5c1a12d18df0e613724caf", "lat": 38.86335366666667, "lon": -76.9871245, "bike_id": "8d815b5eaf5c1a12d18df0e613724caf", "rental_uris": {"ios": "https://dc.lft.to/lastmile_qr_scan", "android": "https://dc.lft.to/lastmile_qr_scan"}, "type": "electric_bike", "fusion_lon": 0.0}, {"is_reserved": 0, "is_disabled": 0, "fusion_lat": 0.0, "name": "7a7d181f04bf6fb5e4ae3e3515ff889f", "lat": 38.929548833333335, "lon": -76.9756435, "bike_id": "7a7d181f04bf6fb5e4ae3e3515ff889f", "rental_uris": {"ios": "https://dc.lft.to/lastmile_qr_scan", "android": "https://dc.lft.to/lastmile_qr_scan"}, "type": "electric_bike", "fusion_lon": 0.0}, {"is_reserved": 0, "is_disabled": 0, "fusion_lat": 0.0, "name": "a96c2447ba2c5c3c09f5e288b7666e06", "lat": 38.90766966666666, "lon": -77.06898516666666, "bike_id": "a96c2447ba2c5c3c09f5e288b7666e06", "rental_uris": {"ios": "https://dc.lft.to/lastmile_qr_scan", "android": "https://dc.lft.to/lastmile_qr_scan"}, "type": "electric_scooter", "fusion_lon": 0.0}, {"is_reserved": 0, "is_disabled": 0, "fusion_lat": 0.0, "name": "3f3928b6f0a6f41f83087cf26a03e854", "lat": 38.872715666666664, "lon": -76.97562983333333, "bike_id": "3f3928b6f0a6f41f83087cf26a03e854", "rental_uris": {"ios": "https://dc.lft.to/lastmile_qr_scan", "android": "https://dc.lft.to/lastmile_qr_scan"}, "type": "electric_bike", "fusion_lon": 0.0}, {"is_reserved": 0, "is_disabled": 0, "fusion_lat": 0.0, "name": "6e7e45f112a872bc8ee717608044553f", "lat": 38.8941805, "lon": -77.010922, "bike_id": "6e7e45f112a872bc8ee717608044553f", "rental_uris": {"ios": "https://dc.lft.to/lastmile_qr_scan", "android": "https://dc.lft.to/lastmile_qr_scan"}, "type": "electric_scooter", "fusion_lon": 0.0}, {"is_reserved": 0, "is_disabled": 0, "fusion_lat": 0.0, "name": "7969ab24c5a758322ddd5c1734d4e9da", "lat": 38.9274415, "lon": -76.9955785, "bike_id": "7969ab24c5a758322ddd5c1734d4e9da", "rental_uris": {"ios": "https://dc.lft.to/lastmile_qr_scan", "android": "https://dc.lft.to/lastmile_qr_scan"}, "type": "electric_scooter", "fusion_lon": 0.0}, {"is_reserved": 0, "is_disabled": 0, "fusion_lat": 0.0, "name": "ebad56bcc892de6313b7795c11901431", "lat": 38.90411183333333, "lon": -76.9732865, "bike_id": "ebad56bcc892de6313b7795c11901431", "rental_uris": {"ios": "https://dc.lft.to/lastmile_qr_scan", "android": "https://dc.lft.to/lastmile_qr_scan"}, "type": "electric_scooter", "fusion_lon": 0.0}, {"is_reserved": 0, "is_disabled": 0, "fusion_lat": 0.0, "name": "3f7d80f05dfecc3b1265070e1c566b73", "lat": 38.91724383333333, "lon": -77.04099283333333, "bike_id": "3f7d80f05dfecc3b1265070e1c566b73", "rental_uris": {"ios": "https://dc.lft.to/lastmile_qr_scan", "android": "https://dc.lft.to/lastmile_qr_scan"}, "type": "electric_scooter", "fusion_lon": 0.0}, {"is_reserved": 0, "is_disabled": 0, "fusion_lat": 0.0, "name": "9ce39724ef303e1c3d538875739461a1", "lat": 38.916144333333335, "lon": -77.02817733333333, "bike_id": "9ce39724ef303e1c3d538875739461a1", "rental_uris": {"ios": "https://dc.lft.to/lastmile_qr_scan", "android": "https://dc.lft.to/lastmile_qr_scan"}, "type": "electric_scooter", "fusion_lon": 0.0}, {"is_reserved": 0, "is_disabled": 0, "fusion_lat": 0.0, "name": "330d3fe8282b51077498505bc68a5224", "lat": 38.9360325, "lon": -77.05689683333334, "bike_id": "330d3fe8282b51077498505bc68a5224", "rental_uris": {"ios": "https://dc.lft.to/lastmile_qr_scan", "android": "https://dc.lft.to/lastmile_qr_scan"}, "type": "electric_bike", "fusion_lon": 0.0}, {"is_reserved": 0, "is_disabled": 0, "fusion_lat": 0.0, "name": "63ac342d1fa32aa48a1856645addb29f", "lat": 38.94272733333333, "lon": -77.02934333333333, "bike_id": "63ac342d1fa32aa48a1856645addb29f", "rental_uris": {"ios": "https://dc.lft.to/lastmile_qr_scan", "android": "https://dc.lft.to/lastmile_qr_scan"}, "type": "electric_scooter", "fusion_lon": 0.0}, {"is_reserved": 0, "is_disabled": 0, "fusion_lat": 0.0, "name": "a6e4b1e9ba2d556e3b09331d4bcc042a", "lat": 38.90677983333333, "lon": -77.07342883333334, "bike_id": "a6e4b1e9ba2d556e3b09331d4bcc042a", "rental_uris": {"ios": "https://dc.lft.to/lastmile_qr_scan", "android": "https://dc.lft.to/lastmile_qr_scan"}, "type": "electric_scooter", "fusion_lon": 0.0}, {"is_reserved": 0, "is_disabled": 0, "fusion_lat": 0.0, "name": "4e002a451c8796141f1f4bc2245babce", "lat": 38.90538983333333, "lon": -77.05806733333333, "bike_id": "4e002a451c8796141f1f4bc2245babce", "rental_uris": {"ios": "https://dc.lft.to/lastmile_qr_scan", "android": "https://dc.lft.to/lastmile_qr_scan"}, "type": "electric_scooter", "fusion_lon": 0.0}, {"is_reserved": 0, "is_disabled": 0, "fusion_lat": 0.0, "name": "436fa7fe56b9ead994671be7fda04704", "lat": 38.922300666666665, "lon": -77.0212965, "bike_id": "436fa7fe56b9ead994671be7fda04704", "rental_uris": {"ios": "https://dc.lft.to/lastmile_qr_scan", "android": "https://dc.lft.to/lastmile_qr_scan"}, "type": "electric_scooter", "fusion_lon": 0.0}, {"is_reserved": 0, "is_disabled": 0, "fusion_lat": 0.0, "name": "5f0054c612f33cd47bdd31e944997a84", "lat": 38.92394383333333, "lon": -77.03406233333334, "bike_id": "5f0054c612f33cd47bdd31e944997a84", "rental_uris": {"ios": "https://dc.lft.to/lastmile_qr_scan", "android": "https://dc.lft.to/lastmile_qr_scan"}, "type": "electric_scooter", "fusion_lon": 0.0}, {"is_reserved": 0, "is_disabled": 0, "fusion_lat": 0.0, "name": "5e42428ec8d34eb71621b2a8e04e5023", "lat": 38.907352, "lon": -77.02334266666666, "bike_id": "5e42428ec8d34eb71621b2a8e04e5023", "rental_uris": {"ios": "https://dc.lft.to/lastmile_qr_scan", "android": "https://dc.lft.to/lastmile_qr_scan"}, "type": "electric_scooter", "fusion_lon": 0.0}, {"is_reserved": 0, "is_disabled": 0, "fusion_lat": 0.0, "name": "3f2e69739792a9615830905ffbf16ed5", "lat": 38.91703233333333, "lon": -77.02895183333334, "bike_id": "3f2e69739792a9615830905ffbf16ed5", "rental_uris": {"ios": "https://dc.lft.to/lastmile_qr_scan", "android": "https://dc.lft.to/lastmile_qr_scan"}, "type": "electric_scooter", "fusion_lon": 0.0}, {"is_reserved": 0, "is_disabled": 0, "fusion_lat": 0.0, "name": "b1dc8d90724d7f15727649c0b3b34b86", "lat": 38.90079333333333, "lon": -77.050451, "bike_id": "b1dc8d90724d7f15727649c0b3b34b86", "rental_uris": {"ios": "https://dc.lft.to/lastmile_qr_scan", "android": "https://dc.lft.to/lastmile_qr_scan"}, "type": "electric_scooter", "fusion_lon": 0.0}, {"is_reserved": 0, "is_disabled": 0, "fusion_lat": 0.0, "name": "69bc5eb14f38f00fe1d6325e6defbea6", "lat": 38.916931166666664, "lon": -77.031302, "bike_id": "69bc5eb14f38f00fe1d6325e6defbea6", "rental_uris": {"ios": "https://dc.lft.to/lastmile_qr_scan", "android": "https://dc.lft.to/lastmile_qr_scan"}, "type": "electric_scooter", "fusion_lon": 0.0}, {"is_reserved": 0, "is_disabled": 0, "fusion_lat": 0.0, "name": "cb367f516fd75c61b737b5074e12d110", "lat": 38.904742666666664, "lon": -77.04874, "bike_id": "cb367f516fd75c61b737b5074e12d110", "rental_uris": {"ios": "https://dc.lft.to/lastmile_qr_scan", "android": "https://dc.lft.to/lastmile_qr_scan"}, "type": "electric_scooter", "fusion_lon": 0.0}, {"is_reserved": 0, "is_disabled": 0, "fusion_lat": 0.0, "name": "1f7b6f842782951cbaa6758f3a77f8bc", "lat": 38.909568666666665, "lon": -77.0127625, "bike_id": "1f7b6f842782951cbaa6758f3a77f8bc", "rental_uris": {"ios": "https://dc.lft.to/lastmile_qr_scan", "android": "https://dc.lft.to/lastmile_qr_scan"}, "type": "electric_scooter", "fusion_lon": 0.0}, {"is_reserved": 0, "is_disabled": 0, "fusion_lat": 0.0, "name": "58b070507f9097bbe74703118b9415f9", "lat": 38.88866983333333, "lon": -77.0017995, "bike_id": "58b070507f9097bbe74703118b9415f9", "rental_uris": {"ios": "https://dc.lft.to/lastmile_qr_scan", "android": "https://dc.lft.to/lastmile_qr_scan"}, "type": "electric_scooter", "fusion_lon": 0.0}, {"is_reserved": 0, "is_disabled": 0, "fusion_lat": 0.0, "name": "2526c268e97bce9a62b8305aa17c7516", "lat": 38.919820666666666, "lon": -77.02367533333333, "bike_id": "2526c268e97bce9a62b8305aa17c7516", "rental_uris": {"ios": "https://dc.lft.to/lastmile_qr_scan", "android": "https://dc.lft.to/lastmile_qr_scan"}, "type": "electric_scooter", "fusion_lon": 0.0}, {"is_reserved": 0, "is_disabled": 0, "fusion_lat": 0.0, "name": "7b5e23010389718b89b0c1145a6224ba", "lat": 38.90548166666667, "lon": -77.045354, "bike_id": "7b5e23010389718b89b0c1145a6224ba", "rental_uris": {"ios": "https://dc.lft.to/lastmile_qr_scan", "android": "https://dc.lft.to/lastmile_qr_scan"}, "type": "electric_scooter", "fusion_lon": 0.0}, {"is_reserved": 0, "is_disabled": 0, "fusion_lat": 0.0, "name": "d12291025ca1c8246fcf60840554552f", "lat": 38.89843183333333, "lon": -77.019534, "bike_id": "d12291025ca1c8246fcf60840554552f", "rental_uris": {"ios": "https://dc.lft.to/lastmile_qr_scan", "android": "https://dc.lft.to/lastmile_qr_scan"}, "type": "electric_scooter", "fusion_lon": 0.0}, {"is_reserved": 0, "is_disabled": 0, "fusion_lat": 0.0, "name": "1eb5bacb13da5b92bd5a775936193a6a", "lat": 38.8953885, "lon": -76.98833766666667, "bike_id": "1eb5bacb13da5b92bd5a775936193a6a", "rental_uris": {"ios": "https://dc.lft.to/lastmile_qr_scan", "android": "https://dc.lft.to/lastmile_qr_scan"}, "type": "electric_scooter", "fusion_lon": 0.0}, {"is_reserved": 0, "is_disabled": 0, "fusion_lat": 0.0, "name": "48cf402e665bc4a02e54bfc00b1beea1", "lat": 38.9008835, "lon": -77.050257, "bike_id": "48cf402e665bc4a02e54bfc00b1beea1", "rental_uris": {"ios": "https://dc.lft.to/lastmile_qr_scan", "android": "https://dc.lft.to/lastmile_qr_scan"}, "type": "electric_scooter", "fusion_lon": 0.0}, {"is_reserved": 0, "is_disabled": 0, "fusion_lat": 0.0, "name": "5841b5cbe070f16dcc2a7fd4e17565ca", "lat": 38.906952833333335, "lon": -76.95252783333333, "bike_id": "5841b5cbe070f16dcc2a7fd4e17565ca", "rental_uris": {"ios": "https://dc.lft.to/lastmile_qr_scan", "android": "https://dc.lft.to/lastmile_qr_scan"}, "type": "electric_bike", "fusion_lon": 0.0}, {"is_reserved": 0, "is_disabled": 0, "fusion_lat": 0.0, "name": "2f53511a5ef48f2dd35e462f3fea3321", "lat": 38.883569333333334, "lon": -76.95771033333334, "bike_id": "2f53511a5ef48f2dd35e462f3fea3321", "rental_uris": {"ios": "https://dc.lft.to/lastmile_qr_scan", "android": "https://dc.lft.to/lastmile_qr_scan"}, "type": "electric_scooter", "fusion_lon": 0.0}, {"is_reserved": 0, "is_disabled": 0, "fusion_lat": 0.0, "name": "50731597fcdf737e0e0bd7efdf86c587", "lat": 38.920435, "lon": -77.01659033333334, "bike_id": "50731597fcdf737e0e0bd7efdf86c587", "rental_uris": {"ios": "https://dc.lft.to/lastmile_qr_scan", "android": "https://dc.lft.to/lastmile_qr_scan"}, "type": "electric_scooter", "fusion_lon": 0.0}, {"is_reserved": 0, "is_disabled": 0, "fusion_lat": 0.0, "name": "edb0a743962ae701759c2ac0847343ef", "lat": 38.91995, "lon": -77.00217666666667, "bike_id": "edb0a743962ae701759c2ac0847343ef", "rental_uris": {"ios": "https://dc.lft.to/lastmile_qr_scan", "android": "https://dc.lft.to/lastmile_qr_scan"}, "type": "electric_scooter", "fusion_lon": 0.0}, {"is_reserved": 0, "is_disabled": 0, "fusion_lat": 0.0, "name": "716ad4c6588caca3b24fb30995c6617c", "lat": 38.806377166666664, "lon": -77.06252333333333, "bike_id": "716ad4c6588caca3b24fb30995c6617c", "rental_uris": {"ios": "https://dc.lft.to/lastmile_qr_scan", "android": "https://dc.lft.to/lastmile_qr_scan"}, "type": "electric_bike", "fusion_lon": 0.0}, {"is_reserved": 0, "is_disabled": 0, "fusion_lat": 0.0, "name": "1532ddb9a45bc757ffccac23e173b7e5", "lat": 38.8997435, "lon": -77.055685, "bike_id": "1532ddb9a45bc757ffccac23e173b7e5", "rental_uris": {"ios": "https://dc.lft.to/lastmile_qr_scan", "android": "https://dc.lft.to/lastmile_qr_scan"}, "type": "electric_scooter", "fusion_lon": 0.0}, {"is_reserved": 0, "is_disabled": 0, "fusion_lat": 0.0, "name": "51e34607fcc3828f0940a1e5bb823712", "lat": 38.913091333333334, "lon": -77.04525, "bike_id": "51e34607fcc3828f0940a1e5bb823712", "rental_uris": {"ios": "https://dc.lft.to/lastmile_qr_scan", "android": "https://dc.lft.to/lastmile_qr_scan"}, "type": "electric_scooter", "fusion_lon": 0.0}, {"is_reserved": 0, "is_disabled": 0, "fusion_lat": 0.0, "name": "d4a11fe8ad0dae0ff5afdea25941ff71", "lat": 38.94267033333333, "lon": -76.984685, "bike_id": "d4a11fe8ad0dae0ff5afdea25941ff71", "rental_uris": {"ios": "https://dc.lft.to/lastmile_qr_scan", "android": "https://dc.lft.to/lastmile_qr_scan"}, "type": "electric_scooter", "fusion_lon": 0.0}, {"is_reserved": 0, "is_disabled": 0, "fusion_lat": 0.0, "name": "da53918cd90ae6b5929b8a1fd7347f5c", "lat": 38.915791666666664, "lon": -77.02010233333333, "bike_id": "da53918cd90ae6b5929b8a1fd7347f5c", "rental_uris": {"ios": "https://dc.lft.to/lastmile_qr_scan", "android": "https://dc.lft.to/lastmile_qr_scan"}, "type": "electric_scooter", "fusion_lon": 0.0}, {"is_reserved": 0, "is_disabled": 0, "fusion_lat": 0.0, "name": "50f0d158655446019008d1a8030891f8", "lat": 38.9112495, "lon": -77.0347085, "bike_id": "50f0d158655446019008d1a8030891f8", "rental_uris": {"ios": "https://dc.lft.to/lastmile_qr_scan", "android": "https://dc.lft.to/lastmile_qr_scan"}, "type": "electric_scooter", "fusion_lon": 0.0}, {"is_reserved": 0, "is_disabled": 0, "fusion_lat": 0.0, "name": "46e82a8d4e4e66c781c37092574504f6", "lat": 38.88705133333333, "lon": -77.00061716666667, "bike_id": "46e82a8d4e4e66c781c37092574504f6", "rental_uris": {"ios": "https://dc.lft.to/lastmile_qr_scan", "android": "https://dc.lft.to/lastmile_qr_scan"}, "type": "electric_scooter", "fusion_lon": 0.0}, {"is_reserved": 0, "is_disabled": 0, "fusion_lat": 0.0, "name": "e0b9fbad0be3d9a27dddf19e5f66e7ca", "lat": 38.966814166666666, "lon": -77.0340365, "bike_id": "e0b9fbad0be3d9a27dddf19e5f66e7ca", "rental_uris": {"ios": "https://dc.lft.to/lastmile_qr_scan", "android": "https://dc.lft.to/lastmile_qr_scan"}, "type": "electric_scooter", "fusion_lon": 0.0}, {"is_reserved": 0, "is_disabled": 0, "fusion_lat": 0.0, "name": "9ab9152153618f00981420d7b3fed88e", "lat": 38.87770583333333, "lon": -77.01883216666667, "bike_id": "9ab9152153618f00981420d7b3fed88e", "rental_uris": {"ios": "https://dc.lft.to/lastmile_qr_scan", "android": "https://dc.lft.to/lastmile_qr_scan"}, "type": "electric_scooter", "fusion_lon": 0.0}, {"is_reserved": 0, "is_disabled": 0, "fusion_lat": 0.0, "name": "e9a728b9ccfce5ff36ee6c23d318921b", "lat": 38.9170825, "lon": -77.037262, "bike_id": "e9a728b9ccfce5ff36ee6c23d318921b", "rental_uris": {"ios": "https://dc.lft.to/lastmile_qr_scan", "android": "https://dc.lft.to/lastmile_qr_scan"}, "type": "electric_scooter", "fusion_lon": 0.0}, {"is_reserved": 0, "is_disabled": 0, "fusion_lat": 0.0, "name": "3bcca6e6ebca429bedbf91cc4a6cdc72", "lat": 38.96778166666667, "lon": -76.9965675, "bike_id": "3bcca6e6ebca429bedbf91cc4a6cdc72", "rental_uris": {"ios": "https://dc.lft.to/lastmile_qr_scan", "android": "https://dc.lft.to/lastmile_qr_scan"}, "type": "electric_bike", "fusion_lon": 0.0}, {"is_reserved": 0, "is_disabled": 0, "fusion_lat": 0.0, "name": "6bf1031f59aa355a4a7041722ee4ac91", "lat": 38.923682666666664, "lon": -77.0728265, "bike_id": "6bf1031f59aa355a4a7041722ee4ac91", "rental_uris": {"ios": "https://dc.lft.to/lastmile_qr_scan", "android": "https://dc.lft.to/lastmile_qr_scan"}, "type": "electric_scooter", "fusion_lon": 0.0}, {"is_reserved": 0, "is_disabled": 0, "fusion_lat": 0.0, "name": "f7572c53599c6d69334fcf70af56054b", "lat": 38.90009083333333, "lon": -77.01183033333334, "bike_id": "f7572c53599c6d69334fcf70af56054b", "rental_uris": {"ios": "https://dc.lft.to/lastmile_qr_scan", "android": "https://dc.lft.to/lastmile_qr_scan"}, "type": "electric_scooter", "fusion_lon": 0.0}, {"is_reserved": 0, "is_disabled": 0, "fusion_lat": 0.0, "name": "3869775baf307b5a46d0e05c41b2e9d5", "lat": 38.920498333333335, "lon": -77.041849, "bike_id": "3869775baf307b5a46d0e05c41b2e9d5", "rental_uris": {"ios": "https://dc.lft.to/lastmile_qr_scan", "android": "https://dc.lft.to/lastmile_qr_scan"}, "type": "electric_scooter", "fusion_lon": 0.0}, {"is_reserved": 0, "is_disabled": 0, "fusion_lat": 0.0, "name": "d83fa2e6ee33177c44f5bdd555c2c547", "lat": 38.92800583333333, "lon": -77.22945433333334, "bike_id": "d83fa2e6ee33177c44f5bdd555c2c547", "rental_uris": {"ios": "https://dc.lft.to/lastmile_qr_scan", "android": "https://dc.lft.to/lastmile_qr_scan"}, "type": "electric_bike", "fusion_lon": 0.0}, {"is_reserved": 0, "is_disabled": 0, "fusion_lat": 0.0, "name": "53d52deae7674f4fc95b934276f5da81", "lat": 38.908387, "lon": -76.99700266666666, "bike_id": "53d52deae7674f4fc95b934276f5da81", "rental_uris": {"ios": "https://dc.lft.to/lastmile_qr_scan", "android": "https://dc.lft.to/lastmile_qr_scan"}, "type": "electric_scooter", "fusion_lon": 0.0}, {"is_reserved": 0, "is_disabled": 0, "fusion_lat": 0.0, "name": "97bf4e77ea81a2b9ebcab774361efb1a", "lat": 38.9199435, "lon": -77.02205583333334, "bike_id": "97bf4e77ea81a2b9ebcab774361efb1a", "rental_uris": {"ios": "https://dc.lft.to/lastmile_qr_scan", "android": "https://dc.lft.to/lastmile_qr_scan"}, "type": "electric_scooter", "fusion_lon": 0.0}, {"is_reserved": 0, "is_disabled": 0, "fusion_lat": 0.0, "name": "a030c5bd868ab9c881dc27efc2a5e7e0", "lat": 38.857252, "lon": -76.98099983333333, "bike_id": "a030c5bd868ab9c881dc27efc2a5e7e0", "rental_uris": {"ios": "https://dc.lft.to/lastmile_qr_scan", "android": "https://dc.lft.to/lastmile_qr_scan"}, "type": "electric_scooter", "fusion_lon": 0.0}, {"is_reserved": 0, "is_disabled": 0, "fusion_lat": 0.0, "name": "b071d2645d85895151682a83fde67c89", "lat": 38.964439, "lon": -77.07427866666667, "bike_id": "b071d2645d85895151682a83fde67c89", "rental_uris": {"ios": "https://dc.lft.to/lastmile_qr_scan", "android": "https://dc.lft.to/lastmile_qr_scan"}, "type": "electric_scooter", "fusion_lon": 0.0}, {"is_reserved": 0, "is_disabled": 0, "fusion_lat": 0.0, "name": "1419c42f70ba89f57fe9f879f68a0829", "lat": 38.922449, "lon": -77.04254666666667, "bike_id": "1419c42f70ba89f57fe9f879f68a0829", "rental_uris": {"ios": "https://dc.lft.to/lastmile_qr_scan", "android": "https://dc.lft.to/lastmile_qr_scan"}, "type": "electric_scooter", "fusion_lon": 0.0}, {"is_reserved": 0, "is_disabled": 0, "fusion_lat": 0.0, "name": "31032fe11eaab2f5667a882a059f14f0", "lat": 38.9003605, "lon": -76.99139633333333, "bike_id": "31032fe11eaab2f5667a882a059f14f0", "rental_uris": {"ios": "https://dc.lft.to/lastmile_qr_scan", "android": "https://dc.lft.to/lastmile_qr_scan"}, "type": "electric_scooter", "fusion_lon": 0.0}, {"is_reserved": 0, "is_disabled": 0, "fusion_lat": 0.0, "name": "07143c984feef05dbd3e2c9197363b01", "lat": 38.8843275, "lon": -76.98562383333334, "bike_id": "07143c984feef05dbd3e2c9197363b01", "rental_uris": {"ios": "https://dc.lft.to/lastmile_qr_scan", "android": "https://dc.lft.to/lastmile_qr_scan"}, "type": "electric_scooter", "fusion_lon": 0.0}, {"is_reserved": 0, "is_disabled": 0, "fusion_lat": 0.0, "name": "20a7fc96a91339cec0d978a970f85b7b", "lat": 38.884892, "lon": -77.04502283333333, "bike_id": "20a7fc96a91339cec0d978a970f85b7b", "rental_uris": {"ios": "https://dc.lft.to/lastmile_qr_scan", "android": "https://dc.lft.to/lastmile_qr_scan"}, "type": "electric_scooter", "fusion_lon": 0.0}, {"is_reserved": 0, "is_disabled": 0, "fusion_lat": 0.0, "name": "ef52af57cc81d69cb4f2a8e9815f2e8c", "lat": 38.89227983333333, "lon": -77.04363166666667, "bike_id": "ef52af57cc81d69cb4f2a8e9815f2e8c", "rental_uris": {"ios": "https://dc.lft.to/lastmile_qr_scan", "android": "https://dc.lft.to/lastmile_qr_scan"}, "type": "electric_scooter", "fusion_lon": 0.0}, {"is_reserved": 0, "is_disabled": 0, "fusion_lat": 0.0, "name": "19c806e3f738d8107e2f80212143398b", "lat": 38.89881316666666, "lon": -76.93177783333333, "bike_id": "19c806e3f738d8107e2f80212143398b", "rental_uris": {"ios": "https://dc.lft.to/lastmile_qr_scan", "android": "https://dc.lft.to/lastmile_qr_scan"}, "type": "electric_scooter", "fusion_lon": 0.0}, {"is_reserved": 0, "is_disabled": 0, "fusion_lat": 0.0, "name": "0c028e1c645b6500a96b2a04011a8ff9", "lat": 38.90022183333333, "lon": -77.043388, "bike_id": "0c028e1c645b6500a96b2a04011a8ff9", "rental_uris": {"ios": "https://dc.lft.to/lastmile_qr_scan", "android": "https://dc.lft.to/lastmile_qr_scan"}, "type": "electric_scooter", "fusion_lon": 0.0}, {"is_reserved": 0, "is_disabled": 0, "fusion_lat": 0.0, "name": "c73e3403cb81a5093822b6521fc0001e", "lat": 38.916923, "lon": -77.05302333333333, "bike_id": "c73e3403cb81a5093822b6521fc0001e", "rental_uris": {"ios": "https://dc.lft.to/lastmile_qr_scan", "android": "https://dc.lft.to/lastmile_qr_scan"}, "type": "electric_scooter", "fusion_lon": 0.0}, {"is_reserved": 0, "is_disabled": 0, "fusion_lat": 0.0, "name": "5b361ab40b480f6ecd9899290cf0f059", "lat": 38.9180205, "lon": -77.034405, "bike_id": "5b361ab40b480f6ecd9899290cf0f059", "rental_uris": {"ios": "https://dc.lft.to/lastmile_qr_scan", "android": "https://dc.lft.to/lastmile_qr_scan"}, "type": "electric_scooter", "fusion_lon": 0.0}, {"is_reserved": 0, "is_disabled": 0, "fusion_lat": 0.0, "name": "533948a7a7584132efbe461487dccda4", "lat": 38.95015166666666, "lon": -77.014298, "bike_id": "533948a7a7584132efbe461487dccda4", "rental_uris": {"ios": "https://dc.lft.to/lastmile_qr_scan", "android": "https://dc.lft.to/lastmile_qr_scan"}, "type": "electric_scooter", "fusion_lon": 0.0}, {"is_reserved": 0, "is_disabled": 0, "fusion_lat": 0.0, "name": "5d6a101379ff6ff6499f47e7481f3c4f", "lat": 38.918076, "lon": -77.04444066666667, "bike_id": "5d6a101379ff6ff6499f47e7481f3c4f", "rental_uris": {"ios": "https://dc.lft.to/lastmile_qr_scan", "android": "https://dc.lft.to/lastmile_qr_scan"}, "type": "electric_scooter", "fusion_lon": 0.0}, {"is_reserved": 0, "is_disabled": 0, "fusion_lat": 0.0, "name": "38485eceb09d6e70b5fbad11ecea40ff", "lat": 38.87338283333333, "lon": -77.00068833333333, "bike_id": "38485eceb09d6e70b5fbad11ecea40ff", "rental_uris": {"ios": "https://dc.lft.to/lastmile_qr_scan", "android": "https://dc.lft.to/lastmile_qr_scan"}, "type": "electric_scooter", "fusion_lon": 0.0}, {"is_reserved": 0, "is_disabled": 0, "fusion_lat": 0.0, "name": "f4d7d6aae2525f4e146a907f83d75cad", "lat": 38.9176175, "lon": -77.069113, "bike_id": "f4d7d6aae2525f4e146a907f83d75cad", "rental_uris": {"ios": "https://dc.lft.to/lastmile_qr_scan", "android": "https://dc.lft.to/lastmile_qr_scan"}, "type": "electric_scooter", "fusion_lon": 0.0}, {"is_reserved": 0, "is_disabled": 0, "fusion_lat": 0.0, "name": "e12f79cb550250c73fee3106bce389e2", "lat": 38.885209333333336, "lon": -76.97707083333333, "bike_id": "e12f79cb550250c73fee3106bce389e2", "rental_uris": {"ios": "https://dc.lft.to/lastmile_qr_scan", "android": "https://dc.lft.to/lastmile_qr_scan"}, "type": "electric_scooter", "fusion_lon": 0.0}, {"is_reserved": 0, "is_disabled": 0, "fusion_lat": 0.0, "name": "aa7f31d211655dfee2c7f8c907d8998f", "lat": 38.89197133333333, "lon": -77.0154885, "bike_id": "aa7f31d211655dfee2c7f8c907d8998f", "rental_uris": {"ios": "https://dc.lft.to/lastmile_qr_scan", "android": "https://dc.lft.to/lastmile_qr_scan"}, "type": "electric_scooter", "fusion_lon": 0.0}, {"is_reserved": 0, "is_disabled": 0, "fusion_lat": 0.0, "name": "4a344e9d22c2dc8dd8cccf35373c0690", "lat": 38.90348566666667, "lon": -76.98146816666667, "bike_id": "4a344e9d22c2dc8dd8cccf35373c0690", "rental_uris": {"ios": "https://dc.lft.to/lastmile_qr_scan", "android": "https://dc.lft.to/lastmile_qr_scan"}, "type": "electric_scooter", "fusion_lon": 0.0}, {"is_reserved": 0, "is_disabled": 0, "fusion_lat": 0.0, "name": "ec45ade3b0c68b29ac36ecab358f6890", "lat": 38.90788916666666, "lon": -77.03204566666666, "bike_id": "ec45ade3b0c68b29ac36ecab358f6890", "rental_uris": {"ios": "https://dc.lft.to/lastmile_qr_scan", "android": "https://dc.lft.to/lastmile_qr_scan"}, "type": "electric_scooter", "fusion_lon": 0.0}, {"is_reserved": 0, "is_disabled": 0, "fusion_lat": 0.0, "name": "20c91ea20f350e434ee0c228dcdb6ce6", "lat": 38.91014, "lon": -77.02841766666667, "bike_id": "20c91ea20f350e434ee0c228dcdb6ce6", "rental_uris": {"ios": "https://dc.lft.to/lastmile_qr_scan", "android": "https://dc.lft.to/lastmile_qr_scan"}, "type": "electric_scooter", "fusion_lon": 0.0}, {"is_reserved": 0, "is_disabled": 0, "fusion_lat": 0.0, "name": "365a1cd05d10d500125e2c485add1981", "lat": 38.8469135, "lon": -76.980661, "bike_id": "365a1cd05d10d500125e2c485add1981", "rental_uris": {"ios": "https://dc.lft.to/lastmile_qr_scan", "android": "https://dc.lft.to/lastmile_qr_scan"}, "type": "electric_bike", "fusion_lon": 0.0},