{"data": {"bikes": [{"lat": 38.87627483333333, "is_disabled": 0, "type": "electric_scooter", "lon": -76.96524783333334, "bike_id": "5895aeef1ba5a4becd20a279a0dd1808", "fusion_lat": 0.0, "name": "5895aeef1ba5a4becd20a279a0dd1808", "is_reserved": 0, "rental_uris": {"android": "https://dc.lft.to/lastmile_qr_scan", "ios": "https://dc.lft.to/lastmile_qr_scan"}, "fusion_lon": 0.0}, {"lat": 38.907363333333336, "is_disabled": 0, "type": "electric_scooter", "lon": -77.04792816666667, "bike_id": "439869088d4177411b028f81f915f227", "fusion_lat": 0.0, "name": "439869088d4177411b028f81f915f227", "is_reserved": 0, "rental_uris": {"android": "https://dc.lft.to/lastmile_qr_scan", "ios": "https://dc.lft.to/lastmile_qr_scan"}, "fusion_lon": 0.0}, {"lat": 38.91119283333333, "is_disabled": 0, "type": "electric_scooter", "lon": -77.04218683333333, "bike_id": "3a5691994e1b5e8410e922d4a3bf96df", "fusion_lat": 0.0, "name": "3a5691994e1b5e8410e922d4a3bf96df", "is_reserved": 0, "rental_uris": {"android": "https://dc.lft.to/lastmile_qr_scan", "ios": "https://dc.lft.to/lastmile_qr_scan"}, "fusion_lon": 0.0}, {"lat": 38.922498833333336, "is_disabled": 0, "type": "electric_scooter", "lon": -77.030878, "bike_id": "43aa98d40232da1839d3a1d5c3c7797a", "fusion_lat": 0.0, "name": "43aa98d40232da1839d3a1d5c3c7797a", "is_reserved": 0, "rental_uris": {"android": "https://dc.lft.to/lastmile_qr_scan", "ios": "https://dc.lft.to/lastmile_qr_scan"}, "fusion_lon": 0.0}, {"lat": 38.94171333333333, "is_disabled": 0, "type": "electric_scooter", "lon": -77.03284233333333, "bike_id": "afa56d8df3f84fe6e2dc732889a9b3f2", "fusion_lat": 0.0, "name": "afa56d8df3f84fe6e2dc732889a9b3f2", "is_reserved": 0, "rental_uris": {"android": "https://dc.lft.to/lastmile_qr_scan", "ios": "https://dc.lft.to/lastmile_qr_scan"}, "fusion_lon": 0.0}, {"lat": 38.9415405, "is_disabled": 0, "type": "electric_scooter", "lon": -77.03287966666667, "bike_id": "d632beb4ad1e284b76411bccc6f9d148", "fusion_lat": 0.0, "name": "d632beb4ad1e284b76411bccc6f9d148", "is_reserved": 0, "rental_uris": {"android": "https://dc.lft.to/lastmile_qr_scan", "ios": "https://dc.lft.to/lastmile_qr_scan"}, "fusion_lon": 0.0}, {"lat": 38.919506, "is_disabled": 0, "type": "electric_scooter", "lon": -77.04885366666667, "bike_id": "b4d249cd1c83393a117472542c34b5fd", "fusion_lat": 0.0, "name": "b4d249cd1c83393a117472542c34b5fd", "is_reserved": 0, "rental_uris": {"android": "https://dc.lft.to/lastmile_qr_scan", "ios": "https://dc.lft.to/lastmile_qr_scan"}, "fusion_lon": 0.0}, {"lat": 38.87341383333333, "is_disabled": 0, "type": "electric_scooter", "lon": -76.99165516666666, "bike_id": "9c512175611a2430aeaa3fb5dd2997d6", "fusion_lat": 0.0, "name": "9c512175611a2430aeaa3fb5dd2997d6", "is_reserved": 0, "rental_uris": {"android": "https://dc.lft.to/lastmile_qr_scan", "ios": "https://dc.lft.to/lastmile_qr_scan"}, "fusion_lon": 0.0}, {"lat": 38.9014475, "is_disabled": 0, "type": "electric_scooter", "lon": -77.03328216666667, "bike_id": "8a956261d8112137cf22fd722662c9a9", "fusion_lat": 0.0, "name": "8a956261d8112137cf22fd722662c9a9", "is_reserved": 0, "rental_uris": {"android": "https://dc.lft.to/lastmile_qr_scan", "ios": "https://dc.lft.to/lastmile_qr_scan"}, "fusion_lon": 0.0}, {"lat": 38.902406, "is_disabled": 0, "type": "electric_scooter", "lon": -77.0259755, "bike_id": "d81692b89977de8feb1bb68b33e6c28d", "fusion_lat": 0.0, "name": "d81692b89977de8feb1bb68b33e6c28d", "is_reserved": 0, "rental_uris": {"android": "https://dc.lft.to/lastmile_qr_scan", "ios": "https://dc.lft.to/lastmile_qr_scan"}, "fusion_lon": 0.0}, {"lat": 38.90057316666667, "is_disabled": 0, "type": "electric_scooter", "lon": -77.0440965, "bike_id": "f940c66bcf80afd4028bd8b7a2e08a5b", "fusion_lat": 0.0, "name": "f940c66bcf80afd4028bd8b7a2e08a5b", "is_reserved": 0, "rental_uris": {"android": "https://dc.lft.to/lastmile_qr_scan", "ios": "https://dc.lft.to/lastmile_qr_scan"}, "fusion_lon": 0.0}, {"lat": 38.903826, "is_disabled": 0, "type": "electric_scooter", "lon": -77.043342, "bike_id": "4a51f8d62856a8cea4df9d0d8c9ed611", "fusion_lat": 0.0, "name": "4a51f8d62856a8cea4df9d0d8c9ed611", "is_reserved": 0, "rental_uris": {"android": "https://dc.lft.to/lastmile_qr_scan", "ios": "https://dc.lft.to/lastmile_qr_scan"}, "fusion_lon": 0.0}, {"lat": 38.905771, "is_disabled": 0, "type": "electric_scooter", "lon": -77.03389033333333, "bike_id": "7b65ba551ad9a5ca837f0b38420022fe", "fusion_lat": 0.0, "name": "7b65ba551ad9a5ca837f0b38420022fe", "is_reserved": 0, "rental_uris": {"android": "https://dc.lft.to/lastmile_qr_scan", "ios": "https://dc.lft.to/lastmile_qr_scan"}, "fusion_lon": 0.0}, {"lat": 38.94905166666667, "is_disabled": 0, "type": "electric_bike", "lon": -76.97239816666666, "bike_id": "9c6f56ad1e53ed07e884c5a3fcc8dad0", "fusion_lat": 0.0, "name": "9c6f56ad1e53ed07e884c5a3fcc8dad0", "is_reserved": 0, "rental_uris": {"android": "https://dc.lft.to/lastmile_qr_scan", "ios": "https://dc.lft.to/lastmile_qr_scan"}, "fusion_lon": 0.0}, {"lat": 38.91418, "is_disabled": 0, "type": "electric_scooter", "lon": -77.02023483333333, "bike_id": "714d5a396be914452bc69be3b53fc705", "fusion_lat": 0.0, "name": "714d5a396be914452bc69be3b53fc705", "is_reserved": 0, "rental_uris": {"android": "https://dc.lft.to/lastmile_qr_scan", "ios": "https://dc.lft.to/lastmile_qr_scan"}, "fusion_lon": 0.0}, {"lat": 38.88333733333333, "is_disabled": 0, "type": "electric_scooter", "lon": -77.009318, "bike_id": "f5a5d081d58704841814b67a646dd0dd", "fusion_lat": 0.0, "name": "f5a5d081d58704841814b67a646dd0dd", "is_reserved": 0, "rental_uris": {"android": "https://dc.lft.to/lastmile_qr_scan", "ios": "https://dc.lft.to/lastmile_qr_scan"}, "fusion_lon": 0.0}, {"lat": 38.9153695, "is_disabled": 0, "type": "electric_scooter", "lon": -77.00352933333333, "bike_id": "d2f248bffcb513ad128a863d114d156a", "fusion_lat": 0.0, "name": "d2f248bffcb513ad128a863d114d156a", "is_reserved": 0, "rental_uris": {"android": "https://dc.lft.to/lastmile_qr_scan", "ios": "https://dc.lft.to/lastmile_qr_scan"}, "fusion_lon": 0.0}, {"lat": 38.89804616666667, "is_disabled": 0, "type": "electric_scooter", "lon": -77.0501225, "bike_id": "f3911eed0918ff6bcd5b7ceef8491a72", "fusion_lat": 0.0, "name": "f3911eed0918ff6bcd5b7ceef8491a72", "is_reserved": 0, "rental_uris": {"android": "https://dc.lft.to/lastmile_qr_scan", "ios": "https://dc.lft.to/lastmile_qr_scan"}, "fusion_lon": 0.0}, {"lat": 38.940905666666666, "is_disabled": 0, "type": "electric_scooter", "lon": -77.06133766666666, "bike_id": "80f18fdc7f85c8ea216a394ce627c274", "fusion_lat": 0.0, "name": "80f18fdc7f85c8ea216a394ce627c274", "is_reserved": 0, "rental_uris": {"android": "https://dc.lft.to/lastmile_qr_scan", "ios": "https://dc.lft.to/lastmile_qr_scan"}, "fusion_lon": 0.0}, {"lat": 38.926837166666665, "is_disabled": 0, "type": "electric_scooter", "lon": -77.01575766666667, "bike_id": "5167908b203e1b505d5161a474f2a095", "fusion_lat": 0.0, "name": "5167908b203e1b505d5161a474f2a095", "is_reserved": 0, "rental_uris": {"android": "https://dc.lft.to/lastmile_qr_scan", "ios": "https://dc.lft.to/lastmile_qr_scan"}, "fusion_lon": 0.0}, {"lat": 38.92185816666667, "is_disabled": 0, "type": "electric_scooter", "lon": -77.0434975, "bike_id": "84c30fb8a57c72fae0c4d9ba230e1f70", "fusion_lat": 0.0, "name": "84c30fb8a57c72fae0c4d9ba230e1f70", "is_reserved": 0, "rental_uris": {"android": "https://dc.lft.to/lastmile_qr_scan", "ios": "https://dc.lft.to/lastmile_qr_scan"}, "fusion_lon": 0.0}, {"lat": 38.908627, "is_disabled": 0, "type": "electric_scooter", "lon": -77.00375066666666, "bike_id": "c195048fbe5f187669a8c5a3ed1464a2", "fusion_lat": 0.0, "name": "c195048fbe5f187669a8c5a3ed1464a2", "is_reserved": 0, "rental_uris": {"android": "https://dc.lft.to/lastmile_qr_scan", "ios": "https://dc.lft.to/lastmile_qr_scan"}, "fusion_lon": 0.0}, {"lat": 38.93988083333333, "is_disabled": 0, "type": "electric_scooter", "lon": -77.02894916666666, "bike_id": "138db88549acea69702a6f06aebb13e3", "fusion_lat": 0.0, "name": "138db88549acea69702a6f06aebb13e3", "is_reserved": 0, "rental_uris": {"android": "https://dc.lft.to/lastmile_qr_scan", "ios": "https://dc.lft.to/lastmile_qr_scan"}, "fusion_lon": 0.0}, {"lat": 38.884886, "is_disabled": 0, "type": "electric_scooter", "lon": -77.0070735, "bike_id": "841322ed4f36cf9f0d0564693a51c800", "fusion_lat": 0.0, "name": "841322ed4f36cf9f0d0564693a51c800", "is_reserved": 0, "rental_uris": {"android": "https://dc.lft.to/lastmile_qr_scan", "ios": "https://dc.lft.to/lastmile_qr_scan"}, "fusion_lon": 0.0}, {"lat": 38.920184666666664, "is_disabled": 0, "type": "electric_scooter", "lon": -77.02391566666667, "bike_id": "6afeaf5599910378d47c55e72e217d42", "fusion_lat": 0.0, "name": "6afeaf5599910378d47c55e72e217d42", "is_reserved": 0, "rental_uris": {"android": "https://dc.lft.to/lastmile_qr_scan", "ios": "https://dc.lft.to/lastmile_qr_scan"}, "fusion_lon": 0.0}, {"lat": 38.897328, "is_disabled": 0, "type": "electric_scooter", "lon": -77.049932, "bike_id": "53f00d77ce5c33d2e1386761e2cff81c", "fusion_lat": 0.0, "name": "53f00d77ce5c33d2e1386761e2cff81c", "is_reserved": 0, "rental_uris": {"android": "https://dc.lft.to/lastmile_qr_scan", "ios": "https://dc.lft.to/lastmile_qr_scan"}, "fusion_lon": 0.0}, {"lat": 38.90015616666667, "is_disabled": 0, "type": "electric_scooter", "lon": -77.0119955, "bike_id": "45c41e98d8690a2ef6197216cdbe8e5b", "fusion_lat": 0.0, "name": "45c41e98d8690a2ef6197216cdbe8e5b", "is_reserved": 0, "rental_uris": {"android": "https://dc.lft.to/lastmile_qr_scan", "ios": "https://dc.lft.to/lastmile_qr_scan"}, "fusion_lon": 0.0}, {"lat": 38.9257425, "is_disabled": 0, "type": "electric_scooter", "lon": -76.98610183333334, "bike_id": "b4a4fbd16bb054ebdc8e58d5104c728a", "fusion_lat": 0.0, "name": "b4a4fbd16bb054ebdc8e58d5104c728a", "is_reserved": 0, "rental_uris": {"android": "https://dc.lft.to/lastmile_qr_scan", "ios": "https://dc.lft.to/lastmile_qr_scan"}, "fusion_lon": 0.0}, {"lat": 38.84291533333333, "is_disabled": 0, "type": "electric_scooter", "lon": -76.99949333333333, "bike_id": "22ac014cf9df19b93e9ab74dea11ac22", "fusion_lat": 0.0, "name": "22ac014cf9df19b93e9ab74dea11ac22", "is_reserved": 0, "rental_uris": {"android": "https://dc.lft.to/lastmile_qr_scan", "ios": "https://dc.lft.to/lastmile_qr_scan"}, "fusion_lon": 0.0}, {"lat": 38.93492066666666, "is_disabled": 0, "type": "electric_scooter", "lon": -77.03622916666667, "bike_id": "cf5c834f794dcb0e82174ce73f3ba4bc", "fusion_lat": 0.0, "name": "cf5c834f794dcb0e82174ce73f3ba4bc", "is_reserved": 0, "rental_uris": {"android": "https://dc.lft.to/lastmile_qr_scan", "ios": "https://dc.lft.to/lastmile_qr_scan"}, "fusion_lon": 0.0}, {"lat": 38.923736, "is_disabled": 0, "type": "electric_scooter", "lon": -77.02922833333334, "bike_id": "3d8ff0bd5c281aded4a04dd20f17e2da", "fusion_lat": 0.0, "name": "3d8ff0bd5c281aded4a04dd20f17e2da", "is_reserved": 0, "rental_uris": {"android": "https://dc.lft.to/lastmile_qr_scan", "ios": "https://dc.lft.to/lastmile_qr_scan"}, "fusion_lon": 0.0}, {"lat": 38.901530666666666, "is_disabled": 0, "type": "electric_scooter", "lon": -77.0334605, "bike_id": "43820a9a575d82e3996396f7875b45c6", "fusion_lat": 0.0, "name": "43820a9a575d82e3996396f7875b45c6", "is_reserved": 0, "rental_uris": {"android": "https://dc.lft.to/lastmile_qr_scan", "ios": "https://dc.lft.to/lastmile_qr_scan"}, "fusion_lon": 0.0}, {"lat": 38.902565833333334, "is_disabled": 0, "type": "electric_scooter", "lon": -77.05359233333333, "bike_id": "be0ccd286c02ebe61e945e374ea65e7e", "fusion_lat": 0.0, "name": "be0ccd286c02ebe61e945e374ea65e7e", "is_reserved": 0, "rental_uris": {"android": "https://dc.lft.to/lastmile_qr_scan", "ios": "https://dc.lft.to/lastmile_qr_scan"}, "fusion_lon": 0.0}, {"lat": 38.877816833333334, "is_disabled": 0, "type": "electric_scooter", "lon": -76.99511033333333, "bike_id": "cc9cf745833238ba8d4aa92c631d4ef6", "fusion_lat": 0.0, "name": "cc9cf745833238ba8d4aa92c631d4ef6", "is_reserved": 0, "rental_uris": {"android": "https://dc.lft.to/lastmile_qr_scan", "ios": "https://dc.lft.to/lastmile_qr_scan"}, "fusion_lon": 0.0}, {"lat": 38.994375833333336, "is_disabled": 0, "type": "electric_bike", "lon": -77.03169816666667, "bike_id": "1b2982dfe4d552463c55ce56e4cc9898", "fusion_lat": 0.0, "name": "1b2982dfe4d552463c55ce56e4cc9898", "is_reserved": 0, "rental_uris": {"android": "https://dc.lft.to/lastmile_qr_scan", "ios": "https://dc.lft.to/lastmile_qr_scan"}, "fusion_lon": 0.0}, {"lat": 38.925352333333336, "is_disabled": 0, "type": "electric_scooter", "lon": -77.0443195, "bike_id": "52fa10a548a69b1e0ee46e4ba9a924c1", "fusion_lat": 0.0, "name": "52fa10a548a69b1e0ee46e4ba9a924c1", "is_reserved": 0, "rental_uris": {"android": "https://dc.lft.to/lastmile_qr_scan", "ios": "https://dc.lft.to/lastmile_qr_scan"}, "fusion_lon": 0.0}, {"lat": 38.9003795, "is_disabled": 0, "type": "electric_scooter", "lon": -76.993852, "bike_id": "4001040d172dc19b36e482677331391e", "fusion_lat": 0.0, "name": "4001040d172dc19b36e482677331391e", "is_reserved": 0, "rental_uris": {"android": "https://dc.lft.to/lastmile_qr_scan", "ios": "https://dc.lft.to/lastmile_qr_scan"}, "fusion_lon": 0.0}, {"lat": 38.92854666666667, "is_disabled": 0, "type": "electric_bike", "lon": -77.10675866666666, "bike_id": "14a4f0d5f6a5c95df897d3e58eb959dd", "fusion_lat": 0.0, "name": "14a4f0d5f6a5c95df897d3e58eb959dd", "is_reserved": 0, "rental_uris": {"android": "https://dc.lft.to/lastmile_qr_scan", "ios": "https://dc.lft.to/lastmile_qr_scan"}, "fusion_lon": 0.0}, {"lat": 38.914818833333335, "is_disabled": 0, "type": "electric_scooter", "lon": -77.03262116666667, "bike_id": "6d1a052c679e0eaa348697cc669a3621", "fusion_lat": 0.0, "name": "6d1a052c679e0eaa348697cc669a3621", "is_reserved": 0, "rental_uris": {"android": "https://dc.lft.to/lastmile_qr_scan", "ios": "https://dc.lft.to/lastmile_qr_scan"}, "fusion_lon": 0.0}, {"lat": 38.8074505, "is_disabled": 0, "type": "electric_bike", "lon": -77.09434266666666, "bike_id": "6ca8619da397ea9bf901422bbeff6531", "fusion_lat": 0.0, "name": "6ca8619da397ea9bf901422bbeff6531", "is_reserved": 0, "rental_uris": {"android": "https://dc.lft.to/lastmile_qr_scan", "ios": "https://dc.lft.to/lastmile_qr_scan"}, "fusion_lon": 0.0}, {"lat": 38.94707483333333, "is_disabled": 0, "type": "electric_scooter", "lon": -77.019407, "bike_id": "ae0eec8d8eeb7c103b3801b31dd064a0", "fusion_lat": 0.0, "name": "ae0eec8d8eeb7c103b3801b31dd064a0", "is_reserved": 0, "rental_uris": {"android": "https://dc.lft.to/lastmile_qr_scan", "ios": "https://dc.lft.to/lastmile_qr_scan"}, "fusion_lon": 0.0}, {"lat": 38.93542466666667, "is_disabled": 0, "type": "electric_scooter", "lon": -77.034206, "bike_id": "ac42b073d7a1bb85a86a599234d70600", "fusion_lat": 0.0, "name": "ac42b073d7a1bb85a86a599234d70600", "is_reserved": 0, "rental_uris": {"android": "https://dc.lft.to/lastmile_qr_scan", "ios": "https://dc.lft.to/lastmile_qr_scan"}, "fusion_lon": 0.0}, {"lat": 38.92188433333333, "is_disabled": 0, "type": "electric_scooter", "lon": -77.04122516666666, "bike_id": "62d305a18d85ee5e045b536d010b0b0d", "fusion_lat": 0.0, "name": "62d305a18d85ee5e045b536d010b0b0d", "is_reserved": 0, "rental_uris": {"android": "https://dc.lft.to/lastmile_qr_scan", "ios": "https://dc.lft.to/lastmile_qr_scan"}, "fusion_lon": 0.0}, {"lat": 38.93641066666667, "is_disabled": 0, "type": "electric_scooter", "lon": -77.024815, "bike_id": "7c456590f10c5018fef738f77dfa8b6c", "fusion_lat": 0.0, "name": "7c456590f10c5018fef738f77dfa8b6c", "is_reserved": 0, "rental_uris": {"android": "https://dc.lft.to/lastmile_qr_scan", "ios": "https://dc.lft.to/lastmile_qr_scan"}, "fusion_lon": 0.0}, {"lat": 38.90795583333333, "is_disabled": 0, "type": "electric_scooter", "lon": -77.063588, "bike_id": "27a30deb171688acde5a60b18e1247ef", "fusion_lat": 0.0, "name": "27a30deb171688acde5a60b18e1247ef", "is_reserved": 0, "rental_uris": {"android": "https://dc.lft.to/lastmile_qr_scan", "ios": "https://dc.lft.to/lastmile_qr_scan"}, "fusion_lon": 0.0}, {"lat": 38.884904666666664, "is_disabled": 0, "type": "electric_scooter", "lon": -77.034747, "bike_id": "e36da34c3459751100f52d4099080794", "fusion_lat": 0.0, "name": "e36da34c3459751100f52d4099080794", "is_reserved": 0, "rental_uris": {"android": "https://dc.lft.to/lastmile_qr_scan", "ios": "https://dc.lft.to/lastmile_qr_scan"}, "fusion_lon": 0.0}, {"lat": 38.92740383333334, "is_disabled": 0, "type": "electric_bike", "lon": -77.0342265, "bike_id": "fbd560b7bf8a64a51e6294d9c0136cc3", "fusion_lat": 0.0, "name": "fbd560b7bf8a64a51e6294d9c0136cc3", "is_reserved": 0, "rental_uris": {"android": "https://dc.lft.to/lastmile_qr_scan", "ios": "https://dc.lft.to/lastmile_qr_scan"}, "fusion_lon": 0.0}, {"lat": 38.95733116666667, "is_disabled": 0, "type": "electric_scooter", "lon": -77.0240365, "bike_id": "49bc73573e960869187ab4741b9df8e7", "fusion_lat": 0.0, "name": "49bc73573e960869187ab4741b9df8e7", "is_reserved": 0, "rental_uris": {"android": "https://dc.lft.to/lastmile_qr_scan", "ios": "https://dc.lft.to/lastmile_qr_scan"}, "fusion_lon": 0.0}, {"lat": 38.92353083333333, "is_disabled": 0, "type": "electric_scooter", "lon": -77.04144583333333, "bike_id": "9f8ab1820f13807bce63abd863857c8f", "fusion_lat": 0.0, "name": "9f8ab1820f13807bce63abd863857c8f", "is_reserved": 0, "rental_uris": {"android": "https://dc.lft.to/lastmile_qr_scan", "ios": "https://dc.lft.to/lastmile_qr_scan"}, "fusion_lon": 0.0}, {"lat": 38.94632433333334, "is_disabled": 0, "type": "electric_scooter", "lon": -77.025204, "bike_id": "dec182c14afe06ed4468fd63b8a85176", "fusion_lat": 0.0, "name": "dec182c14afe06ed4468fd63b8a85176", "is_reserved": 0, "rental_uris": {"android": "https://dc.lft.to/lastmile_qr_scan", "ios": "https://dc.lft.to/lastmile_qr_scan"}, "fusion_lon": 0.0}, {"lat": 38.92299516666667, "is_disabled": 0, "type": "electric_scooter", "lon": -77.04270416666667, "bike_id": "d729fb831654492deca845c586be1fa9", "fusion_lat": 0.0, "name": "d729fb831654492deca845c586be1fa9", "is_reserved": 0, "rental_uris": {"android": "https://dc.lft.to/lastmile_qr_scan", "ios": "https://dc.lft.to/lastmile_qr_scan"}, "fusion_lon": 0.0}, {"lat": 38.897489, "is_disabled": 0, "type": "electric_scooter", "lon": -77.046786, "bike_id": "078b6e59b90291479f59d3b2aa9829ec", "fusion_lat": 0.0, "name": "078b6e59b90291479f59d3b2aa9829ec", "is_reserved": 0, "rental_uris": {"android": "https://dc.lft.to/lastmile_qr_scan", "ios": "https://dc.lft.to/lastmile_qr_scan"}, "fusion_lon": 0.0}, {"lat": 38.92744316666667, "is_disabled": 0, "type": "electric_scooter", "lon": -77.02423566666667, "bike_id": "2bcde4889cdfe12804df58106a15b1d1", "fusion_lat": 0.0, "name": "2bcde4889cdfe12804df58106a15b1d1", "is_reserved": 0, "rental_uris": {"android": "https://dc.lft.to/lastmile_qr_scan", "ios": "https://dc.lft.to/lastmile_qr_scan"}, "fusion_lon": 0.0}, {"lat": 38.90148333333333, "is_disabled": 0, "type": "electric_scooter", "lon": -77.00065916666667, "bike_id": "93b8b75df36e9a49c42b771119bb5c67", "fusion_lat": 0.0, "name": "93b8b75df36e9a49c42b771119bb5c67", "is_reserved": 0, "rental_uris": {"android": "https://dc.lft.to/lastmile_qr_scan", "ios": "https://dc.lft.to/lastmile_qr_scan"}, "fusion_lon": 0.0}, {"lat": 38.901978666666665, "is_disabled": 0, "type": "electric_scooter", "lon": -77.02495666666667, "bike_id": "42a3e415628019ffa4ada2fa2fc7d6bc", "fusion_lat": 0.0, "name": "42a3e415628019ffa4ada2fa2fc7d6bc", "is_reserved": 0, "rental_uris": {"android": "https://dc.lft.to/lastmile_qr_scan", "ios": "https://dc.lft.to/lastmile_qr_scan"}, "fusion_lon": 0.0}, {"lat": 38.90810783333333, "is_disabled": 0, "type": "electric_scooter", "lon": -76.98281383333334, "bike_id": "1444709024b5260c6a0844389bf08af2", "fusion_lat": 0.0, "name": "1444709024b5260c6a0844389bf08af2", "is_reserved": 0, "rental_uris": {"android": "https://dc.lft.to/lastmile_qr_scan", "ios": "https://dc.lft.to/lastmile_qr_scan"}, "fusion_lon": 0.0}, {"lat": 38.9556355, "is_disabled": 0, "type": "electric_scooter", "lon": -77.02238133333333, "bike_id": "ffc8c35e66b186fb1d302f38457e4ab2", "fusion_lat": 0.0, "name": "ffc8c35e66b186fb1d302f38457e4ab2", "is_reserved": 0, "rental_uris": {"android": "https://dc.lft.to/lastmile_qr_scan", "ios": "https://dc.lft.to/lastmile_qr_scan"}, "fusion_lon": 0.0}, {"lat": 38.865648, "is_disabled": 0, "type": "electric_scooter", "lon": -76.98954233333333, "bike_id": "a3e524a594137afc3a21823e3e36aa71", "fusion_lat": 0.0, "name": "a3e524a594137afc3a21823e3e36aa71", "is_reserved": 0, "rental_uris": {"android": "https://dc.lft.to/lastmile_qr_scan", "ios": "https://dc.lft.to/lastmile_qr_scan"}, "fusion_lon": 0.0}, {"lat": 38.90918533333333, "is_disabled": 0, "type": "electric_scooter", "lon": -77.03645883333333, "bike_id": "186ae8e03dbb47f4d0d6537c89706e46", "fusion_lat": 0.0, "name": "186ae8e03dbb47f4d0d6537c89706e46", "is_reserved": 0, "rental_uris": {"android": "https://dc.lft.to/lastmile_qr_scan", "ios": "https://dc.lft.to/lastmile_qr_scan"}, "fusion_lon": 0.0}, {"lat": 38.917826833333336, "is_disabled": 0, "type": "electric_scooter", "lon": -77.0231295, "bike_id": "f7e6434d2a403a48a86822b18db78e61", "fusion_lat": 0.0, "name": "f7e6434d2a403a48a86822b18db78e61", "is_reserved": 0, "rental_uris": {"android": "https://dc.lft.to/lastmile_qr_scan", "ios": "https://dc.lft.to/lastmile_qr_scan"}, "fusion_lon": 0.0}, {"lat": 38.900975, "is_disabled": 0, "type": "electric_scooter", "lon": -77.00338433333333, "bike_id": "de222d7da96c1bab285c1a1521587abd", "fusion_lat": 0.0, "name": "de222d7da96c1bab285c1a1521587abd", "is_reserved": 0, "rental_uris": {"android": "https://dc.lft.to/lastmile_qr_scan", "ios": "https://dc.lft.to/lastmile_qr_scan"}, "fusion_lon": 0.0}, {"lat": 38.9215075, "is_disabled": 0, "type": "electric_scooter", "lon": -77.033777, "bike_id": "62d81a4a36e11c03cadcf902ad2dac96", "fusion_lat": 0.0, "name": "62d81a4a36e11c03cadcf902ad2dac96", "is_reserved": 0, "rental_uris": {"android": "https://dc.lft.to/lastmile_qr_scan", "ios": "https://dc.lft.to/lastmile_qr_scan"}, "fusion_lon": 0.0}, {"lat": 38.90716916666667, "is_disabled": 0, "type": "electric_scooter", "lon": -76.99818516666667, "bike_id": "53bc89cb5b4cab79d3e974b6a1d5f8d8", "fusion_lat": 0.0, "name": "53bc89cb5b4cab79d3e974b6a1d5f8d8", "is_reserved": 0, "rental_uris": {"android": "https://dc.lft.to/lastmile_qr_scan", "ios": "https://dc.lft.to/lastmile_qr_scan"}, "fusion_lon": 0.0}, {"lat": 38.867002, "is_disabled": 0, "type": "electric_scooter", "lon": -76.98707466666667, "bike_id": "a49216c3d37f1ffd61f380347159830e", "fusion_lat": 0.0, "name": "a49216c3d37f1ffd61f380347159830e", "is_reserved": 0, "rental_uris": {"android": "https://dc.lft.to/lastmile_qr_scan", "ios": "https://dc.lft.to/lastmile_qr_scan"}, "fusion_lon": 0.0}, {"lat": 38.917892, "is_disabled": 0, "type": "electric_bike", "lon": -76.97188716666666, "bike_id": "888cfcc62d48de27c834af7585607abb", "fusion_lat": 0.0, "name": "888cfcc62d48de27c834af7585607abb", "is_reserved": 0, "rental_uris": {"android": "https://dc.lft.to/lastmile_qr_scan", "ios": "https://dc.lft.to/lastmile_qr_scan"}, "fusion_lon": 0.0}, {"lat": 38.917073333333335, "is_disabled": 0, "type": "electric_scooter", "lon": -77.03223916666667, "bike_id": "2691edfc713229880aeb00e73f8cd5c2", "fusion_lat": 0.0, "name": "2691edfc713229880aeb00e73f8cd5c2", "is_reserved": 0, "rental_uris": {"android": "https://dc.lft.to/lastmile_qr_scan", "ios": "https://dc.lft.to/lastmile_qr_scan"}, "fusion_lon": 0.0}, {"lat": 38.905784833333335, "is_disabled": 0, "type": "electric_scooter", "lon": -77.048668, "bike_id": "5042da72055a7707ef4a6fbf1a2a526d", "fusion_lat": 0.0, "name": "5042da72055a7707ef4a6fbf1a2a526d", "is_reserved": 0, "rental_uris": {"android": "https://dc.lft.to/lastmile_qr_scan", "ios": "https://dc.lft.to/lastmile_qr_scan"}, "fusion_lon": 0.0}, {"lat": 38.86170883333333, "is_disabled": 0, "type": "electric_bike", "lon": -77.13142583333334, "bike_id": "35f7f71faff9014fe955ced6b1e3239f", "fusion_lat": 0.0, "name": "35f7f71faff9014fe955ced6b1e3239f", "is_reserved": 0, "rental_uris": {"android": "https://dc.lft.to/lastmile_qr_scan", "ios": "https://dc.lft.to/lastmile_qr_scan"}, "fusion_lon": 0.0}, {"lat": 38.91109083333333, "is_disabled": 0, "type": "electric_scooter", "lon": -77.03833216666666, "bike_id": "dc7d301b238bfe3e04d6d075cee9ee1f", "fusion_lat": 0.0, "name": "dc7d301b238bfe3e04d6d075cee9ee1f", "is_reserved": 0, "rental_uris": {"android": "https://dc.lft.to/lastmile_qr_scan", "ios": "https://dc.lft.to/lastmile_qr_scan"}, "fusion_lon": 0.0}, {"lat": 38.92110533333334, "is_disabled": 0, "type": "electric_scooter", "lon": -77.04221716666666, "bike_id": "8063efd674055a340ebf0134d5af248e", "fusion_lat": 0.0, "name": "8063efd674055a340ebf0134d5af248e", "is_reserved": 0, "rental_uris": {"android": "https://dc.lft.to/lastmile_qr_scan", "ios": "https://dc.lft.to/lastmile_qr_scan"}, "fusion_lon": 0.0}, {"lat": 38.938654, "is_disabled": 0, "type": "electric_scooter", "lon": -77.02593716666667, "bike_id": "95999df63e84552744cd08faff61e40b", "fusion_lat": 0.0, "name": "95999df63e84552744cd08faff61e40b", "is_reserved": 0, "rental_uris": {"android": "https://dc.lft.to/lastmile_qr_scan", "ios": "https://dc.lft.to/lastmile_qr_scan"}, "fusion_lon": 0.0}, {"lat": 38.905013333333336, "is_disabled": 0, "type": "electric_scooter", "lon": -76.99535866666666, "bike_id": "84839888e1c212463ba65d2d30cde767", "fusion_lat": 0.0, "name": "84839888e1c212463ba65d2d30cde767", "is_reserved": 0, "rental_uris": {"android": "https://dc.lft.to/lastmile_qr_scan", "ios": "https://dc.lft.to/lastmile_qr_scan"}, "fusion_lon": 0.0}, {"lat": 38.9127015, "is_disabled": 0, "type": "electric_scooter", "lon": -77.03037966666666, "bike_id": "42171d3c950a69e6481380a9a41c3d27", "fusion_lat": 0.0, "name": "42171d3c950a69e6481380a9a41c3d27", "is_reserved": 0, "rental_uris": {"android": "https://dc.lft.to/lastmile_qr_scan", "ios": "https://dc.lft.to/lastmile_qr_scan"}, "fusion_lon": 0.0}, {"lat": 38.810463, "is_disabled": 0, "type": "electric_bike", "lon": -77.08514616666666, "bike_id": "df47cbd744c26023abe6ad6fd036bef2", "fusion_lat": 0.0, "name": "df47cbd744c26023abe6ad6fd036bef2", "is_reserved": 0, "rental_uris": {"android": "https://dc.lft.to/lastmile_qr_scan", "ios": "https://dc.lft.to/lastmile_qr_scan"}, "fusion_lon": 0.0}, {"lat": 38.93422066666667, "is_disabled": 0, "type": "electric_scooter", "lon": -77.02841916666667, "bike_id": "6bc2c65b0cc2fd14e2116541009933ec", "fusion_lat": 0.0, "name": "6bc2c65b0cc2fd14e2116541009933ec", "is_reserved": 0, "rental_uris": {"android": "https://dc.lft.to/lastmile_qr_scan", "ios": "https://dc.lft.to/lastmile_qr_scan"}, "fusion_lon": 0.0}, {"lat": 38.8543135, "is_disabled": 0, "type": "electric_bike", "lon": -76.90971, "bike_id": "4bfd04594af3d6908b3d95f64be55fa8", "fusion_lat": 0.0, "name": "4bfd04594af3d6908b3d95f64be55fa8", "is_reserved": 0, "rental_uris": {"android": "https://dc.lft.to/lastmile_qr_scan", "ios": "https://dc.lft.to/lastmile_qr_scan"}, "fusion_lon": 0.0}, {"lat": 38.94595266666666, "is_disabled": 0, "type": "electric_scooter", "lon": -77.070377, "bike_id": "d834b137b13a92ed4162a679122b8f89", "fusion_lat": 0.0, "name": "d834b137b13a92ed4162a679122b8f89", "is_reserved": 0, "rental_uris": {"android": "https://dc.lft.to/lastmile_qr_scan", "ios": "https://dc.lft.to/lastmile_qr_scan"}, "fusion_lon": 0.0}, {"lat": 38.9238445, "is_disabled": 0, "type": "electric_scooter", "lon": -77.027648, "bike_id": "ccc3e6c3954d7200c2318164ca83eca3", "fusion_lat": 0.0, "name": "ccc3e6c3954d7200c2318164ca83eca3", "is_reserved": 0, "rental_uris": {"android": "https://dc.lft.to/lastmile_qr_scan", "ios": "https://dc.lft.to/lastmile_qr_scan"}, "fusion_lon": 0.0}, {"lat": 38.9155265, "is_disabled": 0, "type": "electric_scooter", "lon": -77.009799, "bike_id": "699ae6798ce47c0649064935429742f3", "fusion_lat": 0.0, "name": "699ae6798ce47c0649064935429742f3", "is_reserved": 0, "rental_uris": {"android": "https://dc.lft.to/lastmile_qr_scan", "ios": "https://dc.lft.to/lastmile_qr_scan"}, "fusion_lon": 0.0}, {"lat": 38.93417916666667, "is_disabled": 0, "type": "electric_scooter", "lon": -77.02839166666666, "bike_id": "a660d8f1e5aa1531764af7926e49a6f4", "fusion_lat": 0.0, "name": "a660d8f1e5aa1531764af7926e49a6f4", "is_reserved": 0, "rental_uris": {"android": "https://dc.lft.to/lastmile_qr_scan", "ios": "https://dc.lft.to/lastmile_qr_scan"}, "fusion_lon": 0.0}, {"lat": 38.84428883333333, "is_disabled": 0, "type": "electric_scooter", "lon": -76.998104, "bike_id": "b2bf3f1fd21ac48d66d2259bec6a1897", "fusion_lat": 0.0, "name": "b2bf3f1fd21ac48d66d2259bec6a1897", "is_reserved": 0, "rental_uris": {"android": "https://dc.lft.to/lastmile_qr_scan", "ios": "https://dc.lft.to/lastmile_qr_scan"}, "fusion_lon": 0.0}, {"lat": 38.90390816666667, "is_disabled": 0, "type": "electric_scooter", "lon": -76.98489316666667, "bike_id": "b4aa6a543b3891b39da6b7bb6a0362f2", "fusion_lat": 0.0, "name": "b4aa6a543b3891b39da6b7bb6a0362f2", "is_reserved": 0, "rental_uris": {"android": "https://dc.lft.to/lastmile_qr_scan", "ios": "https://dc.lft.to/lastmile_qr_scan"}, "fusion_lon": 0.0}, {"lat": 38.93189, "is_disabled": 0, "type": "electric_scooter", "lon": -77.038724, "bike_id": "1547b2295b404db46f01864612f74a02", "fusion_lat": 0.0, "name": "1547b2295b404db46f01864612f74a02", "is_reserved": 0, "rental_uris": {"android": "https://dc.lft.to/lastmile_qr_scan", "ios": "https://dc.lft.to/lastmile_qr_scan"}, "fusion_lon": 0.0}, {"lat": 38.922418666666665, "is_disabled": 0, "type": "electric_scooter", "lon": -77.02988816666667, "bike_id": "6e276b010c046306df56177a5aeca0fd", "fusion_lat": 0.0, "name": "6e276b010c046306df56177a5aeca0fd", "is_reserved": 0, "rental_uris": {"android": "https://dc.lft.to/lastmile_qr_scan", "ios": "https://dc.lft.to/lastmile_qr_scan"}, "fusion_lon": 0.0}, {"lat": 38.933429333333336, "is_disabled": 0, "type": "electric_scooter", "lon": -76.993084, "bike_id": "f740593fd523a809694a34ffb8f224ae", "fusion_lat": 0.0, "name": "f740593fd523a809694a34ffb8f224ae", "is_reserved": 0, "rental_uris": {"android": "https://dc.lft.to/lastmile_qr_scan", "ios": "https://dc.lft.to/lastmile_qr_scan"}, "fusion_lon": 0.0}, {"lat": 38.952971166666664, "is_disabled": 0, "type": "electric_bike", "lon": -76.982094, "bike_id": "6cf3d9324ed18a566c80c87ba7dc5ef5", "fusion_lat": 0.0, "name": "6cf3d9324ed18a566c80c87ba7dc5ef5", "is_reserved": 0, "rental_uris": {"android": "https://dc.lft.to/lastmile_qr_scan", "ios": "https://dc.lft.to/lastmile_qr_scan"}, "fusion_lon": 0.0}, {"lat": 38.86619783333333, "is_disabled": 0, "type": "electric_scooter", "lon": -76.98642233333334, "bike_id": "45b2f0a8bb46958801f988e46123194c", "fusion_lat": 0.0, "name": "45b2f0a8bb46958801f988e46123194c", "is_reserved": 0, "rental_uris": {"android": "https://dc.lft.to/lastmile_qr_scan", "ios": "https://dc.lft.to/lastmile_qr_scan"}, "fusion_lon": 0.0}, {"lat": 38.906469, "is_disabled": 0, "type": "electric_scooter", "lon": -76.99027633333333, "bike_id": "dcf3daa80440e58aec7b1ad056f78c0e", "fusion_lat": 0.0, "name": "dcf3daa80440e58aec7b1ad056f78c0e", "is_reserved": 0, "rental_uris": {"android": "https://dc.lft.to/lastmile_qr_scan", "ios": "https://dc.lft.to/lastmile_qr_scan"}, "fusion_lon": 0.0}, {"lat": 38.9374795, "is_disabled": 0, "type": "electric_scooter", "lon": -77.03453566666667, "bike_id": "436ccc755b9ed6a51cfcc441a0af6bc4", "fusion_lat": 0.0, "name": "436ccc755b9ed6a51cfcc441a0af6bc4", "is_reserved": 0, "rental_uris": {"android": "https://dc.lft.to/lastmile_qr_scan", "ios": "https://dc.lft.to/lastmile_qr_scan"}, "fusion_lon": 0.0}, {"lat": 38.844301, "is_disabled": 0, "type": "electric_scooter", "lon": -76.99781116666666, "bike_id": "0330f6c408039cc6fdf97e26d9fe1731", "fusion_lat": 0.0, "name": "0330f6c408039cc6fdf97e26d9fe1731", "is_reserved": 0, "rental_uris": {"android": "https://dc.lft.to/lastmile_qr_scan", "ios": "https://dc.lft.to/lastmile_qr_scan"}, "fusion_lon": 0.0}, {"lat": 38.95611266666667, "is_disabled": 0, "type": "electric_scooter", "lon": -77.01016, "bike_id": "fa372192281f53f50402f36df3539a33", "fusion_lat": 0.0, "name": "fa372192281f53f50402f36df3539a33", "is_reserved": 0, "rental_uris": {"android": "https://dc.lft.to/lastmile_qr_scan", "ios": "https://dc.lft.to/lastmile_qr_scan"}, "fusion_lon": 0.0}, {"lat": 38.918329666666665, "is_disabled": 0, "type": "electric_scooter", "lon": -77.02320716666667, "bike_id": "4a5d8b18b0282f28d3b997d8205d3d5a", "fusion_lat": 0.0, "name": "4a5d8b18b0282f28d3b997d8205d3d5a", "is_reserved": 0, "rental_uris": {"android": "https://dc.lft.to/lastmile_qr_scan", "ios": "https://dc.lft.to/lastmile_qr_scan"}, "fusion_lon": 0.0}, {"lat": 38.921107, "is_disabled": 0, "type": "electric_scooter", "lon": -77.03927916666666, "bike_id": "1008021d42f1a295f94fc1ff09e5128a", "fusion_lat": 0.0, "name": "1008021d42f1a295f94fc1ff09e5128a", "is_reserved": 0, "rental_uris": {"android": "https://dc.lft.to/lastmile_qr_scan", "ios": "https://dc.lft.to/lastmile_qr_scan"}, "fusion_lon": 0.0}, {"lat": 38.852092166666665, "is_disabled": 0, "type": "electric_bike", "lon": -76.99591733333334, "bike_id": "789c355819ebeab0277c41ae8c96da12", "fusion_lat": 0.0, "name": "789c355819ebeab0277c41ae8c96da12", "is_reserved": 0, "rental_uris": {"android": "https://dc.lft.to/lastmile_qr_scan", "ios": "https://dc.lft.to/lastmile_qr_scan"}, "fusion_lon": 0.0}, {"lat": 38.87673083333333, "is_disabled": 0, "type": "electric_scooter", "lon": -77.00425433333334, "bike_id": "0416425fb6a77be798ac8800f01f77b9", "fusion_lat": 0.0, "name": "0416425fb6a77be798ac8800f01f77b9", "is_reserved": 0, "rental_uris": {"android": "https://dc.lft.to/lastmile_qr_scan", "ios": "https://dc.lft.to/lastmile_qr_scan"}, "fusion_lon": 0.0}, {"lat": 38.907881833333334, "is_disabled": 0, "type": "electric_scooter", "lon": -77.00198983333334, "bike_id": "3868eb7005200d1e9bac5784c9e405b4", "fusion_lat": 0.0, "name": "3868eb7005200d1e9bac5784c9e405b4", "is_reserved": 0, "rental_uris": {"android": "https://dc.lft.to/lastmile_qr_scan", "ios": "https://dc.lft.to/lastmile_qr_scan"}, "fusion_lon": 0.0}, {"lat": 38.921254, "is_disabled": 0, "type": "electric_scooter", "lon": -77.04124916666666, "bike_id": "8ca4a6f0b7574218ba0bd5ae338422e8", "fusion_lat": 0.0, "name": "8ca4a6f0b7574218ba0bd5ae338422e8", "is_reserved": 0, "rental_uris": {"android": "https://dc.lft.to/lastmile_qr_scan", "ios": "https://dc.lft.to/lastmile_qr_scan"}, "fusion_lon": 0.0}, {"lat": 38.80498083333333, "is_disabled": 0, "type": "electric_bike", "lon": -77.04123266666667, "bike_id": "04513680bf0d2f03bd94d7d4b3d503d3", "fusion_lat": 0.0, "name": "04513680bf0d2f03bd94d7d4b3d503d3", "is_reserved": 0, "rental_uris": {"android": "https://dc.lft.to/lastmile_qr_scan", "ios": "https://dc.lft.to/lastmile_qr_scan"}, "fusion_lon": 0.0}, {"lat": 38.8427055, "is_disabled": 0, "type": "electric_bike", "lon": -76.98842233333333, "bike_id": "bd15051b583d163a9e8cf2a0d16d663b", "fusion_lat": 0.0, "name": "bd15051b583d163a9e8cf2a0d16d663b", "is_reserved": 0, "rental_uris": {"android": "https://dc.lft.to/lastmile_qr_scan", "ios": "https://dc.lft.to/lastmile_qr_scan"}, "fusion_lon": 0.0}, {"lat": 38.93476583333333, "is_disabled": 0, "type": "electric_scooter", "lon": -77.03581483333333, "bike_id": "966d6b424ff080d0b1d671ca10d495ab", "fusion_lat": 0.0, "name": "966d6b424ff080d0b1d671ca10d495ab", "is_reserved": 0, "rental_uris": {"android": "https://dc.lft.to/lastmile_qr_scan", "ios": "https://dc.lft.to/lastmile_qr_scan"}, "fusion_lon": 0.0}, {"lat": 38.84306016666667, "is_disabled": 0, "type": "electric_scooter", "lon": -76.99946966666667, "bike_id": "0fc06bae901b6bc71c7fc014392ab244", "fusion_lat": 0.0, "name": "0fc06bae901b6bc71c7fc014392ab244", "is_reserved": 0, "rental_uris": {"android": "https://dc.lft.to/lastmile_qr_scan", "ios": "https://dc.lft.to/lastmile_qr_scan"}, "fusion_lon": 0.0}, {"lat": 38.87594383333333, "is_disabled": 0, "type": "electric_bike", "lon": -77.10573633333334, "bike_id": "269d4cefc7b446549b919d22ccfcf33c", "fusion_lat": 0.0, "name": "269d4cefc7b446549b919d22ccfcf33c", "is_reserved": 0, "rental_uris": {"android": "https://dc.lft.to/lastmile_qr_scan", "ios": "https://dc.lft.to/lastmile_qr_scan"}, "fusion_lon": 0.0}, {"lat": 38.94283516666667, "is_disabled": 0, "type": "electric_scooter", "lon": -77.02174433333333, "bike_id": "90b42f53268e4505d3fb41aa951090bb", "fusion_lat": 0.0, "name": "90b42f53268e4505d3fb41aa951090bb", "is_reserved": 0, "rental_uris": {"android": "https://dc.lft.to/lastmile_qr_scan", "ios": "https://dc.lft.to/lastmile_qr_scan"}, "fusion_lon": 0.0}, {"lat": 38.9323805, "is_disabled": 0, "type": "electric_scooter", "lon": -76.99605233333334, "bike_id": "da74a0f5f74875a2786d63781dafba95", "fusion_lat": 0.0, "name": "da74a0f5f74875a2786d63781dafba95", "is_reserved": 0, "rental_uris": {"android": "https://dc.lft.to/lastmile_qr_scan", "ios": "https://dc.lft.to/lastmile_qr_scan"}, "fusion_lon": 0.0}, {"lat": 38.914135333333334, "is_disabled": 0, "type": "electric_scooter", "lon": -77.03998233333333, "bike_id": "35b9222c1c6517d147898f8ba8f8f9a1", "fusion_lat": 0.0, "name": "35b9222c1c6517d147898f8ba8f8f9a1", "is_reserved": 0, "rental_uris": {"android": "https://dc.lft.to/lastmile_qr_scan", "ios": "https://dc.lft.to/lastmile_qr_scan"}, "fusion_lon": 0.0}, {"lat": 38.911993833333334, "is_disabled": 0, "type": "electric_scooter", "lon": -77.00196066666666, "bike_id": "7f430ec1405458aa93f2f2758175c621", "fusion_lat": 0.0, "name": "7f430ec1405458aa93f2f2758175c621", "is_reserved": 0, "rental_uris": {"android": "https://dc.lft.to/lastmile_qr_scan", "ios": "https://dc.lft.to/lastmile_qr_scan"}, "fusion_lon": 0.0}, {"lat": 38.8876305, "is_disabled": 0, "type": "electric_scooter", "lon": -76.9559695, "bike_id": "f09143ce800ee5a483e94d727faaab6c", "fusion_lat": 0.0, "name": "f09143ce800ee5a483e94d727faaab6c", "is_reserved": 0, "rental_uris": {"android": "https://dc.lft.to/lastmile_qr_scan", "ios": "https://dc.lft.to/lastmile_qr_scan"}, "fusion_lon": 0.0}, {"lat": 38.88488383333333, "is_disabled": 0, "type": "electric_scooter", "lon": -77.00710483333333, "bike_id": "93ff0ce7611f7d6b88a846e5d88ff40f", "fusion_lat": 0.0, "name": "93ff0ce7611f7d6b88a846e5d88ff40f", "is_reserved": 0, "rental_uris": {"android": "https://dc.lft.to/lastmile_qr_scan", "ios": "https://dc.lft.to/lastmile_qr_scan"}, "fusion_lon": 0.0}, {"lat": 38.866278, "is_disabled": 0, "type": "electric_scooter", "lon": -76.98698083333333, "bike_id": "0fa75112187c616834e2ac2a5d91ad14", "fusion_lat": 0.0, "name": "0fa75112187c616834e2ac2a5d91ad14", "is_reserved": 0, "rental_uris": {"android": "https://dc.lft.to/lastmile_qr_scan", "ios": "https://dc.lft.to/lastmile_qr_scan"}, "fusion_lon": 0.0}, {"lat": 38.90621816666667, "is_disabled": 0, "type": "electric_scooter", "lon": -76.9870205, "bike_id": "d1f137d04a4d9090b6e6241ac0bce04d", "fusion_lat": 0.0, "name": "d1f137d04a4d9090b6e6241ac0bce04d", "is_reserved": 0, "rental_uris": {"android": "https://dc.lft.to/lastmile_qr_scan", "ios": "https://dc.lft.to/lastmile_qr_scan"}, "fusion_lon": 0.0}, {"lat": 38.903941333333336, "is_disabled": 0, "type": "electric_scooter", "lon": -77.01765316666666, "bike_id": "35d8038e7506c40430b2698ea8758281", "fusion_lat": 0.0, "name": "35d8038e7506c40430b2698ea8758281", "is_reserved": 0, "rental_uris": {"android": "https://dc.lft.to/lastmile_qr_scan", "ios": "https://dc.lft.to/lastmile_qr_scan"}, "fusion_lon": 0.0}, {"lat": 38.93646316666667, "is_disabled": 0, "type": "electric_scooter", "lon": -77.03661066666666, "bike_id": "74dfa5a5120cf7a1b0e445e3ac2827fc", "fusion_lat": 0.0, "name": "74dfa5a5120cf7a1b0e445e3ac2827fc", "is_reserved": 0, "rental_uris": {"android": "https://dc.lft.to/lastmile_qr_scan", "ios": "https://dc.lft.to/lastmile_qr_scan"}, "fusion_lon": 0.0}, {"lat": 38.9981755, "is_disabled": 0, "type": "electric_bike", "lon": -76.88370966666666, "bike_id": "97a7e473a277ea26174c60aa23291e6f", "fusion_lat": 0.0, "name": "97a7e473a277ea26174c60aa23291e6f", "is_reserved": 0, "rental_uris": {"android": "https://dc.lft.to/lastmile_qr_scan", "ios": "https://dc.lft.to/lastmile_qr_scan"}, "fusion_lon": 0.0}, {"lat": 38.913153, "is_disabled": 0, "type": "electric_scooter", "lon": -76.9864315, "bike_id": "86639aff22a905ba6e9fbe118f9d1092", "fusion_lat": 0.0, "name": "86639aff22a905ba6e9fbe118f9d1092", "is_reserved": 0, "rental_uris": {"android": "https://dc.lft.to/lastmile_qr_scan", "ios": "https://dc.lft.to/lastmile_qr_scan"}, "fusion_lon": 0.0}, {"lat": 38.951640166666664, "is_disabled": 0, "type": "electric_scooter", "lon": -77.067682, "bike_id": "bff812b98a56cf19fcef6b95e9488bf4", "fusion_lat": 0.0, "name": "bff812b98a56cf19fcef6b95e9488bf4", "is_reserved": 0, "rental_uris": {"android": "https://dc.lft.to/lastmile_qr_scan", "ios": "https://dc.lft.to/lastmile_qr_scan"}, "fusion_lon": 0.0}, {"lat": 38.90145833333333, "is_disabled": 0, "type": "electric_scooter", "lon": -77.028904, "bike_id": "400ebc6fc47509cd8379aa1eacb66a4f", "fusion_lat": 0.0, "name": "400ebc6fc47509cd8379aa1eacb66a4f", "is_reserved": 0, "rental_uris": {"android": "https://dc.lft.to/lastmile_qr_scan", "ios": "https://dc.lft.to/lastmile_qr_scan"}, "fusion_lon": 0.0}, {"lat": 39.030475333333335, "is_disabled": 0, "type": "electric_bike", "lon": -77.09484466666666, "bike_id": "de8bee1434b7a35e8aa7c0d1ed3d4899", "fusion_lat": 0.0, "name": "de8bee1434b7a35e8aa7c0d1ed3d4899", "is_reserved": 0, "rental_uris": {"android": "https://dc.lft.to/lastmile_qr_scan", "ios": "https://dc.lft.to/lastmile_qr_scan"}, "fusion_lon": 0.0}, {"lat": 38.902035833333336, "is_disabled": 0, "type": "electric_scooter", "lon": -77.0237615, "bike_id": "3230422ff3bc000e09a4bbd828b86030", "fusion_lat": 0.0, "name": "3230422ff3bc000e09a4bbd828b86030", "is_reserved": 0, "rental_uris": {"android": "https://dc.lft.to/lastmile_qr_scan", "ios": "https://dc.lft.to/lastmile_qr_scan"}, "fusion_lon": 0.0}, {"lat": 39.024348, "is_disabled": 0, "type": "electric_bike", "lon": -77.13104133333333, "bike_id": "3fbb82bb160297c1d06db279b867a01b", "fusion_lat": 0.0, "name": "3fbb82bb160297c1d06db279b867a01b", "is_reserved": 0, "rental_uris": {"android": "https://dc.lft.to/lastmile_qr_scan", "ios": "https://dc.lft.to/lastmile_qr_scan"}, "fusion_lon": 0.0}, {"lat": 38.949731666666665, "is_disabled": 0, "type": "electric_scooter", "lon": -77.06760733333333, "bike_id": "0f914a84fae9d8c735192842a87a7675", "fusion_lat": 0.0, "name": "0f914a84fae9d8c735192842a87a7675", "is_reserved": 0, "rental_uris": {"android": "https://dc.lft.to/lastmile_qr_scan", "ios": "https://dc.lft.to/lastmile_qr_scan"}, "fusion_lon": 0.0}, {"lat": 38.93523966666667, "is_disabled": 0, "type": "electric_scooter", "lon": -77.037003, "bike_id": "2a78a2294b0a73cfbd4b672bdd04e0c5", "fusion_lat": 0.0, "name": "2a78a2294b0a73cfbd4b672bdd04e0c5", "is_reserved": 0, "rental_uris": {"android": "https://dc.lft.to/lastmile_qr_scan", "ios": "https://dc.lft.to/lastmile_qr_scan"}, "fusion_lon": 0.0}, {"lat": 38.912563166666665, "is_disabled": 0, "type": "electric_scooter", "lon": -77.0386405, "bike_id": "4b44fc28c131c7e647123f6f1d9f5579", "fusion_lat": 0.0, "name": "4b44fc28c131c7e647123f6f1d9f5579", "is_reserved": 0, "rental_uris": {"android": "https://dc.lft.to/lastmile_qr_scan", "ios": "https://dc.lft.to/lastmile_qr_scan"}, "fusion_lon": 0.0}, {"lat": 38.910575, "is_disabled": 0, "type": "electric_scooter", "lon": -77.0525045, "bike_id": "2687b973d4415e8257aeccabb45aadad", "fusion_lat": 0.0, "name": "2687b973d4415e8257aeccabb45aadad", "is_reserved": 0, "rental_uris": {"android": "https://dc.lft.to/lastmile_qr_scan", "ios": "https://dc.lft.to/lastmile_qr_scan"}, "fusion_lon": 0.0}, {"lat": 38.886014, "is_disabled": 0, "type": "electric_scooter", "lon": -77.0220725, "bike_id": "654c421e7fb20d0a15cd94f892723943", "fusion_lat": 0.0, "name": "654c421e7fb20d0a15cd94f892723943", "is_reserved": 0, "rental_uris": {"android": "https://dc.lft.to/lastmile_qr_scan", "ios": "https://dc.lft.to/lastmile_qr_scan"}, "fusion_lon": 0.0}, {"lat": 38.92046633333333, "is_disabled": 0, "type": "electric_scooter", "lon": -77.02876966666666, "bike_id": "080653c465716a01b2a57f06f9b4810b", "fusion_lat": 0.0, "name": "080653c465716a01b2a57f06f9b4810b", "is_reserved": 0, "rental_uris": {"android": "https://dc.lft.to/lastmile_qr_scan", "ios": "https://dc.lft.to/lastmile_qr_scan"}, "fusion_lon": 0.0}, {"lat": 38.911148833333336, "is_disabled": 0, "type": "electric_scooter", "lon": -77.03014266666666, "bike_id": "5c89b8903e2079be0f80ebca6606ec86", "fusion_lat": 0.0, "name": "5c89b8903e2079be0f80ebca6606ec86", "is_reserved": 0, "rental_uris": {"android": "https://dc.lft.to/lastmile_qr_scan", "ios": "https://dc.lft.to/lastmile_qr_scan"}, "fusion_lon": 0.0}, {"lat": 38.92148916666667, "is_disabled": 0, "type": "electric_scooter", "lon": -77.03377733333333, "bike_id": "ab7af15b7823e0ff16bc593e0c6cffb4", "fusion_lat": 0.0, "name": "ab7af15b7823e0ff16bc593e0c6cffb4", "is_reserved": 0, "rental_uris": {"android": "https://dc.lft.to/lastmile_qr_scan", "ios": "https://dc.lft.to/lastmile_qr_scan"}, "fusion_lon": 0.0}, {"lat": 38.93067716666667, "is_disabled": 0, "type": "electric_scooter", "lon": -77.028246, "bike_id": "3ab06c436b9ea15aaf3c9ba93a3223b8", "fusion_lat": 0.0, "name": "3ab06c436b9ea15aaf3c9ba93a3223b8", "is_reserved": 0, "rental_uris": {"android": "https://dc.lft.to/lastmile_qr_scan", "ios": "https://dc.lft.to/lastmile_qr_scan"}, "fusion_lon": 0.0}, {"lat": 38.9278, "is_disabled": 0, "type": "electric_scooter", "lon": -77.027876, "bike_id": "51e4518c4ecb39e4765fda1abebfd9c1", "fusion_lat": 0.0, "name": "51e4518c4ecb39e4765fda1abebfd9c1", "is_reserved": 0, "rental_uris": {"android": "https://dc.lft.to/lastmile_qr_scan", "ios": "https://dc.lft.to/lastmile_qr_scan"}, "fusion_lon": 0.0}, {"lat": 38.932297, "is_disabled": 0, "type": "electric_scooter", "lon": -76.99605166666667, "bike_id": "7895b8cf3fc3f86167f924f4032b142a", "fusion_lat": 0.0, "name": "7895b8cf3fc3f86167f924f4032b142a", "is_reserved": 0, "rental_uris": {"android": "https://dc.lft.to/lastmile_qr_scan", "ios": "https://dc.lft.to/lastmile_qr_scan"}, "fusion_lon": 0.0}, {"lat": 38.9273805, "is_disabled": 0, "type": "electric_scooter", "lon": -77.02247533333333, "bike_id": "b40f563600db0f9716372e38020443c0", "fusion_lat": 0.0, "name": "b40f563600db0f9716372e38020443c0", "is_reserved": 0, "rental_uris": {"android": "https://dc.lft.to/lastmile_qr_scan", "ios": "https://dc.lft.to/lastmile_qr_scan"}, "fusion_lon": 0.0}, {"lat": 38.916224166666666, "is_disabled": 0, "type": "electric_scooter", "lon": -76.979468, "bike_id": "755a7478927fade475a87adb0791af8b", "fusion_lat": 0.0, "name": "755a7478927fade475a87adb0791af8b", "is_reserved": 0, "rental_uris": {"android": "https://dc.lft.to/lastmile_qr_scan", "ios": "https://dc.lft.to/lastmile_qr_scan"}, "fusion_lon": 0.0}, {"lat": 38.91828666666667, "is_disabled": 0, "type": "electric_scooter", "lon": -77.03946866666666, "bike_id": "3883de6253dd757216961933a21904ea", "fusion_lat": 0.0, "name": "3883de6253dd757216961933a21904ea", "is_reserved": 0, "rental_uris": {"android": "https://dc.lft.to/lastmile_qr_scan", "ios": "https://dc.lft.to/lastmile_qr_scan"}, "fusion_lon": 0.0}, {"lat": 38.90555283333333, "is_disabled": 0, "type": "electric_scooter", "lon": -77.04330066666667, "bike_id": "043ff8a2005c790ffeb95fd5e1e987ff", "fusion_lat": 0.0, "name": "043ff8a2005c790ffeb95fd5e1e987ff", "is_reserved": 0, "rental_uris": {"android": "https://dc.lft.to/lastmile_qr_scan", "ios": "https://dc.lft.to/lastmile_qr_scan"}, "fusion_lon": 0.0}, {"lat": 38.90961683333333, "is_disabled": 0, "type": "electric_scooter", "lon": -77.034224, "bike_id": "ff3a3d471974f64102a62c01af18bcc8", "fusion_lat": 0.0, "name": "ff3a3d471974f64102a62c01af18bcc8", "is_reserved": 0, "rental_uris": {"android": "https://dc.lft.to/lastmile_qr_scan", "ios": "https://dc.lft.to/lastmile_qr_scan"}, "fusion_lon": 0.0}, {"lat": 38.91699216666667, "is_disabled": 0, "type": "electric_scooter", "lon": -77.03056666666667, "bike_id": "9a975e5bee1bfdcc3e13b01f6e99758a", "fusion_lat": 0.0, "name": "9a975e5bee1bfdcc3e13b01f6e99758a", "is_reserved": 0, "rental_uris": {"android": "https://dc.lft.to/lastmile_qr_scan", "ios": "https://dc.lft.to/lastmile_qr_scan"}, "fusion_lon": 0.0}, {"lat": 38.944367, "is_disabled": 0, "type": "electric_scooter", "lon": -77.02345233333334, "bike_id": "698f2c6a744758af78e718370172e5b7", "fusion_lat": 0.0, "name": "698f2c6a744758af78e718370172e5b7", "is_reserved": 0, "rental_uris": {"android": "https://dc.lft.to/lastmile_qr_scan", "ios": "https://dc.lft.to/lastmile_qr_scan"}, "fusion_lon": 0.0}, {"lat": 38.920636, "is_disabled": 0, "type": "electric_scooter", "lon": -77.04239516666667, "bike_id": "5d66e03ded2500557a6dc168c82c9cf5", "fusion_lat": 0.0, "name": "5d66e03ded2500557a6dc168c82c9cf5", "is_reserved": 0, "rental_uris": {"android": "https://dc.lft.to/lastmile_qr_scan", "ios": "https://dc.lft.to/lastmile_qr_scan"}, "fusion_lon": 0.0}, {"lat": 38.90144216666667, "is_disabled": 0, "type": "electric_scooter", "lon": -77.04147283333333, "bike_id": "54c478b45c353955fc253d2382d1f591", "fusion_lat": 0.0, "name": "54c478b45c353955fc253d2382d1f591", "is_reserved": 0, "rental_uris": {"android": "https://dc.lft.to/lastmile_qr_scan", "ios": "https://dc.lft.to/lastmile_qr_scan"}, "fusion_lon": 0.0}, {"lat": 38.90190116666667, "is_disabled": 0, "type": "electric_scooter", "lon": -77.02477233333333, "bike_id": "b31e0fa32cc4c2b80a040eb516db9a30", "fusion_lat": 0.0, "name": "b31e0fa32cc4c2b80a040eb516db9a30", "is_reserved": 0, "rental_uris": {"android": "https://dc.lft.to/lastmile_qr_scan", "ios": "https://dc.lft.to/lastmile_qr_scan"}, "fusion_lon": 0.0}, {"lat": 38.92007483333333, "is_disabled": 0, "type": "electric_scooter", "lon": -77.02390666666666, "bike_id": "bade23c159ce8ddb918258cc965dd744", "fusion_lat": 0.0, "name": "bade23c159ce8ddb918258cc965dd744", "is_reserved": 0, "rental_uris": {"android": "https://dc.lft.to/lastmile_qr_scan", "ios": "https://dc.lft.to/lastmile_qr_scan"}, "fusion_lon": 0.0}, {"lat": 38.90865083333333, "is_disabled": 0, "type": "electric_bike", "lon": -77.001956, "bike_id": "83842c188958ff2d1b3bccc3cc7f29b5", "fusion_lat": 0.0, "name": "83842c188958ff2d1b3bccc3cc7f29b5", "is_reserved": 0, "rental_uris": {"android": "https://dc.lft.to/lastmile_qr_scan", "ios": "https://dc.lft.to/lastmile_qr_scan"}, "fusion_lon": 0.0}, {"lat": 38.8573415, "is_disabled": 0, "type": "electric_scooter", "lon": -76.99433533333334, "bike_id": "bfa57f6b7918fbde1b29c7906ba0e1d7", "fusion_lat": 0.0, "name": "bfa57f6b7918fbde1b29c7906ba0e1d7", "is_reserved": 0, "rental_uris": {"android": "https://dc.lft.to/lastmile_qr_scan", "ios": "https://dc.lft.to/lastmile_qr_scan"}, "fusion_lon": 0.0}, {"lat": 38.954054666666664, "is_disabled": 0, "type": "electric_scooter", "lon": -77.02747266666667, "bike_id": "1745ccd11e11a821ecec0332232bbd43", "fusion_lat": 0.0, "name": "1745ccd11e11a821ecec0332232bbd43", "is_reserved": 0, "rental_uris": {"android": "https://dc.lft.to/lastmile_qr_scan", "ios": "https://dc.lft.to/lastmile_qr_scan"}, "fusion_lon": 0.0}, {"lat": 38.93742683333333, "is_disabled": 0, "type": "electric_scooter", "lon": -77.034751, "bike_id": "c29fe8d462be95fef37de06732d0d467", "fusion_lat": 0.0, "name": "c29fe8d462be95fef37de06732d0d467", "is_reserved": 0, "rental_uris": {"android": "https://dc.lft.to/lastmile_qr_scan", "ios": "https://dc.lft.to/lastmile_qr_scan"}, "fusion_lon": 0.0}, {"lat": 38.885758333333335, "is_disabled": 0, "type": "electric_scooter", "lon": -76.91911533333334, "bike_id": "97f3aeb47ccd3b918eeb25fda169fa23", "fusion_lat": 0.0, "name": "97f3aeb47ccd3b918eeb25fda169fa23", "is_reserved": 0, "rental_uris": {"android": "https://dc.lft.to/lastmile_qr_scan", "ios": "https://dc.lft.to/lastmile_qr_scan"}, "fusion_lon": 0.0}, {"lat": 38.92247783333333, "is_disabled": 0, "type": "electric_scooter", "lon": -77.0308555, "bike_id": "ed6c222faa5045123b8308f3e46dd1e8", "fusion_lat": 0.0, "name": "ed6c222faa5045123b8308f3e46dd1e8", "is_reserved": 0, "rental_uris": {"android": "https://dc.lft.to/lastmile_qr_scan", "ios": "https://dc.lft.to/lastmile_qr_scan"}, "fusion_lon": 0.0}, {"lat": 38.9272985, "is_disabled": 0, "type": "electric_scooter", "lon": -77.02609016666666, "bike_id": "6a65134f793d11f657e51408fdb1b706", "fusion_lat": 0.0, "name": "6a65134f793d11f657e51408fdb1b706", "is_reserved": 0, "rental_uris": {"android": "https://dc.lft.to/lastmile_qr_scan", "ios": "https://dc.lft.to/lastmile_qr_scan"}, "fusion_lon": 0.0}, {"lat": 38.91407566666667, "is_disabled": 0, "type": "electric_scooter", "lon": -77.02608933333333, "bike_id": "c5ee8836dd423ee523ee6e900f6eb006", "fusion_lat": 0.0, "name": "c5ee8836dd423ee523ee6e900f6eb006", "is_reserved": 0, "rental_uris": {"android": "https://dc.lft.to/lastmile_qr_scan", "ios": "https://dc.lft.to/lastmile_qr_scan"}, "fusion_lon": 0.0}, {"lat": 38.9209305, "is_disabled": 0, "type": "electric_scooter", "lon": -77.04198666666667, "bike_id": "39ef3186a7662cb9ef3e95ecf92bda45", "fusion_lat": 0.0, "name": "39ef3186a7662cb9ef3e95ecf92bda45", "is_reserved": 0, "rental_uris": {"android": "https://dc.lft.to/lastmile_qr_scan", "ios": "https://dc.lft.to/lastmile_qr_scan"}, "fusion_lon": 0.0}, {"lat": 38.89846883333333, "is_disabled": 0, "type": "electric_scooter", "lon": -76.98176133333334, "bike_id": "cd85830b1e48af4fb3274fa9fff4d89a", "fusion_lat": 0.0, "name": "cd85830b1e48af4fb3274fa9fff4d89a", "is_reserved": 0, "rental_uris": {"android": "https://dc.lft.to/lastmile_qr_scan", "ios": "https://dc.lft.to/lastmile_qr_scan"}, "fusion_lon": 0.0}, {"lat": 38.926035666666664, "is_disabled": 0, "type": "electric_scooter", "lon": -77.05690616666666, "bike_id": "bd8d829c1598ba2e12aa54de7de1c948", "fusion_lat": 0.0, "name": "bd8d829c1598ba2e12aa54de7de1c948", "is_reserved": 0, "rental_uris": {"android": "https://dc.lft.to/lastmile_qr_scan", "ios": "https://dc.lft.to/lastmile_qr_scan"}, "fusion_lon": 0.0}, {"lat": 38.9218905, "is_disabled": 0, "type": "electric_scooter", "lon": -77.04718716666666, "bike_id": "302420bccb704530a83a551ffee6d981", "fusion_lat": 0.0, "name": "302420bccb704530a83a551ffee6d981", "is_reserved": 0, "rental_uris": {"android": "https://dc.lft.to/lastmile_qr_scan", "ios": "https://dc.lft.to/lastmile_qr_scan"}, "fusion_lon": 0.0}, {"lat": 38.91249216666667, "is_disabled": 0, "type": "electric_scooter", "lon": -77.04760633333333, "bike_id": "3e56c257c63a21724756ee298567abca", "fusion_lat": 0.0, "name": "3e56c257c63a21724756ee298567abca", "is_reserved": 0, "rental_uris": {"android": "https://dc.lft.to/lastmile_qr_scan", "ios": "https://dc.lft.to/lastmile_qr_scan"}, "fusion_lon": 0.0}, {"lat": 38.882850833333336, "is_disabled": 0, "type": "electric_bike", "lon": -76.98781283333334, "bike_id": "511322808f2fb300a20de08b7590d6da", "fusion_lat": 0.0, "name": "511322808f2fb300a20de08b7590d6da", "is_reserved": 0, "rental_uris": {"android": "https://dc.lft.to/lastmile_qr_scan", "ios": "https://dc.lft.to/lastmile_qr_scan"}, "fusion_lon": 0.0}, {"lat": 38.898793166666664, "is_disabled": 0, "type": "electric_scooter", "lon": -77.05338183333333, "bike_id": "dfcb813fdc7c5d9f544ac3ec4c84e790", "fusion_lat": 0.0, "name": "dfcb813fdc7c5d9f544ac3ec4c84e790", "is_reserved": 0, "rental_uris": {"android": "https://dc.lft.to/lastmile_qr_scan", "ios": "https://dc.lft.to/lastmile_qr_scan"}, "fusion_lon": 0.0}, {"lat": 38.899171, "is_disabled": 0, "type": "electric_scooter", "lon": -76.93382683333333, "bike_id": "8df5d70dcf323e61d48f409813c43092", "fusion_lat": 0.0, "name": "8df5d70dcf323e61d48f409813c43092", "is_reserved": 0, "rental_uris": {"android": "https://dc.lft.to/lastmile_qr_scan", "ios": "https://dc.lft.to/lastmile_qr_scan"}, "fusion_lon": 0.0}, {"lat": 38.9555605, "is_disabled": 0, "type": "electric_bike", "lon": -76.93548016666666, "bike_id": "5ee145ef97618c29dd412d3475a02bef", "fusion_lat": 0.0, "name": "5ee145ef97618c29dd412d3475a02bef", "is_reserved": 0, "rental_uris": {"android": "https://dc.lft.to/lastmile_qr_scan", "ios": "https://dc.lft.to/lastmile_qr_scan"}, "fusion_lon": 0.0}, {"lat": 38.915525333333335, "is_disabled": 0, "type": "electric_scooter", "lon": -77.02429183333334, "bike_id": "73c74eb12e1ed27a1d6ff486a00ebd41", "fusion_lat": 0.0, "name": "73c74eb12e1ed27a1d6ff486a00ebd41", "is_reserved": 0, "rental_uris": {"android": "https://dc.lft.to/lastmile_qr_scan", "ios": "https://dc.lft.to/lastmile_qr_scan"}, "fusion_lon": 0.0}, {"lat": 38.863466333333335, "is_disabled": 0, "type": "electric_scooter", "lon": -76.98999066666667, "bike_id": "6016df65a5dcbef27c52c5945191dbd4", "fusion_lat": 0.0, "name": "6016df65a5dcbef27c52c5945191dbd4", "is_reserved": 0, "rental_uris": {"android": "https://dc.lft.to/lastmile_qr_scan", "ios": "https://dc.lft.to/lastmile_qr_scan"}, "fusion_lon": 0.0}, {"lat": 38.848659166666664, "is_disabled": 0, "type": "electric_scooter", "lon": -76.976879, "bike_id": "f431f8adfd9deccfd54584118402b558", "fusion_lat": 0.0, "name": "f431f8adfd9deccfd54584118402b558", "is_reserved": 0, "rental_uris": {"android": "https://dc.lft.to/lastmile_qr_scan", "ios": "https://dc.lft.to/lastmile_qr_scan"}, "fusion_lon": 0.0}, {"lat": 38.9384145, "is_disabled": 0, "type": "electric_bike", "lon": -76.98859616666667, "bike_id": "0e15146fa9479295b9ad01bba68f1a47", "fusion_lat": 0.0, "name": "0e15146fa9479295b9ad01bba68f1a47", "is_reserved": 0, "rental_uris": {"android": "https://dc.lft.to/lastmile_qr_scan", "ios": "https://dc.lft.to/lastmile_qr_scan"}, "fusion_lon": 0.0}, {"lat": 38.903822, "is_disabled": 0, "type": "electric_scooter", "lon": -77.038679, "bike_id": "c2d181f723471d66fb54e723bd6244aa", "fusion_lat": 0.0, "name": "c2d181f723471d66fb54e723bd6244aa", "is_reserved": 0, "rental_uris": {"android": "https://dc.lft.to/lastmile_qr_scan", "ios": "https://dc.lft.to/lastmile_qr_scan"}, "fusion_lon": 0.0}, {"lat": 38.875753, "is_disabled": 0, "type": "electric_scooter", "lon": -77.02082133333333, "bike_id": "0805fabb7ab4f49af98a8d97297ea8b1", "fusion_lat": 0.0, "name": "0805fabb7ab4f49af98a8d97297ea8b1", "is_reserved": 0, "rental_uris": {"android": "https://dc.lft.to/lastmile_qr_scan", "ios": "https://dc.lft.to/lastmile_qr_scan"}, "fusion_lon": 0.0}, {"lat": 38.91114283333334, "is_disabled": 0, "type": "electric_scooter", "lon": -77.02775816666667, "bike_id": "e06253e50a9fc34f33088d3b6f237b24", "fusion_lat": 0.0, "name": "e06253e50a9fc34f33088d3b6f237b24", "is_reserved": 0, "rental_uris": {"android": "https://dc.lft.to/lastmile_qr_scan", "ios": "https://dc.lft.to/lastmile_qr_scan"}, "fusion_lon": 0.0}, {"lat": 38.91705866666667, "is_disabled": 0, "type": "electric_scooter", "lon": -77.03861766666667, "bike_id": "5e42dcfa118991128065c7864ce6ec9f", "fusion_lat": 0.0, "name": "5e42dcfa118991128065c7864ce6ec9f", "is_reserved": 0, "rental_uris": {"android": "https://dc.lft.to/lastmile_qr_scan", "ios": "https://dc.lft.to/lastmile_qr_scan"}, "fusion_lon": 0.0}, {"lat": 38.90969316666666, "is_disabled": 0, "type": "electric_scooter", "lon": -77.03868433333334, "bike_id": "8ccd919e68f34b31a6606851fa5f273f", "fusion_lat": 0.0, "name": "8ccd919e68f34b31a6606851fa5f273f", "is_reserved": 0, "rental_uris": {"android": "https://dc.lft.to/lastmile_qr_scan", "ios": "https://dc.lft.to/lastmile_qr_scan"}, "fusion_lon": 0.0}, {"lat": 38.917169333333334, "is_disabled": 0, "type": "electric_scooter", "lon": -77.03723916666667, "bike_id": "6cfd37708f665cf9dcc1994d6ca3f2de", "fusion_lat": 0.0, "name": "6cfd37708f665cf9dcc1994d6ca3f2de", "is_reserved": 0, "rental_uris": {"android": "https://dc.lft.to/lastmile_qr_scan", "ios": "https://dc.lft.to/lastmile_qr_scan"}, "fusion_lon": 0.0}, {"lat": 38.885113, "is_disabled": 0, "type": "electric_scooter", "lon": -77.00684016666666, "bike_id": "90b9301ded2486c41b158562c44bd020", "fusion_lat": 0.0, "name": "90b9301ded2486c41b158562c44bd020", "is_reserved": 0, "rental_uris": {"android": "https://dc.lft.to/lastmile_qr_scan", "ios": "https://dc.lft.to/lastmile_qr_scan"}, "fusion_lon": 0.0}, {"lat": 38.86379616666667, "is_disabled": 0, "type": "electric_scooter", "lon": -76.990331, "bike_id": "f84dd69785457babaabac599434aa473", "fusion_lat": 0.0, "name": "f84dd69785457babaabac599434aa473", "is_reserved": 0, "rental_uris": {"android": "https://dc.lft.to/lastmile_qr_scan", "ios": "https://dc.lft.to/lastmile_qr_scan"}, "fusion_lon": 0.0}, {"lat": 39.030549666666666, "is_disabled": 0, "type": "electric_bike", "lon": -77.09485966666666, "bike_id": "1d23495e83dc8d28e04b41ae0df8fade", "fusion_lat": 0.0, "name": "1d23495e83dc8d28e04b41ae0df8fade", "is_reserved": 0, "rental_uris": {"android": "https://dc.lft.to/lastmile_qr_scan", "ios": "https://dc.lft.to/lastmile_qr_scan"}, "fusion_lon": 0.0}, {"lat": 38.91529166666667, "is_disabled": 0, "type": "electric_scooter", "lon": -76.98215183333333, "bike_id": "2b43841d127acf18e3cddc113acc589a", "fusion_lat": 0.0, "name": "2b43841d127acf18e3cddc113acc589a", "is_reserved": 0, "rental_uris": {"android": "https://dc.lft.to/lastmile_qr_scan", "ios": "https://dc.lft.to/lastmile_qr_scan"}, "fusion_lon": 0.0}, {"lat": 38.92750083333333, "is_disabled": 0, "type": "electric_scooter", "lon": -76.99727433333334, "bike_id": "46c6ab96cb5e640a8ebfbf58793640ba", "fusion_lat": 0.0, "name": "46c6ab96cb5e640a8ebfbf58793640ba", "is_reserved": 0, "rental_uris": {"android": "https://dc.lft.to/lastmile_qr_scan", "ios": "https://dc.lft.to/lastmile_qr_scan"}, "fusion_lon": 0.0}, {"lat": 38.907315833333335, "is_disabled": 0, "type": "electric_scooter", "lon": -77.048244, "bike_id": "a7feafecdc4906635f8e05403f49af8f", "fusion_lat": 0.0, "name": "a7feafecdc4906635f8e05403f49af8f", "is_reserved": 0, "rental_uris": {"android": "https://dc.lft.to/lastmile_qr_scan", "ios": "https://dc.lft.to/lastmile_qr_scan"}, "fusion_lon": 0.0}, {"lat": 38.91424033333333, "is_disabled": 0, "type": "electric_scooter", "lon": -77.02204383333333, "bike_id": "a5d7160e2d0752c88a21d1e54ac30591", "fusion_lat": 0.0, "name": "a5d7160e2d0752c88a21d1e54ac30591", "is_reserved": 0, "rental_uris": {"android": "https://dc.lft.to/lastmile_qr_scan", "ios": "https://dc.lft.to/lastmile_qr_scan"}, "fusion_lon": 0.0}, {"lat": 38.922451, "is_disabled": 0, "type": "electric_scooter", "lon": -77.04251116666667, "bike_id": "f89578cbd23a966b3caab5ff2b133b83", "fusion_lat": 0.0, "name": "f89578cbd23a966b3caab5ff2b133b83", "is_reserved": 0, "rental_uris": {"android": "https://dc.lft.to/lastmile_qr_scan", "ios": "https://dc.lft.to/lastmile_qr_scan"}, "fusion_lon": 0.0}, {"lat": 38.91736483333333, "is_disabled": 0, "type": "electric_scooter", "lon": -77.06896183333333, "bike_id": "2975afb919e16b70df5d835ef3517826", "fusion_lat": 0.0, "name": "2975afb919e16b70df5d835ef3517826", "is_reserved": 0, "rental_uris": {"android": "https://dc.lft.to/lastmile_qr_scan", "ios": "https://dc.lft.to/lastmile_qr_scan"}, "fusion_lon": 0.0}, {"lat": 38.912373, "is_disabled": 0, "type": "electric_scooter", "lon": -77.04488916666666, "bike_id": "65873a1eb3b3e2c785b877c92b5739ee", "fusion_lat": 0.0, "name": "65873a1eb3b3e2c785b877c92b5739ee", "is_reserved": 0, "rental_uris": {"android": "https://dc.lft.to/lastmile_qr_scan", "ios": "https://dc.lft.to/lastmile_qr_scan"}, "fusion_lon": 0.0}, {"lat": 38.9180755, "is_disabled": 0, "type": "electric_scooter", "lon": -77.03431683333334, "bike_id": "a4642efb1a6a3099be5d157d1dffb691", "fusion_lat": 0.0, "name": "a4642efb1a6a3099be5d157d1dffb691", "is_reserved": 0, "rental_uris": {"android": "https://dc.lft.to/lastmile_qr_scan", "ios": "https://dc.lft.to/lastmile_qr_scan"}, "fusion_lon": 0.0}, {"lat": 38.858033, "is_disabled": 0, "type": "electric_scooter", "lon": -76.98713883333333, "bike_id": "2c78ec902323eaa4bf9a309deb621739", "fusion_lat": 0.0, "name": "2c78ec902323eaa4bf9a309deb621739", "is_reserved": 0, "rental_uris": {"android": "https://dc.lft.to/lastmile_qr_scan", "ios": "https://dc.lft.to/lastmile_qr_scan"}, "fusion_lon": 0.0}, {"lat": 38.883401, "is_disabled": 0, "type": "electric_scooter", "lon": -77.03153683333333, "bike_id": "e920a7e63f3b098b62b420e94719133d", "fusion_lat": 0.0, "name": "e920a7e63f3b098b62b420e94719133d", "is_reserved": 0, "rental_uris": {"android": "https://dc.lft.to/lastmile_qr_scan", "ios": "https://dc.lft.to/lastmile_qr_scan"}, "fusion_lon": 0.0}, {"lat": 38.9239375, "is_disabled": 0, "type": "electric_scooter", "lon": -77.00068583333334, "bike_id": "1d3e0087d9b0c709e02a588688a4ca0e", "fusion_lat": 0.0, "name": "1d3e0087d9b0c709e02a588688a4ca0e", "is_reserved": 0, "rental_uris": {"android": "https://dc.lft.to/lastmile_qr_scan", "ios": "https://dc.lft.to/lastmile_qr_scan"}, "fusion_lon": 0.0}, {"lat": 38.86110883333333, "is_disabled": 0, "type": "electric_scooter", "lon": -76.967594, "bike_id": "5ba7fa387099d59556ced7b3156d2995", "fusion_lat": 0.0, "name": "5ba7fa387099d59556ced7b3156d2995", "is_reserved": 0, "rental_uris": {"android": "https://dc.lft.to/lastmile_qr_scan", "ios": "https://dc.lft.to/lastmile_qr_scan"}, "fusion_lon": 0.0}, {"lat": 38.898814, "is_disabled": 0, "type": "electric_scooter", "lon": -77.02195766666667, "bike_id": "84d303118c09b84ffe6aa12c958a7c96", "fusion_lat": 0.0, "name": "84d303118c09b84ffe6aa12c958a7c96", "is_reserved": 0, "rental_uris": {"android": "https://dc.lft.to/lastmile_qr_scan", "ios": "https://dc.lft.to/lastmile_qr_scan"}, "fusion_lon": 0.0}, {"lat": 38.92410866666667, "is_disabled": 0, "type": "electric_scooter", "lon": -77.035525, "bike_id": "3fe58b7fff09b95a31a493c37c890b61", "fusion_lat": 0.0, "name": "3fe58b7fff09b95a31a493c37c890b61", "is_reserved": 0, "rental_uris": {"android": "https://dc.lft.to/lastmile_qr_scan", "ios": "https://dc.lft.to/lastmile_qr_scan"}, "fusion_lon": 0.0}, {"lat": 38.879540166666665, "is_disabled": 0, "type": "electric_scooter", "lon": -77.007336, "bike_id": "54bdaad9f6c1135dd0d5c1485c68e45f", "fusion_lat": 0.0, "name": "54bdaad9f6c1135dd0d5c1485c68e45f", "is_reserved": 0, "rental_uris": {"android": "https://dc.lft.to/lastmile_qr_scan", "ios": "https://dc.lft.to/lastmile_qr_scan"}, "fusion_lon": 0.0}, {"lat": 38.917100833333336, "is_disabled": 0, "type": "electric_scooter", "lon": -77.03222116666667, "bike_id": "938977efc85719ae62429d09fac63615", "fusion_lat": 0.0, "name": "938977efc85719ae62429d09fac63615", "is_reserved": 0, "rental_uris": {"android": "https://dc.lft.to/lastmile_qr_scan", "ios": "https://dc.lft.to/lastmile_qr_scan"}, "fusion_lon": 0.0}, {"lat": 38.913420333333335, "is_disabled": 0, "type": "electric_scooter", "lon": -77.00229216666666, "bike_id": "212f0dab86e6a2185fc7f3d282e89bc3", "fusion_lat": 0.0, "name": "212f0dab86e6a2185fc7f3d282e89bc3", "is_reserved": 0, "rental_uris": {"android": "https://dc.lft.to/lastmile_qr_scan", "ios": "https://dc.lft.to/lastmile_qr_scan"}, "fusion_lon": 0.0}, {"lat": 38.92342166666667, "is_disabled": 0, "type": "electric_scooter", "lon": -77.01904933333333, "bike_id": "154bafe583f4baccbc75eb392afc10c5", "fusion_lat": 0.0, "name": "154bafe583f4baccbc75eb392afc10c5", "is_reserved": 0, "rental_uris": {"android": "https://dc.lft.to/lastmile_qr_scan", "ios": "https://dc.lft.to/lastmile_qr_scan"}, "fusion_lon": 0.0}, {"lat": 38.8321255, "is_disabled": 0, "type": "electric_bike", "lon": -76.94625616666667, "bike_id": "d7696061c7b983f06a7218e7b7716a39", "fusion_lat": 0.0, "name": "d7696061c7b983f06a7218e7b7716a39", "is_reserved": 0, "rental_uris": {"android": "https://dc.lft.to/lastmile_qr_scan", "ios": "https://dc.lft.to/lastmile_qr_scan"}, "fusion_lon": 0.0}, {"lat": 38.899882, "is_disabled": 0, "type": "electric_scooter", "lon": -77.05263466666666, "bike_id": "8e92e35122c84d108bfa175e52ff16d7", "fusion_lat": 0.0, "name": "8e92e35122c84d108bfa175e52ff16d7", "is_reserved": 0, "rental_uris": {"android": "https://dc.lft.to/lastmile_qr_scan", "ios": "https://dc.lft.to/lastmile_qr_scan"}, "fusion_lon": 0.0}, {"lat": 38.99327816666667, "is_disabled": 0, "type": "electric_bike", "lon": -77.03296216666666, "bike_id": "1d39bff936fd0e6ed98be734f9f1ec5f", "fusion_lat": 0.0, "name": "1d39bff936fd0e6ed98be734f9f1ec5f", "is_reserved": 0, "rental_uris": {"android": "https://dc.lft.to/lastmile_qr_scan", "ios": "https://dc.lft.to/lastmile_qr_scan"}, "fusion_lon": 0.0}, {"lat": 38.909915, "is_disabled": 0, "type": "electric_scooter", "lon": -77.027156, "bike_id": "b63ca5a703f5bdb3922f04372fba0eef", "fusion_lat": 0.0, "name": "b63ca5a703f5bdb3922f04372fba0eef", "is_reserved": 0, "rental_uris": {"android": "https://dc.lft.to/lastmile_qr_scan", "ios": "https://dc.lft.to/lastmile_qr_scan"}, "fusion_lon": 0.0}, {"lat": 38.90413866666667, "is_disabled": 0, "type": "electric_scooter", "lon": -76.99284216666666, "bike_id": "704099632b1ef1d1180083f680f243d2", "fusion_lat": 0.0, "name": "704099632b1ef1d1180083f680f243d2", "is_reserved": 0, "rental_uris": {"android": "https://dc.lft.to/lastmile_qr_scan", "ios": "https://dc.lft.to/lastmile_qr_scan"}, "fusion_lon": 0.0}, {"lat": 38.8733885, "is_disabled": 0, "type": "electric_bike", "lon": -77.01855133333333, "bike_id": "e4c9eff5e6a3722aa2de7f69f0f8d442", "fusion_lat": 0.0, "name": "e4c9eff5e6a3722aa2de7f69f0f8d442", "is_reserved": 0, "rental_uris": {"android": "https://dc.lft.to/lastmile_qr_scan", "ios": "https://dc.lft.to/lastmile_qr_scan"}, "fusion_lon": 0.0}, {"lat": 38.887704666666664, "is_disabled": 0, "type": "electric_scooter", "lon": -77.04349716666667, "bike_id": "88001aa297af9fd5b099d58dc96831bf", "fusion_lat": 0.0, "name": "88001aa297af9fd5b099d58dc96831bf", "is_reserved": 0, "rental_uris": {"android": "https://dc.lft.to/lastmile_qr_scan", "ios": "https://dc.lft.to/lastmile_qr_scan"}, "fusion_lon": 0.0}, {"lat": 38.89996633333333, "is_disabled": 0, "type": "electric_scooter", "lon": -77.0212195, "bike_id": "5301960f20e5516c0bcae3f753c144a0", "fusion_lat": 0.0, "name": "5301960f20e5516c0bcae3f753c144a0", "is_reserved": 0, "rental_uris": {"android": "https://dc.lft.to/lastmile_qr_scan", "ios": "https://dc.lft.to/lastmile_qr_scan"}, "fusion_lon": 0.0}, {"lat": 38.8669815, "is_disabled": 0, "type": "electric_scooter", "lon": -76.98712783333333, "bike_id": "13cb03445bd627cd982c9293decc4168", "fusion_lat": 0.0, "name": "13cb03445bd627cd982c9293decc4168", "is_reserved": 0, "rental_uris": {"android": "https://dc.lft.to/lastmile_qr_scan", "ios": "https://dc.lft.to/lastmile_qr_scan"}, "fusion_lon": 0.0}, {"lat": 38.8943335, "is_disabled": 0, "type": "electric_scooter", "lon": -77.03180766666667, "bike_id": "90fcb2132748aae946af52afdc6ab9dc", "fusion_lat": 0.0, "name": "90fcb2132748aae946af52afdc6ab9dc", "is_reserved": 0, "rental_uris": {"android": "https://dc.lft.to/lastmile_qr_scan", "ios": "https://dc.lft.to/lastmile_qr_scan"}, "fusion_lon": 0.0}, {"lat": 38.91683966666667, "is_disabled": 0, "type": "electric_scooter", "lon": -77.02969883333333, "bike_id": "1286ea07f4b3645c2391394503d35e1d", "fusion_lat": 0.0, "name": "1286ea07f4b3645c2391394503d35e1d", "is_reserved": 0, "rental_uris": {"android": "https://dc.lft.to/lastmile_qr_scan", "ios": "https://dc.lft.to/lastmile_qr_scan"}, "fusion_lon": 0.0}, {"lat": 38.95258416666667, "is_disabled": 0, "type": "electric_bike", "lon": -77.02396683333333, "bike_id": "739354312a1fbc214c8eb18ed6cc5cbf", "fusion_lat": 0.0, "name": "739354312a1fbc214c8eb18ed6cc5cbf", "is_reserved": 0, "rental_uris": {"android": "https://dc.lft.to/lastmile_qr_scan", "ios": "https://dc.lft.to/lastmile_qr_scan"}, "fusion_lon": 0.0}, {"lat": 38.910042833333335, "is_disabled": 0, "type": "electric_scooter", "lon": -76.986193, "bike_id": "8b58c13ca9e013dfe9875b1337fe9b97", "fusion_lat": 0.0, "name": "8b58c13ca9e013dfe9875b1337fe9b97", "is_reserved": 0, "rental_uris": {"android": "https://dc.lft.to/lastmile_qr_scan", "ios": "https://dc.lft.to/lastmile_qr_scan"}, "fusion_lon": 0.0}, {"lat": 38.899718666666665, "is_disabled": 0, "type": "electric_scooter", "lon": -77.03363033333333, "bike_id": "a72ac9ac684b734c63c656c9046f9517", "fusion_lat": 0.0, "name": "a72ac9ac684b734c63c656c9046f9517", "is_reserved": 0, "rental_uris": {"android": "https://dc.lft.to/lastmile_qr_scan", "ios": "https://dc.lft.to/lastmile_qr_scan"}, "fusion_lon": 0.0}, {"lat": 38.9241465, "is_disabled": 0, "type": "electric_scooter", "lon": -77.029702, "bike_id": "410e21142b32f6e7e4919328658faa91", "fusion_lat": 0.0, "name": "410e21142b32f6e7e4919328658faa91", "is_reserved": 0, "rental_uris": {"android": "https://dc.lft.to/lastmile_qr_scan", "ios": "https://dc.lft.to/lastmile_qr_scan"}, "fusion_lon": 0.0}, {"lat": 38.90147316666667, "is_disabled": 0, "type": "electric_scooter", "lon": -77.0158625, "bike_id": "221de5b9b1d61cc6e15dca7f87e3436f", "fusion_lat": 0.0, "name": "221de5b9b1d61cc6e15dca7f87e3436f", "is_reserved": 0, "rental_uris": {"android": "https://dc.lft.to/lastmile_qr_scan", "ios": "https://dc.lft.to/lastmile_qr_scan"}, "fusion_lon": 0.0}, {"lat": 38.930901, "is_disabled": 0, "type": "electric_scooter", "lon": -77.07746766666666, "bike_id": "30278ffdf27ca4eeb8e5a18945fbd238", "fusion_lat": 0.0, "name": "30278ffdf27ca4eeb8e5a18945fbd238", "is_reserved": 0, "rental_uris": {"android": "https://dc.lft.to/lastmile_qr_scan", "ios": "https://dc.lft.to/lastmile_qr_scan"}, "fusion_lon": 0.0}, {"lat": 38.960967, "is_disabled": 0, "type": "electric_scooter", "lon": -77.0828365, "bike_id": "f4df2cb8630550f65e4385415db3c200", "fusion_lat": 0.0, "name": "f4df2cb8630550f65e4385415db3c200", "is_reserved": 0, "rental_uris": {"android": "https://dc.lft.to/lastmile_qr_scan", "ios": "https://dc.lft.to/lastmile_qr_scan"}, "fusion_lon": 0.0}, {"lat": 38.8912495, "is_disabled": 0, "type": "electric_scooter", "lon": -76.940962, "bike_id": "ae3a47916c43f4bfba9d8277558aef54", "fusion_lat": 0.0, "name": "ae3a47916c43f4bfba9d8277558aef54", "is_reserved": 0, "rental_uris": {"android": "https://dc.lft.to/lastmile_qr_scan", "ios": "https://dc.lft.to/lastmile_qr_scan"}, "fusion_lon": 0.0}, {"lat": 38.936565, "is_disabled": 0, "type": "electric_bike", "lon": -77.05590016666666, "bike_id": "cda557825e5a5674d2eef7d0b88227a0", "fusion_lat": 0.0, "name": "cda557825e5a5674d2eef7d0b88227a0", "is_reserved": 0, "rental_uris": {"android": "https://dc.lft.to/lastmile_qr_scan", "ios": "https://dc.lft.to/lastmile_qr_scan"}, "fusion_lon": 0.0}, {"lat": 38.919704333333335, "is_disabled": 0, "type": "electric_scooter", "lon": -77.0431905, "bike_id": "8d3378d8b846cee22bef33954ffef9f7", "fusion_lat": 0.0, "name": "8d3378d8b846cee22bef33954ffef9f7", "is_reserved": 0, "rental_uris": {"android": "https://dc.lft.to/lastmile_qr_scan", "ios": "https://dc.lft.to/lastmile_qr_scan"}, "fusion_lon": 0.0}, {"lat": 38.90268833333333, "is_disabled": 0, "type": "electric_scooter", "lon": -77.01926083333333, "bike_id": "83870a48523992a995c9f63f52dd6b6e", "fusion_lat": 0.0, "name": "83870a48523992a995c9f63f52dd6b6e", "is_reserved": 0, "rental_uris": {"android": "https://dc.lft.to/lastmile_qr_scan", "ios": "https://dc.lft.to/lastmile_qr_scan"}, "fusion_lon": 0.0}, {"lat": 38.924490666666664, "is_disabled": 0, "type": "electric_scooter", "lon": -77.041945, "bike_id": "9a5d405954839d368e826f381552bc2d", "fusion_lat": 0.0, "name": "9a5d405954839d368e826f381552bc2d", "is_reserved": 0, "rental_uris": {"android": "https://dc.lft.to/lastmile_qr_scan", "ios": "https://dc.lft.to/lastmile_qr_scan"}, "fusion_lon": 0.0}, {"lat": 38.901466166666665, "is_disabled": 0, "type": "electric_scooter", "lon": -77.00077333333333, "bike_id": "8346cc2dfc741e463cdc04193e6c1840", "fusion_lat": 0.0, "name": "8346cc2dfc741e463cdc04193e6c1840", "is_reserved": 0, "rental_uris": {"android": "https://dc.lft.to/lastmile_qr_scan", "ios": "https://dc.lft.to/lastmile_qr_scan"}, "fusion_lon": 0.0}, {"lat": 38.905255833333335, "is_disabled": 0, "type": "electric_scooter", "lon": -77.02703783333334, "bike_id": "50557635803606ec1fe9960403837be2", "fusion_lat": 0.0, "name": "50557635803606ec1fe9960403837be2", "is_reserved": 0, "rental_uris": {"android": "https://dc.lft.to/lastmile_qr_scan", "ios": "https://dc.lft.to/lastmile_qr_scan"}, "fusion_lon": 0.0}, {"lat": 38.9221125, "is_disabled": 0, "type": "electric_scooter", "lon": -77.03291333333334, "bike_id": "07f21be0a5a723a574143a52c1928a04", "fusion_lat": 0.0, "name": "07f21be0a5a723a574143a52c1928a04", "is_reserved": 0, "rental_uris": {"android": "https://dc.lft.to/lastmile_qr_scan", "ios": "https://dc.lft.to/lastmile_qr_scan"}, "fusion_lon": 0.0}, {"lat": 38.900023, "is_disabled": 0, "type": "electric_scooter", "lon": -76.99855283333333, "bike_id": "84ee6e0de02b7d1df019d3bf2109b839", "fusion_lat": 0.0, "name": "84ee6e0de02b7d1df019d3bf2109b839", "is_reserved": 0, "rental_uris": {"android": "https://dc.lft.to/lastmile_qr_scan", "ios": "https://dc.lft.to/lastmile_qr_scan"}, "fusion_lon": 0.0}, {"lat": 39.01595433333333, "is_disabled": 0, "type": "electric_bike", "lon": -77.0442575, "bike_id": "7bf66fe684274a5b4e957788e50a0ea1", "fusion_lat": 0.0, "name": "7bf66fe684274a5b4e957788e50a0ea1", "is_reserved": 0, "rental_uris": {"android": "https://dc.lft.to/lastmile_qr_scan", "ios": "https://dc.lft.to/lastmile_qr_scan"}, "fusion_lon": 0.0}, {"lat": 38.88488383333333, "is_disabled": 0, "type": "electric_scooter", "lon": -77.0347115, "bike_id": "367e6806fcb321388599f42a1840d79d", "fusion_lat": 0.0, "name": "367e6806fcb321388599f42a1840d79d", "is_reserved": 0, "rental_uris": {"android": "https://dc.lft.to/lastmile_qr_scan", "ios": "https://dc.lft.to/lastmile_qr_scan"}, "fusion_lon": 0.0}, {"lat": 38.98277933333333, "is_disabled": 0, "type": "electric_bike", "lon": -77.0254115, "bike_id": "3765b9c0a3a4db209925132c6a7b8101", "fusion_lat": 0.0, "name": "3765b9c0a3a4db209925132c6a7b8101", "is_reserved": 0, "rental_uris": {"android": "https://dc.lft.to/lastmile_qr_scan", "ios": "https://dc.lft.to/lastmile_qr_scan"}, "fusion_lon": 0.0}, {"lat": 38.896203166666666, "is_disabled": 0, "type": "electric_scooter", "lon": -77.021502, "bike_id": "390860c3d6daf8364b16368542ce3903", "fusion_lat": 0.0, "name": "390860c3d6daf8364b16368542ce3903", "is_reserved": 0, "rental_uris": {"android": "https://dc.lft.to/lastmile_qr_scan", "ios": "https://dc.lft.to/lastmile_qr_scan"}, "fusion_lon": 0.0}, {"lat": 38.837301833333335, "is_disabled": 0, "type": "electric_bike", "lon": -76.99762266666667, "bike_id": "21b71aa7d32e5af57794c43060437faf", "fusion_lat": 0.0, "name": "21b71aa7d32e5af57794c43060437faf", "is_reserved": 0, "rental_uris": {"android": "https://dc.lft.to/lastmile_qr_scan", "ios": "https://dc.lft.to/lastmile_qr_scan"}, "fusion_lon": 0.0}, {"lat": 38.86510366666667, "is_disabled": 0, "type": "electric_scooter", "lon": -76.990062, "bike_id": "01bec2e20bf787f0cec2a147707562a5", "fusion_lat": 0.0, "name": "01bec2e20bf787f0cec2a147707562a5", "is_reserved": 0, "rental_uris": {"android": "https://dc.lft.to/lastmile_qr_scan", "ios": "https://dc.lft.to/lastmile_qr_scan"}, "fusion_lon": 0.0}, {"lat": 38.9225545, "is_disabled": 0, "type": "electric_scooter", "lon": -77.042495, "bike_id": "2abb10ab8e32641b449ede4d98738a1e", "fusion_lat": 0.0, "name": "2abb10ab8e32641b449ede4d98738a1e", "is_reserved": 0, "rental_uris": {"android": "https://dc.lft.to/lastmile_qr_scan", "ios": "https://dc.lft.to/lastmile_qr_scan"}, "fusion_lon": 0.0}, {"lat": 38.9211835, "is_disabled": 0, "type": "electric_scooter", "lon": -77.04156883333333, "bike_id": "be8a324fcdd2ede6521d48bfa5243c99", "fusion_lat": 0.0, "name": "be8a324fcdd2ede6521d48bfa5243c99", "is_reserved": 0, "rental_uris": {"android": "https://dc.lft.to/lastmile_qr_scan", "ios": "https://dc.lft.to/lastmile_qr_scan"}, "fusion_lon": 0.0}, {"lat": 38.93413983333333, "is_disabled": 0, "type": "electric_scooter", "lon": -77.02471133333333, "bike_id": "b20f097fd652a9a43b65548b04960279", "fusion_lat": 0.0, "name": "b20f097fd652a9a43b65548b04960279", "is_reserved": 0, "rental_uris": {"android": "https://dc.lft.to/lastmile_qr_scan", "ios": "https://dc.lft.to/lastmile_qr_scan"}, "fusion_lon": 0.0}, {"lat": 38.9166275, "is_disabled": 0, "type": "electric_scooter", "lon": -77.0472505, "bike_id": "e65edea4cb576561331fcffb2f05f8e6", "fusion_lat": 0.0, "name": "e65edea4cb576561331fcffb2f05f8e6", "is_reserved": 0, "rental_uris": {"android": "https://dc.lft.to/lastmile_qr_scan", "ios": "https://dc.lft.to/lastmile_qr_scan"}, "fusion_lon": 0.0}, {"lat": 38.8954235, "is_disabled": 0, "type": "electric_scooter", "lon": -77.00435616666667, "bike_id": "07eec7574bcd91079b29b10b4ed3c12b", "fusion_lat": 0.0, "name": "07eec7574bcd91079b29b10b4ed3c12b", "is_reserved": 0, "rental_uris": {"android": "https://dc.lft.to/lastmile_qr_scan", "ios": "https://dc.lft.to/lastmile_qr_scan"}, "fusion_lon": 0.0}, {"lat": 38.901315, "is_disabled": 0, "type": "electric_scooter", "lon": -77.02934183333333, "bike_id": "a33ba97ca90ee5090925cff873946f16", "fusion_lat": 0.0, "name": "a33ba97ca90ee5090925cff873946f16", "is_reserved": 0, "rental_uris": {"android": "https://dc.lft.to/lastmile_qr_scan", "ios": "https://dc.lft.to/lastmile_qr_scan"}, "fusion_lon": 0.0}, {"lat": 38.84271616666667, "is_disabled": 0, "type": "electric_bike", "lon": -76.98845966666667, "bike_id": "ee727a5ddfb7d39d1fb3d90c09d0ab9c", "fusion_lat": 0.0, "name": "ee727a5ddfb7d39d1fb3d90c09d0ab9c", "is_reserved": 0, "rental_uris": {"android": "https://dc.lft.to/lastmile_qr_scan", "ios": "https://dc.lft.to/lastmile_qr_scan"}, "fusion_lon": 0.0}, {"lat": 38.92656266666667, "is_disabled": 0, "type": "electric_scooter", "lon": -76.997487, "bike_id": "5f87cbc184087854c0cbd3a8530870b5", "fusion_lat": 0.0, "name": "5f87cbc184087854c0cbd3a8530870b5", "is_reserved": 0, "rental_uris": {"android": "https://dc.lft.to/lastmile_qr_scan", "ios": "https://dc.lft.to/lastmile_qr_scan"}, "fusion_lon": 0.0}, {"lat": 38.856838833333335, "is_disabled": 0, "type": "electric_scooter", "lon": -76.9818485, "bike_id": "52a6bf2e4e3c5c82ab4c05b865785787", "fusion_lat": 0.0, "name": "52a6bf2e4e3c5c82ab4c05b865785787", "is_reserved": 0, "rental_uris": {"android": "https://dc.lft.to/lastmile_qr_scan", "ios": "https://dc.lft.to/lastmile_qr_scan"}, "fusion_lon": 0.0}, {"lat": 38.865951833333334, "is_disabled": 0, "type": "electric_bike", "lon": -76.932303, "bike_id": "3a8c4ab56bd368f230721deca04f1d19", "fusion_lat": 0.0, "name": "3a8c4ab56bd368f230721deca04f1d19", "is_reserved": 0, "rental_uris": {"android": "https://dc.lft.to/lastmile_qr_scan", "ios": "https://dc.lft.to/lastmile_qr_scan"}, "fusion_lon": 0.0}, {"lat": 38.91819366666667, "is_disabled": 0, "type": "electric_scooter", "lon": -76.999701, "bike_id": "e7fe25c48e7de4b067ccc9d3736c989e", "fusion_lat": 0.0, "name": "e7fe25c48e7de4b067ccc9d3736c989e", "is_reserved": 0, "rental_uris": {"android": "https://dc.lft.to/lastmile_qr_scan", "ios": "https://dc.lft.to/lastmile_qr_scan"}, "fusion_lon": 0.0}, {"lat": 38.9112465, "is_disabled": 0, "type": "electric_scooter", "lon": -77.037345, "bike_id": "ffc8d4cc4b09989981b87d555896be69", "fusion_lat": 0.0, "name": "ffc8d4cc4b09989981b87d555896be69", "is_reserved": 0, "rental_uris": {"android": "https://dc.lft.to/lastmile_qr_scan", "ios": "https://dc.lft.to/lastmile_qr_scan"}, "fusion_lon": 0.0}, {"lat": 38.9099645, "is_disabled": 0, "type": "electric_scooter", "lon": -77.04004516666667, "bike_id": "c718b2c8304a70ba8df38d16f3370853", "fusion_lat": 0.0, "name": "c718b2c8304a70ba8df38d16f3370853", "is_reserved": 0, "rental_uris": {"android": "https://dc.lft.to/lastmile_qr_scan", "ios": "https://dc.lft.to/lastmile_qr_scan"}, "fusion_lon": 0.0}, {"lat": 38.932292333333336, "is_disabled": 0, "type": "electric_scooter", "lon": -77.0441375, "bike_id": "16e64c2bd9b03936bdec88e5100ad78a", "fusion_lat": 0.0, "name": "16e64c2bd9b03936bdec88e5100ad78a", "is_reserved": 0, "rental_uris": {"android": "https://dc.lft.to/lastmile_qr_scan", "ios": "https://dc.lft.to/lastmile_qr_scan"}, "fusion_lon": 0.0}, {"lat": 38.91681883333333, "is_disabled": 0, "type": "electric_scooter", "lon": -77.02956166666667, "bike_id": "5b072309d19a0fbe464dcd27435d3914", "fusion_lat": 0.0, "name": "5b072309d19a0fbe464dcd27435d3914", "is_reserved": 0, "rental_uris": {"android": "https://dc.lft.to/lastmile_qr_scan", "ios": "https://dc.lft.to/lastmile_qr_scan"}, "fusion_lon": 0.0}, {"lat": 38.93463666666667, "is_disabled": 0, "type": "electric_scooter", "lon": -77.03247833333333, "bike_id": "6c785e36a006bd8840ed5fb5d9b6a2c6", "fusion_lat": 0.0, "name": "6c785e36a006bd8840ed5fb5d9b6a2c6", "is_reserved": 0, "rental_uris": {"android": "https://dc.lft.to/lastmile_qr_scan", "ios": "https://dc.lft.to/lastmile_qr_scan"}, "fusion_lon": 0.0}, {"lat": 38.885186, "is_disabled": 0, "type": "electric_scooter", "lon": -77.01502666666667, "bike_id": "0cf57754fd4c8522bbba34d453be7fda", "fusion_lat": 0.0, "name": "0cf57754fd4c8522bbba34d453be7fda", "is_reserved": 0, "rental_uris": {"android": "https://dc.lft.to/lastmile_qr_scan", "ios": "https://dc.lft.to/lastmile_qr_scan"}, "fusion_lon": 0.0}, {"lat": 38.96217033333333, "is_disabled": 0, "type": "electric_bike", "lon": -77.02773583333334, "bike_id": "eaaa2fc3f9ab4f693b97b0bcd9c3fae0", "fusion_lat": 0.0, "name": "eaaa2fc3f9ab4f693b97b0bcd9c3fae0", "is_reserved": 0, "rental_uris": {"android": "https://dc.lft.to/lastmile_qr_scan", "ios": "https://dc.lft.to/lastmile_qr_scan"}, "fusion_lon": 0.0}, {"lat": 38.86519633333333, "is_disabled": 0, "type": "electric_scooter", "lon": -76.99029266666666, "bike_id": "093bd474fc2f452aedf4f575e723093d", "fusion_lat": 0.0, "name": "093bd474fc2f452aedf4f575e723093d", "is_reserved": 0, "rental_uris": {"android": "https://dc.lft.to/lastmile_qr_scan", "ios": "https://dc.lft.to/lastmile_qr_scan"}, "fusion_lon": 0.0}, {"lat": 38.920238499999996, "is_disabled": 0, "type": "electric_scooter", "lon": -77.04195066666666, "bike_id": "943566999f5e407927250308ea2ed1cf", "fusion_lat": 0.0, "name": "943566999f5e407927250308ea2ed1cf", "is_reserved": 0, "rental_uris": {"android": "https://dc.lft.to/lastmile_qr_scan", "ios": "https://dc.lft.to/lastmile_qr_scan"}, "fusion_lon": 0.0}, {"lat": 38.917612166666665, "is_disabled": 0, "type": "electric_scooter", "lon": -77.00451516666666, "bike_id": "c1dc68e66953d9a631afe3971b010425", "fusion_lat": 0.0, "name": "c1dc68e66953d9a631afe3971b010425", "is_reserved": 0, "rental_uris": {"android": "https://dc.lft.to/lastmile_qr_scan", "ios": "https://dc.lft.to/lastmile_qr_scan"}, "fusion_lon": 0.0}, {"lat": 38.8522565, "is_disabled": 0, "type": "electric_bike", "lon": -77.12958816666666, "bike_id": "6099a6445ccf19ba06aea9c34b8851ae", "fusion_lat": 0.0, "name": "6099a6445ccf19ba06aea9c34b8851ae", "is_reserved": 0, "rental_uris": {"android": "https://dc.lft.to/lastmile_qr_scan", "ios": "https://dc.lft.to/lastmile_qr_scan"}, "fusion_lon": 0.0}, {"lat": 38.90061733333334, "is_disabled": 0, "type": "electric_scooter", "lon": -77.00763533333334, "bike_id": "288c16360bbedd784b3d3716a95c647f", "fusion_lat": 0.0, "name": "288c16360bbedd784b3d3716a95c647f", "is_reserved": 0, "rental_uris": {"android": "https://dc.lft.to/lastmile_qr_scan", "ios": "https://dc.lft.to/lastmile_qr_scan"}, "fusion_lon": 0.0}, {"lat": 38.89615333333333, "is_disabled": 0, "type": "electric_scooter", "lon": -77.044102, "bike_id": "b9d626dc3827dc26a329edb6bd62a25a", "fusion_lat": 0.0, "name": "b9d626dc3827dc26a329edb6bd62a25a", "is_reserved": 0, "rental_uris": {"android": "https://dc.lft.to/lastmile_qr_scan", "ios": "https://dc.lft.to/lastmile_qr_scan"}, "fusion_lon": 0.0}, {"lat": 38.80063166666667, "is_disabled": 0, "type": "electric_bike", "lon": -77.07114633333333, "bike_id": "873983a186c6691c7dd58136ef40ff8d", "fusion_lat": 0.0, "name": "873983a186c6691c7dd58136ef40ff8d", "is_reserved": 0, "rental_uris": {"android": "https://dc.lft.to/lastmile_qr_scan", "ios": "https://dc.lft.to/lastmile_qr_scan"}, "fusion_lon": 0.0}, {"lat": 38.921691833333334, "is_disabled": 0, "type": "electric_scooter", "lon": -77.05136816666666, "bike_id": "ac29c75456fbc0bce240bc28af97df0d", "fusion_lat": 0.0, "name": "ac29c75456fbc0bce240bc28af97df0d", "is_reserved": 0, "rental_uris": {"android": "https://dc.lft.to/lastmile_qr_scan", "ios": "https://dc.lft.to/lastmile_qr_scan"}, "fusion_lon": 0.0}, {"lat": 38.92587983333333, "is_disabled": 0, "type": "electric_scooter", "lon": -77.0228135, "bike_id": "a09dedcafe9d8dd25377d07de5f0a959", "fusion_lat": 0.0, "name": "a09dedcafe9d8dd25377d07de5f0a959", "is_reserved": 0, "rental_uris": {"android": "https://dc.lft.to/lastmile_qr_scan", "ios": "https://dc.lft.to/lastmile_qr_scan"}, "fusion_lon": 0.0}, {"lat": 38.900839500000004, "is_disabled": 0, "type": "electric_scooter", "lon": -77.04932166666667, "bike_id": "1cac0aec54ea8278fbc5fb0c04f3575b", "fusion_lat": 0.0, "name": "1cac0aec54ea8278fbc5fb0c04f3575b", "is_reserved": 0, "rental_uris": {"android": "https://dc.lft.to/lastmile_qr_scan", "ios": "https://dc.lft.to/lastmile_qr_scan"}, "fusion_lon": 0.0}, {"lat": 38.939719333333336, "is_disabled": 0, "type": "electric_scooter", "lon": -77.03591016666667, "bike_id": "a9b1e7b7b4c7f8834326c7d4d2c6fadf", "fusion_lat": 0.0, "name": "a9b1e7b7b4c7f8834326c7d4d2c6fadf", "is_reserved": 0, "rental_uris": {"android": "https://dc.lft.to/lastmile_qr_scan", "ios": "https://dc.lft.to/lastmile_qr_scan"}, "fusion_lon": 0.0}, {"lat": 38.92026383333334, "is_disabled": 0, "type": "electric_scooter", "lon": -77.03726766666666, "bike_id": "cc3acc31ad48f9cdd76553a8fd2a10d1", "fusion_lat": 0.0, "name": "cc3acc31ad48f9cdd76553a8fd2a10d1", "is_reserved": 0, "rental_uris": {"android": "https://dc.lft.to/lastmile_qr_scan", "ios": "https://dc.lft.to/lastmile_qr_scan"}, "fusion_lon": 0.0}, {"lat": 38.956487, "is_disabled": 0, "type": "electric_scooter", "lon": -77.02397616666667, "bike_id": "82ac8073b1b5196f64741fd6990e0c90", "fusion_lat": 0.0, "name": "82ac8073b1b5196f64741fd6990e0c90", "is_reserved": 0, "rental_uris": {"android": "https://dc.lft.to/lastmile_qr_scan", "ios": "https://dc.lft.to/lastmile_qr_scan"}, "fusion_lon": 0.0}, {"lat": 38.95768283333334, "is_disabled": 0, "type": "electric_scooter", "lon": -77.02739366666667, "bike_id": "dce8b1eda3764de67496c979e514c5c5", "fusion_lat": 0.0, "name": "dce8b1eda3764de67496c979e514c5c5", "is_reserved": 0, "rental_uris": {"android": "https://dc.lft.to/lastmile_qr_scan", "ios": "https://dc.lft.to/lastmile_qr_scan"}, "fusion_lon": 0.0}, {"lat": 38.932953166666664, "is_disabled": 0, "type": "electric_scooter", "lon": -77.03547683333333, "bike_id": "7b487cd636600cb76110b1c71141410e", "fusion_lat": 0.0, "name": "7b487cd636600cb76110b1c71141410e", "is_reserved": 0, "rental_uris": {"android": "https://dc.lft.to/lastmile_qr_scan", "ios": "https://dc.lft.to/lastmile_qr_scan"}, "fusion_lon": 0.0}, {"lat": 38.908936833333335, "is_disabled": 0, "type": "electric_scooter", "lon": -77.0367885, "bike_id": "57aa10de41c16ffbe2fc11ef71e98819", "fusion_lat": 0.0, "name": "57aa10de41c16ffbe2fc11ef71e98819", "is_reserved": 0, "rental_uris": {"android": "https://dc.lft.to/lastmile_qr_scan", "ios": "https://dc.lft.to/lastmile_qr_scan"}, "fusion_lon": 0.0}, {"lat": 38.93341066666667, "is_disabled": 0, "type": "electric_scooter", "lon": -76.99307783333333, "bike_id": "bc8e4aa9917fa701fdabea2e3c022c92", "fusion_lat": 0.0, "name": "bc8e4aa9917fa701fdabea2e3c022c92", "is_reserved": 0, "rental_uris": {"android": "https://dc.lft.to/lastmile_qr_scan", "ios": "https://dc.lft.to/lastmile_qr_scan"}, "fusion_lon": 0.0}, {"lat": 38.901276, "is_disabled": 0, "type": "electric_scooter", "lon": -76.98648933333334, "bike_id": "3c58eaaed2d88eaa3cddd70b725bdb0b", "fusion_lat": 0.0, "name": "3c58eaaed2d88eaa3cddd70b725bdb0b", "is_reserved": 0, "rental_uris": {"android": "https://dc.lft.to/lastmile_qr_scan", "ios": "https://dc.lft.to/lastmile_qr_scan"}, "fusion_lon": 0.0}, {"lat": 38.900094333333335, "is_disabled": 0, "type": "electric_scooter", "lon": -76.9224365, "bike_id": "a2fa7575418538fdab09e0c3589f94f5", "fusion_lat": 0.0, "name": "a2fa7575418538fdab09e0c3589f94f5", "is_reserved": 0, "rental_uris": {"android": "https://dc.lft.to/lastmile_qr_scan", "ios": "https://dc.lft.to/lastmile_qr_scan"}, "fusion_lon": 0.0}, {"lat": 38.900482833333335, "is_disabled": 0, "type": "electric_scooter", "lon": -77.02585233333333, "bike_id": "04f4bdc91bf67cdaa9e1e1ba78e17805", "fusion_lat": 0.0, "name": "04f4bdc91bf67cdaa9e1e1ba78e17805", "is_reserved": 0, "rental_uris": {"android": "https://dc.lft.to/lastmile_qr_scan", "ios": "https://dc.lft.to/lastmile_qr_scan"}, "fusion_lon": 0.0}, {"lat": 38.92749333333333, "is_disabled": 0, "type": "electric_scooter", "lon": -77.02962483333333, "bike_id": "d59b564da09bd32a70713343322e9466", "fusion_lat": 0.0, "name": "d59b564da09bd32a70713343322e9466", "is_reserved": 0, "rental_uris": {"android": "https://dc.lft.to/lastmile_qr_scan", "ios": "https://dc.lft.to/lastmile_qr_scan"}, "fusion_lon": 0.0}, {"lat": 38.91554466666667, "is_disabled": 0, "type": "electric_scooter", "lon": -77.02428283333333, "bike_id": "77992de6b1b99699fbf7cda0de44164a", "fusion_lat": 0.0, "name": "77992de6b1b99699fbf7cda0de44164a", "is_reserved": 0, "rental_uris": {"android": "https://dc.lft.to/lastmile_qr_scan", "ios": "https://dc.lft.to/lastmile_qr_scan"}, "fusion_lon": 0.0}, {"lat": 38.93150833333333, "is_disabled": 0, "type": "electric_scooter", "lon": -77.02132683333333, "bike_id": "07d0f1c84379db6f74adcd00242b3885", "fusion_lat": 0.0, "name": "07d0f1c84379db6f74adcd00242b3885", "is_reserved": 0, "rental_uris": {"android": "https://dc.lft.to/lastmile_qr_scan", "ios": "https://dc.lft.to/lastmile_qr_scan"}, "fusion_lon": 0.0}, {"lat": 38.91447316666667, "is_disabled": 0, "type": "electric_scooter", "lon": -77.0297235, "bike_id": "fea5d9ab88473666bfc0c160089b79e6", "fusion_lat": 0.0, "name": "fea5d9ab88473666bfc0c160089b79e6", "is_reserved": 0, "rental_uris": {"android": "https://dc.lft.to/lastmile_qr_scan", "ios": "https://dc.lft.to/lastmile_qr_scan"}, "fusion_lon": 0.0}, {"lat": 38.884912, "is_disabled": 0, "type": "electric_scooter", "lon": -77.00724183333334, "bike_id": "25818203b39adf64f0b68bc23c20fffb", "fusion_lat": 0.0, "name": "25818203b39adf64f0b68bc23c20fffb", "is_reserved": 0, "rental_uris": {"android": "https://dc.lft.to/lastmile_qr_scan", "ios": "https://dc.lft.to/lastmile_qr_scan"}, "fusion_lon": 0.0}, {"lat": 38.93961483333333, "is_disabled": 0, "type": "electric_scooter", "lon": -77.02751833333333, "bike_id": "d6aaf41f59457b61c8530da9372cafd0", "fusion_lat": 0.0, "name": "d6aaf41f59457b61c8530da9372cafd0", "is_reserved": 0, "rental_uris": {"android": "https://dc.lft.to/lastmile_qr_scan", "ios": "https://dc.lft.to/lastmile_qr_scan"}, "fusion_lon": 0.0}, {"lat": 38.92085766666667, "is_disabled": 0, "type": "electric_scooter", "lon": -77.025361, "bike_id": "c95a15a68c812113d57db3034a67e377", "fusion_lat": 0.0, "name": "c95a15a68c812113d57db3034a67e377", "is_reserved": 0, "rental_uris": {"android": "https://dc.lft.to/lastmile_qr_scan", "ios": "https://dc.lft.to/lastmile_qr_scan"}, "fusion_lon": 0.0}, {"lat": 38.8708315, "is_disabled": 0, "type": "electric_scooter", "lon": -77.0111575, "bike_id": "baedfeab68dbfc63a399c21504aed3fb", "fusion_lat": 0.0, "name": "baedfeab68dbfc63a399c21504aed3fb", "is_reserved": 0, "rental_uris": {"android": "https://dc.lft.to/lastmile_qr_scan", "ios": "https://dc.lft.to/lastmile_qr_scan"}, "fusion_lon": 0.0}, {"lat": 38.948245166666666, "is_disabled": 0, "type": "electric_scooter", "lon": -76.999076, "bike_id": "874cd8230686ebe616aa4baadf611dd5", "fusion_lat": 0.0, "name": "874cd8230686ebe616aa4baadf611dd5", "is_reserved": 0, "rental_uris": {"android": "https://dc.lft.to/lastmile_qr_scan", "ios": "https://dc.lft.to/lastmile_qr_scan"}, "fusion_lon": 0.0}, {"lat": 38.9119465, "is_disabled": 0, "type": "electric_scooter", "lon": -77.00439783333333, "bike_id": "4806bd49c0e07fb7b0ceb03be922fcf9", "fusion_lat": 0.0, "name": "4806bd49c0e07fb7b0ceb03be922fcf9", "is_reserved": 0, "rental_uris": {"android": "https://dc.lft.to/lastmile_qr_scan", "ios": "https://dc.lft.to/lastmile_qr_scan"}, "fusion_lon": 0.0}, {"lat": 38.865111166666665, "is_disabled": 0, "type": "electric_scooter", "lon": -76.9900595, "bike_id": "53c868369785963f97e2363076bd3925", "fusion_lat": 0.0, "name": "53c868369785963f97e2363076bd3925", "is_reserved": 0, "rental_uris": {"android": "https://dc.lft.to/lastmile_qr_scan", "ios": "https://dc.lft.to/lastmile_qr_scan"}, "fusion_lon": 0.0}, {"lat": 38.878635, "is_disabled": 0, "type": "electric_bike", "lon": -77.017677, "bike_id": "2e8c1b4a9291eb5867ec0dfcae2478a8", "fusion_lat": 0.0, "name": "2e8c1b4a9291eb5867ec0dfcae2478a8", "is_reserved": 0, "rental_uris": {"android": "https://dc.lft.to/lastmile_qr_scan", "ios": "https://dc.lft.to/lastmile_qr_scan"}, "fusion_lon": 0.0}, {"lat": 38.91667783333333, "is_disabled": 0, "type": "electric_scooter", "lon": -77.03205433333333, "bike_id": "dfd725e1e8fe1ffb7fb8033f6cd2527a", "fusion_lat": 0.0, "name": "dfd725e1e8fe1ffb7fb8033f6cd2527a", "is_reserved": 0, "rental_uris": {"android": "https://dc.lft.to/lastmile_qr_scan", "ios": "https://dc.lft.to/lastmile_qr_scan"}, "fusion_lon": 0.0}, {"lat": 38.87638166666667, "is_disabled": 0, "type": "electric_scooter", "lon": -77.00559333333334, "bike_id": "9450a1fdf542e3bb2e95ea1c973b8fcb", "fusion_lat": 0.0, "name": "9450a1fdf542e3bb2e95ea1c973b8fcb", "is_reserved": 0, "rental_uris": {"android": "https://dc.lft.to/lastmile_qr_scan", "ios": "https://dc.lft.to/lastmile_qr_scan"}, "fusion_lon": 0.0}, {"lat": 38.9323545, "is_disabled": 0, "type": "electric_bike", "lon": -76.9742085, "bike_id": "b4d5b3c214801c1d92ded831ebefe4c5", "fusion_lat": 0.0, "name": "b4d5b3c214801c1d92ded831ebefe4c5", "is_reserved": 0, "rental_uris": {"android": "https://dc.lft.to/lastmile_qr_scan", "ios": "https://dc.lft.to/lastmile_qr_scan"}, "fusion_lon": 0.0}, {"lat": 38.89674516666667, "is_disabled": 0, "type": "electric_scooter", "lon": -77.00518533333333, "bike_id": "bc4d0cf8aa878aa7a43ae05c59a07f3f", "fusion_lat": 0.0, "name": "bc4d0cf8aa878aa7a43ae05c59a07f3f", "is_reserved": 0, "rental_uris": {"android": "https://dc.lft.to/lastmile_qr_scan", "ios": "https://dc.lft.to/lastmile_qr_scan"}, "fusion_lon": 0.0}, {"lat": 38.96229816666666, "is_disabled": 0, "type": "electric_bike", "lon": -77.02627966666667, "bike_id": "45a15eead37e78ff0e8f4dcd7ecc25d3", "fusion_lat": 0.0, "name": "45a15eead37e78ff0e8f4dcd7ecc25d3", "is_reserved": 0, "rental_uris": {"android": "https://dc.lft.to/lastmile_qr_scan", "ios": "https://dc.lft.to/lastmile_qr_scan"}, "fusion_lon": 0.0}, {"lat": 38.9162055, "is_disabled": 0, "type": "electric_scooter", "lon": -77.03735816666666, "bike_id": "828036e10021c6d02206afda91fa92b9", "fusion_lat": 0.0, "name": "828036e10021c6d02206afda91fa92b9", "is_reserved": 0, "rental_uris": {"android": "https://dc.lft.to/lastmile_qr_scan", "ios": "https://dc.lft.to/lastmile_qr_scan"}, "fusion_lon": 0.0}, {"lat": 38.9187215, "is_disabled": 0, "type": "electric_scooter", "lon": -77.01209583333333, "bike_id": "aa9244f72e44f4de96a5573feb93924f", "fusion_lat": 0.0, "name": "aa9244f72e44f4de96a5573feb93924f", "is_reserved": 0, "rental_uris": {"android": "https://dc.lft.to/lastmile_qr_scan", "ios": "https://dc.lft.to/lastmile_qr_scan"}, "fusion_lon": 0.0}, {"lat": 38.89202133333333, "is_disabled": 0, "type": "electric_bike", "lon": -76.97055316666666, "bike_id": "54db89b57c9001efe524470211f15b5f", "fusion_lat": 0.0, "name": "54db89b57c9001efe524470211f15b5f", "is_reserved": 0, "rental_uris": {"android": "https://dc.lft.to/lastmile_qr_scan", "ios": "https://dc.lft.to/lastmile_qr_scan"}, "fusion_lon": 0.0}, {"lat": 38.9336085, "is_disabled": 0, "type": "electric_bike", "lon": -77.09961883333334, "bike_id": "5a796694bfcdea22937f88d42441e63f", "fusion_lat": 0.0, "name": "5a796694bfcdea22937f88d42441e63f", "is_reserved": 0, "rental_uris": {"android": "https://dc.lft.to/lastmile_qr_scan", "ios": "https://dc.lft.to/lastmile_qr_scan"}, "fusion_lon": 0.0}, {"lat": 38.92854533333333, "is_disabled": 0, "type": "electric_scooter", "lon": -77.013871, "bike_id": "a960a681d7843980d0e7b9cf3b6ab344", "fusion_lat": 0.0, "name": "a960a681d7843980d0e7b9cf3b6ab344", "is_reserved": 0, "rental_uris": {"android": "https://dc.lft.to/lastmile_qr_scan", "ios": "https://dc.lft.to/lastmile_qr_scan"}, "fusion_lon": 0.0},