{"data": {"bikes": [{"lon": -77.05722666666666, "bike_id": "33609a9ccd63ad6b61d4186899a8c65a", "lat": 38.933561833333336, "fusion_lon": 0.0, "fusion_lat": 0.0, "type": "electric_scooter", "name": "33609a9ccd63ad6b61d4186899a8c65a", "is_disabled": 0, "rental_uris": {"ios": "https://dc.lft.to/lastmile_qr_scan", "android": "https://dc.lft.to/lastmile_qr_scan"}, "is_reserved": 0}, {"lon": -77.018705, "bike_id": "de111f15a74d5252d537a71bc9dda038", "lat": 38.918321666666664, "fusion_lon": 0.0, "fusion_lat": 0.0, "type": "electric_scooter", "name": "de111f15a74d5252d537a71bc9dda038", "is_disabled": 0, "rental_uris": {"ios": "https://dc.lft.to/lastmile_qr_scan", "android": "https://dc.lft.to/lastmile_qr_scan"}, "is_reserved": 0}, {"lon": -77.053016, "bike_id": "c6c48b8eea85928c346da39c06a98ef3", "lat": 38.92550933333333, "fusion_lon": 0.0, "fusion_lat": 0.0, "type": "electric_scooter", "name": "c6c48b8eea85928c346da39c06a98ef3", "is_disabled": 0, "rental_uris": {"ios": "https://dc.lft.to/lastmile_qr_scan", "android": "https://dc.lft.to/lastmile_qr_scan"}, "is_reserved": 0}, {"lon": -77.03755866666667, "bike_id": "60a7ad20aff6d67d9e4d0ff9037d7b3c", "lat": 38.90777166666667, "fusion_lon": 0.0, "fusion_lat": 0.0, "type": "electric_scooter", "name": "60a7ad20aff6d67d9e4d0ff9037d7b3c", "is_disabled": 0, "rental_uris": {"ios": "https://dc.lft.to/lastmile_qr_scan", "android": "https://dc.lft.to/lastmile_qr_scan"}, "is_reserved": 0}, {"lon": -76.9953, "bike_id": "60a88d237ca735f1fe34cad97995ebcb", "lat": 38.88375933333333, "fusion_lon": 0.0, "fusion_lat": 0.0, "type": "electric_scooter", "name": "60a88d237ca735f1fe34cad97995ebcb", "is_disabled": 0, "rental_uris": {"ios": "https://dc.lft.to/lastmile_qr_scan", "android": "https://dc.lft.to/lastmile_qr_scan"}, "is_reserved": 0}, {"lon": -76.99506533333333, "bike_id": "5eadd35eaa20fb6f178d5125907e85c7", "lat": 38.877778166666666, "fusion_lon": 0.0, "fusion_lat": 0.0, "type": "electric_scooter", "name": "5eadd35eaa20fb6f178d5125907e85c7", "is_disabled": 0, "rental_uris": {"ios": "https://dc.lft.to/lastmile_qr_scan", "android": "https://dc.lft.to/lastmile_qr_scan"}, "is_reserved": 0}, {"lon": -77.044106, "bike_id": "7210021f21aa8af480c77a98c8ae6717", "lat": 38.921288833333335, "fusion_lon": 0.0, "fusion_lat": 0.0, "type": "electric_scooter", "name": "7210021f21aa8af480c77a98c8ae6717", "is_disabled": 0, "rental_uris": {"ios": "https://dc.lft.to/lastmile_qr_scan", "android": "https://dc.lft.to/lastmile_qr_scan"}, "is_reserved": 0}, {"lon": -77.03090183333333, "bike_id": "f2ff47166153b9543087034c1fbee5a6", "lat": 38.92861666666667, "fusion_lon": 0.0, "fusion_lat": 0.0, "type": "electric_scooter", "name": "f2ff47166153b9543087034c1fbee5a6", "is_disabled": 0, "rental_uris": {"ios": "https://dc.lft.to/lastmile_qr_scan", "android": "https://dc.lft.to/lastmile_qr_scan"}, "is_reserved": 0}, {"lon": -77.11156716666666, "bike_id": "d7751925cdc09549a4da79850599909c", "lat": 38.85513266666667, "fusion_lon": 0.0, "fusion_lat": 0.0, "type": "electric_bike", "name": "d7751925cdc09549a4da79850599909c", "is_disabled": 0, "rental_uris": {"ios": "https://dc.lft.to/lastmile_qr_scan", "android": "https://dc.lft.to/lastmile_qr_scan"}, "is_reserved": 0}, {"lon": -77.000685, "bike_id": "00d52b8e10201297cfcc23f259f46d5b", "lat": 38.894967, "fusion_lon": 0.0, "fusion_lat": 0.0, "type": "electric_scooter", "name": "00d52b8e10201297cfcc23f259f46d5b", "is_disabled": 0, "rental_uris": {"ios": "https://dc.lft.to/lastmile_qr_scan", "android": "https://dc.lft.to/lastmile_qr_scan"}, "is_reserved": 0}, {"lon": -77.0120545, "bike_id": "6f7dbb50b172c6ab717b35e2be60ea0c", "lat": 38.9212225, "fusion_lon": 0.0, "fusion_lat": 0.0, "type": "electric_scooter", "name": "6f7dbb50b172c6ab717b35e2be60ea0c", "is_disabled": 0, "rental_uris": {"ios": "https://dc.lft.to/lastmile_qr_scan", "android": "https://dc.lft.to/lastmile_qr_scan"}, "is_reserved": 0}, {"lon": -77.0516135, "bike_id": "bc890b00321c8287e87b556772a49208", "lat": 39.0430995, "fusion_lon": 0.0, "fusion_lat": 0.0, "type": "electric_bike", "name": "bc890b00321c8287e87b556772a49208", "is_disabled": 0, "rental_uris": {"ios": "https://dc.lft.to/lastmile_qr_scan", "android": "https://dc.lft.to/lastmile_qr_scan"}, "is_reserved": 0}, {"lon": -77.10493166666667, "bike_id": "4a607869815c09285c724895d882eb13", "lat": 38.85607733333333, "fusion_lon": 0.0, "fusion_lat": 0.0, "type": "electric_bike", "name": "4a607869815c09285c724895d882eb13", "is_disabled": 0, "rental_uris": {"ios": "https://dc.lft.to/lastmile_qr_scan", "android": "https://dc.lft.to/lastmile_qr_scan"}, "is_reserved": 0}, {"lon": -76.982308, "bike_id": "8070274471da06126e20cd56feafc8a2", "lat": 38.91652216666667, "fusion_lon": 0.0, "fusion_lat": 0.0, "type": "electric_scooter", "name": "8070274471da06126e20cd56feafc8a2", "is_disabled": 0, "rental_uris": {"ios": "https://dc.lft.to/lastmile_qr_scan", "android": "https://dc.lft.to/lastmile_qr_scan"}, "is_reserved": 0}, {"lon": -77.031817, "bike_id": "46ab18e36d5056983437eeea8854a45a", "lat": 38.93689833333333, "fusion_lon": 0.0, "fusion_lat": 0.0, "type": "electric_scooter", "name": "46ab18e36d5056983437eeea8854a45a", "is_disabled": 0, "rental_uris": {"ios": "https://dc.lft.to/lastmile_qr_scan", "android": "https://dc.lft.to/lastmile_qr_scan"}, "is_reserved": 0}, {"lon": -76.97338533333334, "bike_id": "e88db6d8a45889c137f3d7945c22176f", "lat": 38.865729333333334, "fusion_lon": 0.0, "fusion_lat": 0.0, "type": "electric_scooter", "name": "e88db6d8a45889c137f3d7945c22176f", "is_disabled": 0, "rental_uris": {"ios": "https://dc.lft.to/lastmile_qr_scan", "android": "https://dc.lft.to/lastmile_qr_scan"}, "is_reserved": 0}, {"lon": -77.03351283333333, "bike_id": "2d4cf268f12f0f51f77844098a8c2c21", "lat": 38.90734033333333, "fusion_lon": 0.0, "fusion_lat": 0.0, "type": "electric_scooter", "name": "2d4cf268f12f0f51f77844098a8c2c21", "is_disabled": 0, "rental_uris": {"ios": "https://dc.lft.to/lastmile_qr_scan", "android": "https://dc.lft.to/lastmile_qr_scan"}, "is_reserved": 0}, {"lon": -77.025733, "bike_id": "88ff6e03d2520ef22eabdcc98f23b33d", "lat": 38.9310785, "fusion_lon": 0.0, "fusion_lat": 0.0, "type": "electric_scooter", "name": "88ff6e03d2520ef22eabdcc98f23b33d", "is_disabled": 0, "rental_uris": {"ios": "https://dc.lft.to/lastmile_qr_scan", "android": "https://dc.lft.to/lastmile_qr_scan"}, "is_reserved": 0}, {"lon": -76.930138, "bike_id": "fbf998afade79ec40bcae2601d479de1", "lat": 38.89195933333333, "fusion_lon": 0.0, "fusion_lat": 0.0, "type": "electric_scooter", "name": "fbf998afade79ec40bcae2601d479de1", "is_disabled": 0, "rental_uris": {"ios": "https://dc.lft.to/lastmile_qr_scan", "android": "https://dc.lft.to/lastmile_qr_scan"}, "is_reserved": 0}, {"lon": -77.02469416666666, "bike_id": "04de3a038c57947ba8b4d2b64639fb2e", "lat": 38.90408266666667, "fusion_lon": 0.0, "fusion_lat": 0.0, "type": "electric_scooter", "name": "04de3a038c57947ba8b4d2b64639fb2e", "is_disabled": 0, "rental_uris": {"ios": "https://dc.lft.to/lastmile_qr_scan", "android": "https://dc.lft.to/lastmile_qr_scan"}, "is_reserved": 0}, {"lon": -77.056965, "bike_id": "4967e44ea5ee73fbe19c48a2a21d9725", "lat": 38.9371835, "fusion_lon": 0.0, "fusion_lat": 0.0, "type": "electric_scooter", "name": "4967e44ea5ee73fbe19c48a2a21d9725", "is_disabled": 0, "rental_uris": {"ios": "https://dc.lft.to/lastmile_qr_scan", "android": "https://dc.lft.to/lastmile_qr_scan"}, "is_reserved": 0}, {"lon": -77.05517766666667, "bike_id": "28920f3804df5e284338eeac48a4db16", "lat": 38.8996125, "fusion_lon": 0.0, "fusion_lat": 0.0, "type": "electric_scooter", "name": "28920f3804df5e284338eeac48a4db16", "is_disabled": 0, "rental_uris": {"ios": "https://dc.lft.to/lastmile_qr_scan", "android": "https://dc.lft.to/lastmile_qr_scan"}, "is_reserved": 0}, {"lon": -77.00626033333333, "bike_id": "5a40b02fe163a5b36ad395db3eb37db1", "lat": 38.91257516666667, "fusion_lon": 0.0, "fusion_lat": 0.0, "type": "electric_scooter", "name": "5a40b02fe163a5b36ad395db3eb37db1", "is_disabled": 0, "rental_uris": {"ios": "https://dc.lft.to/lastmile_qr_scan", "android": "https://dc.lft.to/lastmile_qr_scan"}, "is_reserved": 0}, {"lon": -76.98230816666667, "bike_id": "adc0aa891866a32f6cd2316e6806e5bf", "lat": 38.88651266666667, "fusion_lon": 0.0, "fusion_lat": 0.0, "type": "electric_scooter", "name": "adc0aa891866a32f6cd2316e6806e5bf", "is_disabled": 0, "rental_uris": {"ios": "https://dc.lft.to/lastmile_qr_scan", "android": "https://dc.lft.to/lastmile_qr_scan"}, "is_reserved": 0}, {"lon": -77.0199865, "bike_id": "93cb74e667e38b7324dac89aad7eb975", "lat": 38.9662745, "fusion_lon": 0.0, "fusion_lat": 0.0, "type": "electric_scooter", "name": "93cb74e667e38b7324dac89aad7eb975", "is_disabled": 0, "rental_uris": {"ios": "https://dc.lft.to/lastmile_qr_scan", "android": "https://dc.lft.to/lastmile_qr_scan"}, "is_reserved": 0}, {"lon": -77.0117265, "bike_id": "7664f91c97b0e7a0df1637111e4420aa", "lat": 38.872389, "fusion_lon": 0.0, "fusion_lat": 0.0, "type": "electric_bike", "name": "7664f91c97b0e7a0df1637111e4420aa", "is_disabled": 0, "rental_uris": {"ios": "https://dc.lft.to/lastmile_qr_scan", "android": "https://dc.lft.to/lastmile_qr_scan"}, "is_reserved": 0}, {"lon": -77.03659633333334, "bike_id": "b2f90387e79bda545e33f14e778d84d2", "lat": 38.9362995, "fusion_lon": 0.0, "fusion_lat": 0.0, "type": "electric_scooter", "name": "b2f90387e79bda545e33f14e778d84d2", "is_disabled": 0, "rental_uris": {"ios": "https://dc.lft.to/lastmile_qr_scan", "android": "https://dc.lft.to/lastmile_qr_scan"}, "is_reserved": 0}, {"lon": -76.984627, "bike_id": "a46689b95d858d3fb20c1583320924cd", "lat": 38.90397183333333, "fusion_lon": 0.0, "fusion_lat": 0.0, "type": "electric_scooter", "name": "a46689b95d858d3fb20c1583320924cd", "is_disabled": 0, "rental_uris": {"ios": "https://dc.lft.to/lastmile_qr_scan", "android": "https://dc.lft.to/lastmile_qr_scan"}, "is_reserved": 0}, {"lon": -77.04740633333333, "bike_id": "3918f8986f846793267a8819bd2e8716", "lat": 38.901813833333335, "fusion_lon": 0.0, "fusion_lat": 0.0, "type": "electric_scooter", "name": "3918f8986f846793267a8819bd2e8716", "is_disabled": 0, "rental_uris": {"ios": "https://dc.lft.to/lastmile_qr_scan", "android": "https://dc.lft.to/lastmile_qr_scan"}, "is_reserved": 0}, {"lon": -77.014919, "bike_id": "9e88fbf2cd9d3bdb88def7fb78d309db", "lat": 38.92688866666667, "fusion_lon": 0.0, "fusion_lat": 0.0, "type": "electric_scooter", "name": "9e88fbf2cd9d3bdb88def7fb78d309db", "is_disabled": 0, "rental_uris": {"ios": "https://dc.lft.to/lastmile_qr_scan", "android": "https://dc.lft.to/lastmile_qr_scan"}, "is_reserved": 0}, {"lon": -76.994545, "bike_id": "1c8bb4d596476ca34a5f07211b3b83c3", "lat": 38.8621705, "fusion_lon": 0.0, "fusion_lat": 0.0, "type": "electric_scooter", "name": "1c8bb4d596476ca34a5f07211b3b83c3", "is_disabled": 0, "rental_uris": {"ios": "https://dc.lft.to/lastmile_qr_scan", "android": "https://dc.lft.to/lastmile_qr_scan"}, "is_reserved": 0}, {"lon": -76.95749533333333, "bike_id": "035bbb5bfbdc0f8a50716343f73f2031", "lat": 38.884284666666666, "fusion_lon": 0.0, "fusion_lat": 0.0, "type": "electric_scooter", "name": "035bbb5bfbdc0f8a50716343f73f2031", "is_disabled": 0, "rental_uris": {"ios": "https://dc.lft.to/lastmile_qr_scan", "android": "https://dc.lft.to/lastmile_qr_scan"}, "is_reserved": 0}, {"lon": -77.01203033333333, "bike_id": "9d44642080dacd5475d421c44967e085", "lat": 38.8240535, "fusion_lon": 0.0, "fusion_lat": 0.0, "type": "electric_bike", "name": "9d44642080dacd5475d421c44967e085", "is_disabled": 0, "rental_uris": {"ios": "https://dc.lft.to/lastmile_qr_scan", "android": "https://dc.lft.to/lastmile_qr_scan"}, "is_reserved": 0}, {"lon": -77.04569516666666, "bike_id": "3554f91e8b3685997b4e5e45544f8f84", "lat": 38.913677666666665, "fusion_lon": 0.0, "fusion_lat": 0.0, "type": "electric_scooter", "name": "3554f91e8b3685997b4e5e45544f8f84", "is_disabled": 0, "rental_uris": {"ios": "https://dc.lft.to/lastmile_qr_scan", "android": "https://dc.lft.to/lastmile_qr_scan"}, "is_reserved": 0}, {"lon": -77.0015265, "bike_id": "ccc7fe3e65cfddd77c66458f1a6550cf", "lat": 38.9108055, "fusion_lon": 0.0, "fusion_lat": 0.0, "type": "electric_scooter", "name": "ccc7fe3e65cfddd77c66458f1a6550cf", "is_disabled": 0, "rental_uris": {"ios": "https://dc.lft.to/lastmile_qr_scan", "android": "https://dc.lft.to/lastmile_qr_scan"}, "is_reserved": 0}, {"lon": -77.02355316666667, "bike_id": "bbe6b27b23d9967283fac1311751e89b", "lat": 38.92223383333334, "fusion_lon": 0.0, "fusion_lat": 0.0, "type": "electric_scooter", "name": "bbe6b27b23d9967283fac1311751e89b", "is_disabled": 0, "rental_uris": {"ios": "https://dc.lft.to/lastmile_qr_scan", "android": "https://dc.lft.to/lastmile_qr_scan"}, "is_reserved": 0}, {"lon": -77.003393, "bike_id": "1c474133d46a27a4fd2a269ec1d4580d", "lat": 38.89191433333333, "fusion_lon": 0.0, "fusion_lat": 0.0, "type": "electric_scooter", "name": "1c474133d46a27a4fd2a269ec1d4580d", "is_disabled": 0, "rental_uris": {"ios": "https://dc.lft.to/lastmile_qr_scan", "android": "https://dc.lft.to/lastmile_qr_scan"}, "is_reserved": 0}, {"lon": -77.04044883333333, "bike_id": "bca107a57fa6e79e382da206b81fb399", "lat": 38.92878983333333, "fusion_lon": 0.0, "fusion_lat": 0.0, "type": "electric_scooter", "name": "bca107a57fa6e79e382da206b81fb399", "is_disabled": 0, "rental_uris": {"ios": "https://dc.lft.to/lastmile_qr_scan", "android": "https://dc.lft.to/lastmile_qr_scan"}, "is_reserved": 0}, {"lon": -77.03195733333334, "bike_id": "4a3dcca4f3427fb77ecf715e3a300e9f", "lat": 38.907336666666666, "fusion_lon": 0.0, "fusion_lat": 0.0, "type": "electric_scooter", "name": "4a3dcca4f3427fb77ecf715e3a300e9f", "is_disabled": 0, "rental_uris": {"ios": "https://dc.lft.to/lastmile_qr_scan", "android": "https://dc.lft.to/lastmile_qr_scan"}, "is_reserved": 0}, {"lon": -77.02651066666667, "bike_id": "3042aa55cc06852390db93032b24bc7c", "lat": 38.88112733333333, "fusion_lon": 0.0, "fusion_lat": 0.0, "type": "electric_scooter", "name": "3042aa55cc06852390db93032b24bc7c", "is_disabled": 0, "rental_uris": {"ios": "https://dc.lft.to/lastmile_qr_scan", "android": "https://dc.lft.to/lastmile_qr_scan"}, "is_reserved": 0}, {"lon": -77.023246, "bike_id": "0d988360f15dc40a4a87687ea0049a19", "lat": 38.89490266666667, "fusion_lon": 0.0, "fusion_lat": 0.0, "type": "electric_scooter", "name": "0d988360f15dc40a4a87687ea0049a19", "is_disabled": 0, "rental_uris": {"ios": "https://dc.lft.to/lastmile_qr_scan", "android": "https://dc.lft.to/lastmile_qr_scan"}, "is_reserved": 0}, {"lon": -77.1171005, "bike_id": "df13638b6dac215bfb46825cd5bd98e1", "lat": 38.86746183333333, "fusion_lon": 0.0, "fusion_lat": 0.0, "type": "electric_bike", "name": "df13638b6dac215bfb46825cd5bd98e1", "is_disabled": 0, "rental_uris": {"ios": "https://dc.lft.to/lastmile_qr_scan", "android": "https://dc.lft.to/lastmile_qr_scan"}, "is_reserved": 0}, {"lon": -77.03195516666666, "bike_id": "e174ebba371f863b6ff49acc433ae35e", "lat": 38.89775733333333, "fusion_lon": 0.0, "fusion_lat": 0.0, "type": "electric_scooter", "name": "e174ebba371f863b6ff49acc433ae35e", "is_disabled": 0, "rental_uris": {"ios": "https://dc.lft.to/lastmile_qr_scan", "android": "https://dc.lft.to/lastmile_qr_scan"}, "is_reserved": 0}, {"lon": -77.04767716666667, "bike_id": "bd55dfe9aecdccb047347ae2b1451cc2", "lat": 38.91766666666667, "fusion_lon": 0.0, "fusion_lat": 0.0, "type": "electric_scooter", "name": "bd55dfe9aecdccb047347ae2b1451cc2", "is_disabled": 0, "rental_uris": {"ios": "https://dc.lft.to/lastmile_qr_scan", "android": "https://dc.lft.to/lastmile_qr_scan"}, "is_reserved": 0}, {"lon": -77.036386, "bike_id": "d1fb3cf47b53d3c0152809e0fe7ef6b2", "lat": 38.93285933333333, "fusion_lon": 0.0, "fusion_lat": 0.0, "type": "electric_bike", "name": "d1fb3cf47b53d3c0152809e0fe7ef6b2", "is_disabled": 0, "rental_uris": {"ios": "https://dc.lft.to/lastmile_qr_scan", "android": "https://dc.lft.to/lastmile_qr_scan"}, "is_reserved": 0}, {"lon": -77.00045666666666, "bike_id": "b3b9b35c232aea1fb43f525a9d8868d3", "lat": 38.92395166666667, "fusion_lon": 0.0, "fusion_lat": 0.0, "type": "electric_scooter", "name": "b3b9b35c232aea1fb43f525a9d8868d3", "is_disabled": 0, "rental_uris": {"ios": "https://dc.lft.to/lastmile_qr_scan", "android": "https://dc.lft.to/lastmile_qr_scan"}, "is_reserved": 0}, {"lon": -77.03449516666667, "bike_id": "c3b8f7d77958725b551c04f0f0557d74", "lat": 38.9273575, "fusion_lon": 0.0, "fusion_lat": 0.0, "type": "electric_scooter", "name": "c3b8f7d77958725b551c04f0f0557d74", "is_disabled": 0, "rental_uris": {"ios": "https://dc.lft.to/lastmile_qr_scan", "android": "https://dc.lft.to/lastmile_qr_scan"}, "is_reserved": 0}, {"lon": -76.9853125, "bike_id": "e151fdb88d8c82ee067e85f7ae01be04", "lat": 38.90456416666667, "fusion_lon": 0.0, "fusion_lat": 0.0, "type": "electric_scooter", "name": "e151fdb88d8c82ee067e85f7ae01be04", "is_disabled": 0, "rental_uris": {"ios": "https://dc.lft.to/lastmile_qr_scan", "android": "https://dc.lft.to/lastmile_qr_scan"}, "is_reserved": 0}, {"lon": -77.03212233333333, "bike_id": "107599517f548c0aaed24361953867e8", "lat": 38.919241, "fusion_lon": 0.0, "fusion_lat": 0.0, "type": "electric_scooter", "name": "107599517f548c0aaed24361953867e8", "is_disabled": 0, "rental_uris": {"ios": "https://dc.lft.to/lastmile_qr_scan", "android": "https://dc.lft.to/lastmile_qr_scan"}, "is_reserved": 0}, {"lon": -77.05067066666666, "bike_id": "867ab7edfa135a1ecddd07b229722916", "lat": 38.90084066666667, "fusion_lon": 0.0, "fusion_lat": 0.0, "type": "electric_scooter", "name": "867ab7edfa135a1ecddd07b229722916", "is_disabled": 0, "rental_uris": {"ios": "https://dc.lft.to/lastmile_qr_scan", "android": "https://dc.lft.to/lastmile_qr_scan"}, "is_reserved": 0}, {"lon": -77.0035635, "bike_id": "0ad4951c6110b51767dcc2e32fefb6b1", "lat": 38.887094166666664, "fusion_lon": 0.0, "fusion_lat": 0.0, "type": "electric_scooter", "name": "0ad4951c6110b51767dcc2e32fefb6b1", "is_disabled": 0, "rental_uris": {"ios": "https://dc.lft.to/lastmile_qr_scan", "android": "https://dc.lft.to/lastmile_qr_scan"}, "is_reserved": 0}, {"lon": -77.02956166666667, "bike_id": "9028f7126cd7846e32949a661a976def", "lat": 38.90651366666667, "fusion_lon": 0.0, "fusion_lat": 0.0, "type": "electric_scooter", "name": "9028f7126cd7846e32949a661a976def", "is_disabled": 0, "rental_uris": {"ios": "https://dc.lft.to/lastmile_qr_scan", "android": "https://dc.lft.to/lastmile_qr_scan"}, "is_reserved": 0}, {"lon": -77.03970283333334, "bike_id": "1329d1277c7db76a0db5e18cfb5ed589", "lat": 38.911943, "fusion_lon": 0.0, "fusion_lat": 0.0, "type": "electric_scooter", "name": "1329d1277c7db76a0db5e18cfb5ed589", "is_disabled": 0, "rental_uris": {"ios": "https://dc.lft.to/lastmile_qr_scan", "android": "https://dc.lft.to/lastmile_qr_scan"}, "is_reserved": 0}, {"lon": -77.03290683333333, "bike_id": "e51b1bb69430acf28bd3cd2bf15d8d0d", "lat": 38.909739, "fusion_lon": 0.0, "fusion_lat": 0.0, "type": "electric_scooter", "name": "e51b1bb69430acf28bd3cd2bf15d8d0d", "is_disabled": 0, "rental_uris": {"ios": "https://dc.lft.to/lastmile_qr_scan", "android": "https://dc.lft.to/lastmile_qr_scan"}, "is_reserved": 0}, {"lon": -76.98018316666666, "bike_id": "9e3dc5e50b8c549a5b0567645167eb3a", "lat": 38.903315166666665, "fusion_lon": 0.0, "fusion_lat": 0.0, "type": "electric_scooter", "name": "9e3dc5e50b8c549a5b0567645167eb3a", "is_disabled": 0, "rental_uris": {"ios": "https://dc.lft.to/lastmile_qr_scan", "android": "https://dc.lft.to/lastmile_qr_scan"}, "is_reserved": 0}, {"lon": -77.0036505, "bike_id": "e06130a1241ef07c57de81ab394f8254", "lat": 38.897287166666665, "fusion_lon": 0.0, "fusion_lat": 0.0, "type": "electric_scooter", "name": "e06130a1241ef07c57de81ab394f8254", "is_disabled": 0, "rental_uris": {"ios": "https://dc.lft.to/lastmile_qr_scan", "android": "https://dc.lft.to/lastmile_qr_scan"}, "is_reserved": 0}, {"lon": -77.01925683333333, "bike_id": "c217add696ab1d5b39b9e66a6509038f", "lat": 38.922196, "fusion_lon": 0.0, "fusion_lat": 0.0, "type": "electric_scooter", "name": "c217add696ab1d5b39b9e66a6509038f", "is_disabled": 0, "rental_uris": {"ios": "https://dc.lft.to/lastmile_qr_scan", "android": "https://dc.lft.to/lastmile_qr_scan"}, "is_reserved": 0}, {"lon": -77.0542805, "bike_id": "a4961d7c91a6bb435aff87039ce7de82", "lat": 38.928358833333334, "fusion_lon": 0.0, "fusion_lat": 0.0, "type": "electric_scooter", "name": "a4961d7c91a6bb435aff87039ce7de82", "is_disabled": 0, "rental_uris": {"ios": "https://dc.lft.to/lastmile_qr_scan", "android": "https://dc.lft.to/lastmile_qr_scan"}, "is_reserved": 0}, {"lon": -77.13098383333333, "bike_id": "fd7c4f605411f3211ca83533cf036ddd", "lat": 39.024342, "fusion_lon": 0.0, "fusion_lat": 0.0, "type": "electric_bike", "name": "fd7c4f605411f3211ca83533cf036ddd", "is_disabled": 0, "rental_uris": {"ios": "https://dc.lft.to/lastmile_qr_scan", "android": "https://dc.lft.to/lastmile_qr_scan"}, "is_reserved": 0}, {"lon": -77.02067883333333, "bike_id": "e2433421e20daad68a793c2279098de6", "lat": 38.93261433333333, "fusion_lon": 0.0, "fusion_lat": 0.0, "type": "electric_bike", "name": "e2433421e20daad68a793c2279098de6", "is_disabled": 0, "rental_uris": {"ios": "https://dc.lft.to/lastmile_qr_scan", "android": "https://dc.lft.to/lastmile_qr_scan"}, "is_reserved": 0}, {"lon": -77.03465483333333, "bike_id": "815aae600947ec371c4c3e2ccdec343a", "lat": 38.921525, "fusion_lon": 0.0, "fusion_lat": 0.0, "type": "electric_scooter", "name": "815aae600947ec371c4c3e2ccdec343a", "is_disabled": 0, "rental_uris": {"ios": "https://dc.lft.to/lastmile_qr_scan", "android": "https://dc.lft.to/lastmile_qr_scan"}, "is_reserved": 0}, {"lon": -76.99755366666666, "bike_id": "f79c6611a63559b751f1d8e5b201d861", "lat": 38.95013066666667, "fusion_lon": 0.0, "fusion_lat": 0.0, "type": "electric_bike", "name": "f79c6611a63559b751f1d8e5b201d861", "is_disabled": 0, "rental_uris": {"ios": "https://dc.lft.to/lastmile_qr_scan", "android": "https://dc.lft.to/lastmile_qr_scan"}, "is_reserved": 0}, {"lon": -77.02330183333333, "bike_id": "948d092b65b538388a6662bc84e0ad6a", "lat": 38.93529766666666, "fusion_lon": 0.0, "fusion_lat": 0.0, "type": "electric_scooter", "name": "948d092b65b538388a6662bc84e0ad6a", "is_disabled": 0, "rental_uris": {"ios": "https://dc.lft.to/lastmile_qr_scan", "android": "https://dc.lft.to/lastmile_qr_scan"}, "is_reserved": 0}, {"lon": -77.0150815, "bike_id": "2815d416b50882928152589e36108ab4", "lat": 38.883091, "fusion_lon": 0.0, "fusion_lat": 0.0, "type": "electric_scooter", "name": "2815d416b50882928152589e36108ab4", "is_disabled": 0, "rental_uris": {"ios": "https://dc.lft.to/lastmile_qr_scan", "android": "https://dc.lft.to/lastmile_qr_scan"}, "is_reserved": 0}, {"lon": -77.07715666666667, "bike_id": "59b7d9e056b38d989bf578744dc49443", "lat": 38.92521166666667, "fusion_lon": 0.0, "fusion_lat": 0.0, "type": "electric_scooter", "name": "59b7d9e056b38d989bf578744dc49443", "is_disabled": 0, "rental_uris": {"ios": "https://dc.lft.to/lastmile_qr_scan", "android": "https://dc.lft.to/lastmile_qr_scan"}, "is_reserved": 0}, {"lon": -76.950109, "bike_id": "3a6bc566236b1f316059c5e33b156fc3", "lat": 38.89379866666667, "fusion_lon": 0.0, "fusion_lat": 0.0, "type": "electric_scooter", "name": "3a6bc566236b1f316059c5e33b156fc3", "is_disabled": 0, "rental_uris": {"ios": "https://dc.lft.to/lastmile_qr_scan", "android": "https://dc.lft.to/lastmile_qr_scan"}, "is_reserved": 0}, {"lon": -77.01102666666667, "bike_id": "b1d445e204e5733236d63e0d2e21b6fd", "lat": 38.90848033333333, "fusion_lon": 0.0, "fusion_lat": 0.0, "type": "electric_scooter", "name": "b1d445e204e5733236d63e0d2e21b6fd", "is_disabled": 0, "rental_uris": {"ios": "https://dc.lft.to/lastmile_qr_scan", "android": "https://dc.lft.to/lastmile_qr_scan"}, "is_reserved": 0}, {"lon": -77.032614, "bike_id": "c82ccaf6ab3a327a2ac931c6b7aaa022", "lat": 38.93772933333333, "fusion_lon": 0.0, "fusion_lat": 0.0, "type": "electric_scooter", "name": "c82ccaf6ab3a327a2ac931c6b7aaa022", "is_disabled": 0, "rental_uris": {"ios": "https://dc.lft.to/lastmile_qr_scan", "android": "https://dc.lft.to/lastmile_qr_scan"}, "is_reserved": 0}, {"lon": -77.01441266666667, "bike_id": "454b25da5eb7e40090c3a3cc5de8b20e", "lat": 38.905405, "fusion_lon": 0.0, "fusion_lat": 0.0, "type": "electric_scooter", "name": "454b25da5eb7e40090c3a3cc5de8b20e", "is_disabled": 0, "rental_uris": {"ios": "https://dc.lft.to/lastmile_qr_scan", "android": "https://dc.lft.to/lastmile_qr_scan"}, "is_reserved": 0}, {"lon": -77.0325685, "bike_id": "f59b527b1d861f138e7e8f9141c8c557", "lat": 38.93136366666667, "fusion_lon": 0.0, "fusion_lat": 0.0, "type": "electric_scooter", "name": "f59b527b1d861f138e7e8f9141c8c557", "is_disabled": 0, "rental_uris": {"ios": "https://dc.lft.to/lastmile_qr_scan", "android": "https://dc.lft.to/lastmile_qr_scan"}, "is_reserved": 0}, {"lon": -76.975609, "bike_id": "8357a1048f9d4269a9013dd8b6efcdaa", "lat": 38.924581, "fusion_lon": 0.0, "fusion_lat": 0.0, "type": "electric_bike", "name": "8357a1048f9d4269a9013dd8b6efcdaa", "is_disabled": 0, "rental_uris": {"ios": "https://dc.lft.to/lastmile_qr_scan", "android": "https://dc.lft.to/lastmile_qr_scan"}, "is_reserved": 0}, {"lon": -77.0212595, "bike_id": "28b9d3aec0046d3b7626c2a78a7a0539", "lat": 38.91599566666667, "fusion_lon": 0.0, "fusion_lat": 0.0, "type": "electric_scooter", "name": "28b9d3aec0046d3b7626c2a78a7a0539", "is_disabled": 0, "rental_uris": {"ios": "https://dc.lft.to/lastmile_qr_scan", "android": "https://dc.lft.to/lastmile_qr_scan"}, "is_reserved": 0}, {"lon": -76.97857816666667, "bike_id": "fb0eeb00e95f26f4fb760d3589364689", "lat": 38.90721416666667, "fusion_lon": 0.0, "fusion_lat": 0.0, "type": "electric_scooter", "name": "fb0eeb00e95f26f4fb760d3589364689", "is_disabled": 0, "rental_uris": {"ios": "https://dc.lft.to/lastmile_qr_scan", "android": "https://dc.lft.to/lastmile_qr_scan"}, "is_reserved": 0}, {"lon": -77.04446533333333, "bike_id": "02855a5b71c1b76615d37342751e403c", "lat": 38.921616, "fusion_lon": 0.0, "fusion_lat": 0.0, "type": "electric_scooter", "name": "02855a5b71c1b76615d37342751e403c", "is_disabled": 0, "rental_uris": {"ios": "https://dc.lft.to/lastmile_qr_scan", "android": "https://dc.lft.to/lastmile_qr_scan"}, "is_reserved": 0}, {"lon": -77.05615316666666, "bike_id": "42648f3f1e69f58567861d30b9d37d45", "lat": 38.923268666666665, "fusion_lon": 0.0, "fusion_lat": 0.0, "type": "electric_scooter", "name": "42648f3f1e69f58567861d30b9d37d45", "is_disabled": 0, "rental_uris": {"ios": "https://dc.lft.to/lastmile_qr_scan", "android": "https://dc.lft.to/lastmile_qr_scan"}, "is_reserved": 0}, {"lon": -77.01421266666667, "bike_id": "b989787e4c3a07d919a547e55b583cc8", "lat": 38.92835816666667, "fusion_lon": 0.0, "fusion_lat": 0.0, "type": "electric_scooter", "name": "b989787e4c3a07d919a547e55b583cc8", "is_disabled": 0, "rental_uris": {"ios": "https://dc.lft.to/lastmile_qr_scan", "android": "https://dc.lft.to/lastmile_qr_scan"}, "is_reserved": 0}, {"lon": -77.03353533333333, "bike_id": "66e750f48c440158fa12e58ae8df1eb3", "lat": 38.89963816666667, "fusion_lon": 0.0, "fusion_lat": 0.0, "type": "electric_scooter", "name": "66e750f48c440158fa12e58ae8df1eb3", "is_disabled": 0, "rental_uris": {"ios": "https://dc.lft.to/lastmile_qr_scan", "android": "https://dc.lft.to/lastmile_qr_scan"}, "is_reserved": 0}, {"lon": -77.017415, "bike_id": "d5bfcb11bc644e245caf5e2a3a4613d8", "lat": 38.90256883333333, "fusion_lon": 0.0, "fusion_lat": 0.0, "type": "electric_scooter", "name": "d5bfcb11bc644e245caf5e2a3a4613d8", "is_disabled": 0, "rental_uris": {"ios": "https://dc.lft.to/lastmile_qr_scan", "android": "https://dc.lft.to/lastmile_qr_scan"}, "is_reserved": 0}, {"lon": -77.01109566666666, "bike_id": "7bd604c027ff9b932e57f5ad0a4a8200", "lat": 38.91808433333333, "fusion_lon": 0.0, "fusion_lat": 0.0, "type": "electric_scooter", "name": "7bd604c027ff9b932e57f5ad0a4a8200", "is_disabled": 0, "rental_uris": {"ios": "https://dc.lft.to/lastmile_qr_scan", "android": "https://dc.lft.to/lastmile_qr_scan"}, "is_reserved": 0}, {"lon": -77.03201516666667, "bike_id": "2f30745840b126c0054b36fb497b41b5", "lat": 38.939626, "fusion_lon": 0.0, "fusion_lat": 0.0, "type": "electric_scooter", "name": "2f30745840b126c0054b36fb497b41b5", "is_disabled": 0, "rental_uris": {"ios": "https://dc.lft.to/lastmile_qr_scan", "android": "https://dc.lft.to/lastmile_qr_scan"}, "is_reserved": 0}, {"lon": -77.06517883333333, "bike_id": "3f3df235a3fd4542ad0e1eda7a176560", "lat": 38.908828666666665, "fusion_lon": 0.0, "fusion_lat": 0.0, "type": "electric_scooter", "name": "3f3df235a3fd4542ad0e1eda7a176560", "is_disabled": 0, "rental_uris": {"ios": "https://dc.lft.to/lastmile_qr_scan", "android": "https://dc.lft.to/lastmile_qr_scan"}, "is_reserved": 0}, {"lon": -76.97329683333334, "bike_id": "538914b0e449f534f6b59f35c57bcb0d", "lat": 38.90481, "fusion_lon": 0.0, "fusion_lat": 0.0, "type": "electric_bike", "name": "538914b0e449f534f6b59f35c57bcb0d", "is_disabled": 0, "rental_uris": {"ios": "https://dc.lft.to/lastmile_qr_scan", "android": "https://dc.lft.to/lastmile_qr_scan"}, "is_reserved": 0}, {"lon": -76.97909316666667, "bike_id": "4480e2ecabe8f523bcebe3566432de81", "lat": 38.924608666666664, "fusion_lon": 0.0, "fusion_lat": 0.0, "type": "electric_bike", "name": "4480e2ecabe8f523bcebe3566432de81", "is_disabled": 0, "rental_uris": {"ios": "https://dc.lft.to/lastmile_qr_scan", "android": "https://dc.lft.to/lastmile_qr_scan"}, "is_reserved": 0}, {"lon": -76.99788833333334, "bike_id": "dab204a565327197012400c8848f175b", "lat": 38.956441166666664, "fusion_lon": 0.0, "fusion_lat": 0.0, "type": "electric_bike", "name": "dab204a565327197012400c8848f175b", "is_disabled": 0, "rental_uris": {"ios": "https://dc.lft.to/lastmile_qr_scan", "android": "https://dc.lft.to/lastmile_qr_scan"}, "is_reserved": 0}, {"lon": -77.01791766666666, "bike_id": "bba6d7127f9a91de69164eebee408f4f", "lat": 38.90080233333333, "fusion_lon": 0.0, "fusion_lat": 0.0, "type": "electric_scooter", "name": "bba6d7127f9a91de69164eebee408f4f", "is_disabled": 0, "rental_uris": {"ios": "https://dc.lft.to/lastmile_qr_scan", "android": "https://dc.lft.to/lastmile_qr_scan"}, "is_reserved": 0}, {"lon": -77.00037716666667, "bike_id": "61b1126e620edf6ee2cba1d830ffd36b", "lat": 38.87437583333333, "fusion_lon": 0.0, "fusion_lat": 0.0, "type": "electric_scooter", "name": "61b1126e620edf6ee2cba1d830ffd36b", "is_disabled": 0, "rental_uris": {"ios": "https://dc.lft.to/lastmile_qr_scan", "android": "https://dc.lft.to/lastmile_qr_scan"}, "is_reserved": 0}, {"lon": -76.92579916666666, "bike_id": "40433366eeb2e1afec6e11730ed65403", "lat": 38.897787, "fusion_lon": 0.0, "fusion_lat": 0.0, "type": "electric_scooter", "name": "40433366eeb2e1afec6e11730ed65403", "is_disabled": 0, "rental_uris": {"ios": "https://dc.lft.to/lastmile_qr_scan", "android": "https://dc.lft.to/lastmile_qr_scan"}, "is_reserved": 0}, {"lon": -77.02393766666667, "bike_id": "29363da9464c337258e5b91fde00dde3", "lat": 38.881357666666666, "fusion_lon": 0.0, "fusion_lat": 0.0, "type": "electric_scooter", "name": "29363da9464c337258e5b91fde00dde3", "is_disabled": 0, "rental_uris": {"ios": "https://dc.lft.to/lastmile_qr_scan", "android": "https://dc.lft.to/lastmile_qr_scan"}, "is_reserved": 0}, {"lon": -77.03520233333333, "bike_id": "f630d3e40d4c3f1006a87100ad429ea3", "lat": 38.935944, "fusion_lon": 0.0, "fusion_lat": 0.0, "type": "electric_scooter", "name": "f630d3e40d4c3f1006a87100ad429ea3", "is_disabled": 0, "rental_uris": {"ios": "https://dc.lft.to/lastmile_qr_scan", "android": "https://dc.lft.to/lastmile_qr_scan"}, "is_reserved": 0}, {"lon": -76.992716, "bike_id": "9943ae9e7f69e7d118dbc912e22ec69e", "lat": 38.896125833333336, "fusion_lon": 0.0, "fusion_lat": 0.0, "type": "electric_scooter", "name": "9943ae9e7f69e7d118dbc912e22ec69e", "is_disabled": 0, "rental_uris": {"ios": "https://dc.lft.to/lastmile_qr_scan", "android": "https://dc.lft.to/lastmile_qr_scan"}, "is_reserved": 0}, {"lon": -77.04501083333334, "bike_id": "7c5f48de69836ab735a8ea9ff5b2def5", "lat": 38.912902333333335, "fusion_lon": 0.0, "fusion_lat": 0.0, "type": "electric_scooter", "name": "7c5f48de69836ab735a8ea9ff5b2def5", "is_disabled": 0, "rental_uris": {"ios": "https://dc.lft.to/lastmile_qr_scan", "android": "https://dc.lft.to/lastmile_qr_scan"}, "is_reserved": 0}, {"lon": -77.04713683333334, "bike_id": "e85cbb36651d55db52d7f7569ff67e49", "lat": 38.89952566666667, "fusion_lon": 0.0, "fusion_lat": 0.0, "type": "electric_scooter", "name": "e85cbb36651d55db52d7f7569ff67e49", "is_disabled": 0, "rental_uris": {"ios": "https://dc.lft.to/lastmile_qr_scan", "android": "https://dc.lft.to/lastmile_qr_scan"}, "is_reserved": 0}, {"lon": -77.03178266666667, "bike_id": "42693b9d6b4debdb64c5d9f5a85a1543", "lat": 38.8921875, "fusion_lon": 0.0, "fusion_lat": 0.0, "type": "electric_scooter", "name": "42693b9d6b4debdb64c5d9f5a85a1543", "is_disabled": 0, "rental_uris": {"ios": "https://dc.lft.to/lastmile_qr_scan", "android": "https://dc.lft.to/lastmile_qr_scan"}, "is_reserved": 0}, {"lon": -77.03634283333334, "bike_id": "2e9127a175fd469facd251ab8bcf6fd3", "lat": 38.937701833333335, "fusion_lon": 0.0, "fusion_lat": 0.0, "type": "electric_bike", "name": "2e9127a175fd469facd251ab8bcf6fd3", "is_disabled": 0, "rental_uris": {"ios": "https://dc.lft.to/lastmile_qr_scan", "android": "https://dc.lft.to/lastmile_qr_scan"}, "is_reserved": 0}, {"lon": -77.05730166666666, "bike_id": "17d4ca566efbbd910e15569aa49274bb", "lat": 38.93361133333333, "fusion_lon": 0.0, "fusion_lat": 0.0, "type": "electric_scooter", "name": "17d4ca566efbbd910e15569aa49274bb", "is_disabled": 0, "rental_uris": {"ios": "https://dc.lft.to/lastmile_qr_scan", "android": "https://dc.lft.to/lastmile_qr_scan"}, "is_reserved": 0}, {"lon": -77.05978333333333, "bike_id": "351526ed9945caf1206bd1ca8ae1f4d5", "lat": 38.80727383333333, "fusion_lon": 0.0, "fusion_lat": 0.0, "type": "electric_bike", "name": "351526ed9945caf1206bd1ca8ae1f4d5", "is_disabled": 0, "rental_uris": {"ios": "https://dc.lft.to/lastmile_qr_scan", "android": "https://dc.lft.to/lastmile_qr_scan"}, "is_reserved": 0}, {"lon": -76.99763683333333, "bike_id": "f8a76b99ac3f6f6885bacf99649fc893", "lat": 38.91069383333333, "fusion_lon": 0.0, "fusion_lat": 0.0, "type": "electric_scooter", "name": "f8a76b99ac3f6f6885bacf99649fc893", "is_disabled": 0, "rental_uris": {"ios": "https://dc.lft.to/lastmile_qr_scan", "android": "https://dc.lft.to/lastmile_qr_scan"}, "is_reserved": 0}, {"lon": -77.0392635, "bike_id": "eabc0fde2d2e309ad7f4454965cc2174", "lat": 38.927934, "fusion_lon": 0.0, "fusion_lat": 0.0, "type": "electric_scooter", "name": "eabc0fde2d2e309ad7f4454965cc2174", "is_disabled": 0, "rental_uris": {"ios": "https://dc.lft.to/lastmile_qr_scan", "android": "https://dc.lft.to/lastmile_qr_scan"}, "is_reserved": 0}, {"lon": -77.0364105, "bike_id": "628b5ffa148759d1e94687bd38b560b6", "lat": 38.9246515, "fusion_lon": 0.0, "fusion_lat": 0.0, "type": "electric_scooter", "name": "628b5ffa148759d1e94687bd38b560b6", "is_disabled": 0, "rental_uris": {"ios": "https://dc.lft.to/lastmile_qr_scan", "android": "https://dc.lft.to/lastmile_qr_scan"}, "is_reserved": 0}, {"lon": -77.00696366666666, "bike_id": "e58dde500aea5eeb762154c77623c2b7", "lat": 38.90032033333333, "fusion_lon": 0.0, "fusion_lat": 0.0, "type": "electric_scooter", "name": "e58dde500aea5eeb762154c77623c2b7", "is_disabled": 0, "rental_uris": {"ios": "https://dc.lft.to/lastmile_qr_scan", "android": "https://dc.lft.to/lastmile_qr_scan"}, "is_reserved": 0}, {"lon": -77.03181783333333, "bike_id": "05be0f4fd778da6071df9e8739041d0e", "lat": 38.905225, "fusion_lon": 0.0, "fusion_lat": 0.0, "type": "electric_scooter", "name": "05be0f4fd778da6071df9e8739041d0e", "is_disabled": 0, "rental_uris": {"ios": "https://dc.lft.to/lastmile_qr_scan", "android": "https://dc.lft.to/lastmile_qr_scan"}, "is_reserved": 0}, {"lon": -77.028849, "bike_id": "65e24acd01e9d3c92aa368db03e96e64", "lat": 38.91553966666667, "fusion_lon": 0.0, "fusion_lat": 0.0, "type": "electric_scooter", "name": "65e24acd01e9d3c92aa368db03e96e64", "is_disabled": 0, "rental_uris": {"ios": "https://dc.lft.to/lastmile_qr_scan", "android": "https://dc.lft.to/lastmile_qr_scan"}, "is_reserved": 0}, {"lon": -76.97617833333334, "bike_id": "d5585ca54bea580fab3bf7514a37a02d", "lat": 38.92651083333333, "fusion_lon": 0.0, "fusion_lat": 0.0, "type": "electric_scooter", "name": "d5585ca54bea580fab3bf7514a37a02d", "is_disabled": 0, "rental_uris": {"ios": "https://dc.lft.to/lastmile_qr_scan", "android": "https://dc.lft.to/lastmile_qr_scan"}, "is_reserved": 0}, {"lon": -77.0881205, "bike_id": "5ef25912283ff4df59fec401cdab8512", "lat": 38.9117625, "fusion_lon": 0.0, "fusion_lat": 0.0, "type": "electric_bike", "name": "5ef25912283ff4df59fec401cdab8512", "is_disabled": 0, "rental_uris": {"ios": "https://dc.lft.to/lastmile_qr_scan", "android": "https://dc.lft.to/lastmile_qr_scan"}, "is_reserved": 0}, {"lon": -77.01870166666667, "bike_id": "88c8a8c9fab331cebfec029702c638b7", "lat": 38.951500333333335, "fusion_lon": 0.0, "fusion_lat": 0.0, "type": "electric_scooter", "name": "88c8a8c9fab331cebfec029702c638b7", "is_disabled": 0, "rental_uris": {"ios": "https://dc.lft.to/lastmile_qr_scan", "android": "https://dc.lft.to/lastmile_qr_scan"}, "is_reserved": 0}, {"lon": -76.9910015, "bike_id": "6704c87f55468b6eb52ac80f5d93bdba", "lat": 38.9031995, "fusion_lon": 0.0, "fusion_lat": 0.0, "type": "electric_scooter", "name": "6704c87f55468b6eb52ac80f5d93bdba", "is_disabled": 0, "rental_uris": {"ios": "https://dc.lft.to/lastmile_qr_scan", "android": "https://dc.lft.to/lastmile_qr_scan"}, "is_reserved": 0}, {"lon": -77.0419605, "bike_id": "acd272005b7030874e838a2074288c41", "lat": 38.92636866666667, "fusion_lon": 0.0, "fusion_lat": 0.0, "type": "electric_scooter", "name": "acd272005b7030874e838a2074288c41", "is_disabled": 0, "rental_uris": {"ios": "https://dc.lft.to/lastmile_qr_scan", "android": "https://dc.lft.to/lastmile_qr_scan"}, "is_reserved": 0}, {"lon": -77.0148465, "bike_id": "a022b1115ae277ad726c76b6bbbcb5f1", "lat": 38.917646500000004, "fusion_lon": 0.0, "fusion_lat": 0.0, "type": "electric_scooter", "name": "a022b1115ae277ad726c76b6bbbcb5f1", "is_disabled": 0, "rental_uris": {"ios": "https://dc.lft.to/lastmile_qr_scan", "android": "https://dc.lft.to/lastmile_qr_scan"}, "is_reserved": 0}, {"lon": -77.027802, "bike_id": "ea0c9c00c5905129ecc9a9924f5f0a86", "lat": 38.92775983333333, "fusion_lon": 0.0, "fusion_lat": 0.0, "type": "electric_scooter", "name": "ea0c9c00c5905129ecc9a9924f5f0a86", "is_disabled": 0, "rental_uris": {"ios": "https://dc.lft.to/lastmile_qr_scan", "android": "https://dc.lft.to/lastmile_qr_scan"}, "is_reserved": 0}, {"lon": -76.98660633333333, "bike_id": "66df165fb5c7dce09aa7f5111c5e8ce7", "lat": 38.912479166666664, "fusion_lon": 0.0, "fusion_lat": 0.0, "type": "electric_scooter", "name": "66df165fb5c7dce09aa7f5111c5e8ce7", "is_disabled": 0, "rental_uris": {"ios": "https://dc.lft.to/lastmile_qr_scan", "android": "https://dc.lft.to/lastmile_qr_scan"}, "is_reserved": 0}, {"lon": -77.03660933333333, "bike_id": "9daa4aef786b24819ea86dee7af31c9d", "lat": 38.90342366666667, "fusion_lon": 0.0, "fusion_lat": 0.0, "type": "electric_scooter", "name": "9daa4aef786b24819ea86dee7af31c9d", "is_disabled": 0, "rental_uris": {"ios": "https://dc.lft.to/lastmile_qr_scan", "android": "https://dc.lft.to/lastmile_qr_scan"}, "is_reserved": 0}, {"lon": -77.032021, "bike_id": "1b17e606a063aa48d763f905831e51c2", "lat": 38.93045716666666, "fusion_lon": 0.0, "fusion_lat": 0.0, "type": "electric_scooter", "name": "1b17e606a063aa48d763f905831e51c2", "is_disabled": 0, "rental_uris": {"ios": "https://dc.lft.to/lastmile_qr_scan", "android": "https://dc.lft.to/lastmile_qr_scan"}, "is_reserved": 0}, {"lon": -77.02759183333333, "bike_id": "687f0a9587c26c4a475cdc3bf6b4bbcb", "lat": 38.902855, "fusion_lon": 0.0, "fusion_lat": 0.0, "type": "electric_scooter", "name": "687f0a9587c26c4a475cdc3bf6b4bbcb", "is_disabled": 0, "rental_uris": {"ios": "https://dc.lft.to/lastmile_qr_scan", "android": "https://dc.lft.to/lastmile_qr_scan"}, "is_reserved": 0}, {"lon": -77.05517133333333, "bike_id": "303610078ce089970ee498061e538237", "lat": 38.89958033333333, "fusion_lon": 0.0, "fusion_lat": 0.0, "type": "electric_scooter", "name": "303610078ce089970ee498061e538237", "is_disabled": 0, "rental_uris": {"ios": "https://dc.lft.to/lastmile_qr_scan", "android": "https://dc.lft.to/lastmile_qr_scan"}, "is_reserved": 0}, {"lon": -77.04497516666666, "bike_id": "309d0ecd575ab0d504c605be661cd47b", "lat": 38.919306666666664, "fusion_lon": 0.0, "fusion_lat": 0.0, "type": "electric_scooter", "name": "309d0ecd575ab0d504c605be661cd47b", "is_disabled": 0, "rental_uris": {"ios": "https://dc.lft.to/lastmile_qr_scan", "android": "https://dc.lft.to/lastmile_qr_scan"}, "is_reserved": 0}, {"lon": -76.98837633333333, "bike_id": "feec33c7ddd746720da6fa97c1fe6cd4", "lat": 38.901269666666664, "fusion_lon": 0.0, "fusion_lat": 0.0, "type": "electric_scooter", "name": "feec33c7ddd746720da6fa97c1fe6cd4", "is_disabled": 0, "rental_uris": {"ios": "https://dc.lft.to/lastmile_qr_scan", "android": "https://dc.lft.to/lastmile_qr_scan"}, "is_reserved": 0}, {"lon": -77.0158225, "bike_id": "63335f81d99cd333be336131b5551ecd", "lat": 38.90974083333333, "fusion_lon": 0.0, "fusion_lat": 0.0, "type": "electric_scooter", "name": "63335f81d99cd333be336131b5551ecd", "is_disabled": 0, "rental_uris": {"ios": "https://dc.lft.to/lastmile_qr_scan", "android": "https://dc.lft.to/lastmile_qr_scan"}, "is_reserved": 0}, {"lon": -77.005814, "bike_id": "79e6658d14af655c012d3345680ba7b8", "lat": 38.90562116666667, "fusion_lon": 0.0, "fusion_lat": 0.0, "type": "electric_scooter", "name": "79e6658d14af655c012d3345680ba7b8", "is_disabled": 0, "rental_uris": {"ios": "https://dc.lft.to/lastmile_qr_scan", "android": "https://dc.lft.to/lastmile_qr_scan"}, "is_reserved": 0}, {"lon": -76.97302433333333, "bike_id": "97f28da17b3cce3be61fff2972119ecd", "lat": 38.91646766666667, "fusion_lon": 0.0, "fusion_lat": 0.0, "type": "electric_scooter", "name": "97f28da17b3cce3be61fff2972119ecd", "is_disabled": 0, "rental_uris": {"ios": "https://dc.lft.to/lastmile_qr_scan", "android": "https://dc.lft.to/lastmile_qr_scan"}, "is_reserved": 0}, {"lon": -77.01541933333333, "bike_id": "5245f8b38dfed841f371ef8f44c05688", "lat": 38.88739733333333, "fusion_lon": 0.0, "fusion_lat": 0.0, "type": "electric_scooter", "name": "5245f8b38dfed841f371ef8f44c05688", "is_disabled": 0, "rental_uris": {"ios": "https://dc.lft.to/lastmile_qr_scan", "android": "https://dc.lft.to/lastmile_qr_scan"}, "is_reserved": 0}, {"lon": -76.94401216666667, "bike_id": "b66260bf8c98ffdab327081e88bc14b3", "lat": 38.881408666666665, "fusion_lon": 0.0, "fusion_lat": 0.0, "type": "electric_scooter", "name": "b66260bf8c98ffdab327081e88bc14b3", "is_disabled": 0, "rental_uris": {"ios": "https://dc.lft.to/lastmile_qr_scan", "android": "https://dc.lft.to/lastmile_qr_scan"}, "is_reserved": 0}, {"lon": -77.05044916666667, "bike_id": "da0e3eaa6ada68e14c0c47431bbe6844", "lat": 38.9241895, "fusion_lon": 0.0, "fusion_lat": 0.0, "type": "electric_bike", "name": "da0e3eaa6ada68e14c0c47431bbe6844", "is_disabled": 0, "rental_uris": {"ios": "https://dc.lft.to/lastmile_qr_scan", "android": "https://dc.lft.to/lastmile_qr_scan"}, "is_reserved": 0}, {"lon": -76.99353983333333, "bike_id": "d1edb3321044b794e738401085ef2291", "lat": 38.845069, "fusion_lon": 0.0, "fusion_lat": 0.0, "type": "electric_bike", "name": "d1edb3321044b794e738401085ef2291", "is_disabled": 0, "rental_uris": {"ios": "https://dc.lft.to/lastmile_qr_scan", "android": "https://dc.lft.to/lastmile_qr_scan"}, "is_reserved": 0}, {"lon": -77.04167183333334, "bike_id": "ef831c2cad882316c009cc0ef738b319", "lat": 38.92318366666667, "fusion_lon": 0.0, "fusion_lat": 0.0, "type": "electric_scooter", "name": "ef831c2cad882316c009cc0ef738b319", "is_disabled": 0, "rental_uris": {"ios": "https://dc.lft.to/lastmile_qr_scan", "android": "https://dc.lft.to/lastmile_qr_scan"}, "is_reserved": 0}, {"lon": -77.01058783333333, "bike_id": "109c53f08cdbb93719d4bbb3ee8ffd0e", "lat": 38.87867516666667, "fusion_lon": 0.0, "fusion_lat": 0.0, "type": "electric_scooter", "name": "109c53f08cdbb93719d4bbb3ee8ffd0e", "is_disabled": 0, "rental_uris": {"ios": "https://dc.lft.to/lastmile_qr_scan", "android": "https://dc.lft.to/lastmile_qr_scan"}, "is_reserved": 0}, {"lon": -76.99883816666667, "bike_id": "4de64a5874e582a3268e204672d74678", "lat": 38.920561166666666, "fusion_lon": 0.0, "fusion_lat": 0.0, "type": "electric_scooter", "name": "4de64a5874e582a3268e204672d74678", "is_disabled": 0, "rental_uris": {"ios": "https://dc.lft.to/lastmile_qr_scan", "android": "https://dc.lft.to/lastmile_qr_scan"}, "is_reserved": 0}, {"lon": -77.03302833333333, "bike_id": "0859c59ac4802a0d477016a1afa4870e", "lat": 38.90085083333334, "fusion_lon": 0.0, "fusion_lat": 0.0, "type": "electric_scooter", "name": "0859c59ac4802a0d477016a1afa4870e", "is_disabled": 0, "rental_uris": {"ios": "https://dc.lft.to/lastmile_qr_scan", "android": "https://dc.lft.to/lastmile_qr_scan"}, "is_reserved": 0}, {"lon": -77.0298315, "bike_id": "12a769e9db6d1bba11f4c6c05ea794d4", "lat": 38.93500516666667, "fusion_lon": 0.0, "fusion_lat": 0.0, "type": "electric_scooter", "name": "12a769e9db6d1bba11f4c6c05ea794d4", "is_disabled": 0, "rental_uris": {"ios": "https://dc.lft.to/lastmile_qr_scan", "android": "https://dc.lft.to/lastmile_qr_scan"}, "is_reserved": 0}, {"lon": -77.083353, "bike_id": "486a5efe8d5543ed906d49bbb1b29334", "lat": 38.854407, "fusion_lon": 0.0, "fusion_lat": 0.0, "type": "electric_bike", "name": "486a5efe8d5543ed906d49bbb1b29334", "is_disabled": 0, "rental_uris": {"ios": "https://dc.lft.to/lastmile_qr_scan", "android": "https://dc.lft.to/lastmile_qr_scan"}, "is_reserved": 0}, {"lon": -77.02311, "bike_id": "675305fd00730dd948b918fad9ef8139", "lat": 38.90890983333333, "fusion_lon": 0.0, "fusion_lat": 0.0, "type": "electric_scooter", "name": "675305fd00730dd948b918fad9ef8139", "is_disabled": 0, "rental_uris": {"ios": "https://dc.lft.to/lastmile_qr_scan", "android": "https://dc.lft.to/lastmile_qr_scan"}, "is_reserved": 0}, {"lon": -77.03527933333334, "bike_id": "fc12f2ad521277f70fdb6e7f7dab31b7", "lat": 38.927339, "fusion_lon": 0.0, "fusion_lat": 0.0, "type": "electric_scooter", "name": "fc12f2ad521277f70fdb6e7f7dab31b7", "is_disabled": 0, "rental_uris": {"ios": "https://dc.lft.to/lastmile_qr_scan", "android": "https://dc.lft.to/lastmile_qr_scan"}, "is_reserved": 0}, {"lon": -77.03139233333333, "bike_id": "b77f4988b0df7c083166cb2bdc2e2818", "lat": 38.917592166666665, "fusion_lon": 0.0, "fusion_lat": 0.0, "type": "electric_scooter", "name": "b77f4988b0df7c083166cb2bdc2e2818", "is_disabled": 0, "rental_uris": {"ios": "https://dc.lft.to/lastmile_qr_scan", "android": "https://dc.lft.to/lastmile_qr_scan"}, "is_reserved": 0}, {"lon": -77.0260815, "bike_id": "e09fb0f8f8c9863ba9bf1488ddcb0c09", "lat": 38.925791833333335, "fusion_lon": 0.0, "fusion_lat": 0.0, "type": "electric_scooter", "name": "e09fb0f8f8c9863ba9bf1488ddcb0c09", "is_disabled": 0, "rental_uris": {"ios": "https://dc.lft.to/lastmile_qr_scan", "android": "https://dc.lft.to/lastmile_qr_scan"}, "is_reserved": 0}, {"lon": -77.02983383333333, "bike_id": "0c8e2fe0a5b42d3cdd5db41b42e7e2b7", "lat": 38.92904133333333, "fusion_lon": 0.0, "fusion_lat": 0.0, "type": "electric_scooter", "name": "0c8e2fe0a5b42d3cdd5db41b42e7e2b7", "is_disabled": 0, "rental_uris": {"ios": "https://dc.lft.to/lastmile_qr_scan", "android": "https://dc.lft.to/lastmile_qr_scan"}, "is_reserved": 0}, {"lon": -77.01723833333334, "bike_id": "9afb49bffc68f6882f3f9ada48b3688d", "lat": 38.905626, "fusion_lon": 0.0, "fusion_lat": 0.0, "type": "electric_scooter", "name": "9afb49bffc68f6882f3f9ada48b3688d", "is_disabled": 0, "rental_uris": {"ios": "https://dc.lft.to/lastmile_qr_scan", "android": "https://dc.lft.to/lastmile_qr_scan"}, "is_reserved": 0}, {"lon": -77.01185516666666, "bike_id": "11c5eb538bd7ac3aaffc83d725a67487", "lat": 38.900274833333334, "fusion_lon": 0.0, "fusion_lat": 0.0, "type": "electric_scooter", "name": "11c5eb538bd7ac3aaffc83d725a67487", "is_disabled": 0, "rental_uris": {"ios": "https://dc.lft.to/lastmile_qr_scan", "android": "https://dc.lft.to/lastmile_qr_scan"}, "is_reserved": 0}, {"lon": -77.0346915, "bike_id": "fb4e48977f519dcb2e2d8744fbd6d495", "lat": 38.90748216666667, "fusion_lon": 0.0, "fusion_lat": 0.0, "type": "electric_scooter", "name": "fb4e48977f519dcb2e2d8744fbd6d495", "is_disabled": 0, "rental_uris": {"ios": "https://dc.lft.to/lastmile_qr_scan", "android": "https://dc.lft.to/lastmile_qr_scan"}, "is_reserved": 0}, {"lon": -77.01810933333333, "bike_id": "4545f76d0fad5f10df54b242639c611c", "lat": 38.900971, "fusion_lon": 0.0, "fusion_lat": 0.0, "type": "electric_scooter", "name": "4545f76d0fad5f10df54b242639c611c", "is_disabled": 0, "rental_uris": {"ios": "https://dc.lft.to/lastmile_qr_scan", "android": "https://dc.lft.to/lastmile_qr_scan"}, "is_reserved": 0}, {"lon": -76.97824783333333, "bike_id": "21536f3e69c4d0697c67e5ebf645b110", "lat": 38.84371866666667, "fusion_lon": 0.0, "fusion_lat": 0.0, "type": "electric_bike", "name": "21536f3e69c4d0697c67e5ebf645b110", "is_disabled": 0, "rental_uris": {"ios": "https://dc.lft.to/lastmile_qr_scan", "android": "https://dc.lft.to/lastmile_qr_scan"}, "is_reserved": 0}, {"lon": -77.03584816666667, "bike_id": "19e8f088a35fcd3d1934dc0c089d3556", "lat": 38.99224666666667, "fusion_lon": 0.0, "fusion_lat": 0.0, "type": "electric_scooter", "name": "19e8f088a35fcd3d1934dc0c089d3556", "is_disabled": 0, "rental_uris": {"ios": "https://dc.lft.to/lastmile_qr_scan", "android": "https://dc.lft.to/lastmile_qr_scan"}, "is_reserved": 0}, {"lon": -76.97762033333333, "bike_id": "59b65506aacb6724b4412921ff98d1dd", "lat": 38.86445766666667, "fusion_lon": 0.0, "fusion_lat": 0.0, "type": "electric_scooter", "name": "59b65506aacb6724b4412921ff98d1dd", "is_disabled": 0, "rental_uris": {"ios": "https://dc.lft.to/lastmile_qr_scan", "android": "https://dc.lft.to/lastmile_qr_scan"}, "is_reserved": 0}, {"lon": -76.98846083333333, "bike_id": "5f6412bfc8c8dd66266862179de44724", "lat": 38.9013, "fusion_lon": 0.0, "fusion_lat": 0.0, "type": "electric_scooter", "name": "5f6412bfc8c8dd66266862179de44724", "is_disabled": 0, "rental_uris": {"ios": "https://dc.lft.to/lastmile_qr_scan", "android": "https://dc.lft.to/lastmile_qr_scan"}, "is_reserved": 0}, {"lon": -77.01160383333334, "bike_id": "df83d9c5ebcafa1aee80ea3135c94626", "lat": 38.89583483333333, "fusion_lon": 0.0, "fusion_lat": 0.0, "type": "electric_scooter", "name": "df83d9c5ebcafa1aee80ea3135c94626", "is_disabled": 0, "rental_uris": {"ios": "https://dc.lft.to/lastmile_qr_scan", "android": "https://dc.lft.to/lastmile_qr_scan"}, "is_reserved": 0}, {"lon": -77.01461266666666, "bike_id": "836d8f28ea599688656eafaf50e7f986", "lat": 38.9051605, "fusion_lon": 0.0, "fusion_lat": 0.0, "type": "electric_scooter", "name": "836d8f28ea599688656eafaf50e7f986", "is_disabled": 0, "rental_uris": {"ios": "https://dc.lft.to/lastmile_qr_scan", "android": "https://dc.lft.to/lastmile_qr_scan"}, "is_reserved": 0}, {"lon": -77.0321865, "bike_id": "134ef1fe5806b80ed3f9afa50ebd6617", "lat": 38.8922175, "fusion_lon": 0.0, "fusion_lat": 0.0, "type": "electric_scooter", "name": "134ef1fe5806b80ed3f9afa50ebd6617", "is_disabled": 0, "rental_uris": {"ios": "https://dc.lft.to/lastmile_qr_scan", "android": "https://dc.lft.to/lastmile_qr_scan"}, "is_reserved": 0}, {"lon": -77.035111, "bike_id": "2150a3d4a814946775c8a2491ca4c52d", "lat": 38.9004965, "fusion_lon": 0.0, "fusion_lat": 0.0, "type": "electric_scooter", "name": "2150a3d4a814946775c8a2491ca4c52d", "is_disabled": 0, "rental_uris": {"ios": "https://dc.lft.to/lastmile_qr_scan", "android": "https://dc.lft.to/lastmile_qr_scan"}, "is_reserved": 0}, {"lon": -77.01541783333333, "bike_id": "267ead1127e5b61a0c9d3fbc41b5c310", "lat": 38.909720166666666, "fusion_lon": 0.0, "fusion_lat": 0.0, "type": "electric_bike", "name": "267ead1127e5b61a0c9d3fbc41b5c310", "is_disabled": 0, "rental_uris": {"ios": "https://dc.lft.to/lastmile_qr_scan", "android": "https://dc.lft.to/lastmile_qr_scan"}, "is_reserved": 0}, {"lon": -77.03515766666666, "bike_id": "87d4383a12e8d7943ceb84ba9b2f3307", "lat": 38.923339, "fusion_lon": 0.0, "fusion_lat": 0.0, "type": "electric_scooter", "name": "87d4383a12e8d7943ceb84ba9b2f3307", "is_disabled": 0, "rental_uris": {"ios": "https://dc.lft.to/lastmile_qr_scan", "android": "https://dc.lft.to/lastmile_qr_scan"}, "is_reserved": 0}, {"lon": -77.04069316666667, "bike_id": "d96a3dd66a6f7beea9b9d1eb61bfcbab", "lat": 38.914909, "fusion_lon": 0.0, "fusion_lat": 0.0, "type": "electric_scooter", "name": "d96a3dd66a6f7beea9b9d1eb61bfcbab", "is_disabled": 0, "rental_uris": {"ios": "https://dc.lft.to/lastmile_qr_scan", "android": "https://dc.lft.to/lastmile_qr_scan"}, "is_reserved": 0}, {"lon": -77.122197, "bike_id": "3f0930f85d45d66f07696590c15dc5b9", "lat": 38.853010833333336, "fusion_lon": 0.0, "fusion_lat": 0.0, "type": "electric_bike", "name": "3f0930f85d45d66f07696590c15dc5b9", "is_disabled": 0, "rental_uris": {"ios": "https://dc.lft.to/lastmile_qr_scan", "android": "https://dc.lft.to/lastmile_qr_scan"}, "is_reserved": 0}, {"lon": -77.01131916666667, "bike_id": "690a30d826aee4d2254da0142d5f7a35", "lat": 38.894747, "fusion_lon": 0.0, "fusion_lat": 0.0, "type": "electric_scooter", "name": "690a30d826aee4d2254da0142d5f7a35", "is_disabled": 0, "rental_uris": {"ios": "https://dc.lft.to/lastmile_qr_scan", "android": "https://dc.lft.to/lastmile_qr_scan"}, "is_reserved": 0}, {"lon": -77.04978683333333, "bike_id": "8279a390dd8103f3725027f5f859a839", "lat": 39.06295983333333, "fusion_lon": 0.0, "fusion_lat": 0.0, "type": "electric_bike", "name": "8279a390dd8103f3725027f5f859a839", "is_disabled": 0, "rental_uris": {"ios": "https://dc.lft.to/lastmile_qr_scan", "android": "https://dc.lft.to/lastmile_qr_scan"}, "is_reserved": 0}, {"lon": -77.03665916666667, "bike_id": "6d369f815c04bc9a7238468284f80d00", "lat": 38.929853333333334, "fusion_lon": 0.0, "fusion_lat": 0.0, "type": "electric_scooter", "name": "6d369f815c04bc9a7238468284f80d00", "is_disabled": 0, "rental_uris": {"ios": "https://dc.lft.to/lastmile_qr_scan", "android": "https://dc.lft.to/lastmile_qr_scan"}, "is_reserved": 0}, {"lon": -76.9985475, "bike_id": "fc37517dede6f30dce1a97609cac8129", "lat": 38.901019, "fusion_lon": 0.0, "fusion_lat": 0.0, "type": "electric_scooter", "name": "fc37517dede6f30dce1a97609cac8129", "is_disabled": 0, "rental_uris": {"ios": "https://dc.lft.to/lastmile_qr_scan", "android": "https://dc.lft.to/lastmile_qr_scan"}, "is_reserved": 0}, {"lon": -77.07663933333333, "bike_id": "93a31c4f2f36293faea0faafc88d26db", "lat": 38.8626255, "fusion_lon": 0.0, "fusion_lat": 0.0, "type": "electric_bike", "name": "93a31c4f2f36293faea0faafc88d26db", "is_disabled": 0, "rental_uris": {"ios": "https://dc.lft.to/lastmile_qr_scan", "android": "https://dc.lft.to/lastmile_qr_scan"}, "is_reserved": 0}, {"lon": -77.0514625, "bike_id": "117738070f8911e32f84a773cfcd897a", "lat": 38.8986075, "fusion_lon": 0.0, "fusion_lat": 0.0, "type": "electric_scooter", "name": "117738070f8911e32f84a773cfcd897a", "is_disabled": 0, "rental_uris": {"ios": "https://dc.lft.to/lastmile_qr_scan", "android": "https://dc.lft.to/lastmile_qr_scan"}, "is_reserved": 0}, {"lon": -77.039683, "bike_id": "fecc950eeb537bd9cfab3e3aae5a609a", "lat": 38.902314, "fusion_lon": 0.0, "fusion_lat": 0.0, "type": "electric_scooter", "name": "fecc950eeb537bd9cfab3e3aae5a609a", "is_disabled": 0, "rental_uris": {"ios": "https://dc.lft.to/lastmile_qr_scan", "android": "https://dc.lft.to/lastmile_qr_scan"}, "is_reserved": 0}, {"lon": -77.024421, "bike_id": "f6bbb6b1aa59238eb7ca8e750196d777", "lat": 38.922647, "fusion_lon": 0.0, "fusion_lat": 0.0, "type": "electric_scooter", "name": "f6bbb6b1aa59238eb7ca8e750196d777", "is_disabled": 0, "rental_uris": {"ios": "https://dc.lft.to/lastmile_qr_scan", "android": "https://dc.lft.to/lastmile_qr_scan"}, "is_reserved": 0}, {"lon": -76.9900995, "bike_id": "47a8225982f338d3373b05564c7617e7", "lat": 38.94596716666667, "fusion_lon": 0.0, "fusion_lat": 0.0, "type": "electric_scooter", "name": "47a8225982f338d3373b05564c7617e7", "is_disabled": 0, "rental_uris": {"ios": "https://dc.lft.to/lastmile_qr_scan", "android": "https://dc.lft.to/lastmile_qr_scan"}, "is_reserved": 0}, {"lon": -77.03856333333333, "bike_id": "227e3fc1702707e795ec344483b3a047", "lat": 38.92018383333333, "fusion_lon": 0.0, "fusion_lat": 0.0, "type": "electric_scooter", "name": "227e3fc1702707e795ec344483b3a047", "is_disabled": 0, "rental_uris": {"ios": "https://dc.lft.to/lastmile_qr_scan", "android": "https://dc.lft.to/lastmile_qr_scan"}, "is_reserved": 0}, {"lon": -76.994871, "bike_id": "651f560ba720c1dbafc398a4b4206c76", "lat": 38.879536333333334, "fusion_lon": 0.0, "fusion_lat": 0.0, "type": "electric_scooter", "name": "651f560ba720c1dbafc398a4b4206c76", "is_disabled": 0, "rental_uris": {"ios": "https://dc.lft.to/lastmile_qr_scan", "android": "https://dc.lft.to/lastmile_qr_scan"}, "is_reserved": 0}, {"lon": -76.9898875, "bike_id": "c159a8fba1fde2845c190262df1e36ec", "lat": 38.859285666666665, "fusion_lon": 0.0, "fusion_lat": 0.0, "type": "electric_scooter", "name": "c159a8fba1fde2845c190262df1e36ec", "is_disabled": 0, "rental_uris": {"ios": "https://dc.lft.to/lastmile_qr_scan", "android": "https://dc.lft.to/lastmile_qr_scan"}, "is_reserved": 0}, {"lon": -76.993679, "bike_id": "981bc6b1166cab83e968fb8ef1e077ca", "lat": 38.94026683333333, "fusion_lon": 0.0, "fusion_lat": 0.0, "type": "electric_scooter", "name": "981bc6b1166cab83e968fb8ef1e077ca", "is_disabled": 0, "rental_uris": {"ios": "https://dc.lft.to/lastmile_qr_scan", "android": "https://dc.lft.to/lastmile_qr_scan"}, "is_reserved": 0}, {"lon": -77.02154, "bike_id": "6ddfaeecd1ab8311d1f4ec7c7f70adc5", "lat": 38.92251566666667, "fusion_lon": 0.0, "fusion_lat": 0.0, "type": "electric_scooter", "name": "6ddfaeecd1ab8311d1f4ec7c7f70adc5", "is_disabled": 0, "rental_uris": {"ios": "https://dc.lft.to/lastmile_qr_scan", "android": "https://dc.lft.to/lastmile_qr_scan"}, "is_reserved": 0}, {"lon": -76.92770583333333, "bike_id": "454d75c57421f92c87b6de377a914fca", "lat": 38.9008735, "fusion_lon": 0.0, "fusion_lat": 0.0, "type": "electric_scooter", "name": "454d75c57421f92c87b6de377a914fca", "is_disabled": 0, "rental_uris": {"ios": "https://dc.lft.to/lastmile_qr_scan", "android": "https://dc.lft.to/lastmile_qr_scan"}, "is_reserved": 0}, {"lon": -77.05492516666666, "bike_id": "72a83c64192331084d7b9c4660735093", "lat": 38.908416, "fusion_lon": 0.0, "fusion_lat": 0.0, "type": "electric_scooter", "name": "72a83c64192331084d7b9c4660735093", "is_disabled": 0, "rental_uris": {"ios": "https://dc.lft.to/lastmile_qr_scan", "android": "https://dc.lft.to/lastmile_qr_scan"}, "is_reserved": 0}, {"lon": -77.051971, "bike_id": "3bf00c44a2f8a535f482d96a19e36ae0", "lat": 38.92452333333333, "fusion_lon": 0.0, "fusion_lat": 0.0, "type": "electric_scooter", "name": "3bf00c44a2f8a535f482d96a19e36ae0", "is_disabled": 0, "rental_uris": {"ios": "https://dc.lft.to/lastmile_qr_scan", "android": "https://dc.lft.to/lastmile_qr_scan"}, "is_reserved": 0}, {"lon": -77.02372333333334, "bike_id": "292328c5edcc5ea903e54eda5bad7267", "lat": 38.90205016666667, "fusion_lon": 0.0, "fusion_lat": 0.0, "type": "electric_scooter", "name": "292328c5edcc5ea903e54eda5bad7267", "is_disabled": 0, "rental_uris": {"ios": "https://dc.lft.to/lastmile_qr_scan", "android": "https://dc.lft.to/lastmile_qr_scan"}, "is_reserved": 0}, {"lon": -76.98313666666667, "bike_id": "521975e2eaf689c3c859f940d3d46088", "lat": 38.86890016666667, "fusion_lon": 0.0, "fusion_lat": 0.0, "type": "electric_scooter", "name": "521975e2eaf689c3c859f940d3d46088", "is_disabled": 0, "rental_uris": {"ios": "https://dc.lft.to/lastmile_qr_scan", "android": "https://dc.lft.to/lastmile_qr_scan"}, "is_reserved": 0}, {"lon": -76.96057316666666, "bike_id": "e570c7ec3394966507f338f7f2b81f91", "lat": 38.884046, "fusion_lon": 0.0, "fusion_lat": 0.0, "type": "electric_bike", "name": "e570c7ec3394966507f338f7f2b81f91", "is_disabled": 0, "rental_uris": {"ios": "https://dc.lft.to/lastmile_qr_scan", "android": "https://dc.lft.to/lastmile_qr_scan"}, "is_reserved": 0}, {"lon": -76.98715916666667, "bike_id": "95e3cd1ae9b8e9d4e45fcc24ad04b45f", "lat": 38.86624883333333, "fusion_lon": 0.0, "fusion_lat": 0.0, "type": "electric_scooter", "name": "95e3cd1ae9b8e9d4e45fcc24ad04b45f", "is_disabled": 0, "rental_uris": {"ios": "https://dc.lft.to/lastmile_qr_scan", "android": "https://dc.lft.to/lastmile_qr_scan"}, "is_reserved": 0}, {"lon": -77.00209566666666, "bike_id": "5f59af0ca2cc293cfb1d3a984200d62f", "lat": 38.90045, "fusion_lon": 0.0, "fusion_lat": 0.0, "type": "electric_scooter", "name": "5f59af0ca2cc293cfb1d3a984200d62f", "is_disabled": 0, "rental_uris": {"ios": "https://dc.lft.to/lastmile_qr_scan", "android": "https://dc.lft.to/lastmile_qr_scan"}, "is_reserved": 0}, {"lon": -77.03178433333333, "bike_id": "08df197e883122984ab3fa2d082d5b54", "lat": 38.9191475, "fusion_lon": 0.0, "fusion_lat": 0.0, "type": "electric_scooter", "name": "08df197e883122984ab3fa2d082d5b54", "is_disabled": 0, "rental_uris": {"ios": "https://dc.lft.to/lastmile_qr_scan", "android": "https://dc.lft.to/lastmile_qr_scan"}, "is_reserved": 0}, {"lon": -77.03459033333333, "bike_id": "5c58237181102270e990f50270cfec5b", "lat": 38.91009, "fusion_lon": 0.0, "fusion_lat": 0.0, "type": "electric_scooter", "name": "5c58237181102270e990f50270cfec5b", "is_disabled": 0, "rental_uris": {"ios": "https://dc.lft.to/lastmile_qr_scan", "android": "https://dc.lft.to/lastmile_qr_scan"}, "is_reserved": 0}, {"lon": -77.01135133333334, "bike_id": "d56b7bdd5ccd65839e8a8a379f3ea41f", "lat": 38.907284, "fusion_lon": 0.0, "fusion_lat": 0.0, "type": "electric_scooter", "name": "d56b7bdd5ccd65839e8a8a379f3ea41f", "is_disabled": 0, "rental_uris": {"ios": "https://dc.lft.to/lastmile_qr_scan", "android": "https://dc.lft.to/lastmile_qr_scan"}, "is_reserved": 0}, {"lon": -76.98884966666667, "bike_id": "9a477922083b9ad1e7001475857847de", "lat": 38.866522, "fusion_lon": 0.0, "fusion_lat": 0.0, "type": "electric_scooter", "name": "9a477922083b9ad1e7001475857847de", "is_disabled": 0, "rental_uris": {"ios": "https://dc.lft.to/lastmile_qr_scan", "android": "https://dc.lft.to/lastmile_qr_scan"}, "is_reserved": 0}, {"lon": -77.00991483333334, "bike_id": "0571c847bd6cb1950603ce8c10ca82ec", "lat": 38.90366366666667, "fusion_lon": 0.0, "fusion_lat": 0.0, "type": "electric_scooter", "name": "0571c847bd6cb1950603ce8c10ca82ec", "is_disabled": 0, "rental_uris": {"ios": "https://dc.lft.to/lastmile_qr_scan", "android": "https://dc.lft.to/lastmile_qr_scan"}, "is_reserved": 0}, {"lon": -77.02823983333333, "bike_id": "89815f432f206653746d21d4ed1f5905", "lat": 38.89516583333333, "fusion_lon": 0.0, "fusion_lat": 0.0, "type": "electric_scooter", "name": "89815f432f206653746d21d4ed1f5905", "is_disabled": 0, "rental_uris": {"ios": "https://dc.lft.to/lastmile_qr_scan", "android": "https://dc.lft.to/lastmile_qr_scan"}, "is_reserved": 0}, {"lon": -77.02603866666666, "bike_id": "3f026739f6e3de9405a37d349ccbcb67", "lat": 38.90495766666667, "fusion_lon": 0.0, "fusion_lat": 0.0, "type": "electric_scooter", "name": "3f026739f6e3de9405a37d349ccbcb67", "is_disabled": 0, "rental_uris": {"ios": "https://dc.lft.to/lastmile_qr_scan", "android": "https://dc.lft.to/lastmile_qr_scan"}, "is_reserved": 0}, {"lon": -77.03262366666667, "bike_id": "51e02dcb7cb960c6ff1d5ae0b0c5782f", "lat": 38.93664583333333, "fusion_lon": 0.0, "fusion_lat": 0.0, "type": "electric_scooter", "name": "51e02dcb7cb960c6ff1d5ae0b0c5782f", "is_disabled": 0, "rental_uris": {"ios": "https://dc.lft.to/lastmile_qr_scan", "android": "https://dc.lft.to/lastmile_qr_scan"}, "is_reserved": 0}, {"lon": -77.02180983333334, "bike_id": "5ad19722d15097b1fadb9f735deda9ea", "lat": 38.89736466666667, "fusion_lon": 0.0, "fusion_lat": 0.0, "type": "electric_scooter", "name": "5ad19722d15097b1fadb9f735deda9ea", "is_disabled": 0, "rental_uris": {"ios": "https://dc.lft.to/lastmile_qr_scan", "android": "https://dc.lft.to/lastmile_qr_scan"}, "is_reserved": 0}, {"lon": -77.00211716666666, "bike_id": "1925411dd34918a572c5b279e0aba070", "lat": 38.90035116666667, "fusion_lon": 0.0, "fusion_lat": 0.0, "type": "electric_scooter", "name": "1925411dd34918a572c5b279e0aba070", "is_disabled": 0, "rental_uris": {"ios": "https://dc.lft.to/lastmile_qr_scan", "android": "https://dc.lft.to/lastmile_qr_scan"}, "is_reserved": 0}, {"lon": -77.11916983333333, "bike_id": "187e07bd941b40f1d8c259f316c6cca1", "lat": 38.87635216666666, "fusion_lon": 0.0, "fusion_lat": 0.0, "type": "electric_bike", "name": "187e07bd941b40f1d8c259f316c6cca1", "is_disabled": 0, "rental_uris": {"ios": "https://dc.lft.to/lastmile_qr_scan", "android": "https://dc.lft.to/lastmile_qr_scan"}, "is_reserved": 0}, {"lon": -77.01047683333333, "bike_id": "48c4ba8d499db2259e4d37edc23a6e3b", "lat": 38.963446166666664, "fusion_lon": 0.0, "fusion_lat": 0.0, "type": "electric_scooter", "name": "48c4ba8d499db2259e4d37edc23a6e3b", "is_disabled": 0, "rental_uris": {"ios": "https://dc.lft.to/lastmile_qr_scan", "android": "https://dc.lft.to/lastmile_qr_scan"}, "is_reserved": 0}, {"lon": -77.01604383333333, "bike_id": "80773eb092d395036c57253c8984eb69", "lat": 38.899726666666666, "fusion_lon": 0.0, "fusion_lat": 0.0, "type": "electric_scooter", "name": "80773eb092d395036c57253c8984eb69", "is_disabled": 0, "rental_uris": {"ios": "https://dc.lft.to/lastmile_qr_scan", "android": "https://dc.lft.to/lastmile_qr_scan"}, "is_reserved": 0}, {"lon": -77.03452166666666, "bike_id": "c000b08c6139ade6f626e763bba688e2", "lat": 38.90947633333333, "fusion_lon": 0.0, "fusion_lat": 0.0, "type": "electric_scooter", "name": "c000b08c6139ade6f626e763bba688e2", "is_disabled": 0, "rental_uris": {"ios": "https://dc.lft.to/lastmile_qr_scan", "android": "https://dc.lft.to/lastmile_qr_scan"}, "is_reserved": 0}, {"lon": -76.97188333333334, "bike_id": "ae1ea16ed3aebcb43a4f38c2356de753", "lat": 38.873894666666665, "fusion_lon": 0.0, "fusion_lat": 0.0, "type": "electric_scooter", "name": "ae1ea16ed3aebcb43a4f38c2356de753", "is_disabled": 0, "rental_uris": {"ios": "https://dc.lft.to/lastmile_qr_scan", "android": "https://dc.lft.to/lastmile_qr_scan"}, "is_reserved": 0}, {"lon": -77.02213016666667, "bike_id": "00b78de30f745760c3718d9c18b9b458", "lat": 38.92610483333333, "fusion_lon": 0.0, "fusion_lat": 0.0, "type": "electric_scooter", "name": "00b78de30f745760c3718d9c18b9b458", "is_disabled": 0, "rental_uris": {"ios": "https://dc.lft.to/lastmile_qr_scan", "android": "https://dc.lft.to/lastmile_qr_scan"}, "is_reserved": 0}, {"lon": -77.037544, "bike_id": "6cbd934498ca23972b4136a97b08d968", "lat": 38.928878833333336, "fusion_lon": 0.0, "fusion_lat": 0.0, "type": "electric_scooter", "name": "6cbd934498ca23972b4136a97b08d968", "is_disabled": 0, "rental_uris": {"ios": "https://dc.lft.to/lastmile_qr_scan", "android": "https://dc.lft.to/lastmile_qr_scan"}, "is_reserved": 0}, {"lon": -77.02248966666667, "bike_id": "0eb7594ab2ad380d7a024666591cca30", "lat": 38.96209266666666, "fusion_lon": 0.0, "fusion_lat": 0.0, "type": "electric_bike", "name": "0eb7594ab2ad380d7a024666591cca30", "is_disabled": 0, "rental_uris": {"ios": "https://dc.lft.to/lastmile_qr_scan", "android": "https://dc.lft.to/lastmile_qr_scan"}, "is_reserved": 0}, {"lon": -77.0431865, "bike_id": "1b9ab9589eb4a08b3e71799376fd4d0f", "lat": 38.90833966666667, "fusion_lon": 0.0, "fusion_lat": 0.0, "type": "electric_scooter", "name": "1b9ab9589eb4a08b3e71799376fd4d0f", "is_disabled": 0, "rental_uris": {"ios": "https://dc.lft.to/lastmile_qr_scan", "android": "https://dc.lft.to/lastmile_qr_scan"}, "is_reserved": 0}, {"lon": -77.0483555, "bike_id": "de606151a365aabb7b0f759929d7c554", "lat": 38.89743133333333, "fusion_lon": 0.0, "fusion_lat": 0.0, "type": "electric_scooter", "name": "de606151a365aabb7b0f759929d7c554", "is_disabled": 0, "rental_uris": {"ios": "https://dc.lft.to/lastmile_qr_scan", "android": "https://dc.lft.to/lastmile_qr_scan"}, "is_reserved": 0}, {"lon": -77.04391216666667, "bike_id": "83291f254f05d11094757aa0220a152b", "lat": 39.04717866666667, "fusion_lon": 0.0, "fusion_lat": 0.0, "type": "electric_bike", "name": "83291f254f05d11094757aa0220a152b", "is_disabled": 0, "rental_uris": {"ios": "https://dc.lft.to/lastmile_qr_scan", "android": "https://dc.lft.to/lastmile_qr_scan"}, "is_reserved": 0}, {"lon": -77.02112633333333, "bike_id": "601fea06f661eb5d2d1dab7743813931", "lat": 38.906015, "fusion_lon": 0.0, "fusion_lat": 0.0, "type": "electric_scooter", "name": "601fea06f661eb5d2d1dab7743813931", "is_disabled": 0, "rental_uris": {"ios": "https://dc.lft.to/lastmile_qr_scan", "android": "https://dc.lft.to/lastmile_qr_scan"}, "is_reserved": 0}, {"lon": -77.02841166666667, "bike_id": "e4ebcd18583b6cd7ff9155fe191a4c6f", "lat": 38.92569983333333, "fusion_lon": 0.0, "fusion_lat": 0.0, "type": "electric_scooter", "name": "e4ebcd18583b6cd7ff9155fe191a4c6f", "is_disabled": 0, "rental_uris": {"ios": "https://dc.lft.to/lastmile_qr_scan", "android": "https://dc.lft.to/lastmile_qr_scan"}, "is_reserved": 0}, {"lon": -76.98921033333333, "bike_id": "5c966893941e8009d32edaa9a7b40642", "lat": 38.858087, "fusion_lon": 0.0, "fusion_lat": 0.0, "type": "electric_scooter", "name": "5c966893941e8009d32edaa9a7b40642", "is_disabled": 0, "rental_uris": {"ios": "https://dc.lft.to/lastmile_qr_scan", "android": "https://dc.lft.to/lastmile_qr_scan"}, "is_reserved": 0}, {"lon": -77.05577333333333, "bike_id": "aa11f063d5e8a2d8607682eed619faab", "lat": 38.916006833333334, "fusion_lon": 0.0, "fusion_lat": 0.0, "type": "electric_scooter", "name": "aa11f063d5e8a2d8607682eed619faab", "is_disabled": 0, "rental_uris": {"ios": "https://dc.lft.to/lastmile_qr_scan", "android": "https://dc.lft.to/lastmile_qr_scan"}, "is_reserved": 0}, {"lon": -77.05128566666667, "bike_id": "88b8b0df36272f5af6d4ede8371fb17d", "lat": 38.92364666666667, "fusion_lon": 0.0, "fusion_lat": 0.0, "type": "electric_scooter", "name": "88b8b0df36272f5af6d4ede8371fb17d", "is_disabled": 0, "rental_uris": {"ios": "https://dc.lft.to/lastmile_qr_scan", "android": "https://dc.lft.to/lastmile_qr_scan"}, "is_reserved": 0}, {"lon": -77.026834, "bike_id": "f536cef804da48272ca1ee23f51aa941", "lat": 38.90051833333333, "fusion_lon": 0.0, "fusion_lat": 0.0, "type": "electric_scooter", "name": "f536cef804da48272ca1ee23f51aa941", "is_disabled": 0, "rental_uris": {"ios": "https://dc.lft.to/lastmile_qr_scan", "android": "https://dc.lft.to/lastmile_qr_scan"}, "is_reserved": 0}, {"lon": -76.91597033333333, "bike_id": "c92b355f625fd7caadb397fa91f866fe", "lat": 38.87983583333333, "fusion_lon": 0.0, "fusion_lat": 0.0, "type": "electric_bike", "name": "c92b355f625fd7caadb397fa91f866fe", "is_disabled": 0, "rental_uris": {"ios": "https://dc.lft.to/lastmile_qr_scan", "android": "https://dc.lft.to/lastmile_qr_scan"}, "is_reserved": 0}, {"lon": -77.05862183333333, "bike_id": "891bdb75f99fc92a4818134e7784fa8e", "lat": 38.93607166666666, "fusion_lon": 0.0, "fusion_lat": 0.0, "type": "electric_scooter", "name": "891bdb75f99fc92a4818134e7784fa8e", "is_disabled": 0, "rental_uris": {"ios": "https://dc.lft.to/lastmile_qr_scan", "android": "https://dc.lft.to/lastmile_qr_scan"}, "is_reserved": 0}, {"lon": -77.021688, "bike_id": "3657a5df8eeec7fcf3f31230ce976824", "lat": 38.897465333333336, "fusion_lon": 0.0, "fusion_lat": 0.0, "type": "electric_scooter", "name": "3657a5df8eeec7fcf3f31230ce976824", "is_disabled": 0, "rental_uris": {"ios": "https://dc.lft.to/lastmile_qr_scan", "android": "https://dc.lft.to/lastmile_qr_scan"}, "is_reserved": 0}, {"lon": -77.07345683333334, "bike_id": "8969cb39485ca47130a679460b83805d", "lat": 38.911038, "fusion_lon": 0.0, "fusion_lat": 0.0, "type": "electric_scooter", "name": "8969cb39485ca47130a679460b83805d", "is_disabled": 0, "rental_uris": {"ios": "https://dc.lft.to/lastmile_qr_scan", "android": "https://dc.lft.to/lastmile_qr_scan"}, "is_reserved": 0}, {"lon": -76.990463, "bike_id": "a135666c40dd0610a253fd5d97a98d56", "lat": 38.884148333333336, "fusion_lon": 0.0, "fusion_lat": 0.0, "type": "electric_scooter", "name": "a135666c40dd0610a253fd5d97a98d56", "is_disabled": 0, "rental_uris": {"ios": "https://dc.lft.to/lastmile_qr_scan", "android": "https://dc.lft.to/lastmile_qr_scan"}, "is_reserved": 0}, {"lon": -77.04176016666666, "bike_id": "6518cae2317034a4c64107d7b97ca171", "lat": 38.919165166666666, "fusion_lon": 0.0, "fusion_lat": 0.0, "type": "electric_scooter", "name": "6518cae2317034a4c64107d7b97ca171", "is_disabled": 0, "rental_uris": {"ios": "https://dc.lft.to/lastmile_qr_scan", "android": "https://dc.lft.to/lastmile_qr_scan"}, "is_reserved": 0}, {"lon": -76.97332133333333, "bike_id": "b27ab40e0225729b22a2b69aa7cc0d56", "lat": 38.904803, "fusion_lon": 0.0, "fusion_lat": 0.0, "type": "electric_bike", "name": "b27ab40e0225729b22a2b69aa7cc0d56", "is_disabled": 0, "rental_uris": {"ios": "https://dc.lft.to/lastmile_qr_scan", "android": "https://dc.lft.to/lastmile_qr_scan"}, "is_reserved": 0}, {"lon": -77.00272766666667, "bike_id": "e2960ea8ca1c2d08da85fc6e28424f0a", "lat": 38.9110065, "fusion_lon": 0.0, "fusion_lat": 0.0, "type": "electric_scooter", "name": "e2960ea8ca1c2d08da85fc6e28424f0a", "is_disabled": 0, "rental_uris": {"ios": "https://dc.lft.to/lastmile_qr_scan", "android": "https://dc.lft.to/lastmile_qr_scan"}, "is_reserved": 0}, {"lon": -76.982154, "bike_id": "bb274af054d9cd3878e7249659e02774", "lat": 38.86615583333333, "fusion_lon": 0.0, "fusion_lat": 0.0, "type": "electric_scooter", "name": "bb274af054d9cd3878e7249659e02774", "is_disabled": 0, "rental_uris": {"ios": "https://dc.lft.to/lastmile_qr_scan", "android": "https://dc.lft.to/lastmile_qr_scan"}, "is_reserved": 0}, {"lon": -77.02096916666666, "bike_id": "63ad3d1bf0ac60cf11536b42359a1e8f", "lat": 38.89957866666666, "fusion_lon": 0.0, "fusion_lat": 0.0, "type": "electric_scooter", "name": "63ad3d1bf0ac60cf11536b42359a1e8f", "is_disabled": 0, "rental_uris": {"ios": "https://dc.lft.to/lastmile_qr_scan", "android": "https://dc.lft.to/lastmile_qr_scan"}, "is_reserved": 0}, {"lon": -77.04022733333333, "bike_id": "00bfc33d17334398281b9db4ab6885c3", "lat": 38.911127666666665, "fusion_lon": 0.0, "fusion_lat": 0.0, "type": "electric_scooter", "name": "00bfc33d17334398281b9db4ab6885c3", "is_disabled": 0, "rental_uris": {"ios": "https://dc.lft.to/lastmile_qr_scan", "android": "https://dc.lft.to/lastmile_qr_scan"}, "is_reserved": 0}, {"lon": -76.929992, "bike_id": "b37e5d5549f4d73eabbb7da5273237c7", "lat": 38.90190066666667, "fusion_lon": 0.0, "fusion_lat": 0.0, "type": "electric_scooter", "name": "b37e5d5549f4d73eabbb7da5273237c7", "is_disabled": 0, "rental_uris": {"ios": "https://dc.lft.to/lastmile_qr_scan", "android": "https://dc.lft.to/lastmile_qr_scan"}, "is_reserved": 0}, {"lon": -77.02080433333333, "bike_id": "9dc1f47bd3e6bcb87d774e345f9333f7", "lat": 38.93011966666667, "fusion_lon": 0.0, "fusion_lat": 0.0, "type": "electric_scooter", "name": "9dc1f47bd3e6bcb87d774e345f9333f7", "is_disabled": 0, "rental_uris": {"ios": "https://dc.lft.to/lastmile_qr_scan", "android": "https://dc.lft.to/lastmile_qr_scan"}, "is_reserved": 0}, {"lon": -77.01419283333334, "bike_id": "2fcaca780382dd8bf11a265bfcfd1dc1", "lat": 38.928422833333336, "fusion_lon": 0.0, "fusion_lat": 0.0, "type": "electric_scooter", "name": "2fcaca780382dd8bf11a265bfcfd1dc1", "is_disabled": 0, "rental_uris": {"ios": "https://dc.lft.to/lastmile_qr_scan", "android": "https://dc.lft.to/lastmile_qr_scan"}, "is_reserved": 0}, {"lon": -77.0389355, "bike_id": "ccf65314ddca5dcefd94430a98e79cc4", "lat": 38.920075833333335, "fusion_lon": 0.0, "fusion_lat": 0.0, "type": "electric_scooter", "name": "ccf65314ddca5dcefd94430a98e79cc4", "is_disabled": 0, "rental_uris": {"ios": "https://dc.lft.to/lastmile_qr_scan", "android": "https://dc.lft.to/lastmile_qr_scan"}, "is_reserved": 0}, {"lon": -77.027118, "bike_id": "b12d67671491b716c16a78bbb91e2905", "lat": 38.927673, "fusion_lon": 0.0, "fusion_lat": 0.0, "type": "electric_scooter", "name": "b12d67671491b716c16a78bbb91e2905", "is_disabled": 0, "rental_uris": {"ios": "https://dc.lft.to/lastmile_qr_scan", "android": "https://dc.lft.to/lastmile_qr_scan"}, "is_reserved": 0}, {"lon": -77.04508533333333, "bike_id": "85867b20a5eeaf034be9cf3832c46f6a", "lat": 38.88599166666667, "fusion_lon": 0.0, "fusion_lat": 0.0, "type": "electric_scooter", "name": "85867b20a5eeaf034be9cf3832c46f6a", "is_disabled": 0, "rental_uris": {"ios": "https://dc.lft.to/lastmile_qr_scan", "android": "https://dc.lft.to/lastmile_qr_scan"}, "is_reserved": 0}, {"lon": -77.03595683333333, "bike_id": "843fcad53ed15e647f7e9a31680e63a0", "lat": 38.917715, "fusion_lon": 0.0, "fusion_lat": 0.0, "type": "electric_scooter", "name": "843fcad53ed15e647f7e9a31680e63a0", "is_disabled": 0, "rental_uris": {"ios": "https://dc.lft.to/lastmile_qr_scan", "android": "https://dc.lft.to/lastmile_qr_scan"}, "is_reserved": 0}, {"lon": -77.1091695, "bike_id": "7c9497924a3542d563c7d014e57bee21", "lat": 39.05194916666667, "fusion_lon": 0.0, "fusion_lat": 0.0, "type": "electric_bike", "name": "7c9497924a3542d563c7d014e57bee21", "is_disabled": 0, "rental_uris": {"ios": "https://dc.lft.to/lastmile_qr_scan", "android": "https://dc.lft.to/lastmile_qr_scan"}, "is_reserved": 0}, {"lon": -77.01413933333333, "bike_id": "4aac9f76784b2d2efc79faa0fbe227d0", "lat": 38.92822316666667, "fusion_lon": 0.0, "fusion_lat": 0.0, "type": "electric_scooter", "name": "4aac9f76784b2d2efc79faa0fbe227d0", "is_disabled": 0, "rental_uris": {"ios": "https://dc.lft.to/lastmile_qr_scan", "android": "https://dc.lft.to/lastmile_qr_scan"}, "is_reserved": 0}, {"lon": -76.99183966666666, "bike_id": "5a9ad2efe83bbee2c8e0417abcf0dc1f", "lat": 38.90837366666667, "fusion_lon": 0.0, "fusion_lat": 0.0, "type": "electric_scooter", "name": "5a9ad2efe83bbee2c8e0417abcf0dc1f", "is_disabled": 0, "rental_uris": {"ios": "https://dc.lft.to/lastmile_qr_scan", "android": "https://dc.lft.to/lastmile_qr_scan"}, "is_reserved": 0}, {"lon": -76.987174, "bike_id": "e590e256365a63fd55871df710051b19", "lat": 38.867022166666665, "fusion_lon": 0.0, "fusion_lat": 0.0, "type": "electric_scooter", "name": "e590e256365a63fd55871df710051b19", "is_disabled": 0, "rental_uris": {"ios": "https://dc.lft.to/lastmile_qr_scan", "android": "https://dc.lft.to/lastmile_qr_scan"}, "is_reserved": 0}, {"lon": -77.02681083333333, "bike_id": "a1ea834c88f8d85a2646c3713039a9b0", "lat": 38.9848925, "fusion_lon": 0.0, "fusion_lat": 0.0, "type": "electric_scooter", "name": "a1ea834c88f8d85a2646c3713039a9b0", "is_disabled": 0, "rental_uris": {"ios": "https://dc.lft.to/lastmile_qr_scan", "android": "https://dc.lft.to/lastmile_qr_scan"}, "is_reserved": 0}, {"lon": -77.021037, "bike_id": "aaaa4cf8fed54243000c188726aa744b", "lat": 38.92180483333333, "fusion_lon": 0.0, "fusion_lat": 0.0, "type": "electric_scooter", "name": "aaaa4cf8fed54243000c188726aa744b", "is_disabled": 0, "rental_uris": {"ios": "https://dc.lft.to/lastmile_qr_scan", "android": "https://dc.lft.to/lastmile_qr_scan"}, "is_reserved": 0}, {"lon": -77.03174416666667, "bike_id": "4450faf738cae29c7815d9d0da6e4db4", "lat": 38.887358666666664, "fusion_lon": 0.0, "fusion_lat": 0.0, "type": "electric_scooter", "name": "4450faf738cae29c7815d9d0da6e4db4", "is_disabled": 0, "rental_uris": {"ios": "https://dc.lft.to/lastmile_qr_scan", "android": "https://dc.lft.to/lastmile_qr_scan"}, "is_reserved": 0}, {"lon": -77.0016225, "bike_id": "9a5264b4fbb64367780d542c4f4e97ab", "lat": 38.84282533333333, "fusion_lon": 0.0, "fusion_lat": 0.0, "type": "electric_scooter", "name": "9a5264b4fbb64367780d542c4f4e97ab", "is_disabled": 0, "rental_uris": {"ios": "https://dc.lft.to/lastmile_qr_scan", "android": "https://dc.lft.to/lastmile_qr_scan"}, "is_reserved": 0}, {"lon": -76.987077, "bike_id": "6ea451e2754951002edea36325876241", "lat": 38.86695616666667, "fusion_lon": 0.0, "fusion_lat": 0.0, "type": "electric_scooter", "name": "6ea451e2754951002edea36325876241", "is_disabled": 0, "rental_uris": {"ios": "https://dc.lft.to/lastmile_qr_scan", "android": "https://dc.lft.to/lastmile_qr_scan"}, "is_reserved": 0}, {"lon": -77.00328833333333, "bike_id": "85a3c55cfa74fc27d3db4a8a8eb8a7c1", "lat": 38.919825, "fusion_lon": 0.0, "fusion_lat": 0.0, "type": "electric_bike", "name": "85a3c55cfa74fc27d3db4a8a8eb8a7c1", "is_disabled": 0, "rental_uris": {"ios": "https://dc.lft.to/lastmile_qr_scan", "android": "https://dc.lft.to/lastmile_qr_scan"}, "is_reserved": 0}, {"lon": -77.01539633333333, "bike_id": "1f032569337c3f9b89297dbdbbaf6f3a", "lat": 38.883201, "fusion_lon": 0.0, "fusion_lat": 0.0, "type": "electric_scooter", "name": "1f032569337c3f9b89297dbdbbaf6f3a", "is_disabled": 0, "rental_uris": {"ios": "https://dc.lft.to/lastmile_qr_scan", "android": "https://dc.lft.to/lastmile_qr_scan"}, "is_reserved": 0}, {"lon": -77.03060466666666, "bike_id": "8d7aaa4696b246e7b1c49ad08b303c2d", "lat": 38.938741666666665, "fusion_lon": 0.0, "fusion_lat": 0.0, "type": "electric_scooter", "name": "8d7aaa4696b246e7b1c49ad08b303c2d", "is_disabled": 0, "rental_uris": {"ios": "https://dc.lft.to/lastmile_qr_scan", "android": "https://dc.lft.to/lastmile_qr_scan"}, "is_reserved": 0}, {"lon": -77.01984666666667, "bike_id": "8e0d2e1f5bc74aa468797ad4900b2e2b", "lat": 38.96028233333333, "fusion_lon": 0.0, "fusion_lat": 0.0, "type": "electric_scooter", "name": "8e0d2e1f5bc74aa468797ad4900b2e2b", "is_disabled": 0, "rental_uris": {"ios": "https://dc.lft.to/lastmile_qr_scan", "android": "https://dc.lft.to/lastmile_qr_scan"}, "is_reserved": 0}, {"lon": -77.02463633333333, "bike_id": "65f49f7726f898885f4f2bb5da7390f9", "lat": 38.938516, "fusion_lon": 0.0, "fusion_lat": 0.0, "type": "electric_scooter", "name": "65f49f7726f898885f4f2bb5da7390f9", "is_disabled": 0, "rental_uris": {"ios": "https://dc.lft.to/lastmile_qr_scan", "android": "https://dc.lft.to/lastmile_qr_scan"}, "is_reserved": 0}, {"lon": -77.03302516666666, "bike_id": "0ed9db6cdfd88148f0359dea4aafba4e", "lat": 38.92547066666667, "fusion_lon": 0.0, "fusion_lat": 0.0, "type": "electric_scooter", "name": "0ed9db6cdfd88148f0359dea4aafba4e", "is_disabled": 0, "rental_uris": {"ios": "https://dc.lft.to/lastmile_qr_scan", "android": "https://dc.lft.to/lastmile_qr_scan"}, "is_reserved": 0}, {"lon": -77.00889366666667, "bike_id": "bd06276b45bce267de2948333d1ae9d1", "lat": 38.917876, "fusion_lon": 0.0, "fusion_lat": 0.0, "type": "electric_scooter", "name": "bd06276b45bce267de2948333d1ae9d1", "is_disabled": 0, "rental_uris": {"ios": "https://dc.lft.to/lastmile_qr_scan", "android": "https://dc.lft.to/lastmile_qr_scan"}, "is_reserved": 0}, {"lon": -77.04329216666666, "bike_id": "9be9132c44ef8b20e3b48987fdd2b4b4", "lat": 38.9188265, "fusion_lon": 0.0, "fusion_lat": 0.0, "type": "electric_scooter", "name": "9be9132c44ef8b20e3b48987fdd2b4b4", "is_disabled": 0, "rental_uris": {"ios": "https://dc.lft.to/lastmile_qr_scan", "android": "https://dc.lft.to/lastmile_qr_scan"}, "is_reserved": 0}, {"lon": -76.98754816666667, "bike_id": "a6e2e3671ff4e2c4d03dcae3315393a2", "lat": 38.903838, "fusion_lon": 0.0, "fusion_lat": 0.0, "type": "electric_scooter", "name": "a6e2e3671ff4e2c4d03dcae3315393a2", "is_disabled": 0, "rental_uris": {"ios": "https://dc.lft.to/lastmile_qr_scan", "android": "https://dc.lft.to/lastmile_qr_scan"}, "is_reserved": 0}, {"lon": -77.02151933333333, "bike_id": "ca07edf951894c1d966d8eb9ddc8359e", "lat": 38.89484, "fusion_lon": 0.0, "fusion_lat": 0.0, "type": "electric_scooter", "name": "ca07edf951894c1d966d8eb9ddc8359e", "is_disabled": 0, "rental_uris": {"ios": "https://dc.lft.to/lastmile_qr_scan", "android": "https://dc.lft.to/lastmile_qr_scan"}, "is_reserved": 0}, {"lon": -76.93177383333334, "bike_id": "7d922089994f2d229c57f301f2e7621e", "lat": 38.8988325, "fusion_lon": 0.0, "fusion_lat": 0.0, "type": "electric_scooter", "name": "7d922089994f2d229c57f301f2e7621e", "is_disabled": 0, "rental_uris": {"ios": "https://dc.lft.to/lastmile_qr_scan", "android": "https://dc.lft.to/lastmile_qr_scan"}, "is_reserved": 0}, {"lon": -77.03175833333333, "bike_id": "fc0a703e4c5fb026e3ddc27eef957919", "lat": 38.88411816666667, "fusion_lon": 0.0, "fusion_lat": 0.0, "type": "electric_scooter", "name": "fc0a703e4c5fb026e3ddc27eef957919", "is_disabled": 0, "rental_uris": {"ios": "https://dc.lft.to/lastmile_qr_scan", "android": "https://dc.lft.to/lastmile_qr_scan"}, "is_reserved": 0}, {"lon": -77.02980133333334, "bike_id": "512dff664c360c2ac98aa76abed3863e", "lat": 38.937026, "fusion_lon": 0.0, "fusion_lat": 0.0, "type": "electric_bike", "name": "512dff664c360c2ac98aa76abed3863e", "is_disabled": 0, "rental_uris": {"ios": "https://dc.lft.to/lastmile_qr_scan", "android": "https://dc.lft.to/lastmile_qr_scan"}, "is_reserved": 0}, {"lon": -77.02221033333333, "bike_id": "79bd32cabbbb41282a077f83c06ced60", "lat": 38.899906333333334, "fusion_lon": 0.0, "fusion_lat": 0.0, "type": "electric_scooter", "name": "79bd32cabbbb41282a077f83c06ced60", "is_disabled": 0, "rental_uris": {"ios": "https://dc.lft.to/lastmile_qr_scan", "android": "https://dc.lft.to/lastmile_qr_scan"}, "is_reserved": 0}, {"lon": -77.00128583333333, "bike_id": "7afa4a6ab6ebac0d262c8681a362cc28", "lat": 38.885259833333336, "fusion_lon": 0.0, "fusion_lat": 0.0, "type": "electric_scooter", "name": "7afa4a6ab6ebac0d262c8681a362cc28", "is_disabled": 0, "rental_uris": {"ios": "https://dc.lft.to/lastmile_qr_scan", "android": "https://dc.lft.to/lastmile_qr_scan"}, "is_reserved": 0}, {"lon": -77.03673966666666, "bike_id": "1ee65379de42a63635ebace8ae6cf16b", "lat": 38.923300833333336, "fusion_lon": 0.0, "fusion_lat": 0.0, "type": "electric_scooter", "name": "1ee65379de42a63635ebace8ae6cf16b", "is_disabled": 0, "rental_uris": {"ios": "https://dc.lft.to/lastmile_qr_scan", "android": "https://dc.lft.to/lastmile_qr_scan"}, "is_reserved": 0}, {"lon": -77.02529333333334, "bike_id": "12c000838b618d33489cba808f48f60a", "lat": 38.94300883333333, "fusion_lon": 0.0, "fusion_lat": 0.0, "type": "electric_scooter", "name": "12c000838b618d33489cba808f48f60a", "is_disabled": 0, "rental_uris": {"ios": "https://dc.lft.to/lastmile_qr_scan", "android": "https://dc.lft.to/lastmile_qr_scan"}, "is_reserved": 0}, {"lon": -77.036466, "bike_id": "6343e90528957f29e5640602064383e9", "lat": 38.92615716666667, "fusion_lon": 0.0, "fusion_lat": 0.0, "type": "electric_scooter", "name": "6343e90528957f29e5640602064383e9", "is_disabled": 0, "rental_uris": {"ios": "https://dc.lft.to/lastmile_qr_scan", "android": "https://dc.lft.to/lastmile_qr_scan"}, "is_reserved": 0}, {"lon": -76.96993716666667, "bike_id": "0ad1dbc500009271165895a342c23acb", "lat": 38.8737285, "fusion_lon": 0.0, "fusion_lat": 0.0, "type": "electric_scooter", "name": "0ad1dbc500009271165895a342c23acb", "is_disabled": 0, "rental_uris": {"ios": "https://dc.lft.to/lastmile_qr_scan", "android": "https://dc.lft.to/lastmile_qr_scan"}, "is_reserved": 0}, {"lon": -77.061376, "bike_id": "c9fc63ea92697fe081a50121968495e9", "lat": 38.94358183333333, "fusion_lon": 0.0, "fusion_lat": 0.0, "type": "electric_scooter", "name": "c9fc63ea92697fe081a50121968495e9", "is_disabled": 0, "rental_uris": {"ios": "https://dc.lft.to/lastmile_qr_scan", "android": "https://dc.lft.to/lastmile_qr_scan"}, "is_reserved": 0}, {"lon": -77.02462633333333, "bike_id": "09e59a2129f9e8e607b5c67bd12ca528", "lat": 38.88402933333333, "fusion_lon": 0.0, "fusion_lat": 0.0, "type": "electric_scooter", "name": "09e59a2129f9e8e607b5c67bd12ca528", "is_disabled": 0, "rental_uris": {"ios": "https://dc.lft.to/lastmile_qr_scan", "android": "https://dc.lft.to/lastmile_qr_scan"}, "is_reserved": 0}, {"lon": -76.99621683333334, "bike_id": "f41dd7d1086cbee3b1f827d458a7b9cb", "lat": 38.908984, "fusion_lon": 0.0, "fusion_lat": 0.0, "type": "electric_scooter", "name": "f41dd7d1086cbee3b1f827d458a7b9cb", "is_disabled": 0, "rental_uris": {"ios": "https://dc.lft.to/lastmile_qr_scan", "android": "https://dc.lft.to/lastmile_qr_scan"}, "is_reserved": 0}, {"lon": -77.03475283333333, "bike_id": "afc71581c66fa1b7af144ced13f2af45", "lat": 38.9274305, "fusion_lon": 0.0, "fusion_lat": 0.0, "type": "electric_scooter", "name": "afc71581c66fa1b7af144ced13f2af45", "is_disabled": 0, "rental_uris": {"ios": "https://dc.lft.to/lastmile_qr_scan", "android": "https://dc.lft.to/lastmile_qr_scan"}, "is_reserved": 0}, {"lon": -77.07793833333334, "bike_id": "a922f3badc5b840a02e0eef61933fa92", "lat": 38.996006333333334, "fusion_lon": 0.0, "fusion_lat": 0.0, "type": "electric_bike", "name": "a922f3badc5b840a02e0eef61933fa92", "is_disabled": 0, "rental_uris": {"ios": "https://dc.lft.to/lastmile_qr_scan", "android": "https://dc.lft.to/lastmile_qr_scan"}, "is_reserved": 0}, {"lon": -77.04990583333333, "bike_id": "e379009d7d92b19e524c9c8cdd7221bb", "lat": 38.89990616666667, "fusion_lon": 0.0, "fusion_lat": 0.0, "type": "electric_scooter", "name": "e379009d7d92b19e524c9c8cdd7221bb", "is_disabled": 0, "rental_uris": {"ios": "https://dc.lft.to/lastmile_qr_scan", "android": "https://dc.lft.to/lastmile_qr_scan"}, "is_reserved": 0}, {"lon": -77.02537183333334, "bike_id": "d36c4fb3454f92aabc948c3249288dbb", "lat": 38.90415733333333, "fusion_lon": 0.0, "fusion_lat": 0.0, "type": "electric_scooter", "name": "d36c4fb3454f92aabc948c3249288dbb", "is_disabled": 0, "rental_uris": {"ios": "https://dc.lft.to/lastmile_qr_scan", "android": "https://dc.lft.to/lastmile_qr_scan"}, "is_reserved": 0}, {"lon": -77.065766, "bike_id": "daf4399b038d57897b0d0745e6254bb8", "lat": 38.9113635, "fusion_lon": 0.0, "fusion_lat": 0.0, "type": "electric_bike", "name": "daf4399b038d57897b0d0745e6254bb8", "is_disabled": 0, "rental_uris": {"ios": "https://dc.lft.to/lastmile_qr_scan", "android": "https://dc.lft.to/lastmile_qr_scan"}, "is_reserved": 0}, {"lon": -77.04695116666667, "bike_id": "91ed228ffb2d0ddd3bca096cb00799af", "lat": 38.918977166666664, "fusion_lon": 0.0, "fusion_lat": 0.0, "type": "electric_scooter", "name": "91ed228ffb2d0ddd3bca096cb00799af", "is_disabled": 0, "rental_uris": {"ios": "https://dc.lft.to/lastmile_qr_scan", "android": "https://dc.lft.to/lastmile_qr_scan"}, "is_reserved": 0}, {"lon": -77.01476516666666, "bike_id": "5d6657b88f80bbd6278016b842a51fb7", "lat": 38.919281166666664, "fusion_lon": 0.0, "fusion_lat": 0.0, "type": "electric_scooter", "name": "5d6657b88f80bbd6278016b842a51fb7", "is_disabled": 0, "rental_uris": {"ios": "https://dc.lft.to/lastmile_qr_scan", "android": "https://dc.lft.to/lastmile_qr_scan"}, "is_reserved": 0}, {"lon": -77.047005, "bike_id": "fde64fa87e3b739b7a0fa81e1e64ced2", "lat": 38.92061533333333, "fusion_lon": 0.0, "fusion_lat": 0.0, "type": "electric_scooter", "name": "fde64fa87e3b739b7a0fa81e1e64ced2", "is_disabled": 0, "rental_uris": {"ios": "https://dc.lft.to/lastmile_qr_scan", "android": "https://dc.lft.to/lastmile_qr_scan"}, "is_reserved": 0}, {"lon": -77.03668266666666, "bike_id": "ee6d2892873030a77317052cb958d33d", "lat": 38.93339116666667, "fusion_lon": 0.0, "fusion_lat": 0.0, "type": "electric_scooter", "name": "ee6d2892873030a77317052cb958d33d", "is_disabled": 0, "rental_uris": {"ios": "https://dc.lft.to/lastmile_qr_scan", "android": "https://dc.lft.to/lastmile_qr_scan"}, "is_reserved": 0}, {"lon": -76.949356, "bike_id": "25e8b94aae302a2e22cd6675bbb27ba3", "lat": 38.903726, "fusion_lon": 0.0, "fusion_lat": 0.0, "type": "electric_scooter", "name": "25e8b94aae302a2e22cd6675bbb27ba3", "is_disabled": 0, "rental_uris": {"ios": "https://dc.lft.to/lastmile_qr_scan", "android": "https://dc.lft.to/lastmile_qr_scan"}, "is_reserved": 0}, {"lon": -76.9810515, "bike_id": "d6132c4449d4b7791e4df1e01275c104", "lat": 38.87728416666667, "fusion_lon": 0.0, "fusion_lat": 0.0, "type": "electric_bike", "name": "d6132c4449d4b7791e4df1e01275c104", "is_disabled": 0, "rental_uris": {"ios": "https://dc.lft.to/lastmile_qr_scan", "android": "https://dc.lft.to/lastmile_qr_scan"}, "is_reserved": 0}, {"lon": -77.032643, "bike_id": "51ad8dd9c6701c352000033beb456fc9", "lat": 38.93226633333333, "fusion_lon": 0.0, "fusion_lat": 0.0, "type": "electric_scooter", "name": "51ad8dd9c6701c352000033beb456fc9", "is_disabled": 0, "rental_uris": {"ios": "https://dc.lft.to/lastmile_qr_scan", "android": "https://dc.lft.to/lastmile_qr_scan"}, "is_reserved": 0}, {"lon": -77.00187433333333, "bike_id": "bdc0e925c1920d06e6348e0401f65d6a", "lat": 38.89473983333333, "fusion_lon": 0.0, "fusion_lat": 0.0, "type": "electric_scooter", "name": "bdc0e925c1920d06e6348e0401f65d6a", "is_disabled": 0, "rental_uris": {"ios": "https://dc.lft.to/lastmile_qr_scan", "android": "https://dc.lft.to/lastmile_qr_scan"}, "is_reserved": 0}, {"lon": -76.99785766666666, "bike_id": "8c57410c355ef67876059a91d516e33d", "lat": 38.89091, "fusion_lon": 0.0, "fusion_lat": 0.0, "type": "electric_scooter", "name": "8c57410c355ef67876059a91d516e33d", "is_disabled": 0, "rental_uris": {"ios": "https://dc.lft.to/lastmile_qr_scan", "android": "https://dc.lft.to/lastmile_qr_scan"}, "is_reserved": 0}, {"lon": -77.0268385, "bike_id": "f6fa677f51a426f6a292b6b5a6dbf91e", "lat": 38.90399033333333, "fusion_lon": 0.0, "fusion_lat": 0.0, "type": "electric_scooter", "name": "f6fa677f51a426f6a292b6b5a6dbf91e", "is_disabled": 0, "rental_uris": {"ios": "https://dc.lft.to/lastmile_qr_scan", "android": "https://dc.lft.to/lastmile_qr_scan"}, "is_reserved": 0}, {"lon": -76.99865516666667, "bike_id": "fd08809ecb0c389027e4a8c16201ae1c", "lat": 38.900211166666665, "fusion_lon": 0.0, "fusion_lat": 0.0, "type": "electric_scooter", "name": "fd08809ecb0c389027e4a8c16201ae1c", "is_disabled": 0, "rental_uris": {"ios": "https://dc.lft.to/lastmile_qr_scan", "android": "https://dc.lft.to/lastmile_qr_scan"}, "is_reserved": 0}, {"lon": -77.00247683333333, "bike_id": "dcac056b6972016e06fc123a47b07a84", "lat": 38.88513716666667, "fusion_lon": 0.0, "fusion_lat": 0.0, "type": "electric_scooter", "name": "dcac056b6972016e06fc123a47b07a84", "is_disabled": 0, "rental_uris": {"ios": "https://dc.lft.to/lastmile_qr_scan", "android": "https://dc.lft.to/lastmile_qr_scan"}, "is_reserved": 0}, {"lon": -77.03654416666667, "bike_id": "d8ada3eb1514e8ea9e29d4ed6c144fb7", "lat": 38.9332925, "fusion_lon": 0.0, "fusion_lat": 0.0, "type": "electric_scooter", "name": "d8ada3eb1514e8ea9e29d4ed6c144fb7", "is_disabled": 0, "rental_uris": {"ios": "https://dc.lft.to/lastmile_qr_scan", "android": "https://dc.lft.to/lastmile_qr_scan"}, "is_reserved": 0}, {"lon": -77.0095835, "bike_id": "f3caf5c393b99a85fed57f4fbd4da10a", "lat": 38.921363166666666, "fusion_lon": 0.0, "fusion_lat": 0.0, "type": "electric_scooter", "name": "f3caf5c393b99a85fed57f4fbd4da10a", "is_disabled": 0, "rental_uris": {"ios": "https://dc.lft.to/lastmile_qr_scan", "android": "https://dc.lft.to/lastmile_qr_scan"}, "is_reserved": 0}, {"lon": -77.02720116666667, "bike_id": "6827633490d9a23c5a60c746058126d5", "lat": 38.897666, "fusion_lon": 0.0, "fusion_lat": 0.0, "type": "electric_scooter", "name": "6827633490d9a23c5a60c746058126d5", "is_disabled": 0, "rental_uris": {"ios": "https://dc.lft.to/lastmile_qr_scan", "android": "https://dc.lft.to/lastmile_qr_scan"}, "is_reserved": 0}, {"lon": -76.98243033333333, "bike_id": "5a406c8420e7c384f86bdb7d0a241bf6", "lat": 38.864572, "fusion_lon": 0.0, "fusion_lat": 0.0, "type": "electric_scooter", "name": "5a406c8420e7c384f86bdb7d0a241bf6", "is_disabled": 0, "rental_uris": {"ios": "https://dc.lft.to/lastmile_qr_scan", "android": "https://dc.lft.to/lastmile_qr_scan"}, "is_reserved": 0}, {"lon": -77.03341633333334, "bike_id": "81560e11991a070854ddc46e0ac374ed", "lat": 38.9351485, "fusion_lon": 0.0, "fusion_lat": 0.0, "type": "electric_scooter", "name": "81560e11991a070854ddc46e0ac374ed", "is_disabled": 0, "rental_uris": {"ios": "https://dc.lft.to/lastmile_qr_scan", "android": "https://dc.lft.to/lastmile_qr_scan"}, "is_reserved": 0}, {"lon": -76.99918366666667, "bike_id": "b5c65dd7f0269f619364a507d82da271", "lat": 38.889728166666664, "fusion_lon": 0.0, "fusion_lat": 0.0, "type": "electric_scooter", "name": "b5c65dd7f0269f619364a507d82da271", "is_disabled": 0, "rental_uris": {"ios": "https://dc.lft.to/lastmile_qr_scan", "android": "https://dc.lft.to/lastmile_qr_scan"}, "is_reserved": 0}, {"lon": -77.056134, "bike_id": "24f0ac149853cc60066b61dd8b76875e", "lat": 38.9316235, "fusion_lon": 0.0, "fusion_lat": 0.0, "type": "electric_scooter", "name": "24f0ac149853cc60066b61dd8b76875e", "is_disabled": 0, "rental_uris": {"ios": "https://dc.lft.to/lastmile_qr_scan", "android": "https://dc.lft.to/lastmile_qr_scan"}, "is_reserved": 0}, {"lon": -77.00599083333333, "bike_id": "cf2d4d8c28a769b6ba889ff47e6663ff", "lat": 38.9056575, "fusion_lon": 0.0, "fusion_lat": 0.0, "type": "electric_scooter", "name": "cf2d4d8c28a769b6ba889ff47e6663ff", "is_disabled": 0, "rental_uris": {"ios": "https://dc.lft.to/lastmile_qr_scan", "android": "https://dc.lft.to/lastmile_qr_scan"}, "is_reserved": 0}, {"lon": -77.003358, "bike_id": "e434996ff81d0f05bd1d9f40ed20edb1", "lat": 38.891910833333334, "fusion_lon": 0.0, "fusion_lat": 0.0, "type": "electric_scooter", "name": "e434996ff81d0f05bd1d9f40ed20edb1", "is_disabled": 0, "rental_uris": {"ios": "https://dc.lft.to/lastmile_qr_scan", "android": "https://dc.lft.to/lastmile_qr_scan"}, "is_reserved": 0}, {"lon": -77.06132033333333, "bike_id": "e5d6c0b622d4af0458adc1fdde2299d2", "lat": 38.943565166666666, "fusion_lon": 0.0, "fusion_lat": 0.0, "type": "electric_scooter", "name": "e5d6c0b622d4af0458adc1fdde2299d2", "is_disabled": 0, "rental_uris": {"ios": "https://dc.lft.to/lastmile_qr_scan", "android": "https://dc.lft.to/lastmile_qr_scan"}, "is_reserved": 0}, {"lon": -76.99478816666667, "bike_id": "7782ae9efe9d932cf894de89909e217a", "lat": 38.862151, "fusion_lon": 0.0, "fusion_lat": 0.0, "type": "electric_scooter", "name": "7782ae9efe9d932cf894de89909e217a", "is_disabled": 0, "rental_uris": {"ios": "https://dc.lft.to/lastmile_qr_scan", "android": "https://dc.lft.to/lastmile_qr_scan"}, "is_reserved": 0}, {"lon": -76.98838516666666, "bike_id": "25eee63f3c7304a13e153130b15b2a50", "lat": 38.900710333333336, "fusion_lon": 0.0, "fusion_lat": 0.0, "type": "electric_scooter", "name": "25eee63f3c7304a13e153130b15b2a50", "is_disabled": 0, "rental_uris": {"ios": "https://dc.lft.to/lastmile_qr_scan", "android": "https://dc.lft.to/lastmile_qr_scan"}, "is_reserved": 0}, {"lon": -77.02574316666667, "bike_id": "65b23d3e3614d92cb8f8eb681209f5fd", "lat": 38.93932066666667, "fusion_lon": 0.0, "fusion_lat": 0.0, "type": "electric_scooter", "name": "65b23d3e3614d92cb8f8eb681209f5fd", "is_disabled": 0, "rental_uris": {"ios": "https://dc.lft.to/lastmile_qr_scan", "android": "https://dc.lft.to/lastmile_qr_scan"}, "is_reserved": 0}, {"lon": -77.03186433333333, "bike_id": "d3a3c6a9cb1f10a747d4889c9174d3a3", "lat": 38.936088, "fusion_lon": 0.0, "fusion_lat": 0.0, "type": "electric_scooter", "name": "d3a3c6a9cb1f10a747d4889c9174d3a3", "is_disabled": 0, "rental_uris": {"ios": "https://dc.lft.to/lastmile_qr_scan", "android": "https://dc.lft.to/lastmile_qr_scan"}, "is_reserved": 0}, {"lon": -76.9837665, "bike_id": "18b2ff661c0c75f7d74d4d953c05abec", "lat": 38.89144966666667, "fusion_lon": 0.0, "fusion_lat": 0.0, "type": "electric_scooter", "name": "18b2ff661c0c75f7d74d4d953c05abec", "is_disabled": 0, "rental_uris": {"ios": "https://dc.lft.to/lastmile_qr_scan", "android": "https://dc.lft.to/lastmile_qr_scan"}, "is_reserved": 0}, {"lon": -77.04238133333334, "bike_id": "2d8984d1df80fb3ea5fb5ee5f667c322", "lat": 38.916469, "fusion_lon": 0.0, "fusion_lat": 0.0, "type": "electric_scooter", "name": "2d8984d1df80fb3ea5fb5ee5f667c322", "is_disabled": 0, "rental_uris": {"ios": "https://dc.lft.to/lastmile_qr_scan", "android": "https://dc.lft.to/lastmile_qr_scan"}, "is_reserved": 0}, {"lon": -77.00455933333333, "bike_id": "719bf4217e03b1f7a9153810476b7c32", "lat": 38.917646500000004, "fusion_lon": 0.0, "fusion_lat": 0.0, "type": "electric_scooter", "name": "719bf4217e03b1f7a9153810476b7c32", "is_disabled": 0, "rental_uris": {"ios": "https://dc.lft.to/lastmile_qr_scan", "android": "https://dc.lft.to/lastmile_qr_scan"}, "is_reserved": 0},