{"data": {"bikes": [{"lon": -77.00070916666667, "fusion_lon": 0.0, "bike_id": "160f42413252f99a07e4de67ad53b0d1", "type": "electric_scooter", "name": "160f42413252f99a07e4de67ad53b0d1", "rental_uris": {"android": "https://dc.lft.to/lastmile_qr_scan", "ios": "https://dc.lft.to/lastmile_qr_scan"}, "is_disabled": 0, "fusion_lat": 0.0, "lat": 38.88685066666667, "is_reserved": 0}, {"lon": -76.9425485, "fusion_lon": 0.0, "bike_id": "3bf193872392d01d0e90b2df53b49c8b", "type": "electric_scooter", "name": "3bf193872392d01d0e90b2df53b49c8b", "rental_uris": {"android": "https://dc.lft.to/lastmile_qr_scan", "ios": "https://dc.lft.to/lastmile_qr_scan"}, "is_disabled": 0, "fusion_lat": 0.0, "lat": 38.898472, "is_reserved": 0}, {"lon": -77.04635983333333, "fusion_lon": 0.0, "bike_id": "ce313fe474ed8c1008e3eac1d75d2105", "type": "electric_scooter", "name": "ce313fe474ed8c1008e3eac1d75d2105", "rental_uris": {"android": "https://dc.lft.to/lastmile_qr_scan", "ios": "https://dc.lft.to/lastmile_qr_scan"}, "is_disabled": 0, "fusion_lat": 0.0, "lat": 38.91805983333333, "is_reserved": 0}, {"lon": -76.991497, "fusion_lon": 0.0, "bike_id": "e5c49fea5b2eac3ff7b144bbaec4716a", "type": "electric_scooter", "name": "e5c49fea5b2eac3ff7b144bbaec4716a", "rental_uris": {"android": "https://dc.lft.to/lastmile_qr_scan", "ios": "https://dc.lft.to/lastmile_qr_scan"}, "is_disabled": 0, "fusion_lat": 0.0, "lat": 38.885263333333334, "is_reserved": 0}, {"lon": -76.92680833333333, "fusion_lon": 0.0, "bike_id": "c28bda8930bef59ee078fefa847fde4b", "type": "electric_scooter", "name": "c28bda8930bef59ee078fefa847fde4b", "rental_uris": {"android": "https://dc.lft.to/lastmile_qr_scan", "ios": "https://dc.lft.to/lastmile_qr_scan"}, "is_disabled": 0, "fusion_lat": 0.0, "lat": 38.888480333333334, "is_reserved": 0}, {"lon": -77.02787116666667, "fusion_lon": 0.0, "bike_id": "67f0c35fca4f3378fbe138d8a76abecd", "type": "electric_scooter", "name": "67f0c35fca4f3378fbe138d8a76abecd", "rental_uris": {"android": "https://dc.lft.to/lastmile_qr_scan", "ios": "https://dc.lft.to/lastmile_qr_scan"}, "is_disabled": 0, "fusion_lat": 0.0, "lat": 38.927761, "is_reserved": 0}, {"lon": -77.00893616666667, "fusion_lon": 0.0, "bike_id": "65e88a8729d361698fb18b50937dd432", "type": "electric_scooter", "name": "65e88a8729d361698fb18b50937dd432", "rental_uris": {"android": "https://dc.lft.to/lastmile_qr_scan", "ios": "https://dc.lft.to/lastmile_qr_scan"}, "is_disabled": 0, "fusion_lat": 0.0, "lat": 38.876731666666664, "is_reserved": 0}, {"lon": -77.00316933333333, "fusion_lon": 0.0, "bike_id": "d979df22145393d9c14cb130a669a2ce", "type": "electric_scooter", "name": "d979df22145393d9c14cb130a669a2ce", "rental_uris": {"android": "https://dc.lft.to/lastmile_qr_scan", "ios": "https://dc.lft.to/lastmile_qr_scan"}, "is_disabled": 0, "fusion_lat": 0.0, "lat": 38.919337, "is_reserved": 0}, {"lon": -76.9698665, "fusion_lon": 0.0, "bike_id": "210fb3184e475461d89616781a45c3b0", "type": "electric_scooter", "name": "210fb3184e475461d89616781a45c3b0", "rental_uris": {"android": "https://dc.lft.to/lastmile_qr_scan", "ios": "https://dc.lft.to/lastmile_qr_scan"}, "is_disabled": 0, "fusion_lat": 0.0, "lat": 38.878657833333335, "is_reserved": 0}, {"lon": -77.02960933333334, "fusion_lon": 0.0, "bike_id": "142b5b033e3aec076733a5307da79c67", "type": "electric_scooter", "name": "142b5b033e3aec076733a5307da79c67", "rental_uris": {"android": "https://dc.lft.to/lastmile_qr_scan", "ios": "https://dc.lft.to/lastmile_qr_scan"}, "is_disabled": 0, "fusion_lat": 0.0, "lat": 38.90486883333333, "is_reserved": 0}, {"lon": -77.10854866666666, "fusion_lon": 0.0, "bike_id": "451e6f2d334c77077bf44dd81d1ec0ce", "type": "electric_bike", "name": "451e6f2d334c77077bf44dd81d1ec0ce", "rental_uris": {"android": "https://dc.lft.to/lastmile_qr_scan", "ios": "https://dc.lft.to/lastmile_qr_scan"}, "is_disabled": 0, "fusion_lat": 0.0, "lat": 38.87241616666667, "is_reserved": 0}, {"lon": -77.06107233333333, "fusion_lon": 0.0, "bike_id": "491879e91cfc77f078d6f18ba9b3af47", "type": "electric_scooter", "name": "491879e91cfc77f078d6f18ba9b3af47", "rental_uris": {"android": "https://dc.lft.to/lastmile_qr_scan", "ios": "https://dc.lft.to/lastmile_qr_scan"}, "is_disabled": 0, "fusion_lat": 0.0, "lat": 38.937033166666666, "is_reserved": 0}, {"lon": -77.00879516666667, "fusion_lon": 0.0, "bike_id": "dd066cc557adfdc7c0b73f4bc6766d01", "type": "electric_scooter", "name": "dd066cc557adfdc7c0b73f4bc6766d01", "rental_uris": {"android": "https://dc.lft.to/lastmile_qr_scan", "ios": "https://dc.lft.to/lastmile_qr_scan"}, "is_disabled": 0, "fusion_lat": 0.0, "lat": 38.96841533333333, "is_reserved": 0}, {"lon": -77.05015516666667, "fusion_lon": 0.0, "bike_id": "0aadab6ec97f37e4e52088ccb84fc724", "type": "electric_scooter", "name": "0aadab6ec97f37e4e52088ccb84fc724", "rental_uris": {"android": "https://dc.lft.to/lastmile_qr_scan", "ios": "https://dc.lft.to/lastmile_qr_scan"}, "is_disabled": 0, "fusion_lat": 0.0, "lat": 38.906726, "is_reserved": 0}, {"lon": -77.02796533333333, "fusion_lon": 0.0, "bike_id": "e71cbf1f101db79faacdf3e8e2f66a3f", "type": "electric_scooter", "name": "e71cbf1f101db79faacdf3e8e2f66a3f", "rental_uris": {"android": "https://dc.lft.to/lastmile_qr_scan", "ios": "https://dc.lft.to/lastmile_qr_scan"}, "is_disabled": 0, "fusion_lat": 0.0, "lat": 38.960473, "is_reserved": 0}, {"lon": -77.03583133333333, "fusion_lon": 0.0, "bike_id": "833f2c3f2a8fcb0cb5390851bd4440c2", "type": "electric_scooter", "name": "833f2c3f2a8fcb0cb5390851bd4440c2", "rental_uris": {"android": "https://dc.lft.to/lastmile_qr_scan", "ios": "https://dc.lft.to/lastmile_qr_scan"}, "is_disabled": 0, "fusion_lat": 0.0, "lat": 38.903753333333334, "is_reserved": 0}, {"lon": -77.03403383333334, "fusion_lon": 0.0, "bike_id": "b54abc1dddc87751ec0f3167128f9200", "type": "electric_scooter", "name": "b54abc1dddc87751ec0f3167128f9200", "rental_uris": {"android": "https://dc.lft.to/lastmile_qr_scan", "ios": "https://dc.lft.to/lastmile_qr_scan"}, "is_disabled": 0, "fusion_lat": 0.0, "lat": 38.9243795, "is_reserved": 0}, {"lon": -77.03152983333334, "fusion_lon": 0.0, "bike_id": "e30478bb2a4e421c52fe4011951ee07b", "type": "electric_scooter", "name": "e30478bb2a4e421c52fe4011951ee07b", "rental_uris": {"android": "https://dc.lft.to/lastmile_qr_scan", "ios": "https://dc.lft.to/lastmile_qr_scan"}, "is_disabled": 0, "fusion_lat": 0.0, "lat": 38.89718116666667, "is_reserved": 0}, {"lon": -77.0326445, "fusion_lon": 0.0, "bike_id": "05a86352f5fc3db3f87a4147cf3b5184", "type": "electric_scooter", "name": "05a86352f5fc3db3f87a4147cf3b5184", "rental_uris": {"android": "https://dc.lft.to/lastmile_qr_scan", "ios": "https://dc.lft.to/lastmile_qr_scan"}, "is_disabled": 0, "fusion_lat": 0.0, "lat": 38.93773016666667, "is_reserved": 0}, {"lon": -77.03376666666666, "fusion_lon": 0.0, "bike_id": "3749ec51f4c6b1c8f17bcc3acac46485", "type": "electric_scooter", "name": "3749ec51f4c6b1c8f17bcc3acac46485", "rental_uris": {"android": "https://dc.lft.to/lastmile_qr_scan", "ios": "https://dc.lft.to/lastmile_qr_scan"}, "is_disabled": 0, "fusion_lat": 0.0, "lat": 38.923604833333336, "is_reserved": 0}, {"lon": -77.026943, "fusion_lon": 0.0, "bike_id": "2ba4785291cdce8350235d1012fb2864", "type": "electric_scooter", "name": "2ba4785291cdce8350235d1012fb2864", "rental_uris": {"android": "https://dc.lft.to/lastmile_qr_scan", "ios": "https://dc.lft.to/lastmile_qr_scan"}, "is_disabled": 0, "fusion_lat": 0.0, "lat": 38.90704916666667, "is_reserved": 0}, {"lon": -77.03361166666667, "fusion_lon": 0.0, "bike_id": "d2ecfee267dd4a7aecc80552e38e15c6", "type": "electric_scooter", "name": "d2ecfee267dd4a7aecc80552e38e15c6", "rental_uris": {"android": "https://dc.lft.to/lastmile_qr_scan", "ios": "https://dc.lft.to/lastmile_qr_scan"}, "is_disabled": 0, "fusion_lat": 0.0, "lat": 38.8869555, "is_reserved": 0}, {"lon": -77.03327783333333, "fusion_lon": 0.0, "bike_id": "519dea8f3595425e450eff2b0f6ebc7b", "type": "electric_scooter", "name": "519dea8f3595425e450eff2b0f6ebc7b", "rental_uris": {"android": "https://dc.lft.to/lastmile_qr_scan", "ios": "https://dc.lft.to/lastmile_qr_scan"}, "is_disabled": 0, "fusion_lat": 0.0, "lat": 38.921646, "is_reserved": 0}, {"lon": -77.0198085, "fusion_lon": 0.0, "bike_id": "3c6d6b359db8654e0ad49db25eb3bbca", "type": "electric_scooter", "name": "3c6d6b359db8654e0ad49db25eb3bbca", "rental_uris": {"android": "https://dc.lft.to/lastmile_qr_scan", "ios": "https://dc.lft.to/lastmile_qr_scan"}, "is_disabled": 0, "fusion_lat": 0.0, "lat": 38.90245933333333, "is_reserved": 0}, {"lon": -77.034383, "fusion_lon": 0.0, "bike_id": "bf62c9cf1f8ff7b555ad740d5e410214", "type": "electric_bike", "name": "bf62c9cf1f8ff7b555ad740d5e410214", "rental_uris": {"android": "https://dc.lft.to/lastmile_qr_scan", "ios": "https://dc.lft.to/lastmile_qr_scan"}, "is_disabled": 0, "fusion_lat": 0.0, "lat": 38.96620883333333, "is_reserved": 0}, {"lon": -77.02707516666666, "fusion_lon": 0.0, "bike_id": "e0b29b0e6be530f181033d50409c1360", "type": "electric_scooter", "name": "e0b29b0e6be530f181033d50409c1360", "rental_uris": {"android": "https://dc.lft.to/lastmile_qr_scan", "ios": "https://dc.lft.to/lastmile_qr_scan"}, "is_disabled": 0, "fusion_lat": 0.0, "lat": 38.928799166666664, "is_reserved": 0}, {"lon": -77.01647433333333, "fusion_lon": 0.0, "bike_id": "af0214c248b2fdd34b59f2d9ad79c155", "type": "electric_scooter", "name": "af0214c248b2fdd34b59f2d9ad79c155", "rental_uris": {"android": "https://dc.lft.to/lastmile_qr_scan", "ios": "https://dc.lft.to/lastmile_qr_scan"}, "is_disabled": 0, "fusion_lat": 0.0, "lat": 38.90383033333333, "is_reserved": 0}, {"lon": -77.0366535, "fusion_lon": 0.0, "bike_id": "dea751f6860724eded5fb3203a0dcfce", "type": "electric_scooter", "name": "dea751f6860724eded5fb3203a0dcfce", "rental_uris": {"android": "https://dc.lft.to/lastmile_qr_scan", "ios": "https://dc.lft.to/lastmile_qr_scan"}, "is_disabled": 0, "fusion_lat": 0.0, "lat": 38.921234, "is_reserved": 0}, {"lon": -77.03293016666667, "fusion_lon": 0.0, "bike_id": "11785e585a6197bc30136a751b12e795", "type": "electric_scooter", "name": "11785e585a6197bc30136a751b12e795", "rental_uris": {"android": "https://dc.lft.to/lastmile_qr_scan", "ios": "https://dc.lft.to/lastmile_qr_scan"}, "is_disabled": 0, "fusion_lat": 0.0, "lat": 38.922810166666665, "is_reserved": 0}, {"lon": -77.04094166666667, "fusion_lon": 0.0, "bike_id": "4e301c0b67fce43900eaaeb5c1419033", "type": "electric_scooter", "name": "4e301c0b67fce43900eaaeb5c1419033", "rental_uris": {"android": "https://dc.lft.to/lastmile_qr_scan", "ios": "https://dc.lft.to/lastmile_qr_scan"}, "is_disabled": 0, "fusion_lat": 0.0, "lat": 38.9041845, "is_reserved": 0}, {"lon": -77.20136233333334, "fusion_lon": 0.0, "bike_id": "746f6a09097e9ab98c78c1255d531b7f", "type": "electric_bike", "name": "746f6a09097e9ab98c78c1255d531b7f", "rental_uris": {"android": "https://dc.lft.to/lastmile_qr_scan", "ios": "https://dc.lft.to/lastmile_qr_scan"}, "is_disabled": 0, "fusion_lat": 0.0, "lat": 38.92219683333333, "is_reserved": 0}, {"lon": -76.94635566666666, "fusion_lon": 0.0, "bike_id": "f1bf7dd56fc53f4412ebfe812e9f3541", "type": "electric_scooter", "name": "f1bf7dd56fc53f4412ebfe812e9f3541", "rental_uris": {"android": "https://dc.lft.to/lastmile_qr_scan", "ios": "https://dc.lft.to/lastmile_qr_scan"}, "is_disabled": 0, "fusion_lat": 0.0, "lat": 38.89862566666667, "is_reserved": 0}, {"lon": -77.0523615, "fusion_lon": 0.0, "bike_id": "6db503b8f4dcf371b74cb571cfc39f69", "type": "electric_bike", "name": "6db503b8f4dcf371b74cb571cfc39f69", "rental_uris": {"android": "https://dc.lft.to/lastmile_qr_scan", "ios": "https://dc.lft.to/lastmile_qr_scan"}, "is_disabled": 0, "fusion_lat": 0.0, "lat": 38.90721666666666, "is_reserved": 0}, {"lon": -77.0770405, "fusion_lon": 0.0, "bike_id": "aaebb2a7af65512d1c6992ec51ebe47f", "type": "electric_scooter", "name": "aaebb2a7af65512d1c6992ec51ebe47f", "rental_uris": {"android": "https://dc.lft.to/lastmile_qr_scan", "ios": "https://dc.lft.to/lastmile_qr_scan"}, "is_disabled": 0, "fusion_lat": 0.0, "lat": 38.943806333333335, "is_reserved": 0}, {"lon": -76.97103533333333, "fusion_lon": 0.0, "bike_id": "47792325e4a82a2340b2174e6e4c0bad", "type": "electric_scooter", "name": "47792325e4a82a2340b2174e6e4c0bad", "rental_uris": {"android": "https://dc.lft.to/lastmile_qr_scan", "ios": "https://dc.lft.to/lastmile_qr_scan"}, "is_disabled": 0, "fusion_lat": 0.0, "lat": 38.870632, "is_reserved": 0}, {"lon": -77.012281, "fusion_lon": 0.0, "bike_id": "000c2c458fd6126518a67dceb90214f6", "type": "electric_scooter", "name": "000c2c458fd6126518a67dceb90214f6", "rental_uris": {"android": "https://dc.lft.to/lastmile_qr_scan", "ios": "https://dc.lft.to/lastmile_qr_scan"}, "is_disabled": 0, "fusion_lat": 0.0, "lat": 38.89733716666667, "is_reserved": 0}, {"lon": -77.02233033333333, "fusion_lon": 0.0, "bike_id": "569f9f498c5069837d6bf7c709af22e1", "type": "electric_scooter", "name": "569f9f498c5069837d6bf7c709af22e1", "rental_uris": {"android": "https://dc.lft.to/lastmile_qr_scan", "ios": "https://dc.lft.to/lastmile_qr_scan"}, "is_disabled": 0, "fusion_lat": 0.0, "lat": 38.93474533333333, "is_reserved": 0}, {"lon": -77.04997483333334, "fusion_lon": 0.0, "bike_id": "6d3d7e21f61b6b20ab102b48643fdba4", "type": "electric_scooter", "name": "6d3d7e21f61b6b20ab102b48643fdba4", "rental_uris": {"android": "https://dc.lft.to/lastmile_qr_scan", "ios": "https://dc.lft.to/lastmile_qr_scan"}, "is_disabled": 0, "fusion_lat": 0.0, "lat": 38.9011365, "is_reserved": 0}, {"lon": -76.93190483333333, "fusion_lon": 0.0, "bike_id": "b5b7886b9010f2705562075c3d0e8559", "type": "electric_scooter", "name": "b5b7886b9010f2705562075c3d0e8559", "rental_uris": {"android": "https://dc.lft.to/lastmile_qr_scan", "ios": "https://dc.lft.to/lastmile_qr_scan"}, "is_disabled": 0, "fusion_lat": 0.0, "lat": 38.898777333333335, "is_reserved": 0}, {"lon": -76.9525845, "fusion_lon": 0.0, "bike_id": "f8e8c17c3ddd67a986a1b40644d9f6f9", "type": "electric_bike", "name": "f8e8c17c3ddd67a986a1b40644d9f6f9", "rental_uris": {"android": "https://dc.lft.to/lastmile_qr_scan", "ios": "https://dc.lft.to/lastmile_qr_scan"}, "is_disabled": 0, "fusion_lat": 0.0, "lat": 38.906965666666665, "is_reserved": 0}, {"lon": -77.0079875, "fusion_lon": 0.0, "bike_id": "ccb57eb3f653f73785e0aaaed45ac7a9", "type": "electric_bike", "name": "ccb57eb3f653f73785e0aaaed45ac7a9", "rental_uris": {"android": "https://dc.lft.to/lastmile_qr_scan", "ios": "https://dc.lft.to/lastmile_qr_scan"}, "is_disabled": 0, "fusion_lat": 0.0, "lat": 38.9491225, "is_reserved": 0}, {"lon": -76.99744283333334, "fusion_lon": 0.0, "bike_id": "8aa454fc407fabfe4a2af1e8f4c471b0", "type": "electric_scooter", "name": "8aa454fc407fabfe4a2af1e8f4c471b0", "rental_uris": {"android": "https://dc.lft.to/lastmile_qr_scan", "ios": "https://dc.lft.to/lastmile_qr_scan"}, "is_disabled": 0, "fusion_lat": 0.0, "lat": 38.90131366666667, "is_reserved": 0}, {"lon": -77.02222183333333, "fusion_lon": 0.0, "bike_id": "d46c9644671f2e2d03310302e55d63a2", "type": "electric_scooter", "name": "d46c9644671f2e2d03310302e55d63a2", "rental_uris": {"android": "https://dc.lft.to/lastmile_qr_scan", "ios": "https://dc.lft.to/lastmile_qr_scan"}, "is_disabled": 0, "fusion_lat": 0.0, "lat": 38.912729, "is_reserved": 0}, {"lon": -77.05730333333334, "fusion_lon": 0.0, "bike_id": "d7b1cea71a3f7c9c047852cdf1b9abe6", "type": "electric_scooter", "name": "d7b1cea71a3f7c9c047852cdf1b9abe6", "rental_uris": {"android": "https://dc.lft.to/lastmile_qr_scan", "ios": "https://dc.lft.to/lastmile_qr_scan"}, "is_disabled": 0, "fusion_lat": 0.0, "lat": 38.933595, "is_reserved": 0}, {"lon": -77.00203483333334, "fusion_lon": 0.0, "bike_id": "e9595620cfd04766a4cdbe8c4adc83fc", "type": "electric_scooter", "name": "e9595620cfd04766a4cdbe8c4adc83fc", "rental_uris": {"android": "https://dc.lft.to/lastmile_qr_scan", "ios": "https://dc.lft.to/lastmile_qr_scan"}, "is_disabled": 0, "fusion_lat": 0.0, "lat": 38.965591833333335, "is_reserved": 0}, {"lon": -77.026978, "fusion_lon": 0.0, "bike_id": "f02a140fef62748400d986b37096eaf1", "type": "electric_scooter", "name": "f02a140fef62748400d986b37096eaf1", "rental_uris": {"android": "https://dc.lft.to/lastmile_qr_scan", "ios": "https://dc.lft.to/lastmile_qr_scan"}, "is_disabled": 0, "fusion_lat": 0.0, "lat": 38.90702183333333, "is_reserved": 0}, {"lon": -77.0230485, "fusion_lon": 0.0, "bike_id": "3319b6cddd8385d63e01b38081aaee2d", "type": "electric_scooter", "name": "3319b6cddd8385d63e01b38081aaee2d", "rental_uris": {"android": "https://dc.lft.to/lastmile_qr_scan", "ios": "https://dc.lft.to/lastmile_qr_scan"}, "is_disabled": 0, "fusion_lat": 0.0, "lat": 38.915869, "is_reserved": 0}, {"lon": -76.98357283333333, "fusion_lon": 0.0, "bike_id": "cd75b5fd96cba13915e4e201fc85ccb3", "type": "electric_scooter", "name": "cd75b5fd96cba13915e4e201fc85ccb3", "rental_uris": {"android": "https://dc.lft.to/lastmile_qr_scan", "ios": "https://dc.lft.to/lastmile_qr_scan"}, "is_disabled": 0, "fusion_lat": 0.0, "lat": 38.89435233333333, "is_reserved": 0}, {"lon": -77.04482016666667, "fusion_lon": 0.0, "bike_id": "df66d28b5ca3e4109e9bcf2346a978e0", "type": "electric_scooter", "name": "df66d28b5ca3e4109e9bcf2346a978e0", "rental_uris": {"android": "https://dc.lft.to/lastmile_qr_scan", "ios": "https://dc.lft.to/lastmile_qr_scan"}, "is_disabled": 0, "fusion_lat": 0.0, "lat": 38.9001915, "is_reserved": 0}, {"lon": -77.02774783333334, "fusion_lon": 0.0, "bike_id": "3f5657370654e9872bc5defea6790bd5", "type": "electric_scooter", "name": "3f5657370654e9872bc5defea6790bd5", "rental_uris": {"android": "https://dc.lft.to/lastmile_qr_scan", "ios": "https://dc.lft.to/lastmile_qr_scan"}, "is_disabled": 0, "fusion_lat": 0.0, "lat": 38.898939666666664, "is_reserved": 0}, {"lon": -77.00352683333334, "fusion_lon": 0.0, "bike_id": "8a4e6da6d7afac1a50cf12824b196521", "type": "electric_scooter", "name": "8a4e6da6d7afac1a50cf12824b196521", "rental_uris": {"android": "https://dc.lft.to/lastmile_qr_scan", "ios": "https://dc.lft.to/lastmile_qr_scan"}, "is_disabled": 0, "fusion_lat": 0.0, "lat": 38.887362333333336, "is_reserved": 0}, {"lon": -77.03862366666667, "fusion_lon": 0.0, "bike_id": "58066bd011cffbee59073ae937b57451", "type": "electric_scooter", "name": "58066bd011cffbee59073ae937b57451", "rental_uris": {"android": "https://dc.lft.to/lastmile_qr_scan", "ios": "https://dc.lft.to/lastmile_qr_scan"}, "is_disabled": 0, "fusion_lat": 0.0, "lat": 38.91714966666667, "is_reserved": 0}, {"lon": -77.026814, "fusion_lon": 0.0, "bike_id": "47f7d5af1445ebb332c62ec940c651ee", "type": "electric_scooter", "name": "47f7d5af1445ebb332c62ec940c651ee", "rental_uris": {"android": "https://dc.lft.to/lastmile_qr_scan", "ios": "https://dc.lft.to/lastmile_qr_scan"}, "is_disabled": 0, "fusion_lat": 0.0, "lat": 38.89502383333333, "is_reserved": 0}, {"lon": -77.027884, "fusion_lon": 0.0, "bike_id": "cbf7e4a5af62282f9708b3f958d1f1c7", "type": "electric_scooter", "name": "cbf7e4a5af62282f9708b3f958d1f1c7", "rental_uris": {"android": "https://dc.lft.to/lastmile_qr_scan", "ios": "https://dc.lft.to/lastmile_qr_scan"}, "is_disabled": 0, "fusion_lat": 0.0, "lat": 38.896147166666665, "is_reserved": 0}, {"lon": -76.94794066666667, "fusion_lon": 0.0, "bike_id": "f1ce8c0ce2adce0fd448a86ac1c34946", "type": "electric_scooter", "name": "f1ce8c0ce2adce0fd448a86ac1c34946", "rental_uris": {"android": "https://dc.lft.to/lastmile_qr_scan", "ios": "https://dc.lft.to/lastmile_qr_scan"}, "is_disabled": 0, "fusion_lat": 0.0, "lat": 38.89630833333333, "is_reserved": 0}, {"lon": -77.04540933333334, "fusion_lon": 0.0, "bike_id": "d99d7df4f9275f586614bc8837fa0511", "type": "electric_scooter", "name": "d99d7df4f9275f586614bc8837fa0511", "rental_uris": {"android": "https://dc.lft.to/lastmile_qr_scan", "ios": "https://dc.lft.to/lastmile_qr_scan"}, "is_disabled": 0, "fusion_lat": 0.0, "lat": 38.93457016666667, "is_reserved": 0}, {"lon": -76.9825425, "fusion_lon": 0.0, "bike_id": "6bbd98b6e02d373574241a6d860ac3b7", "type": "electric_bike", "name": "6bbd98b6e02d373574241a6d860ac3b7", "rental_uris": {"android": "https://dc.lft.to/lastmile_qr_scan", "ios": "https://dc.lft.to/lastmile_qr_scan"}, "is_disabled": 0, "fusion_lat": 0.0, "lat": 38.9532935, "is_reserved": 0}, {"lon": -77.03513066666666, "fusion_lon": 0.0, "bike_id": "6d5fc0af2adef027dc42e822dc7487da", "type": "electric_scooter", "name": "6d5fc0af2adef027dc42e822dc7487da", "rental_uris": {"android": "https://dc.lft.to/lastmile_qr_scan", "ios": "https://dc.lft.to/lastmile_qr_scan"}, "is_disabled": 0, "fusion_lat": 0.0, "lat": 38.9233605, "is_reserved": 0}, {"lon": -77.03540366666667, "fusion_lon": 0.0, "bike_id": "90cbc51f52bdeaa05ff56c9b028ca0ff", "type": "electric_scooter", "name": "90cbc51f52bdeaa05ff56c9b028ca0ff", "rental_uris": {"android": "https://dc.lft.to/lastmile_qr_scan", "ios": "https://dc.lft.to/lastmile_qr_scan"}, "is_disabled": 0, "fusion_lat": 0.0, "lat": 38.924061333333334, "is_reserved": 0}, {"lon": -76.97228916666667, "fusion_lon": 0.0, "bike_id": "eaf17e328eb531f56ddcf64b54b29fc2", "type": "electric_bike", "name": "eaf17e328eb531f56ddcf64b54b29fc2", "rental_uris": {"android": "https://dc.lft.to/lastmile_qr_scan", "ios": "https://dc.lft.to/lastmile_qr_scan"}, "is_disabled": 0, "fusion_lat": 0.0, "lat": 38.9003545, "is_reserved": 0}, {"lon": -77.03850916666667, "fusion_lon": 0.0, "bike_id": "f647ff5d86db052e72b56461e8b002ca", "type": "electric_scooter", "name": "f647ff5d86db052e72b56461e8b002ca", "rental_uris": {"android": "https://dc.lft.to/lastmile_qr_scan", "ios": "https://dc.lft.to/lastmile_qr_scan"}, "is_disabled": 0, "fusion_lat": 0.0, "lat": 38.915488, "is_reserved": 0}, {"lon": -77.04216666666666, "fusion_lon": 0.0, "bike_id": "6ea87f61b2b0dab5e7e4669f5ea36282", "type": "electric_scooter", "name": "6ea87f61b2b0dab5e7e4669f5ea36282", "rental_uris": {"android": "https://dc.lft.to/lastmile_qr_scan", "ios": "https://dc.lft.to/lastmile_qr_scan"}, "is_disabled": 0, "fusion_lat": 0.0, "lat": 38.903847999999996, "is_reserved": 0}, {"lon": -77.01434766666667, "fusion_lon": 0.0, "bike_id": "0564146abba028acbd11aba0639ced3e", "type": "electric_scooter", "name": "0564146abba028acbd11aba0639ced3e", "rental_uris": {"android": "https://dc.lft.to/lastmile_qr_scan", "ios": "https://dc.lft.to/lastmile_qr_scan"}, "is_disabled": 0, "fusion_lat": 0.0, "lat": 38.91308933333333, "is_reserved": 0}, {"lon": -77.05636483333333, "fusion_lon": 0.0, "bike_id": "4fe3f1e810477b578fa735e0a7141aeb", "type": "electric_scooter", "name": "4fe3f1e810477b578fa735e0a7141aeb", "rental_uris": {"android": "https://dc.lft.to/lastmile_qr_scan", "ios": "https://dc.lft.to/lastmile_qr_scan"}, "is_disabled": 0, "fusion_lat": 0.0, "lat": 38.923335333333334, "is_reserved": 0}, {"lon": -76.91598533333334, "fusion_lon": 0.0, "bike_id": "92b52a2ac26bce00ed43520815f4c139", "type": "electric_bike", "name": "92b52a2ac26bce00ed43520815f4c139", "rental_uris": {"android": "https://dc.lft.to/lastmile_qr_scan", "ios": "https://dc.lft.to/lastmile_qr_scan"}, "is_disabled": 0, "fusion_lat": 0.0, "lat": 38.87986033333333, "is_reserved": 0}, {"lon": -76.94892966666667, "fusion_lon": 0.0, "bike_id": "59430c0335df5b068dfafcb89d9aa035", "type": "electric_scooter", "name": "59430c0335df5b068dfafcb89d9aa035", "rental_uris": {"android": "https://dc.lft.to/lastmile_qr_scan", "ios": "https://dc.lft.to/lastmile_qr_scan"}, "is_disabled": 0, "fusion_lat": 0.0, "lat": 38.895318, "is_reserved": 0}, {"lon": -77.02787816666667, "fusion_lon": 0.0, "bike_id": "bd8cad9f3c40b0535d251f6e4fbb9d50", "type": "electric_scooter", "name": "bd8cad9f3c40b0535d251f6e4fbb9d50", "rental_uris": {"android": "https://dc.lft.to/lastmile_qr_scan", "ios": "https://dc.lft.to/lastmile_qr_scan"}, "is_disabled": 0, "fusion_lat": 0.0, "lat": 38.91712833333333, "is_reserved": 0}, {"lon": -77.03193166666667, "fusion_lon": 0.0, "bike_id": "b64be81118639fbaa1315d662bceaf55", "type": "electric_scooter", "name": "b64be81118639fbaa1315d662bceaf55", "rental_uris": {"android": "https://dc.lft.to/lastmile_qr_scan", "ios": "https://dc.lft.to/lastmile_qr_scan"}, "is_disabled": 0, "fusion_lat": 0.0, "lat": 38.892398666666665, "is_reserved": 0}, {"lon": -77.034409, "fusion_lon": 0.0, "bike_id": "9eff6a4df20a039657b35f85e33fbb29", "type": "electric_scooter", "name": "9eff6a4df20a039657b35f85e33fbb29", "rental_uris": {"android": "https://dc.lft.to/lastmile_qr_scan", "ios": "https://dc.lft.to/lastmile_qr_scan"}, "is_disabled": 0, "fusion_lat": 0.0, "lat": 38.908421833333335, "is_reserved": 0}, {"lon": -76.94857916666666, "fusion_lon": 0.0, "bike_id": "c7d7fda7f10d1d4323213e5a735d6e54", "type": "electric_scooter", "name": "c7d7fda7f10d1d4323213e5a735d6e54", "rental_uris": {"android": "https://dc.lft.to/lastmile_qr_scan", "ios": "https://dc.lft.to/lastmile_qr_scan"}, "is_disabled": 0, "fusion_lat": 0.0, "lat": 38.883011, "is_reserved": 0}, {"lon": -77.0422445, "fusion_lon": 0.0, "bike_id": "2ff7bf29aba20ccd9e64e04742feae69", "type": "electric_scooter", "name": "2ff7bf29aba20ccd9e64e04742feae69", "rental_uris": {"android": "https://dc.lft.to/lastmile_qr_scan", "ios": "https://dc.lft.to/lastmile_qr_scan"}, "is_disabled": 0, "fusion_lat": 0.0, "lat": 38.91106216666667, "is_reserved": 0}, {"lon": -77.0342405, "fusion_lon": 0.0, "bike_id": "ed7eb916106b93bf52c5423134472da9", "type": "electric_scooter", "name": "ed7eb916106b93bf52c5423134472da9", "rental_uris": {"android": "https://dc.lft.to/lastmile_qr_scan", "ios": "https://dc.lft.to/lastmile_qr_scan"}, "is_disabled": 0, "fusion_lat": 0.0, "lat": 38.909566833333336, "is_reserved": 0}, {"lon": -77.0380825, "fusion_lon": 0.0, "bike_id": "da7b2228e00aff4bcd3472d64be9706c", "type": "electric_scooter", "name": "da7b2228e00aff4bcd3472d64be9706c", "rental_uris": {"android": "https://dc.lft.to/lastmile_qr_scan", "ios": "https://dc.lft.to/lastmile_qr_scan"}, "is_disabled": 0, "fusion_lat": 0.0, "lat": 38.90678716666667, "is_reserved": 0}, {"lon": -77.04158133333334, "fusion_lon": 0.0, "bike_id": "503048aac53addc88755a7b86878265f", "type": "electric_scooter", "name": "503048aac53addc88755a7b86878265f", "rental_uris": {"android": "https://dc.lft.to/lastmile_qr_scan", "ios": "https://dc.lft.to/lastmile_qr_scan"}, "is_disabled": 0, "fusion_lat": 0.0, "lat": 38.89230216666667, "is_reserved": 0}, {"lon": -77.06416833333333, "fusion_lon": 0.0, "bike_id": "b4491e0c535c49fafd209c257126b95f", "type": "electric_scooter", "name": "b4491e0c535c49fafd209c257126b95f", "rental_uris": {"android": "https://dc.lft.to/lastmile_qr_scan", "ios": "https://dc.lft.to/lastmile_qr_scan"}, "is_disabled": 0, "fusion_lat": 0.0, "lat": 38.913467833333335, "is_reserved": 0}, {"lon": -76.94894133333334, "fusion_lon": 0.0, "bike_id": "98367ece1f6946c0661b52820990f0ad", "type": "electric_scooter", "name": "98367ece1f6946c0661b52820990f0ad", "rental_uris": {"android": "https://dc.lft.to/lastmile_qr_scan", "ios": "https://dc.lft.to/lastmile_qr_scan"}, "is_disabled": 0, "fusion_lat": 0.0, "lat": 38.89533633333333, "is_reserved": 0}, {"lon": -77.05260116666666, "fusion_lon": 0.0, "bike_id": "0572da251486ae2c6f09295e4877eae9", "type": "electric_scooter", "name": "0572da251486ae2c6f09295e4877eae9", "rental_uris": {"android": "https://dc.lft.to/lastmile_qr_scan", "ios": "https://dc.lft.to/lastmile_qr_scan"}, "is_disabled": 0, "fusion_lat": 0.0, "lat": 38.927890833333336, "is_reserved": 0}, {"lon": -77.03756116666666, "fusion_lon": 0.0, "bike_id": "3ada50ba5c68cbde0be13cbed37bf6dd", "type": "electric_scooter", "name": "3ada50ba5c68cbde0be13cbed37bf6dd", "rental_uris": {"android": "https://dc.lft.to/lastmile_qr_scan", "ios": "https://dc.lft.to/lastmile_qr_scan"}, "is_disabled": 0, "fusion_lat": 0.0, "lat": 38.93090016666667, "is_reserved": 0}, {"lon": -77.0013315, "fusion_lon": 0.0, "bike_id": "d20c9b143ac81948c8ccc1c8ccb34045", "type": "electric_scooter", "name": "d20c9b143ac81948c8ccc1c8ccb34045", "rental_uris": {"android": "https://dc.lft.to/lastmile_qr_scan", "ios": "https://dc.lft.to/lastmile_qr_scan"}, "is_disabled": 0, "fusion_lat": 0.0, "lat": 38.8788085, "is_reserved": 0}, {"lon": -77.01745383333333, "fusion_lon": 0.0, "bike_id": "c8e150ce29eb050d9c90194c6f7524c2", "type": "electric_scooter", "name": "c8e150ce29eb050d9c90194c6f7524c2", "rental_uris": {"android": "https://dc.lft.to/lastmile_qr_scan", "ios": "https://dc.lft.to/lastmile_qr_scan"}, "is_disabled": 0, "fusion_lat": 0.0, "lat": 38.877251666666666, "is_reserved": 0}, {"lon": -77.01953983333334, "fusion_lon": 0.0, "bike_id": "fba411bdd9d559df63425de52cd95b3b", "type": "electric_scooter", "name": "fba411bdd9d559df63425de52cd95b3b", "rental_uris": {"android": "https://dc.lft.to/lastmile_qr_scan", "ios": "https://dc.lft.to/lastmile_qr_scan"}, "is_disabled": 0, "fusion_lat": 0.0, "lat": 38.923283833333336, "is_reserved": 0}, {"lon": -77.0419385, "fusion_lon": 0.0, "bike_id": "ea7849259b6be0606efc4e43195adcbc", "type": "electric_scooter", "name": "ea7849259b6be0606efc4e43195adcbc", "rental_uris": {"android": "https://dc.lft.to/lastmile_qr_scan", "ios": "https://dc.lft.to/lastmile_qr_scan"}, "is_disabled": 0, "fusion_lat": 0.0, "lat": 38.92334133333333, "is_reserved": 0}, {"lon": -76.93341766666667, "fusion_lon": 0.0, "bike_id": "d1974cc1f6fd4ed11acd9bd4e67fd920", "type": "electric_scooter", "name": "d1974cc1f6fd4ed11acd9bd4e67fd920", "rental_uris": {"android": "https://dc.lft.to/lastmile_qr_scan", "ios": "https://dc.lft.to/lastmile_qr_scan"}, "is_disabled": 0, "fusion_lat": 0.0, "lat": 38.90868016666667, "is_reserved": 0}, {"lon": -77.02179333333333, "fusion_lon": 0.0, "bike_id": "6fa10e2500b03a725446cb14df825bba", "type": "electric_scooter", "name": "6fa10e2500b03a725446cb14df825bba", "rental_uris": {"android": "https://dc.lft.to/lastmile_qr_scan", "ios": "https://dc.lft.to/lastmile_qr_scan"}, "is_disabled": 0, "fusion_lat": 0.0, "lat": 38.90566833333333, "is_reserved": 0}, {"lon": -77.0272435, "fusion_lon": 0.0, "bike_id": "e96e49b3f9f9ce06dc1b6e6a0f6fdc4b", "type": "electric_scooter", "name": "e96e49b3f9f9ce06dc1b6e6a0f6fdc4b", "rental_uris": {"android": "https://dc.lft.to/lastmile_qr_scan", "ios": "https://dc.lft.to/lastmile_qr_scan"}, "is_disabled": 0, "fusion_lat": 0.0, "lat": 38.92789883333333, "is_reserved": 0}, {"lon": -76.98606016666666, "fusion_lon": 0.0, "bike_id": "7bc1665c6149ad7764e59f267e3a6c78", "type": "electric_scooter", "name": "7bc1665c6149ad7764e59f267e3a6c78", "rental_uris": {"android": "https://dc.lft.to/lastmile_qr_scan", "ios": "https://dc.lft.to/lastmile_qr_scan"}, "is_disabled": 0, "fusion_lat": 0.0, "lat": 38.860109, "is_reserved": 0}, {"lon": -77.03098016666667, "fusion_lon": 0.0, "bike_id": "4b9685a47b37fc34bd405f2b34b9f229", "type": "electric_scooter", "name": "4b9685a47b37fc34bd405f2b34b9f229", "rental_uris": {"android": "https://dc.lft.to/lastmile_qr_scan", "ios": "https://dc.lft.to/lastmile_qr_scan"}, "is_disabled": 0, "fusion_lat": 0.0, "lat": 38.919286166666666, "is_reserved": 0}, {"lon": -77.03316683333334, "fusion_lon": 0.0, "bike_id": "af81998c81102c2ed3cdb9f222df5771", "type": "electric_scooter", "name": "af81998c81102c2ed3cdb9f222df5771", "rental_uris": {"android": "https://dc.lft.to/lastmile_qr_scan", "ios": "https://dc.lft.to/lastmile_qr_scan"}, "is_disabled": 0, "fusion_lat": 0.0, "lat": 38.910383333333336, "is_reserved": 0}, {"lon": -77.0373185, "fusion_lon": 0.0, "bike_id": "a0a0a5750469319ba155dbad78253a9a", "type": "electric_scooter", "name": "a0a0a5750469319ba155dbad78253a9a", "rental_uris": {"android": "https://dc.lft.to/lastmile_qr_scan", "ios": "https://dc.lft.to/lastmile_qr_scan"}, "is_disabled": 0, "fusion_lat": 0.0, "lat": 38.9111645, "is_reserved": 0}, {"lon": -77.024973, "fusion_lon": 0.0, "bike_id": "bd70497caaeaa0405525f89f32fbe32c", "type": "electric_scooter", "name": "bd70497caaeaa0405525f89f32fbe32c", "rental_uris": {"android": "https://dc.lft.to/lastmile_qr_scan", "ios": "https://dc.lft.to/lastmile_qr_scan"}, "is_disabled": 0, "fusion_lat": 0.0, "lat": 38.91917383333333, "is_reserved": 0}, {"lon": -76.95971266666666, "fusion_lon": 0.0, "bike_id": "f8d54e23efd84aa95f5a71c845e30484", "type": "electric_bike", "name": "f8d54e23efd84aa95f5a71c845e30484", "rental_uris": {"android": "https://dc.lft.to/lastmile_qr_scan", "ios": "https://dc.lft.to/lastmile_qr_scan"}, "is_disabled": 0, "fusion_lat": 0.0, "lat": 38.948061333333335, "is_reserved": 0}, {"lon": -77.053974, "fusion_lon": 0.0, "bike_id": "997a105a79b380fe3c7aad1cac541581", "type": "electric_scooter", "name": "997a105a79b380fe3c7aad1cac541581", "rental_uris": {"android": "https://dc.lft.to/lastmile_qr_scan", "ios": "https://dc.lft.to/lastmile_qr_scan"}, "is_disabled": 0, "fusion_lat": 0.0, "lat": 38.90128, "is_reserved": 0}, {"lon": -77.03631983333334, "fusion_lon": 0.0, "bike_id": "1167a1d8d8e504be6e8ff471ac982100", "type": "electric_scooter", "name": "1167a1d8d8e504be6e8ff471ac982100", "rental_uris": {"android": "https://dc.lft.to/lastmile_qr_scan", "ios": "https://dc.lft.to/lastmile_qr_scan"}, "is_disabled": 0, "fusion_lat": 0.0, "lat": 38.92701566666667, "is_reserved": 0}, {"lon": -77.04348483333334, "fusion_lon": 0.0, "bike_id": "2e43062fa007b163c2e1dec7674723c8", "type": "electric_scooter", "name": "2e43062fa007b163c2e1dec7674723c8", "rental_uris": {"android": "https://dc.lft.to/lastmile_qr_scan", "ios": "https://dc.lft.to/lastmile_qr_scan"}, "is_disabled": 0, "fusion_lat": 0.0, "lat": 38.9040165, "is_reserved": 0}, {"lon": -77.03888966666666, "fusion_lon": 0.0, "bike_id": "c3e4020c30702c51891876598dae02a5", "type": "electric_scooter", "name": "c3e4020c30702c51891876598dae02a5", "rental_uris": {"android": "https://dc.lft.to/lastmile_qr_scan", "ios": "https://dc.lft.to/lastmile_qr_scan"}, "is_disabled": 0, "fusion_lat": 0.0, "lat": 38.92254533333333, "is_reserved": 0}, {"lon": -77.0220545, "fusion_lon": 0.0, "bike_id": "c6d8b53f0371bff8c7ca6a48157ddcec", "type": "electric_scooter", "name": "c6d8b53f0371bff8c7ca6a48157ddcec", "rental_uris": {"android": "https://dc.lft.to/lastmile_qr_scan", "ios": "https://dc.lft.to/lastmile_qr_scan"}, "is_disabled": 0, "fusion_lat": 0.0, "lat": 38.94796633333333, "is_reserved": 0}, {"lon": -77.02743416666667, "fusion_lon": 0.0, "bike_id": "6deefb73dedde1a49381e046a3d0b6aa", "type": "electric_scooter", "name": "6deefb73dedde1a49381e046a3d0b6aa", "rental_uris": {"android": "https://dc.lft.to/lastmile_qr_scan", "ios": "https://dc.lft.to/lastmile_qr_scan"}, "is_disabled": 0, "fusion_lat": 0.0, "lat": 38.95235316666667, "is_reserved": 0}, {"lon": -76.95756466666667, "fusion_lon": 0.0, "bike_id": "64cccf845dbc7bd282c390f6d9d3764b", "type": "electric_scooter", "name": "64cccf845dbc7bd282c390f6d9d3764b", "rental_uris": {"android": "https://dc.lft.to/lastmile_qr_scan", "ios": "https://dc.lft.to/lastmile_qr_scan"}, "is_disabled": 0, "fusion_lat": 0.0, "lat": 38.88429933333333, "is_reserved": 0}, {"lon": -77.005125, "fusion_lon": 0.0, "bike_id": "131b6944c0df835b36145588a61b1ee0", "type": "electric_scooter", "name": "131b6944c0df835b36145588a61b1ee0", "rental_uris": {"android": "https://dc.lft.to/lastmile_qr_scan", "ios": "https://dc.lft.to/lastmile_qr_scan"}, "is_disabled": 0, "fusion_lat": 0.0, "lat": 38.895959166666664, "is_reserved": 0}, {"lon": -76.9867225, "fusion_lon": 0.0, "bike_id": "bb94be3b08aa9db37908714bb52de143", "type": "electric_scooter", "name": "bb94be3b08aa9db37908714bb52de143", "rental_uris": {"android": "https://dc.lft.to/lastmile_qr_scan", "ios": "https://dc.lft.to/lastmile_qr_scan"}, "is_disabled": 0, "fusion_lat": 0.0, "lat": 38.90677316666667, "is_reserved": 0}, {"lon": -76.99482, "fusion_lon": 0.0, "bike_id": "e61ced5962c1d323680b3e0d240afba7", "type": "electric_scooter", "name": "e61ced5962c1d323680b3e0d240afba7", "rental_uris": {"android": "https://dc.lft.to/lastmile_qr_scan", "ios": "https://dc.lft.to/lastmile_qr_scan"}, "is_disabled": 0, "fusion_lat": 0.0, "lat": 38.86214966666667, "is_reserved": 0}, {"lon": -76.998025, "fusion_lon": 0.0, "bike_id": "72a5a40d6d16559df5806e304c29d939", "type": "electric_scooter", "name": "72a5a40d6d16559df5806e304c29d939", "rental_uris": {"android": "https://dc.lft.to/lastmile_qr_scan", "ios": "https://dc.lft.to/lastmile_qr_scan"}, "is_disabled": 0, "fusion_lat": 0.0, "lat": 38.9013585, "is_reserved": 0}, {"lon": -77.03173866666667, "fusion_lon": 0.0, "bike_id": "b30f2cf37c444ea1c5ceb362e82d984d", "type": "electric_scooter", "name": "b30f2cf37c444ea1c5ceb362e82d984d", "rental_uris": {"android": "https://dc.lft.to/lastmile_qr_scan", "ios": "https://dc.lft.to/lastmile_qr_scan"}, "is_disabled": 0, "fusion_lat": 0.0, "lat": 38.917531, "is_reserved": 0}, {"lon": -76.995382, "fusion_lon": 0.0, "bike_id": "887813cbf90695727a3f0e712f72f8da", "type": "electric_scooter", "name": "887813cbf90695727a3f0e712f72f8da", "rental_uris": {"android": "https://dc.lft.to/lastmile_qr_scan", "ios": "https://dc.lft.to/lastmile_qr_scan"}, "is_disabled": 0, "fusion_lat": 0.0, "lat": 38.9266925, "is_reserved": 0}, {"lon": -77.0448565, "fusion_lon": 0.0, "bike_id": "402967cf320e334ceb199b220cc00d6a", "type": "electric_scooter", "name": "402967cf320e334ceb199b220cc00d6a", "rental_uris": {"android": "https://dc.lft.to/lastmile_qr_scan", "ios": "https://dc.lft.to/lastmile_qr_scan"}, "is_disabled": 0, "fusion_lat": 0.0, "lat": 38.89527233333333, "is_reserved": 0}, {"lon": -76.95588533333333, "fusion_lon": 0.0, "bike_id": "3f8055047cd91c7d18d688bba9100bad", "type": "electric_scooter", "name": "3f8055047cd91c7d18d688bba9100bad", "rental_uris": {"android": "https://dc.lft.to/lastmile_qr_scan", "ios": "https://dc.lft.to/lastmile_qr_scan"}, "is_disabled": 0, "fusion_lat": 0.0, "lat": 38.8861275, "is_reserved": 0}, {"lon": -77.0172325, "fusion_lon": 0.0, "bike_id": "4218f4a2d5dfc2e837b689c4bd0b1ce4", "type": "electric_scooter", "name": "4218f4a2d5dfc2e837b689c4bd0b1ce4", "rental_uris": {"android": "https://dc.lft.to/lastmile_qr_scan", "ios": "https://dc.lft.to/lastmile_qr_scan"}, "is_disabled": 0, "fusion_lat": 0.0, "lat": 38.902263, "is_reserved": 0}, {"lon": -77.01992033333333, "fusion_lon": 0.0, "bike_id": "ed5c82c34f0eeea113bc09f0b29f3455", "type": "electric_scooter", "name": "ed5c82c34f0eeea113bc09f0b29f3455", "rental_uris": {"android": "https://dc.lft.to/lastmile_qr_scan", "ios": "https://dc.lft.to/lastmile_qr_scan"}, "is_disabled": 0, "fusion_lat": 0.0, "lat": 38.895078166666664, "is_reserved": 0}, {"lon": -77.22928533333334, "fusion_lon": 0.0, "bike_id": "1eeae390f45830a6967cc69046812217", "type": "electric_bike", "name": "1eeae390f45830a6967cc69046812217", "rental_uris": {"android": "https://dc.lft.to/lastmile_qr_scan", "ios": "https://dc.lft.to/lastmile_qr_scan"}, "is_disabled": 0, "fusion_lat": 0.0, "lat": 38.9318755, "is_reserved": 0}, {"lon": -77.03592933333333, "fusion_lon": 0.0, "bike_id": "0ef632b0aec77dc422c4c9bede1e6e65", "type": "electric_scooter", "name": "0ef632b0aec77dc422c4c9bede1e6e65", "rental_uris": {"android": "https://dc.lft.to/lastmile_qr_scan", "ios": "https://dc.lft.to/lastmile_qr_scan"}, "is_disabled": 0, "fusion_lat": 0.0, "lat": 38.936751666666666, "is_reserved": 0}, {"lon": -77.043497, "fusion_lon": 0.0, "bike_id": "677ec50a9114d1edf6bf675d33498f32", "type": "electric_scooter", "name": "677ec50a9114d1edf6bf675d33498f32", "rental_uris": {"android": "https://dc.lft.to/lastmile_qr_scan", "ios": "https://dc.lft.to/lastmile_qr_scan"}, "is_disabled": 0, "fusion_lat": 0.0, "lat": 38.90850016666667, "is_reserved": 0}, {"lon": -77.0268145, "fusion_lon": 0.0, "bike_id": "711da994d44ea8cd35e778d368094a2b", "type": "electric_scooter", "name": "711da994d44ea8cd35e778d368094a2b", "rental_uris": {"android": "https://dc.lft.to/lastmile_qr_scan", "ios": "https://dc.lft.to/lastmile_qr_scan"}, "is_disabled": 0, "fusion_lat": 0.0, "lat": 38.955091833333334, "is_reserved": 0}, {"lon": -77.02100066666667, "fusion_lon": 0.0, "bike_id": "75c929861a7e6d0d4495581a173a35c1", "type": "electric_scooter", "name": "75c929861a7e6d0d4495581a173a35c1", "rental_uris": {"android": "https://dc.lft.to/lastmile_qr_scan", "ios": "https://dc.lft.to/lastmile_qr_scan"}, "is_disabled": 0, "fusion_lat": 0.0, "lat": 38.885101666666664, "is_reserved": 0}, {"lon": -77.01124666666666, "fusion_lon": 0.0, "bike_id": "8d7490bf17dafcb8614771676056d7a8", "type": "electric_scooter", "name": "8d7490bf17dafcb8614771676056d7a8", "rental_uris": {"android": "https://dc.lft.to/lastmile_qr_scan", "ios": "https://dc.lft.to/lastmile_qr_scan"}, "is_disabled": 0, "fusion_lat": 0.0, "lat": 38.900001333333336, "is_reserved": 0}, {"lon": -77.0119615, "fusion_lon": 0.0, "bike_id": "9ce0cb9ffb2e2bbe19a2803a125162bf", "type": "electric_scooter", "name": "9ce0cb9ffb2e2bbe19a2803a125162bf", "rental_uris": {"android": "https://dc.lft.to/lastmile_qr_scan", "ios": "https://dc.lft.to/lastmile_qr_scan"}, "is_disabled": 0, "fusion_lat": 0.0, "lat": 38.927646333333335, "is_reserved": 0}, {"lon": -77.02611483333334, "fusion_lon": 0.0, "bike_id": "816367f8bba95f66704ee65d0fbfac97", "type": "electric_scooter", "name": "816367f8bba95f66704ee65d0fbfac97", "rental_uris": {"android": "https://dc.lft.to/lastmile_qr_scan", "ios": "https://dc.lft.to/lastmile_qr_scan"}, "is_disabled": 0, "fusion_lat": 0.0, "lat": 38.91412966666667, "is_reserved": 0}, {"lon": -77.03508066666667, "fusion_lon": 0.0, "bike_id": "59f500e3dc523213397ec425da69cc66", "type": "electric_scooter", "name": "59f500e3dc523213397ec425da69cc66", "rental_uris": {"android": "https://dc.lft.to/lastmile_qr_scan", "ios": "https://dc.lft.to/lastmile_qr_scan"}, "is_disabled": 0, "fusion_lat": 0.0, "lat": 38.91880883333333, "is_reserved": 0}, {"lon": -76.99781833333333, "fusion_lon": 0.0, "bike_id": "cbef917ab8fffe0d39f30d3644204eae", "type": "electric_scooter", "name": "cbef917ab8fffe0d39f30d3644204eae", "rental_uris": {"android": "https://dc.lft.to/lastmile_qr_scan", "ios": "https://dc.lft.to/lastmile_qr_scan"}, "is_disabled": 0, "fusion_lat": 0.0, "lat": 38.844386666666665, "is_reserved": 0}, {"lon": -77.043648, "fusion_lon": 0.0, "bike_id": "af43eec4846675d1f7726f6a94264e44", "type": "electric_scooter", "name": "af43eec4846675d1f7726f6a94264e44", "rental_uris": {"android": "https://dc.lft.to/lastmile_qr_scan", "ios": "https://dc.lft.to/lastmile_qr_scan"}, "is_disabled": 0, "fusion_lat": 0.0, "lat": 38.900023833333336, "is_reserved": 0}, {"lon": -77.04140266666667, "fusion_lon": 0.0, "bike_id": "609937fc75fce108932e434ef8481fe0", "type": "electric_scooter", "name": "609937fc75fce108932e434ef8481fe0", "rental_uris": {"android": "https://dc.lft.to/lastmile_qr_scan", "ios": "https://dc.lft.to/lastmile_qr_scan"}, "is_disabled": 0, "fusion_lat": 0.0, "lat": 38.92493566666667, "is_reserved": 0}, {"lon": -77.0488105, "fusion_lon": 0.0, "bike_id": "e838eb9c071013e0130ceb4634b8bea2", "type": "electric_scooter", "name": "e838eb9c071013e0130ceb4634b8bea2", "rental_uris": {"android": "https://dc.lft.to/lastmile_qr_scan", "ios": "https://dc.lft.to/lastmile_qr_scan"}, "is_disabled": 0, "fusion_lat": 0.0, "lat": 38.89859083333333, "is_reserved": 0}, {"lon": -76.99296166666667, "fusion_lon": 0.0, "bike_id": "ec0742b2c70d415ac00e3348af9da9f7", "type": "electric_scooter", "name": "ec0742b2c70d415ac00e3348af9da9f7", "rental_uris": {"android": "https://dc.lft.to/lastmile_qr_scan", "ios": "https://dc.lft.to/lastmile_qr_scan"}, "is_disabled": 0, "fusion_lat": 0.0, "lat": 38.857639166666665, "is_reserved": 0}, {"lon": -77.04351516666667, "fusion_lon": 0.0, "bike_id": "33a561969b8a2dc4ac267ba00a2d0cce", "type": "electric_scooter", "name": "33a561969b8a2dc4ac267ba00a2d0cce", "rental_uris": {"android": "https://dc.lft.to/lastmile_qr_scan", "ios": "https://dc.lft.to/lastmile_qr_scan"}, "is_disabled": 0, "fusion_lat": 0.0, "lat": 38.921165, "is_reserved": 0}, {"lon": -76.9519315, "fusion_lon": 0.0, "bike_id": "5ff2d40bbceb40ec9be912c1be09168e", "type": "electric_bike", "name": "5ff2d40bbceb40ec9be912c1be09168e", "rental_uris": {"android": "https://dc.lft.to/lastmile_qr_scan", "ios": "https://dc.lft.to/lastmile_qr_scan"}, "is_disabled": 0, "fusion_lat": 0.0, "lat": 39.08446433333334, "is_reserved": 0}, {"lon": -77.0663685, "fusion_lon": 0.0, "bike_id": "50ac1ffa9180dab1ef12b0df5ff68450", "type": "electric_scooter", "name": "50ac1ffa9180dab1ef12b0df5ff68450", "rental_uris": {"android": "https://dc.lft.to/lastmile_qr_scan", "ios": "https://dc.lft.to/lastmile_qr_scan"}, "is_disabled": 0, "fusion_lat": 0.0, "lat": 38.949577, "is_reserved": 0}, {"lon": -77.02386816666667, "fusion_lon": 0.0, "bike_id": "79fd018aa99cc1195d125a6164745d26", "type": "electric_scooter", "name": "79fd018aa99cc1195d125a6164745d26", "rental_uris": {"android": "https://dc.lft.to/lastmile_qr_scan", "ios": "https://dc.lft.to/lastmile_qr_scan"}, "is_disabled": 0, "fusion_lat": 0.0, "lat": 38.91676433333333, "is_reserved": 0}, {"lon": -77.051507, "fusion_lon": 0.0, "bike_id": "f201fc2239b1aef8d5b8a3f4a68abd4f", "type": "electric_scooter", "name": "f201fc2239b1aef8d5b8a3f4a68abd4f", "rental_uris": {"android": "https://dc.lft.to/lastmile_qr_scan", "ios": "https://dc.lft.to/lastmile_qr_scan"}, "is_disabled": 0, "fusion_lat": 0.0, "lat": 38.92378633333333, "is_reserved": 0}, {"lon": -77.04856483333333, "fusion_lon": 0.0, "bike_id": "15be8d082574c2e2f0db67d3df737017", "type": "electric_scooter", "name": "15be8d082574c2e2f0db67d3df737017", "rental_uris": {"android": "https://dc.lft.to/lastmile_qr_scan", "ios": "https://dc.lft.to/lastmile_qr_scan"}, "is_disabled": 0, "fusion_lat": 0.0, "lat": 38.904644833333336, "is_reserved": 0}, {"lon": -77.03439066666667, "fusion_lon": 0.0, "bike_id": "a9e59f69302ff5188fbea76c40184c76", "type": "electric_scooter", "name": "a9e59f69302ff5188fbea76c40184c76", "rental_uris": {"android": "https://dc.lft.to/lastmile_qr_scan", "ios": "https://dc.lft.to/lastmile_qr_scan"}, "is_disabled": 0, "fusion_lat": 0.0, "lat": 38.92870833333333, "is_reserved": 0}, {"lon": -77.05000433333333, "fusion_lon": 0.0, "bike_id": "3a0af88bfd253b65c6360f67dcd59079", "type": "electric_scooter", "name": "3a0af88bfd253b65c6360f67dcd59079", "rental_uris": {"android": "https://dc.lft.to/lastmile_qr_scan", "ios": "https://dc.lft.to/lastmile_qr_scan"}, "is_disabled": 0, "fusion_lat": 0.0, "lat": 38.892315333333336, "is_reserved": 0}, {"lon": -77.02809416666666, "fusion_lon": 0.0, "bike_id": "104d8a1df735f5f907f6dbcabb9aa868", "type": "electric_scooter", "name": "104d8a1df735f5f907f6dbcabb9aa868", "rental_uris": {"android": "https://dc.lft.to/lastmile_qr_scan", "ios": "https://dc.lft.to/lastmile_qr_scan"}, "is_disabled": 0, "fusion_lat": 0.0, "lat": 38.930832333333335, "is_reserved": 0}, {"lon": -77.02901166666666, "fusion_lon": 0.0, "bike_id": "06afebf3e6b0666d73b13f674dd75914", "type": "electric_scooter", "name": "06afebf3e6b0666d73b13f674dd75914", "rental_uris": {"android": "https://dc.lft.to/lastmile_qr_scan", "ios": "https://dc.lft.to/lastmile_qr_scan"}, "is_disabled": 0, "fusion_lat": 0.0, "lat": 38.92762416666667, "is_reserved": 0}, {"lon": -77.02157116666666, "fusion_lon": 0.0, "bike_id": "8544a00d4feb32330488f568a0f00246", "type": "electric_scooter", "name": "8544a00d4feb32330488f568a0f00246", "rental_uris": {"android": "https://dc.lft.to/lastmile_qr_scan", "ios": "https://dc.lft.to/lastmile_qr_scan"}, "is_disabled": 0, "fusion_lat": 0.0, "lat": 38.92605416666667, "is_reserved": 0}, {"lon": -77.04189533333333, "fusion_lon": 0.0, "bike_id": "03f4e65b7f770e7754e3b693e13f99fe", "type": "electric_scooter", "name": "03f4e65b7f770e7754e3b693e13f99fe", "rental_uris": {"android": "https://dc.lft.to/lastmile_qr_scan", "ios": "https://dc.lft.to/lastmile_qr_scan"}, "is_disabled": 0, "fusion_lat": 0.0, "lat": 38.920496, "is_reserved": 0}, {"lon": -77.00231266666667, "fusion_lon": 0.0, "bike_id": "a5022eb35e455214f9605ad7be42ecee", "type": "electric_scooter", "name": "a5022eb35e455214f9605ad7be42ecee", "rental_uris": {"android": "https://dc.lft.to/lastmile_qr_scan", "ios": "https://dc.lft.to/lastmile_qr_scan"}, "is_disabled": 0, "fusion_lat": 0.0, "lat": 38.885132666666664, "is_reserved": 0}, {"lon": -77.022112, "fusion_lon": 0.0, "bike_id": "e0f9ab2406b00c41b06398a4b66e7a2e", "type": "electric_scooter", "name": "e0f9ab2406b00c41b06398a4b66e7a2e", "rental_uris": {"android": "https://dc.lft.to/lastmile_qr_scan", "ios": "https://dc.lft.to/lastmile_qr_scan"}, "is_disabled": 0, "fusion_lat": 0.0, "lat": 38.927865833333335, "is_reserved": 0}, {"lon": -77.0247885, "fusion_lon": 0.0, "bike_id": "a50589e976b3ca3696989f8b1b916c27", "type": "electric_scooter", "name": "a50589e976b3ca3696989f8b1b916c27", "rental_uris": {"android": "https://dc.lft.to/lastmile_qr_scan", "ios": "https://dc.lft.to/lastmile_qr_scan"}, "is_disabled": 0, "fusion_lat": 0.0, "lat": 38.93958216666667, "is_reserved": 0}, {"lon": -76.9854365, "fusion_lon": 0.0, "bike_id": "86a422733b98482f8484384183df2056", "type": "electric_scooter", "name": "86a422733b98482f8484384183df2056", "rental_uris": {"android": "https://dc.lft.to/lastmile_qr_scan", "ios": "https://dc.lft.to/lastmile_qr_scan"}, "is_disabled": 0, "fusion_lat": 0.0, "lat": 38.866882833333335, "is_reserved": 0}, {"lon": -77.035642, "fusion_lon": 0.0, "bike_id": "1c23a056794512414852dcf517e5e088", "type": "electric_scooter", "name": "1c23a056794512414852dcf517e5e088", "rental_uris": {"android": "https://dc.lft.to/lastmile_qr_scan", "ios": "https://dc.lft.to/lastmile_qr_scan"}, "is_disabled": 0, "fusion_lat": 0.0, "lat": 38.903844166666666, "is_reserved": 0}, {"lon": -77.00953833333334, "fusion_lon": 0.0, "bike_id": "3753561a6bd30b2245f5c1ae0653b348", "type": "electric_scooter", "name": "3753561a6bd30b2245f5c1ae0653b348", "rental_uris": {"android": "https://dc.lft.to/lastmile_qr_scan", "ios": "https://dc.lft.to/lastmile_qr_scan"}, "is_disabled": 0, "fusion_lat": 0.0, "lat": 38.897342, "is_reserved": 0}, {"lon": -77.03126566666667, "fusion_lon": 0.0, "bike_id": "a7d84f2fbcb94f3791f2c673d8d48c3e", "type": "electric_scooter", "name": "a7d84f2fbcb94f3791f2c673d8d48c3e", "rental_uris": {"android": "https://dc.lft.to/lastmile_qr_scan", "ios": "https://dc.lft.to/lastmile_qr_scan"}, "is_disabled": 0, "fusion_lat": 0.0, "lat": 38.90480566666667, "is_reserved": 0}, {"lon": -77.084844, "fusion_lon": 0.0, "bike_id": "830d44db6eb981e2e66a702c4e57e154", "type": "electric_scooter", "name": "830d44db6eb981e2e66a702c4e57e154", "rental_uris": {"android": "https://dc.lft.to/lastmile_qr_scan", "ios": "https://dc.lft.to/lastmile_qr_scan"}, "is_disabled": 0, "fusion_lat": 0.0, "lat": 38.939020666666664, "is_reserved": 0}, {"lon": -77.03662983333334, "fusion_lon": 0.0, "bike_id": "de9138d74dc4c5d973b64c026726305d", "type": "electric_scooter", "name": "de9138d74dc4c5d973b64c026726305d", "rental_uris": {"android": "https://dc.lft.to/lastmile_qr_scan", "ios": "https://dc.lft.to/lastmile_qr_scan"}, "is_disabled": 0, "fusion_lat": 0.0, "lat": 38.9154435, "is_reserved": 0}, {"lon": -77.0270365, "fusion_lon": 0.0, "bike_id": "8e088b8bdf55ee479165144698747720", "type": "electric_scooter", "name": "8e088b8bdf55ee479165144698747720", "rental_uris": {"android": "https://dc.lft.to/lastmile_qr_scan", "ios": "https://dc.lft.to/lastmile_qr_scan"}, "is_disabled": 0, "fusion_lat": 0.0, "lat": 38.92677066666667, "is_reserved": 0}, {"lon": -77.00489083333333, "fusion_lon": 0.0, "bike_id": "60e5d1cc99063b4a6c7f5fc4fda0e297", "type": "electric_scooter", "name": "60e5d1cc99063b4a6c7f5fc4fda0e297", "rental_uris": {"android": "https://dc.lft.to/lastmile_qr_scan", "ios": "https://dc.lft.to/lastmile_qr_scan"}, "is_disabled": 0, "fusion_lat": 0.0, "lat": 38.874654, "is_reserved": 0}, {"lon": -76.99911683333333, "fusion_lon": 0.0, "bike_id": "eafd97c4b32367761a180db2916fe587", "type": "electric_scooter", "name": "eafd97c4b32367761a180db2916fe587", "rental_uris": {"android": "https://dc.lft.to/lastmile_qr_scan", "ios": "https://dc.lft.to/lastmile_qr_scan"}, "is_disabled": 0, "fusion_lat": 0.0, "lat": 38.909219666666665, "is_reserved": 0}, {"lon": -77.01629433333333, "fusion_lon": 0.0, "bike_id": "d59869dc8e11a5c7869a27fb334616e9", "type": "electric_scooter", "name": "d59869dc8e11a5c7869a27fb334616e9", "rental_uris": {"android": "https://dc.lft.to/lastmile_qr_scan", "ios": "https://dc.lft.to/lastmile_qr_scan"}, "is_disabled": 0, "fusion_lat": 0.0, "lat": 38.90330866666667, "is_reserved": 0}, {"lon": -77.0728255, "fusion_lon": 0.0, "bike_id": "72fc3b00dff0410c0f24b4b7656f8376", "type": "electric_scooter", "name": "72fc3b00dff0410c0f24b4b7656f8376", "rental_uris": {"android": "https://dc.lft.to/lastmile_qr_scan", "ios": "https://dc.lft.to/lastmile_qr_scan"}, "is_disabled": 0, "fusion_lat": 0.0, "lat": 38.9347065, "is_reserved": 0}, {"lon": -77.03181316666667, "fusion_lon": 0.0, "bike_id": "ec5f52fbc505fa37dca0c964951dcd3c", "type": "electric_scooter", "name": "ec5f52fbc505fa37dca0c964951dcd3c", "rental_uris": {"android": "https://dc.lft.to/lastmile_qr_scan", "ios": "https://dc.lft.to/lastmile_qr_scan"}, "is_disabled": 0, "fusion_lat": 0.0, "lat": 38.921097, "is_reserved": 0}, {"lon": -77.02734983333333, "fusion_lon": 0.0, "bike_id": "9b7e0c64eb4d637d0130cb95e72b50b9", "type": "electric_scooter", "name": "9b7e0c64eb4d637d0130cb95e72b50b9", "rental_uris": {"android": "https://dc.lft.to/lastmile_qr_scan", "ios": "https://dc.lft.to/lastmile_qr_scan"}, "is_disabled": 0, "fusion_lat": 0.0, "lat": 38.897102, "is_reserved": 0}, {"lon": -77.02294933333333, "fusion_lon": 0.0, "bike_id": "af7a54fd1dcf7bd7a68c43f27e0347b0", "type": "electric_scooter", "name": "af7a54fd1dcf7bd7a68c43f27e0347b0", "rental_uris": {"android": "https://dc.lft.to/lastmile_qr_scan", "ios": "https://dc.lft.to/lastmile_qr_scan"}, "is_disabled": 0, "fusion_lat": 0.0, "lat": 38.927587333333335, "is_reserved": 0}, {"lon": -77.04535583333333, "fusion_lon": 0.0, "bike_id": "905179f66a8305f638d0a6fbcc76301c", "type": "electric_scooter", "name": "905179f66a8305f638d0a6fbcc76301c", "rental_uris": {"android": "https://dc.lft.to/lastmile_qr_scan", "ios": "https://dc.lft.to/lastmile_qr_scan"}, "is_disabled": 0, "fusion_lat": 0.0, "lat": 38.931556666666665, "is_reserved": 0}, {"lon": -77.0132525, "fusion_lon": 0.0, "bike_id": "3a56379f723837f49a8ba9f18d94adc7", "type": "electric_scooter", "name": "3a56379f723837f49a8ba9f18d94adc7", "rental_uris": {"android": "https://dc.lft.to/lastmile_qr_scan", "ios": "https://dc.lft.to/lastmile_qr_scan"}, "is_disabled": 0, "fusion_lat": 0.0, "lat": 38.906087166666666, "is_reserved": 0}, {"lon": -77.03852666666667, "fusion_lon": 0.0, "bike_id": "171df26280e77c74cc93657e19d40dfd", "type": "electric_scooter", "name": "171df26280e77c74cc93657e19d40dfd", "rental_uris": {"android": "https://dc.lft.to/lastmile_qr_scan", "ios": "https://dc.lft.to/lastmile_qr_scan"}, "is_disabled": 0, "fusion_lat": 0.0, "lat": 38.91635133333333, "is_reserved": 0}, {"lon": -77.01144066666667, "fusion_lon": 0.0, "bike_id": "55260e133f2f968870ef79c497b85031", "type": "electric_scooter", "name": "55260e133f2f968870ef79c497b85031", "rental_uris": {"android": "https://dc.lft.to/lastmile_qr_scan", "ios": "https://dc.lft.to/lastmile_qr_scan"}, "is_disabled": 0, "fusion_lat": 0.0, "lat": 38.90032633333333, "is_reserved": 0}, {"lon": -77.03887933333333, "fusion_lon": 0.0, "bike_id": "b79c3806ac5c9bfdbe01ed81de3f4fe2", "type": "electric_scooter", "name": "b79c3806ac5c9bfdbe01ed81de3f4fe2", "rental_uris": {"android": "https://dc.lft.to/lastmile_qr_scan", "ios": "https://dc.lft.to/lastmile_qr_scan"}, "is_disabled": 0, "fusion_lat": 0.0, "lat": 38.921418833333334, "is_reserved": 0}, {"lon": -77.07104466666667, "fusion_lon": 0.0, "bike_id": "819b96c99b668bf8b9b8225a90f32241", "type": "electric_scooter", "name": "819b96c99b668bf8b9b8225a90f32241", "rental_uris": {"android": "https://dc.lft.to/lastmile_qr_scan", "ios": "https://dc.lft.to/lastmile_qr_scan"}, "is_disabled": 0, "fusion_lat": 0.0, "lat": 38.89661433333333, "is_reserved": 0}, {"lon": -77.02459433333334, "fusion_lon": 0.0, "bike_id": "28740f7536d15bc838cf23f7511193ba", "type": "electric_scooter", "name": "28740f7536d15bc838cf23f7511193ba", "rental_uris": {"android": "https://dc.lft.to/lastmile_qr_scan", "ios": "https://dc.lft.to/lastmile_qr_scan"}, "is_disabled": 0, "fusion_lat": 0.0, "lat": 38.931023333333336, "is_reserved": 0}, {"lon": -76.98717566666667, "fusion_lon": 0.0, "bike_id": "e02e481818715d4ac1ed49f88d6dddce", "type": "electric_scooter", "name": "e02e481818715d4ac1ed49f88d6dddce", "rental_uris": {"android": "https://dc.lft.to/lastmile_qr_scan", "ios": "https://dc.lft.to/lastmile_qr_scan"}, "is_disabled": 0, "fusion_lat": 0.0, "lat": 38.86627416666666, "is_reserved": 0}, {"lon": -77.0217225, "fusion_lon": 0.0, "bike_id": "9d62dea1994821ca63b576f49f4ce642", "type": "electric_scooter", "name": "9d62dea1994821ca63b576f49f4ce642", "rental_uris": {"android": "https://dc.lft.to/lastmile_qr_scan", "ios": "https://dc.lft.to/lastmile_qr_scan"}, "is_disabled": 0, "fusion_lat": 0.0, "lat": 38.942914, "is_reserved": 0}, {"lon": -77.03810316666667, "fusion_lon": 0.0, "bike_id": "3786cca8029c10da4b986e5836a9dfa1", "type": "electric_scooter", "name": "3786cca8029c10da4b986e5836a9dfa1", "rental_uris": {"android": "https://dc.lft.to/lastmile_qr_scan", "ios": "https://dc.lft.to/lastmile_qr_scan"}, "is_disabled": 0, "fusion_lat": 0.0, "lat": 38.90673866666667, "is_reserved": 0}, {"lon": -77.005795, "fusion_lon": 0.0, "bike_id": "7fe47aeda9414ab44845011c1157acb9", "type": "electric_scooter", "name": "7fe47aeda9414ab44845011c1157acb9", "rental_uris": {"android": "https://dc.lft.to/lastmile_qr_scan", "ios": "https://dc.lft.to/lastmile_qr_scan"}, "is_disabled": 0, "fusion_lat": 0.0, "lat": 38.87580283333333, "is_reserved": 0}, {"lon": -77.04131383333333, "fusion_lon": 0.0, "bike_id": "b5cc7e0664507e2684104bf3f40b2a3d", "type": "electric_scooter", "name": "b5cc7e0664507e2684104bf3f40b2a3d", "rental_uris": {"android": "https://dc.lft.to/lastmile_qr_scan", "ios": "https://dc.lft.to/lastmile_qr_scan"}, "is_disabled": 0, "fusion_lat": 0.0, "lat": 38.92141733333333, "is_reserved": 0}, {"lon": -77.0257015, "fusion_lon": 0.0, "bike_id": "6120a9d1711e5de4510d7abf8dd9ea98", "type": "electric_scooter", "name": "6120a9d1711e5de4510d7abf8dd9ea98", "rental_uris": {"android": "https://dc.lft.to/lastmile_qr_scan", "ios": "https://dc.lft.to/lastmile_qr_scan"}, "is_disabled": 0, "fusion_lat": 0.0, "lat": 38.88743383333333, "is_reserved": 0}, {"lon": -76.93732783333333, "fusion_lon": 0.0, "bike_id": "5158a62e617a2174d32b363a1fd5dfa1", "type": "electric_scooter", "name": "5158a62e617a2174d32b363a1fd5dfa1", "rental_uris": {"android": "https://dc.lft.to/lastmile_qr_scan", "ios": "https://dc.lft.to/lastmile_qr_scan"}, "is_disabled": 0, "fusion_lat": 0.0, "lat": 38.89026283333333, "is_reserved": 0}, {"lon": -76.94646816666666, "fusion_lon": 0.0, "bike_id": "9cb0cd466452f8dad4eae8b4886fdec0", "type": "electric_scooter", "name": "9cb0cd466452f8dad4eae8b4886fdec0", "rental_uris": {"android": "https://dc.lft.to/lastmile_qr_scan", "ios": "https://dc.lft.to/lastmile_qr_scan"}, "is_disabled": 0, "fusion_lat": 0.0, "lat": 38.89868116666667, "is_reserved": 0}, {"lon": -77.03812166666667, "fusion_lon": 0.0, "bike_id": "5214d9aec131685eb6fbd30c3195f56c", "type": "electric_scooter", "name": "5214d9aec131685eb6fbd30c3195f56c", "rental_uris": {"android": "https://dc.lft.to/lastmile_qr_scan", "ios": "https://dc.lft.to/lastmile_qr_scan"}, "is_disabled": 0, "fusion_lat": 0.0, "lat": 38.9206645, "is_reserved": 0}, {"lon": -76.99709283333334, "fusion_lon": 0.0, "bike_id": "ef53f3a54e569d29abfe17bf7891b1e0", "type": "electric_scooter", "name": "ef53f3a54e569d29abfe17bf7891b1e0", "rental_uris": {"android": "https://dc.lft.to/lastmile_qr_scan", "ios": "https://dc.lft.to/lastmile_qr_scan"}, "is_disabled": 0, "fusion_lat": 0.0, "lat": 38.91078433333333, "is_reserved": 0}, {"lon": -77.0382935, "fusion_lon": 0.0, "bike_id": "d769fedeb8a06393f79a050c8f6b25c3", "type": "electric_scooter", "name": "d769fedeb8a06393f79a050c8f6b25c3", "rental_uris": {"android": "https://dc.lft.to/lastmile_qr_scan", "ios": "https://dc.lft.to/lastmile_qr_scan"}, "is_disabled": 0, "fusion_lat": 0.0, "lat": 38.908509333333335, "is_reserved": 0}, {"lon": -77.0373155, "fusion_lon": 0.0, "bike_id": "6e43bdbc588ffbe33a8393fd08ad8ac3", "type": "electric_scooter", "name": "6e43bdbc588ffbe33a8393fd08ad8ac3", "rental_uris": {"android": "https://dc.lft.to/lastmile_qr_scan", "ios": "https://dc.lft.to/lastmile_qr_scan"}, "is_disabled": 0, "fusion_lat": 0.0, "lat": 38.926588, "is_reserved": 0}, {"lon": -77.03088433333333, "fusion_lon": 0.0, "bike_id": "ea4791bc700ef445adde09c8035011a8", "type": "electric_scooter", "name": "ea4791bc700ef445adde09c8035011a8", "rental_uris": {"android": "https://dc.lft.to/lastmile_qr_scan", "ios": "https://dc.lft.to/lastmile_qr_scan"}, "is_disabled": 0, "fusion_lat": 0.0, "lat": 38.922487, "is_reserved": 0}, {"lon": -77.0487365, "fusion_lon": 0.0, "bike_id": "bfcc152caf246b6dbfd90b36d5fbd01a", "type": "electric_scooter", "name": "bfcc152caf246b6dbfd90b36d5fbd01a", "rental_uris": {"android": "https://dc.lft.to/lastmile_qr_scan", "ios": "https://dc.lft.to/lastmile_qr_scan"}, "is_disabled": 0, "fusion_lat": 0.0, "lat": 38.91230916666667, "is_reserved": 0}, {"lon": -77.05859883333333, "fusion_lon": 0.0, "bike_id": "0b9c1290084ebf5a64a7573b3708e47c", "type": "electric_scooter", "name": "0b9c1290084ebf5a64a7573b3708e47c", "rental_uris": {"android": "https://dc.lft.to/lastmile_qr_scan", "ios": "https://dc.lft.to/lastmile_qr_scan"}, "is_disabled": 0, "fusion_lat": 0.0, "lat": 38.93610983333333, "is_reserved": 0}, {"lon": -77.02153233333334, "fusion_lon": 0.0, "bike_id": "e698982fa799b844f5b1c3be7cc672aa", "type": "electric_scooter", "name": "e698982fa799b844f5b1c3be7cc672aa", "rental_uris": {"android": "https://dc.lft.to/lastmile_qr_scan", "ios": "https://dc.lft.to/lastmile_qr_scan"}, "is_disabled": 0, "fusion_lat": 0.0, "lat": 38.924544833333336, "is_reserved": 0}, {"lon": -77.078596, "fusion_lon": 0.0, "bike_id": "5932fbd6e41adf5907e0aa55d7ecb53d", "type": "electric_bike", "name": "5932fbd6e41adf5907e0aa55d7ecb53d", "rental_uris": {"android": "https://dc.lft.to/lastmile_qr_scan", "ios": "https://dc.lft.to/lastmile_qr_scan"}, "is_disabled": 0, "fusion_lat": 0.0, "lat": 38.893926666666665, "is_reserved": 0}, {"lon": -77.03350083333333, "fusion_lon": 0.0, "bike_id": "f052835bd1cb1b97dd2136da8db53be1", "type": "electric_scooter", "name": "f052835bd1cb1b97dd2136da8db53be1", "rental_uris": {"android": "https://dc.lft.to/lastmile_qr_scan", "ios": "https://dc.lft.to/lastmile_qr_scan"}, "is_disabled": 0, "fusion_lat": 0.0, "lat": 38.902615833333336, "is_reserved": 0}, {"lon": -77.03644583333333, "fusion_lon": 0.0, "bike_id": "78d32ab5824e5e439922d0daa1e79800", "type": "electric_scooter", "name": "78d32ab5824e5e439922d0daa1e79800", "rental_uris": {"android": "https://dc.lft.to/lastmile_qr_scan", "ios": "https://dc.lft.to/lastmile_qr_scan"}, "is_disabled": 0, "fusion_lat": 0.0, "lat": 38.91825266666667, "is_reserved": 0}, {"lon": -76.99733883333333, "fusion_lon": 0.0, "bike_id": "400aeb2a97cde53b81a152c1819988ff", "type": "electric_scooter", "name": "400aeb2a97cde53b81a152c1819988ff", "rental_uris": {"android": "https://dc.lft.to/lastmile_qr_scan", "ios": "https://dc.lft.to/lastmile_qr_scan"}, "is_disabled": 0, "fusion_lat": 0.0, "lat": 38.90060866666666, "is_reserved": 0}, {"lon": -77.02561716666666, "fusion_lon": 0.0, "bike_id": "2dd1535d296dec12f6119853ad4973af", "type": "electric_scooter", "name": "2dd1535d296dec12f6119853ad4973af", "rental_uris": {"android": "https://dc.lft.to/lastmile_qr_scan", "ios": "https://dc.lft.to/lastmile_qr_scan"}, "is_disabled": 0, "fusion_lat": 0.0, "lat": 38.90957916666667, "is_reserved": 0}, {"lon": -76.99811133333333, "fusion_lon": 0.0, "bike_id": "5dbb151a8dee34614775aa2faa84a3a4", "type": "electric_bike", "name": "5dbb151a8dee34614775aa2faa84a3a4", "rental_uris": {"android": "https://dc.lft.to/lastmile_qr_scan", "ios": "https://dc.lft.to/lastmile_qr_scan"}, "is_disabled": 0, "fusion_lat": 0.0, "lat": 38.837792, "is_reserved": 0}, {"lon": -76.97860416666667, "fusion_lon": 0.0, "bike_id": "585d4c60af750c45ed5d6986895e25d2", "type": "electric_bike", "name": "585d4c60af750c45ed5d6986895e25d2", "rental_uris": {"android": "https://dc.lft.to/lastmile_qr_scan", "ios": "https://dc.lft.to/lastmile_qr_scan"}, "is_disabled": 0, "fusion_lat": 0.0, "lat": 38.844726, "is_reserved": 0}, {"lon": -77.005774, "fusion_lon": 0.0, "bike_id": "36a385774fbc7f8391b4939df95a66eb", "type": "electric_scooter", "name": "36a385774fbc7f8391b4939df95a66eb", "rental_uris": {"android": "https://dc.lft.to/lastmile_qr_scan", "ios": "https://dc.lft.to/lastmile_qr_scan"}, "is_disabled": 0, "fusion_lat": 0.0, "lat": 38.8767385, "is_reserved": 0}, {"lon": -77.00346983333333, "fusion_lon": 0.0, "bike_id": "006e5f11ea120d284bcd16cde80bccb8", "type": "electric_scooter", "name": "006e5f11ea120d284bcd16cde80bccb8", "rental_uris": {"android": "https://dc.lft.to/lastmile_qr_scan", "ios": "https://dc.lft.to/lastmile_qr_scan"}, "is_disabled": 0, "fusion_lat": 0.0, "lat": 38.894681166666665, "is_reserved": 0}, {"lon": -76.96710083333333, "fusion_lon": 0.0, "bike_id": "1898e49e412156d49962b03a73fe69a5", "type": "electric_scooter", "name": "1898e49e412156d49962b03a73fe69a5", "rental_uris": {"android": "https://dc.lft.to/lastmile_qr_scan", "ios": "https://dc.lft.to/lastmile_qr_scan"}, "is_disabled": 0, "fusion_lat": 0.0, "lat": 38.86037116666667, "is_reserved": 0}, {"lon": -76.9952475, "fusion_lon": 0.0, "bike_id": "664e2f58d43b6c842676103fc0ce9c62", "type": "electric_scooter", "name": "664e2f58d43b6c842676103fc0ce9c62", "rental_uris": {"android": "https://dc.lft.to/lastmile_qr_scan", "ios": "https://dc.lft.to/lastmile_qr_scan"}, "is_disabled": 0, "fusion_lat": 0.0, "lat": 38.879259166666664, "is_reserved": 0}, {"lon": -77.05663533333333, "fusion_lon": 0.0, "bike_id": "c4a9ed3bf037e8512c038b1857cb96c5", "type": "electric_scooter", "name": "c4a9ed3bf037e8512c038b1857cb96c5", "rental_uris": {"android": "https://dc.lft.to/lastmile_qr_scan", "ios": "https://dc.lft.to/lastmile_qr_scan"}, "is_disabled": 0, "fusion_lat": 0.0, "lat": 38.90614166666667, "is_reserved": 0}, {"lon": -77.03182183333334, "fusion_lon": 0.0, "bike_id": "1253d26b38f75bc4ad8e14b7ece3f067", "type": "electric_scooter", "name": "1253d26b38f75bc4ad8e14b7ece3f067", "rental_uris": {"android": "https://dc.lft.to/lastmile_qr_scan", "ios": "https://dc.lft.to/lastmile_qr_scan"}, "is_disabled": 0, "fusion_lat": 0.0, "lat": 38.91926216666667, "is_reserved": 0}, {"lon": -77.057293, "fusion_lon": 0.0, "bike_id": "68cec2e5aa640ed95d2561e4d195a69a", "type": "electric_scooter", "name": "68cec2e5aa640ed95d2561e4d195a69a", "rental_uris": {"android": "https://dc.lft.to/lastmile_qr_scan", "ios": "https://dc.lft.to/lastmile_qr_scan"}, "is_disabled": 0, "fusion_lat": 0.0, "lat": 38.933618, "is_reserved": 0}, {"lon": -77.0229125, "fusion_lon": 0.0, "bike_id": "fae6924c0b9cfc8c768571edf59825bb", "type": "electric_scooter", "name": "fae6924c0b9cfc8c768571edf59825bb", "rental_uris": {"android": "https://dc.lft.to/lastmile_qr_scan", "ios": "https://dc.lft.to/lastmile_qr_scan"}, "is_disabled": 0, "fusion_lat": 0.0, "lat": 38.897076166666665, "is_reserved": 0}, {"lon": -77.02304533333333, "fusion_lon": 0.0, "bike_id": "b67e999cd5a9bf976a0f78fa7c23e1b2", "type": "electric_scooter", "name": "b67e999cd5a9bf976a0f78fa7c23e1b2", "rental_uris": {"android": "https://dc.lft.to/lastmile_qr_scan", "ios": "https://dc.lft.to/lastmile_qr_scan"}, "is_disabled": 0, "fusion_lat": 0.0, "lat": 38.91710916666667, "is_reserved": 0}, {"lon": -77.03638866666667, "fusion_lon": 0.0, "bike_id": "9b198c77da01bd7c41b6a5b785376c76", "type": "electric_scooter", "name": "9b198c77da01bd7c41b6a5b785376c76", "rental_uris": {"android": "https://dc.lft.to/lastmile_qr_scan", "ios": "https://dc.lft.to/lastmile_qr_scan"}, "is_disabled": 0, "fusion_lat": 0.0, "lat": 38.92408433333333, "is_reserved": 0}, {"lon": -77.0272235, "fusion_lon": 0.0, "bike_id": "19f8282dfdc78507d4e64c746a7da974", "type": "electric_scooter", "name": "19f8282dfdc78507d4e64c746a7da974", "rental_uris": {"android": "https://dc.lft.to/lastmile_qr_scan", "ios": "https://dc.lft.to/lastmile_qr_scan"}, "is_disabled": 0, "fusion_lat": 0.0, "lat": 38.91813833333333, "is_reserved": 0}, {"lon": -77.00381666666667, "fusion_lon": 0.0, "bike_id": "86cbadb64f7d8006eff0ff0b8164e348", "type": "electric_scooter", "name": "86cbadb64f7d8006eff0ff0b8164e348", "rental_uris": {"android": "https://dc.lft.to/lastmile_qr_scan", "ios": "https://dc.lft.to/lastmile_qr_scan"}, "is_disabled": 0, "fusion_lat": 0.0, "lat": 38.876422, "is_reserved": 0}, {"lon": -77.0328615, "fusion_lon": 0.0, "bike_id": "6cc1e6b97a9594c0601f4195d8d00036", "type": "electric_scooter", "name": "6cc1e6b97a9594c0601f4195d8d00036", "rental_uris": {"android": "https://dc.lft.to/lastmile_qr_scan", "ios": "https://dc.lft.to/lastmile_qr_scan"}, "is_disabled": 0, "fusion_lat": 0.0, "lat": 38.898719, "is_reserved": 0}, {"lon": -77.02559433333333, "fusion_lon": 0.0, "bike_id": "f800f81352939ba95e83a82cdd1c8aaf", "type": "electric_scooter", "name": "f800f81352939ba95e83a82cdd1c8aaf", "rental_uris": {"android": "https://dc.lft.to/lastmile_qr_scan", "ios": "https://dc.lft.to/lastmile_qr_scan"}, "is_disabled": 0, "fusion_lat": 0.0, "lat": 38.919157166666665, "is_reserved": 0}, {"lon": -77.00210216666666, "fusion_lon": 0.0, "bike_id": "58db65eb5d0bb5f16970da7ee1dc7d85", "type": "electric_scooter", "name": "58db65eb5d0bb5f16970da7ee1dc7d85", "rental_uris": {"android": "https://dc.lft.to/lastmile_qr_scan", "ios": "https://dc.lft.to/lastmile_qr_scan"}, "is_disabled": 0, "fusion_lat": 0.0, "lat": 38.911006666666665, "is_reserved": 0}, {"lon": -76.99743533333333, "fusion_lon": 0.0, "bike_id": "124c29db5f8b521904988829f5dd850a", "type": "electric_scooter", "name": "124c29db5f8b521904988829f5dd850a", "rental_uris": {"android": "https://dc.lft.to/lastmile_qr_scan", "ios": "https://dc.lft.to/lastmile_qr_scan"}, "is_disabled": 0, "fusion_lat": 0.0, "lat": 38.9002745, "is_reserved": 0}, {"lon": -77.01075616666667, "fusion_lon": 0.0, "bike_id": "5775a01a2a0a0f391215f26946b83238", "type": "electric_scooter", "name": "5775a01a2a0a0f391215f26946b83238", "rental_uris": {"android": "https://dc.lft.to/lastmile_qr_scan", "ios": "https://dc.lft.to/lastmile_qr_scan"}, "is_disabled": 0, "fusion_lat": 0.0, "lat": 38.91631916666667, "is_reserved": 0}, {"lon": -77.015602, "fusion_lon": 0.0, "bike_id": "38563a35cb23034bf57d8cf74d6d1b83", "type": "electric_scooter", "name": "38563a35cb23034bf57d8cf74d6d1b83", "rental_uris": {"android": "https://dc.lft.to/lastmile_qr_scan", "ios": "https://dc.lft.to/lastmile_qr_scan"}, "is_disabled": 0, "fusion_lat": 0.0, "lat": 38.914083, "is_reserved": 0}, {"lon": -77.00172766666667, "fusion_lon": 0.0, "bike_id": "fbefeafba6753c585475389ffe9fc3d9", "type": "electric_bike", "name": "fbefeafba6753c585475389ffe9fc3d9", "rental_uris": {"android": "https://dc.lft.to/lastmile_qr_scan", "ios": "https://dc.lft.to/lastmile_qr_scan"}, "is_disabled": 0, "fusion_lat": 0.0, "lat": 38.844498333333334, "is_reserved": 0}, {"lon": -77.01550116666667, "fusion_lon": 0.0, "bike_id": "f5eab4fe22fc6f6b80b8f40b6759f021", "type": "electric_scooter", "name": "f5eab4fe22fc6f6b80b8f40b6759f021", "rental_uris": {"android": "https://dc.lft.to/lastmile_qr_scan", "ios": "https://dc.lft.to/lastmile_qr_scan"}, "is_disabled": 0, "fusion_lat": 0.0, "lat": 38.885711666666666, "is_reserved": 0}, {"lon": -77.043014, "fusion_lon": 0.0, "bike_id": "4e42981a89699b3304784780c9f1509b", "type": "electric_scooter", "name": "4e42981a89699b3304784780c9f1509b", "rental_uris": {"android": "https://dc.lft.to/lastmile_qr_scan", "ios": "https://dc.lft.to/lastmile_qr_scan"}, "is_disabled": 0, "fusion_lat": 0.0, "lat": 38.93182916666667, "is_reserved": 0}, {"lon": -77.0454475, "fusion_lon": 0.0, "bike_id": "10f1b3cbe83fa765f8dbcc61d094a870", "type": "electric_scooter", "name": "10f1b3cbe83fa765f8dbcc61d094a870", "rental_uris": {"android": "https://dc.lft.to/lastmile_qr_scan", "ios": "https://dc.lft.to/lastmile_qr_scan"}, "is_disabled": 0, "fusion_lat": 0.0, "lat": 38.897206, "is_reserved": 0}, {"lon": -77.02795883333333, "fusion_lon": 0.0, "bike_id": "aaa8ef0cd0450d9464483239de09b1f6", "type": "electric_scooter", "name": "aaa8ef0cd0450d9464483239de09b1f6", "rental_uris": {"android": "https://dc.lft.to/lastmile_qr_scan", "ios": "https://dc.lft.to/lastmile_qr_scan"}, "is_disabled": 0, "fusion_lat": 0.0, "lat": 38.960386, "is_reserved": 0}, {"lon": -77.07287233333334, "fusion_lon": 0.0, "bike_id": "43703e3f00ea097ecbd8ecd449d18edc", "type": "electric_scooter", "name": "43703e3f00ea097ecbd8ecd449d18edc", "rental_uris": {"android": "https://dc.lft.to/lastmile_qr_scan", "ios": "https://dc.lft.to/lastmile_qr_scan"}, "is_disabled": 0, "fusion_lat": 0.0, "lat": 38.93473483333333, "is_reserved": 0}, {"lon": -76.95098083333333, "fusion_lon": 0.0, "bike_id": "dcab81ec816fce972ce83fba7e86588f", "type": "electric_scooter", "name": "dcab81ec816fce972ce83fba7e86588f", "rental_uris": {"android": "https://dc.lft.to/lastmile_qr_scan", "ios": "https://dc.lft.to/lastmile_qr_scan"}, "is_disabled": 0, "fusion_lat": 0.0, "lat": 38.88451633333333, "is_reserved": 0}, {"lon": -77.0449385, "fusion_lon": 0.0, "bike_id": "4cb16417dc249fab4ad4cb9debb94648", "type": "electric_scooter", "name": "4cb16417dc249fab4ad4cb9debb94648", "rental_uris": {"android": "https://dc.lft.to/lastmile_qr_scan", "ios": "https://dc.lft.to/lastmile_qr_scan"}, "is_disabled": 0, "fusion_lat": 0.0, "lat": 38.89955533333333, "is_reserved": 0}, {"lon": -76.93381116666667, "fusion_lon": 0.0, "bike_id": "c9a14704896d79b0e8548a3116b61d11", "type": "electric_scooter", "name": "c9a14704896d79b0e8548a3116b61d11", "rental_uris": {"android": "https://dc.lft.to/lastmile_qr_scan", "ios": "https://dc.lft.to/lastmile_qr_scan"}, "is_disabled": 0, "fusion_lat": 0.0, "lat": 38.89914533333334, "is_reserved": 0}, {"lon": -76.99581033333334, "fusion_lon": 0.0, "bike_id": "62a1ec022226941ea054da643065bb76", "type": "electric_scooter", "name": "62a1ec022226941ea054da643065bb76", "rental_uris": {"android": "https://dc.lft.to/lastmile_qr_scan", "ios": "https://dc.lft.to/lastmile_qr_scan"}, "is_disabled": 0, "fusion_lat": 0.0, "lat": 38.851771, "is_reserved": 0}, {"lon": -77.017789, "fusion_lon": 0.0, "bike_id": "67d12cf682d5cb2d4ea4d4dff9cf6fef", "type": "electric_scooter", "name": "67d12cf682d5cb2d4ea4d4dff9cf6fef", "rental_uris": {"android": "https://dc.lft.to/lastmile_qr_scan", "ios": "https://dc.lft.to/lastmile_qr_scan"}, "is_disabled": 0, "fusion_lat": 0.0, "lat": 38.87734733333333, "is_reserved": 0}, {"lon": -77.02738683333334, "fusion_lon": 0.0, "bike_id": "3f2f40ed9350e0766a870ca474b308d8", "type": "electric_scooter", "name": "3f2f40ed9350e0766a870ca474b308d8", "rental_uris": {"android": "https://dc.lft.to/lastmile_qr_scan", "ios": "https://dc.lft.to/lastmile_qr_scan"}, "is_disabled": 0, "fusion_lat": 0.0, "lat": 38.95234766666667, "is_reserved": 0}, {"lon": -77.02285083333334, "fusion_lon": 0.0, "bike_id": "c72e1b006a4596b51749598f91525b9f", "type": "electric_scooter", "name": "c72e1b006a4596b51749598f91525b9f", "rental_uris": {"android": "https://dc.lft.to/lastmile_qr_scan", "ios": "https://dc.lft.to/lastmile_qr_scan"}, "is_disabled": 0, "fusion_lat": 0.0, "lat": 38.89527983333333, "is_reserved": 0}, {"lon": -76.99779416666667, "fusion_lon": 0.0, "bike_id": "621d4401aa0941da1c0f838460031fbd", "type": "electric_scooter", "name": "621d4401aa0941da1c0f838460031fbd", "rental_uris": {"android": "https://dc.lft.to/lastmile_qr_scan", "ios": "https://dc.lft.to/lastmile_qr_scan"}, "is_disabled": 0, "fusion_lat": 0.0, "lat": 38.84435083333334, "is_reserved": 0}, {"lon": -76.96535283333333, "fusion_lon": 0.0, "bike_id": "ce817a62c6b4c1d0f4200017e53dc286", "type": "electric_bike", "name": "ce817a62c6b4c1d0f4200017e53dc286", "rental_uris": {"android": "https://dc.lft.to/lastmile_qr_scan", "ios": "https://dc.lft.to/lastmile_qr_scan"}, "is_disabled": 0, "fusion_lat": 0.0, "lat": 38.87480516666667, "is_reserved": 0}, {"lon": -77.00334666666667, "fusion_lon": 0.0, "bike_id": "8b100066aac9d65bd67b6fdf11b4890a", "type": "electric_scooter", "name": "8b100066aac9d65bd67b6fdf11b4890a", "rental_uris": {"android": "https://dc.lft.to/lastmile_qr_scan", "ios": "https://dc.lft.to/lastmile_qr_scan"}, "is_disabled": 0, "fusion_lat": 0.0, "lat": 38.898887333333334, "is_reserved": 0}, {"lon": -77.041825, "fusion_lon": 0.0, "bike_id": "5069f92dc18b6126bf6369a4b0ba8109", "type": "electric_scooter", "name": "5069f92dc18b6126bf6369a4b0ba8109", "rental_uris": {"android": "https://dc.lft.to/lastmile_qr_scan", "ios": "https://dc.lft.to/lastmile_qr_scan"}, "is_disabled": 0, "fusion_lat": 0.0, "lat": 38.920383, "is_reserved": 0}, {"lon": -77.00980666666666, "fusion_lon": 0.0, "bike_id": "c972fdf30e79a96a8625e1ac832e4314", "type": "electric_scooter", "name": "c972fdf30e79a96a8625e1ac832e4314", "rental_uris": {"android": "https://dc.lft.to/lastmile_qr_scan", "ios": "https://dc.lft.to/lastmile_qr_scan"}, "is_disabled": 0, "fusion_lat": 0.0, "lat": 38.91926866666667, "is_reserved": 0}, {"lon": -77.02931783333334, "fusion_lon": 0.0, "bike_id": "79364d74e338f87c7e5da867fcfbcd1c", "type": "electric_scooter", "name": "79364d74e338f87c7e5da867fcfbcd1c", "rental_uris": {"android": "https://dc.lft.to/lastmile_qr_scan", "ios": "https://dc.lft.to/lastmile_qr_scan"}, "is_disabled": 0, "fusion_lat": 0.0, "lat": 38.90274733333333, "is_reserved": 0}, {"lon": -76.988945, "fusion_lon": 0.0, "bike_id": "3cdcdede9cd304f08b3765b3facf982c", "type": "electric_scooter", "name": "3cdcdede9cd304f08b3765b3facf982c", "rental_uris": {"android": "https://dc.lft.to/lastmile_qr_scan", "ios": "https://dc.lft.to/lastmile_qr_scan"}, "is_disabled": 0, "fusion_lat": 0.0, "lat": 38.86665083333333, "is_reserved": 0}, {"lon": -77.06310316666666, "fusion_lon": 0.0, "bike_id": "8e81da1afc69e5ceb6a45968ad94cb8a", "type": "electric_bike", "name": "8e81da1afc69e5ceb6a45968ad94cb8a", "rental_uris": {"android": "https://dc.lft.to/lastmile_qr_scan", "ios": "https://dc.lft.to/lastmile_qr_scan"}, "is_disabled": 0, "fusion_lat": 0.0, "lat": 38.79858333333333, "is_reserved": 0}, {"lon": -77.07832916666666, "fusion_lon": 0.0, "bike_id": "1cf49564b9988f6c53a41b1d2b9ef35c", "type": "electric_scooter", "name": "1cf49564b9988f6c53a41b1d2b9ef35c", "rental_uris": {"android": "https://dc.lft.to/lastmile_qr_scan", "ios": "https://dc.lft.to/lastmile_qr_scan"}, "is_disabled": 0, "fusion_lat": 0.0, "lat": 38.931464166666665, "is_reserved": 0}, {"lon": -77.04992866666667, "fusion_lon": 0.0, "bike_id": "bce2e975f5584484a2e9f0ef54f23c93", "type": "electric_scooter", "name": "bce2e975f5584484a2e9f0ef54f23c93", "rental_uris": {"android": "https://dc.lft.to/lastmile_qr_scan", "ios": "https://dc.lft.to/lastmile_qr_scan"}, "is_disabled": 0, "fusion_lat": 0.0, "lat": 38.9010995, "is_reserved": 0}, {"lon": -76.98466083333334, "fusion_lon": 0.0, "bike_id": "a27286e6c95d7e3260c7b1be4161e486", "type": "electric_scooter", "name": "a27286e6c95d7e3260c7b1be4161e486", "rental_uris": {"android": "https://dc.lft.to/lastmile_qr_scan", "ios": "https://dc.lft.to/lastmile_qr_scan"}, "is_disabled": 0, "fusion_lat": 0.0, "lat": 38.90397166666666, "is_reserved": 0}, {"lon": -77.04391716666666, "fusion_lon": 0.0, "bike_id": "bb7b390d2fd449b9225593f69cbb2b7e", "type": "electric_scooter", "name": "bb7b390d2fd449b9225593f69cbb2b7e", "rental_uris": {"android": "https://dc.lft.to/lastmile_qr_scan", "ios": "https://dc.lft.to/lastmile_qr_scan"}, "is_disabled": 0, "fusion_lat": 0.0, "lat": 38.919126, "is_reserved": 0}, {"lon": -77.01168716666666, "fusion_lon": 0.0, "bike_id": "d1ecf451fbf30f19c8c889bb77ef608b", "type": "electric_scooter", "name": "d1ecf451fbf30f19c8c889bb77ef608b", "rental_uris": {"android": "https://dc.lft.to/lastmile_qr_scan", "ios": "https://dc.lft.to/lastmile_qr_scan"}, "is_disabled": 0, "fusion_lat": 0.0, "lat": 38.91262366666667, "is_reserved": 0}, {"lon": -77.0229965, "fusion_lon": 0.0, "bike_id": "70d2220f9fa2785ab18de0bf731d63d2", "type": "electric_scooter", "name": "70d2220f9fa2785ab18de0bf731d63d2", "rental_uris": {"android": "https://dc.lft.to/lastmile_qr_scan", "ios": "https://dc.lft.to/lastmile_qr_scan"}, "is_disabled": 0, "fusion_lat": 0.0, "lat": 38.9160225, "is_reserved": 0}, {"lon": -77.03645766666666, "fusion_lon": 0.0, "bike_id": "73ba591b732e05159ef2e920acb9b5c2", "type": "electric_scooter", "name": "73ba591b732e05159ef2e920acb9b5c2", "rental_uris": {"android": "https://dc.lft.to/lastmile_qr_scan", "ios": "https://dc.lft.to/lastmile_qr_scan"}, "is_disabled": 0, "fusion_lat": 0.0, "lat": 38.918276666666664, "is_reserved": 0}, {"lon": -77.01366533333334, "fusion_lon": 0.0, "bike_id": "03fdf69678f5139b116a690dc3c32f58", "type": "electric_scooter", "name": "03fdf69678f5139b116a690dc3c32f58", "rental_uris": {"android": "https://dc.lft.to/lastmile_qr_scan", "ios": "https://dc.lft.to/lastmile_qr_scan"}, "is_disabled": 0, "fusion_lat": 0.0, "lat": 38.919128, "is_reserved": 0}, {"lon": -76.99741283333333, "fusion_lon": 0.0, "bike_id": "8ccacac39f2e9ff663976924b86b45d4", "type": "electric_bike", "name": "8ccacac39f2e9ff663976924b86b45d4", "rental_uris": {"android": "https://dc.lft.to/lastmile_qr_scan", "ios": "https://dc.lft.to/lastmile_qr_scan"}, "is_disabled": 0, "fusion_lat": 0.0, "lat": 39.042374833333334, "is_reserved": 0}, {"lon": -77.02799183333333, "fusion_lon": 0.0, "bike_id": "c2ca8c791754b53cfd88b89d8299e4c2", "type": "electric_scooter", "name": "c2ca8c791754b53cfd88b89d8299e4c2", "rental_uris": {"android": "https://dc.lft.to/lastmile_qr_scan", "ios": "https://dc.lft.to/lastmile_qr_scan"}, "is_disabled": 0, "fusion_lat": 0.0, "lat": 38.904674666666665, "is_reserved": 0}, {"lon": -77.013541, "fusion_lon": 0.0, "bike_id": "c3bf6151645e633801a859c75d282e2d", "type": "electric_scooter", "name": "c3bf6151645e633801a859c75d282e2d", "rental_uris": {"android": "https://dc.lft.to/lastmile_qr_scan", "ios": "https://dc.lft.to/lastmile_qr_scan"}, "is_disabled": 0, "fusion_lat": 0.0, "lat": 38.87161316666667, "is_reserved": 0}, {"lon": -76.9963125, "fusion_lon": 0.0, "bike_id": "9e2667b1563a04fb374b0da870e6291c", "type": "electric_scooter", "name": "9e2667b1563a04fb374b0da870e6291c", "rental_uris": {"android": "https://dc.lft.to/lastmile_qr_scan", "ios": "https://dc.lft.to/lastmile_qr_scan"}, "is_disabled": 0, "fusion_lat": 0.0, "lat": 38.900653166666665, "is_reserved": 0}, {"lon": -77.03999633333333, "fusion_lon": 0.0, "bike_id": "c860d9f1af74b5018c8a062403a01450", "type": "electric_scooter", "name": "c860d9f1af74b5018c8a062403a01450", "rental_uris": {"android": "https://dc.lft.to/lastmile_qr_scan", "ios": "https://dc.lft.to/lastmile_qr_scan"}, "is_disabled": 0, "fusion_lat": 0.0, "lat": 38.9244955, "is_reserved": 0}, {"lon": -76.97346416666667, "fusion_lon": 0.0, "bike_id": "a88a149981ffb2c6d4ff5d178b910b02", "type": "electric_scooter", "name": "a88a149981ffb2c6d4ff5d178b910b02", "rental_uris": {"android": "https://dc.lft.to/lastmile_qr_scan", "ios": "https://dc.lft.to/lastmile_qr_scan"}, "is_disabled": 0, "fusion_lat": 0.0, "lat": 38.865142166666665, "is_reserved": 0}, {"lon": -77.0321255, "fusion_lon": 0.0, "bike_id": "d6cedf515eb8d27e1eb8fe8c53583776", "type": "electric_scooter", "name": "d6cedf515eb8d27e1eb8fe8c53583776", "rental_uris": {"android": "https://dc.lft.to/lastmile_qr_scan", "ios": "https://dc.lft.to/lastmile_qr_scan"}, "is_disabled": 0, "fusion_lat": 0.0, "lat": 38.91424166666667, "is_reserved": 0}, {"lon": -76.94653916666667, "fusion_lon": 0.0, "bike_id": "dc9afbfd551ad9fed9631402050cf276", "type": "electric_scooter", "name": "dc9afbfd551ad9fed9631402050cf276", "rental_uris": {"android": "https://dc.lft.to/lastmile_qr_scan", "ios": "https://dc.lft.to/lastmile_qr_scan"}, "is_disabled": 0, "fusion_lat": 0.0, "lat": 38.898272166666665, "is_reserved": 0}, {"lon": -77.04707283333333, "fusion_lon": 0.0, "bike_id": "b1ab60bb00cc650c5ef2c7d8b0fce4ae", "type": "electric_scooter", "name": "b1ab60bb00cc650c5ef2c7d8b0fce4ae", "rental_uris": {"android": "https://dc.lft.to/lastmile_qr_scan", "ios": "https://dc.lft.to/lastmile_qr_scan"}, "is_disabled": 0, "fusion_lat": 0.0, "lat": 38.90235116666667, "is_reserved": 0}, {"lon": -77.02385316666667, "fusion_lon": 0.0, "bike_id": "a2d6dcaedade5b6072b1edbc41dd448d", "type": "electric_scooter", "name": "a2d6dcaedade5b6072b1edbc41dd448d", "rental_uris": {"android": "https://dc.lft.to/lastmile_qr_scan", "ios": "https://dc.lft.to/lastmile_qr_scan"}, "is_disabled": 0, "fusion_lat": 0.0, "lat": 38.91289533333333, "is_reserved": 0}, {"lon": -76.99412933333333, "fusion_lon": 0.0, "bike_id": "77b347470eed9bfaa103395086dab1dd", "type": "electric_scooter", "name": "77b347470eed9bfaa103395086dab1dd", "rental_uris": {"android": "https://dc.lft.to/lastmile_qr_scan", "ios": "https://dc.lft.to/lastmile_qr_scan"}, "is_disabled": 0, "fusion_lat": 0.0, "lat": 38.877837166666666, "is_reserved": 0}, {"lon": -77.01228883333333, "fusion_lon": 0.0, "bike_id": "9fdcbf49f86ddeeb16b588b549bda320", "type": "electric_scooter", "name": "9fdcbf49f86ddeeb16b588b549bda320", "rental_uris": {"android": "https://dc.lft.to/lastmile_qr_scan", "ios": "https://dc.lft.to/lastmile_qr_scan"}, "is_disabled": 0, "fusion_lat": 0.0, "lat": 38.9025625, "is_reserved": 0}, {"lon": -77.00428233333334, "fusion_lon": 0.0, "bike_id": "8314121d8dfcd7e237f67d3cc1b108cd", "type": "electric_scooter", "name": "8314121d8dfcd7e237f67d3cc1b108cd", "rental_uris": {"android": "https://dc.lft.to/lastmile_qr_scan", "ios": "https://dc.lft.to/lastmile_qr_scan"}, "is_disabled": 0, "fusion_lat": 0.0, "lat": 38.87635483333333, "is_reserved": 0}, {"lon": -76.97394616666666, "fusion_lon": 0.0, "bike_id": "34b942fcaa9d7461399d318f4d7fbac6", "type": "electric_bike", "name": "34b942fcaa9d7461399d318f4d7fbac6", "rental_uris": {"android": "https://dc.lft.to/lastmile_qr_scan", "ios": "https://dc.lft.to/lastmile_qr_scan"}, "is_disabled": 0, "fusion_lat": 0.0, "lat": 38.845230666666666, "is_reserved": 0}, {"lon": -77.04794283333334, "fusion_lon": 0.0, "bike_id": "24d8415590110827fae17a1364a4de3c", "type": "electric_scooter", "name": "24d8415590110827fae17a1364a4de3c", "rental_uris": {"android": "https://dc.lft.to/lastmile_qr_scan", "ios": "https://dc.lft.to/lastmile_qr_scan"}, "is_disabled": 0, "fusion_lat": 0.0, "lat": 38.91944633333333, "is_reserved": 0}, {"lon": -77.0467615, "fusion_lon": 0.0, "bike_id": "8689801e34cd4dfdab1ffcf421d85257", "type": "electric_scooter", "name": "8689801e34cd4dfdab1ffcf421d85257", "rental_uris": {"android": "https://dc.lft.to/lastmile_qr_scan", "ios": "https://dc.lft.to/lastmile_qr_scan"}, "is_disabled": 0, "fusion_lat": 0.0, "lat": 38.89453533333333, "is_reserved": 0}, {"lon": -77.03667883333334, "fusion_lon": 0.0, "bike_id": "45560425477cf80a94f0fbbbce41ca16", "type": "electric_scooter", "name": "45560425477cf80a94f0fbbbce41ca16", "rental_uris": {"android": "https://dc.lft.to/lastmile_qr_scan", "ios": "https://dc.lft.to/lastmile_qr_scan"}, "is_disabled": 0, "fusion_lat": 0.0, "lat": 38.9267545, "is_reserved": 0}, {"lon": -77.01087366666667, "fusion_lon": 0.0, "bike_id": "e015c3d2a69c2d4cd4f02fddf2a40f92", "type": "electric_scooter", "name": "e015c3d2a69c2d4cd4f02fddf2a40f92", "rental_uris": {"android": "https://dc.lft.to/lastmile_qr_scan", "ios": "https://dc.lft.to/lastmile_qr_scan"}, "is_disabled": 0, "fusion_lat": 0.0, "lat": 38.917430833333334, "is_reserved": 0}, {"lon": -77.015783, "fusion_lon": 0.0, "bike_id": "8db04ee5a253e28dc4a3c808aa7178d5", "type": "electric_scooter", "name": "8db04ee5a253e28dc4a3c808aa7178d5", "rental_uris": {"android": "https://dc.lft.to/lastmile_qr_scan", "ios": "https://dc.lft.to/lastmile_qr_scan"}, "is_disabled": 0, "fusion_lat": 0.0, "lat": 38.91570133333333, "is_reserved": 0}, {"lon": -77.03158066666667, "fusion_lon": 0.0, "bike_id": "779c9d33cee6e5f43a474ea228c46395", "type": "electric_scooter", "name": "779c9d33cee6e5f43a474ea228c46395", "rental_uris": {"android": "https://dc.lft.to/lastmile_qr_scan", "ios": "https://dc.lft.to/lastmile_qr_scan"}, "is_disabled": 0, "fusion_lat": 0.0, "lat": 38.91567966666667, "is_reserved": 0}, {"lon": -77.032701, "fusion_lon": 0.0, "bike_id": "ab88af42cb2cf6f5bf57f56cd855ccbb", "type": "electric_scooter", "name": "ab88af42cb2cf6f5bf57f56cd855ccbb", "rental_uris": {"android": "https://dc.lft.to/lastmile_qr_scan", "ios": "https://dc.lft.to/lastmile_qr_scan"}, "is_disabled": 0, "fusion_lat": 0.0, "lat": 38.9198875, "is_reserved": 0}, {"lon": -77.05279516666667, "fusion_lon": 0.0, "bike_id": "bf1f5d725b023f9442f053325b085212", "type": "electric_scooter", "name": "bf1f5d725b023f9442f053325b085212", "rental_uris": {"android": "https://dc.lft.to/lastmile_qr_scan", "ios": "https://dc.lft.to/lastmile_qr_scan"}, "is_disabled": 0, "fusion_lat": 0.0, "lat": 38.90506366666666, "is_reserved": 0}, {"lon": -77.04727566666666, "fusion_lon": 0.0, "bike_id": "00e7bebc4648cf1527f7926e1e42c67a", "type": "electric_scooter", "name": "00e7bebc4648cf1527f7926e1e42c67a", "rental_uris": {"android": "https://dc.lft.to/lastmile_qr_scan", "ios": "https://dc.lft.to/lastmile_qr_scan"}, "is_disabled": 0, "fusion_lat": 0.0, "lat": 38.904159166666666, "is_reserved": 0}, {"lon": -77.08968633333333, "fusion_lon": 0.0, "bike_id": "a5ef2eaabf3e8d567650fd775c52e3df", "type": "electric_scooter", "name": "a5ef2eaabf3e8d567650fd775c52e3df", "rental_uris": {"android": "https://dc.lft.to/lastmile_qr_scan", "ios": "https://dc.lft.to/lastmile_qr_scan"}, "is_disabled": 0, "fusion_lat": 0.0, "lat": 38.9342945, "is_reserved": 0}, {"lon": -76.99992966666667, "fusion_lon": 0.0, "bike_id": "fe0ad3bb2015a386f42a484f5402e01d", "type": "electric_scooter", "name": "fe0ad3bb2015a386f42a484f5402e01d", "rental_uris": {"android": "https://dc.lft.to/lastmile_qr_scan", "ios": "https://dc.lft.to/lastmile_qr_scan"}, "is_disabled": 0, "fusion_lat": 0.0, "lat": 38.874896666666665, "is_reserved": 0}, {"lon": -77.0013585, "fusion_lon": 0.0, "bike_id": "16391fb0d602ce9a9f759f3e6ffe1f85", "type": "electric_scooter", "name": "16391fb0d602ce9a9f759f3e6ffe1f85", "rental_uris": {"android": "https://dc.lft.to/lastmile_qr_scan", "ios": "https://dc.lft.to/lastmile_qr_scan"}, "is_disabled": 0, "fusion_lat": 0.0, "lat": 38.8927265, "is_reserved": 0}, {"lon": -77.02557883333333, "fusion_lon": 0.0, "bike_id": "36b37bcb70e9ac95bc6b2f868f84bfd1", "type": "electric_scooter", "name": "36b37bcb70e9ac95bc6b2f868f84bfd1", "rental_uris": {"android": "https://dc.lft.to/lastmile_qr_scan", "ios": "https://dc.lft.to/lastmile_qr_scan"}, "is_disabled": 0, "fusion_lat": 0.0, "lat": 38.941733666666664, "is_reserved": 0}, {"lon": -77.02315033333333, "fusion_lon": 0.0, "bike_id": "0a8a2d367f7633c169bdb67aa6caf177", "type": "electric_scooter", "name": "0a8a2d367f7633c169bdb67aa6caf177", "rental_uris": {"android": "https://dc.lft.to/lastmile_qr_scan", "ios": "https://dc.lft.to/lastmile_qr_scan"}, "is_disabled": 0, "fusion_lat": 0.0, "lat": 38.917273, "is_reserved": 0}, {"lon": -77.03307983333333, "fusion_lon": 0.0, "bike_id": "148a4a660eeaa69c8dafc9c11b994f31", "type": "electric_scooter", "name": "148a4a660eeaa69c8dafc9c11b994f31", "rental_uris": {"android": "https://dc.lft.to/lastmile_qr_scan", "ios": "https://dc.lft.to/lastmile_qr_scan"}, "is_disabled": 0, "fusion_lat": 0.0, "lat": 38.95631616666667, "is_reserved": 0}, {"lon": -77.00666266666667, "fusion_lon": 0.0, "bike_id": "07bd6b08ab224a98eded3fd028fed978", "type": "electric_scooter", "name": "07bd6b08ab224a98eded3fd028fed978", "rental_uris": {"android": "https://dc.lft.to/lastmile_qr_scan", "ios": "https://dc.lft.to/lastmile_qr_scan"}, "is_disabled": 0, "fusion_lat": 0.0, "lat": 38.900099, "is_reserved": 0}, {"lon": -76.99039816666667, "fusion_lon": 0.0, "bike_id": "bc28a19e6c3666d3ef1dff644459e1c7", "type": "electric_scooter", "name": "bc28a19e6c3666d3ef1dff644459e1c7", "rental_uris": {"android": "https://dc.lft.to/lastmile_qr_scan", "ios": "https://dc.lft.to/lastmile_qr_scan"}, "is_disabled": 0, "fusion_lat": 0.0, "lat": 38.86391866666666, "is_reserved": 0}, {"lon": -77.02970683333334, "fusion_lon": 0.0, "bike_id": "7a1a5051916451c695e77eaca2327b43", "type": "electric_scooter", "name": "7a1a5051916451c695e77eaca2327b43", "rental_uris": {"android": "https://dc.lft.to/lastmile_qr_scan", "ios": "https://dc.lft.to/lastmile_qr_scan"}, "is_disabled": 0, "fusion_lat": 0.0, "lat": 38.912942, "is_reserved": 0}, {"lon": -77.0318535, "fusion_lon": 0.0, "bike_id": "d97f5d8f6624ca48f1f10abdb067e809", "type": "electric_scooter", "name": "d97f5d8f6624ca48f1f10abdb067e809", "rental_uris": {"android": "https://dc.lft.to/lastmile_qr_scan", "ios": "https://dc.lft.to/lastmile_qr_scan"}, "is_disabled": 0, "fusion_lat": 0.0, "lat": 38.92483, "is_reserved": 0}, {"lon": -76.98002133333334, "fusion_lon": 0.0, "bike_id": "1eaf4c179867daa4272b9eff3e23b456", "type": "electric_scooter", "name": "1eaf4c179867daa4272b9eff3e23b456", "rental_uris": {"android": "https://dc.lft.to/lastmile_qr_scan", "ios": "https://dc.lft.to/lastmile_qr_scan"}, "is_disabled": 0, "fusion_lat": 0.0, "lat": 38.86425466666667, "is_reserved": 0}, {"lon": -77.04014183333334, "fusion_lon": 0.0, "bike_id": "3223f89b29f2baf8709efe05b7f0fe18", "type": "electric_scooter", "name": "3223f89b29f2baf8709efe05b7f0fe18", "rental_uris": {"android": "https://dc.lft.to/lastmile_qr_scan", "ios": "https://dc.lft.to/lastmile_qr_scan"}, "is_disabled": 0, "fusion_lat": 0.0, "lat": 38.8963595, "is_reserved": 0}, {"lon": -77.0160775, "fusion_lon": 0.0, "bike_id": "8b029df24b81ec9875256f3e7c194da9", "type": "electric_scooter", "name": "8b029df24b81ec9875256f3e7c194da9", "rental_uris": {"android": "https://dc.lft.to/lastmile_qr_scan", "ios": "https://dc.lft.to/lastmile_qr_scan"}, "is_disabled": 0, "fusion_lat": 0.0, "lat": 38.901452166666665, "is_reserved": 0}, {"lon": -77.00049666666666, "fusion_lon": 0.0, "bike_id": "ea6c7e429e5e55ebb65e399e9a8f5604", "type": "electric_scooter", "name": "ea6c7e429e5e55ebb65e399e9a8f5604", "rental_uris": {"android": "https://dc.lft.to/lastmile_qr_scan", "ios": "https://dc.lft.to/lastmile_qr_scan"}, "is_disabled": 0, "fusion_lat": 0.0, "lat": 38.92362633333333, "is_reserved": 0}, {"lon": -77.05498033333333, "fusion_lon": 0.0, "bike_id": "140e81457369520ad54ece94ec03feb7", "type": "electric_bike", "name": "140e81457369520ad54ece94ec03feb7", "rental_uris": {"android": "https://dc.lft.to/lastmile_qr_scan", "ios": "https://dc.lft.to/lastmile_qr_scan"}, "is_disabled": 0, "fusion_lat": 0.0, "lat": 38.908299666666665, "is_reserved": 0}, {"lon": -77.038562, "fusion_lon": 0.0, "bike_id": "605a4e6aff05ae4a784b5600675ac9d0", "type": "electric_scooter", "name": "605a4e6aff05ae4a784b5600675ac9d0", "rental_uris": {"android": "https://dc.lft.to/lastmile_qr_scan", "ios": "https://dc.lft.to/lastmile_qr_scan"}, "is_disabled": 0, "fusion_lat": 0.0, "lat": 38.90281366666667, "is_reserved": 0}, {"lon": -77.046108, "fusion_lon": 0.0, "bike_id": "fc6b77fd744addde843886ac77d7ef0c", "type": "electric_scooter", "name": "fc6b77fd744addde843886ac77d7ef0c", "rental_uris": {"android": "https://dc.lft.to/lastmile_qr_scan", "ios": "https://dc.lft.to/lastmile_qr_scan"}, "is_disabled": 0, "fusion_lat": 0.0, "lat": 38.902703833333334, "is_reserved": 0}, {"lon": -76.98680566666667, "fusion_lon": 0.0, "bike_id": "e41781007a58257f3ea090a8791639b8", "type": "electric_scooter", "name": "e41781007a58257f3ea090a8791639b8", "rental_uris": {"android": "https://dc.lft.to/lastmile_qr_scan", "ios": "https://dc.lft.to/lastmile_qr_scan"}, "is_disabled": 0, "fusion_lat": 0.0, "lat": 38.912895, "is_reserved": 0}, {"lon": -77.02820683333333, "fusion_lon": 0.0, "bike_id": "c3d187a45eb1241372284f8965dbe157", "type": "electric_scooter", "name": "c3d187a45eb1241372284f8965dbe157", "rental_uris": {"android": "https://dc.lft.to/lastmile_qr_scan", "ios": "https://dc.lft.to/lastmile_qr_scan"}, "is_disabled": 0, "fusion_lat": 0.0, "lat": 38.930650166666666, "is_reserved": 0}, {"lon": -76.98702783333333, "fusion_lon": 0.0, "bike_id": "ffa47c372c2e9c82d0ebf976d97c6cc8", "type": "electric_scooter", "name": "ffa47c372c2e9c82d0ebf976d97c6cc8", "rental_uris": {"android": "https://dc.lft.to/lastmile_qr_scan", "ios": "https://dc.lft.to/lastmile_qr_scan"}, "is_disabled": 0, "fusion_lat": 0.0, "lat": 38.86723, "is_reserved": 0}, {"lon": -77.00352283333334, "fusion_lon": 0.0, "bike_id": "aeac94702aab1ff3f0f5bfda07ccd042", "type": "electric_scooter", "name": "aeac94702aab1ff3f0f5bfda07ccd042", "rental_uris": {"android": "https://dc.lft.to/lastmile_qr_scan", "ios": "https://dc.lft.to/lastmile_qr_scan"}, "is_disabled": 0, "fusion_lat": 0.0, "lat": 38.87735216666667, "is_reserved": 0}, {"lon": -77.04395416666667, "fusion_lon": 0.0, "bike_id": "e0e5463bc118f8363631d6bd8c2a7a77", "type": "electric_scooter", "name": "e0e5463bc118f8363631d6bd8c2a7a77", "rental_uris": {"android": "https://dc.lft.to/lastmile_qr_scan", "ios": "https://dc.lft.to/lastmile_qr_scan"}, "is_disabled": 0, "fusion_lat": 0.0, "lat": 38.9023395, "is_reserved": 0}, {"lon": -76.98193433333333, "fusion_lon": 0.0, "bike_id": "e6e76ef7ec96f1c44e1a8f85b4cb57fd", "type": "electric_scooter", "name": "e6e76ef7ec96f1c44e1a8f85b4cb57fd", "rental_uris": {"android": "https://dc.lft.to/lastmile_qr_scan", "ios": "https://dc.lft.to/lastmile_qr_scan"}, "is_disabled": 0, "fusion_lat": 0.0, "lat": 38.86205533333333, "is_reserved": 0}, {"lon": -77.031804, "fusion_lon": 0.0, "bike_id": "fcc8b1ee4d77f46804136c48fd3081b7", "type": "electric_scooter", "name": "fcc8b1ee4d77f46804136c48fd3081b7", "rental_uris": {"android": "https://dc.lft.to/lastmile_qr_scan", "ios": "https://dc.lft.to/lastmile_qr_scan"}, "is_disabled": 0, "fusion_lat": 0.0, "lat": 38.91833416666667, "is_reserved": 0}, {"lon": -77.0351, "fusion_lon": 0.0, "bike_id": "40965920421d8ac386fe6858dc430b45", "type": "electric_scooter", "name": "40965920421d8ac386fe6858dc430b45", "rental_uris": {"android": "https://dc.lft.to/lastmile_qr_scan", "ios": "https://dc.lft.to/lastmile_qr_scan"}, "is_disabled": 0, "fusion_lat": 0.0, "lat": 38.923379, "is_reserved": 0}, {"lon": -77.049992, "fusion_lon": 0.0, "bike_id": "844f579b66a83dfd3b1ff8eaa7589f24", "type": "electric_scooter", "name": "844f579b66a83dfd3b1ff8eaa7589f24", "rental_uris": {"android": "https://dc.lft.to/lastmile_qr_scan", "ios": "https://dc.lft.to/lastmile_qr_scan"}, "is_disabled": 0, "fusion_lat": 0.0, "lat": 38.892280166666666, "is_reserved": 0}, {"lon": -77.02213, "fusion_lon": 0.0, "bike_id": "9b705da3a4d79bd33e8d548293371a25", "type": "electric_scooter", "name": "9b705da3a4d79bd33e8d548293371a25", "rental_uris": {"android": "https://dc.lft.to/lastmile_qr_scan", "ios": "https://dc.lft.to/lastmile_qr_scan"}, "is_disabled": 0, "fusion_lat": 0.0, "lat": 38.91554133333333, "is_reserved": 0}, {"lon": -77.053393, "fusion_lon": 0.0, "bike_id": "4a8d2d436ecb57654835f0545c0875c6", "type": "electric_scooter", "name": "4a8d2d436ecb57654835f0545c0875c6", "rental_uris": {"android": "https://dc.lft.to/lastmile_qr_scan", "ios": "https://dc.lft.to/lastmile_qr_scan"}, "is_disabled": 0, "fusion_lat": 0.0, "lat": 38.90231883333333, "is_reserved": 0}, {"lon": -77.02708316666667, "fusion_lon": 0.0, "bike_id": "2d294d86d7c421cb51f614933c284c34", "type": "electric_scooter", "name": "2d294d86d7c421cb51f614933c284c34", "rental_uris": {"android": "https://dc.lft.to/lastmile_qr_scan", "ios": "https://dc.lft.to/lastmile_qr_scan"}, "is_disabled": 0, "fusion_lat": 0.0, "lat": 38.906653, "is_reserved": 0}, {"lon": -76.98572633333333, "fusion_lon": 0.0, "bike_id": "e4894aee8cace1d8761e36a1e09535b2", "type": "electric_scooter", "name": "e4894aee8cace1d8761e36a1e09535b2", "rental_uris": {"android": "https://dc.lft.to/lastmile_qr_scan", "ios": "https://dc.lft.to/lastmile_qr_scan"}, "is_disabled": 0, "fusion_lat": 0.0, "lat": 38.86682416666667, "is_reserved": 0}, {"lon": -76.9797575, "fusion_lon": 0.0, "bike_id": "7c13dc1a4640a1a7a66a28bf6e1645d2", "type": "electric_scooter", "name": "7c13dc1a4640a1a7a66a28bf6e1645d2", "rental_uris": {"android": "https://dc.lft.to/lastmile_qr_scan", "ios": "https://dc.lft.to/lastmile_qr_scan"}, "is_disabled": 0, "fusion_lat": 0.0, "lat": 38.8974545, "is_reserved": 0},