{"data": {"bikes": [{"name": "455b62ea7a4cf92ec1e12fbaa5fac624", "is_disabled": 0, "lat": 38.87701166666667, "rental_uris": {"ios": "https://dc.lft.to/lastmile_qr_scan", "android": "https://dc.lft.to/lastmile_qr_scan"}, "bike_id": "455b62ea7a4cf92ec1e12fbaa5fac624", "type": "electric_scooter", "lon": -77.01911433333333, "is_reserved": 0, "fusion_lat": 0.0, "fusion_lon": 0.0}, {"name": "d04f905a240ae3569a52227c7df575ac", "is_disabled": 0, "lat": 38.857207, "rental_uris": {"ios": "https://dc.lft.to/lastmile_qr_scan", "android": "https://dc.lft.to/lastmile_qr_scan"}, "bike_id": "d04f905a240ae3569a52227c7df575ac", "type": "electric_bike", "lon": -76.9810055, "is_reserved": 0, "fusion_lat": 0.0, "fusion_lon": 0.0}, {"name": "377ec416744d01368592c1179d83eb19", "is_disabled": 0, "lat": 38.90602533333333, "rental_uris": {"ios": "https://dc.lft.to/lastmile_qr_scan", "android": "https://dc.lft.to/lastmile_qr_scan"}, "bike_id": "377ec416744d01368592c1179d83eb19", "type": "electric_scooter", "lon": -77.026058, "is_reserved": 0, "fusion_lat": 0.0, "fusion_lon": 0.0}, {"name": "a35017e474ba229e3bcfdc7b2f9f3d0a", "is_disabled": 0, "lat": 38.9015185, "rental_uris": {"ios": "https://dc.lft.to/lastmile_qr_scan", "android": "https://dc.lft.to/lastmile_qr_scan"}, "bike_id": "a35017e474ba229e3bcfdc7b2f9f3d0a", "type": "electric_scooter", "lon": -77.0417225, "is_reserved": 0, "fusion_lat": 0.0, "fusion_lon": 0.0}, {"name": "60146cfd9179246a57e1f47c30f59756", "is_disabled": 0, "lat": 38.90365366666666, "rental_uris": {"ios": "https://dc.lft.to/lastmile_qr_scan", "android": "https://dc.lft.to/lastmile_qr_scan"}, "bike_id": "60146cfd9179246a57e1f47c30f59756", "type": "electric_scooter", "lon": -77.00744133333333, "is_reserved": 0, "fusion_lat": 0.0, "fusion_lon": 0.0}, {"name": "5a3cb392d36dbb622e4f147afccbc0fc", "is_disabled": 0, "lat": 38.934203, "rental_uris": {"ios": "https://dc.lft.to/lastmile_qr_scan", "android": "https://dc.lft.to/lastmile_qr_scan"}, "bike_id": "5a3cb392d36dbb622e4f147afccbc0fc", "type": "electric_bike", "lon": -77.04304133333333, "is_reserved": 0, "fusion_lat": 0.0, "fusion_lon": 0.0}, {"name": "316dbbd5837a659f34f94393873bd9db", "is_disabled": 0, "lat": 38.9122295, "rental_uris": {"ios": "https://dc.lft.to/lastmile_qr_scan", "android": "https://dc.lft.to/lastmile_qr_scan"}, "bike_id": "316dbbd5837a659f34f94393873bd9db", "type": "electric_scooter", "lon": -77.06599533333333, "is_reserved": 0, "fusion_lat": 0.0, "fusion_lon": 0.0}, {"name": "2e297e2f92148aec92bc792d647ef0b5", "is_disabled": 0, "lat": 38.90634583333333, "rental_uris": {"ios": "https://dc.lft.to/lastmile_qr_scan", "android": "https://dc.lft.to/lastmile_qr_scan"}, "bike_id": "2e297e2f92148aec92bc792d647ef0b5", "type": "electric_scooter", "lon": -77.00667533333333, "is_reserved": 0, "fusion_lat": 0.0, "fusion_lon": 0.0}, {"name": "d0045d67fb24a4c99b064feba373ffca", "is_disabled": 0, "lat": 38.88742633333333, "rental_uris": {"ios": "https://dc.lft.to/lastmile_qr_scan", "android": "https://dc.lft.to/lastmile_qr_scan"}, "bike_id": "d0045d67fb24a4c99b064feba373ffca", "type": "electric_scooter", "lon": -77.02129416666666, "is_reserved": 0, "fusion_lat": 0.0, "fusion_lon": 0.0}, {"name": "eefa876240ea689ae77a9541d3dfab55", "is_disabled": 0, "lat": 38.898421666666664, "rental_uris": {"ios": "https://dc.lft.to/lastmile_qr_scan", "android": "https://dc.lft.to/lastmile_qr_scan"}, "bike_id": "eefa876240ea689ae77a9541d3dfab55", "type": "electric_scooter", "lon": -77.022068, "is_reserved": 0, "fusion_lat": 0.0, "fusion_lon": 0.0}, {"name": "4c367e0fa1f8d49df92edf08eca9af30", "is_disabled": 0, "lat": 38.866663, "rental_uris": {"ios": "https://dc.lft.to/lastmile_qr_scan", "android": "https://dc.lft.to/lastmile_qr_scan"}, "bike_id": "4c367e0fa1f8d49df92edf08eca9af30", "type": "electric_scooter", "lon": -77.01043666666666, "is_reserved": 0, "fusion_lat": 0.0, "fusion_lon": 0.0}, {"name": "0bfc6eafc99d77268d3f6f96299f0139", "is_disabled": 0, "lat": 38.898534166666664, "rental_uris": {"ios": "https://dc.lft.to/lastmile_qr_scan", "android": "https://dc.lft.to/lastmile_qr_scan"}, "bike_id": "0bfc6eafc99d77268d3f6f96299f0139", "type": "electric_bike", "lon": -76.931875, "is_reserved": 0, "fusion_lat": 0.0, "fusion_lon": 0.0}, {"name": "88a1aab0de540c34c4de245f48fe309e", "is_disabled": 0, "lat": 38.926578166666665, "rental_uris": {"ios": "https://dc.lft.to/lastmile_qr_scan", "android": "https://dc.lft.to/lastmile_qr_scan"}, "bike_id": "88a1aab0de540c34c4de245f48fe309e", "type": "electric_scooter", "lon": -77.04316033333333, "is_reserved": 0, "fusion_lat": 0.0, "fusion_lon": 0.0}, {"name": "6d42b1ca4a847623b04f52a74ae0b87c", "is_disabled": 0, "lat": 38.917157333333336, "rental_uris": {"ios": "https://dc.lft.to/lastmile_qr_scan", "android": "https://dc.lft.to/lastmile_qr_scan"}, "bike_id": "6d42b1ca4a847623b04f52a74ae0b87c", "type": "electric_scooter", "lon": -77.02804383333333, "is_reserved": 0, "fusion_lat": 0.0, "fusion_lon": 0.0}, {"name": "76146a463a38a814988d70e6d641560d", "is_disabled": 0, "lat": 38.90729316666667, "rental_uris": {"ios": "https://dc.lft.to/lastmile_qr_scan", "android": "https://dc.lft.to/lastmile_qr_scan"}, "bike_id": "76146a463a38a814988d70e6d641560d", "type": "electric_scooter", "lon": -77.03309716666666, "is_reserved": 0, "fusion_lat": 0.0, "fusion_lon": 0.0}, {"name": "14fa305a546d785290b3bdfd4862c5fc", "is_disabled": 0, "lat": 38.8973725, "rental_uris": {"ios": "https://dc.lft.to/lastmile_qr_scan", "android": "https://dc.lft.to/lastmile_qr_scan"}, "bike_id": "14fa305a546d785290b3bdfd4862c5fc", "type": "electric_scooter", "lon": -77.0552085, "is_reserved": 0, "fusion_lat": 0.0, "fusion_lon": 0.0}, {"name": "0d4dd4571b97d6debda851be88129553", "is_disabled": 0, "lat": 38.853588, "rental_uris": {"ios": "https://dc.lft.to/lastmile_qr_scan", "android": "https://dc.lft.to/lastmile_qr_scan"}, "bike_id": "0d4dd4571b97d6debda851be88129553", "type": "electric_bike", "lon": -77.1346695, "is_reserved": 0, "fusion_lat": 0.0, "fusion_lon": 0.0}, {"name": "85167581a990074ada2d670b114c64eb", "is_disabled": 0, "lat": 38.86984016666667, "rental_uris": {"ios": "https://dc.lft.to/lastmile_qr_scan", "android": "https://dc.lft.to/lastmile_qr_scan"}, "bike_id": "85167581a990074ada2d670b114c64eb", "type": "electric_scooter", "lon": -76.97727183333333, "is_reserved": 0, "fusion_lat": 0.0, "fusion_lon": 0.0}, {"name": "f0087a3c7d4c0fcacedd177a2ef55b36", "is_disabled": 0, "lat": 38.906799666666664, "rental_uris": {"ios": "https://dc.lft.to/lastmile_qr_scan", "android": "https://dc.lft.to/lastmile_qr_scan"}, "bike_id": "f0087a3c7d4c0fcacedd177a2ef55b36", "type": "electric_scooter", "lon": -77.0365465, "is_reserved": 0, "fusion_lat": 0.0, "fusion_lon": 0.0}, {"name": "90e69d6d18458831581e79042480dc04", "is_disabled": 0, "lat": 38.9168285, "rental_uris": {"ios": "https://dc.lft.to/lastmile_qr_scan", "android": "https://dc.lft.to/lastmile_qr_scan"}, "bike_id": "90e69d6d18458831581e79042480dc04", "type": "electric_scooter", "lon": -77.029705, "is_reserved": 0, "fusion_lat": 0.0, "fusion_lon": 0.0}, {"name": "44ff0f35b12fdaa76b57eddf34312e84", "is_disabled": 0, "lat": 38.9541755, "rental_uris": {"ios": "https://dc.lft.to/lastmile_qr_scan", "android": "https://dc.lft.to/lastmile_qr_scan"}, "bike_id": "44ff0f35b12fdaa76b57eddf34312e84", "type": "electric_scooter", "lon": -77.02764366666666, "is_reserved": 0, "fusion_lat": 0.0, "fusion_lon": 0.0}, {"name": "708bc39d29f906702fc7c8cc5c128b03", "is_disabled": 0, "lat": 38.847578, "rental_uris": {"ios": "https://dc.lft.to/lastmile_qr_scan", "android": "https://dc.lft.to/lastmile_qr_scan"}, "bike_id": "708bc39d29f906702fc7c8cc5c128b03", "type": "electric_scooter", "lon": -76.99507033333333, "is_reserved": 0, "fusion_lat": 0.0, "fusion_lon": 0.0}, {"name": "b6c313ef97bb283bac492d1aff3bdc7c", "is_disabled": 0, "lat": 38.91599683333333, "rental_uris": {"ios": "https://dc.lft.to/lastmile_qr_scan", "android": "https://dc.lft.to/lastmile_qr_scan"}, "bike_id": "b6c313ef97bb283bac492d1aff3bdc7c", "type": "electric_scooter", "lon": -76.99360666666666, "is_reserved": 0, "fusion_lat": 0.0, "fusion_lon": 0.0}, {"name": "1fe1e0d4987fbf2591c56c7198a4f295", "is_disabled": 0, "lat": 38.8868885, "rental_uris": {"ios": "https://dc.lft.to/lastmile_qr_scan", "android": "https://dc.lft.to/lastmile_qr_scan"}, "bike_id": "1fe1e0d4987fbf2591c56c7198a4f295", "type": "electric_scooter", "lon": -76.97640283333334, "is_reserved": 0, "fusion_lat": 0.0, "fusion_lon": 0.0}, {"name": "7eaa55d7830657fc08917986e1be1de4", "is_disabled": 0, "lat": 38.9128795, "rental_uris": {"ios": "https://dc.lft.to/lastmile_qr_scan", "android": "https://dc.lft.to/lastmile_qr_scan"}, "bike_id": "7eaa55d7830657fc08917986e1be1de4", "type": "electric_scooter", "lon": -77.023866, "is_reserved": 0, "fusion_lat": 0.0, "fusion_lon": 0.0}, {"name": "a65d3147c4c3d668f364190026896af3", "is_disabled": 0, "lat": 38.897425, "rental_uris": {"ios": "https://dc.lft.to/lastmile_qr_scan", "android": "https://dc.lft.to/lastmile_qr_scan"}, "bike_id": "a65d3147c4c3d668f364190026896af3", "type": "electric_scooter", "lon": -77.02723633333333, "is_reserved": 0, "fusion_lat": 0.0, "fusion_lon": 0.0}, {"name": "5ddc5a25718160ff0a5f217ee364d4bc", "is_disabled": 0, "lat": 38.91677216666667, "rental_uris": {"ios": "https://dc.lft.to/lastmile_qr_scan", "android": "https://dc.lft.to/lastmile_qr_scan"}, "bike_id": "5ddc5a25718160ff0a5f217ee364d4bc", "type": "electric_scooter", "lon": -77.02288533333333, "is_reserved": 0, "fusion_lat": 0.0, "fusion_lon": 0.0}, {"name": "accd0eed9250f3b04854c581f0c95990", "is_disabled": 0, "lat": 38.910311666666665, "rental_uris": {"ios": "https://dc.lft.to/lastmile_qr_scan", "android": "https://dc.lft.to/lastmile_qr_scan"}, "bike_id": "accd0eed9250f3b04854c581f0c95990", "type": "electric_scooter", "lon": -77.04271783333333, "is_reserved": 0, "fusion_lat": 0.0, "fusion_lon": 0.0}, {"name": "02b065279e105d4d448e7d530bdfcd97", "is_disabled": 0, "lat": 38.90974833333333, "rental_uris": {"ios": "https://dc.lft.to/lastmile_qr_scan", "android": "https://dc.lft.to/lastmile_qr_scan"}, "bike_id": "02b065279e105d4d448e7d530bdfcd97", "type": "electric_scooter", "lon": -77.03426366666666, "is_reserved": 0, "fusion_lat": 0.0, "fusion_lon": 0.0}, {"name": "010c273b1515acd8f7d4dbb6b6808faa", "is_disabled": 0, "lat": 38.90705116666667, "rental_uris": {"ios": "https://dc.lft.to/lastmile_qr_scan", "android": "https://dc.lft.to/lastmile_qr_scan"}, "bike_id": "010c273b1515acd8f7d4dbb6b6808faa", "type": "electric_scooter", "lon": -77.07600216666667, "is_reserved": 0, "fusion_lat": 0.0, "fusion_lon": 0.0}, {"name": "0dd6aead62cc032f0c1d0066e62a0250", "is_disabled": 0, "lat": 38.901116333333334, "rental_uris": {"ios": "https://dc.lft.to/lastmile_qr_scan", "android": "https://dc.lft.to/lastmile_qr_scan"}, "bike_id": "0dd6aead62cc032f0c1d0066e62a0250", "type": "electric_scooter", "lon": -77.03366116666666, "is_reserved": 0, "fusion_lat": 0.0, "fusion_lon": 0.0}, {"name": "810538454ed96b67d9a2e39d711e284b", "is_disabled": 0, "lat": 38.91543516666667, "rental_uris": {"ios": "https://dc.lft.to/lastmile_qr_scan", "android": "https://dc.lft.to/lastmile_qr_scan"}, "bike_id": "810538454ed96b67d9a2e39d711e284b", "type": "electric_scooter", "lon": -77.01221416666667, "is_reserved": 0, "fusion_lat": 0.0, "fusion_lon": 0.0}, {"name": "6ab97ead3de7d2b1ebfaded73b6af3a8", "is_disabled": 0, "lat": 38.923800666666665, "rental_uris": {"ios": "https://dc.lft.to/lastmile_qr_scan", "android": "https://dc.lft.to/lastmile_qr_scan"}, "bike_id": "6ab97ead3de7d2b1ebfaded73b6af3a8", "type": "electric_scooter", "lon": -77.02737866666666, "is_reserved": 0, "fusion_lat": 0.0, "fusion_lon": 0.0}, {"name": "681e2e3c43010146c35cd4ffec4c9beb", "is_disabled": 0, "lat": 38.9019425, "rental_uris": {"ios": "https://dc.lft.to/lastmile_qr_scan", "android": "https://dc.lft.to/lastmile_qr_scan"}, "bike_id": "681e2e3c43010146c35cd4ffec4c9beb", "type": "electric_scooter", "lon": -77.02373483333334, "is_reserved": 0, "fusion_lat": 0.0, "fusion_lon": 0.0}, {"name": "02940ffdc32113d7b25a05b962ba46ed", "is_disabled": 0, "lat": 38.9103685, "rental_uris": {"ios": "https://dc.lft.to/lastmile_qr_scan", "android": "https://dc.lft.to/lastmile_qr_scan"}, "bike_id": "02940ffdc32113d7b25a05b962ba46ed", "type": "electric_scooter", "lon": -77.04277983333333, "is_reserved": 0, "fusion_lat": 0.0, "fusion_lon": 0.0}, {"name": "1ef8015a4619eb2c80ff817acaeb22d5", "is_disabled": 0, "lat": 38.93170966666667, "rental_uris": {"ios": "https://dc.lft.to/lastmile_qr_scan", "android": "https://dc.lft.to/lastmile_qr_scan"}, "bike_id": "1ef8015a4619eb2c80ff817acaeb22d5", "type": "electric_scooter", "lon": -77.05648966666666, "is_reserved": 0, "fusion_lat": 0.0, "fusion_lon": 0.0}, {"name": "0d87e21c16dec4cea79c519896627a3d", "is_disabled": 0, "lat": 38.906639166666665, "rental_uris": {"ios": "https://dc.lft.to/lastmile_qr_scan", "android": "https://dc.lft.to/lastmile_qr_scan"}, "bike_id": "0d87e21c16dec4cea79c519896627a3d", "type": "electric_scooter", "lon": -77.0270745, "is_reserved": 0, "fusion_lat": 0.0, "fusion_lon": 0.0}, {"name": "867799d497a902f8e72b1c52437179a7", "is_disabled": 0, "lat": 38.90097333333333, "rental_uris": {"ios": "https://dc.lft.to/lastmile_qr_scan", "android": "https://dc.lft.to/lastmile_qr_scan"}, "bike_id": "867799d497a902f8e72b1c52437179a7", "type": "electric_scooter", "lon": -77.05693883333333, "is_reserved": 0, "fusion_lat": 0.0, "fusion_lon": 0.0}, {"name": "46d0fc6c688fdc790201d449bda040b5", "is_disabled": 0, "lat": 38.91874933333333, "rental_uris": {"ios": "https://dc.lft.to/lastmile_qr_scan", "android": "https://dc.lft.to/lastmile_qr_scan"}, "bike_id": "46d0fc6c688fdc790201d449bda040b5", "type": "electric_scooter", "lon": -77.03505916666667, "is_reserved": 0, "fusion_lat": 0.0, "fusion_lon": 0.0}, {"name": "8cae865a667f175ea3eaa053762d3a89", "is_disabled": 0, "lat": 38.92468016666667, "rental_uris": {"ios": "https://dc.lft.to/lastmile_qr_scan", "android": "https://dc.lft.to/lastmile_qr_scan"}, "bike_id": "8cae865a667f175ea3eaa053762d3a89", "type": "electric_bike", "lon": -77.23352383333334, "is_reserved": 0, "fusion_lat": 0.0, "fusion_lon": 0.0}, {"name": "ad8b396c45d19d874e3cff120e3cbb9c", "is_disabled": 0, "lat": 38.90733133333333, "rental_uris": {"ios": "https://dc.lft.to/lastmile_qr_scan", "android": "https://dc.lft.to/lastmile_qr_scan"}, "bike_id": "ad8b396c45d19d874e3cff120e3cbb9c", "type": "electric_scooter", "lon": -77.02947266666666, "is_reserved": 0, "fusion_lat": 0.0, "fusion_lon": 0.0}, {"name": "2aa6d70171afbe6ca6d4d62a0ac6ee00", "is_disabled": 0, "lat": 38.90676166666667, "rental_uris": {"ios": "https://dc.lft.to/lastmile_qr_scan", "android": "https://dc.lft.to/lastmile_qr_scan"}, "bike_id": "2aa6d70171afbe6ca6d4d62a0ac6ee00", "type": "electric_scooter", "lon": -77.03635316666667, "is_reserved": 0, "fusion_lat": 0.0, "fusion_lon": 0.0}, {"name": "61f92fd6fd8cf87070e3f0fe1994d1d6", "is_disabled": 0, "lat": 38.89208216666667, "rental_uris": {"ios": "https://dc.lft.to/lastmile_qr_scan", "android": "https://dc.lft.to/lastmile_qr_scan"}, "bike_id": "61f92fd6fd8cf87070e3f0fe1994d1d6", "type": "electric_scooter", "lon": -77.00296533333334, "is_reserved": 0, "fusion_lat": 0.0, "fusion_lon": 0.0}, {"name": "62d05c95fd7e90f5e380a904c34b3ac5", "is_disabled": 0, "lat": 38.905644333333335, "rental_uris": {"ios": "https://dc.lft.to/lastmile_qr_scan", "android": "https://dc.lft.to/lastmile_qr_scan"}, "bike_id": "62d05c95fd7e90f5e380a904c34b3ac5", "type": "electric_scooter", "lon": -76.98138983333334, "is_reserved": 0, "fusion_lat": 0.0, "fusion_lon": 0.0}, {"name": "56473935b1cdcfc01c430fd3726f0a2d", "is_disabled": 0, "lat": 38.9110415, "rental_uris": {"ios": "https://dc.lft.to/lastmile_qr_scan", "android": "https://dc.lft.to/lastmile_qr_scan"}, "bike_id": "56473935b1cdcfc01c430fd3726f0a2d", "type": "electric_scooter", "lon": -77.042018, "is_reserved": 0, "fusion_lat": 0.0, "fusion_lon": 0.0}, {"name": "9ab65ece64909bab7e052f1e5d927f2f", "is_disabled": 0, "lat": 38.88743983333333, "rental_uris": {"ios": "https://dc.lft.to/lastmile_qr_scan", "android": "https://dc.lft.to/lastmile_qr_scan"}, "bike_id": "9ab65ece64909bab7e052f1e5d927f2f", "type": "electric_scooter", "lon": -77.02125083333334, "is_reserved": 0, "fusion_lat": 0.0, "fusion_lon": 0.0}, {"name": "3456263f3b878e0805c3c219c4b560ea", "is_disabled": 0, "lat": 38.94185866666667, "rental_uris": {"ios": "https://dc.lft.to/lastmile_qr_scan", "android": "https://dc.lft.to/lastmile_qr_scan"}, "bike_id": "3456263f3b878e0805c3c219c4b560ea", "type": "electric_scooter", "lon": -77.02616916666666, "is_reserved": 0, "fusion_lat": 0.0, "fusion_lon": 0.0}, {"name": "ec9a06b44f4b4bc094e2065b2165f074", "is_disabled": 0, "lat": 38.9141365, "rental_uris": {"ios": "https://dc.lft.to/lastmile_qr_scan", "android": "https://dc.lft.to/lastmile_qr_scan"}, "bike_id": "ec9a06b44f4b4bc094e2065b2165f074", "type": "electric_scooter", "lon": -77.0302175, "is_reserved": 0, "fusion_lat": 0.0, "fusion_lon": 0.0}, {"name": "4cb8aebae2050e42565d14175534eb99", "is_disabled": 0, "lat": 38.93081266666667, "rental_uris": {"ios": "https://dc.lft.to/lastmile_qr_scan", "android": "https://dc.lft.to/lastmile_qr_scan"}, "bike_id": "4cb8aebae2050e42565d14175534eb99", "type": "electric_scooter", "lon": -77.03412283333333, "is_reserved": 0, "fusion_lat": 0.0, "fusion_lon": 0.0}, {"name": "f9475c6bcb6b8bac8c66e263b3aff309", "is_disabled": 0, "lat": 38.91263816666667, "rental_uris": {"ios": "https://dc.lft.to/lastmile_qr_scan", "android": "https://dc.lft.to/lastmile_qr_scan"}, "bike_id": "f9475c6bcb6b8bac8c66e263b3aff309", "type": "electric_scooter", "lon": -77.03119233333334, "is_reserved": 0, "fusion_lat": 0.0, "fusion_lon": 0.0}, {"name": "b5366947ab1f138bda4246c588ba8c6f", "is_disabled": 0, "lat": 38.89230933333333, "rental_uris": {"ios": "https://dc.lft.to/lastmile_qr_scan", "android": "https://dc.lft.to/lastmile_qr_scan"}, "bike_id": "b5366947ab1f138bda4246c588ba8c6f", "type": "electric_scooter", "lon": -76.988176, "is_reserved": 0, "fusion_lat": 0.0, "fusion_lon": 0.0}, {"name": "8a2990865b9d75fe319f7e630b62aad8", "is_disabled": 0, "lat": 38.80677583333333, "rental_uris": {"ios": "https://dc.lft.to/lastmile_qr_scan", "android": "https://dc.lft.to/lastmile_qr_scan"}, "bike_id": "8a2990865b9d75fe319f7e630b62aad8", "type": "electric_bike", "lon": -77.06920783333334, "is_reserved": 0, "fusion_lat": 0.0, "fusion_lon": 0.0}, {"name": "4f91bc9978ad74ac3180c7701c511087", "is_disabled": 0, "lat": 38.9217465, "rental_uris": {"ios": "https://dc.lft.to/lastmile_qr_scan", "android": "https://dc.lft.to/lastmile_qr_scan"}, "bike_id": "4f91bc9978ad74ac3180c7701c511087", "type": "electric_scooter", "lon": -77.04029066666666, "is_reserved": 0, "fusion_lat": 0.0, "fusion_lon": 0.0}, {"name": "ee2cd23409b0b0f1e0946e389f29252a", "is_disabled": 0, "lat": 38.9285735, "rental_uris": {"ios": "https://dc.lft.to/lastmile_qr_scan", "android": "https://dc.lft.to/lastmile_qr_scan"}, "bike_id": "ee2cd23409b0b0f1e0946e389f29252a", "type": "electric_scooter", "lon": -77.01386166666667, "is_reserved": 0, "fusion_lat": 0.0, "fusion_lon": 0.0}, {"name": "eac4ec291b72ac1989ce2774915d0f23", "is_disabled": 0, "lat": 38.924788166666666, "rental_uris": {"ios": "https://dc.lft.to/lastmile_qr_scan", "android": "https://dc.lft.to/lastmile_qr_scan"}, "bike_id": "eac4ec291b72ac1989ce2774915d0f23", "type": "electric_scooter", "lon": -77.02151583333334, "is_reserved": 0, "fusion_lat": 0.0, "fusion_lon": 0.0}, {"name": "a7202e81d8662a9ad26a3597258d1626", "is_disabled": 0, "lat": 38.90569466666667, "rental_uris": {"ios": "https://dc.lft.to/lastmile_qr_scan", "android": "https://dc.lft.to/lastmile_qr_scan"}, "bike_id": "a7202e81d8662a9ad26a3597258d1626", "type": "electric_scooter", "lon": -77.02201766666667, "is_reserved": 0, "fusion_lat": 0.0, "fusion_lon": 0.0}, {"name": "876350615efac77bb16fa01335812d66", "is_disabled": 0, "lat": 38.905551, "rental_uris": {"ios": "https://dc.lft.to/lastmile_qr_scan", "android": "https://dc.lft.to/lastmile_qr_scan"}, "bike_id": "876350615efac77bb16fa01335812d66", "type": "electric_scooter", "lon": -77.04575066666666, "is_reserved": 0, "fusion_lat": 0.0, "fusion_lon": 0.0}, {"name": "6b0c2f85ea071db665bafc7ab8d9a2e4", "is_disabled": 0, "lat": 38.90713233333334, "rental_uris": {"ios": "https://dc.lft.to/lastmile_qr_scan", "android": "https://dc.lft.to/lastmile_qr_scan"}, "bike_id": "6b0c2f85ea071db665bafc7ab8d9a2e4", "type": "electric_scooter", "lon": -77.0505345, "is_reserved": 0, "fusion_lat": 0.0, "fusion_lon": 0.0}, {"name": "b4ebd3898b58a47f3fc9a0d18d600ca4", "is_disabled": 0, "lat": 38.901657, "rental_uris": {"ios": "https://dc.lft.to/lastmile_qr_scan", "android": "https://dc.lft.to/lastmile_qr_scan"}, "bike_id": "b4ebd3898b58a47f3fc9a0d18d600ca4", "type": "electric_scooter", "lon": -76.99259416666666, "is_reserved": 0, "fusion_lat": 0.0, "fusion_lon": 0.0}, {"name": "974cc4cc37294cc1f021c705b0b13daf", "is_disabled": 0, "lat": 38.92837016666667, "rental_uris": {"ios": "https://dc.lft.to/lastmile_qr_scan", "android": "https://dc.lft.to/lastmile_qr_scan"}, "bike_id": "974cc4cc37294cc1f021c705b0b13daf", "type": "electric_scooter", "lon": -77.00600566666667, "is_reserved": 0, "fusion_lat": 0.0, "fusion_lon": 0.0}, {"name": "f2104ecc44fd6365d8c9d6a7e0679197", "is_disabled": 0, "lat": 38.881207833333335, "rental_uris": {"ios": "https://dc.lft.to/lastmile_qr_scan", "android": "https://dc.lft.to/lastmile_qr_scan"}, "bike_id": "f2104ecc44fd6365d8c9d6a7e0679197", "type": "electric_bike", "lon": -76.99799566666667, "is_reserved": 0, "fusion_lat": 0.0, "fusion_lon": 0.0}, {"name": "ea6f5330a8f51c2fe1dd631ff4a2fb9d", "is_disabled": 0, "lat": 38.80715133333333, "rental_uris": {"ios": "https://dc.lft.to/lastmile_qr_scan", "android": "https://dc.lft.to/lastmile_qr_scan"}, "bike_id": "ea6f5330a8f51c2fe1dd631ff4a2fb9d", "type": "electric_bike", "lon": -77.061787, "is_reserved": 0, "fusion_lat": 0.0, "fusion_lon": 0.0}, {"name": "82ef2371360d9032b3ee18d8ccf36af1", "is_disabled": 0, "lat": 38.90284483333333, "rental_uris": {"ios": "https://dc.lft.to/lastmile_qr_scan", "android": "https://dc.lft.to/lastmile_qr_scan"}, "bike_id": "82ef2371360d9032b3ee18d8ccf36af1", "type": "electric_scooter", "lon": -77.02279466666667, "is_reserved": 0, "fusion_lat": 0.0, "fusion_lon": 0.0}, {"name": "07cd3bddd838c7cb70701893b9190822", "is_disabled": 0, "lat": 38.891064666666665, "rental_uris": {"ios": "https://dc.lft.to/lastmile_qr_scan", "android": "https://dc.lft.to/lastmile_qr_scan"}, "bike_id": "07cd3bddd838c7cb70701893b9190822", "type": "electric_bike", "lon": -76.98360216666667, "is_reserved": 0, "fusion_lat": 0.0, "fusion_lon": 0.0}, {"name": "e293bf24580cd9db995ebb7e67e82532", "is_disabled": 0, "lat": 38.88732483333333, "rental_uris": {"ios": "https://dc.lft.to/lastmile_qr_scan", "android": "https://dc.lft.to/lastmile_qr_scan"}, "bike_id": "e293bf24580cd9db995ebb7e67e82532", "type": "electric_scooter", "lon": -77.01514366666666, "is_reserved": 0, "fusion_lat": 0.0, "fusion_lon": 0.0}, {"name": "b9e9a407ec9b83a93effd6945a7efa2e", "is_disabled": 0, "lat": 38.909594166666665, "rental_uris": {"ios": "https://dc.lft.to/lastmile_qr_scan", "android": "https://dc.lft.to/lastmile_qr_scan"}, "bike_id": "b9e9a407ec9b83a93effd6945a7efa2e", "type": "electric_scooter", "lon": -77.03221516666666, "is_reserved": 0, "fusion_lat": 0.0, "fusion_lon": 0.0}, {"name": "77db6356d0e8b486c52a4cfd40034ef4", "is_disabled": 0, "lat": 38.903285833333335, "rental_uris": {"ios": "https://dc.lft.to/lastmile_qr_scan", "android": "https://dc.lft.to/lastmile_qr_scan"}, "bike_id": "77db6356d0e8b486c52a4cfd40034ef4", "type": "electric_scooter", "lon": -77.06268883333334, "is_reserved": 0, "fusion_lat": 0.0, "fusion_lon": 0.0}, {"name": "e1338109f398d662992eb7fb8dff3032", "is_disabled": 0, "lat": 38.884382, "rental_uris": {"ios": "https://dc.lft.to/lastmile_qr_scan", "android": "https://dc.lft.to/lastmile_qr_scan"}, "bike_id": "e1338109f398d662992eb7fb8dff3032", "type": "electric_scooter", "lon": -76.996141, "is_reserved": 0, "fusion_lat": 0.0, "fusion_lon": 0.0}, {"name": "074b461d84c0b0b1980ef570d3dc4bcd", "is_disabled": 0, "lat": 39.0525295, "rental_uris": {"ios": "https://dc.lft.to/lastmile_qr_scan", "android": "https://dc.lft.to/lastmile_qr_scan"}, "bike_id": "074b461d84c0b0b1980ef570d3dc4bcd", "type": "electric_bike", "lon": -77.080652, "is_reserved": 0, "fusion_lat": 0.0, "fusion_lon": 0.0}, {"name": "cbe1a80425a6ca20f260962a1f86b1c2", "is_disabled": 0, "lat": 38.9100695, "rental_uris": {"ios": "https://dc.lft.to/lastmile_qr_scan", "android": "https://dc.lft.to/lastmile_qr_scan"}, "bike_id": "cbe1a80425a6ca20f260962a1f86b1c2", "type": "electric_scooter", "lon": -77.04910966666667, "is_reserved": 0, "fusion_lat": 0.0, "fusion_lon": 0.0}, {"name": "326b97f6369af57eb5a0b7910e0b6dbb", "is_disabled": 0, "lat": 38.901325166666666, "rental_uris": {"ios": "https://dc.lft.to/lastmile_qr_scan", "android": "https://dc.lft.to/lastmile_qr_scan"}, "bike_id": "326b97f6369af57eb5a0b7910e0b6dbb", "type": "electric_scooter", "lon": -77.03936466666667, "is_reserved": 0, "fusion_lat": 0.0, "fusion_lon": 0.0}, {"name": "395af06609dba7f1c3ef0bdba66c2729", "is_disabled": 0, "lat": 38.84754933333333, "rental_uris": {"ios": "https://dc.lft.to/lastmile_qr_scan", "android": "https://dc.lft.to/lastmile_qr_scan"}, "bike_id": "395af06609dba7f1c3ef0bdba66c2729", "type": "electric_scooter", "lon": -76.99501566666666, "is_reserved": 0, "fusion_lat": 0.0, "fusion_lon": 0.0}, {"name": "11defc507ee0ba596e15c4f9adc34e50", "is_disabled": 0, "lat": 38.924978833333334, "rental_uris": {"ios": "https://dc.lft.to/lastmile_qr_scan", "android": "https://dc.lft.to/lastmile_qr_scan"}, "bike_id": "11defc507ee0ba596e15c4f9adc34e50", "type": "electric_scooter", "lon": -77.02163216666666, "is_reserved": 0, "fusion_lat": 0.0, "fusion_lon": 0.0}, {"name": "0ccf4f45a3fc67e011c81edbf77e39bb", "is_disabled": 0, "lat": 38.925424666666665, "rental_uris": {"ios": "https://dc.lft.to/lastmile_qr_scan", "android": "https://dc.lft.to/lastmile_qr_scan"}, "bike_id": "0ccf4f45a3fc67e011c81edbf77e39bb", "type": "electric_bike", "lon": -77.07896566666666, "is_reserved": 0, "fusion_lat": 0.0, "fusion_lon": 0.0}, {"name": "84baccb6f144967db4650e37aae772fb", "is_disabled": 0, "lat": 38.9274745, "rental_uris": {"ios": "https://dc.lft.to/lastmile_qr_scan", "android": "https://dc.lft.to/lastmile_qr_scan"}, "bike_id": "84baccb6f144967db4650e37aae772fb", "type": "electric_scooter", "lon": -77.032746, "is_reserved": 0, "fusion_lat": 0.0, "fusion_lon": 0.0}, {"name": "2a5faba49aed3e1a07ef38b5b09f07e3", "is_disabled": 0, "lat": 38.88747583333333, "rental_uris": {"ios": "https://dc.lft.to/lastmile_qr_scan", "android": "https://dc.lft.to/lastmile_qr_scan"}, "bike_id": "2a5faba49aed3e1a07ef38b5b09f07e3", "type": "electric_scooter", "lon": -77.02780866666667, "is_reserved": 0, "fusion_lat": 0.0, "fusion_lon": 0.0}, {"name": "89313cc5488426bdc8e2a621c318efde", "is_disabled": 0, "lat": 38.93900283333333, "rental_uris": {"ios": "https://dc.lft.to/lastmile_qr_scan", "android": "https://dc.lft.to/lastmile_qr_scan"}, "bike_id": "89313cc5488426bdc8e2a621c318efde", "type": "electric_scooter", "lon": -77.08490166666667, "is_reserved": 0, "fusion_lat": 0.0, "fusion_lon": 0.0}, {"name": "f8b2254176268b885b7b67bc4e232b9c", "is_disabled": 0, "lat": 38.901468333333334, "rental_uris": {"ios": "https://dc.lft.to/lastmile_qr_scan", "android": "https://dc.lft.to/lastmile_qr_scan"}, "bike_id": "f8b2254176268b885b7b67bc4e232b9c", "type": "electric_scooter", "lon": -77.026126, "is_reserved": 0, "fusion_lat": 0.0, "fusion_lon": 0.0}, {"name": "69c1c15cd53bcbd577aa9a110a740938", "is_disabled": 0, "lat": 38.923461, "rental_uris": {"ios": "https://dc.lft.to/lastmile_qr_scan", "android": "https://dc.lft.to/lastmile_qr_scan"}, "bike_id": "69c1c15cd53bcbd577aa9a110a740938", "type": "electric_scooter", "lon": -77.05177283333333, "is_reserved": 0, "fusion_lat": 0.0, "fusion_lon": 0.0}, {"name": "965309cf05cf9140feeb7df89f2b5d2f", "is_disabled": 0, "lat": 38.899071, "rental_uris": {"ios": "https://dc.lft.to/lastmile_qr_scan", "android": "https://dc.lft.to/lastmile_qr_scan"}, "bike_id": "965309cf05cf9140feeb7df89f2b5d2f", "type": "electric_scooter", "lon": -76.93350783333334, "is_reserved": 0, "fusion_lat": 0.0, "fusion_lon": 0.0}, {"name": "cb28c53521d43d8ff3f27344a1d59772", "is_disabled": 0, "lat": 38.89543033333333, "rental_uris": {"ios": "https://dc.lft.to/lastmile_qr_scan", "android": "https://dc.lft.to/lastmile_qr_scan"}, "bike_id": "cb28c53521d43d8ff3f27344a1d59772", "type": "electric_scooter", "lon": -76.9809905, "is_reserved": 0, "fusion_lat": 0.0, "fusion_lon": 0.0}, {"name": "0fe58b8f6d09413e550232e865ad6507", "is_disabled": 0, "lat": 38.93090733333333, "rental_uris": {"ios": "https://dc.lft.to/lastmile_qr_scan", "android": "https://dc.lft.to/lastmile_qr_scan"}, "bike_id": "0fe58b8f6d09413e550232e865ad6507", "type": "electric_scooter", "lon": -77.03441733333334, "is_reserved": 0, "fusion_lat": 0.0, "fusion_lon": 0.0}, {"name": "c453293ab2e41d52a8625a5f4689615b", "is_disabled": 0, "lat": 38.898393666666664, "rental_uris": {"ios": "https://dc.lft.to/lastmile_qr_scan", "android": "https://dc.lft.to/lastmile_qr_scan"}, "bike_id": "c453293ab2e41d52a8625a5f4689615b", "type": "electric_scooter", "lon": -77.02199266666666, "is_reserved": 0, "fusion_lat": 0.0, "fusion_lon": 0.0}, {"name": "c5eb31cfc22a410d52f4f8f75db287ca", "is_disabled": 0, "lat": 38.8715885, "rental_uris": {"ios": "https://dc.lft.to/lastmile_qr_scan", "android": "https://dc.lft.to/lastmile_qr_scan"}, "bike_id": "c5eb31cfc22a410d52f4f8f75db287ca", "type": "electric_bike", "lon": -77.1314605, "is_reserved": 0, "fusion_lat": 0.0, "fusion_lon": 0.0}, {"name": "bd722ccc9d1d5b6bd2af1f798f850403", "is_disabled": 0, "lat": 38.9012985, "rental_uris": {"ios": "https://dc.lft.to/lastmile_qr_scan", "android": "https://dc.lft.to/lastmile_qr_scan"}, "bike_id": "bd722ccc9d1d5b6bd2af1f798f850403", "type": "electric_scooter", "lon": -77.04354016666667, "is_reserved": 0, "fusion_lat": 0.0, "fusion_lon": 0.0}, {"name": "a1cacf7b2934e74c776d096ffc89ceb2", "is_disabled": 0, "lat": 38.875606166666664, "rental_uris": {"ios": "https://dc.lft.to/lastmile_qr_scan", "android": "https://dc.lft.to/lastmile_qr_scan"}, "bike_id": "a1cacf7b2934e74c776d096ffc89ceb2", "type": "electric_scooter", "lon": -77.00609016666667, "is_reserved": 0, "fusion_lat": 0.0, "fusion_lon": 0.0}, {"name": "97394123d623ff30bb0dc41c48641e7e", "is_disabled": 0, "lat": 38.925337166666665, "rental_uris": {"ios": "https://dc.lft.to/lastmile_qr_scan", "android": "https://dc.lft.to/lastmile_qr_scan"}, "bike_id": "97394123d623ff30bb0dc41c48641e7e", "type": "electric_bike", "lon": -77.05090083333333, "is_reserved": 0, "fusion_lat": 0.0, "fusion_lon": 0.0}, {"name": "2cbc5bef351b28d0bbfdb91a39e29cac", "is_disabled": 0, "lat": 38.892239333333336, "rental_uris": {"ios": "https://dc.lft.to/lastmile_qr_scan", "android": "https://dc.lft.to/lastmile_qr_scan"}, "bike_id": "2cbc5bef351b28d0bbfdb91a39e29cac", "type": "electric_scooter", "lon": -77.045091, "is_reserved": 0, "fusion_lat": 0.0, "fusion_lon": 0.0}, {"name": "9791313a8a132c3278f757b097797e4c", "is_disabled": 0, "lat": 38.898797333333334, "rental_uris": {"ios": "https://dc.lft.to/lastmile_qr_scan", "android": "https://dc.lft.to/lastmile_qr_scan"}, "bike_id": "9791313a8a132c3278f757b097797e4c", "type": "electric_scooter", "lon": -77.00922233333333, "is_reserved": 0, "fusion_lat": 0.0, "fusion_lon": 0.0}, {"name": "ee6e29e9b085999d2ea3f126c2d395aa", "is_disabled": 0, "lat": 38.84756983333333, "rental_uris": {"ios": "https://dc.lft.to/lastmile_qr_scan", "android": "https://dc.lft.to/lastmile_qr_scan"}, "bike_id": "ee6e29e9b085999d2ea3f126c2d395aa", "type": "electric_scooter", "lon": -76.995015, "is_reserved": 0, "fusion_lat": 0.0, "fusion_lon": 0.0}, {"name": "e618f556d3133cc1e0f14baf36607698", "is_disabled": 0, "lat": 38.906805, "rental_uris": {"ios": "https://dc.lft.to/lastmile_qr_scan", "android": "https://dc.lft.to/lastmile_qr_scan"}, "bike_id": "e618f556d3133cc1e0f14baf36607698", "type": "electric_scooter", "lon": -77.02686716666666, "is_reserved": 0, "fusion_lat": 0.0, "fusion_lon": 0.0}, {"name": "c8445769c208ccdc2e303c77ad5c8436", "is_disabled": 0, "lat": 38.92154633333333, "rental_uris": {"ios": "https://dc.lft.to/lastmile_qr_scan", "android": "https://dc.lft.to/lastmile_qr_scan"}, "bike_id": "c8445769c208ccdc2e303c77ad5c8436", "type": "electric_scooter", "lon": -76.99354883333334, "is_reserved": 0, "fusion_lat": 0.0, "fusion_lon": 0.0}, {"name": "bb970214f4a2cb97dd7fab2bc76add69", "is_disabled": 0, "lat": 38.92248583333333, "rental_uris": {"ios": "https://dc.lft.to/lastmile_qr_scan", "android": "https://dc.lft.to/lastmile_qr_scan"}, "bike_id": "bb970214f4a2cb97dd7fab2bc76add69", "type": "electric_scooter", "lon": -77.028097, "is_reserved": 0, "fusion_lat": 0.0, "fusion_lon": 0.0}, {"name": "1947e5447db353eb9fcfd23a8fed8af9", "is_disabled": 0, "lat": 38.901703499999996, "rental_uris": {"ios": "https://dc.lft.to/lastmile_qr_scan", "android": "https://dc.lft.to/lastmile_qr_scan"}, "bike_id": "1947e5447db353eb9fcfd23a8fed8af9", "type": "electric_scooter", "lon": -76.99263, "is_reserved": 0, "fusion_lat": 0.0, "fusion_lon": 0.0}, {"name": "e5c3724ba0ccfcf2b829e1db1819c5c7", "is_disabled": 0, "lat": 38.93574516666666, "rental_uris": {"ios": "https://dc.lft.to/lastmile_qr_scan", "android": "https://dc.lft.to/lastmile_qr_scan"}, "bike_id": "e5c3724ba0ccfcf2b829e1db1819c5c7", "type": "electric_scooter", "lon": -77.0365645, "is_reserved": 0, "fusion_lat": 0.0, "fusion_lon": 0.0}, {"name": "e20fc4bf9990e58feba8b54d8bc54175", "is_disabled": 0, "lat": 38.908687, "rental_uris": {"ios": "https://dc.lft.to/lastmile_qr_scan", "android": "https://dc.lft.to/lastmile_qr_scan"}, "bike_id": "e20fc4bf9990e58feba8b54d8bc54175", "type": "electric_scooter", "lon": -77.0716395, "is_reserved": 0, "fusion_lat": 0.0, "fusion_lon": 0.0}, {"name": "8a9beb241770dd934e455a746bae39d9", "is_disabled": 0, "lat": 38.9071525, "rental_uris": {"ios": "https://dc.lft.to/lastmile_qr_scan", "android": "https://dc.lft.to/lastmile_qr_scan"}, "bike_id": "8a9beb241770dd934e455a746bae39d9", "type": "electric_scooter", "lon": -77.02718033333333, "is_reserved": 0, "fusion_lat": 0.0, "fusion_lon": 0.0}, {"name": "2be157b08cdda36ab2affbc7e0310563", "is_disabled": 0, "lat": 38.8834465, "rental_uris": {"ios": "https://dc.lft.to/lastmile_qr_scan", "android": "https://dc.lft.to/lastmile_qr_scan"}, "bike_id": "2be157b08cdda36ab2affbc7e0310563", "type": "electric_scooter", "lon": -77.0317345, "is_reserved": 0, "fusion_lat": 0.0, "fusion_lon": 0.0}, {"name": "56f7ab8c26f5502ae9136136556e1615", "is_disabled": 0, "lat": 38.887538666666664, "rental_uris": {"ios": "https://dc.lft.to/lastmile_qr_scan", "android": "https://dc.lft.to/lastmile_qr_scan"}, "bike_id": "56f7ab8c26f5502ae9136136556e1615", "type": "electric_scooter", "lon": -76.99607683333333, "is_reserved": 0, "fusion_lat": 0.0, "fusion_lon": 0.0}, {"name": "972f8ed1e901f529acf1d30d008d1f85", "is_disabled": 0, "lat": 38.923168, "rental_uris": {"ios": "https://dc.lft.to/lastmile_qr_scan", "android": "https://dc.lft.to/lastmile_qr_scan"}, "bike_id": "972f8ed1e901f529acf1d30d008d1f85", "type": "electric_scooter", "lon": -77.03975183333333, "is_reserved": 0, "fusion_lat": 0.0, "fusion_lon": 0.0}, {"name": "5394dff6b7c1cb1ed874e894fbbe65a4", "is_disabled": 0, "lat": 38.94182466666667, "rental_uris": {"ios": "https://dc.lft.to/lastmile_qr_scan", "android": "https://dc.lft.to/lastmile_qr_scan"}, "bike_id": "5394dff6b7c1cb1ed874e894fbbe65a4", "type": "electric_scooter", "lon": -77.026158, "is_reserved": 0, "fusion_lat": 0.0, "fusion_lon": 0.0}, {"name": "25bd2bef884b106e1211382ed9a9668f", "is_disabled": 0, "lat": 38.92251433333333, "rental_uris": {"ios": "https://dc.lft.to/lastmile_qr_scan", "android": "https://dc.lft.to/lastmile_qr_scan"}, "bike_id": "25bd2bef884b106e1211382ed9a9668f", "type": "electric_scooter", "lon": -77.019504, "is_reserved": 0, "fusion_lat": 0.0, "fusion_lon": 0.0}, {"name": "20557a0e5c917387998a804ce83e3841", "is_disabled": 0, "lat": 38.90545616666667, "rental_uris": {"ios": "https://dc.lft.to/lastmile_qr_scan", "android": "https://dc.lft.to/lastmile_qr_scan"}, "bike_id": "20557a0e5c917387998a804ce83e3841", "type": "electric_scooter", "lon": -77.04664083333333, "is_reserved": 0, "fusion_lat": 0.0, "fusion_lon": 0.0}, {"name": "4472000c2201a2946b5648797d2d3f71", "is_disabled": 0, "lat": 38.91053483333334, "rental_uris": {"ios": "https://dc.lft.to/lastmile_qr_scan", "android": "https://dc.lft.to/lastmile_qr_scan"}, "bike_id": "4472000c2201a2946b5648797d2d3f71", "type": "electric_scooter", "lon": -77.04385166666667, "is_reserved": 0, "fusion_lat": 0.0, "fusion_lon": 0.0}, {"name": "5e8c0ef4a74ec9c8695ddcab02f32cca", "is_disabled": 0, "lat": 38.91408283333333, "rental_uris": {"ios": "https://dc.lft.to/lastmile_qr_scan", "android": "https://dc.lft.to/lastmile_qr_scan"}, "bike_id": "5e8c0ef4a74ec9c8695ddcab02f32cca", "type": "electric_scooter", "lon": -77.01559466666667, "is_reserved": 0, "fusion_lat": 0.0, "fusion_lon": 0.0}, {"name": "1944059a5eb9a70dd68dd085365fa21a", "is_disabled": 0, "lat": 38.90025683333333, "rental_uris": {"ios": "https://dc.lft.to/lastmile_qr_scan", "android": "https://dc.lft.to/lastmile_qr_scan"}, "bike_id": "1944059a5eb9a70dd68dd085365fa21a", "type": "electric_scooter", "lon": -77.04166116666667, "is_reserved": 0, "fusion_lat": 0.0, "fusion_lon": 0.0}, {"name": "2fc9776a87bb2273cee73670fe035c06", "is_disabled": 0, "lat": 38.918152166666665, "rental_uris": {"ios": "https://dc.lft.to/lastmile_qr_scan", "android": "https://dc.lft.to/lastmile_qr_scan"}, "bike_id": "2fc9776a87bb2273cee73670fe035c06", "type": "electric_scooter", "lon": -77.0325295, "is_reserved": 0, "fusion_lat": 0.0, "fusion_lon": 0.0}, {"name": "5135c5775147618abc64b9c8d300b379", "is_disabled": 0, "lat": 38.895916166666666, "rental_uris": {"ios": "https://dc.lft.to/lastmile_qr_scan", "android": "https://dc.lft.to/lastmile_qr_scan"}, "bike_id": "5135c5775147618abc64b9c8d300b379", "type": "electric_scooter", "lon": -77.04425933333333, "is_reserved": 0, "fusion_lat": 0.0, "fusion_lon": 0.0}, {"name": "633e9f82fcfacb512ddb8543a03834d1", "is_disabled": 0, "lat": 38.903803, "rental_uris": {"ios": "https://dc.lft.to/lastmile_qr_scan", "android": "https://dc.lft.to/lastmile_qr_scan"}, "bike_id": "633e9f82fcfacb512ddb8543a03834d1", "type": "electric_scooter", "lon": -77.040286, "is_reserved": 0, "fusion_lat": 0.0, "fusion_lon": 0.0}, {"name": "5fcf561a8b0a1fea59a990e4e16d5877", "is_disabled": 0, "lat": 38.91268383333333, "rental_uris": {"ios": "https://dc.lft.to/lastmile_qr_scan", "android": "https://dc.lft.to/lastmile_qr_scan"}, "bike_id": "5fcf561a8b0a1fea59a990e4e16d5877", "type": "electric_scooter", "lon": -77.03308766666666, "is_reserved": 0, "fusion_lat": 0.0, "fusion_lon": 0.0}, {"name": "ae3e784f9efd0c66b8039f42171f71f4", "is_disabled": 0, "lat": 38.844619, "rental_uris": {"ios": "https://dc.lft.to/lastmile_qr_scan", "android": "https://dc.lft.to/lastmile_qr_scan"}, "bike_id": "ae3e784f9efd0c66b8039f42171f71f4", "type": "electric_scooter", "lon": -76.98877083333333, "is_reserved": 0, "fusion_lat": 0.0, "fusion_lon": 0.0}, {"name": "e9b0094eee956eeeea095e93f302c33f", "is_disabled": 0, "lat": 38.8966155, "rental_uris": {"ios": "https://dc.lft.to/lastmile_qr_scan", "android": "https://dc.lft.to/lastmile_qr_scan"}, "bike_id": "e9b0094eee956eeeea095e93f302c33f", "type": "electric_scooter", "lon": -77.01176833333334, "is_reserved": 0, "fusion_lat": 0.0, "fusion_lon": 0.0}, {"name": "88a88fde499ef7909c0a0138258f5f67", "is_disabled": 0, "lat": 38.901097, "rental_uris": {"ios": "https://dc.lft.to/lastmile_qr_scan", "android": "https://dc.lft.to/lastmile_qr_scan"}, "bike_id": "88a88fde499ef7909c0a0138258f5f67", "type": "electric_scooter", "lon": -76.97422166666666, "is_reserved": 0, "fusion_lat": 0.0, "fusion_lon": 0.0}, {"name": "0754a0e4957228121812e8b0b50b977c", "is_disabled": 0, "lat": 38.922984666666665, "rental_uris": {"ios": "https://dc.lft.to/lastmile_qr_scan", "android": "https://dc.lft.to/lastmile_qr_scan"}, "bike_id": "0754a0e4957228121812e8b0b50b977c", "type": "electric_scooter", "lon": -77.0233145, "is_reserved": 0, "fusion_lat": 0.0, "fusion_lon": 0.0}, {"name": "d9ef08ec72f71e52d548562379e5ba89", "is_disabled": 0, "lat": 38.918304, "rental_uris": {"ios": "https://dc.lft.to/lastmile_qr_scan", "android": "https://dc.lft.to/lastmile_qr_scan"}, "bike_id": "d9ef08ec72f71e52d548562379e5ba89", "type": "electric_scooter", "lon": -77.02292933333334, "is_reserved": 0, "fusion_lat": 0.0, "fusion_lon": 0.0}, {"name": "2cda346821f115956f656add3d471a85", "is_disabled": 0, "lat": 38.926119, "rental_uris": {"ios": "https://dc.lft.to/lastmile_qr_scan", "android": "https://dc.lft.to/lastmile_qr_scan"}, "bike_id": "2cda346821f115956f656add3d471a85", "type": "electric_scooter", "lon": -77.075692, "is_reserved": 0, "fusion_lat": 0.0, "fusion_lon": 0.0}, {"name": "9452a601298f1aa8c657f73d46f13107", "is_disabled": 0, "lat": 38.9072495, "rental_uris": {"ios": "https://dc.lft.to/lastmile_qr_scan", "android": "https://dc.lft.to/lastmile_qr_scan"}, "bike_id": "9452a601298f1aa8c657f73d46f13107", "type": "electric_scooter", "lon": -77.0433235, "is_reserved": 0, "fusion_lat": 0.0, "fusion_lon": 0.0}, {"name": "fb0758cd44ef74fc96fdf7a809a615de", "is_disabled": 0, "lat": 38.932563, "rental_uris": {"ios": "https://dc.lft.to/lastmile_qr_scan", "android": "https://dc.lft.to/lastmile_qr_scan"}, "bike_id": "fb0758cd44ef74fc96fdf7a809a615de", "type": "electric_scooter", "lon": -77.032711, "is_reserved": 0, "fusion_lat": 0.0, "fusion_lon": 0.0}, {"name": "3bc43fffe528380738fd57fa1c8a5cab", "is_disabled": 0, "lat": 38.88742933333333, "rental_uris": {"ios": "https://dc.lft.to/lastmile_qr_scan", "android": "https://dc.lft.to/lastmile_qr_scan"}, "bike_id": "3bc43fffe528380738fd57fa1c8a5cab", "type": "electric_scooter", "lon": -77.02568233333334, "is_reserved": 0, "fusion_lat": 0.0, "fusion_lon": 0.0}, {"name": "a9dcf806b9e4c0ba76c12f9b4e6476b1", "is_disabled": 0, "lat": 38.93478666666667, "rental_uris": {"ios": "https://dc.lft.to/lastmile_qr_scan", "android": "https://dc.lft.to/lastmile_qr_scan"}, "bike_id": "a9dcf806b9e4c0ba76c12f9b4e6476b1", "type": "electric_scooter", "lon": -77.07270566666666, "is_reserved": 0, "fusion_lat": 0.0, "fusion_lon": 0.0}, {"name": "11cb8faa6dcf5022c060478366deef00", "is_disabled": 0, "lat": 38.89876533333333, "rental_uris": {"ios": "https://dc.lft.to/lastmile_qr_scan", "android": "https://dc.lft.to/lastmile_qr_scan"}, "bike_id": "11cb8faa6dcf5022c060478366deef00", "type": "electric_scooter", "lon": -76.93181716666666, "is_reserved": 0, "fusion_lat": 0.0, "fusion_lon": 0.0}, {"name": "2b85a78305de73d1922c97431d94e541", "is_disabled": 0, "lat": 38.909736, "rental_uris": {"ios": "https://dc.lft.to/lastmile_qr_scan", "android": "https://dc.lft.to/lastmile_qr_scan"}, "bike_id": "2b85a78305de73d1922c97431d94e541", "type": "electric_scooter", "lon": -77.03209483333333, "is_reserved": 0, "fusion_lat": 0.0, "fusion_lon": 0.0}, {"name": "0c5a17ab838a014d48eed748bf689d48", "is_disabled": 0, "lat": 38.920225333333335, "rental_uris": {"ios": "https://dc.lft.to/lastmile_qr_scan", "android": "https://dc.lft.to/lastmile_qr_scan"}, "bike_id": "0c5a17ab838a014d48eed748bf689d48", "type": "electric_scooter", "lon": -77.013193, "is_reserved": 0, "fusion_lat": 0.0, "fusion_lon": 0.0}, {"name": "9d935d6a1d24d5484876e7feef375886", "is_disabled": 0, "lat": 38.9030675, "rental_uris": {"ios": "https://dc.lft.to/lastmile_qr_scan", "android": "https://dc.lft.to/lastmile_qr_scan"}, "bike_id": "9d935d6a1d24d5484876e7feef375886", "type": "electric_scooter", "lon": -77.05813033333334, "is_reserved": 0, "fusion_lat": 0.0, "fusion_lon": 0.0}, {"name": "9071abd16fa87271daa38ef5831a733d", "is_disabled": 0, "lat": 38.88373683333333, "rental_uris": {"ios": "https://dc.lft.to/lastmile_qr_scan", "android": "https://dc.lft.to/lastmile_qr_scan"}, "bike_id": "9071abd16fa87271daa38ef5831a733d", "type": "electric_scooter", "lon": -76.9952145, "is_reserved": 0, "fusion_lat": 0.0, "fusion_lon": 0.0}, {"name": "1191d060a323995c49dca8661b4c55d8", "is_disabled": 0, "lat": 38.9005455, "rental_uris": {"ios": "https://dc.lft.to/lastmile_qr_scan", "android": "https://dc.lft.to/lastmile_qr_scan"}, "bike_id": "1191d060a323995c49dca8661b4c55d8", "type": "electric_scooter", "lon": -76.99940966666666, "is_reserved": 0, "fusion_lat": 0.0, "fusion_lon": 0.0}, {"name": "383ba08700c160639dddd91966e81400", "is_disabled": 0, "lat": 38.90790533333333, "rental_uris": {"ios": "https://dc.lft.to/lastmile_qr_scan", "android": "https://dc.lft.to/lastmile_qr_scan"}, "bike_id": "383ba08700c160639dddd91966e81400", "type": "electric_scooter", "lon": -77.034478, "is_reserved": 0, "fusion_lat": 0.0, "fusion_lon": 0.0}, {"name": "da3f9dd646d2e82c53c02e6567c4153c", "is_disabled": 0, "lat": 38.8924805, "rental_uris": {"ios": "https://dc.lft.to/lastmile_qr_scan", "android": "https://dc.lft.to/lastmile_qr_scan"}, "bike_id": "da3f9dd646d2e82c53c02e6567c4153c", "type": "electric_scooter", "lon": -77.03957883333334, "is_reserved": 0, "fusion_lat": 0.0, "fusion_lon": 0.0}, {"name": "88c3f9584297e76ed087a026487b43e3", "is_disabled": 0, "lat": 38.928818666666665, "rental_uris": {"ios": "https://dc.lft.to/lastmile_qr_scan", "android": "https://dc.lft.to/lastmile_qr_scan"}, "bike_id": "88c3f9584297e76ed087a026487b43e3", "type": "electric_scooter", "lon": -77.01362433333334, "is_reserved": 0, "fusion_lat": 0.0, "fusion_lon": 0.0}, {"name": "6c6386c39773773c2abff6bb51a35e47", "is_disabled": 0, "lat": 38.926188833333335, "rental_uris": {"ios": "https://dc.lft.to/lastmile_qr_scan", "android": "https://dc.lft.to/lastmile_qr_scan"}, "bike_id": "6c6386c39773773c2abff6bb51a35e47", "type": "electric_scooter", "lon": -77.03672783333333, "is_reserved": 0, "fusion_lat": 0.0, "fusion_lon": 0.0}, {"name": "1bd942a3bdbcb5ca591658ec2e940ffc", "is_disabled": 0, "lat": 38.911165833333335, "rental_uris": {"ios": "https://dc.lft.to/lastmile_qr_scan", "android": "https://dc.lft.to/lastmile_qr_scan"}, "bike_id": "1bd942a3bdbcb5ca591658ec2e940ffc", "type": "electric_scooter", "lon": -77.00761233333333, "is_reserved": 0, "fusion_lat": 0.0, "fusion_lon": 0.0}, {"name": "d835b3bc1438da3b962e4cae32ecb971", "is_disabled": 0, "lat": 38.90542583333333, "rental_uris": {"ios": "https://dc.lft.to/lastmile_qr_scan", "android": "https://dc.lft.to/lastmile_qr_scan"}, "bike_id": "d835b3bc1438da3b962e4cae32ecb971", "type": "electric_scooter", "lon": -77.00538783333333, "is_reserved": 0, "fusion_lat": 0.0, "fusion_lon": 0.0}, {"name": "9db5e23a8fe3bf42c556b83bda5b8823", "is_disabled": 0, "lat": 38.919530333333334, "rental_uris": {"ios": "https://dc.lft.to/lastmile_qr_scan", "android": "https://dc.lft.to/lastmile_qr_scan"}, "bike_id": "9db5e23a8fe3bf42c556b83bda5b8823", "type": "electric_scooter", "lon": -77.07843633333333, "is_reserved": 0, "fusion_lat": 0.0, "fusion_lon": 0.0}, {"name": "68f28555698af171ecb515c1755c5bf1", "is_disabled": 0, "lat": 38.923155, "rental_uris": {"ios": "https://dc.lft.to/lastmile_qr_scan", "android": "https://dc.lft.to/lastmile_qr_scan"}, "bike_id": "68f28555698af171ecb515c1755c5bf1", "type": "electric_scooter", "lon": -77.04027716666667, "is_reserved": 0, "fusion_lat": 0.0, "fusion_lon": 0.0}, {"name": "7f98319e87d2409944e0b4ae09fbf6c7", "is_disabled": 0, "lat": 38.87664316666667, "rental_uris": {"ios": "https://dc.lft.to/lastmile_qr_scan", "android": "https://dc.lft.to/lastmile_qr_scan"}, "bike_id": "7f98319e87d2409944e0b4ae09fbf6c7", "type": "electric_scooter", "lon": -77.00347366666666, "is_reserved": 0, "fusion_lat": 0.0, "fusion_lon": 0.0}, {"name": "8d19adf2a3ef39386c03ba1a8d00df9f", "is_disabled": 0, "lat": 38.873757833333336, "rental_uris": {"ios": "https://dc.lft.to/lastmile_qr_scan", "android": "https://dc.lft.to/lastmile_qr_scan"}, "bike_id": "8d19adf2a3ef39386c03ba1a8d00df9f", "type": "electric_scooter", "lon": -77.0013265, "is_reserved": 0, "fusion_lat": 0.0, "fusion_lon": 0.0}, {"name": "d7e707f05d74fdbb7ed5784da33e7775", "is_disabled": 0, "lat": 38.919177166666664, "rental_uris": {"ios": "https://dc.lft.to/lastmile_qr_scan", "android": "https://dc.lft.to/lastmile_qr_scan"}, "bike_id": "d7e707f05d74fdbb7ed5784da33e7775", "type": "electric_scooter", "lon": -77.031879, "is_reserved": 0, "fusion_lat": 0.0, "fusion_lon": 0.0}, {"name": "fcb7afbbaa08e71f4611a6fc60cb9ac6", "is_disabled": 0, "lat": 38.846138833333335, "rental_uris": {"ios": "https://dc.lft.to/lastmile_qr_scan", "android": "https://dc.lft.to/lastmile_qr_scan"}, "bike_id": "fcb7afbbaa08e71f4611a6fc60cb9ac6", "type": "electric_bike", "lon": -76.96912883333333, "is_reserved": 0, "fusion_lat": 0.0, "fusion_lon": 0.0}, {"name": "f79767d4eba8892389bbf3b82ea8da92", "is_disabled": 0, "lat": 38.918108333333336, "rental_uris": {"ios": "https://dc.lft.to/lastmile_qr_scan", "android": "https://dc.lft.to/lastmile_qr_scan"}, "bike_id": "f79767d4eba8892389bbf3b82ea8da92", "type": "electric_scooter", "lon": -77.03172833333333, "is_reserved": 0, "fusion_lat": 0.0, "fusion_lon": 0.0}, {"name": "7d64c2209cf9b1fe3ba4dc964b7cebed", "is_disabled": 0, "lat": 38.913060333333334, "rental_uris": {"ios": "https://dc.lft.to/lastmile_qr_scan", "android": "https://dc.lft.to/lastmile_qr_scan"}, "bike_id": "7d64c2209cf9b1fe3ba4dc964b7cebed", "type": "electric_scooter", "lon": -77.03176466666666, "is_reserved": 0, "fusion_lat": 0.0, "fusion_lon": 0.0}, {"name": "15fdaf0eb7ccef6e98357b6af60b305f", "is_disabled": 0, "lat": 38.89759216666667, "rental_uris": {"ios": "https://dc.lft.to/lastmile_qr_scan", "android": "https://dc.lft.to/lastmile_qr_scan"}, "bike_id": "15fdaf0eb7ccef6e98357b6af60b305f", "type": "electric_scooter", "lon": -77.033063, "is_reserved": 0, "fusion_lat": 0.0, "fusion_lon": 0.0}, {"name": "bd11f3a985c2684c969b81ce2b00855c", "is_disabled": 0, "lat": 38.89235566666667, "rental_uris": {"ios": "https://dc.lft.to/lastmile_qr_scan", "android": "https://dc.lft.to/lastmile_qr_scan"}, "bike_id": "bd11f3a985c2684c969b81ce2b00855c", "type": "electric_scooter", "lon": -77.02383066666667, "is_reserved": 0, "fusion_lat": 0.0, "fusion_lon": 0.0}, {"name": "6d2b9438d1e8b449adea34e68e85ec7e", "is_disabled": 0, "lat": 38.874696166666666, "rental_uris": {"ios": "https://dc.lft.to/lastmile_qr_scan", "android": "https://dc.lft.to/lastmile_qr_scan"}, "bike_id": "6d2b9438d1e8b449adea34e68e85ec7e", "type": "electric_scooter", "lon": -77.008627, "is_reserved": 0, "fusion_lat": 0.0, "fusion_lon": 0.0}, {"name": "12e30ef5fa6be6ca3e6e215b97fe7ab9", "is_disabled": 0, "lat": 38.90852616666667, "rental_uris": {"ios": "https://dc.lft.to/lastmile_qr_scan", "android": "https://dc.lft.to/lastmile_qr_scan"}, "bike_id": "12e30ef5fa6be6ca3e6e215b97fe7ab9", "type": "electric_scooter", "lon": -77.027236, "is_reserved": 0, "fusion_lat": 0.0, "fusion_lon": 0.0}, {"name": "146eb6c5907bc731889093536cbb10c4", "is_disabled": 0, "lat": 38.93913116666667, "rental_uris": {"ios": "https://dc.lft.to/lastmile_qr_scan", "android": "https://dc.lft.to/lastmile_qr_scan"}, "bike_id": "146eb6c5907bc731889093536cbb10c4", "type": "electric_scooter", "lon": -77.0246575, "is_reserved": 0, "fusion_lat": 0.0, "fusion_lon": 0.0}, {"name": "546ac930bf0314ae6b418366036bb26e", "is_disabled": 0, "lat": 38.96699, "rental_uris": {"ios": "https://dc.lft.to/lastmile_qr_scan", "android": "https://dc.lft.to/lastmile_qr_scan"}, "bike_id": "546ac930bf0314ae6b418366036bb26e", "type": "electric_bike", "lon": -77.02830066666667, "is_reserved": 0, "fusion_lat": 0.0, "fusion_lon": 0.0}, {"name": "0a2a569247ca269a078595f3ef01cfbb", "is_disabled": 0, "lat": 38.9125435, "rental_uris": {"ios": "https://dc.lft.to/lastmile_qr_scan", "android": "https://dc.lft.to/lastmile_qr_scan"}, "bike_id": "0a2a569247ca269a078595f3ef01cfbb", "type": "electric_scooter", "lon": -77.00775333333333, "is_reserved": 0, "fusion_lat": 0.0, "fusion_lon": 0.0}, {"name": "9d6c3b5d672214deb427c113142fe631", "is_disabled": 0, "lat": 38.90458616666667, "rental_uris": {"ios": "https://dc.lft.to/lastmile_qr_scan", "android": "https://dc.lft.to/lastmile_qr_scan"}, "bike_id": "9d6c3b5d672214deb427c113142fe631", "type": "electric_scooter", "lon": -77.0531785, "is_reserved": 0, "fusion_lat": 0.0, "fusion_lon": 0.0}, {"name": "c06a6e9b6cafc32d6ec2f04dcbf0a4f0", "is_disabled": 0, "lat": 38.909929, "rental_uris": {"ios": "https://dc.lft.to/lastmile_qr_scan", "android": "https://dc.lft.to/lastmile_qr_scan"}, "bike_id": "c06a6e9b6cafc32d6ec2f04dcbf0a4f0", "type": "electric_scooter", "lon": -76.99470683333334, "is_reserved": 0, "fusion_lat": 0.0, "fusion_lon": 0.0}, {"name": "1090379f92da6c6793698ad8dbdc7578", "is_disabled": 0, "lat": 38.90972983333333, "rental_uris": {"ios": "https://dc.lft.to/lastmile_qr_scan", "android": "https://dc.lft.to/lastmile_qr_scan"}, "bike_id": "1090379f92da6c6793698ad8dbdc7578", "type": "electric_scooter", "lon": -77.04242233333333, "is_reserved": 0, "fusion_lat": 0.0, "fusion_lon": 0.0}, {"name": "14d89fff7efd5b88f1f5169328e08d52", "is_disabled": 0, "lat": 38.9207245, "rental_uris": {"ios": "https://dc.lft.to/lastmile_qr_scan", "android": "https://dc.lft.to/lastmile_qr_scan"}, "bike_id": "14d89fff7efd5b88f1f5169328e08d52", "type": "electric_scooter", "lon": -77.022196, "is_reserved": 0, "fusion_lat": 0.0, "fusion_lon": 0.0}, {"name": "997a38fbbacaeef0a6da4ec12ca12c71", "is_disabled": 0, "lat": 38.916831333333334, "rental_uris": {"ios": "https://dc.lft.to/lastmile_qr_scan", "android": "https://dc.lft.to/lastmile_qr_scan"}, "bike_id": "997a38fbbacaeef0a6da4ec12ca12c71", "type": "electric_scooter", "lon": -77.02283716666666, "is_reserved": 0, "fusion_lat": 0.0, "fusion_lon": 0.0}, {"name": "428b7444842b39eb666be3c50875f933", "is_disabled": 0, "lat": 38.935385, "rental_uris": {"ios": "https://dc.lft.to/lastmile_qr_scan", "android": "https://dc.lft.to/lastmile_qr_scan"}, "bike_id": "428b7444842b39eb666be3c50875f933", "type": "electric_scooter", "lon": -77.05753333333334, "is_reserved": 0, "fusion_lat": 0.0, "fusion_lon": 0.0}, {"name": "9180e46ac5705bdc15c3ea2966cc15ce", "is_disabled": 0, "lat": 38.916338, "rental_uris": {"ios": "https://dc.lft.to/lastmile_qr_scan", "android": "https://dc.lft.to/lastmile_qr_scan"}, "bike_id": "9180e46ac5705bdc15c3ea2966cc15ce", "type": "electric_scooter", "lon": -77.03197666666667, "is_reserved": 0, "fusion_lat": 0.0, "fusion_lon": 0.0}, {"name": "2f1b699dc9d4917e23bbb6e74d2ec857", "is_disabled": 0, "lat": 38.905666333333336, "rental_uris": {"ios": "https://dc.lft.to/lastmile_qr_scan", "android": "https://dc.lft.to/lastmile_qr_scan"}, "bike_id": "2f1b699dc9d4917e23bbb6e74d2ec857", "type": "electric_scooter", "lon": -77.00904483333333, "is_reserved": 0, "fusion_lat": 0.0, "fusion_lon": 0.0}, {"name": "5242e02197c7e17b11d9931c2e5ea0e9", "is_disabled": 0, "lat": 38.91104383333333, "rental_uris": {"ios": "https://dc.lft.to/lastmile_qr_scan", "android": "https://dc.lft.to/lastmile_qr_scan"}, "bike_id": "5242e02197c7e17b11d9931c2e5ea0e9", "type": "electric_scooter", "lon": -77.04202683333334, "is_reserved": 0, "fusion_lat": 0.0, "fusion_lon": 0.0}, {"name": "820ea7c9a30204294ebf441033dceda1", "is_disabled": 0, "lat": 38.89074933333333, "rental_uris": {"ios": "https://dc.lft.to/lastmile_qr_scan", "android": "https://dc.lft.to/lastmile_qr_scan"}, "bike_id": "820ea7c9a30204294ebf441033dceda1", "type": "electric_scooter", "lon": -76.98827216666666, "is_reserved": 0, "fusion_lat": 0.0, "fusion_lon": 0.0}, {"name": "187e0c35be5d186dceccb9831472868b", "is_disabled": 0, "lat": 38.9083725, "rental_uris": {"ios": "https://dc.lft.to/lastmile_qr_scan", "android": "https://dc.lft.to/lastmile_qr_scan"}, "bike_id": "187e0c35be5d186dceccb9831472868b", "type": "electric_scooter", "lon": -77.0329745, "is_reserved": 0, "fusion_lat": 0.0, "fusion_lon": 0.0}, {"name": "88a80d398c56efc5ea7591b7a27c283e", "is_disabled": 0, "lat": 38.875779666666666, "rental_uris": {"ios": "https://dc.lft.to/lastmile_qr_scan", "android": "https://dc.lft.to/lastmile_qr_scan"}, "bike_id": "88a80d398c56efc5ea7591b7a27c283e", "type": "electric_bike", "lon": -77.23410016666666, "is_reserved": 0, "fusion_lat": 0.0, "fusion_lon": 0.0}, {"name": "0cbec63ce5fd8829a4465881c0967291", "is_disabled": 0, "lat": 38.8996695, "rental_uris": {"ios": "https://dc.lft.to/lastmile_qr_scan", "android": "https://dc.lft.to/lastmile_qr_scan"}, "bike_id": "0cbec63ce5fd8829a4465881c0967291", "type": "electric_scooter", "lon": -76.93761133333334, "is_reserved": 0, "fusion_lat": 0.0, "fusion_lon": 0.0}, {"name": "ff00a3a38ad4d28043aedee9bf594d5c", "is_disabled": 0, "lat": 38.923650333333335, "rental_uris": {"ios": "https://dc.lft.to/lastmile_qr_scan", "android": "https://dc.lft.to/lastmile_qr_scan"}, "bike_id": "ff00a3a38ad4d28043aedee9bf594d5c", "type": "electric_scooter", "lon": -77.05051166666667, "is_reserved": 0, "fusion_lat": 0.0, "fusion_lon": 0.0}, {"name": "3da42e31177fab392a1f11031d66c6a0", "is_disabled": 0, "lat": 38.90584333333334, "rental_uris": {"ios": "https://dc.lft.to/lastmile_qr_scan", "android": "https://dc.lft.to/lastmile_qr_scan"}, "bike_id": "3da42e31177fab392a1f11031d66c6a0", "type": "electric_scooter", "lon": -77.00257416666666, "is_reserved": 0, "fusion_lat": 0.0, "fusion_lon": 0.0}, {"name": "92b2cea399fa60edbaab3096a143e408", "is_disabled": 0, "lat": 38.89689033333333, "rental_uris": {"ios": "https://dc.lft.to/lastmile_qr_scan", "android": "https://dc.lft.to/lastmile_qr_scan"}, "bike_id": "92b2cea399fa60edbaab3096a143e408", "type": "electric_scooter", "lon": -76.93712783333334, "is_reserved": 0, "fusion_lat": 0.0, "fusion_lon": 0.0}, {"name": "c257b65e96cb1933aec765b8bc2cf36c", "is_disabled": 0, "lat": 38.899847666666666, "rental_uris": {"ios": "https://dc.lft.to/lastmile_qr_scan", "android": "https://dc.lft.to/lastmile_qr_scan"}, "bike_id": "c257b65e96cb1933aec765b8bc2cf36c", "type": "electric_scooter", "lon": -77.02742666666667, "is_reserved": 0, "fusion_lat": 0.0, "fusion_lon": 0.0}, {"name": "1765c05d429db3e20c32affcb37c653b", "is_disabled": 0, "lat": 38.95053583333333, "rental_uris": {"ios": "https://dc.lft.to/lastmile_qr_scan", "android": "https://dc.lft.to/lastmile_qr_scan"}, "bike_id": "1765c05d429db3e20c32affcb37c653b", "type": "electric_scooter", "lon": -77.08024216666666, "is_reserved": 0, "fusion_lat": 0.0, "fusion_lon": 0.0}, {"name": "bd89595c3ec99c4592ccc666f1370703", "is_disabled": 0, "lat": 38.918144833333336, "rental_uris": {"ios": "https://dc.lft.to/lastmile_qr_scan", "android": "https://dc.lft.to/lastmile_qr_scan"}, "bike_id": "bd89595c3ec99c4592ccc666f1370703", "type": "electric_scooter", "lon": -77.02699583333333, "is_reserved": 0, "fusion_lat": 0.0, "fusion_lon": 0.0}, {"name": "ac895d3243f8c79baeed89e7cefbba30", "is_disabled": 0, "lat": 38.92405883333333, "rental_uris": {"ios": "https://dc.lft.to/lastmile_qr_scan", "android": "https://dc.lft.to/lastmile_qr_scan"}, "bike_id": "ac895d3243f8c79baeed89e7cefbba30", "type": "electric_scooter", "lon": -77.05260483333333, "is_reserved": 0, "fusion_lat": 0.0, "fusion_lon": 0.0}, {"name": "454ea173f4b63ca60ade8d8537fc9c90", "is_disabled": 0, "lat": 38.91751516666667, "rental_uris": {"ios": "https://dc.lft.to/lastmile_qr_scan", "android": "https://dc.lft.to/lastmile_qr_scan"}, "bike_id": "454ea173f4b63ca60ade8d8537fc9c90", "type": "electric_scooter", "lon": -77.02595333333333, "is_reserved": 0, "fusion_lat": 0.0, "fusion_lon": 0.0}, {"name": "dbdc4c548a25f8adc76473425b4fc7f5", "is_disabled": 0, "lat": 38.916860666666665, "rental_uris": {"ios": "https://dc.lft.to/lastmile_qr_scan", "android": "https://dc.lft.to/lastmile_qr_scan"}, "bike_id": "dbdc4c548a25f8adc76473425b4fc7f5", "type": "electric_scooter", "lon": -77.02285483333333, "is_reserved": 0, "fusion_lat": 0.0, "fusion_lon": 0.0}, {"name": "c4b53c6ca4a0a511f66e8401123a358e", "is_disabled": 0, "lat": 38.887374666666666, "rental_uris": {"ios": "https://dc.lft.to/lastmile_qr_scan", "android": "https://dc.lft.to/lastmile_qr_scan"}, "bike_id": "c4b53c6ca4a0a511f66e8401123a358e", "type": "electric_scooter", "lon": -77.021344, "is_reserved": 0, "fusion_lat": 0.0, "fusion_lon": 0.0}, {"name": "fc2739f44310b5d7a2eb43c961f0e4f6", "is_disabled": 0, "lat": 38.907232666666665, "rental_uris": {"ios": "https://dc.lft.to/lastmile_qr_scan", "android": "https://dc.lft.to/lastmile_qr_scan"}, "bike_id": "fc2739f44310b5d7a2eb43c961f0e4f6", "type": "electric_scooter", "lon": -77.04558433333334, "is_reserved": 0, "fusion_lat": 0.0, "fusion_lon": 0.0}, {"name": "2121a8b865186bdf53060257ab2e5cd9", "is_disabled": 0, "lat": 38.90278683333333, "rental_uris": {"ios": "https://dc.lft.to/lastmile_qr_scan", "android": "https://dc.lft.to/lastmile_qr_scan"}, "bike_id": "2121a8b865186bdf53060257ab2e5cd9", "type": "electric_scooter", "lon": -77.0364365, "is_reserved": 0, "fusion_lat": 0.0, "fusion_lon": 0.0}, {"name": "4b971f2316f9435fd931c9b3fe0aba7d", "is_disabled": 0, "lat": 38.900248, "rental_uris": {"ios": "https://dc.lft.to/lastmile_qr_scan", "android": "https://dc.lft.to/lastmile_qr_scan"}, "bike_id": "4b971f2316f9435fd931c9b3fe0aba7d", "type": "electric_scooter", "lon": -76.998705, "is_reserved": 0, "fusion_lat": 0.0, "fusion_lon": 0.0}, {"name": "b4a733c03cae5acc611d5b84bd223090", "is_disabled": 0, "lat": 38.9177815, "rental_uris": {"ios": "https://dc.lft.to/lastmile_qr_scan", "android": "https://dc.lft.to/lastmile_qr_scan"}, "bike_id": "b4a733c03cae5acc611d5b84bd223090", "type": "electric_scooter", "lon": -77.035814, "is_reserved": 0, "fusion_lat": 0.0, "fusion_lon": 0.0}, {"name": "8fe77c88493c58966c20fed53d55c947", "is_disabled": 0, "lat": 38.91402266666667, "rental_uris": {"ios": "https://dc.lft.to/lastmile_qr_scan", "android": "https://dc.lft.to/lastmile_qr_scan"}, "bike_id": "8fe77c88493c58966c20fed53d55c947", "type": "electric_scooter", "lon": -77.07555233333333, "is_reserved": 0, "fusion_lat": 0.0, "fusion_lon": 0.0}, {"name": "fbcbc15bd2831c3eba4fe829c56aaba9", "is_disabled": 0, "lat": 38.8901095, "rental_uris": {"ios": "https://dc.lft.to/lastmile_qr_scan", "android": "https://dc.lft.to/lastmile_qr_scan"}, "bike_id": "fbcbc15bd2831c3eba4fe829c56aaba9", "type": "electric_scooter", "lon": -76.93700966666667, "is_reserved": 0, "fusion_lat": 0.0, "fusion_lon": 0.0}, {"name": "37b32f62f8bea62bd72211a05a932b64", "is_disabled": 0, "lat": 38.8994745, "rental_uris": {"ios": "https://dc.lft.to/lastmile_qr_scan", "android": "https://dc.lft.to/lastmile_qr_scan"}, "bike_id": "37b32f62f8bea62bd72211a05a932b64", "type": "electric_scooter", "lon": -77.0570655, "is_reserved": 0, "fusion_lat": 0.0, "fusion_lon": 0.0}, {"name": "1edd4e9c3f22d2aef645eb38d2aa7fb9", "is_disabled": 0, "lat": 38.915438333333334, "rental_uris": {"ios": "https://dc.lft.to/lastmile_qr_scan", "android": "https://dc.lft.to/lastmile_qr_scan"}, "bike_id": "1edd4e9c3f22d2aef645eb38d2aa7fb9", "type": "electric_scooter", "lon": -77.03204633333333, "is_reserved": 0, "fusion_lat": 0.0, "fusion_lon": 0.0}, {"name": "f4647dcd6e37c332f7d80f997384d021", "is_disabled": 0, "lat": 38.910554166666664, "rental_uris": {"ios": "https://dc.lft.to/lastmile_qr_scan", "android": "https://dc.lft.to/lastmile_qr_scan"}, "bike_id": "f4647dcd6e37c332f7d80f997384d021", "type": "electric_scooter", "lon": -77.04235333333334, "is_reserved": 0, "fusion_lat": 0.0, "fusion_lon": 0.0}, {"name": "e393b4365a69f408a83901268af6c08b", "is_disabled": 0, "lat": 38.9006575, "rental_uris": {"ios": "https://dc.lft.to/lastmile_qr_scan", "android": "https://dc.lft.to/lastmile_qr_scan"}, "bike_id": "e393b4365a69f408a83901268af6c08b", "type": "electric_scooter", "lon": -76.92746933333333, "is_reserved": 0, "fusion_lat": 0.0, "fusion_lon": 0.0}, {"name": "830b4a1e2438c3373420cb3ad7be14b1", "is_disabled": 0, "lat": 38.87532133333333, "rental_uris": {"ios": "https://dc.lft.to/lastmile_qr_scan", "android": "https://dc.lft.to/lastmile_qr_scan"}, "bike_id": "830b4a1e2438c3373420cb3ad7be14b1", "type": "electric_scooter", "lon": -77.0050735, "is_reserved": 0, "fusion_lat": 0.0, "fusion_lon": 0.0}, {"name": "c71418032ac965f8dc88894a1dbe2e2f", "is_disabled": 0, "lat": 38.961648, "rental_uris": {"ios": "https://dc.lft.to/lastmile_qr_scan", "android": "https://dc.lft.to/lastmile_qr_scan"}, "bike_id": "c71418032ac965f8dc88894a1dbe2e2f", "type": "electric_scooter", "lon": -77.02801233333334, "is_reserved": 0, "fusion_lat": 0.0, "fusion_lon": 0.0}, {"name": "2f11dc596c0baba858f3c47e438f7943", "is_disabled": 0, "lat": 38.887293, "rental_uris": {"ios": "https://dc.lft.to/lastmile_qr_scan", "android": "https://dc.lft.to/lastmile_qr_scan"}, "bike_id": "2f11dc596c0baba858f3c47e438f7943", "type": "electric_scooter", "lon": -77.0176725, "is_reserved": 0, "fusion_lat": 0.0, "fusion_lon": 0.0}, {"name": "6169a9242e25edb7c10f65eef5ac9ef5", "is_disabled": 0, "lat": 38.924624333333334, "rental_uris": {"ios": "https://dc.lft.to/lastmile_qr_scan", "android": "https://dc.lft.to/lastmile_qr_scan"}, "bike_id": "6169a9242e25edb7c10f65eef5ac9ef5", "type": "electric_scooter", "lon": -77.05233133333333, "is_reserved": 0, "fusion_lat": 0.0, "fusion_lon": 0.0}, {"name": "0ee1dd2b0a1f9512f6e743ce4e306531", "is_disabled": 0, "lat": 38.957510166666665, "rental_uris": {"ios": "https://dc.lft.to/lastmile_qr_scan", "android": "https://dc.lft.to/lastmile_qr_scan"}, "bike_id": "0ee1dd2b0a1f9512f6e743ce4e306531", "type": "electric_scooter", "lon": -77.0206, "is_reserved": 0, "fusion_lat": 0.0, "fusion_lon": 0.0}, {"name": "4751c4b11f88cae477b182e04ddf695f", "is_disabled": 0, "lat": 38.92361316666667, "rental_uris": {"ios": "https://dc.lft.to/lastmile_qr_scan", "android": "https://dc.lft.to/lastmile_qr_scan"}, "bike_id": "4751c4b11f88cae477b182e04ddf695f", "type": "electric_scooter", "lon": -77.05055283333333, "is_reserved": 0, "fusion_lat": 0.0, "fusion_lon": 0.0}, {"name": "23b9603bc1a565c925b4ebfc64d147e4", "is_disabled": 0, "lat": 38.9056305, "rental_uris": {"ios": "https://dc.lft.to/lastmile_qr_scan", "android": "https://dc.lft.to/lastmile_qr_scan"}, "bike_id": "23b9603bc1a565c925b4ebfc64d147e4", "type": "electric_scooter", "lon": -77.0059985, "is_reserved": 0, "fusion_lat": 0.0, "fusion_lon": 0.0}, {"name": "30ccf335be1e7298a53e96e0b9aaf3ed", "is_disabled": 0, "lat": 38.807631666666666, "rental_uris": {"ios": "https://dc.lft.to/lastmile_qr_scan", "android": "https://dc.lft.to/lastmile_qr_scan"}, "bike_id": "30ccf335be1e7298a53e96e0b9aaf3ed", "type": "electric_bike", "lon": -77.12987283333334, "is_reserved": 0, "fusion_lat": 0.0, "fusion_lon": 0.0}, {"name": "904df80f8b22d2d86fcbcc1f5ffe7401", "is_disabled": 0, "lat": 38.901223333333334, "rental_uris": {"ios": "https://dc.lft.to/lastmile_qr_scan", "android": "https://dc.lft.to/lastmile_qr_scan"}, "bike_id": "904df80f8b22d2d86fcbcc1f5ffe7401", "type": "electric_scooter", "lon": -77.0021505, "is_reserved": 0, "fusion_lat": 0.0, "fusion_lon": 0.0}, {"name": "25df7bfb8ab8c2a6c97c68850b6decb3", "is_disabled": 0, "lat": 38.92747766666667, "rental_uris": {"ios": "https://dc.lft.to/lastmile_qr_scan", "android": "https://dc.lft.to/lastmile_qr_scan"}, "bike_id": "25df7bfb8ab8c2a6c97c68850b6decb3", "type": "electric_scooter", "lon": -77.02421633333333, "is_reserved": 0, "fusion_lat": 0.0, "fusion_lon": 0.0}, {"name": "bf1295f77235f3d270c2b383c2d922e4", "is_disabled": 0, "lat": 38.8955285, "rental_uris": {"ios": "https://dc.lft.to/lastmile_qr_scan", "android": "https://dc.lft.to/lastmile_qr_scan"}, "bike_id": "bf1295f77235f3d270c2b383c2d922e4", "type": "electric_scooter", "lon": -76.948689, "is_reserved": 0, "fusion_lat": 0.0, "fusion_lon": 0.0}, {"name": "b0b28b05bd7257545efb67fffe5b0dd3", "is_disabled": 0, "lat": 38.89547483333333, "rental_uris": {"ios": "https://dc.lft.to/lastmile_qr_scan", "android": "https://dc.lft.to/lastmile_qr_scan"}, "bike_id": "b0b28b05bd7257545efb67fffe5b0dd3", "type": "electric_scooter", "lon": -76.9496345, "is_reserved": 0, "fusion_lat": 0.0, "fusion_lon": 0.0}, {"name": "21bd0d704a5644a8318a0c87fb686a3e", "is_disabled": 0, "lat": 38.916837666666666, "rental_uris": {"ios": "https://dc.lft.to/lastmile_qr_scan", "android": "https://dc.lft.to/lastmile_qr_scan"}, "bike_id": "21bd0d704a5644a8318a0c87fb686a3e", "type": "electric_scooter", "lon": -77.03770716666666, "is_reserved": 0, "fusion_lat": 0.0, "fusion_lon": 0.0}, {"name": "e5c28bcca3e4f000a65805ae1a378325", "is_disabled": 0, "lat": 38.93701016666667, "rental_uris": {"ios": "https://dc.lft.to/lastmile_qr_scan", "android": "https://dc.lft.to/lastmile_qr_scan"}, "bike_id": "e5c28bcca3e4f000a65805ae1a378325", "type": "electric_scooter", "lon": -77.05595066666666, "is_reserved": 0, "fusion_lat": 0.0, "fusion_lon": 0.0}, {"name": "8d6949d645cb56cddd6caa9a8269ad91", "is_disabled": 0, "lat": 38.8965965, "rental_uris": {"ios": "https://dc.lft.to/lastmile_qr_scan", "android": "https://dc.lft.to/lastmile_qr_scan"}, "bike_id": "8d6949d645cb56cddd6caa9a8269ad91", "type": "electric_scooter", "lon": -77.0335175, "is_reserved": 0, "fusion_lat": 0.0, "fusion_lon": 0.0}, {"name": "451a66e7c30b95c94ab7f9fd8ea38cc8", "is_disabled": 0, "lat": 38.919971833333335, "rental_uris": {"ios": "https://dc.lft.to/lastmile_qr_scan", "android": "https://dc.lft.to/lastmile_qr_scan"}, "bike_id": "451a66e7c30b95c94ab7f9fd8ea38cc8", "type": "electric_bike", "lon": -77.04760366666666, "is_reserved": 0, "fusion_lat": 0.0, "fusion_lon": 0.0}, {"name": "1bc42ce9d1b097fe759b4ab3a7ba1c5d", "is_disabled": 0, "lat": 38.887490666666665, "rental_uris": {"ios": "https://dc.lft.to/lastmile_qr_scan", "android": "https://dc.lft.to/lastmile_qr_scan"}, "bike_id": "1bc42ce9d1b097fe759b4ab3a7ba1c5d", "type": "electric_scooter", "lon": -77.01519066666667, "is_reserved": 0, "fusion_lat": 0.0, "fusion_lon": 0.0}, {"name": "f8656708722bfd781f4e7f94a05b90b0", "is_disabled": 0, "lat": 38.88530166666666, "rental_uris": {"ios": "https://dc.lft.to/lastmile_qr_scan", "android": "https://dc.lft.to/lastmile_qr_scan"}, "bike_id": "f8656708722bfd781f4e7f94a05b90b0", "type": "electric_scooter", "lon": -76.98268783333333, "is_reserved": 0, "fusion_lat": 0.0, "fusion_lon": 0.0}, {"name": "804e72ce256de577c4199a4b3683a7f9", "is_disabled": 0, "lat": 38.887661666666666, "rental_uris": {"ios": "https://dc.lft.to/lastmile_qr_scan", "android": "https://dc.lft.to/lastmile_qr_scan"}, "bike_id": "804e72ce256de577c4199a4b3683a7f9", "type": "electric_scooter", "lon": -77.02370916666666, "is_reserved": 0, "fusion_lat": 0.0, "fusion_lon": 0.0}, {"name": "d2fcbc261035077f9b5267b5185c80bc", "is_disabled": 0, "lat": 38.95552033333333, "rental_uris": {"ios": "https://dc.lft.to/lastmile_qr_scan", "android": "https://dc.lft.to/lastmile_qr_scan"}, "bike_id": "d2fcbc261035077f9b5267b5185c80bc", "type": "electric_bike", "lon": -76.99975316666666, "is_reserved": 0, "fusion_lat": 0.0, "fusion_lon": 0.0}, {"name": "8117eba3248d954bd7eb0198f58c8be4", "is_disabled": 0, "lat": 38.89196866666666, "rental_uris": {"ios": "https://dc.lft.to/lastmile_qr_scan", "android": "https://dc.lft.to/lastmile_qr_scan"}, "bike_id": "8117eba3248d954bd7eb0198f58c8be4", "type": "electric_scooter", "lon": -77.02218866666666, "is_reserved": 0, "fusion_lat": 0.0, "fusion_lon": 0.0}, {"name": "aca2e913f2b716502a11bc22f099075b", "is_disabled": 0, "lat": 38.8873145, "rental_uris": {"ios": "https://dc.lft.to/lastmile_qr_scan", "android": "https://dc.lft.to/lastmile_qr_scan"}, "bike_id": "aca2e913f2b716502a11bc22f099075b", "type": "electric_scooter", "lon": -77.03219416666667, "is_reserved": 0, "fusion_lat": 0.0, "fusion_lon": 0.0}, {"name": "c6cbd304df0db2b50c937493ee801865", "is_disabled": 0, "lat": 38.9441105, "rental_uris": {"ios": "https://dc.lft.to/lastmile_qr_scan", "android": "https://dc.lft.to/lastmile_qr_scan"}, "bike_id": "c6cbd304df0db2b50c937493ee801865", "type": "electric_bike", "lon": -77.05513383333333, "is_reserved": 0, "fusion_lat": 0.0, "fusion_lon": 0.0}, {"name": "1bd6020000209fd95d14c055a230a2d9", "is_disabled": 0, "lat": 38.91546666666667, "rental_uris": {"ios": "https://dc.lft.to/lastmile_qr_scan", "android": "https://dc.lft.to/lastmile_qr_scan"}, "bike_id": "1bd6020000209fd95d14c055a230a2d9", "type": "electric_scooter", "lon": -77.03857016666667, "is_reserved": 0, "fusion_lat": 0.0, "fusion_lon": 0.0}, {"name": "74b9ad3cf845c7ae7e9eef59592aef33", "is_disabled": 0, "lat": 38.88170916666667, "rental_uris": {"ios": "https://dc.lft.to/lastmile_qr_scan", "android": "https://dc.lft.to/lastmile_qr_scan"}, "bike_id": "74b9ad3cf845c7ae7e9eef59592aef33", "type": "electric_scooter", "lon": -77.02778683333334, "is_reserved": 0, "fusion_lat": 0.0, "fusion_lon": 0.0}, {"name": "00da3bc338084788bc10d1805bc0799f", "is_disabled": 0, "lat": 38.87370383333333, "rental_uris": {"ios": "https://dc.lft.to/lastmile_qr_scan", "android": "https://dc.lft.to/lastmile_qr_scan"}, "bike_id": "00da3bc338084788bc10d1805bc0799f", "type": "electric_scooter", "lon": -77.001323, "is_reserved": 0, "fusion_lat": 0.0, "fusion_lon": 0.0}, {"name": "ad9938610dbe4ff2d042d516c7681af8", "is_disabled": 0, "lat": 38.90571833333333, "rental_uris": {"ios": "https://dc.lft.to/lastmile_qr_scan", "android": "https://dc.lft.to/lastmile_qr_scan"}, "bike_id": "ad9938610dbe4ff2d042d516c7681af8", "type": "electric_scooter", "lon": -77.02210583333333, "is_reserved": 0, "fusion_lat": 0.0, "fusion_lon": 0.0}, {"name": "a6ad558ff2d47d5c4650f0739278c4a2", "is_disabled": 0, "lat": 38.90009583333333, "rental_uris": {"ios": "https://dc.lft.to/lastmile_qr_scan", "android": "https://dc.lft.to/lastmile_qr_scan"}, "bike_id": "a6ad558ff2d47d5c4650f0739278c4a2", "type": "electric_scooter", "lon": -77.02142683333334, "is_reserved": 0, "fusion_lat": 0.0, "fusion_lon": 0.0}, {"name": "207dc9c434e07d02f06e8cd9e57588d5", "is_disabled": 0, "lat": 38.904148, "rental_uris": {"ios": "https://dc.lft.to/lastmile_qr_scan", "android": "https://dc.lft.to/lastmile_qr_scan"}, "bike_id": "207dc9c434e07d02f06e8cd9e57588d5", "type": "electric_bike", "lon": -77.02379966666666, "is_reserved": 0, "fusion_lat": 0.0, "fusion_lon": 0.0}, {"name": "8c69a7cbc8eae9d6f7e31a3845b7429f", "is_disabled": 0, "lat": 38.873774, "rental_uris": {"ios": "https://dc.lft.to/lastmile_qr_scan", "android": "https://dc.lft.to/lastmile_qr_scan"}, "bike_id": "8c69a7cbc8eae9d6f7e31a3845b7429f", "type": "electric_scooter", "lon": -77.00164816666667, "is_reserved": 0, "fusion_lat": 0.0, "fusion_lon": 0.0}, {"name": "191fe52ea3f3a25834f9a76894ce3f07", "is_disabled": 0, "lat": 38.89561616666667, "rental_uris": {"ios": "https://dc.lft.to/lastmile_qr_scan", "android": "https://dc.lft.to/lastmile_qr_scan"}, "bike_id": "191fe52ea3f3a25834f9a76894ce3f07", "type": "electric_bike", "lon": -77.12731083333334, "is_reserved": 0, "fusion_lat": 0.0, "fusion_lon": 0.0}, {"name": "e89085b4f7f49083a1f79208c38cb556", "is_disabled": 0, "lat": 38.902058833333335, "rental_uris": {"ios": "https://dc.lft.to/lastmile_qr_scan", "android": "https://dc.lft.to/lastmile_qr_scan"}, "bike_id": "e89085b4f7f49083a1f79208c38cb556", "type": "electric_scooter", "lon": -77.02215216666667, "is_reserved": 0, "fusion_lat": 0.0, "fusion_lon": 0.0}, {"name": "00c858ad77437e76c98f182b5da57aad", "is_disabled": 0, "lat": 38.912640333333336, "rental_uris": {"ios": "https://dc.lft.to/lastmile_qr_scan", "android": "https://dc.lft.to/lastmile_qr_scan"}, "bike_id": "00c858ad77437e76c98f182b5da57aad", "type": "electric_scooter", "lon": -77.03058016666667, "is_reserved": 0, "fusion_lat": 0.0, "fusion_lon": 0.0}, {"name": "16396780a7b9e5924fa1adc5b54953c8", "is_disabled": 0, "lat": 38.955542666666666, "rental_uris": {"ios": "https://dc.lft.to/lastmile_qr_scan", "android": "https://dc.lft.to/lastmile_qr_scan"}, "bike_id": "16396780a7b9e5924fa1adc5b54953c8", "type": "electric_bike", "lon": -77.02444033333333, "is_reserved": 0, "fusion_lat": 0.0, "fusion_lon": 0.0}, {"name": "c9ff23b6c0edb0bae9b00b806fbe01ca", "is_disabled": 0, "lat": 38.905572666666664, "rental_uris": {"ios": "https://dc.lft.to/lastmile_qr_scan", "android": "https://dc.lft.to/lastmile_qr_scan"}, "bike_id": "c9ff23b6c0edb0bae9b00b806fbe01ca", "type": "electric_scooter", "lon": -77.01687533333333, "is_reserved": 0, "fusion_lat": 0.0, "fusion_lon": 0.0}, {"name": "3433d99074983895143cc57345ea973b", "is_disabled": 0, "lat": 39.01415983333333, "rental_uris": {"ios": "https://dc.lft.to/lastmile_qr_scan", "android": "https://dc.lft.to/lastmile_qr_scan"}, "bike_id": "3433d99074983895143cc57345ea973b", "type": "electric_bike", "lon": -77.04497933333333, "is_reserved": 0, "fusion_lat": 0.0, "fusion_lon": 0.0}, {"name": "2be7da28fad1e62c48eb404af9260867", "is_disabled": 0, "lat": 38.878321666666665, "rental_uris": {"ios": "https://dc.lft.to/lastmile_qr_scan", "android": "https://dc.lft.to/lastmile_qr_scan"}, "bike_id": "2be7da28fad1e62c48eb404af9260867", "type": "electric_scooter", "lon": -76.96320683333333, "is_reserved": 0, "fusion_lat": 0.0, "fusion_lon": 0.0}, {"name": "4fae9c30b2b19f06531ec27477b5a821", "is_disabled": 0, "lat": 38.886983, "rental_uris": {"ios": "https://dc.lft.to/lastmile_qr_scan", "android": "https://dc.lft.to/lastmile_qr_scan"}, "bike_id": "4fae9c30b2b19f06531ec27477b5a821", "type": "electric_bike", "lon": -76.99683283333333, "is_reserved": 0, "fusion_lat": 0.0, "fusion_lon": 0.0}, {"name": "cb2a57ab4ea95d532099e29735b794fe", "is_disabled": 0, "lat": 38.94091916666667, "rental_uris": {"ios": "https://dc.lft.to/lastmile_qr_scan", "android": "https://dc.lft.to/lastmile_qr_scan"}, "bike_id": "cb2a57ab4ea95d532099e29735b794fe", "type": "electric_scooter", "lon": -77.02641633333333, "is_reserved": 0, "fusion_lat": 0.0, "fusion_lon": 0.0}, {"name": "3c400f477d62d700a3d9b46438715e73", "is_disabled": 0, "lat": 38.90512016666667, "rental_uris": {"ios": "https://dc.lft.to/lastmile_qr_scan", "android": "https://dc.lft.to/lastmile_qr_scan"}, "bike_id": "3c400f477d62d700a3d9b46438715e73", "type": "electric_scooter", "lon": -77.05138, "is_reserved": 0, "fusion_lat": 0.0, "fusion_lon": 0.0}, {"name": "3df0e8934d42ebf0087087a7e534d4c0", "is_disabled": 0, "lat": 38.924405, "rental_uris": {"ios": "https://dc.lft.to/lastmile_qr_scan", "android": "https://dc.lft.to/lastmile_qr_scan"}, "bike_id": "3df0e8934d42ebf0087087a7e534d4c0", "type": "electric_scooter", "lon": -77.022377, "is_reserved": 0, "fusion_lat": 0.0, "fusion_lon": 0.0}, {"name": "60eb25aaf23c384bd5e99fae880849a4", "is_disabled": 0, "lat": 38.9418715, "rental_uris": {"ios": "https://dc.lft.to/lastmile_qr_scan", "android": "https://dc.lft.to/lastmile_qr_scan"}, "bike_id": "60eb25aaf23c384bd5e99fae880849a4", "type": "electric_scooter", "lon": -77.02492383333333, "is_reserved": 0, "fusion_lat": 0.0, "fusion_lon": 0.0}, {"name": "e45b42599da6f85d97c2ff9f2bc56a9f", "is_disabled": 0, "lat": 38.917132333333335, "rental_uris": {"ios": "https://dc.lft.to/lastmile_qr_scan", "android": "https://dc.lft.to/lastmile_qr_scan"}, "bike_id": "e45b42599da6f85d97c2ff9f2bc56a9f", "type": "electric_scooter", "lon": -77.0240405, "is_reserved": 0, "fusion_lat": 0.0, "fusion_lon": 0.0}, {"name": "2ef6ada8be0d9f0b91fc6597a659fc44", "is_disabled": 0, "lat": 38.87388716666667, "rental_uris": {"ios": "https://dc.lft.to/lastmile_qr_scan", "android": "https://dc.lft.to/lastmile_qr_scan"}, "bike_id": "2ef6ada8be0d9f0b91fc6597a659fc44", "type": "electric_scooter", "lon": -77.00036166666666, "is_reserved": 0, "fusion_lat": 0.0, "fusion_lon": 0.0}, {"name": "faffad15ca5ea259a44e4ca4ae24ab16", "is_disabled": 0, "lat": 38.920483833333336, "rental_uris": {"ios": "https://dc.lft.to/lastmile_qr_scan", "android": "https://dc.lft.to/lastmile_qr_scan"}, "bike_id": "faffad15ca5ea259a44e4ca4ae24ab16", "type": "electric_scooter", "lon": -77.03391966666666, "is_reserved": 0, "fusion_lat": 0.0, "fusion_lon": 0.0}, {"name": "6a4eaa0744fea7d08d9d4366815f6ac0", "is_disabled": 0, "lat": 38.91263433333334, "rental_uris": {"ios": "https://dc.lft.to/lastmile_qr_scan", "android": "https://dc.lft.to/lastmile_qr_scan"}, "bike_id": "6a4eaa0744fea7d08d9d4366815f6ac0", "type": "electric_scooter", "lon": -77.03586716666666, "is_reserved": 0, "fusion_lat": 0.0, "fusion_lon": 0.0}, {"name": "b1a84656d74ce827843b37ec75398f9f", "is_disabled": 0, "lat": 38.89625016666667, "rental_uris": {"ios": "https://dc.lft.to/lastmile_qr_scan", "android": "https://dc.lft.to/lastmile_qr_scan"}, "bike_id": "b1a84656d74ce827843b37ec75398f9f", "type": "electric_scooter", "lon": -77.045005, "is_reserved": 0, "fusion_lat": 0.0, "fusion_lon": 0.0}, {"name": "ed599f8f8771711db4395d0badb0a453", "is_disabled": 0, "lat": 38.907417833333334, "rental_uris": {"ios": "https://dc.lft.to/lastmile_qr_scan", "android": "https://dc.lft.to/lastmile_qr_scan"}, "bike_id": "ed599f8f8771711db4395d0badb0a453", "type": "electric_scooter", "lon": -77.02381433333333, "is_reserved": 0, "fusion_lat": 0.0, "fusion_lon": 0.0}, {"name": "e322744a8cc1fd36fda67486f2812ff8", "is_disabled": 0, "lat": 38.919148166666666, "rental_uris": {"ios": "https://dc.lft.to/lastmile_qr_scan", "android": "https://dc.lft.to/lastmile_qr_scan"}, "bike_id": "e322744a8cc1fd36fda67486f2812ff8", "type": "electric_scooter", "lon": -77.03096533333333, "is_reserved": 0, "fusion_lat": 0.0, "fusion_lon": 0.0}, {"name": "a1a34f12349446f504221f832b7778d3", "is_disabled": 0, "lat": 38.93057533333333, "rental_uris": {"ios": "https://dc.lft.to/lastmile_qr_scan", "android": "https://dc.lft.to/lastmile_qr_scan"}, "bike_id": "a1a34f12349446f504221f832b7778d3", "type": "electric_scooter", "lon": -77.03218033333333, "is_reserved": 0, "fusion_lat": 0.0, "fusion_lon": 0.0}, {"name": "280916c2f6bdf7d1c5b8a4d7ba8260a8", "is_disabled": 0, "lat": 38.90695633333333, "rental_uris": {"ios": "https://dc.lft.to/lastmile_qr_scan", "android": "https://dc.lft.to/lastmile_qr_scan"}, "bike_id": "280916c2f6bdf7d1c5b8a4d7ba8260a8", "type": "electric_scooter", "lon": -77.041527, "is_reserved": 0, "fusion_lat": 0.0, "fusion_lon": 0.0}, {"name": "c3ed92efbf994d56e0ba8e1ce92a1e68", "is_disabled": 0, "lat": 38.89732433333333, "rental_uris": {"ios": "https://dc.lft.to/lastmile_qr_scan", "android": "https://dc.lft.to/lastmile_qr_scan"}, "bike_id": "c3ed92efbf994d56e0ba8e1ce92a1e68", "type": "electric_scooter", "lon": -77.04395683333334, "is_reserved": 0, "fusion_lat": 0.0, "fusion_lon": 0.0}, {"name": "95bb25fe8e56015bfc3aac4acd9e2b45", "is_disabled": 0, "lat": 38.818641666666664, "rental_uris": {"ios": "https://dc.lft.to/lastmile_qr_scan", "android": "https://dc.lft.to/lastmile_qr_scan"}, "bike_id": "95bb25fe8e56015bfc3aac4acd9e2b45", "type": "electric_bike", "lon": -77.12702033333333, "is_reserved": 0, "fusion_lat": 0.0, "fusion_lon": 0.0}, {"name": "5dc2425c3191405f4f0ada5005f078b4", "is_disabled": 0, "lat": 38.9266465, "rental_uris": {"ios": "https://dc.lft.to/lastmile_qr_scan", "android": "https://dc.lft.to/lastmile_qr_scan"}, "bike_id": "5dc2425c3191405f4f0ada5005f078b4", "type": "electric_scooter", "lon": -77.053467, "is_reserved": 0, "fusion_lat": 0.0, "fusion_lon": 0.0}, {"name": "d738b69b003da189c48fd4dad321fba5", "is_disabled": 0, "lat": 38.905129, "rental_uris": {"ios": "https://dc.lft.to/lastmile_qr_scan", "android": "https://dc.lft.to/lastmile_qr_scan"}, "bike_id": "d738b69b003da189c48fd4dad321fba5", "type": "electric_scooter", "lon": -77.0635345, "is_reserved": 0, "fusion_lat": 0.0, "fusion_lon": 0.0}, {"name": "2db84fda8ad268cb7846809dd7a2c186", "is_disabled": 0, "lat": 38.905783, "rental_uris": {"ios": "https://dc.lft.to/lastmile_qr_scan", "android": "https://dc.lft.to/lastmile_qr_scan"}, "bike_id": "2db84fda8ad268cb7846809dd7a2c186", "type": "electric_scooter", "lon": -77.00889566666666, "is_reserved": 0, "fusion_lat": 0.0, "fusion_lon": 0.0}, {"name": "9d5ea931cf197cb79be06c5b9c4e8947", "is_disabled": 0, "lat": 38.9148965, "rental_uris": {"ios": "https://dc.lft.to/lastmile_qr_scan", "android": "https://dc.lft.to/lastmile_qr_scan"}, "bike_id": "9d5ea931cf197cb79be06c5b9c4e8947", "type": "electric_scooter", "lon": -77.0424805, "is_reserved": 0, "fusion_lat": 0.0, "fusion_lon": 0.0}, {"name": "c018bf68a9bd74cdbb9849f2a3018513", "is_disabled": 0, "lat": 38.8922195, "rental_uris": {"ios": "https://dc.lft.to/lastmile_qr_scan", "android": "https://dc.lft.to/lastmile_qr_scan"}, "bike_id": "c018bf68a9bd74cdbb9849f2a3018513", "type": "electric_scooter", "lon": -77.03983666666667, "is_reserved": 0, "fusion_lat": 0.0, "fusion_lon": 0.0}, {"name": "37c918b78a65bbe01611b0275aa88ecf", "is_disabled": 0, "lat": 38.90560983333334, "rental_uris": {"ios": "https://dc.lft.to/lastmile_qr_scan", "android": "https://dc.lft.to/lastmile_qr_scan"}, "bike_id": "37c918b78a65bbe01611b0275aa88ecf", "type": "electric_scooter", "lon": -77.00572583333333, "is_reserved": 0, "fusion_lat": 0.0, "fusion_lon": 0.0}, {"name": "0b3f7dc4d00b15dfa8a9f7ba623e72d3", "is_disabled": 0, "lat": 38.898950166666665, "rental_uris": {"ios": "https://dc.lft.to/lastmile_qr_scan", "android": "https://dc.lft.to/lastmile_qr_scan"}, "bike_id": "0b3f7dc4d00b15dfa8a9f7ba623e72d3", "type": "electric_scooter", "lon": -76.98066, "is_reserved": 0, "fusion_lat": 0.0, "fusion_lon": 0.0}, {"name": "639a9917accef978a7932cf5a729b47a", "is_disabled": 0, "lat": 39.070547, "rental_uris": {"ios": "https://dc.lft.to/lastmile_qr_scan", "android": "https://dc.lft.to/lastmile_qr_scan"}, "bike_id": "639a9917accef978a7932cf5a729b47a", "type": "electric_bike", "lon": -77.1148235, "is_reserved": 0, "fusion_lat": 0.0, "fusion_lon": 0.0}, {"name": "e362d64f1e6cd99c3870b0e5e6677b33", "is_disabled": 0, "lat": 38.92469833333333, "rental_uris": {"ios": "https://dc.lft.to/lastmile_qr_scan", "android": "https://dc.lft.to/lastmile_qr_scan"}, "bike_id": "e362d64f1e6cd99c3870b0e5e6677b33", "type": "electric_scooter", "lon": -77.022184, "is_reserved": 0, "fusion_lat": 0.0, "fusion_lon": 0.0}, {"name": "f3063973d1cbb7e26e3011fb5bdc5046", "is_disabled": 0, "lat": 38.932464333333336, "rental_uris": {"ios": "https://dc.lft.to/lastmile_qr_scan", "android": "https://dc.lft.to/lastmile_qr_scan"}, "bike_id": "f3063973d1cbb7e26e3011fb5bdc5046", "type": "electric_scooter", "lon": -76.99526516666667, "is_reserved": 0, "fusion_lat": 0.0, "fusion_lon": 0.0}, {"name": "b2d5416561da8addcbf41fb89ddb6a04", "is_disabled": 0, "lat": 38.915799, "rental_uris": {"ios": "https://dc.lft.to/lastmile_qr_scan", "android": "https://dc.lft.to/lastmile_qr_scan"}, "bike_id": "b2d5416561da8addcbf41fb89ddb6a04", "type": "electric_scooter", "lon": -77.01234616666666, "is_reserved": 0, "fusion_lat": 0.0, "fusion_lon": 0.0}, {"name": "eb8ccfd813cfe020cfdd36d9f694b17e", "is_disabled": 0, "lat": 38.912415333333335, "rental_uris": {"ios": "https://dc.lft.to/lastmile_qr_scan", "android": "https://dc.lft.to/lastmile_qr_scan"}, "bike_id": "eb8ccfd813cfe020cfdd36d9f694b17e", "type": "electric_scooter", "lon": -77.04885366666667, "is_reserved": 0, "fusion_lat": 0.0, "fusion_lon": 0.0}, {"name": "cdf42f23d7a5df06962be0544870bc5d", "is_disabled": 0, "lat": 38.89951833333333, "rental_uris": {"ios": "https://dc.lft.to/lastmile_qr_scan", "android": "https://dc.lft.to/lastmile_qr_scan"}, "bike_id": "cdf42f23d7a5df06962be0544870bc5d", "type": "electric_scooter", "lon": -77.01392183333333, "is_reserved": 0, "fusion_lat": 0.0, "fusion_lon": 0.0}, {"name": "984699859c703222edd17895d2c787c8", "is_disabled": 0, "lat": 38.8874345, "rental_uris": {"ios": "https://dc.lft.to/lastmile_qr_scan", "android": "https://dc.lft.to/lastmile_qr_scan"}, "bike_id": "984699859c703222edd17895d2c787c8", "type": "electric_scooter", "lon": -76.99848916666667, "is_reserved": 0, "fusion_lat": 0.0, "fusion_lon": 0.0}, {"name": "a2410350277a6ce6176d38aa9ed949ef", "is_disabled": 0, "lat": 38.90586866666666, "rental_uris": {"ios": "https://dc.lft.to/lastmile_qr_scan", "android": "https://dc.lft.to/lastmile_qr_scan"}, "bike_id": "a2410350277a6ce6176d38aa9ed949ef", "type": "electric_scooter", "lon": -77.01616366666667, "is_reserved": 0, "fusion_lat": 0.0, "fusion_lon": 0.0}, {"name": "9372203ce03157dd42ee92cb813a2939", "is_disabled": 0, "lat": 38.90173933333333, "rental_uris": {"ios": "https://dc.lft.to/lastmile_qr_scan", "android": "https://dc.lft.to/lastmile_qr_scan"}, "bike_id": "9372203ce03157dd42ee92cb813a2939", "type": "electric_scooter", "lon": -76.98067416666666, "is_reserved": 0, "fusion_lat": 0.0, "fusion_lon": 0.0}, {"name": "aa69d60ea081382d653d555ac77a4c43", "is_disabled": 0, "lat": 38.929974, "rental_uris": {"ios": "https://dc.lft.to/lastmile_qr_scan", "android": "https://dc.lft.to/lastmile_qr_scan"}, "bike_id": "aa69d60ea081382d653d555ac77a4c43", "type": "electric_scooter", "lon": -77.03800783333334, "is_reserved": 0, "fusion_lat": 0.0, "fusion_lon": 0.0}, {"name": "e0f8a488cbcb738a3e5175c7bae16da6", "is_disabled": 0, "lat": 38.90811033333333, "rental_uris": {"ios": "https://dc.lft.to/lastmile_qr_scan", "android": "https://dc.lft.to/lastmile_qr_scan"}, "bike_id": "e0f8a488cbcb738a3e5175c7bae16da6", "type": "electric_scooter", "lon": -77.04164816666666, "is_reserved": 0, "fusion_lat": 0.0, "fusion_lon": 0.0}, {"name": "1f3f9e188e90cda79e774cf4395454e6", "is_disabled": 0, "lat": 38.90480483333333, "rental_uris": {"ios": "https://dc.lft.to/lastmile_qr_scan", "android": "https://dc.lft.to/lastmile_qr_scan"}, "bike_id": "1f3f9e188e90cda79e774cf4395454e6", "type": "electric_scooter", "lon": -77.05341783333333, "is_reserved": 0, "fusion_lat": 0.0, "fusion_lon": 0.0}, {"name": "99c329241a5717ff489117740a17c353", "is_disabled": 0, "lat": 38.8840695, "rental_uris": {"ios": "https://dc.lft.to/lastmile_qr_scan", "android": "https://dc.lft.to/lastmile_qr_scan"}, "bike_id": "99c329241a5717ff489117740a17c353", "type": "electric_scooter", "lon": -77.029717, "is_reserved": 0, "fusion_lat": 0.0, "fusion_lon": 0.0}, {"name": "686e58c72abde207a2d011dbeb5b3adf", "is_disabled": 0, "lat": 38.918706, "rental_uris": {"ios": "https://dc.lft.to/lastmile_qr_scan", "android": "https://dc.lft.to/lastmile_qr_scan"}, "bike_id": "686e58c72abde207a2d011dbeb5b3adf", "type": "electric_scooter", "lon": -76.9640215, "is_reserved": 0, "fusion_lat": 0.0, "fusion_lon": 0.0}, {"name": "d01dbce1224c70e1654c3e8d425b7d11", "is_disabled": 0, "lat": 38.836103333333334, "rental_uris": {"ios": "https://dc.lft.to/lastmile_qr_scan", "android": "https://dc.lft.to/lastmile_qr_scan"}, "bike_id": "d01dbce1224c70e1654c3e8d425b7d11", "type": "electric_bike", "lon": -77.00381883333333, "is_reserved": 0, "fusion_lat": 0.0, "fusion_lon": 0.0}, {"name": "371cde2b1ba96a10146297055b5ff844", "is_disabled": 0, "lat": 38.909692, "rental_uris": {"ios": "https://dc.lft.to/lastmile_qr_scan", "android": "https://dc.lft.to/lastmile_qr_scan"}, "bike_id": "371cde2b1ba96a10146297055b5ff844", "type": "electric_scooter", "lon": -77.03942583333334, "is_reserved": 0, "fusion_lat": 0.0, "fusion_lon": 0.0}, {"name": "000fa402149710e6325278155baec2e2", "is_disabled": 0, "lat": 38.93073033333334, "rental_uris": {"ios": "https://dc.lft.to/lastmile_qr_scan", "android": "https://dc.lft.to/lastmile_qr_scan"}, "bike_id": "000fa402149710e6325278155baec2e2", "type": "electric_scooter", "lon": -77.03159216666667, "is_reserved": 0, "fusion_lat": 0.0, "fusion_lon": 0.0}, {"name": "a43852a8a484b200704b475768308203", "is_disabled": 0, "lat": 38.912712, "rental_uris": {"ios": "https://dc.lft.to/lastmile_qr_scan", "android": "https://dc.lft.to/lastmile_qr_scan"}, "bike_id": "a43852a8a484b200704b475768308203", "type": "electric_scooter", "lon": -77.02231483333334, "is_reserved": 0, "fusion_lat": 0.0, "fusion_lon": 0.0}, {"name": "7dde3e7b97e66b18799d86a3bc0aa745", "is_disabled": 0, "lat": 38.87948016666667, "rental_uris": {"ios": "https://dc.lft.to/lastmile_qr_scan", "android": "https://dc.lft.to/lastmile_qr_scan"}, "bike_id": "7dde3e7b97e66b18799d86a3bc0aa745", "type": "electric_scooter", "lon": -77.0063505, "is_reserved": 0, "fusion_lat": 0.0, "fusion_lon": 0.0}, {"name": "66616868d69a190ee67c704b35f8d9df", "is_disabled": 0, "lat": 38.91600433333333, "rental_uris": {"ios": "https://dc.lft.to/lastmile_qr_scan", "android": "https://dc.lft.to/lastmile_qr_scan"}, "bike_id": "66616868d69a190ee67c704b35f8d9df", "type": "electric_scooter", "lon": -77.03198683333333, "is_reserved": 0, "fusion_lat": 0.0, "fusion_lon": 0.0}, {"name": "b0e6c8ba97996491f09df25c41aa17ee", "is_disabled": 0, "lat": 38.8933675, "rental_uris": {"ios": "https://dc.lft.to/lastmile_qr_scan", "android": "https://dc.lft.to/lastmile_qr_scan"}, "bike_id": "b0e6c8ba97996491f09df25c41aa17ee", "type": "electric_scooter", "lon": -77.02238083333333, "is_reserved": 0, "fusion_lat": 0.0, "fusion_lon": 0.0}, {"name": "f5605a006d442a4e780e809b5f060e89", "is_disabled": 0, "lat": 38.8747915, "rental_uris": {"ios": "https://dc.lft.to/lastmile_qr_scan", "android": "https://dc.lft.to/lastmile_qr_scan"}, "bike_id": "f5605a006d442a4e780e809b5f060e89", "type": "electric_scooter", "lon": -77.00860366666667, "is_reserved": 0, "fusion_lat": 0.0, "fusion_lon": 0.0}, {"name": "f8e953e0adf59c1ab72b45706b76b56c", "is_disabled": 0, "lat": 38.91937516666667, "rental_uris": {"ios": "https://dc.lft.to/lastmile_qr_scan", "android": "https://dc.lft.to/lastmile_qr_scan"}, "bike_id": "f8e953e0adf59c1ab72b45706b76b56c", "type": "electric_scooter", "lon": -77.032266, "is_reserved": 0, "fusion_lat": 0.0, "fusion_lon": 0.0}, {"name": "a0f60fbe9378b82a8d15538604945061", "is_disabled": 0, "lat": 38.932936833333336, "rental_uris": {"ios": "https://dc.lft.to/lastmile_qr_scan", "android": "https://dc.lft.to/lastmile_qr_scan"}, "bike_id": "a0f60fbe9378b82a8d15538604945061", "type": "electric_scooter", "lon": -77.0285975, "is_reserved": 0, "fusion_lat": 0.0, "fusion_lon": 0.0}, {"name": "2cce7e26aa70290a8a5645d856979d2c", "is_disabled": 0, "lat": 38.89588066666666, "rental_uris": {"ios": "https://dc.lft.to/lastmile_qr_scan", "android": "https://dc.lft.to/lastmile_qr_scan"}, "bike_id": "2cce7e26aa70290a8a5645d856979d2c", "type": "electric_scooter", "lon": -76.98315, "is_reserved": 0, "fusion_lat": 0.0, "fusion_lon": 0.0}, {"name": "0a277d1d6d5603181290f0103430a11d", "is_disabled": 0, "lat": 38.910078166666665, "rental_uris": {"ios": "https://dc.lft.to/lastmile_qr_scan", "android": "https://dc.lft.to/lastmile_qr_scan"}, "bike_id": "0a277d1d6d5603181290f0103430a11d", "type": "electric_scooter", "lon": -77.03441966666666, "is_reserved": 0, "fusion_lat": 0.0, "fusion_lon": 0.0}, {"name": "f1aae751c0468c1d6f079f8a636090ed", "is_disabled": 0, "lat": 38.90044483333333, "rental_uris": {"ios": "https://dc.lft.to/lastmile_qr_scan", "android": "https://dc.lft.to/lastmile_qr_scan"}, "bike_id": "f1aae751c0468c1d6f079f8a636090ed", "type": "electric_scooter", "lon": -77.00053166666666, "is_reserved": 0, "fusion_lat": 0.0, "fusion_lon": 0.0}, {"name": "1498756891e34b5c2d51c1eaf84fca62", "is_disabled": 0, "lat": 38.902045, "rental_uris": {"ios": "https://dc.lft.to/lastmile_qr_scan", "android": "https://dc.lft.to/lastmile_qr_scan"}, "bike_id": "1498756891e34b5c2d51c1eaf84fca62", "type": "electric_scooter", "lon": -77.02372683333333, "is_reserved": 0, "fusion_lat": 0.0, "fusion_lon": 0.0}, {"name": "3de7bba031d9a6d884210a31e9aff9af", "is_disabled": 0, "lat": 38.890814166666665, "rental_uris": {"ios": "https://dc.lft.to/lastmile_qr_scan", "android": "https://dc.lft.to/lastmile_qr_scan"}, "bike_id": "3de7bba031d9a6d884210a31e9aff9af", "type": "electric_scooter", "lon": -76.98823166666666, "is_reserved": 0, "fusion_lat": 0.0, "fusion_lon": 0.0}, {"name": "86f55257203aadaf25bb2acac0e2b411", "is_disabled": 0, "lat": 38.90883516666667, "rental_uris": {"ios": "https://dc.lft.to/lastmile_qr_scan", "android": "https://dc.lft.to/lastmile_qr_scan"}, "bike_id": "86f55257203aadaf25bb2acac0e2b411", "type": "electric_scooter", "lon": -77.0321925, "is_reserved": 0, "fusion_lat": 0.0, "fusion_lon": 0.0}, {"name": "16d281ddfbb04ea3907b6c370384ddbb", "is_disabled": 0, "lat": 38.91699583333333, "rental_uris": {"ios": "https://dc.lft.to/lastmile_qr_scan", "android": "https://dc.lft.to/lastmile_qr_scan"}, "bike_id": "16d281ddfbb04ea3907b6c370384ddbb", "type": "electric_scooter", "lon": -77.03042333333333, "is_reserved": 0, "fusion_lat": 0.0, "fusion_lon": 0.0}, {"name": "70a88894ba0e535cbe88616d41ce7c25", "is_disabled": 0, "lat": 38.85514416666667, "rental_uris": {"ios": "https://dc.lft.to/lastmile_qr_scan", "android": "https://dc.lft.to/lastmile_qr_scan"}, "bike_id": "70a88894ba0e535cbe88616d41ce7c25", "type": "electric_bike", "lon": -76.98425233333333, "is_reserved": 0, "fusion_lat": 0.0, "fusion_lon": 0.0}, {"name": "474eb69db13b869ab7b9f0c9805b6162", "is_disabled": 0, "lat": 38.88359483333333, "rental_uris": {"ios": "https://dc.lft.to/lastmile_qr_scan", "android": "https://dc.lft.to/lastmile_qr_scan"}, "bike_id": "474eb69db13b869ab7b9f0c9805b6162", "type": "electric_scooter", "lon": -77.01363866666667, "is_reserved": 0, "fusion_lat": 0.0, "fusion_lon": 0.0}, {"name": "660057bea894ad409debbc6ceefd4663", "is_disabled": 0, "lat": 38.896974666666665, "rental_uris": {"ios": "https://dc.lft.to/lastmile_qr_scan", "android": "https://dc.lft.to/lastmile_qr_scan"}, "bike_id": "660057bea894ad409debbc6ceefd4663", "type": "electric_scooter", "lon": -77.02686233333333, "is_reserved": 0, "fusion_lat": 0.0, "fusion_lon": 0.0}, {"name": "52391c19e8eac3e127cda47111486b1d", "is_disabled": 0, "lat": 38.883973, "rental_uris": {"ios": "https://dc.lft.to/lastmile_qr_scan", "android": "https://dc.lft.to/lastmile_qr_scan"}, "bike_id": "52391c19e8eac3e127cda47111486b1d", "type": "electric_scooter", "lon": -76.93043666666667, "is_reserved": 0, "fusion_lat": 0.0, "fusion_lon": 0.0}, {"name": "8ba8a61ce364cf13b9bee975ef1485f6", "is_disabled": 0, "lat": 38.92295, "rental_uris": {"ios": "https://dc.lft.to/lastmile_qr_scan", "android": "https://dc.lft.to/lastmile_qr_scan"}, "bike_id": "8ba8a61ce364cf13b9bee975ef1485f6", "type": "electric_scooter", "lon": -77.042111, "is_reserved": 0, "fusion_lat": 0.0, "fusion_lon": 0.0}, {"name": "72f9ce24936b18d22fe52bff3514d199", "is_disabled": 0, "lat": 38.91242783333333, "rental_uris": {"ios": "https://dc.lft.to/lastmile_qr_scan", "android": "https://dc.lft.to/lastmile_qr_scan"}, "bike_id": "72f9ce24936b18d22fe52bff3514d199", "type": "electric_scooter", "lon": -77.03654733333333, "is_reserved": 0, "fusion_lat": 0.0, "fusion_lon": 0.0}, {"name": "f496f76f66cde883cec2e217b2bc4da1", "is_disabled": 0, "lat": 38.900575833333335, "rental_uris": {"ios": "https://dc.lft.to/lastmile_qr_scan", "android": "https://dc.lft.to/lastmile_qr_scan"}, "bike_id": "f496f76f66cde883cec2e217b2bc4da1", "type": "electric_scooter", "lon": -77.01612083333333, "is_reserved": 0, "fusion_lat": 0.0, "fusion_lon": 0.0}, {"name": "95e2dac3e2e14134d15aa143186db894", "is_disabled": 0, "lat": 38.917744666666664, "rental_uris": {"ios": "https://dc.lft.to/lastmile_qr_scan", "android": "https://dc.lft.to/lastmile_qr_scan"}, "bike_id": "95e2dac3e2e14134d15aa143186db894", "type": "electric_scooter", "lon": -77.02415266666667, "is_reserved": 0, "fusion_lat": 0.0, "fusion_lon": 0.0}, {"name": "70b206ce57db640c6bb64037ae26c35e", "is_disabled": 0, "lat": 38.919259, "rental_uris": {"ios": "https://dc.lft.to/lastmile_qr_scan", "android": "https://dc.lft.to/lastmile_qr_scan"}, "bike_id": "70b206ce57db640c6bb64037ae26c35e", "type": "electric_scooter", "lon": -77.02665416666666, "is_reserved": 0, "fusion_lat": 0.0, "fusion_lon": 0.0}, {"name": "3f17aab27cfb918385c35acbcf8b77d1", "is_disabled": 0, "lat": 38.872083333333336, "rental_uris": {"ios": "https://dc.lft.to/lastmile_qr_scan", "android": "https://dc.lft.to/lastmile_qr_scan"}, "bike_id": "3f17aab27cfb918385c35acbcf8b77d1", "type": "electric_scooter", "lon": -77.005769, "is_reserved": 0, "fusion_lat": 0.0, "fusion_lon": 0.0}, {"name": "5fa88ed9328df281b3501cb0bee7f23a", "is_disabled": 0, "lat": 38.903620333333336, "rental_uris": {"ios": "https://dc.lft.to/lastmile_qr_scan", "android": "https://dc.lft.to/lastmile_qr_scan"}, "bike_id": "5fa88ed9328df281b3501cb0bee7f23a", "type": "electric_scooter", "lon": -77.0399585, "is_reserved": 0, "fusion_lat": 0.0, "fusion_lon": 0.0},