{"data": {"bikes": [{"fusion_lon": 0.0, "name": "3c11f577b29595a03e06a8889d0f9b72", "rental_uris": {"android": "https://dc.lft.to/lastmile_qr_scan", "ios": "https://dc.lft.to/lastmile_qr_scan"}, "lat": 38.90738233333333, "bike_id": "3c11f577b29595a03e06a8889d0f9b72", "is_disabled": 0, "lon": -77.0130855, "is_reserved": 0, "fusion_lat": 0.0, "type": "electric_scooter"}, {"fusion_lon": 0.0, "name": "a844859bbbe04f9723ee361152d6f34e", "rental_uris": {"android": "https://dc.lft.to/lastmile_qr_scan", "ios": "https://dc.lft.to/lastmile_qr_scan"}, "lat": 38.90313166666667, "bike_id": "a844859bbbe04f9723ee361152d6f34e", "is_disabled": 0, "lon": -77.02204883333333, "is_reserved": 0, "fusion_lat": 0.0, "type": "electric_scooter"}, {"fusion_lon": 0.0, "name": "a6735042f5a47c9eae83bfff08e1cc0b", "rental_uris": {"android": "https://dc.lft.to/lastmile_qr_scan", "ios": "https://dc.lft.to/lastmile_qr_scan"}, "lat": 38.910603, "bike_id": "a6735042f5a47c9eae83bfff08e1cc0b", "is_disabled": 0, "lon": -77.02185983333334, "is_reserved": 0, "fusion_lat": 0.0, "type": "electric_scooter"}, {"fusion_lon": 0.0, "name": "b168d5622241c20f9aa408fdb3733207", "rental_uris": {"android": "https://dc.lft.to/lastmile_qr_scan", "ios": "https://dc.lft.to/lastmile_qr_scan"}, "lat": 38.91480083333333, "bike_id": "b168d5622241c20f9aa408fdb3733207", "is_disabled": 0, "lon": -77.0324495, "is_reserved": 0, "fusion_lat": 0.0, "type": "electric_scooter"}, {"fusion_lon": 0.0, "name": "953c276eff91b207011b7f3f5a1f29e8", "rental_uris": {"android": "https://dc.lft.to/lastmile_qr_scan", "ios": "https://dc.lft.to/lastmile_qr_scan"}, "lat": 38.926013833333336, "bike_id": "953c276eff91b207011b7f3f5a1f29e8", "is_disabled": 0, "lon": -77.02156166666667, "is_reserved": 0, "fusion_lat": 0.0, "type": "electric_scooter"}, {"fusion_lon": 0.0, "name": "2d8317724c832789413c85bfc2cb3b0e", "rental_uris": {"android": "https://dc.lft.to/lastmile_qr_scan", "ios": "https://dc.lft.to/lastmile_qr_scan"}, "lat": 39.010916, "bike_id": "2d8317724c832789413c85bfc2cb3b0e", "is_disabled": 0, "lon": -77.04954733333334, "is_reserved": 0, "fusion_lat": 0.0, "type": "electric_bike"}, {"fusion_lon": 0.0, "name": "437595b532dcc2452c9765c2c2307145", "rental_uris": {"android": "https://dc.lft.to/lastmile_qr_scan", "ios": "https://dc.lft.to/lastmile_qr_scan"}, "lat": 38.81336866666667, "bike_id": "437595b532dcc2452c9765c2c2307145", "is_disabled": 0, "lon": -77.05085833333334, "is_reserved": 0, "fusion_lat": 0.0, "type": "electric_bike"}, {"fusion_lon": 0.0, "name": "2243126baba8f0ba4209d3eec3e23d64", "rental_uris": {"android": "https://dc.lft.to/lastmile_qr_scan", "ios": "https://dc.lft.to/lastmile_qr_scan"}, "lat": 38.88502716666667, "bike_id": "2243126baba8f0ba4209d3eec3e23d64", "is_disabled": 0, "lon": -77.0022175, "is_reserved": 0, "fusion_lat": 0.0, "type": "electric_scooter"}, {"fusion_lon": 0.0, "name": "179b99011f7aebec8754b4b791bb7a5b", "rental_uris": {"android": "https://dc.lft.to/lastmile_qr_scan", "ios": "https://dc.lft.to/lastmile_qr_scan"}, "lat": 38.90370583333333, "bike_id": "179b99011f7aebec8754b4b791bb7a5b", "is_disabled": 0, "lon": -77.02831466666666, "is_reserved": 0, "fusion_lat": 0.0, "type": "electric_scooter"}, {"fusion_lon": 0.0, "name": "57294e20156128126f141404d6e1b91e", "rental_uris": {"android": "https://dc.lft.to/lastmile_qr_scan", "ios": "https://dc.lft.to/lastmile_qr_scan"}, "lat": 38.913352833333335, "bike_id": "57294e20156128126f141404d6e1b91e", "is_disabled": 0, "lon": -77.03194433333333, "is_reserved": 0, "fusion_lat": 0.0, "type": "electric_scooter"}, {"fusion_lon": 0.0, "name": "bcdd376ffe84e53203159980574192f5", "rental_uris": {"android": "https://dc.lft.to/lastmile_qr_scan", "ios": "https://dc.lft.to/lastmile_qr_scan"}, "lat": 38.913628333333335, "bike_id": "bcdd376ffe84e53203159980574192f5", "is_disabled": 0, "lon": -77.01995033333333, "is_reserved": 0, "fusion_lat": 0.0, "type": "electric_scooter"}, {"fusion_lon": 0.0, "name": "849d2ad4278b0118d53431509aaabe0c", "rental_uris": {"android": "https://dc.lft.to/lastmile_qr_scan", "ios": "https://dc.lft.to/lastmile_qr_scan"}, "lat": 38.92937916666666, "bike_id": "849d2ad4278b0118d53431509aaabe0c", "is_disabled": 0, "lon": -77.03282, "is_reserved": 0, "fusion_lat": 0.0, "type": "electric_scooter"}, {"fusion_lon": 0.0, "name": "d3ed8d270bff07722ef674d4ea045336", "rental_uris": {"android": "https://dc.lft.to/lastmile_qr_scan", "ios": "https://dc.lft.to/lastmile_qr_scan"}, "lat": 38.905211333333334, "bike_id": "d3ed8d270bff07722ef674d4ea045336", "is_disabled": 0, "lon": -77.043499, "is_reserved": 0, "fusion_lat": 0.0, "type": "electric_scooter"}, {"fusion_lon": 0.0, "name": "9cf47dbc3e8bd2c96c4d954cc8f135b4", "rental_uris": {"android": "https://dc.lft.to/lastmile_qr_scan", "ios": "https://dc.lft.to/lastmile_qr_scan"}, "lat": 38.9136495, "bike_id": "9cf47dbc3e8bd2c96c4d954cc8f135b4", "is_disabled": 0, "lon": -77.09190683333334, "is_reserved": 0, "fusion_lat": 0.0, "type": "electric_scooter"}, {"fusion_lon": 0.0, "name": "5c35f298531f282513f7f3f99d40a8e4", "rental_uris": {"android": "https://dc.lft.to/lastmile_qr_scan", "ios": "https://dc.lft.to/lastmile_qr_scan"}, "lat": 38.86527783333333, "bike_id": "5c35f298531f282513f7f3f99d40a8e4", "is_disabled": 0, "lon": -76.969037, "is_reserved": 0, "fusion_lat": 0.0, "type": "electric_scooter"}, {"fusion_lon": 0.0, "name": "460ec843664d4bc2ec6a57d210583275", "rental_uris": {"android": "https://dc.lft.to/lastmile_qr_scan", "ios": "https://dc.lft.to/lastmile_qr_scan"}, "lat": 38.89616733333333, "bike_id": "460ec843664d4bc2ec6a57d210583275", "is_disabled": 0, "lon": -77.0406795, "is_reserved": 0, "fusion_lat": 0.0, "type": "electric_scooter"}, {"fusion_lon": 0.0, "name": "352dcf20bc31de4d91c270c34be1720f", "rental_uris": {"android": "https://dc.lft.to/lastmile_qr_scan", "ios": "https://dc.lft.to/lastmile_qr_scan"}, "lat": 38.9181665, "bike_id": "352dcf20bc31de4d91c270c34be1720f", "is_disabled": 0, "lon": -77.02477883333333, "is_reserved": 0, "fusion_lat": 0.0, "type": "electric_scooter"}, {"fusion_lon": 0.0, "name": "a31ce51edc41ea3383a15b74549da1b4", "rental_uris": {"android": "https://dc.lft.to/lastmile_qr_scan", "ios": "https://dc.lft.to/lastmile_qr_scan"}, "lat": 38.88441666666667, "bike_id": "a31ce51edc41ea3383a15b74549da1b4", "is_disabled": 0, "lon": -76.95769466666667, "is_reserved": 0, "fusion_lat": 0.0, "type": "electric_scooter"}, {"fusion_lon": 0.0, "name": "dda4211dfc8dffd95abb55bbeb9cbc31", "rental_uris": {"android": "https://dc.lft.to/lastmile_qr_scan", "ios": "https://dc.lft.to/lastmile_qr_scan"}, "lat": 38.929442333333334, "bike_id": "dda4211dfc8dffd95abb55bbeb9cbc31", "is_disabled": 0, "lon": -77.03278483333334, "is_reserved": 0, "fusion_lat": 0.0, "type": "electric_scooter"}, {"fusion_lon": 0.0, "name": "b187942d40775513cef404cca6202203", "rental_uris": {"android": "https://dc.lft.to/lastmile_qr_scan", "ios": "https://dc.lft.to/lastmile_qr_scan"}, "lat": 38.89229533333334, "bike_id": "b187942d40775513cef404cca6202203", "is_disabled": 0, "lon": -77.025674, "is_reserved": 0, "fusion_lat": 0.0, "type": "electric_scooter"}, {"fusion_lon": 0.0, "name": "28b3b2a4cee4e907b28ee4fba67d51cf", "rental_uris": {"android": "https://dc.lft.to/lastmile_qr_scan", "ios": "https://dc.lft.to/lastmile_qr_scan"}, "lat": 38.907307, "bike_id": "28b3b2a4cee4e907b28ee4fba67d51cf", "is_disabled": 0, "lon": -77.05015766666666, "is_reserved": 0, "fusion_lat": 0.0, "type": "electric_scooter"}, {"fusion_lon": 0.0, "name": "5179e3afad9ffc1aa8d508018fca6077", "rental_uris": {"android": "https://dc.lft.to/lastmile_qr_scan", "ios": "https://dc.lft.to/lastmile_qr_scan"}, "lat": 38.904181333333334, "bike_id": "5179e3afad9ffc1aa8d508018fca6077", "is_disabled": 0, "lon": -77.03473783333334, "is_reserved": 0, "fusion_lat": 0.0, "type": "electric_scooter"}, {"fusion_lon": 0.0, "name": "0ed043385e41ba6f7980fd3907b4e350", "rental_uris": {"android": "https://dc.lft.to/lastmile_qr_scan", "ios": "https://dc.lft.to/lastmile_qr_scan"}, "lat": 38.88991033333333, "bike_id": "0ed043385e41ba6f7980fd3907b4e350", "is_disabled": 0, "lon": -77.00311383333333, "is_reserved": 0, "fusion_lat": 0.0, "type": "electric_scooter"}, {"fusion_lon": 0.0, "name": "1f914185b043ff2e5f694fec2b85b710", "rental_uris": {"android": "https://dc.lft.to/lastmile_qr_scan", "ios": "https://dc.lft.to/lastmile_qr_scan"}, "lat": 38.961206, "bike_id": "1f914185b043ff2e5f694fec2b85b710", "is_disabled": 0, "lon": -77.0278555, "is_reserved": 0, "fusion_lat": 0.0, "type": "electric_scooter"}, {"fusion_lon": 0.0, "name": "da11fd4c0195efed9e9f1cd5768f537a", "rental_uris": {"android": "https://dc.lft.to/lastmile_qr_scan", "ios": "https://dc.lft.to/lastmile_qr_scan"}, "lat": 38.907261, "bike_id": "da11fd4c0195efed9e9f1cd5768f537a", "is_disabled": 0, "lon": -77.03944033333333, "is_reserved": 0, "fusion_lat": 0.0, "type": "electric_scooter"}, {"fusion_lon": 0.0, "name": "837eb034560e3d18b8acb95b23abaa24", "rental_uris": {"android": "https://dc.lft.to/lastmile_qr_scan", "ios": "https://dc.lft.to/lastmile_qr_scan"}, "lat": 38.901609666666666, "bike_id": "837eb034560e3d18b8acb95b23abaa24", "is_disabled": 0, "lon": -77.041687, "is_reserved": 0, "fusion_lat": 0.0, "type": "electric_scooter"}, {"fusion_lon": 0.0, "name": "771df57cb047543f8d962ed7e7ba2810", "rental_uris": {"android": "https://dc.lft.to/lastmile_qr_scan", "ios": "https://dc.lft.to/lastmile_qr_scan"}, "lat": 38.89896933333333, "bike_id": "771df57cb047543f8d962ed7e7ba2810", "is_disabled": 0, "lon": -76.97603766666667, "is_reserved": 0, "fusion_lat": 0.0, "type": "electric_scooter"}, {"fusion_lon": 0.0, "name": "a7936a9e032ddd194d989a6395966583", "rental_uris": {"android": "https://dc.lft.to/lastmile_qr_scan", "ios": "https://dc.lft.to/lastmile_qr_scan"}, "lat": 38.898756, "bike_id": "a7936a9e032ddd194d989a6395966583", "is_disabled": 0, "lon": -76.931827, "is_reserved": 0, "fusion_lat": 0.0, "type": "electric_scooter"}, {"fusion_lon": 0.0, "name": "c98233eac418f727ab7283ec2b19176e", "rental_uris": {"android": "https://dc.lft.to/lastmile_qr_scan", "ios": "https://dc.lft.to/lastmile_qr_scan"}, "lat": 38.93255666666667, "bike_id": "c98233eac418f727ab7283ec2b19176e", "is_disabled": 0, "lon": -77.03859133333333, "is_reserved": 0, "fusion_lat": 0.0, "type": "electric_scooter"}, {"fusion_lon": 0.0, "name": "a02fab830136d187a691614f4f8bb3cf", "rental_uris": {"android": "https://dc.lft.to/lastmile_qr_scan", "ios": "https://dc.lft.to/lastmile_qr_scan"}, "lat": 38.933528, "bike_id": "a02fab830136d187a691614f4f8bb3cf", "is_disabled": 0, "lon": -77.08580633333334, "is_reserved": 0, "fusion_lat": 0.0, "type": "electric_scooter"}, {"fusion_lon": 0.0, "name": "e6b4c357c7856b33f49185e07318f211", "rental_uris": {"android": "https://dc.lft.to/lastmile_qr_scan", "ios": "https://dc.lft.to/lastmile_qr_scan"}, "lat": 38.905738, "bike_id": "e6b4c357c7856b33f49185e07318f211", "is_disabled": 0, "lon": -77.0218065, "is_reserved": 0, "fusion_lat": 0.0, "type": "electric_scooter"}, {"fusion_lon": 0.0, "name": "643d11cb40a186334a41a48863e8f578", "rental_uris": {"android": "https://dc.lft.to/lastmile_qr_scan", "ios": "https://dc.lft.to/lastmile_qr_scan"}, "lat": 38.901870833333334, "bike_id": "643d11cb40a186334a41a48863e8f578", "is_disabled": 0, "lon": -77.04678, "is_reserved": 0, "fusion_lat": 0.0, "type": "electric_scooter"}, {"fusion_lon": 0.0, "name": "f5e6c919c2bb7dc83a6bc86bdbb49c00", "rental_uris": {"android": "https://dc.lft.to/lastmile_qr_scan", "ios": "https://dc.lft.to/lastmile_qr_scan"}, "lat": 38.90025766666667, "bike_id": "f5e6c919c2bb7dc83a6bc86bdbb49c00", "is_disabled": 0, "lon": -76.98687566666666, "is_reserved": 0, "fusion_lat": 0.0, "type": "electric_scooter"}, {"fusion_lon": 0.0, "name": "3d89e85325b89428075e0d887b5d0437", "rental_uris": {"android": "https://dc.lft.to/lastmile_qr_scan", "ios": "https://dc.lft.to/lastmile_qr_scan"}, "lat": 38.928948, "bike_id": "3d89e85325b89428075e0d887b5d0437", "is_disabled": 0, "lon": -77.03472766666667, "is_reserved": 0, "fusion_lat": 0.0, "type": "electric_scooter"}, {"fusion_lon": 0.0, "name": "0a0ebb429a81ff7ebdf21b5bf545208b", "rental_uris": {"android": "https://dc.lft.to/lastmile_qr_scan", "ios": "https://dc.lft.to/lastmile_qr_scan"}, "lat": 38.904403, "bike_id": "0a0ebb429a81ff7ebdf21b5bf545208b", "is_disabled": 0, "lon": -77.05328666666666, "is_reserved": 0, "fusion_lat": 0.0, "type": "electric_scooter"}, {"fusion_lon": 0.0, "name": "9c133a2489a6d37af310a569bc7cb95a", "rental_uris": {"android": "https://dc.lft.to/lastmile_qr_scan", "ios": "https://dc.lft.to/lastmile_qr_scan"}, "lat": 38.90678916666667, "bike_id": "9c133a2489a6d37af310a569bc7cb95a", "is_disabled": 0, "lon": -77.02692366666666, "is_reserved": 0, "fusion_lat": 0.0, "type": "electric_scooter"}, {"fusion_lon": 0.0, "name": "378f9d8877db6024ce25534e83ddc419", "rental_uris": {"android": "https://dc.lft.to/lastmile_qr_scan", "ios": "https://dc.lft.to/lastmile_qr_scan"}, "lat": 38.907782, "bike_id": "378f9d8877db6024ce25534e83ddc419", "is_disabled": 0, "lon": -77.07167433333333, "is_reserved": 0, "fusion_lat": 0.0, "type": "electric_scooter"}, {"fusion_lon": 0.0, "name": "816a37ee4e29a4cef3ac3f4021beb131", "rental_uris": {"android": "https://dc.lft.to/lastmile_qr_scan", "ios": "https://dc.lft.to/lastmile_qr_scan"}, "lat": 38.925703, "bike_id": "816a37ee4e29a4cef3ac3f4021beb131", "is_disabled": 0, "lon": -77.0787905, "is_reserved": 0, "fusion_lat": 0.0, "type": "electric_bike"}, {"fusion_lon": 0.0, "name": "441508af15ffc4b34f1aa22ca69068df", "rental_uris": {"android": "https://dc.lft.to/lastmile_qr_scan", "ios": "https://dc.lft.to/lastmile_qr_scan"}, "lat": 38.924152666666664, "bike_id": "441508af15ffc4b34f1aa22ca69068df", "is_disabled": 0, "lon": -77.02006633333333, "is_reserved": 0, "fusion_lat": 0.0, "type": "electric_scooter"}, {"fusion_lon": 0.0, "name": "e300d6c23f3e434d9a322c31badcfe26", "rental_uris": {"android": "https://dc.lft.to/lastmile_qr_scan", "ios": "https://dc.lft.to/lastmile_qr_scan"}, "lat": 38.892437, "bike_id": "e300d6c23f3e434d9a322c31badcfe26", "is_disabled": 0, "lon": -77.01254983333334, "is_reserved": 0, "fusion_lat": 0.0, "type": "electric_scooter"}, {"fusion_lon": 0.0, "name": "a7665454b031938e86f2e135fd9d6c2e", "rental_uris": {"android": "https://dc.lft.to/lastmile_qr_scan", "ios": "https://dc.lft.to/lastmile_qr_scan"}, "lat": 38.90915533333333, "bike_id": "a7665454b031938e86f2e135fd9d6c2e", "is_disabled": 0, "lon": -76.98975266666666, "is_reserved": 0, "fusion_lat": 0.0, "type": "electric_scooter"}, {"fusion_lon": 0.0, "name": "fac9b9108d468278d92661a725a8156a", "rental_uris": {"android": "https://dc.lft.to/lastmile_qr_scan", "ios": "https://dc.lft.to/lastmile_qr_scan"}, "lat": 38.907487333333336, "bike_id": "fac9b9108d468278d92661a725a8156a", "is_disabled": 0, "lon": -77.00762766666666, "is_reserved": 0, "fusion_lat": 0.0, "type": "electric_scooter"}, {"fusion_lon": 0.0, "name": "dc80dcd877d30919dd0472281f3b6120", "rental_uris": {"android": "https://dc.lft.to/lastmile_qr_scan", "ios": "https://dc.lft.to/lastmile_qr_scan"}, "lat": 38.943087, "bike_id": "dc80dcd877d30919dd0472281f3b6120", "is_disabled": 0, "lon": -77.05927233333334, "is_reserved": 0, "fusion_lat": 0.0, "type": "electric_scooter"}, {"fusion_lon": 0.0, "name": "1892389fccb11a3d1ff3c3c91a402e6d", "rental_uris": {"android": "https://dc.lft.to/lastmile_qr_scan", "ios": "https://dc.lft.to/lastmile_qr_scan"}, "lat": 38.931998666666665, "bike_id": "1892389fccb11a3d1ff3c3c91a402e6d", "is_disabled": 0, "lon": -77.03747516666667, "is_reserved": 0, "fusion_lat": 0.0, "type": "electric_scooter"}, {"fusion_lon": 0.0, "name": "d9b8ae1354114b821827580ad9458e1c", "rental_uris": {"android": "https://dc.lft.to/lastmile_qr_scan", "ios": "https://dc.lft.to/lastmile_qr_scan"}, "lat": 39.029287, "bike_id": "d9b8ae1354114b821827580ad9458e1c", "is_disabled": 0, "lon": -77.01360566666666, "is_reserved": 0, "fusion_lat": 0.0, "type": "electric_bike"}, {"fusion_lon": 0.0, "name": "a07a9227c82e28d7598630425ecb9af6", "rental_uris": {"android": "https://dc.lft.to/lastmile_qr_scan", "ios": "https://dc.lft.to/lastmile_qr_scan"}, "lat": 38.888214833333336, "bike_id": "a07a9227c82e28d7598630425ecb9af6", "is_disabled": 0, "lon": -76.97710183333334, "is_reserved": 0, "fusion_lat": 0.0, "type": "electric_scooter"}, {"fusion_lon": 0.0, "name": "bb96825f4b247f70d82ab3b39573dc6e", "rental_uris": {"android": "https://dc.lft.to/lastmile_qr_scan", "ios": "https://dc.lft.to/lastmile_qr_scan"}, "lat": 38.902780666666665, "bike_id": "bb96825f4b247f70d82ab3b39573dc6e", "is_disabled": 0, "lon": -77.03437816666667, "is_reserved": 0, "fusion_lat": 0.0, "type": "electric_scooter"}, {"fusion_lon": 0.0, "name": "451dfcff9045fb82d1fcc209b1a45fca", "rental_uris": {"android": "https://dc.lft.to/lastmile_qr_scan", "ios": "https://dc.lft.to/lastmile_qr_scan"}, "lat": 38.900176333333334, "bike_id": "451dfcff9045fb82d1fcc209b1a45fca", "is_disabled": 0, "lon": -76.9885345, "is_reserved": 0, "fusion_lat": 0.0, "type": "electric_scooter"}, {"fusion_lon": 0.0, "name": "4a7fb39a2e4edcc8760ad742df17de50", "rental_uris": {"android": "https://dc.lft.to/lastmile_qr_scan", "ios": "https://dc.lft.to/lastmile_qr_scan"}, "lat": 38.905598499999996, "bike_id": "4a7fb39a2e4edcc8760ad742df17de50", "is_disabled": 0, "lon": -77.045695, "is_reserved": 0, "fusion_lat": 0.0, "type": "electric_scooter"}, {"fusion_lon": 0.0, "name": "48744cf17f7617682d3f7f0e4c7d3ffc", "rental_uris": {"android": "https://dc.lft.to/lastmile_qr_scan", "ios": "https://dc.lft.to/lastmile_qr_scan"}, "lat": 38.902583666666665, "bike_id": "48744cf17f7617682d3f7f0e4c7d3ffc", "is_disabled": 0, "lon": -77.01743216666667, "is_reserved": 0, "fusion_lat": 0.0, "type": "electric_scooter"}, {"fusion_lon": 0.0, "name": "b8a0ddcd82329cdd72ea672215c6acb8", "rental_uris": {"android": "https://dc.lft.to/lastmile_qr_scan", "ios": "https://dc.lft.to/lastmile_qr_scan"}, "lat": 38.906374166666666, "bike_id": "b8a0ddcd82329cdd72ea672215c6acb8", "is_disabled": 0, "lon": -77.03902266666667, "is_reserved": 0, "fusion_lat": 0.0, "type": "electric_scooter"}, {"fusion_lon": 0.0, "name": "b60e7aef770050347de08c675cec0019", "rental_uris": {"android": "https://dc.lft.to/lastmile_qr_scan", "ios": "https://dc.lft.to/lastmile_qr_scan"}, "lat": 38.913479, "bike_id": "b60e7aef770050347de08c675cec0019", "is_disabled": 0, "lon": -77.012235, "is_reserved": 0, "fusion_lat": 0.0, "type": "electric_scooter"}, {"fusion_lon": 0.0, "name": "2d61a48c040694d2fa115746c7e76d8f", "rental_uris": {"android": "https://dc.lft.to/lastmile_qr_scan", "ios": "https://dc.lft.to/lastmile_qr_scan"}, "lat": 38.91981533333333, "bike_id": "2d61a48c040694d2fa115746c7e76d8f", "is_disabled": 0, "lon": -77.02174133333334, "is_reserved": 0, "fusion_lat": 0.0, "type": "electric_scooter"}, {"fusion_lon": 0.0, "name": "7592053ee9742c868a6bfd6d30765b25", "rental_uris": {"android": "https://dc.lft.to/lastmile_qr_scan", "ios": "https://dc.lft.to/lastmile_qr_scan"}, "lat": 38.9646435, "bike_id": "7592053ee9742c868a6bfd6d30765b25", "is_disabled": 0, "lon": -77.03559883333334, "is_reserved": 0, "fusion_lat": 0.0, "type": "electric_bike"}, {"fusion_lon": 0.0, "name": "457c565ee006bccd7a8c43530d023c76", "rental_uris": {"android": "https://dc.lft.to/lastmile_qr_scan", "ios": "https://dc.lft.to/lastmile_qr_scan"}, "lat": 38.9202695, "bike_id": "457c565ee006bccd7a8c43530d023c76", "is_disabled": 0, "lon": -77.0190745, "is_reserved": 0, "fusion_lat": 0.0, "type": "electric_scooter"}, {"fusion_lon": 0.0, "name": "988545e061cdee71f44862449ca8fb82", "rental_uris": {"android": "https://dc.lft.to/lastmile_qr_scan", "ios": "https://dc.lft.to/lastmile_qr_scan"}, "lat": 38.924728, "bike_id": "988545e061cdee71f44862449ca8fb82", "is_disabled": 0, "lon": -77.02220383333334, "is_reserved": 0, "fusion_lat": 0.0, "type": "electric_scooter"}, {"fusion_lon": 0.0, "name": "505870c3689a37d1a51807aa8c7e64e4", "rental_uris": {"android": "https://dc.lft.to/lastmile_qr_scan", "ios": "https://dc.lft.to/lastmile_qr_scan"}, "lat": 38.936977166666665, "bike_id": "505870c3689a37d1a51807aa8c7e64e4", "is_disabled": 0, "lon": -77.05599566666666, "is_reserved": 0, "fusion_lat": 0.0, "type": "electric_scooter"}, {"fusion_lon": 0.0, "name": "cfe70e448356f17d648ec6e08351d5b1", "rental_uris": {"android": "https://dc.lft.to/lastmile_qr_scan", "ios": "https://dc.lft.to/lastmile_qr_scan"}, "lat": 38.90429266666666, "bike_id": "cfe70e448356f17d648ec6e08351d5b1", "is_disabled": 0, "lon": -77.04075683333333, "is_reserved": 0, "fusion_lat": 0.0, "type": "electric_scooter"}, {"fusion_lon": 0.0, "name": "dad5f89537f14cdc839ba9679b9af287", "rental_uris": {"android": "https://dc.lft.to/lastmile_qr_scan", "ios": "https://dc.lft.to/lastmile_qr_scan"}, "lat": 38.88772933333333, "bike_id": "dad5f89537f14cdc839ba9679b9af287", "is_disabled": 0, "lon": -76.9326385, "is_reserved": 0, "fusion_lat": 0.0, "type": "electric_scooter"}, {"fusion_lon": 0.0, "name": "85be67c92eb63b8846121734aa83339c", "rental_uris": {"android": "https://dc.lft.to/lastmile_qr_scan", "ios": "https://dc.lft.to/lastmile_qr_scan"}, "lat": 38.92467966666667, "bike_id": "85be67c92eb63b8846121734aa83339c", "is_disabled": 0, "lon": -77.02114916666666, "is_reserved": 0, "fusion_lat": 0.0, "type": "electric_scooter"}, {"fusion_lon": 0.0, "name": "841ecf3199976b640db5104b388850d0", "rental_uris": {"android": "https://dc.lft.to/lastmile_qr_scan", "ios": "https://dc.lft.to/lastmile_qr_scan"}, "lat": 38.90197233333333, "bike_id": "841ecf3199976b640db5104b388850d0", "is_disabled": 0, "lon": -77.06115766666667, "is_reserved": 0, "fusion_lat": 0.0, "type": "electric_scooter"}, {"fusion_lon": 0.0, "name": "b92178884edea8c08466a51a65a7307a", "rental_uris": {"android": "https://dc.lft.to/lastmile_qr_scan", "ios": "https://dc.lft.to/lastmile_qr_scan"}, "lat": 38.956276833333334, "bike_id": "b92178884edea8c08466a51a65a7307a", "is_disabled": 0, "lon": -77.02952383333333, "is_reserved": 0, "fusion_lat": 0.0, "type": "electric_scooter"}, {"fusion_lon": 0.0, "name": "9ae6eeb6d3309deb0fb09907f8bbb32a", "rental_uris": {"android": "https://dc.lft.to/lastmile_qr_scan", "ios": "https://dc.lft.to/lastmile_qr_scan"}, "lat": 38.91122883333333, "bike_id": "9ae6eeb6d3309deb0fb09907f8bbb32a", "is_disabled": 0, "lon": -77.0436505, "is_reserved": 0, "fusion_lat": 0.0, "type": "electric_scooter"}, {"fusion_lon": 0.0, "name": "3ec47eb3a996681698f2f2d6549e61f7", "rental_uris": {"android": "https://dc.lft.to/lastmile_qr_scan", "ios": "https://dc.lft.to/lastmile_qr_scan"}, "lat": 38.873148666666665, "bike_id": "3ec47eb3a996681698f2f2d6549e61f7", "is_disabled": 0, "lon": -77.01390816666667, "is_reserved": 0, "fusion_lat": 0.0, "type": "electric_scooter"}, {"fusion_lon": 0.0, "name": "6f2eb8e9560709b82dbadcb9c22eaa91", "rental_uris": {"android": "https://dc.lft.to/lastmile_qr_scan", "ios": "https://dc.lft.to/lastmile_qr_scan"}, "lat": 38.949265, "bike_id": "6f2eb8e9560709b82dbadcb9c22eaa91", "is_disabled": 0, "lon": -76.95916866666667, "is_reserved": 0, "fusion_lat": 0.0, "type": "electric_bike"}, {"fusion_lon": 0.0, "name": "7dec6453ebff6dc2f5863cafe660937e", "rental_uris": {"android": "https://dc.lft.to/lastmile_qr_scan", "ios": "https://dc.lft.to/lastmile_qr_scan"}, "lat": 38.893699166666664, "bike_id": "7dec6453ebff6dc2f5863cafe660937e", "is_disabled": 0, "lon": -76.98464166666666, "is_reserved": 0, "fusion_lat": 0.0, "type": "electric_scooter"}, {"fusion_lon": 0.0, "name": "ea7e461b0b2c64f802853eafce1ec75a", "rental_uris": {"android": "https://dc.lft.to/lastmile_qr_scan", "ios": "https://dc.lft.to/lastmile_qr_scan"}, "lat": 38.89615833333333, "bike_id": "ea7e461b0b2c64f802853eafce1ec75a", "is_disabled": 0, "lon": -76.92979983333333, "is_reserved": 0, "fusion_lat": 0.0, "type": "electric_scooter"}, {"fusion_lon": 0.0, "name": "c89616fb653863b1fe6609f228106494", "rental_uris": {"android": "https://dc.lft.to/lastmile_qr_scan", "ios": "https://dc.lft.to/lastmile_qr_scan"}, "lat": 38.902731333333335, "bike_id": "c89616fb653863b1fe6609f228106494", "is_disabled": 0, "lon": -77.03069683333334, "is_reserved": 0, "fusion_lat": 0.0, "type": "electric_scooter"}, {"fusion_lon": 0.0, "name": "a648fdf80dda659b2a21af2773dd2350", "rental_uris": {"android": "https://dc.lft.to/lastmile_qr_scan", "ios": "https://dc.lft.to/lastmile_qr_scan"}, "lat": 38.880786666666665, "bike_id": "a648fdf80dda659b2a21af2773dd2350", "is_disabled": 0, "lon": -77.037194, "is_reserved": 0, "fusion_lat": 0.0, "type": "electric_scooter"}, {"fusion_lon": 0.0, "name": "6def504721e2789061421b05fbae573f", "rental_uris": {"android": "https://dc.lft.to/lastmile_qr_scan", "ios": "https://dc.lft.to/lastmile_qr_scan"}, "lat": 38.89561366666667, "bike_id": "6def504721e2789061421b05fbae573f", "is_disabled": 0, "lon": -77.12735883333333, "is_reserved": 0, "fusion_lat": 0.0, "type": "electric_bike"}, {"fusion_lon": 0.0, "name": "6948e99196b71541069f3f7524d328e0", "rental_uris": {"android": "https://dc.lft.to/lastmile_qr_scan", "ios": "https://dc.lft.to/lastmile_qr_scan"}, "lat": 38.94151316666667, "bike_id": "6948e99196b71541069f3f7524d328e0", "is_disabled": 0, "lon": -77.00197916666667, "is_reserved": 0, "fusion_lat": 0.0, "type": "electric_bike"}, {"fusion_lon": 0.0, "name": "37fe9ee8eba86f1a102cd6ad7e510171", "rental_uris": {"android": "https://dc.lft.to/lastmile_qr_scan", "ios": "https://dc.lft.to/lastmile_qr_scan"}, "lat": 38.92626283333333, "bike_id": "37fe9ee8eba86f1a102cd6ad7e510171", "is_disabled": 0, "lon": -77.00586866666667, "is_reserved": 0, "fusion_lat": 0.0, "type": "electric_bike"}, {"fusion_lon": 0.0, "name": "0d31a497a9e563e48902148cb1716255", "rental_uris": {"android": "https://dc.lft.to/lastmile_qr_scan", "ios": "https://dc.lft.to/lastmile_qr_scan"}, "lat": 38.91552316666667, "bike_id": "0d31a497a9e563e48902148cb1716255", "is_disabled": 0, "lon": -77.03660383333333, "is_reserved": 0, "fusion_lat": 0.0, "type": "electric_scooter"}, {"fusion_lon": 0.0, "name": "01ec59cf3cd6dd48f60a596bde8f3ce2", "rental_uris": {"android": "https://dc.lft.to/lastmile_qr_scan", "ios": "https://dc.lft.to/lastmile_qr_scan"}, "lat": 38.90560933333333, "bike_id": "01ec59cf3cd6dd48f60a596bde8f3ce2", "is_disabled": 0, "lon": -77.034788, "is_reserved": 0, "fusion_lat": 0.0, "type": "electric_scooter"}, {"fusion_lon": 0.0, "name": "4d8d87bf414741303221f020f199737c", "rental_uris": {"android": "https://dc.lft.to/lastmile_qr_scan", "ios": "https://dc.lft.to/lastmile_qr_scan"}, "lat": 38.9192845, "bike_id": "4d8d87bf414741303221f020f199737c", "is_disabled": 0, "lon": -77.0319315, "is_reserved": 0, "fusion_lat": 0.0, "type": "electric_scooter"}, {"fusion_lon": 0.0, "name": "43c2a5a10cef728cf2f8094bf32bff29", "rental_uris": {"android": "https://dc.lft.to/lastmile_qr_scan", "ios": "https://dc.lft.to/lastmile_qr_scan"}, "lat": 38.926074166666666, "bike_id": "43c2a5a10cef728cf2f8094bf32bff29", "is_disabled": 0, "lon": -77.02153716666666, "is_reserved": 0, "fusion_lat": 0.0, "type": "electric_scooter"}, {"fusion_lon": 0.0, "name": "cf415b9a23252f9a3d5ce685404381bf", "rental_uris": {"android": "https://dc.lft.to/lastmile_qr_scan", "ios": "https://dc.lft.to/lastmile_qr_scan"}, "lat": 38.95760533333333, "bike_id": "cf415b9a23252f9a3d5ce685404381bf", "is_disabled": 0, "lon": -77.00916383333333, "is_reserved": 0, "fusion_lat": 0.0, "type": "electric_scooter"}, {"fusion_lon": 0.0, "name": "cc57b3fe7eadb2c1a31e82724479631b", "rental_uris": {"android": "https://dc.lft.to/lastmile_qr_scan", "ios": "https://dc.lft.to/lastmile_qr_scan"}, "lat": 38.92042083333333, "bike_id": "cc57b3fe7eadb2c1a31e82724479631b", "is_disabled": 0, "lon": -76.99130816666667, "is_reserved": 0, "fusion_lat": 0.0, "type": "electric_bike"}, {"fusion_lon": 0.0, "name": "e97418372f94064dd6ddbdd5aebad5c5", "rental_uris": {"android": "https://dc.lft.to/lastmile_qr_scan", "ios": "https://dc.lft.to/lastmile_qr_scan"}, "lat": 38.896101, "bike_id": "e97418372f94064dd6ddbdd5aebad5c5", "is_disabled": 0, "lon": -77.02377066666666, "is_reserved": 0, "fusion_lat": 0.0, "type": "electric_scooter"}, {"fusion_lon": 0.0, "name": "7b6ea171ec75822400ac64956564d318", "rental_uris": {"android": "https://dc.lft.to/lastmile_qr_scan", "ios": "https://dc.lft.to/lastmile_qr_scan"}, "lat": 38.89231383333333, "bike_id": "7b6ea171ec75822400ac64956564d318", "is_disabled": 0, "lon": -77.02382533333333, "is_reserved": 0, "fusion_lat": 0.0, "type": "electric_scooter"}, {"fusion_lon": 0.0, "name": "ddf92607ce56f2ad57da351bbc328e02", "rental_uris": {"android": "https://dc.lft.to/lastmile_qr_scan", "ios": "https://dc.lft.to/lastmile_qr_scan"}, "lat": 38.9542135, "bike_id": "ddf92607ce56f2ad57da351bbc328e02", "is_disabled": 0, "lon": -77.00727266666667, "is_reserved": 0, "fusion_lat": 0.0, "type": "electric_scooter"}, {"fusion_lon": 0.0, "name": "fad18ba58700f7ce54fbae56946ff753", "rental_uris": {"android": "https://dc.lft.to/lastmile_qr_scan", "ios": "https://dc.lft.to/lastmile_qr_scan"}, "lat": 38.923457666666664, "bike_id": "fad18ba58700f7ce54fbae56946ff753", "is_disabled": 0, "lon": -77.01907633333333, "is_reserved": 0, "fusion_lat": 0.0, "type": "electric_scooter"}, {"fusion_lon": 0.0, "name": "4deb635dad939be405bd62c6cbe2bbee", "rental_uris": {"android": "https://dc.lft.to/lastmile_qr_scan", "ios": "https://dc.lft.to/lastmile_qr_scan"}, "lat": 38.91754383333333, "bike_id": "4deb635dad939be405bd62c6cbe2bbee", "is_disabled": 0, "lon": -77.02109516666667, "is_reserved": 0, "fusion_lat": 0.0, "type": "electric_scooter"}, {"fusion_lon": 0.0, "name": "32eca21342773abb8cfdb5f78a0711db", "rental_uris": {"android": "https://dc.lft.to/lastmile_qr_scan", "ios": "https://dc.lft.to/lastmile_qr_scan"}, "lat": 38.926132, "bike_id": "32eca21342773abb8cfdb5f78a0711db", "is_disabled": 0, "lon": -77.0216175, "is_reserved": 0, "fusion_lat": 0.0, "type": "electric_scooter"}, {"fusion_lon": 0.0, "name": "3cdee8dcf03af9347eb224f8ea9ebae9", "rental_uris": {"android": "https://dc.lft.to/lastmile_qr_scan", "ios": "https://dc.lft.to/lastmile_qr_scan"}, "lat": 38.94369283333333, "bike_id": "3cdee8dcf03af9347eb224f8ea9ebae9", "is_disabled": 0, "lon": -77.06114683333334, "is_reserved": 0, "fusion_lat": 0.0, "type": "electric_scooter"}, {"fusion_lon": 0.0, "name": "e972f0165c2116bdd18bf75abbc3a614", "rental_uris": {"android": "https://dc.lft.to/lastmile_qr_scan", "ios": "https://dc.lft.to/lastmile_qr_scan"}, "lat": 38.87658866666666, "bike_id": "e972f0165c2116bdd18bf75abbc3a614", "is_disabled": 0, "lon": -76.99321216666667, "is_reserved": 0, "fusion_lat": 0.0, "type": "electric_scooter"}, {"fusion_lon": 0.0, "name": "b582d1c0ed3c315ebde2b395eaeda2c5", "rental_uris": {"android": "https://dc.lft.to/lastmile_qr_scan", "ios": "https://dc.lft.to/lastmile_qr_scan"}, "lat": 38.9227415, "bike_id": "b582d1c0ed3c315ebde2b395eaeda2c5", "is_disabled": 0, "lon": -77.0340185, "is_reserved": 0, "fusion_lat": 0.0, "type": "electric_scooter"}, {"fusion_lon": 0.0, "name": "797d955ca18336aca268636d719882db", "rental_uris": {"android": "https://dc.lft.to/lastmile_qr_scan", "ios": "https://dc.lft.to/lastmile_qr_scan"}, "lat": 38.920093, "bike_id": "797d955ca18336aca268636d719882db", "is_disabled": 0, "lon": -77.0377825, "is_reserved": 0, "fusion_lat": 0.0, "type": "electric_scooter"}, {"fusion_lon": 0.0, "name": "29b9eda0619d811826729ca91d3a49e5", "rental_uris": {"android": "https://dc.lft.to/lastmile_qr_scan", "ios": "https://dc.lft.to/lastmile_qr_scan"}, "lat": 38.916991833333334, "bike_id": "29b9eda0619d811826729ca91d3a49e5", "is_disabled": 0, "lon": -77.025975, "is_reserved": 0, "fusion_lat": 0.0, "type": "electric_scooter"}, {"fusion_lon": 0.0, "name": "983e3687c835c427707e15bfe7ed0cf3", "rental_uris": {"android": "https://dc.lft.to/lastmile_qr_scan", "ios": "https://dc.lft.to/lastmile_qr_scan"}, "lat": 38.913345666666665, "bike_id": "983e3687c835c427707e15bfe7ed0cf3", "is_disabled": 0, "lon": -77.04025733333333, "is_reserved": 0, "fusion_lat": 0.0, "type": "electric_scooter"}, {"fusion_lon": 0.0, "name": "00a0165b7836416e273f376bf8faa42c", "rental_uris": {"android": "https://dc.lft.to/lastmile_qr_scan", "ios": "https://dc.lft.to/lastmile_qr_scan"}, "lat": 38.92177316666667, "bike_id": "00a0165b7836416e273f376bf8faa42c", "is_disabled": 0, "lon": -77.02671483333333, "is_reserved": 0, "fusion_lat": 0.0, "type": "electric_scooter"}, {"fusion_lon": 0.0, "name": "8b92d10f0e03bb91213fd575b3149b4c", "rental_uris": {"android": "https://dc.lft.to/lastmile_qr_scan", "ios": "https://dc.lft.to/lastmile_qr_scan"}, "lat": 38.87690083333333, "bike_id": "8b92d10f0e03bb91213fd575b3149b4c", "is_disabled": 0, "lon": -77.00068983333334, "is_reserved": 0, "fusion_lat": 0.0, "type": "electric_scooter"}, {"fusion_lon": 0.0, "name": "451867cae53f0f0785b8b984cdf4ee7e", "rental_uris": {"android": "https://dc.lft.to/lastmile_qr_scan", "ios": "https://dc.lft.to/lastmile_qr_scan"}, "lat": 38.85070116666667, "bike_id": "451867cae53f0f0785b8b984cdf4ee7e", "is_disabled": 0, "lon": -77.05152483333333, "is_reserved": 0, "fusion_lat": 0.0, "type": "electric_bike"}, {"fusion_lon": 0.0, "name": "30076219bebda1e764451f19bb088f3b", "rental_uris": {"android": "https://dc.lft.to/lastmile_qr_scan", "ios": "https://dc.lft.to/lastmile_qr_scan"}, "lat": 38.880133666666666, "bike_id": "30076219bebda1e764451f19bb088f3b", "is_disabled": 0, "lon": -77.02481433333334, "is_reserved": 0, "fusion_lat": 0.0, "type": "electric_scooter"}, {"fusion_lon": 0.0, "name": "bf97854b85426b063497d8ea2f2f1707", "rental_uris": {"android": "https://dc.lft.to/lastmile_qr_scan", "ios": "https://dc.lft.to/lastmile_qr_scan"}, "lat": 38.9006335, "bike_id": "bf97854b85426b063497d8ea2f2f1707", "is_disabled": 0, "lon": -77.04344216666667, "is_reserved": 0, "fusion_lat": 0.0, "type": "electric_scooter"}, {"fusion_lon": 0.0, "name": "ae7249457fe1096ac8ea2523d0ee774e", "rental_uris": {"android": "https://dc.lft.to/lastmile_qr_scan", "ios": "https://dc.lft.to/lastmile_qr_scan"}, "lat": 38.954877333333336, "bike_id": "ae7249457fe1096ac8ea2523d0ee774e", "is_disabled": 0, "lon": -77.06992266666667, "is_reserved": 0, "fusion_lat": 0.0, "type": "electric_scooter"}, {"fusion_lon": 0.0, "name": "88ba27a76664ed944cfece2f2eea9591", "rental_uris": {"android": "https://dc.lft.to/lastmile_qr_scan", "ios": "https://dc.lft.to/lastmile_qr_scan"}, "lat": 38.899057166666665, "bike_id": "88ba27a76664ed944cfece2f2eea9591", "is_disabled": 0, "lon": -76.98824966666666, "is_reserved": 0, "fusion_lat": 0.0, "type": "electric_scooter"}, {"fusion_lon": 0.0, "name": "45ba2ab476c7e885b387cabdfc557fd2", "rental_uris": {"android": "https://dc.lft.to/lastmile_qr_scan", "ios": "https://dc.lft.to/lastmile_qr_scan"}, "lat": 38.92240833333334, "bike_id": "45ba2ab476c7e885b387cabdfc557fd2", "is_disabled": 0, "lon": -77.0346435, "is_reserved": 0, "fusion_lat": 0.0, "type": "electric_scooter"}, {"fusion_lon": 0.0, "name": "c55609b3dfada5f6e3e38fa78cfed7a1", "rental_uris": {"android": "https://dc.lft.to/lastmile_qr_scan", "ios": "https://dc.lft.to/lastmile_qr_scan"}, "lat": 38.91698233333334, "bike_id": "c55609b3dfada5f6e3e38fa78cfed7a1", "is_disabled": 0, "lon": -77.0362635, "is_reserved": 0, "fusion_lat": 0.0, "type": "electric_scooter"}, {"fusion_lon": 0.0, "name": "1c2310df66d9761835b68567a5f0d7c3", "rental_uris": {"android": "https://dc.lft.to/lastmile_qr_scan", "ios": "https://dc.lft.to/lastmile_qr_scan"}, "lat": 38.9235805, "bike_id": "1c2310df66d9761835b68567a5f0d7c3", "is_disabled": 0, "lon": -77.0542285, "is_reserved": 0, "fusion_lat": 0.0, "type": "electric_scooter"}, {"fusion_lon": 0.0, "name": "58686eaafdddad376b7f99c6f442ca35", "rental_uris": {"android": "https://dc.lft.to/lastmile_qr_scan", "ios": "https://dc.lft.to/lastmile_qr_scan"}, "lat": 38.91650283333333, "bike_id": "58686eaafdddad376b7f99c6f442ca35", "is_disabled": 0, "lon": -77.01040983333333, "is_reserved": 0, "fusion_lat": 0.0, "type": "electric_scooter"}, {"fusion_lon": 0.0, "name": "54276e6bf2dfbbe167c0c611465173e7", "rental_uris": {"android": "https://dc.lft.to/lastmile_qr_scan", "ios": "https://dc.lft.to/lastmile_qr_scan"}, "lat": 38.941782833333335, "bike_id": "54276e6bf2dfbbe167c0c611465173e7", "is_disabled": 0, "lon": -77.0314865, "is_reserved": 0, "fusion_lat": 0.0, "type": "electric_scooter"}, {"fusion_lon": 0.0, "name": "564be1101648e292d1f2c3dedb1507de", "rental_uris": {"android": "https://dc.lft.to/lastmile_qr_scan", "ios": "https://dc.lft.to/lastmile_qr_scan"}, "lat": 38.91723183333333, "bike_id": "564be1101648e292d1f2c3dedb1507de", "is_disabled": 0, "lon": -77.0295445, "is_reserved": 0, "fusion_lat": 0.0, "type": "electric_scooter"}, {"fusion_lon": 0.0, "name": "b92c94bdffd3a82c6e6db37abf36b870", "rental_uris": {"android": "https://dc.lft.to/lastmile_qr_scan", "ios": "https://dc.lft.to/lastmile_qr_scan"}, "lat": 38.9384275, "bike_id": "b92c94bdffd3a82c6e6db37abf36b870", "is_disabled": 0, "lon": -77.0244885, "is_reserved": 0, "fusion_lat": 0.0, "type": "electric_scooter"}, {"fusion_lon": 0.0, "name": "0c08b719d8c1fc35c000c0b8861dd07e", "rental_uris": {"android": "https://dc.lft.to/lastmile_qr_scan", "ios": "https://dc.lft.to/lastmile_qr_scan"}, "lat": 38.922540166666664, "bike_id": "0c08b719d8c1fc35c000c0b8861dd07e", "is_disabled": 0, "lon": -77.01947766666666, "is_reserved": 0, "fusion_lat": 0.0, "type": "electric_scooter"}, {"fusion_lon": 0.0, "name": "51982a2879f013bb68cb2fe37319ffc7", "rental_uris": {"android": "https://dc.lft.to/lastmile_qr_scan", "ios": "https://dc.lft.to/lastmile_qr_scan"}, "lat": 38.899567833333336, "bike_id": "51982a2879f013bb68cb2fe37319ffc7", "is_disabled": 0, "lon": -77.0515285, "is_reserved": 0, "fusion_lat": 0.0, "type": "electric_scooter"}, {"fusion_lon": 0.0, "name": "d021de91b86285ec4c43d33973c9f4dd", "rental_uris": {"android": "https://dc.lft.to/lastmile_qr_scan", "ios": "https://dc.lft.to/lastmile_qr_scan"}, "lat": 38.904837, "bike_id": "d021de91b86285ec4c43d33973c9f4dd", "is_disabled": 0, "lon": -77.04679483333334, "is_reserved": 0, "fusion_lat": 0.0, "type": "electric_scooter"}, {"fusion_lon": 0.0, "name": "cc67cb59b46a2f93c693f4ecff711543", "rental_uris": {"android": "https://dc.lft.to/lastmile_qr_scan", "ios": "https://dc.lft.to/lastmile_qr_scan"}, "lat": 38.905296166666666, "bike_id": "cc67cb59b46a2f93c693f4ecff711543", "is_disabled": 0, "lon": -77.06235416666667, "is_reserved": 0, "fusion_lat": 0.0, "type": "electric_scooter"}, {"fusion_lon": 0.0, "name": "defc0a08306d6695e4c5d201198ab423", "rental_uris": {"android": "https://dc.lft.to/lastmile_qr_scan", "ios": "https://dc.lft.to/lastmile_qr_scan"}, "lat": 38.90029716666667, "bike_id": "defc0a08306d6695e4c5d201198ab423", "is_disabled": 0, "lon": -76.9874875, "is_reserved": 0, "fusion_lat": 0.0, "type": "electric_scooter"}, {"fusion_lon": 0.0, "name": "6ee333ffca75119daf27ecfee66a5565", "rental_uris": {"android": "https://dc.lft.to/lastmile_qr_scan", "ios": "https://dc.lft.to/lastmile_qr_scan"}, "lat": 38.87199783333333, "bike_id": "6ee333ffca75119daf27ecfee66a5565", "is_disabled": 0, "lon": -77.00931533333333, "is_reserved": 0, "fusion_lat": 0.0, "type": "electric_scooter"}, {"fusion_lon": 0.0, "name": "9a5835ea4bd121ba3225cef3cdd4ece8", "rental_uris": {"android": "https://dc.lft.to/lastmile_qr_scan", "ios": "https://dc.lft.to/lastmile_qr_scan"}, "lat": 38.808651166666664, "bike_id": "9a5835ea4bd121ba3225cef3cdd4ece8", "is_disabled": 0, "lon": -77.1125045, "is_reserved": 0, "fusion_lat": 0.0, "type": "electric_bike"}, {"fusion_lon": 0.0, "name": "c36ead3405887bc03946759d9735bebd", "rental_uris": {"android": "https://dc.lft.to/lastmile_qr_scan", "ios": "https://dc.lft.to/lastmile_qr_scan"}, "lat": 38.957701, "bike_id": "c36ead3405887bc03946759d9735bebd", "is_disabled": 0, "lon": -76.96739666666667, "is_reserved": 0, "fusion_lat": 0.0, "type": "electric_bike"}, {"fusion_lon": 0.0, "name": "e5d4a2925d3e5f58988bbece8b2fae17", "rental_uris": {"android": "https://dc.lft.to/lastmile_qr_scan", "ios": "https://dc.lft.to/lastmile_qr_scan"}, "lat": 38.87579566666667, "bike_id": "e5d4a2925d3e5f58988bbece8b2fae17", "is_disabled": 0, "lon": -77.00572166666667, "is_reserved": 0, "fusion_lat": 0.0, "type": "electric_scooter"}, {"fusion_lon": 0.0, "name": "cb498fc1e0e245e51148b1e8ce665503", "rental_uris": {"android": "https://dc.lft.to/lastmile_qr_scan", "ios": "https://dc.lft.to/lastmile_qr_scan"}, "lat": 38.89017066666667, "bike_id": "cb498fc1e0e245e51148b1e8ce665503", "is_disabled": 0, "lon": -76.93712383333333, "is_reserved": 0, "fusion_lat": 0.0, "type": "electric_scooter"}, {"fusion_lon": 0.0, "name": "6a8f418582d903dde4ffe9cf0d4fba50", "rental_uris": {"android": "https://dc.lft.to/lastmile_qr_scan", "ios": "https://dc.lft.to/lastmile_qr_scan"}, "lat": 38.941695, "bike_id": "6a8f418582d903dde4ffe9cf0d4fba50", "is_disabled": 0, "lon": -77.02561933333334, "is_reserved": 0, "fusion_lat": 0.0, "type": "electric_scooter"}, {"fusion_lon": 0.0, "name": "447b2e17c707b602955d20aec2692eba", "rental_uris": {"android": "https://dc.lft.to/lastmile_qr_scan", "ios": "https://dc.lft.to/lastmile_qr_scan"}, "lat": 38.916117, "bike_id": "447b2e17c707b602955d20aec2692eba", "is_disabled": 0, "lon": -77.02302266666666, "is_reserved": 0, "fusion_lat": 0.0, "type": "electric_scooter"}, {"fusion_lon": 0.0, "name": "032cfcdf3fbd751e38731138a6f99ebb", "rental_uris": {"android": "https://dc.lft.to/lastmile_qr_scan", "ios": "https://dc.lft.to/lastmile_qr_scan"}, "lat": 38.90978533333333, "bike_id": "032cfcdf3fbd751e38731138a6f99ebb", "is_disabled": 0, "lon": -77.03405366666667, "is_reserved": 0, "fusion_lat": 0.0, "type": "electric_scooter"}, {"fusion_lon": 0.0, "name": "629e74a3896a0c4b38b2873333e4eb53", "rental_uris": {"android": "https://dc.lft.to/lastmile_qr_scan", "ios": "https://dc.lft.to/lastmile_qr_scan"}, "lat": 38.973684166666665, "bike_id": "629e74a3896a0c4b38b2873333e4eb53", "is_disabled": 0, "lon": -77.01862033333333, "is_reserved": 0, "fusion_lat": 0.0, "type": "electric_scooter"}, {"fusion_lon": 0.0, "name": "316c53a3b4a7266e3b1c25bd0012e507", "rental_uris": {"android": "https://dc.lft.to/lastmile_qr_scan", "ios": "https://dc.lft.to/lastmile_qr_scan"}, "lat": 38.908797166666666, "bike_id": "316c53a3b4a7266e3b1c25bd0012e507", "is_disabled": 0, "lon": -77.03757266666666, "is_reserved": 0, "fusion_lat": 0.0, "type": "electric_scooter"}, {"fusion_lon": 0.0, "name": "7c4be73fb5bdca2d1dafaa3545cecd32", "rental_uris": {"android": "https://dc.lft.to/lastmile_qr_scan", "ios": "https://dc.lft.to/lastmile_qr_scan"}, "lat": 38.917577666666666, "bike_id": "7c4be73fb5bdca2d1dafaa3545cecd32", "is_disabled": 0, "lon": -77.0091485, "is_reserved": 0, "fusion_lat": 0.0, "type": "electric_scooter"}, {"fusion_lon": 0.0, "name": "5328fdaa520b9d81ed009686219a075b", "rental_uris": {"android": "https://dc.lft.to/lastmile_qr_scan", "ios": "https://dc.lft.to/lastmile_qr_scan"}, "lat": 38.89623, "bike_id": "5328fdaa520b9d81ed009686219a075b", "is_disabled": 0, "lon": -77.02595783333334, "is_reserved": 0, "fusion_lat": 0.0, "type": "electric_scooter"}, {"fusion_lon": 0.0, "name": "206a0d418b5a4efd592820f131799836", "rental_uris": {"android": "https://dc.lft.to/lastmile_qr_scan", "ios": "https://dc.lft.to/lastmile_qr_scan"}, "lat": 38.89732933333333, "bike_id": "206a0d418b5a4efd592820f131799836", "is_disabled": 0, "lon": -77.02566716666666, "is_reserved": 0, "fusion_lat": 0.0, "type": "electric_scooter"}, {"fusion_lon": 0.0, "name": "765d6227018b4e73ccad173892d31ec5", "rental_uris": {"android": "https://dc.lft.to/lastmile_qr_scan", "ios": "https://dc.lft.to/lastmile_qr_scan"}, "lat": 38.94378066666667, "bike_id": "765d6227018b4e73ccad173892d31ec5", "is_disabled": 0, "lon": -77.0610345, "is_reserved": 0, "fusion_lat": 0.0, "type": "electric_scooter"}, {"fusion_lon": 0.0, "name": "562dafcb84dc0434fad7a01156afeec4", "rental_uris": {"android": "https://dc.lft.to/lastmile_qr_scan", "ios": "https://dc.lft.to/lastmile_qr_scan"}, "lat": 38.85449966666667, "bike_id": "562dafcb84dc0434fad7a01156afeec4", "is_disabled": 0, "lon": -76.98607833333334, "is_reserved": 0, "fusion_lat": 0.0, "type": "electric_bike"}, {"fusion_lon": 0.0, "name": "cb03d339c3d0b3d347696b06396c510c", "rental_uris": {"android": "https://dc.lft.to/lastmile_qr_scan", "ios": "https://dc.lft.to/lastmile_qr_scan"}, "lat": 38.846131166666666, "bike_id": "cb03d339c3d0b3d347696b06396c510c", "is_disabled": 0, "lon": -76.96930016666667, "is_reserved": 0, "fusion_lat": 0.0, "type": "electric_bike"}, {"fusion_lon": 0.0, "name": "f051e423fddabafaecdac7688612368d", "rental_uris": {"android": "https://dc.lft.to/lastmile_qr_scan", "ios": "https://dc.lft.to/lastmile_qr_scan"}, "lat": 38.90406616666667, "bike_id": "f051e423fddabafaecdac7688612368d", "is_disabled": 0, "lon": -76.97366783333334, "is_reserved": 0, "fusion_lat": 0.0, "type": "electric_scooter"}, {"fusion_lon": 0.0, "name": "fb69c8fda02c6375c5eeb0deb9cafca4", "rental_uris": {"android": "https://dc.lft.to/lastmile_qr_scan", "ios": "https://dc.lft.to/lastmile_qr_scan"}, "lat": 38.9227725, "bike_id": "fb69c8fda02c6375c5eeb0deb9cafca4", "is_disabled": 0, "lon": -77.04276733333333, "is_reserved": 0, "fusion_lat": 0.0, "type": "electric_scooter"}, {"fusion_lon": 0.0, "name": "9c6da4ebe944d83ce07b2a422674c9a6", "rental_uris": {"android": "https://dc.lft.to/lastmile_qr_scan", "ios": "https://dc.lft.to/lastmile_qr_scan"}, "lat": 38.931033, "bike_id": "9c6da4ebe944d83ce07b2a422674c9a6", "is_disabled": 0, "lon": -77.0302835, "is_reserved": 0, "fusion_lat": 0.0, "type": "electric_scooter"}, {"fusion_lon": 0.0, "name": "812b9341f9a1331536eb1672b69d4994", "rental_uris": {"android": "https://dc.lft.to/lastmile_qr_scan", "ios": "https://dc.lft.to/lastmile_qr_scan"}, "lat": 38.89460066666667, "bike_id": "812b9341f9a1331536eb1672b69d4994", "is_disabled": 0, "lon": -77.026594, "is_reserved": 0, "fusion_lat": 0.0, "type": "electric_scooter"}, {"fusion_lon": 0.0, "name": "2e1a61878b5ae350f9435a9497a0ff3d", "rental_uris": {"android": "https://dc.lft.to/lastmile_qr_scan", "ios": "https://dc.lft.to/lastmile_qr_scan"}, "lat": 38.902387833333336, "bike_id": "2e1a61878b5ae350f9435a9497a0ff3d", "is_disabled": 0, "lon": -77.03255966666667, "is_reserved": 0, "fusion_lat": 0.0, "type": "electric_scooter"}, {"fusion_lon": 0.0, "name": "8b1babcda4992c51f092594e29d977a7", "rental_uris": {"android": "https://dc.lft.to/lastmile_qr_scan", "ios": "https://dc.lft.to/lastmile_qr_scan"}, "lat": 38.88437833333333, "bike_id": "8b1babcda4992c51f092594e29d977a7", "is_disabled": 0, "lon": -77.02307816666666, "is_reserved": 0, "fusion_lat": 0.0, "type": "electric_scooter"}, {"fusion_lon": 0.0, "name": "8b6901a33fd739a9074a824a11d9c359", "rental_uris": {"android": "https://dc.lft.to/lastmile_qr_scan", "ios": "https://dc.lft.to/lastmile_qr_scan"}, "lat": 38.923607, "bike_id": "8b6901a33fd739a9074a824a11d9c359", "is_disabled": 0, "lon": -77.05030083333334, "is_reserved": 0, "fusion_lat": 0.0, "type": "electric_scooter"}, {"fusion_lon": 0.0, "name": "1702ba6fc31edaa42ab6620308ef3d3b", "rental_uris": {"android": "https://dc.lft.to/lastmile_qr_scan", "ios": "https://dc.lft.to/lastmile_qr_scan"}, "lat": 38.90213516666667, "bike_id": "1702ba6fc31edaa42ab6620308ef3d3b", "is_disabled": 0, "lon": -77.03392783333334, "is_reserved": 0, "fusion_lat": 0.0, "type": "electric_scooter"}, {"fusion_lon": 0.0, "name": "52e088a5fe82827defe3862be8f78d74", "rental_uris": {"android": "https://dc.lft.to/lastmile_qr_scan", "ios": "https://dc.lft.to/lastmile_qr_scan"}, "lat": 38.8887185, "bike_id": "52e088a5fe82827defe3862be8f78d74", "is_disabled": 0, "lon": -77.04001383333333, "is_reserved": 0, "fusion_lat": 0.0, "type": "electric_scooter"}, {"fusion_lon": 0.0, "name": "cd21e9b5bd118f91d69af7ee18c7f301", "rental_uris": {"android": "https://dc.lft.to/lastmile_qr_scan", "ios": "https://dc.lft.to/lastmile_qr_scan"}, "lat": 38.903325, "bike_id": "cd21e9b5bd118f91d69af7ee18c7f301", "is_disabled": 0, "lon": -76.93368133333334, "is_reserved": 0, "fusion_lat": 0.0, "type": "electric_bike"}, {"fusion_lon": 0.0, "name": "178b98eb5f6caa1ddc941222b9fe0106", "rental_uris": {"android": "https://dc.lft.to/lastmile_qr_scan", "ios": "https://dc.lft.to/lastmile_qr_scan"}, "lat": 38.890284, "bike_id": "178b98eb5f6caa1ddc941222b9fe0106", "is_disabled": 0, "lon": -76.93714683333333, "is_reserved": 0, "fusion_lat": 0.0, "type": "electric_scooter"}, {"fusion_lon": 0.0, "name": "71f60b17c6a92f042d8344d710c84e3c", "rental_uris": {"android": "https://dc.lft.to/lastmile_qr_scan", "ios": "https://dc.lft.to/lastmile_qr_scan"}, "lat": 38.91870983333333, "bike_id": "71f60b17c6a92f042d8344d710c84e3c", "is_disabled": 0, "lon": -77.04836516666667, "is_reserved": 0, "fusion_lat": 0.0, "type": "electric_scooter"}, {"fusion_lon": 0.0, "name": "0c390e735f11639e920c51228295a3c0", "rental_uris": {"android": "https://dc.lft.to/lastmile_qr_scan", "ios": "https://dc.lft.to/lastmile_qr_scan"}, "lat": 38.90594016666667, "bike_id": "0c390e735f11639e920c51228295a3c0", "is_disabled": 0, "lon": -77.00573316666667, "is_reserved": 0, "fusion_lat": 0.0, "type": "electric_scooter"}, {"fusion_lon": 0.0, "name": "1517f84a0a74264fcc785c449afa6489", "rental_uris": {"android": "https://dc.lft.to/lastmile_qr_scan", "ios": "https://dc.lft.to/lastmile_qr_scan"}, "lat": 38.90407366666667, "bike_id": "1517f84a0a74264fcc785c449afa6489", "is_disabled": 0, "lon": -77.04362966666666, "is_reserved": 0, "fusion_lat": 0.0, "type": "electric_scooter"}, {"fusion_lon": 0.0, "name": "061342c66c5db65f963e4e6ce1d5f47c", "rental_uris": {"android": "https://dc.lft.to/lastmile_qr_scan", "ios": "https://dc.lft.to/lastmile_qr_scan"}, "lat": 38.793336333333336, "bike_id": "061342c66c5db65f963e4e6ce1d5f47c", "is_disabled": 0, "lon": -77.00055316666666, "is_reserved": 0, "fusion_lat": 0.0, "type": "electric_bike"}, {"fusion_lon": 0.0, "name": "b7ccae2bc1f442eadf1112c86e34076e", "rental_uris": {"android": "https://dc.lft.to/lastmile_qr_scan", "ios": "https://dc.lft.to/lastmile_qr_scan"}, "lat": 39.0381415, "bike_id": "b7ccae2bc1f442eadf1112c86e34076e", "is_disabled": 0, "lon": -77.042306, "is_reserved": 0, "fusion_lat": 0.0, "type": "electric_bike"}, {"fusion_lon": 0.0, "name": "0d81c0ed200f5d8054894f878ac4640f", "rental_uris": {"android": "https://dc.lft.to/lastmile_qr_scan", "ios": "https://dc.lft.to/lastmile_qr_scan"}, "lat": 38.882223833333335, "bike_id": "0d81c0ed200f5d8054894f878ac4640f", "is_disabled": 0, "lon": -76.93926833333333, "is_reserved": 0, "fusion_lat": 0.0, "type": "electric_scooter"}, {"fusion_lon": 0.0, "name": "7d792696b44f7c9a86f7114dc894b1ea", "rental_uris": {"android": "https://dc.lft.to/lastmile_qr_scan", "ios": "https://dc.lft.to/lastmile_qr_scan"}, "lat": 38.87638583333333, "bike_id": "7d792696b44f7c9a86f7114dc894b1ea", "is_disabled": 0, "lon": -77.0027185, "is_reserved": 0, "fusion_lat": 0.0, "type": "electric_scooter"}, {"fusion_lon": 0.0, "name": "04cb32b6d2412072506ba43e2838620d", "rental_uris": {"android": "https://dc.lft.to/lastmile_qr_scan", "ios": "https://dc.lft.to/lastmile_qr_scan"}, "lat": 38.902465, "bike_id": "04cb32b6d2412072506ba43e2838620d", "is_disabled": 0, "lon": -76.97409583333334, "is_reserved": 0, "fusion_lat": 0.0, "type": "electric_scooter"}, {"fusion_lon": 0.0, "name": "a9b9b2172dab596e297bfeaa29cb39e0", "rental_uris": {"android": "https://dc.lft.to/lastmile_qr_scan", "ios": "https://dc.lft.to/lastmile_qr_scan"}, "lat": 38.892192666666666, "bike_id": "a9b9b2172dab596e297bfeaa29cb39e0", "is_disabled": 0, "lon": -77.04369783333334, "is_reserved": 0, "fusion_lat": 0.0, "type": "electric_scooter"}, {"fusion_lon": 0.0, "name": "6b88c32894a96b78ad19491a6e16b18b", "rental_uris": {"android": "https://dc.lft.to/lastmile_qr_scan", "ios": "https://dc.lft.to/lastmile_qr_scan"}, "lat": 38.94302866666666, "bike_id": "6b88c32894a96b78ad19491a6e16b18b", "is_disabled": 0, "lon": -77.03458516666667, "is_reserved": 0, "fusion_lat": 0.0, "type": "electric_scooter"}, {"fusion_lon": 0.0, "name": "7624182d1e421d4133826824c4ae6858", "rental_uris": {"android": "https://dc.lft.to/lastmile_qr_scan", "ios": "https://dc.lft.to/lastmile_qr_scan"}, "lat": 38.9026155, "bike_id": "7624182d1e421d4133826824c4ae6858", "is_disabled": 0, "lon": -77.044859, "is_reserved": 0, "fusion_lat": 0.0, "type": "electric_scooter"}, {"fusion_lon": 0.0, "name": "019aa81de99f1016e85b30d28ac41482", "rental_uris": {"android": "https://dc.lft.to/lastmile_qr_scan", "ios": "https://dc.lft.to/lastmile_qr_scan"}, "lat": 38.90060116666667, "bike_id": "019aa81de99f1016e85b30d28ac41482", "is_disabled": 0, "lon": -77.023976, "is_reserved": 0, "fusion_lat": 0.0, "type": "electric_scooter"}, {"fusion_lon": 0.0, "name": "c8beb32ce343f9aa0fe7b8da6eb282bb", "rental_uris": {"android": "https://dc.lft.to/lastmile_qr_scan", "ios": "https://dc.lft.to/lastmile_qr_scan"}, "lat": 38.914918, "bike_id": "c8beb32ce343f9aa0fe7b8da6eb282bb", "is_disabled": 0, "lon": -77.04497783333333, "is_reserved": 0, "fusion_lat": 0.0, "type": "electric_scooter"}, {"fusion_lon": 0.0, "name": "0d3fb469273410280ad18b79abff7078", "rental_uris": {"android": "https://dc.lft.to/lastmile_qr_scan", "ios": "https://dc.lft.to/lastmile_qr_scan"}, "lat": 38.91584133333333, "bike_id": "0d3fb469273410280ad18b79abff7078", "is_disabled": 0, "lon": -77.01231416666667, "is_reserved": 0, "fusion_lat": 0.0, "type": "electric_scooter"}, {"fusion_lon": 0.0, "name": "a3e883e853b70c3f8f71f323625fd0f6", "rental_uris": {"android": "https://dc.lft.to/lastmile_qr_scan", "ios": "https://dc.lft.to/lastmile_qr_scan"}, "lat": 38.90396, "bike_id": "a3e883e853b70c3f8f71f323625fd0f6", "is_disabled": 0, "lon": -77.038734, "is_reserved": 0, "fusion_lat": 0.0, "type": "electric_scooter"}, {"fusion_lon": 0.0, "name": "056002af1732e72f6af0d0226b28f83a", "rental_uris": {"android": "https://dc.lft.to/lastmile_qr_scan", "ios": "https://dc.lft.to/lastmile_qr_scan"}, "lat": 38.903448166666664, "bike_id": "056002af1732e72f6af0d0226b28f83a", "is_disabled": 0, "lon": -77.044824, "is_reserved": 0, "fusion_lat": 0.0, "type": "electric_scooter"}, {"fusion_lon": 0.0, "name": "187e68d07027fcc3d7744f555e680499", "rental_uris": {"android": "https://dc.lft.to/lastmile_qr_scan", "ios": "https://dc.lft.to/lastmile_qr_scan"}, "lat": 38.89609816666667, "bike_id": "187e68d07027fcc3d7744f555e680499", "is_disabled": 0, "lon": -77.0460375, "is_reserved": 0, "fusion_lat": 0.0, "type": "electric_scooter"}, {"fusion_lon": 0.0, "name": "dddf8415bb79af223df1ab911655353e", "rental_uris": {"android": "https://dc.lft.to/lastmile_qr_scan", "ios": "https://dc.lft.to/lastmile_qr_scan"}, "lat": 38.905607, "bike_id": "dddf8415bb79af223df1ab911655353e", "is_disabled": 0, "lon": -77.03509983333333, "is_reserved": 0, "fusion_lat": 0.0, "type": "electric_scooter"}, {"fusion_lon": 0.0, "name": "9f1513dd002a216a4c510b24922476f9", "rental_uris": {"android": "https://dc.lft.to/lastmile_qr_scan", "ios": "https://dc.lft.to/lastmile_qr_scan"}, "lat": 38.92477916666667, "bike_id": "9f1513dd002a216a4c510b24922476f9", "is_disabled": 0, "lon": -77.0220925, "is_reserved": 0, "fusion_lat": 0.0, "type": "electric_scooter"}, {"fusion_lon": 0.0, "name": "13f9c138f4062a77e62e0609f3db0711", "rental_uris": {"android": "https://dc.lft.to/lastmile_qr_scan", "ios": "https://dc.lft.to/lastmile_qr_scan"}, "lat": 38.89423633333333, "bike_id": "13f9c138f4062a77e62e0609f3db0711", "is_disabled": 0, "lon": -76.9977195, "is_reserved": 0, "fusion_lat": 0.0, "type": "electric_scooter"}, {"fusion_lon": 0.0, "name": "5ecb91b737b07e29188c1225621bf8d3", "rental_uris": {"android": "https://dc.lft.to/lastmile_qr_scan", "ios": "https://dc.lft.to/lastmile_qr_scan"}, "lat": 38.88481066666667, "bike_id": "5ecb91b737b07e29188c1225621bf8d3", "is_disabled": 0, "lon": -77.01977516666666, "is_reserved": 0, "fusion_lat": 0.0, "type": "electric_scooter"}, {"fusion_lon": 0.0, "name": "40f81c0a26c269cad5bbd09d8962a763", "rental_uris": {"android": "https://dc.lft.to/lastmile_qr_scan", "ios": "https://dc.lft.to/lastmile_qr_scan"}, "lat": 38.905818833333335, "bike_id": "40f81c0a26c269cad5bbd09d8962a763", "is_disabled": 0, "lon": -77.006089, "is_reserved": 0, "fusion_lat": 0.0, "type": "electric_scooter"}, {"fusion_lon": 0.0, "name": "8ee2b1837ae41096b61a6599d29caa05", "rental_uris": {"android": "https://dc.lft.to/lastmile_qr_scan", "ios": "https://dc.lft.to/lastmile_qr_scan"}, "lat": 38.885093499999996, "bike_id": "8ee2b1837ae41096b61a6599d29caa05", "is_disabled": 0, "lon": -77.00533616666667, "is_reserved": 0, "fusion_lat": 0.0, "type": "electric_scooter"}, {"fusion_lon": 0.0, "name": "c7c10d8a2f889b33a8a77dbb4be426fd", "rental_uris": {"android": "https://dc.lft.to/lastmile_qr_scan", "ios": "https://dc.lft.to/lastmile_qr_scan"}, "lat": 38.92059183333333, "bike_id": "c7c10d8a2f889b33a8a77dbb4be426fd", "is_disabled": 0, "lon": -77.03216133333333, "is_reserved": 0, "fusion_lat": 0.0, "type": "electric_scooter"}, {"fusion_lon": 0.0, "name": "9be048b63a98094e9d03b931b3906cbb", "rental_uris": {"android": "https://dc.lft.to/lastmile_qr_scan", "ios": "https://dc.lft.to/lastmile_qr_scan"}, "lat": 38.928205, "bike_id": "9be048b63a98094e9d03b931b3906cbb", "is_disabled": 0, "lon": -77.02244533333334, "is_reserved": 0, "fusion_lat": 0.0, "type": "electric_scooter"}, {"fusion_lon": 0.0, "name": "06cd7d85043c8d3eec4328552e54d53f", "rental_uris": {"android": "https://dc.lft.to/lastmile_qr_scan", "ios": "https://dc.lft.to/lastmile_qr_scan"}, "lat": 38.899233333333335, "bike_id": "06cd7d85043c8d3eec4328552e54d53f", "is_disabled": 0, "lon": -77.02442333333333, "is_reserved": 0, "fusion_lat": 0.0, "type": "electric_scooter"}, {"fusion_lon": 0.0, "name": "21b12647de63426eff8bb76bc2db14ad", "rental_uris": {"android": "https://dc.lft.to/lastmile_qr_scan", "ios": "https://dc.lft.to/lastmile_qr_scan"}, "lat": 38.87580666666667, "bike_id": "21b12647de63426eff8bb76bc2db14ad", "is_disabled": 0, "lon": -77.00574166666667, "is_reserved": 0, "fusion_lat": 0.0, "type": "electric_scooter"}, {"fusion_lon": 0.0, "name": "24165b4f24a6e3332e63aff23d6dc3ab", "rental_uris": {"android": "https://dc.lft.to/lastmile_qr_scan", "ios": "https://dc.lft.to/lastmile_qr_scan"}, "lat": 38.83297433333333, "bike_id": "24165b4f24a6e3332e63aff23d6dc3ab", "is_disabled": 0, "lon": -77.0840685, "is_reserved": 0, "fusion_lat": 0.0, "type": "electric_bike"}, {"fusion_lon": 0.0, "name": "c4f0dc01d8e468c2d9bc784c4020e2c4", "rental_uris": {"android": "https://dc.lft.to/lastmile_qr_scan", "ios": "https://dc.lft.to/lastmile_qr_scan"}, "lat": 38.88442283333333, "bike_id": "c4f0dc01d8e468c2d9bc784c4020e2c4", "is_disabled": 0, "lon": -76.95766866666666, "is_reserved": 0, "fusion_lat": 0.0, "type": "electric_scooter"}, {"fusion_lon": 0.0, "name": "e9feb7e9c22b366c95c94d65f2fcda1b", "rental_uris": {"android": "https://dc.lft.to/lastmile_qr_scan", "ios": "https://dc.lft.to/lastmile_qr_scan"}, "lat": 38.9039575, "bike_id": "e9feb7e9c22b366c95c94d65f2fcda1b", "is_disabled": 0, "lon": -77.0388975, "is_reserved": 0, "fusion_lat": 0.0, "type": "electric_scooter"}, {"fusion_lon": 0.0, "name": "9c2af4d1bf21ba9c82c62b4003b56dec", "rental_uris": {"android": "https://dc.lft.to/lastmile_qr_scan", "ios": "https://dc.lft.to/lastmile_qr_scan"}, "lat": 38.90574933333333, "bike_id": "9c2af4d1bf21ba9c82c62b4003b56dec", "is_disabled": 0, "lon": -77.04193416666666, "is_reserved": 0, "fusion_lat": 0.0, "type": "electric_scooter"}, {"fusion_lon": 0.0, "name": "b425d19abf7005f5fed2fdb64e69b673", "rental_uris": {"android": "https://dc.lft.to/lastmile_qr_scan", "ios": "https://dc.lft.to/lastmile_qr_scan"}, "lat": 38.9067915, "bike_id": "b425d19abf7005f5fed2fdb64e69b673", "is_disabled": 0, "lon": -77.038061, "is_reserved": 0, "fusion_lat": 0.0, "type": "electric_scooter"}, {"fusion_lon": 0.0, "name": "bd7eece536445adc2ab8b5b20d997662", "rental_uris": {"android": "https://dc.lft.to/lastmile_qr_scan", "ios": "https://dc.lft.to/lastmile_qr_scan"}, "lat": 38.900678, "bike_id": "bd7eece536445adc2ab8b5b20d997662", "is_disabled": 0, "lon": -77.04534233333334, "is_reserved": 0, "fusion_lat": 0.0, "type": "electric_scooter"}, {"fusion_lon": 0.0, "name": "8beb502cfa5884e6c1f00d4ad7ef55ec", "rental_uris": {"android": "https://dc.lft.to/lastmile_qr_scan", "ios": "https://dc.lft.to/lastmile_qr_scan"}, "lat": 38.9158415, "bike_id": "8beb502cfa5884e6c1f00d4ad7ef55ec", "is_disabled": 0, "lon": -77.01232883333333, "is_reserved": 0, "fusion_lat": 0.0, "type": "electric_scooter"}, {"fusion_lon": 0.0, "name": "41f1f7ee97371191fe8cbe56211a8cf9", "rental_uris": {"android": "https://dc.lft.to/lastmile_qr_scan", "ios": "https://dc.lft.to/lastmile_qr_scan"}, "lat": 38.906029333333336, "bike_id": "41f1f7ee97371191fe8cbe56211a8cf9", "is_disabled": 0, "lon": -77.07619166666667, "is_reserved": 0, "fusion_lat": 0.0, "type": "electric_bike"}, {"fusion_lon": 0.0, "name": "34e6c65622ca2d074e6bb4f73c0c674f", "rental_uris": {"android": "https://dc.lft.to/lastmile_qr_scan", "ios": "https://dc.lft.to/lastmile_qr_scan"}, "lat": 38.90905516666667, "bike_id": "34e6c65622ca2d074e6bb4f73c0c674f", "is_disabled": 0, "lon": -77.0439335, "is_reserved": 0, "fusion_lat": 0.0, "type": "electric_scooter"}, {"fusion_lon": 0.0, "name": "f3d94a383ba7e8c1442df59928dc4f55", "rental_uris": {"android": "https://dc.lft.to/lastmile_qr_scan", "ios": "https://dc.lft.to/lastmile_qr_scan"}, "lat": 38.918546166666665, "bike_id": "f3d94a383ba7e8c1442df59928dc4f55", "is_disabled": 0, "lon": -77.02297466666667, "is_reserved": 0, "fusion_lat": 0.0, "type": "electric_scooter"}, {"fusion_lon": 0.0, "name": "057e3ee63f90a1da9c4d6415498dfcc1", "rental_uris": {"android": "https://dc.lft.to/lastmile_qr_scan", "ios": "https://dc.lft.to/lastmile_qr_scan"}, "lat": 38.90366866666667, "bike_id": "057e3ee63f90a1da9c4d6415498dfcc1", "is_disabled": 0, "lon": -77.03547616666667, "is_reserved": 0, "fusion_lat": 0.0, "type": "electric_scooter"}, {"fusion_lon": 0.0, "name": "2c258d8528d5f60ae7071402b1a73fad", "rental_uris": {"android": "https://dc.lft.to/lastmile_qr_scan", "ios": "https://dc.lft.to/lastmile_qr_scan"}, "lat": 38.9004705, "bike_id": "2c258d8528d5f60ae7071402b1a73fad", "is_disabled": 0, "lon": -77.043263, "is_reserved": 0, "fusion_lat": 0.0, "type": "electric_scooter"}, {"fusion_lon": 0.0, "name": "13fa5feb9819e0f0901101b5e266b39b", "rental_uris": {"android": "https://dc.lft.to/lastmile_qr_scan", "ios": "https://dc.lft.to/lastmile_qr_scan"}, "lat": 38.896482166666665, "bike_id": "13fa5feb9819e0f0901101b5e266b39b", "is_disabled": 0, "lon": -77.02380983333333, "is_reserved": 0, "fusion_lat": 0.0, "type": "electric_scooter"}, {"fusion_lon": 0.0, "name": "9fd84aa423ecef80d7d8f241e7a7a300", "rental_uris": {"android": "https://dc.lft.to/lastmile_qr_scan", "ios": "https://dc.lft.to/lastmile_qr_scan"}, "lat": 38.93060066666666, "bike_id": "9fd84aa423ecef80d7d8f241e7a7a300", "is_disabled": 0, "lon": -77.05578066666666, "is_reserved": 0, "fusion_lat": 0.0, "type": "electric_scooter"}, {"fusion_lon": 0.0, "name": "9156849942e1820e69556b0c5fe9017c", "rental_uris": {"android": "https://dc.lft.to/lastmile_qr_scan", "ios": "https://dc.lft.to/lastmile_qr_scan"}, "lat": 38.882108, "bike_id": "9156849942e1820e69556b0c5fe9017c", "is_disabled": 0, "lon": -77.028581, "is_reserved": 0, "fusion_lat": 0.0, "type": "electric_scooter"}, {"fusion_lon": 0.0, "name": "eb8e99e78fb6e1005e18845d0ad8eb3f", "rental_uris": {"android": "https://dc.lft.to/lastmile_qr_scan", "ios": "https://dc.lft.to/lastmile_qr_scan"}, "lat": 38.8065535, "bike_id": "eb8e99e78fb6e1005e18845d0ad8eb3f", "is_disabled": 0, "lon": -77.08760416666667, "is_reserved": 0, "fusion_lat": 0.0, "type": "electric_bike"}, {"fusion_lon": 0.0, "name": "1fc9a8d7532b37d5fe5318f24034a79f", "rental_uris": {"android": "https://dc.lft.to/lastmile_qr_scan", "ios": "https://dc.lft.to/lastmile_qr_scan"}, "lat": 38.904503, "bike_id": "1fc9a8d7532b37d5fe5318f24034a79f", "is_disabled": 0, "lon": -77.02148683333333, "is_reserved": 0, "fusion_lat": 0.0, "type": "electric_scooter"}, {"fusion_lon": 0.0, "name": "22dc393afa2029def6f5d9c01f81e4ef", "rental_uris": {"android": "https://dc.lft.to/lastmile_qr_scan", "ios": "https://dc.lft.to/lastmile_qr_scan"}, "lat": 38.93890866666667, "bike_id": "22dc393afa2029def6f5d9c01f81e4ef", "is_disabled": 0, "lon": -77.01760233333333, "is_reserved": 0, "fusion_lat": 0.0, "type": "electric_scooter"}, {"fusion_lon": 0.0, "name": "0469a789f56c6b4e25e22f5f1cf7bc99", "rental_uris": {"android": "https://dc.lft.to/lastmile_qr_scan", "ios": "https://dc.lft.to/lastmile_qr_scan"}, "lat": 38.90601866666667, "bike_id": "0469a789f56c6b4e25e22f5f1cf7bc99", "is_disabled": 0, "lon": -77.0403805, "is_reserved": 0, "fusion_lat": 0.0, "type": "electric_scooter"}, {"fusion_lon": 0.0, "name": "124a1cd0c3a86076bb34f4ecd5e5497b", "rental_uris": {"android": "https://dc.lft.to/lastmile_qr_scan", "ios": "https://dc.lft.to/lastmile_qr_scan"}, "lat": 38.90683833333333, "bike_id": "124a1cd0c3a86076bb34f4ecd5e5497b", "is_disabled": 0, "lon": -77.026941, "is_reserved": 0, "fusion_lat": 0.0, "type": "electric_scooter"}, {"fusion_lon": 0.0, "name": "d4bb60203b0d361de25494d96d6260f6", "rental_uris": {"android": "https://dc.lft.to/lastmile_qr_scan", "ios": "https://dc.lft.to/lastmile_qr_scan"}, "lat": 38.8427745, "bike_id": "d4bb60203b0d361de25494d96d6260f6", "is_disabled": 0, "lon": -76.98841433333334, "is_reserved": 0, "fusion_lat": 0.0, "type": "electric_bike"}, {"fusion_lon": 0.0, "name": "4e91ef4ac8ba105c0fe82a92f949e649", "rental_uris": {"android": "https://dc.lft.to/lastmile_qr_scan", "ios": "https://dc.lft.to/lastmile_qr_scan"}, "lat": 38.9280775, "bike_id": "4e91ef4ac8ba105c0fe82a92f949e649", "is_disabled": 0, "lon": -77.02429216666667, "is_reserved": 0, "fusion_lat": 0.0, "type": "electric_scooter"}, {"fusion_lon": 0.0, "name": "337d54fca1dc46a2517bde1bbe2917f7", "rental_uris": {"android": "https://dc.lft.to/lastmile_qr_scan", "ios": "https://dc.lft.to/lastmile_qr_scan"}, "lat": 38.89863916666667, "bike_id": "337d54fca1dc46a2517bde1bbe2917f7", "is_disabled": 0, "lon": -77.0488495, "is_reserved": 0, "fusion_lat": 0.0, "type": "electric_scooter"}, {"fusion_lon": 0.0, "name": "8713fcaf0bf3e049afe532a32967187e", "rental_uris": {"android": "https://dc.lft.to/lastmile_qr_scan", "ios": "https://dc.lft.to/lastmile_qr_scan"}, "lat": 38.888265833333335, "bike_id": "8713fcaf0bf3e049afe532a32967187e", "is_disabled": 0, "lon": -76.97711183333334, "is_reserved": 0, "fusion_lat": 0.0, "type": "electric_scooter"}, {"fusion_lon": 0.0, "name": "075acb579ada637807d2cde2d5381be7", "rental_uris": {"android": "https://dc.lft.to/lastmile_qr_scan", "ios": "https://dc.lft.to/lastmile_qr_scan"}, "lat": 38.94316533333333, "bike_id": "075acb579ada637807d2cde2d5381be7", "is_disabled": 0, "lon": -76.99016666666667, "is_reserved": 0, "fusion_lat": 0.0, "type": "electric_bike"}, {"fusion_lon": 0.0, "name": "b468c9ac6859d9d339cc7742cb3a3ce5", "rental_uris": {"android": "https://dc.lft.to/lastmile_qr_scan", "ios": "https://dc.lft.to/lastmile_qr_scan"}, "lat": 38.87748333333333, "bike_id": "b468c9ac6859d9d339cc7742cb3a3ce5", "is_disabled": 0, "lon": -77.00578266666666, "is_reserved": 0, "fusion_lat": 0.0, "type": "electric_scooter"}, {"fusion_lon": 0.0, "name": "c315253cf8001f0dfa9824783ed02fed", "rental_uris": {"android": "https://dc.lft.to/lastmile_qr_scan", "ios": "https://dc.lft.to/lastmile_qr_scan"}, "lat": 38.931390666666665, "bike_id": "c315253cf8001f0dfa9824783ed02fed", "is_disabled": 0, "lon": -77.05694233333334, "is_reserved": 0, "fusion_lat": 0.0, "type": "electric_scooter"}, {"fusion_lon": 0.0, "name": "1a45e8c6a10c52224a038c089d5f2934", "rental_uris": {"android": "https://dc.lft.to/lastmile_qr_scan", "ios": "https://dc.lft.to/lastmile_qr_scan"}, "lat": 38.96029333333333, "bike_id": "1a45e8c6a10c52224a038c089d5f2934", "is_disabled": 0, "lon": -77.024292, "is_reserved": 0, "fusion_lat": 0.0, "type": "electric_scooter"}, {"fusion_lon": 0.0, "name": "6f1c13b192485e873200af7f71baef50", "rental_uris": {"android": "https://dc.lft.to/lastmile_qr_scan", "ios": "https://dc.lft.to/lastmile_qr_scan"}, "lat": 38.912449333333335, "bike_id": "6f1c13b192485e873200af7f71baef50", "is_disabled": 0, "lon": -76.98666966666667, "is_reserved": 0, "fusion_lat": 0.0, "type": "electric_scooter"}, {"fusion_lon": 0.0, "name": "6fa5a9890aa94ec8cf3c3097724644d9", "rental_uris": {"android": "https://dc.lft.to/lastmile_qr_scan", "ios": "https://dc.lft.to/lastmile_qr_scan"}, "lat": 38.896006, "bike_id": "6fa5a9890aa94ec8cf3c3097724644d9", "is_disabled": 0, "lon": -76.9678195, "is_reserved": 0, "fusion_lat": 0.0, "type": "electric_bike"}, {"fusion_lon": 0.0, "name": "7d59e119f46070d30436596036817ed1", "rental_uris": {"android": "https://dc.lft.to/lastmile_qr_scan", "ios": "https://dc.lft.to/lastmile_qr_scan"}, "lat": 38.953054333333334, "bike_id": "7d59e119f46070d30436596036817ed1", "is_disabled": 0, "lon": -77.02775266666667, "is_reserved": 0, "fusion_lat": 0.0, "type": "electric_scooter"}, {"fusion_lon": 0.0, "name": "9c7b323c86c6a5987dd6c6207fed6d64", "rental_uris": {"android": "https://dc.lft.to/lastmile_qr_scan", "ios": "https://dc.lft.to/lastmile_qr_scan"}, "lat": 38.9068125, "bike_id": "9c7b323c86c6a5987dd6c6207fed6d64", "is_disabled": 0, "lon": -77.02693816666667, "is_reserved": 0, "fusion_lat": 0.0, "type": "electric_scooter"}, {"fusion_lon": 0.0, "name": "3714e1f11ef2213501cf7df66177b3cb", "rental_uris": {"android": "https://dc.lft.to/lastmile_qr_scan", "ios": "https://dc.lft.to/lastmile_qr_scan"}, "lat": 38.9199475, "bike_id": "3714e1f11ef2213501cf7df66177b3cb", "is_disabled": 0, "lon": -77.02392333333333, "is_reserved": 0, "fusion_lat": 0.0, "type": "electric_scooter"}, {"fusion_lon": 0.0, "name": "e5ff1b0adad88594af5ab8b122c7e527", "rental_uris": {"android": "https://dc.lft.to/lastmile_qr_scan", "ios": "https://dc.lft.to/lastmile_qr_scan"}, "lat": 38.90873533333333, "bike_id": "e5ff1b0adad88594af5ab8b122c7e527", "is_disabled": 0, "lon": -77.00046033333334, "is_reserved": 0, "fusion_lat": 0.0, "type": "electric_scooter"}, {"fusion_lon": 0.0, "name": "fbebb6c22f48a509da2ea926e08d66b7", "rental_uris": {"android": "https://dc.lft.to/lastmile_qr_scan", "ios": "https://dc.lft.to/lastmile_qr_scan"}, "lat": 38.92687183333334, "bike_id": "fbebb6c22f48a509da2ea926e08d66b7", "is_disabled": 0, "lon": -77.0296145, "is_reserved": 0, "fusion_lat": 0.0, "type": "electric_scooter"}, {"fusion_lon": 0.0, "name": "3a2ca4cd7db70529296603c17ac930c7", "rental_uris": {"android": "https://dc.lft.to/lastmile_qr_scan", "ios": "https://dc.lft.to/lastmile_qr_scan"}, "lat": 38.889931833333335, "bike_id": "3a2ca4cd7db70529296603c17ac930c7", "is_disabled": 0, "lon": -76.99516933333334, "is_reserved": 0, "fusion_lat": 0.0, "type": "electric_scooter"}, {"fusion_lon": 0.0, "name": "ede037985832b423d78392acb1a5dc11", "rental_uris": {"android": "https://dc.lft.to/lastmile_qr_scan", "ios": "https://dc.lft.to/lastmile_qr_scan"}, "lat": 38.913661833333336, "bike_id": "ede037985832b423d78392acb1a5dc11", "is_disabled": 0, "lon": -77.0459505, "is_reserved": 0, "fusion_lat": 0.0, "type": "electric_scooter"}, {"fusion_lon": 0.0, "name": "93a1a8173506c87d6c163781c9969b9a", "rental_uris": {"android": "https://dc.lft.to/lastmile_qr_scan", "ios": "https://dc.lft.to/lastmile_qr_scan"}, "lat": 38.89612783333333, "bike_id": "93a1a8173506c87d6c163781c9969b9a", "is_disabled": 0, "lon": -77.03042516666666, "is_reserved": 0, "fusion_lat": 0.0, "type": "electric_scooter"}, {"fusion_lon": 0.0, "name": "cb91b239d1057accc71db51033509ef3", "rental_uris": {"android": "https://dc.lft.to/lastmile_qr_scan", "ios": "https://dc.lft.to/lastmile_qr_scan"}, "lat": 38.929620666666665, "bike_id": "cb91b239d1057accc71db51033509ef3", "is_disabled": 0, "lon": -77.01148333333333, "is_reserved": 0, "fusion_lat": 0.0, "type": "electric_scooter"}, {"fusion_lon": 0.0, "name": "624637f560bb6c0f25c79fe869f97e14", "rental_uris": {"android": "https://dc.lft.to/lastmile_qr_scan", "ios": "https://dc.lft.to/lastmile_qr_scan"}, "lat": 38.9036815, "bike_id": "624637f560bb6c0f25c79fe869f97e14", "is_disabled": 0, "lon": -77.02913516666666, "is_reserved": 0, "fusion_lat": 0.0, "type": "electric_scooter"}, {"fusion_lon": 0.0, "name": "c26a0c37a405a9f1ce5235ecb22d5c8d", "rental_uris": {"android": "https://dc.lft.to/lastmile_qr_scan", "ios": "https://dc.lft.to/lastmile_qr_scan"}, "lat": 38.92495533333334, "bike_id": "c26a0c37a405a9f1ce5235ecb22d5c8d", "is_disabled": 0, "lon": -77.0391055, "is_reserved": 0, "fusion_lat": 0.0, "type": "electric_scooter"}, {"fusion_lon": 0.0, "name": "cda0f727440ccdab95e00e9328fa900b", "rental_uris": {"android": "https://dc.lft.to/lastmile_qr_scan", "ios": "https://dc.lft.to/lastmile_qr_scan"}, "lat": 38.88777, "bike_id": "cda0f727440ccdab95e00e9328fa900b", "is_disabled": 0, "lon": -76.93264316666667, "is_reserved": 0, "fusion_lat": 0.0, "type": "electric_scooter"}, {"fusion_lon": 0.0, "name": "fdf3b159d8d999311ece8278b2fbdda1", "rental_uris": {"android": "https://dc.lft.to/lastmile_qr_scan", "ios": "https://dc.lft.to/lastmile_qr_scan"}, "lat": 38.92170466666666, "bike_id": "fdf3b159d8d999311ece8278b2fbdda1", "is_disabled": 0, "lon": -77.020245, "is_reserved": 0, "fusion_lat": 0.0, "type": "electric_scooter"}, {"fusion_lon": 0.0, "name": "2ad1de930c8c98a63de6cdebd1376536", "rental_uris": {"android": "https://dc.lft.to/lastmile_qr_scan", "ios": "https://dc.lft.to/lastmile_qr_scan"}, "lat": 38.926168, "bike_id": "2ad1de930c8c98a63de6cdebd1376536", "is_disabled": 0, "lon": -77.021598, "is_reserved": 0, "fusion_lat": 0.0, "type": "electric_scooter"}, {"fusion_lon": 0.0, "name": "a79fd6322c8e1b92497ffd12c0859a98", "rental_uris": {"android": "https://dc.lft.to/lastmile_qr_scan", "ios": "https://dc.lft.to/lastmile_qr_scan"}, "lat": 38.9007085, "bike_id": "a79fd6322c8e1b92497ffd12c0859a98", "is_disabled": 0, "lon": -77.03358233333333, "is_reserved": 0, "fusion_lat": 0.0, "type": "electric_scooter"}, {"fusion_lon": 0.0, "name": "4472a70200692182c854d04d18f7c466", "rental_uris": {"android": "https://dc.lft.to/lastmile_qr_scan", "ios": "https://dc.lft.to/lastmile_qr_scan"}, "lat": 38.91478166666667, "bike_id": "4472a70200692182c854d04d18f7c466", "is_disabled": 0, "lon": -77.03212716666667, "is_reserved": 0, "fusion_lat": 0.0, "type": "electric_scooter"}, {"fusion_lon": 0.0, "name": "85e3a0e472dde8729c0e63903e7f541c", "rental_uris": {"android": "https://dc.lft.to/lastmile_qr_scan", "ios": "https://dc.lft.to/lastmile_qr_scan"}, "lat": 38.903484166666665, "bike_id": "85e3a0e472dde8729c0e63903e7f541c", "is_disabled": 0, "lon": -76.9827465, "is_reserved": 0, "fusion_lat": 0.0, "type": "electric_scooter"}, {"fusion_lon": 0.0, "name": "988ef7d89fd20ea65a85c7098c21149f", "rental_uris": {"android": "https://dc.lft.to/lastmile_qr_scan", "ios": "https://dc.lft.to/lastmile_qr_scan"}, "lat": 38.91787983333333, "bike_id": "988ef7d89fd20ea65a85c7098c21149f", "is_disabled": 0, "lon": -77.04025933333334, "is_reserved": 0, "fusion_lat": 0.0, "type": "electric_scooter"}, {"fusion_lon": 0.0, "name": "109bf21aaa138e0e2108efd17f6e8d1b", "rental_uris": {"android": "https://dc.lft.to/lastmile_qr_scan", "ios": "https://dc.lft.to/lastmile_qr_scan"}, "lat": 38.90404016666667, "bike_id": "109bf21aaa138e0e2108efd17f6e8d1b", "is_disabled": 0, "lon": -77.06854716666666, "is_reserved": 0, "fusion_lat": 0.0, "type": "electric_scooter"}, {"fusion_lon": 0.0, "name": "3576fb877320771fae84bccde62078d9", "rental_uris": {"android": "https://dc.lft.to/lastmile_qr_scan", "ios": "https://dc.lft.to/lastmile_qr_scan"}, "lat": 38.92043366666667, "bike_id": "3576fb877320771fae84bccde62078d9", "is_disabled": 0, "lon": -77.01675683333333, "is_reserved": 0, "fusion_lat": 0.0, "type": "electric_scooter"}, {"fusion_lon": 0.0, "name": "1dac39a4e722645ba84353bad1b73c9f", "rental_uris": {"android": "https://dc.lft.to/lastmile_qr_scan", "ios": "https://dc.lft.to/lastmile_qr_scan"}, "lat": 38.893480833333335, "bike_id": "1dac39a4e722645ba84353bad1b73c9f", "is_disabled": 0, "lon": -76.95244, "is_reserved": 0, "fusion_lat": 0.0, "type": "electric_scooter"}, {"fusion_lon": 0.0, "name": "ba906674fe5936e64345856987557ba7", "rental_uris": {"android": "https://dc.lft.to/lastmile_qr_scan", "ios": "https://dc.lft.to/lastmile_qr_scan"}, "lat": 38.90321733333333, "bike_id": "ba906674fe5936e64345856987557ba7", "is_disabled": 0, "lon": -77.0333015, "is_reserved": 0, "fusion_lat": 0.0, "type": "electric_scooter"}, {"fusion_lon": 0.0, "name": "e7d31f1b5a815a1cae4261495df631c7", "rental_uris": {"android": "https://dc.lft.to/lastmile_qr_scan", "ios": "https://dc.lft.to/lastmile_qr_scan"}, "lat": 38.911075833333335, "bike_id": "e7d31f1b5a815a1cae4261495df631c7", "is_disabled": 0, "lon": -77.02229033333333, "is_reserved": 0, "fusion_lat": 0.0, "type": "electric_scooter"}, {"fusion_lon": 0.0, "name": "2e0ccc183f0e4214b4e537c47c67431a", "rental_uris": {"android": "https://dc.lft.to/lastmile_qr_scan", "ios": "https://dc.lft.to/lastmile_qr_scan"}, "lat": 38.89572583333333, "bike_id": "2e0ccc183f0e4214b4e537c47c67431a", "is_disabled": 0, "lon": -77.011077, "is_reserved": 0, "fusion_lat": 0.0, "type": "electric_scooter"}, {"fusion_lon": 0.0, "name": "b35f680c6d8fc9342737dbe04925fae4", "rental_uris": {"android": "https://dc.lft.to/lastmile_qr_scan", "ios": "https://dc.lft.to/lastmile_qr_scan"}, "lat": 38.911287, "bike_id": "b35f680c6d8fc9342737dbe04925fae4", "is_disabled": 0, "lon": -77.0219175, "is_reserved": 0, "fusion_lat": 0.0, "type": "electric_scooter"}, {"fusion_lon": 0.0, "name": "86dc17f7b2fd33fa576d47faf2f753f3", "rental_uris": {"android": "https://dc.lft.to/lastmile_qr_scan", "ios": "https://dc.lft.to/lastmile_qr_scan"}, "lat": 38.91981716666667, "bike_id": "86dc17f7b2fd33fa576d47faf2f753f3", "is_disabled": 0, "lon": -77.07116233333333, "is_reserved": 0, "fusion_lat": 0.0, "type": "electric_scooter"}, {"fusion_lon": 0.0, "name": "f68ca5aa4429256009f0dee74d36e8e6", "rental_uris": {"android": "https://dc.lft.to/lastmile_qr_scan", "ios": "https://dc.lft.to/lastmile_qr_scan"}, "lat": 38.923340833333334, "bike_id": "f68ca5aa4429256009f0dee74d36e8e6", "is_disabled": 0, "lon": -77.05472666666667, "is_reserved": 0, "fusion_lat": 0.0, "type": "electric_scooter"}, {"fusion_lon": 0.0, "name": "88da2f06879c94de8b73cb12af78b117", "rental_uris": {"android": "https://dc.lft.to/lastmile_qr_scan", "ios": "https://dc.lft.to/lastmile_qr_scan"}, "lat": 38.87562283333333, "bike_id": "88da2f06879c94de8b73cb12af78b117", "is_disabled": 0, "lon": -77.00589183333334, "is_reserved": 0, "fusion_lat": 0.0, "type": "electric_scooter"}, {"fusion_lon": 0.0, "name": "e966df680d64a6a7ead52c248c61a0ce", "rental_uris": {"android": "https://dc.lft.to/lastmile_qr_scan", "ios": "https://dc.lft.to/lastmile_qr_scan"}, "lat": 38.857140333333334, "bike_id": "e966df680d64a6a7ead52c248c61a0ce", "is_disabled": 0, "lon": -76.98127633333333, "is_reserved": 0, "fusion_lat": 0.0, "type": "electric_scooter"}, {"fusion_lon": 0.0, "name": "cb050933a521ee4656a3626b578162e9", "rental_uris": {"android": "https://dc.lft.to/lastmile_qr_scan", "ios": "https://dc.lft.to/lastmile_qr_scan"}, "lat": 38.864810166666665, "bike_id": "cb050933a521ee4656a3626b578162e9", "is_disabled": 0, "lon": -76.98229616666667, "is_reserved": 0, "fusion_lat": 0.0, "type": "electric_scooter"}, {"fusion_lon": 0.0, "name": "2bdfd52d5745c743b8d0f350ea78023c", "rental_uris": {"android": "https://dc.lft.to/lastmile_qr_scan", "ios": "https://dc.lft.to/lastmile_qr_scan"}, "lat": 38.925993, "bike_id": "2bdfd52d5745c743b8d0f350ea78023c", "is_disabled": 0, "lon": -77.0249355, "is_reserved": 0, "fusion_lat": 0.0, "type": "electric_scooter"}, {"fusion_lon": 0.0, "name": "04b63e4ed0b0dda3305b09cad3ea5e0b", "rental_uris": {"android": "https://dc.lft.to/lastmile_qr_scan", "ios": "https://dc.lft.to/lastmile_qr_scan"}, "lat": 38.865096333333334, "bike_id": "04b63e4ed0b0dda3305b09cad3ea5e0b", "is_disabled": 0, "lon": -76.96899083333334, "is_reserved": 0, "fusion_lat": 0.0, "type": "electric_scooter"}, {"fusion_lon": 0.0, "name": "2a332bebb87e6a89b5e555f27f35167f", "rental_uris": {"android": "https://dc.lft.to/lastmile_qr_scan", "ios": "https://dc.lft.to/lastmile_qr_scan"}, "lat": 38.91888683333333, "bike_id": "2a332bebb87e6a89b5e555f27f35167f", "is_disabled": 0, "lon": -77.01895983333333, "is_reserved": 0, "fusion_lat": 0.0, "type": "electric_scooter"}, {"fusion_lon": 0.0, "name": "c3d4c6f23136f825ae6282057f92a915", "rental_uris": {"android": "https://dc.lft.to/lastmile_qr_scan", "ios": "https://dc.lft.to/lastmile_qr_scan"}, "lat": 38.90168933333333, "bike_id": "c3d4c6f23136f825ae6282057f92a915", "is_disabled": 0, "lon": -76.98067433333334, "is_reserved": 0, "fusion_lat": 0.0, "type": "electric_scooter"}, {"fusion_lon": 0.0, "name": "89c2d741e9ff61b8700f0b515ed00f1c", "rental_uris": {"android": "https://dc.lft.to/lastmile_qr_scan", "ios": "https://dc.lft.to/lastmile_qr_scan"}, "lat": 38.92418216666667, "bike_id": "89c2d741e9ff61b8700f0b515ed00f1c", "is_disabled": 0, "lon": -77.020048, "is_reserved": 0, "fusion_lat": 0.0, "type": "electric_scooter"}, {"fusion_lon": 0.0, "name": "f219557a801304a3a8fbc35792409abb", "rental_uris": {"android": "https://dc.lft.to/lastmile_qr_scan", "ios": "https://dc.lft.to/lastmile_qr_scan"}, "lat": 38.88079883333333, "bike_id": "f219557a801304a3a8fbc35792409abb", "is_disabled": 0, "lon": -76.99164816666666, "is_reserved": 0, "fusion_lat": 0.0, "type": "electric_scooter"}, {"fusion_lon": 0.0, "name": "f3db2c215a6e0cbd13559979b1a61924", "rental_uris": {"android": "https://dc.lft.to/lastmile_qr_scan", "ios": "https://dc.lft.to/lastmile_qr_scan"}, "lat": 38.89745966666667, "bike_id": "f3db2c215a6e0cbd13559979b1a61924", "is_disabled": 0, "lon": -77.02150883333333, "is_reserved": 0, "fusion_lat": 0.0, "type": "electric_scooter"}, {"fusion_lon": 0.0, "name": "0a17c83727560823ad667c81d7412554", "rental_uris": {"android": "https://dc.lft.to/lastmile_qr_scan", "ios": "https://dc.lft.to/lastmile_qr_scan"}, "lat": 38.922491666666666, "bike_id": "0a17c83727560823ad667c81d7412554", "is_disabled": 0, "lon": -77.0304545, "is_reserved": 0, "fusion_lat": 0.0, "type": "electric_scooter"}, {"fusion_lon": 0.0, "name": "0c859909aaef32c340cc26d68bea4fb4", "rental_uris": {"android": "https://dc.lft.to/lastmile_qr_scan", "ios": "https://dc.lft.to/lastmile_qr_scan"}, "lat": 38.93197283333333, "bike_id": "0c859909aaef32c340cc26d68bea4fb4", "is_disabled": 0, "lon": -77.02834166666666, "is_reserved": 0, "fusion_lat": 0.0, "type": "electric_scooter"}, {"fusion_lon": 0.0, "name": "b8fcec01ff58c43ad4c71fd32794b800", "rental_uris": {"android": "https://dc.lft.to/lastmile_qr_scan", "ios": "https://dc.lft.to/lastmile_qr_scan"}, "lat": 38.928599, "bike_id": "b8fcec01ff58c43ad4c71fd32794b800", "is_disabled": 0, "lon": -77.05427983333334, "is_reserved": 0, "fusion_lat": 0.0, "type": "electric_scooter"}, {"fusion_lon": 0.0, "name": "c44b1b62928a5a117816d324080e718f", "rental_uris": {"android": "https://dc.lft.to/lastmile_qr_scan", "ios": "https://dc.lft.to/lastmile_qr_scan"}, "lat": 38.89837216666667, "bike_id": "c44b1b62928a5a117816d324080e718f", "is_disabled": 0, "lon": -77.0282205, "is_reserved": 0, "fusion_lat": 0.0, "type": "electric_scooter"}, {"fusion_lon": 0.0, "name": "8a9ac353469dbb46bf1e59f0c183e319", "rental_uris": {"android": "https://dc.lft.to/lastmile_qr_scan", "ios": "https://dc.lft.to/lastmile_qr_scan"}, "lat": 38.895622833333334, "bike_id": "8a9ac353469dbb46bf1e59f0c183e319", "is_disabled": 0, "lon": -77.01112266666667, "is_reserved": 0, "fusion_lat": 0.0, "type": "electric_scooter"}, {"fusion_lon": 0.0, "name": "47961412b0fd97068170ed8d06926043", "rental_uris": {"android": "https://dc.lft.to/lastmile_qr_scan", "ios": "https://dc.lft.to/lastmile_qr_scan"}, "lat": 38.920815833333336, "bike_id": "47961412b0fd97068170ed8d06926043", "is_disabled": 0, "lon": -77.02307583333334, "is_reserved": 0, "fusion_lat": 0.0, "type": "electric_scooter"}, {"fusion_lon": 0.0, "name": "fbf3665871d62ac0ec08bf6b87664097", "rental_uris": {"android": "https://dc.lft.to/lastmile_qr_scan", "ios": "https://dc.lft.to/lastmile_qr_scan"}, "lat": 38.91734233333333, "bike_id": "fbf3665871d62ac0ec08bf6b87664097", "is_disabled": 0, "lon": -77.04174266666666, "is_reserved": 0, "fusion_lat": 0.0, "type": "electric_scooter"}, {"fusion_lon": 0.0, "name": "f5329eddd32b7f0d57e9ce40a9e8a80d", "rental_uris": {"android": "https://dc.lft.to/lastmile_qr_scan", "ios": "https://dc.lft.to/lastmile_qr_scan"}, "lat": 38.91019283333333, "bike_id": "f5329eddd32b7f0d57e9ce40a9e8a80d", "is_disabled": 0, "lon": -77.04454933333334, "is_reserved": 0, "fusion_lat": 0.0, "type": "electric_scooter"}, {"fusion_lon": 0.0, "name": "9c6ecb959657b8b4ebdc0a6a7705f682", "rental_uris": {"android": "https://dc.lft.to/lastmile_qr_scan", "ios": "https://dc.lft.to/lastmile_qr_scan"}, "lat": 38.9096745, "bike_id": "9c6ecb959657b8b4ebdc0a6a7705f682", "is_disabled": 0, "lon": -77.073309, "is_reserved": 0, "fusion_lat": 0.0, "type": "electric_scooter"}, {"fusion_lon": 0.0, "name": "adea502f1538ee36697bfa24b7a06011", "rental_uris": {"android": "https://dc.lft.to/lastmile_qr_scan", "ios": "https://dc.lft.to/lastmile_qr_scan"}, "lat": 38.884997166666665, "bike_id": "adea502f1538ee36697bfa24b7a06011", "is_disabled": 0, "lon": -77.02201, "is_reserved": 0, "fusion_lat": 0.0, "type": "electric_scooter"}, {"fusion_lon": 0.0, "name": "5046d52e163382c2ccebe07223d388e4", "rental_uris": {"android": "https://dc.lft.to/lastmile_qr_scan", "ios": "https://dc.lft.to/lastmile_qr_scan"}, "lat": 38.894687, "bike_id": "5046d52e163382c2ccebe07223d388e4", "is_disabled": 0, "lon": -77.02021966666666, "is_reserved": 0, "fusion_lat": 0.0, "type": "electric_scooter"}, {"fusion_lon": 0.0, "name": "7b44d2255433f85d33406831029c9403", "rental_uris": {"android": "https://dc.lft.to/lastmile_qr_scan", "ios": "https://dc.lft.to/lastmile_qr_scan"}, "lat": 38.93059483333333, "bike_id": "7b44d2255433f85d33406831029c9403", "is_disabled": 0, "lon": -77.02787266666667, "is_reserved": 0, "fusion_lat": 0.0, "type": "electric_scooter"}, {"fusion_lon": 0.0, "name": "4ca674016674ce612a62a0bdc30c165f", "rental_uris": {"android": "https://dc.lft.to/lastmile_qr_scan", "ios": "https://dc.lft.to/lastmile_qr_scan"}, "lat": 38.929038, "bike_id": "4ca674016674ce612a62a0bdc30c165f", "is_disabled": 0, "lon": -77.0327495, "is_reserved": 0, "fusion_lat": 0.0, "type": "electric_scooter"}, {"fusion_lon": 0.0, "name": "fee7ffc2dfdf226bc1e8e489c598a471", "rental_uris": {"android": "https://dc.lft.to/lastmile_qr_scan", "ios": "https://dc.lft.to/lastmile_qr_scan"}, "lat": 38.92091666666666, "bike_id": "fee7ffc2dfdf226bc1e8e489c598a471", "is_disabled": 0, "lon": -77.00433633333333, "is_reserved": 0, "fusion_lat": 0.0, "type": "electric_scooter"}, {"fusion_lon": 0.0, "name": "16b6e710e44e186f1a2b56ba6688c07f", "rental_uris": {"android": "https://dc.lft.to/lastmile_qr_scan", "ios": "https://dc.lft.to/lastmile_qr_scan"}, "lat": 38.90952166666667, "bike_id": "16b6e710e44e186f1a2b56ba6688c07f", "is_disabled": 0, "lon": -77.046623, "is_reserved": 0, "fusion_lat": 0.0, "type": "electric_scooter"}, {"fusion_lon": 0.0, "name": "60257d7a92b6eea3e85e0e8925acd876", "rental_uris": {"android": "https://dc.lft.to/lastmile_qr_scan", "ios": "https://dc.lft.to/lastmile_qr_scan"}, "lat": 38.91416566666667, "bike_id": "60257d7a92b6eea3e85e0e8925acd876", "is_disabled": 0, "lon": -77.02824716666667, "is_reserved": 0, "fusion_lat": 0.0, "type": "electric_scooter"}, {"fusion_lon": 0.0, "name": "2895d43121519c7afb32d400f8b9e20e", "rental_uris": {"android": "https://dc.lft.to/lastmile_qr_scan", "ios": "https://dc.lft.to/lastmile_qr_scan"}, "lat": 38.895289166666664, "bike_id": "2895d43121519c7afb32d400f8b9e20e", "is_disabled": 0, "lon": -77.04470116666667, "is_reserved": 0, "fusion_lat": 0.0, "type": "electric_scooter"}, {"fusion_lon": 0.0, "name": "24478473543c640db6f163b5a5bdf0f6", "rental_uris": {"android": "https://dc.lft.to/lastmile_qr_scan", "ios": "https://dc.lft.to/lastmile_qr_scan"}, "lat": 39.084929, "bike_id": "24478473543c640db6f163b5a5bdf0f6", "is_disabled": 0, "lon": -76.95050016666667, "is_reserved": 0, "fusion_lat": 0.0, "type": "electric_bike"}, {"fusion_lon": 0.0, "name": "18a27ef199fcfc2501fe0388ea43cb9e", "rental_uris": {"android": "https://dc.lft.to/lastmile_qr_scan", "ios": "https://dc.lft.to/lastmile_qr_scan"}, "lat": 38.89226516666667, "bike_id": "18a27ef199fcfc2501fe0388ea43cb9e", "is_disabled": 0, "lon": -77.02517066666667, "is_reserved": 0, "fusion_lat": 0.0, "type": "electric_scooter"}, {"fusion_lon": 0.0, "name": "ba3a0b3650646540bf08656ea8993be7", "rental_uris": {"android": "https://dc.lft.to/lastmile_qr_scan", "ios": "https://dc.lft.to/lastmile_qr_scan"}, "lat": 38.944291166666666, "bike_id": "ba3a0b3650646540bf08656ea8993be7", "is_disabled": 0, "lon": -77.05523516666666, "is_reserved": 0, "fusion_lat": 0.0, "type": "electric_scooter"}, {"fusion_lon": 0.0, "name": "0e815b619ca1ee5d0da70d7bef5fb5f3", "rental_uris": {"android": "https://dc.lft.to/lastmile_qr_scan", "ios": "https://dc.lft.to/lastmile_qr_scan"}, "lat": 38.9038165, "bike_id": "0e815b619ca1ee5d0da70d7bef5fb5f3", "is_disabled": 0, "lon": -77.04501683333334, "is_reserved": 0, "fusion_lat": 0.0, "type": "electric_scooter"}, {"fusion_lon": 0.0, "name": "bb9b18d0bd57b9887567b519f28d50e2", "rental_uris": {"android": "https://dc.lft.to/lastmile_qr_scan", "ios": "https://dc.lft.to/lastmile_qr_scan"}, "lat": 38.8860805, "bike_id": "bb9b18d0bd57b9887567b519f28d50e2", "is_disabled": 0, "lon": -77.00291333333334, "is_reserved": 0, "fusion_lat": 0.0, "type": "electric_scooter"}, {"fusion_lon": 0.0, "name": "405c7df459a349a5e7274dc32ee4a303", "rental_uris": {"android": "https://dc.lft.to/lastmile_qr_scan", "ios": "https://dc.lft.to/lastmile_qr_scan"}, "lat": 38.9170245, "bike_id": "405c7df459a349a5e7274dc32ee4a303", "is_disabled": 0, "lon": -77.00113733333333, "is_reserved": 0, "fusion_lat": 0.0, "type": "electric_scooter"}, {"fusion_lon": 0.0, "name": "6d9573636bdfdbfc26914339e3d54e5b", "rental_uris": {"android": "https://dc.lft.to/lastmile_qr_scan", "ios": "https://dc.lft.to/lastmile_qr_scan"}, "lat": 38.930655333333334, "bike_id": "6d9573636bdfdbfc26914339e3d54e5b", "is_disabled": 0, "lon": -77.03947116666667, "is_reserved": 0, "fusion_lat": 0.0, "type": "electric_scooter"}, {"fusion_lon": 0.0, "name": "e0982b18ffe3e3d5cbded98543eeac36", "rental_uris": {"android": "https://dc.lft.to/lastmile_qr_scan", "ios": "https://dc.lft.to/lastmile_qr_scan"}, "lat": 38.962618666666664, "bike_id": "e0982b18ffe3e3d5cbded98543eeac36", "is_disabled": 0, "lon": -77.0135475, "is_reserved": 0, "fusion_lat": 0.0, "type": "electric_scooter"}, {"fusion_lon": 0.0, "name": "3992d2165e5ec999c9a93fb3bcb73d2c", "rental_uris": {"android": "https://dc.lft.to/lastmile_qr_scan", "ios": "https://dc.lft.to/lastmile_qr_scan"}, "lat": 38.90196533333334, "bike_id": "3992d2165e5ec999c9a93fb3bcb73d2c", "is_disabled": 0, "lon": -77.05902716666667, "is_reserved": 0, "fusion_lat": 0.0, "type": "electric_scooter"}, {"fusion_lon": 0.0, "name": "98272193815d0d1d658e4cba5b433a2c", "rental_uris": {"android": "https://dc.lft.to/lastmile_qr_scan", "ios": "https://dc.lft.to/lastmile_qr_scan"}, "lat": 38.89448016666667, "bike_id": "98272193815d0d1d658e4cba5b433a2c", "is_disabled": 0, "lon": -77.026783, "is_reserved": 0, "fusion_lat": 0.0, "type": "electric_scooter"}, {"fusion_lon": 0.0, "name": "d75e4289ff4084546dc035aef448a0f2", "rental_uris": {"android": "https://dc.lft.to/lastmile_qr_scan", "ios": "https://dc.lft.to/lastmile_qr_scan"}, "lat": 38.92963116666667, "bike_id": "d75e4289ff4084546dc035aef448a0f2", "is_disabled": 0, "lon": -77.02796283333333, "is_reserved": 0, "fusion_lat": 0.0, "type": "electric_scooter"}, {"fusion_lon": 0.0, "name": "0520d011a870105e5304deb4cd91c3ae", "rental_uris": {"android": "https://dc.lft.to/lastmile_qr_scan", "ios": "https://dc.lft.to/lastmile_qr_scan"}, "lat": 38.9232565, "bike_id": "0520d011a870105e5304deb4cd91c3ae", "is_disabled": 0, "lon": -77.021354, "is_reserved": 0, "fusion_lat": 0.0, "type": "electric_scooter"}, {"fusion_lon": 0.0, "name": "82bdac27f9aee04ee6c85742acb56681", "rental_uris": {"android": "https://dc.lft.to/lastmile_qr_scan", "ios": "https://dc.lft.to/lastmile_qr_scan"}, "lat": 38.903882333333335, "bike_id": "82bdac27f9aee04ee6c85742acb56681", "is_disabled": 0, "lon": -77.04366816666666, "is_reserved": 0, "fusion_lat": 0.0, "type": "electric_scooter"}, {"fusion_lon": 0.0, "name": "1bafabf1cf65c9e77a0c60dc8bd1167b", "rental_uris": {"android": "https://dc.lft.to/lastmile_qr_scan", "ios": "https://dc.lft.to/lastmile_qr_scan"}, "lat": 38.90742766666666, "bike_id": "1bafabf1cf65c9e77a0c60dc8bd1167b", "is_disabled": 0, "lon": -77.00365316666667, "is_reserved": 0, "fusion_lat": 0.0, "type": "electric_scooter"}, {"fusion_lon": 0.0, "name": "0327e2977c519370ae3e3ade336fe45f", "rental_uris": {"android": "https://dc.lft.to/lastmile_qr_scan", "ios": "https://dc.lft.to/lastmile_qr_scan"}, "lat": 38.901671, "bike_id": "0327e2977c519370ae3e3ade336fe45f", "is_disabled": 0, "lon": -77.05056866666666, "is_reserved": 0, "fusion_lat": 0.0, "type": "electric_scooter"}, {"fusion_lon": 0.0, "name": "9f3eea70b02066de4cf382c8f515e275", "rental_uris": {"android": "https://dc.lft.to/lastmile_qr_scan", "ios": "https://dc.lft.to/lastmile_qr_scan"}, "lat": 38.90074583333333, "bike_id": "9f3eea70b02066de4cf382c8f515e275", "is_disabled": 0, "lon": -77.03189266666666, "is_reserved": 0, "fusion_lat": 0.0, "type": "electric_scooter"}, {"fusion_lon": 0.0, "name": "c1606b2123d05562ef7a48dee4a3c4ad", "rental_uris": {"android": "https://dc.lft.to/lastmile_qr_scan", "ios": "https://dc.lft.to/lastmile_qr_scan"}, "lat": 38.92442366666667, "bike_id": "c1606b2123d05562ef7a48dee4a3c4ad", "is_disabled": 0, "lon": -77.020192, "is_reserved": 0, "fusion_lat": 0.0, "type": "electric_scooter"}, {"fusion_lon": 0.0, "name": "d83a4c4f64933ed462246c664c239020", "rental_uris": {"android": "https://dc.lft.to/lastmile_qr_scan", "ios": "https://dc.lft.to/lastmile_qr_scan"}, "lat": 38.932975, "bike_id": "d83a4c4f64933ed462246c664c239020", "is_disabled": 0, "lon": -77.085268, "is_reserved": 0, "fusion_lat": 0.0, "type": "electric_scooter"}, {"fusion_lon": 0.0, "name": "c3da50312b758acaeb2df45c3300a394", "rental_uris": {"android": "https://dc.lft.to/lastmile_qr_scan", "ios": "https://dc.lft.to/lastmile_qr_scan"}, "lat": 38.89480483333333, "bike_id": "c3da50312b758acaeb2df45c3300a394", "is_disabled": 0, "lon": -77.02105933333333, "is_reserved": 0, "fusion_lat": 0.0, "type": "electric_scooter"}, {"fusion_lon": 0.0, "name": "35e825de21f5fe5e04d4a841079a8acd", "rental_uris": {"android": "https://dc.lft.to/lastmile_qr_scan", "ios": "https://dc.lft.to/lastmile_qr_scan"}, "lat": 38.9246495, "bike_id": "35e825de21f5fe5e04d4a841079a8acd", "is_disabled": 0, "lon": -77.05240516666667, "is_reserved": 0, "fusion_lat": 0.0, "type": "electric_scooter"}, {"fusion_lon": 0.0, "name": "bc290280c043faa4b0fb831b75683dfa", "rental_uris": {"android": "https://dc.lft.to/lastmile_qr_scan", "ios": "https://dc.lft.to/lastmile_qr_scan"}, "lat": 38.911191, "bike_id": "bc290280c043faa4b0fb831b75683dfa", "is_disabled": 0, "lon": -77.0383415, "is_reserved": 0, "fusion_lat": 0.0, "type": "electric_scooter"}, {"fusion_lon": 0.0, "name": "99a7a60f51cac895103744e6da7f6464", "rental_uris": {"android": "https://dc.lft.to/lastmile_qr_scan", "ios": "https://dc.lft.to/lastmile_qr_scan"}, "lat": 38.8765925, "bike_id": "99a7a60f51cac895103744e6da7f6464", "is_disabled": 0, "lon": -76.99321316666666, "is_reserved": 0, "fusion_lat": 0.0, "type": "electric_scooter"}, {"fusion_lon": 0.0, "name": "7938873095ab3ff40f012bd53093934e", "rental_uris": {"android": "https://dc.lft.to/lastmile_qr_scan", "ios": "https://dc.lft.to/lastmile_qr_scan"}, "lat": 38.92348, "bike_id": "7938873095ab3ff40f012bd53093934e", "is_disabled": 0, "lon": -77.04341433333333, "is_reserved": 0, "fusion_lat": 0.0, "type": "electric_scooter"}, {"fusion_lon": 0.0, "name": "eff0323f33e8d2059a82db1a5113180d", "rental_uris": {"android": "https://dc.lft.to/lastmile_qr_scan", "ios": "https://dc.lft.to/lastmile_qr_scan"}, "lat": 38.92850083333333, "bike_id": "eff0323f33e8d2059a82db1a5113180d", "is_disabled": 0, "lon": -77.05429083333334, "is_reserved": 0, "fusion_lat": 0.0, "type": "electric_scooter"}, {"fusion_lon": 0.0, "name": "68073dcd9aefabb6042cc48ff4196c01", "rental_uris": {"android": "https://dc.lft.to/lastmile_qr_scan", "ios": "https://dc.lft.to/lastmile_qr_scan"}, "lat": 38.926151833333336, "bike_id": "68073dcd9aefabb6042cc48ff4196c01", "is_disabled": 0, "lon": -77.02160733333334, "is_reserved": 0, "fusion_lat": 0.0, "type": "electric_scooter"}, {"fusion_lon": 0.0, "name": "713d9b5bd6b0c7b9f0a16da510d4caaf", "rental_uris": {"android": "https://dc.lft.to/lastmile_qr_scan", "ios": "https://dc.lft.to/lastmile_qr_scan"}, "lat": 38.957780666666665, "bike_id": "713d9b5bd6b0c7b9f0a16da510d4caaf", "is_disabled": 0, "lon": -77.02464133333334, "is_reserved": 0, "fusion_lat": 0.0, "type": "electric_scooter"}, {"fusion_lon": 0.0, "name": "d328722be2cb665d9f78d91a5c07fe47", "rental_uris": {"android": "https://dc.lft.to/lastmile_qr_scan", "ios": "https://dc.lft.to/lastmile_qr_scan"}, "lat": 38.925234, "bike_id": "d328722be2cb665d9f78d91a5c07fe47", "is_disabled": 0, "lon": -76.99560366666667, "is_reserved": 0, "fusion_lat": 0.0, "type": "electric_scooter"}, {"fusion_lon": 0.0, "name": "af51e8863e5d540aca7a1295385057a5", "rental_uris": {"android": "https://dc.lft.to/lastmile_qr_scan", "ios": "https://dc.lft.to/lastmile_qr_scan"}, "lat": 38.903645833333336, "bike_id": "af51e8863e5d540aca7a1295385057a5", "is_disabled": 0, "lon": -77.0261365, "is_reserved": 0, "fusion_lat": 0.0, "type": "electric_scooter"}, {"fusion_lon": 0.0, "name": "84d5fc3ebe0a1a56215967b2969dd024", "rental_uris": {"android": "https://dc.lft.to/lastmile_qr_scan", "ios": "https://dc.lft.to/lastmile_qr_scan"}, "lat": 38.92642766666667, "bike_id": "84d5fc3ebe0a1a56215967b2969dd024", "is_disabled": 0, "lon": -77.02506233333334, "is_reserved": 0, "fusion_lat": 0.0, "type": "electric_scooter"}, {"fusion_lon": 0.0, "name": "91d4c00643dd41a8fd459a5061f585d4", "rental_uris": {"android": "https://dc.lft.to/lastmile_qr_scan", "ios": "https://dc.lft.to/lastmile_qr_scan"}, "lat": 38.886040666666666, "bike_id": "91d4c00643dd41a8fd459a5061f585d4", "is_disabled": 0, "lon": -77.045116, "is_reserved": 0, "fusion_lat": 0.0, "type": "electric_scooter"}, {"fusion_lon": 0.0, "name": "bc0dc7aa06282fb2ab6549483830b9ad", "rental_uris": {"android": "https://dc.lft.to/lastmile_qr_scan", "ios": "https://dc.lft.to/lastmile_qr_scan"}, "lat": 38.896927, "bike_id": "bc0dc7aa06282fb2ab6549483830b9ad", "is_disabled": 0, "lon": -77.00496783333334, "is_reserved": 0, "fusion_lat": 0.0, "type": "electric_scooter"}, {"fusion_lon": 0.0, "name": "7a52175d30e92a942288491658c2bffc", "rental_uris": {"android": "https://dc.lft.to/lastmile_qr_scan", "ios": "https://dc.lft.to/lastmile_qr_scan"}, "lat": 38.951922333333336, "bike_id": "7a52175d30e92a942288491658c2bffc", "is_disabled": 0, "lon": -77.02618983333333, "is_reserved": 0, "fusion_lat": 0.0, "type": "electric_scooter"}, {"fusion_lon": 0.0, "name": "c16d02af19aa2c131a7418609a2f77d2", "rental_uris": {"android": "https://dc.lft.to/lastmile_qr_scan", "ios": "https://dc.lft.to/lastmile_qr_scan"}, "lat": 38.922189833333334, "bike_id": "c16d02af19aa2c131a7418609a2f77d2", "is_disabled": 0, "lon": -77.043345, "is_reserved": 0, "fusion_lat": 0.0, "type": "electric_scooter"}, {"fusion_lon": 0.0, "name": "153bbb95040bf3916e3e8abf54f1e853", "rental_uris": {"android": "https://dc.lft.to/lastmile_qr_scan", "ios": "https://dc.lft.to/lastmile_qr_scan"}, "lat": 38.923674166666665, "bike_id": "153bbb95040bf3916e3e8abf54f1e853", "is_disabled": 0, "lon": -77.01952916666667, "is_reserved": 0, "fusion_lat": 0.0, "type": "electric_scooter"}, {"fusion_lon": 0.0, "name": "256dae9d49535937d393c6fbf11b3464", "rental_uris": {"android": "https://dc.lft.to/lastmile_qr_scan", "ios": "https://dc.lft.to/lastmile_qr_scan"}, "lat": 38.91118433333333, "bike_id": "256dae9d49535937d393c6fbf11b3464", "is_disabled": 0, "lon": -77.00605333333333, "is_reserved": 0, "fusion_lat": 0.0, "type": "electric_scooter"},