{"data": {"bikes": [{"lat": 38.91710283333333, "is_disabled": 0, "type": "electric_scooter", "lon": -77.0313135, "bike_id": "193eb075e68f8c5b38d22e55ea66d3e7", "fusion_lat": 0.0, "name": "193eb075e68f8c5b38d22e55ea66d3e7", "is_reserved": 0, "rental_uris": {"android": "https://dc.lft.to/lastmile_qr_scan", "ios": "https://dc.lft.to/lastmile_qr_scan"}, "fusion_lon": 0.0}, {"lat": 38.90115766666667, "is_disabled": 0, "type": "electric_scooter", "lon": -76.99547016666666, "bike_id": "5a778669481f3e2f2fc8396668da60df", "fusion_lat": 0.0, "name": "5a778669481f3e2f2fc8396668da60df", "is_reserved": 0, "rental_uris": {"android": "https://dc.lft.to/lastmile_qr_scan", "ios": "https://dc.lft.to/lastmile_qr_scan"}, "fusion_lon": 0.0}, {"lat": 38.89561333333333, "is_disabled": 0, "type": "electric_bike", "lon": -77.12731783333334, "bike_id": "7a0d7585844688d3316e8b84f3a31df0", "fusion_lat": 0.0, "name": "7a0d7585844688d3316e8b84f3a31df0", "is_reserved": 0, "rental_uris": {"android": "https://dc.lft.to/lastmile_qr_scan", "ios": "https://dc.lft.to/lastmile_qr_scan"}, "fusion_lon": 0.0}, {"lat": 38.91138633333333, "is_disabled": 0, "type": "electric_scooter", "lon": -77.02693183333334, "bike_id": "61513bd389f4de46b3da437f07ea133e", "fusion_lat": 0.0, "name": "61513bd389f4de46b3da437f07ea133e", "is_reserved": 0, "rental_uris": {"android": "https://dc.lft.to/lastmile_qr_scan", "ios": "https://dc.lft.to/lastmile_qr_scan"}, "fusion_lon": 0.0}, {"lat": 38.93090133333333, "is_disabled": 0, "type": "electric_scooter", "lon": -77.03452, "bike_id": "db14f9a2ec9038a1dc4ee7de9df6f889", "fusion_lat": 0.0, "name": "db14f9a2ec9038a1dc4ee7de9df6f889", "is_reserved": 0, "rental_uris": {"android": "https://dc.lft.to/lastmile_qr_scan", "ios": "https://dc.lft.to/lastmile_qr_scan"}, "fusion_lon": 0.0}, {"lat": 38.904171833333336, "is_disabled": 0, "type": "electric_scooter", "lon": -77.0688965, "bike_id": "0f8e49369087252f3ef0d4e14e966328", "fusion_lat": 0.0, "name": "0f8e49369087252f3ef0d4e14e966328", "is_reserved": 0, "rental_uris": {"android": "https://dc.lft.to/lastmile_qr_scan", "ios": "https://dc.lft.to/lastmile_qr_scan"}, "fusion_lon": 0.0}, {"lat": 38.8874195, "is_disabled": 0, "type": "electric_scooter", "lon": -77.01529633333334, "bike_id": "6f0be6dd7a04af677d7f281f952e8e11", "fusion_lat": 0.0, "name": "6f0be6dd7a04af677d7f281f952e8e11", "is_reserved": 0, "rental_uris": {"android": "https://dc.lft.to/lastmile_qr_scan", "ios": "https://dc.lft.to/lastmile_qr_scan"}, "fusion_lon": 0.0}, {"lat": 38.919025833333336, "is_disabled": 0, "type": "electric_scooter", "lon": -77.00048733333334, "bike_id": "f3ed0b2c32b7170f61b8902923ed1bc9", "fusion_lat": 0.0, "name": "f3ed0b2c32b7170f61b8902923ed1bc9", "is_reserved": 0, "rental_uris": {"android": "https://dc.lft.to/lastmile_qr_scan", "ios": "https://dc.lft.to/lastmile_qr_scan"}, "fusion_lon": 0.0}, {"lat": 38.92082883333333, "is_disabled": 0, "type": "electric_scooter", "lon": -77.03650566666667, "bike_id": "ff3110755117b25ba730802451f930ba", "fusion_lat": 0.0, "name": "ff3110755117b25ba730802451f930ba", "is_reserved": 0, "rental_uris": {"android": "https://dc.lft.to/lastmile_qr_scan", "ios": "https://dc.lft.to/lastmile_qr_scan"}, "fusion_lon": 0.0}, {"lat": 38.90794316666667, "is_disabled": 0, "type": "electric_scooter", "lon": -77.02693416666666, "bike_id": "263ec22120c3e16c5044d06b1b4fb697", "fusion_lat": 0.0, "name": "263ec22120c3e16c5044d06b1b4fb697", "is_reserved": 0, "rental_uris": {"android": "https://dc.lft.to/lastmile_qr_scan", "ios": "https://dc.lft.to/lastmile_qr_scan"}, "fusion_lon": 0.0}, {"lat": 38.92097166666667, "is_disabled": 0, "type": "electric_scooter", "lon": -77.01745233333334, "bike_id": "a575d8f79d2ec63707c445228c085031", "fusion_lat": 0.0, "name": "a575d8f79d2ec63707c445228c085031", "is_reserved": 0, "rental_uris": {"android": "https://dc.lft.to/lastmile_qr_scan", "ios": "https://dc.lft.to/lastmile_qr_scan"}, "fusion_lon": 0.0}, {"lat": 38.90065233333333, "is_disabled": 0, "type": "electric_scooter", "lon": -77.00212666666667, "bike_id": "2f1314a56e1259e5d1e92808e73a6f15", "fusion_lat": 0.0, "name": "2f1314a56e1259e5d1e92808e73a6f15", "is_reserved": 0, "rental_uris": {"android": "https://dc.lft.to/lastmile_qr_scan", "ios": "https://dc.lft.to/lastmile_qr_scan"}, "fusion_lon": 0.0}, {"lat": 38.916842333333335, "is_disabled": 0, "type": "electric_scooter", "lon": -77.0279975, "bike_id": "99e8edd58ce7965fe25098ad0f0eb72e", "fusion_lat": 0.0, "name": "99e8edd58ce7965fe25098ad0f0eb72e", "is_reserved": 0, "rental_uris": {"android": "https://dc.lft.to/lastmile_qr_scan", "ios": "https://dc.lft.to/lastmile_qr_scan"}, "fusion_lon": 0.0}, {"lat": 38.91920133333333, "is_disabled": 0, "type": "electric_scooter", "lon": -77.02417566666666, "bike_id": "964133aea93aae9a74ed83a19795db6e", "fusion_lat": 0.0, "name": "964133aea93aae9a74ed83a19795db6e", "is_reserved": 0, "rental_uris": {"android": "https://dc.lft.to/lastmile_qr_scan", "ios": "https://dc.lft.to/lastmile_qr_scan"}, "fusion_lon": 0.0}, {"lat": 38.920641333333336, "is_disabled": 0, "type": "electric_scooter", "lon": -77.07880716666666, "bike_id": "1c19cee852864c36979ab8bc53295a20", "fusion_lat": 0.0, "name": "1c19cee852864c36979ab8bc53295a20", "is_reserved": 0, "rental_uris": {"android": "https://dc.lft.to/lastmile_qr_scan", "ios": "https://dc.lft.to/lastmile_qr_scan"}, "fusion_lon": 0.0}, {"lat": 38.93415, "is_disabled": 0, "type": "electric_scooter", "lon": -77.03287533333334, "bike_id": "88a3918598a038ab37c98b81eea4a40d", "fusion_lat": 0.0, "name": "88a3918598a038ab37c98b81eea4a40d", "is_reserved": 0, "rental_uris": {"android": "https://dc.lft.to/lastmile_qr_scan", "ios": "https://dc.lft.to/lastmile_qr_scan"}, "fusion_lon": 0.0}, {"lat": 38.88362383333333, "is_disabled": 0, "type": "electric_scooter", "lon": -76.94154966666666, "bike_id": "d9236be564a57b1071180ae1da3ad711", "fusion_lat": 0.0, "name": "d9236be564a57b1071180ae1da3ad711", "is_reserved": 0, "rental_uris": {"android": "https://dc.lft.to/lastmile_qr_scan", "ios": "https://dc.lft.to/lastmile_qr_scan"}, "fusion_lon": 0.0}, {"lat": 38.909775, "is_disabled": 0, "type": "electric_scooter", "lon": -77.03186233333334, "bike_id": "490d83b785d508f818b2ff0f73d03c82", "fusion_lat": 0.0, "name": "490d83b785d508f818b2ff0f73d03c82", "is_reserved": 0, "rental_uris": {"android": "https://dc.lft.to/lastmile_qr_scan", "ios": "https://dc.lft.to/lastmile_qr_scan"}, "fusion_lon": 0.0}, {"lat": 38.9253665, "is_disabled": 0, "type": "electric_scooter", "lon": -77.02624233333333, "bike_id": "0c9c3c5a92eb6c7b8aa16b6240cb0c2a", "fusion_lat": 0.0, "name": "0c9c3c5a92eb6c7b8aa16b6240cb0c2a", "is_reserved": 0, "rental_uris": {"android": "https://dc.lft.to/lastmile_qr_scan", "ios": "https://dc.lft.to/lastmile_qr_scan"}, "fusion_lon": 0.0}, {"lat": 38.936075833333334, "is_disabled": 0, "type": "electric_scooter", "lon": -77.058558, "bike_id": "87d7ea01dbb66bb40c5450208e9a0d42", "fusion_lat": 0.0, "name": "87d7ea01dbb66bb40c5450208e9a0d42", "is_reserved": 0, "rental_uris": {"android": "https://dc.lft.to/lastmile_qr_scan", "ios": "https://dc.lft.to/lastmile_qr_scan"}, "fusion_lon": 0.0}, {"lat": 38.91682, "is_disabled": 0, "type": "electric_scooter", "lon": -77.00201366666667, "bike_id": "2d4b0a098b9c4a7f23b862f4d48ff749", "fusion_lat": 0.0, "name": "2d4b0a098b9c4a7f23b862f4d48ff749", "is_reserved": 0, "rental_uris": {"android": "https://dc.lft.to/lastmile_qr_scan", "ios": "https://dc.lft.to/lastmile_qr_scan"}, "fusion_lon": 0.0}, {"lat": 38.958923166666665, "is_disabled": 0, "type": "electric_bike", "lon": -76.9247915, "bike_id": "3c214410232fd861d77544b01dd71ffa", "fusion_lat": 0.0, "name": "3c214410232fd861d77544b01dd71ffa", "is_reserved": 0, "rental_uris": {"android": "https://dc.lft.to/lastmile_qr_scan", "ios": "https://dc.lft.to/lastmile_qr_scan"}, "fusion_lon": 0.0}, {"lat": 38.96505233333333, "is_disabled": 0, "type": "electric_bike", "lon": -77.02826166666667, "bike_id": "ce8a314517a6d1657036e6b8d8be64b0", "fusion_lat": 0.0, "name": "ce8a314517a6d1657036e6b8d8be64b0", "is_reserved": 0, "rental_uris": {"android": "https://dc.lft.to/lastmile_qr_scan", "ios": "https://dc.lft.to/lastmile_qr_scan"}, "fusion_lon": 0.0}, {"lat": 38.905052, "is_disabled": 0, "type": "electric_scooter", "lon": -77.0511865, "bike_id": "89e1d15ef8dc1a22bbde103b7c3e2ac8", "fusion_lat": 0.0, "name": "89e1d15ef8dc1a22bbde103b7c3e2ac8", "is_reserved": 0, "rental_uris": {"android": "https://dc.lft.to/lastmile_qr_scan", "ios": "https://dc.lft.to/lastmile_qr_scan"}, "fusion_lon": 0.0}, {"lat": 38.926692, "is_disabled": 0, "type": "electric_scooter", "lon": -76.99539383333334, "bike_id": "20d024cfca098eeaea3fafe3f091ba13", "fusion_lat": 0.0, "name": "20d024cfca098eeaea3fafe3f091ba13", "is_reserved": 0, "rental_uris": {"android": "https://dc.lft.to/lastmile_qr_scan", "ios": "https://dc.lft.to/lastmile_qr_scan"}, "fusion_lon": 0.0}, {"lat": 38.92570966666667, "is_disabled": 0, "type": "electric_scooter", "lon": -77.05757516666667, "bike_id": "abe7c21007e1c626d95576f756c70d20", "fusion_lat": 0.0, "name": "abe7c21007e1c626d95576f756c70d20", "is_reserved": 0, "rental_uris": {"android": "https://dc.lft.to/lastmile_qr_scan", "ios": "https://dc.lft.to/lastmile_qr_scan"}, "fusion_lon": 0.0}, {"lat": 38.897701166666664, "is_disabled": 0, "type": "electric_bike", "lon": -76.9043645, "bike_id": "05702798b0d757b949b6ceee1cd2773a", "fusion_lat": 0.0, "name": "05702798b0d757b949b6ceee1cd2773a", "is_reserved": 0, "rental_uris": {"android": "https://dc.lft.to/lastmile_qr_scan", "ios": "https://dc.lft.to/lastmile_qr_scan"}, "fusion_lon": 0.0}, {"lat": 38.852039, "is_disabled": 0, "type": "electric_bike", "lon": -76.9855965, "bike_id": "3abe5a1b019d75929b8e67e0944ab5b2", "fusion_lat": 0.0, "name": "3abe5a1b019d75929b8e67e0944ab5b2", "is_reserved": 0, "rental_uris": {"android": "https://dc.lft.to/lastmile_qr_scan", "ios": "https://dc.lft.to/lastmile_qr_scan"}, "fusion_lon": 0.0}, {"lat": 38.91459866666667, "is_disabled": 0, "type": "electric_scooter", "lon": -77.04162666666667, "bike_id": "bcd059b591b6771283a296811c1822c3", "fusion_lat": 0.0, "name": "bcd059b591b6771283a296811c1822c3", "is_reserved": 0, "rental_uris": {"android": "https://dc.lft.to/lastmile_qr_scan", "ios": "https://dc.lft.to/lastmile_qr_scan"}, "fusion_lon": 0.0}, {"lat": 38.88673, "is_disabled": 0, "type": "electric_scooter", "lon": -76.9855735, "bike_id": "9f48edfb6c04d91cf0ccb9424e9b3dd1", "fusion_lat": 0.0, "name": "9f48edfb6c04d91cf0ccb9424e9b3dd1", "is_reserved": 0, "rental_uris": {"android": "https://dc.lft.to/lastmile_qr_scan", "ios": "https://dc.lft.to/lastmile_qr_scan"}, "fusion_lon": 0.0}, {"lat": 38.95636916666667, "is_disabled": 0, "type": "electric_bike", "lon": -76.93883933333333, "bike_id": "d6855b8367788902f26f3e9695fb8540", "fusion_lat": 0.0, "name": "d6855b8367788902f26f3e9695fb8540", "is_reserved": 0, "rental_uris": {"android": "https://dc.lft.to/lastmile_qr_scan", "ios": "https://dc.lft.to/lastmile_qr_scan"}, "fusion_lon": 0.0}, {"lat": 38.91811383333334, "is_disabled": 0, "type": "electric_scooter", "lon": -77.04527516666667, "bike_id": "73c049349ba9fd12e5752f7dde4bdf36", "fusion_lat": 0.0, "name": "73c049349ba9fd12e5752f7dde4bdf36", "is_reserved": 0, "rental_uris": {"android": "https://dc.lft.to/lastmile_qr_scan", "ios": "https://dc.lft.to/lastmile_qr_scan"}, "fusion_lon": 0.0}, {"lat": 38.9229195, "is_disabled": 0, "type": "electric_scooter", "lon": -77.042595, "bike_id": "147bc66a6aa503e84991e4c6b132c5ff", "fusion_lat": 0.0, "name": "147bc66a6aa503e84991e4c6b132c5ff", "is_reserved": 0, "rental_uris": {"android": "https://dc.lft.to/lastmile_qr_scan", "ios": "https://dc.lft.to/lastmile_qr_scan"}, "fusion_lon": 0.0}, {"lat": 38.92756033333333, "is_disabled": 0, "type": "electric_scooter", "lon": -77.03269866666666, "bike_id": "87e3789a910711ce557fa83c13a34bf3", "fusion_lat": 0.0, "name": "87e3789a910711ce557fa83c13a34bf3", "is_reserved": 0, "rental_uris": {"android": "https://dc.lft.to/lastmile_qr_scan", "ios": "https://dc.lft.to/lastmile_qr_scan"}, "fusion_lon": 0.0}, {"lat": 38.9156155, "is_disabled": 0, "type": "electric_scooter", "lon": -77.021767, "bike_id": "5357fa55ad17bef255da96de81cab9f8", "fusion_lat": 0.0, "name": "5357fa55ad17bef255da96de81cab9f8", "is_reserved": 0, "rental_uris": {"android": "https://dc.lft.to/lastmile_qr_scan", "ios": "https://dc.lft.to/lastmile_qr_scan"}, "fusion_lon": 0.0}, {"lat": 38.881218833333335, "is_disabled": 0, "type": "electric_scooter", "lon": -77.016731, "bike_id": "fbedca0c0521330aa1a9d16a5d93b9a3", "fusion_lat": 0.0, "name": "fbedca0c0521330aa1a9d16a5d93b9a3", "is_reserved": 0, "rental_uris": {"android": "https://dc.lft.to/lastmile_qr_scan", "ios": "https://dc.lft.to/lastmile_qr_scan"}, "fusion_lon": 0.0}, {"lat": 38.893954666666666, "is_disabled": 0, "type": "electric_scooter", "lon": -77.0221835, "bike_id": "20b7ddb8be01de9992d1365ecab98899", "fusion_lat": 0.0, "name": "20b7ddb8be01de9992d1365ecab98899", "is_reserved": 0, "rental_uris": {"android": "https://dc.lft.to/lastmile_qr_scan", "ios": "https://dc.lft.to/lastmile_qr_scan"}, "fusion_lon": 0.0}, {"lat": 38.871512, "is_disabled": 0, "type": "electric_bike", "lon": -76.93668933333333, "bike_id": "c10a55eb48a0f5e47b5a08e263850407", "fusion_lat": 0.0, "name": "c10a55eb48a0f5e47b5a08e263850407", "is_reserved": 0, "rental_uris": {"android": "https://dc.lft.to/lastmile_qr_scan", "ios": "https://dc.lft.to/lastmile_qr_scan"}, "fusion_lon": 0.0}, {"lat": 38.90527816666667, "is_disabled": 0, "type": "electric_scooter", "lon": -77.02965, "bike_id": "6b606523ba763d14a2e68fc725ffe8f9", "fusion_lat": 0.0, "name": "6b606523ba763d14a2e68fc725ffe8f9", "is_reserved": 0, "rental_uris": {"android": "https://dc.lft.to/lastmile_qr_scan", "ios": "https://dc.lft.to/lastmile_qr_scan"}, "fusion_lon": 0.0}, {"lat": 38.89222633333333, "is_disabled": 0, "type": "electric_scooter", "lon": -77.04200266666666, "bike_id": "021121da414e818a604c40239ef4de2a", "fusion_lat": 0.0, "name": "021121da414e818a604c40239ef4de2a", "is_reserved": 0, "rental_uris": {"android": "https://dc.lft.to/lastmile_qr_scan", "ios": "https://dc.lft.to/lastmile_qr_scan"}, "fusion_lon": 0.0}, {"lat": 38.89223, "is_disabled": 0, "type": "electric_scooter", "lon": -77.032159, "bike_id": "37e9c26ac9dde0a3d419b9e2b0a155f5", "fusion_lat": 0.0, "name": "37e9c26ac9dde0a3d419b9e2b0a155f5", "is_reserved": 0, "rental_uris": {"android": "https://dc.lft.to/lastmile_qr_scan", "ios": "https://dc.lft.to/lastmile_qr_scan"}, "fusion_lon": 0.0}, {"lat": 38.917027, "is_disabled": 0, "type": "electric_scooter", "lon": -77.009627, "bike_id": "e37c635257d8f1342b01a59ee8ce6bef", "fusion_lat": 0.0, "name": "e37c635257d8f1342b01a59ee8ce6bef", "is_reserved": 0, "rental_uris": {"android": "https://dc.lft.to/lastmile_qr_scan", "ios": "https://dc.lft.to/lastmile_qr_scan"}, "fusion_lon": 0.0}, {"lat": 38.92247866666666, "is_disabled": 0, "type": "electric_scooter", "lon": -77.03083266666667, "bike_id": "1c3256d1e2de1cea6743316adb589f90", "fusion_lat": 0.0, "name": "1c3256d1e2de1cea6743316adb589f90", "is_reserved": 0, "rental_uris": {"android": "https://dc.lft.to/lastmile_qr_scan", "ios": "https://dc.lft.to/lastmile_qr_scan"}, "fusion_lon": 0.0}, {"lat": 38.92306116666666, "is_disabled": 0, "type": "electric_scooter", "lon": -77.04214716666667, "bike_id": "3475793d3873e97053d1c13011a7e4c8", "fusion_lat": 0.0, "name": "3475793d3873e97053d1c13011a7e4c8", "is_reserved": 0, "rental_uris": {"android": "https://dc.lft.to/lastmile_qr_scan", "ios": "https://dc.lft.to/lastmile_qr_scan"}, "fusion_lon": 0.0}, {"lat": 38.86366233333333, "is_disabled": 0, "type": "electric_scooter", "lon": -76.99035166666667, "bike_id": "93145622271d09c55dbb71bf44713258", "fusion_lat": 0.0, "name": "93145622271d09c55dbb71bf44713258", "is_reserved": 0, "rental_uris": {"android": "https://dc.lft.to/lastmile_qr_scan", "ios": "https://dc.lft.to/lastmile_qr_scan"}, "fusion_lon": 0.0}, {"lat": 38.935811, "is_disabled": 0, "type": "electric_bike", "lon": -77.106824, "bike_id": "b12d71af7e332d0b16cb147f4c44c848", "fusion_lat": 0.0, "name": "b12d71af7e332d0b16cb147f4c44c848", "is_reserved": 0, "rental_uris": {"android": "https://dc.lft.to/lastmile_qr_scan", "ios": "https://dc.lft.to/lastmile_qr_scan"}, "fusion_lon": 0.0}, {"lat": 38.92976316666667, "is_disabled": 0, "type": "electric_scooter", "lon": -77.0292535, "bike_id": "a1fad3d1aa5dc02fcf9eeda4acdaadba", "fusion_lat": 0.0, "name": "a1fad3d1aa5dc02fcf9eeda4acdaadba", "is_reserved": 0, "rental_uris": {"android": "https://dc.lft.to/lastmile_qr_scan", "ios": "https://dc.lft.to/lastmile_qr_scan"}, "fusion_lon": 0.0}, {"lat": 38.93090933333333, "is_disabled": 0, "type": "electric_scooter", "lon": -77.02358733333334, "bike_id": "5394ddf1a8dedab5afc0001a8cfda135", "fusion_lat": 0.0, "name": "5394ddf1a8dedab5afc0001a8cfda135", "is_reserved": 0, "rental_uris": {"android": "https://dc.lft.to/lastmile_qr_scan", "ios": "https://dc.lft.to/lastmile_qr_scan"}, "fusion_lon": 0.0}, {"lat": 38.9212625, "is_disabled": 0, "type": "electric_scooter", "lon": -77.03660116666667, "bike_id": "d1dafb98632df4f23f71ff108057472c", "fusion_lat": 0.0, "name": "d1dafb98632df4f23f71ff108057472c", "is_reserved": 0, "rental_uris": {"android": "https://dc.lft.to/lastmile_qr_scan", "ios": "https://dc.lft.to/lastmile_qr_scan"}, "fusion_lon": 0.0}, {"lat": 38.9111695, "is_disabled": 0, "type": "electric_scooter", "lon": -77.03844566666666, "bike_id": "08f9d6315ddddd09656b6b0f6c9b8f23", "fusion_lat": 0.0, "name": "08f9d6315ddddd09656b6b0f6c9b8f23", "is_reserved": 0, "rental_uris": {"android": "https://dc.lft.to/lastmile_qr_scan", "ios": "https://dc.lft.to/lastmile_qr_scan"}, "fusion_lon": 0.0}, {"lat": 38.917434666666665, "is_disabled": 0, "type": "electric_scooter", "lon": -77.03185316666666, "bike_id": "5fa71f5188f2ac83267c5dce11d1a304", "fusion_lat": 0.0, "name": "5fa71f5188f2ac83267c5dce11d1a304", "is_reserved": 0, "rental_uris": {"android": "https://dc.lft.to/lastmile_qr_scan", "ios": "https://dc.lft.to/lastmile_qr_scan"}, "fusion_lon": 0.0}, {"lat": 38.89485216666667, "is_disabled": 0, "type": "electric_scooter", "lon": -76.99500333333333, "bike_id": "0a77e665ba6edfd01e62a1491c340e02", "fusion_lat": 0.0, "name": "0a77e665ba6edfd01e62a1491c340e02", "is_reserved": 0, "rental_uris": {"android": "https://dc.lft.to/lastmile_qr_scan", "ios": "https://dc.lft.to/lastmile_qr_scan"}, "fusion_lon": 0.0}, {"lat": 38.909440000000004, "is_disabled": 0, "type": "electric_scooter", "lon": -77.04635, "bike_id": "763752d0792bc2f97d4a0aae42773ffc", "fusion_lat": 0.0, "name": "763752d0792bc2f97d4a0aae42773ffc", "is_reserved": 0, "rental_uris": {"android": "https://dc.lft.to/lastmile_qr_scan", "ios": "https://dc.lft.to/lastmile_qr_scan"}, "fusion_lon": 0.0}, {"lat": 38.892199, "is_disabled": 0, "type": "electric_scooter", "lon": -77.04514833333333, "bike_id": "5b3c4ff6bfae66302629828945bc426f", "fusion_lat": 0.0, "name": "5b3c4ff6bfae66302629828945bc426f", "is_reserved": 0, "rental_uris": {"android": "https://dc.lft.to/lastmile_qr_scan", "ios": "https://dc.lft.to/lastmile_qr_scan"}, "fusion_lon": 0.0}, {"lat": 38.959089666666664, "is_disabled": 0, "type": "electric_scooter", "lon": -77.0806835, "bike_id": "f668dfc16783cea3b5b729848d014abf", "fusion_lat": 0.0, "name": "f668dfc16783cea3b5b729848d014abf", "is_reserved": 0, "rental_uris": {"android": "https://dc.lft.to/lastmile_qr_scan", "ios": "https://dc.lft.to/lastmile_qr_scan"}, "fusion_lon": 0.0}, {"lat": 38.85929383333333, "is_disabled": 0, "type": "electric_scooter", "lon": -76.997043, "bike_id": "393898ccc60ab86dc373c3de50706b17", "fusion_lat": 0.0, "name": "393898ccc60ab86dc373c3de50706b17", "is_reserved": 0, "rental_uris": {"android": "https://dc.lft.to/lastmile_qr_scan", "ios": "https://dc.lft.to/lastmile_qr_scan"}, "fusion_lon": 0.0}, {"lat": 38.955587333333334, "is_disabled": 0, "type": "electric_scooter", "lon": -77.02239816666666, "bike_id": "41c07060587b127707d86944d407640d", "fusion_lat": 0.0, "name": "41c07060587b127707d86944d407640d", "is_reserved": 0, "rental_uris": {"android": "https://dc.lft.to/lastmile_qr_scan", "ios": "https://dc.lft.to/lastmile_qr_scan"}, "fusion_lon": 0.0}, {"lat": 38.907228833333335, "is_disabled": 0, "type": "electric_scooter", "lon": -77.03445933333333, "bike_id": "692fc640de7ec338ff592b6b96ffdc6b", "fusion_lat": 0.0, "name": "692fc640de7ec338ff592b6b96ffdc6b", "is_reserved": 0, "rental_uris": {"android": "https://dc.lft.to/lastmile_qr_scan", "ios": "https://dc.lft.to/lastmile_qr_scan"}, "fusion_lon": 0.0}, {"lat": 38.92152183333334, "is_disabled": 0, "type": "electric_scooter", "lon": -77.03521, "bike_id": "7245af3fd33fe6850faa9952032b2944", "fusion_lat": 0.0, "name": "7245af3fd33fe6850faa9952032b2944", "is_reserved": 0, "rental_uris": {"android": "https://dc.lft.to/lastmile_qr_scan", "ios": "https://dc.lft.to/lastmile_qr_scan"}, "fusion_lon": 0.0}, {"lat": 38.907737166666664, "is_disabled": 0, "type": "electric_scooter", "lon": -76.98304983333334, "bike_id": "680743e04c5b9c5463e12919e505c037", "fusion_lat": 0.0, "name": "680743e04c5b9c5463e12919e505c037", "is_reserved": 0, "rental_uris": {"android": "https://dc.lft.to/lastmile_qr_scan", "ios": "https://dc.lft.to/lastmile_qr_scan"}, "fusion_lon": 0.0}, {"lat": 38.91734683333333, "is_disabled": 0, "type": "electric_scooter", "lon": -77.0366645, "bike_id": "88c81dba34c16c52b2192f6c76a14d69", "fusion_lat": 0.0, "name": "88c81dba34c16c52b2192f6c76a14d69", "is_reserved": 0, "rental_uris": {"android": "https://dc.lft.to/lastmile_qr_scan", "ios": "https://dc.lft.to/lastmile_qr_scan"}, "fusion_lon": 0.0}, {"lat": 38.92711, "is_disabled": 0, "type": "electric_scooter", "lon": -77.02079733333333, "bike_id": "d8a4371e21f37e6b7da2d6989ed2eb7d", "fusion_lat": 0.0, "name": "d8a4371e21f37e6b7da2d6989ed2eb7d", "is_reserved": 0, "rental_uris": {"android": "https://dc.lft.to/lastmile_qr_scan", "ios": "https://dc.lft.to/lastmile_qr_scan"}, "fusion_lon": 0.0}, {"lat": 38.91983716666667, "is_disabled": 0, "type": "electric_scooter", "lon": -77.0322685, "bike_id": "23474026a3033d20fbd9c85073d703cd", "fusion_lat": 0.0, "name": "23474026a3033d20fbd9c85073d703cd", "is_reserved": 0, "rental_uris": {"android": "https://dc.lft.to/lastmile_qr_scan", "ios": "https://dc.lft.to/lastmile_qr_scan"}, "fusion_lon": 0.0}, {"lat": 38.90805833333334, "is_disabled": 0, "type": "electric_scooter", "lon": -77.03462966666666, "bike_id": "beede186d859802dca5abe361335a750", "fusion_lat": 0.0, "name": "beede186d859802dca5abe361335a750", "is_reserved": 0, "rental_uris": {"android": "https://dc.lft.to/lastmile_qr_scan", "ios": "https://dc.lft.to/lastmile_qr_scan"}, "fusion_lon": 0.0}, {"lat": 38.89500566666667, "is_disabled": 0, "type": "electric_scooter", "lon": -77.00328, "bike_id": "cedf69500d6375ba2c68ce8d057cd7c1", "fusion_lat": 0.0, "name": "cedf69500d6375ba2c68ce8d057cd7c1", "is_reserved": 0, "rental_uris": {"android": "https://dc.lft.to/lastmile_qr_scan", "ios": "https://dc.lft.to/lastmile_qr_scan"}, "fusion_lon": 0.0}, {"lat": 38.917949166666666, "is_disabled": 0, "type": "electric_scooter", "lon": -77.02294566666667, "bike_id": "d3827c8e7c06294144dd43d3bb6e78b7", "fusion_lat": 0.0, "name": "d3827c8e7c06294144dd43d3bb6e78b7", "is_reserved": 0, "rental_uris": {"android": "https://dc.lft.to/lastmile_qr_scan", "ios": "https://dc.lft.to/lastmile_qr_scan"}, "fusion_lon": 0.0}, {"lat": 38.924920666666665, "is_disabled": 0, "type": "electric_scooter", "lon": -77.073284, "bike_id": "c993dfa78cf66f4a1c16fee6880dfce3", "fusion_lat": 0.0, "name": "c993dfa78cf66f4a1c16fee6880dfce3", "is_reserved": 0, "rental_uris": {"android": "https://dc.lft.to/lastmile_qr_scan", "ios": "https://dc.lft.to/lastmile_qr_scan"}, "fusion_lon": 0.0}, {"lat": 38.88189583333333, "is_disabled": 0, "type": "electric_scooter", "lon": -76.9961085, "bike_id": "c7c01c27df962ed0ab6f818aaa901f86", "fusion_lat": 0.0, "name": "c7c01c27df962ed0ab6f818aaa901f86", "is_reserved": 0, "rental_uris": {"android": "https://dc.lft.to/lastmile_qr_scan", "ios": "https://dc.lft.to/lastmile_qr_scan"}, "fusion_lon": 0.0}, {"lat": 38.870655666666664, "is_disabled": 0, "type": "electric_scooter", "lon": -77.00837633333333, "bike_id": "3ad2d70a16aaf1b28d8d4fea7635de7e", "fusion_lat": 0.0, "name": "3ad2d70a16aaf1b28d8d4fea7635de7e", "is_reserved": 0, "rental_uris": {"android": "https://dc.lft.to/lastmile_qr_scan", "ios": "https://dc.lft.to/lastmile_qr_scan"}, "fusion_lon": 0.0}, {"lat": 38.930954166666666, "is_disabled": 0, "type": "electric_scooter", "lon": -77.03063016666667, "bike_id": "a10d4083bf9324d232daa6d647c3019b", "fusion_lat": 0.0, "name": "a10d4083bf9324d232daa6d647c3019b", "is_reserved": 0, "rental_uris": {"android": "https://dc.lft.to/lastmile_qr_scan", "ios": "https://dc.lft.to/lastmile_qr_scan"}, "fusion_lon": 0.0}, {"lat": 38.896857833333335, "is_disabled": 0, "type": "electric_scooter", "lon": -77.02121983333333, "bike_id": "2bb34a5ed4eca5ab2b9cae7ad7bff911", "fusion_lat": 0.0, "name": "2bb34a5ed4eca5ab2b9cae7ad7bff911", "is_reserved": 0, "rental_uris": {"android": "https://dc.lft.to/lastmile_qr_scan", "ios": "https://dc.lft.to/lastmile_qr_scan"}, "fusion_lon": 0.0}, {"lat": 38.92208183333334, "is_disabled": 0, "type": "electric_scooter", "lon": -77.0401315, "bike_id": "f552dab9f2f1403b8e7faf77e1aa28d6", "fusion_lat": 0.0, "name": "f552dab9f2f1403b8e7faf77e1aa28d6", "is_reserved": 0, "rental_uris": {"android": "https://dc.lft.to/lastmile_qr_scan", "ios": "https://dc.lft.to/lastmile_qr_scan"}, "fusion_lon": 0.0}, {"lat": 38.907296333333335, "is_disabled": 0, "type": "electric_scooter", "lon": -77.029733, "bike_id": "8bb3d8267772fc81c947c94b65053a45", "fusion_lat": 0.0, "name": "8bb3d8267772fc81c947c94b65053a45", "is_reserved": 0, "rental_uris": {"android": "https://dc.lft.to/lastmile_qr_scan", "ios": "https://dc.lft.to/lastmile_qr_scan"}, "fusion_lon": 0.0}, {"lat": 38.905529666666666, "is_disabled": 0, "type": "electric_scooter", "lon": -77.0571055, "bike_id": "5771d4eea725f00b22bc0ccc77c84396", "fusion_lat": 0.0, "name": "5771d4eea725f00b22bc0ccc77c84396", "is_reserved": 0, "rental_uris": {"android": "https://dc.lft.to/lastmile_qr_scan", "ios": "https://dc.lft.to/lastmile_qr_scan"}, "fusion_lon": 0.0}, {"lat": 38.91408466666667, "is_disabled": 0, "type": "electric_scooter", "lon": -77.02566116666667, "bike_id": "79204520b6567840e7160c2ce1f297f2", "fusion_lat": 0.0, "name": "79204520b6567840e7160c2ce1f297f2", "is_reserved": 0, "rental_uris": {"android": "https://dc.lft.to/lastmile_qr_scan", "ios": "https://dc.lft.to/lastmile_qr_scan"}, "fusion_lon": 0.0}, {"lat": 38.92062983333334, "is_disabled": 0, "type": "electric_scooter", "lon": -77.03205366666667, "bike_id": "76afff4e9c891da648031793d26bd27d", "fusion_lat": 0.0, "name": "76afff4e9c891da648031793d26bd27d", "is_reserved": 0, "rental_uris": {"android": "https://dc.lft.to/lastmile_qr_scan", "ios": "https://dc.lft.to/lastmile_qr_scan"}, "fusion_lon": 0.0}, {"lat": 38.899025333333334, "is_disabled": 0, "type": "electric_scooter", "lon": -77.03276933333333, "bike_id": "7ad090128bc0076a3def2f3ad1c31db1", "fusion_lat": 0.0, "name": "7ad090128bc0076a3def2f3ad1c31db1", "is_reserved": 0, "rental_uris": {"android": "https://dc.lft.to/lastmile_qr_scan", "ios": "https://dc.lft.to/lastmile_qr_scan"}, "fusion_lon": 0.0}, {"lat": 38.954032, "is_disabled": 0, "type": "electric_scooter", "lon": -77.036291, "bike_id": "df62948c377a6fdae6fba5e17890c7cc", "fusion_lat": 0.0, "name": "df62948c377a6fdae6fba5e17890c7cc", "is_reserved": 0, "rental_uris": {"android": "https://dc.lft.to/lastmile_qr_scan", "ios": "https://dc.lft.to/lastmile_qr_scan"}, "fusion_lon": 0.0}, {"lat": 38.86907733333334, "is_disabled": 0, "type": "electric_bike", "lon": -77.13177683333333, "bike_id": "89e471b4321f61b8ba841687972d16bb", "fusion_lat": 0.0, "name": "89e471b4321f61b8ba841687972d16bb", "is_reserved": 0, "rental_uris": {"android": "https://dc.lft.to/lastmile_qr_scan", "ios": "https://dc.lft.to/lastmile_qr_scan"}, "fusion_lon": 0.0}, {"lat": 38.80440766666667, "is_disabled": 0, "type": "electric_bike", "lon": -77.06090333333333, "bike_id": "1d660b4534c0e4e346df49152f8cdeda", "fusion_lat": 0.0, "name": "1d660b4534c0e4e346df49152f8cdeda", "is_reserved": 0, "rental_uris": {"android": "https://dc.lft.to/lastmile_qr_scan", "ios": "https://dc.lft.to/lastmile_qr_scan"}, "fusion_lon": 0.0}, {"lat": 38.9209165, "is_disabled": 0, "type": "electric_scooter", "lon": -77.04215316666667, "bike_id": "906e7025dfc73cb3ffc9bdf6f65df024", "fusion_lat": 0.0, "name": "906e7025dfc73cb3ffc9bdf6f65df024", "is_reserved": 0, "rental_uris": {"android": "https://dc.lft.to/lastmile_qr_scan", "ios": "https://dc.lft.to/lastmile_qr_scan"}, "fusion_lon": 0.0}, {"lat": 38.91208616666667, "is_disabled": 0, "type": "electric_scooter", "lon": -77.04488583333334, "bike_id": "3345265077222ff0a1571dde44e13921", "fusion_lat": 0.0, "name": "3345265077222ff0a1571dde44e13921", "is_reserved": 0, "rental_uris": {"android": "https://dc.lft.to/lastmile_qr_scan", "ios": "https://dc.lft.to/lastmile_qr_scan"}, "fusion_lon": 0.0}, {"lat": 39.01578933333333, "is_disabled": 0, "type": "electric_bike", "lon": -77.0423475, "bike_id": "cd7d51bef2043b72fb3feb2138e35c18", "fusion_lat": 0.0, "name": "cd7d51bef2043b72fb3feb2138e35c18", "is_reserved": 0, "rental_uris": {"android": "https://dc.lft.to/lastmile_qr_scan", "ios": "https://dc.lft.to/lastmile_qr_scan"}, "fusion_lon": 0.0}, {"lat": 38.90781233333333, "is_disabled": 0, "type": "electric_scooter", "lon": -77.04231216666666, "bike_id": "43f5767264d8cecfefba68e8537e5c2e", "fusion_lat": 0.0, "name": "43f5767264d8cecfefba68e8537e5c2e", "is_reserved": 0, "rental_uris": {"android": "https://dc.lft.to/lastmile_qr_scan", "ios": "https://dc.lft.to/lastmile_qr_scan"}, "fusion_lon": 0.0}, {"lat": 38.904958, "is_disabled": 0, "type": "electric_scooter", "lon": -77.02819266666667, "bike_id": "11210267eef3f18804819d1f3b62574f", "fusion_lat": 0.0, "name": "11210267eef3f18804819d1f3b62574f", "is_reserved": 0, "rental_uris": {"android": "https://dc.lft.to/lastmile_qr_scan", "ios": "https://dc.lft.to/lastmile_qr_scan"}, "fusion_lon": 0.0}, {"lat": 38.9557275, "is_disabled": 0, "type": "electric_scooter", "lon": -77.07008983333333, "bike_id": "4ddd643bff2f6c110c7ee87abefa15fb", "fusion_lat": 0.0, "name": "4ddd643bff2f6c110c7ee87abefa15fb", "is_reserved": 0, "rental_uris": {"android": "https://dc.lft.to/lastmile_qr_scan", "ios": "https://dc.lft.to/lastmile_qr_scan"}, "fusion_lon": 0.0}, {"lat": 38.95878783333333, "is_disabled": 0, "type": "electric_bike", "lon": -77.01032683333334, "bike_id": "4c29850f865464b27864881ea5e25724", "fusion_lat": 0.0, "name": "4c29850f865464b27864881ea5e25724", "is_reserved": 0, "rental_uris": {"android": "https://dc.lft.to/lastmile_qr_scan", "ios": "https://dc.lft.to/lastmile_qr_scan"}, "fusion_lon": 0.0}, {"lat": 38.91044866666667, "is_disabled": 0, "type": "electric_scooter", "lon": -77.0150505, "bike_id": "bbc03afb84c75d361132401f031b7a7a", "fusion_lat": 0.0, "name": "bbc03afb84c75d361132401f031b7a7a", "is_reserved": 0, "rental_uris": {"android": "https://dc.lft.to/lastmile_qr_scan", "ios": "https://dc.lft.to/lastmile_qr_scan"}, "fusion_lon": 0.0}, {"lat": 38.909757666666664, "is_disabled": 0, "type": "electric_scooter", "lon": -77.03867016666666, "bike_id": "be826cc835334cea47e15b9169f65f4d", "fusion_lat": 0.0, "name": "be826cc835334cea47e15b9169f65f4d", "is_reserved": 0, "rental_uris": {"android": "https://dc.lft.to/lastmile_qr_scan", "ios": "https://dc.lft.to/lastmile_qr_scan"}, "fusion_lon": 0.0}, {"lat": 38.9169025, "is_disabled": 0, "type": "electric_scooter", "lon": -77.04190283333334, "bike_id": "baa0c09385f2618f90899d2f7c70bea2", "fusion_lat": 0.0, "name": "baa0c09385f2618f90899d2f7c70bea2", "is_reserved": 0, "rental_uris": {"android": "https://dc.lft.to/lastmile_qr_scan", "ios": "https://dc.lft.to/lastmile_qr_scan"}, "fusion_lon": 0.0}, {"lat": 38.9079815, "is_disabled": 0, "type": "electric_scooter", "lon": -77.04319383333333, "bike_id": "5a28bfeab2e1ac295f74e22c79bb837a", "fusion_lat": 0.0, "name": "5a28bfeab2e1ac295f74e22c79bb837a", "is_reserved": 0, "rental_uris": {"android": "https://dc.lft.to/lastmile_qr_scan", "ios": "https://dc.lft.to/lastmile_qr_scan"}, "fusion_lon": 0.0}, {"lat": 38.90958, "is_disabled": 0, "type": "electric_scooter", "lon": -77.0227845, "bike_id": "68bb0d04aba2080d20c729d16d59d80d", "fusion_lat": 0.0, "name": "68bb0d04aba2080d20c729d16d59d80d", "is_reserved": 0, "rental_uris": {"android": "https://dc.lft.to/lastmile_qr_scan", "ios": "https://dc.lft.to/lastmile_qr_scan"}, "fusion_lon": 0.0}, {"lat": 38.86522766666667, "is_disabled": 0, "type": "electric_scooter", "lon": -76.99028183333333, "bike_id": "01d3eda915318fcc42990ad163b871a9", "fusion_lat": 0.0, "name": "01d3eda915318fcc42990ad163b871a9", "is_reserved": 0, "rental_uris": {"android": "https://dc.lft.to/lastmile_qr_scan", "ios": "https://dc.lft.to/lastmile_qr_scan"}, "fusion_lon": 0.0}, {"lat": 38.89594016666667, "is_disabled": 0, "type": "electric_bike", "lon": -77.12677866666667, "bike_id": "35f01d886dfa61f585539052ff259992", "fusion_lat": 0.0, "name": "35f01d886dfa61f585539052ff259992", "is_reserved": 0, "rental_uris": {"android": "https://dc.lft.to/lastmile_qr_scan", "ios": "https://dc.lft.to/lastmile_qr_scan"}, "fusion_lon": 0.0}, {"lat": 38.92133233333333, "is_disabled": 0, "type": "electric_scooter", "lon": -77.036663, "bike_id": "b6d29816969d930472252cb29dfb2ca7", "fusion_lat": 0.0, "name": "b6d29816969d930472252cb29dfb2ca7", "is_reserved": 0, "rental_uris": {"android": "https://dc.lft.to/lastmile_qr_scan", "ios": "https://dc.lft.to/lastmile_qr_scan"}, "fusion_lon": 0.0}, {"lat": 38.90168516666667, "is_disabled": 0, "type": "electric_scooter", "lon": -77.0392235, "bike_id": "caa7a468e5081e22d8dab3e3806abd70", "fusion_lat": 0.0, "name": "caa7a468e5081e22d8dab3e3806abd70", "is_reserved": 0, "rental_uris": {"android": "https://dc.lft.to/lastmile_qr_scan", "ios": "https://dc.lft.to/lastmile_qr_scan"}, "fusion_lon": 0.0}, {"lat": 38.93354933333333, "is_disabled": 0, "type": "electric_bike", "lon": -77.09959566666667, "bike_id": "3543e29011eaae3b92cd98148cb640ea", "fusion_lat": 0.0, "name": "3543e29011eaae3b92cd98148cb640ea", "is_reserved": 0, "rental_uris": {"android": "https://dc.lft.to/lastmile_qr_scan", "ios": "https://dc.lft.to/lastmile_qr_scan"}, "fusion_lon": 0.0}, {"lat": 38.92844516666667, "is_disabled": 0, "type": "electric_scooter", "lon": -77.033293, "bike_id": "6a934b6a716c08f481ded56919fd7293", "fusion_lat": 0.0, "name": "6a934b6a716c08f481ded56919fd7293", "is_reserved": 0, "rental_uris": {"android": "https://dc.lft.to/lastmile_qr_scan", "ios": "https://dc.lft.to/lastmile_qr_scan"}, "fusion_lon": 0.0}, {"lat": 38.9028335, "is_disabled": 0, "type": "electric_scooter", "lon": -77.03653083333333, "bike_id": "7b2a3a2ae48b27306b199de0e0d5b599", "fusion_lat": 0.0, "name": "7b2a3a2ae48b27306b199de0e0d5b599", "is_reserved": 0, "rental_uris": {"android": "https://dc.lft.to/lastmile_qr_scan", "ios": "https://dc.lft.to/lastmile_qr_scan"}, "fusion_lon": 0.0}, {"lat": 38.9141985, "is_disabled": 0, "type": "electric_scooter", "lon": -77.03185166666667, "bike_id": "b75544a1c5e7d99ab7ae2943b9db6368", "fusion_lat": 0.0, "name": "b75544a1c5e7d99ab7ae2943b9db6368", "is_reserved": 0, "rental_uris": {"android": "https://dc.lft.to/lastmile_qr_scan", "ios": "https://dc.lft.to/lastmile_qr_scan"}, "fusion_lon": 0.0}, {"lat": 38.9232545, "is_disabled": 0, "type": "electric_scooter", "lon": -77.03545533333333, "bike_id": "109039ade6ffb513be85801e91b17e9c", "fusion_lat": 0.0, "name": "109039ade6ffb513be85801e91b17e9c", "is_reserved": 0, "rental_uris": {"android": "https://dc.lft.to/lastmile_qr_scan", "ios": "https://dc.lft.to/lastmile_qr_scan"}, "fusion_lon": 0.0}, {"lat": 38.896543333333334, "is_disabled": 0, "type": "electric_scooter", "lon": -77.00519616666666, "bike_id": "81922db43cf32aa055929573618b01bc", "fusion_lat": 0.0, "name": "81922db43cf32aa055929573618b01bc", "is_reserved": 0, "rental_uris": {"android": "https://dc.lft.to/lastmile_qr_scan", "ios": "https://dc.lft.to/lastmile_qr_scan"}, "fusion_lon": 0.0}, {"lat": 38.86713733333333, "is_disabled": 0, "type": "electric_scooter", "lon": -76.98723333333334, "bike_id": "4f47a22a2fa233ecaf59b97790f812ee", "fusion_lat": 0.0, "name": "4f47a22a2fa233ecaf59b97790f812ee", "is_reserved": 0, "rental_uris": {"android": "https://dc.lft.to/lastmile_qr_scan", "ios": "https://dc.lft.to/lastmile_qr_scan"}, "fusion_lon": 0.0}, {"lat": 38.912677, "is_disabled": 0, "type": "electric_scooter", "lon": -77.02256233333334, "bike_id": "f8fb5580ef54b026e5248e9ab7aade6c", "fusion_lat": 0.0, "name": "f8fb5580ef54b026e5248e9ab7aade6c", "is_reserved": 0, "rental_uris": {"android": "https://dc.lft.to/lastmile_qr_scan", "ios": "https://dc.lft.to/lastmile_qr_scan"}, "fusion_lon": 0.0}, {"lat": 38.90862516666667, "is_disabled": 0, "type": "electric_bike", "lon": -76.94009283333334, "bike_id": "e88fcbe45090cc2a2431449cc57cc7af", "fusion_lat": 0.0, "name": "e88fcbe45090cc2a2431449cc57cc7af", "is_reserved": 0, "rental_uris": {"android": "https://dc.lft.to/lastmile_qr_scan", "ios": "https://dc.lft.to/lastmile_qr_scan"}, "fusion_lon": 0.0}, {"lat": 38.905867, "is_disabled": 0, "type": "electric_scooter", "lon": -76.98622566666667, "bike_id": "c8087bfd8ef446d9e3fe74bb88d455ff", "fusion_lat": 0.0, "name": "c8087bfd8ef446d9e3fe74bb88d455ff", "is_reserved": 0, "rental_uris": {"android": "https://dc.lft.to/lastmile_qr_scan", "ios": "https://dc.lft.to/lastmile_qr_scan"}, "fusion_lon": 0.0}, {"lat": 38.907301333333336, "is_disabled": 0, "type": "electric_scooter", "lon": -77.0481975, "bike_id": "7d6bc4757772080a926800f0ae6de22e", "fusion_lat": 0.0, "name": "7d6bc4757772080a926800f0ae6de22e", "is_reserved": 0, "rental_uris": {"android": "https://dc.lft.to/lastmile_qr_scan", "ios": "https://dc.lft.to/lastmile_qr_scan"}, "fusion_lon": 0.0}, {"lat": 38.901515833333335, "is_disabled": 0, "type": "electric_scooter", "lon": -77.04192566666667, "bike_id": "6663f9e26f3ed7a85223af85d5037c5e", "fusion_lat": 0.0, "name": "6663f9e26f3ed7a85223af85d5037c5e", "is_reserved": 0, "rental_uris": {"android": "https://dc.lft.to/lastmile_qr_scan", "ios": "https://dc.lft.to/lastmile_qr_scan"}, "fusion_lon": 0.0}, {"lat": 38.9077745, "is_disabled": 0, "type": "electric_scooter", "lon": -77.03858533333333, "bike_id": "d8ea6768dcb149ac04a589cd9339b8d1", "fusion_lat": 0.0, "name": "d8ea6768dcb149ac04a589cd9339b8d1", "is_reserved": 0, "rental_uris": {"android": "https://dc.lft.to/lastmile_qr_scan", "ios": "https://dc.lft.to/lastmile_qr_scan"}, "fusion_lon": 0.0}, {"lat": 38.845056166666666, "is_disabled": 0, "type": "electric_bike", "lon": -76.99353033333334, "bike_id": "bb99daeec10521ef3f0f6999ff0b137c", "fusion_lat": 0.0, "name": "bb99daeec10521ef3f0f6999ff0b137c", "is_reserved": 0, "rental_uris": {"android": "https://dc.lft.to/lastmile_qr_scan", "ios": "https://dc.lft.to/lastmile_qr_scan"}, "fusion_lon": 0.0}, {"lat": 38.90679316666667, "is_disabled": 0, "type": "electric_scooter", "lon": -77.0364075, "bike_id": "3df1cd786ede40409928d80a72a4e595", "fusion_lat": 0.0, "name": "3df1cd786ede40409928d80a72a4e595", "is_reserved": 0, "rental_uris": {"android": "https://dc.lft.to/lastmile_qr_scan", "ios": "https://dc.lft.to/lastmile_qr_scan"}, "fusion_lon": 0.0}, {"lat": 38.89493566666667, "is_disabled": 0, "type": "electric_scooter", "lon": -77.0219435, "bike_id": "7bb8c6b1cb1f3cf37f4a0af9ec28186b", "fusion_lat": 0.0, "name": "7bb8c6b1cb1f3cf37f4a0af9ec28186b", "is_reserved": 0, "rental_uris": {"android": "https://dc.lft.to/lastmile_qr_scan", "ios": "https://dc.lft.to/lastmile_qr_scan"}, "fusion_lon": 0.0}, {"lat": 38.90399216666667, "is_disabled": 0, "type": "electric_scooter", "lon": -77.0343325, "bike_id": "e683d20a3da981ea14815fe8a0587122", "fusion_lat": 0.0, "name": "e683d20a3da981ea14815fe8a0587122", "is_reserved": 0, "rental_uris": {"android": "https://dc.lft.to/lastmile_qr_scan", "ios": "https://dc.lft.to/lastmile_qr_scan"}, "fusion_lon": 0.0}, {"lat": 38.91962916666667, "is_disabled": 0, "type": "electric_bike", "lon": -76.97270283333333, "bike_id": "ba16d9dbc2cee9c612595ebd1611123d", "fusion_lat": 0.0, "name": "ba16d9dbc2cee9c612595ebd1611123d", "is_reserved": 0, "rental_uris": {"android": "https://dc.lft.to/lastmile_qr_scan", "ios": "https://dc.lft.to/lastmile_qr_scan"}, "fusion_lon": 0.0}, {"lat": 38.9022075, "is_disabled": 0, "type": "electric_scooter", "lon": -76.94590283333334, "bike_id": "7ea2edd8e2e2aa9c8db28b18e9251500", "fusion_lat": 0.0, "name": "7ea2edd8e2e2aa9c8db28b18e9251500", "is_reserved": 0, "rental_uris": {"android": "https://dc.lft.to/lastmile_qr_scan", "ios": "https://dc.lft.to/lastmile_qr_scan"}, "fusion_lon": 0.0}, {"lat": 38.907326833333336, "is_disabled": 0, "type": "electric_scooter", "lon": -77.034456, "bike_id": "6dd331895b96022537e7a4390336ec43", "fusion_lat": 0.0, "name": "6dd331895b96022537e7a4390336ec43", "is_reserved": 0, "rental_uris": {"android": "https://dc.lft.to/lastmile_qr_scan", "ios": "https://dc.lft.to/lastmile_qr_scan"}, "fusion_lon": 0.0}, {"lat": 38.91761616666667, "is_disabled": 0, "type": "electric_scooter", "lon": -77.03192483333333, "bike_id": "585105c69bd9fed14b81cd571c451a81", "fusion_lat": 0.0, "name": "585105c69bd9fed14b81cd571c451a81", "is_reserved": 0, "rental_uris": {"android": "https://dc.lft.to/lastmile_qr_scan", "ios": "https://dc.lft.to/lastmile_qr_scan"}, "fusion_lon": 0.0}, {"lat": 38.912094833333335, "is_disabled": 0, "type": "electric_scooter", "lon": -77.0275125, "bike_id": "c7e12b6cf2876b7e31b1420158cdf9d9", "fusion_lat": 0.0, "name": "c7e12b6cf2876b7e31b1420158cdf9d9", "is_reserved": 0, "rental_uris": {"android": "https://dc.lft.to/lastmile_qr_scan", "ios": "https://dc.lft.to/lastmile_qr_scan"}, "fusion_lon": 0.0}, {"lat": 38.93007566666667, "is_disabled": 0, "type": "electric_bike", "lon": -77.21652033333334, "bike_id": "93a316f3a447f96e0cb47c96c5832180", "fusion_lat": 0.0, "name": "93a316f3a447f96e0cb47c96c5832180", "is_reserved": 0, "rental_uris": {"android": "https://dc.lft.to/lastmile_qr_scan", "ios": "https://dc.lft.to/lastmile_qr_scan"}, "fusion_lon": 0.0}, {"lat": 38.9367225, "is_disabled": 0, "type": "electric_bike", "lon": -76.952059, "bike_id": "23b2fd250a7b826359f9635afd7ec7e7", "fusion_lat": 0.0, "name": "23b2fd250a7b826359f9635afd7ec7e7", "is_reserved": 0, "rental_uris": {"android": "https://dc.lft.to/lastmile_qr_scan", "ios": "https://dc.lft.to/lastmile_qr_scan"}, "fusion_lon": 0.0}, {"lat": 38.94717133333333, "is_disabled": 0, "type": "electric_scooter", "lon": -77.022605, "bike_id": "6a156124c3f5e63c6f8bd3ff0b516eba", "fusion_lat": 0.0, "name": "6a156124c3f5e63c6f8bd3ff0b516eba", "is_reserved": 0, "rental_uris": {"android": "https://dc.lft.to/lastmile_qr_scan", "ios": "https://dc.lft.to/lastmile_qr_scan"}, "fusion_lon": 0.0}, {"lat": 38.912587333333335, "is_disabled": 0, "type": "electric_scooter", "lon": -77.03947116666667, "bike_id": "5e3e5dc18ee18571c790ab396de49bd0", "fusion_lat": 0.0, "name": "5e3e5dc18ee18571c790ab396de49bd0", "is_reserved": 0, "rental_uris": {"android": "https://dc.lft.to/lastmile_qr_scan", "ios": "https://dc.lft.to/lastmile_qr_scan"}, "fusion_lon": 0.0}, {"lat": 38.9224445, "is_disabled": 0, "type": "electric_scooter", "lon": -77.031396, "bike_id": "9c78548ae2290bef28a28732da96b6ee", "fusion_lat": 0.0, "name": "9c78548ae2290bef28a28732da96b6ee", "is_reserved": 0, "rental_uris": {"android": "https://dc.lft.to/lastmile_qr_scan", "ios": "https://dc.lft.to/lastmile_qr_scan"}, "fusion_lon": 0.0}, {"lat": 38.89709916666666, "is_disabled": 0, "type": "electric_scooter", "lon": -77.04875866666667, "bike_id": "83fa79809e3c1efafe7aeb4ca44b14e2", "fusion_lat": 0.0, "name": "83fa79809e3c1efafe7aeb4ca44b14e2", "is_reserved": 0, "rental_uris": {"android": "https://dc.lft.to/lastmile_qr_scan", "ios": "https://dc.lft.to/lastmile_qr_scan"}, "fusion_lon": 0.0}, {"lat": 38.93566833333333, "is_disabled": 0, "type": "electric_scooter", "lon": -77.032609, "bike_id": "c1df61af26afeedb5d7024971993911d", "fusion_lat": 0.0, "name": "c1df61af26afeedb5d7024971993911d", "is_reserved": 0, "rental_uris": {"android": "https://dc.lft.to/lastmile_qr_scan", "ios": "https://dc.lft.to/lastmile_qr_scan"}, "fusion_lon": 0.0}, {"lat": 38.911857, "is_disabled": 0, "type": "electric_scooter", "lon": -77.01075066666667, "bike_id": "3120d88acfbe8898ec9abeff90a23401", "fusion_lat": 0.0, "name": "3120d88acfbe8898ec9abeff90a23401", "is_reserved": 0, "rental_uris": {"android": "https://dc.lft.to/lastmile_qr_scan", "ios": "https://dc.lft.to/lastmile_qr_scan"}, "fusion_lon": 0.0}, {"lat": 38.902341666666665, "is_disabled": 0, "type": "electric_scooter", "lon": -77.00202116666667, "bike_id": "d7c2ad8578adb84b39c5394bcd54fa3d", "fusion_lat": 0.0, "name": "d7c2ad8578adb84b39c5394bcd54fa3d", "is_reserved": 0, "rental_uris": {"android": "https://dc.lft.to/lastmile_qr_scan", "ios": "https://dc.lft.to/lastmile_qr_scan"}, "fusion_lon": 0.0}, {"lat": 38.895563, "is_disabled": 0, "type": "electric_scooter", "lon": -77.00920283333333, "bike_id": "7042db20d98a00446c9866097217990d", "fusion_lat": 0.0, "name": "7042db20d98a00446c9866097217990d", "is_reserved": 0, "rental_uris": {"android": "https://dc.lft.to/lastmile_qr_scan", "ios": "https://dc.lft.to/lastmile_qr_scan"}, "fusion_lon": 0.0}, {"lat": 38.925813166666664, "is_disabled": 0, "type": "electric_scooter", "lon": -77.028352, "bike_id": "9374a84ca643eef3fd4b7a66238cfb92", "fusion_lat": 0.0, "name": "9374a84ca643eef3fd4b7a66238cfb92", "is_reserved": 0, "rental_uris": {"android": "https://dc.lft.to/lastmile_qr_scan", "ios": "https://dc.lft.to/lastmile_qr_scan"}, "fusion_lon": 0.0}, {"lat": 38.93267866666667, "is_disabled": 0, "type": "electric_scooter", "lon": -77.03461116666666, "bike_id": "de597d73e33599096910a76ec69e28c8", "fusion_lat": 0.0, "name": "de597d73e33599096910a76ec69e28c8", "is_reserved": 0, "rental_uris": {"android": "https://dc.lft.to/lastmile_qr_scan", "ios": "https://dc.lft.to/lastmile_qr_scan"}, "fusion_lon": 0.0}, {"lat": 38.92154216666667, "is_disabled": 0, "type": "electric_scooter", "lon": -77.03518966666667, "bike_id": "34f745bf29be1460f2512d381b49108e", "fusion_lat": 0.0, "name": "34f745bf29be1460f2512d381b49108e", "is_reserved": 0, "rental_uris": {"android": "https://dc.lft.to/lastmile_qr_scan", "ios": "https://dc.lft.to/lastmile_qr_scan"}, "fusion_lon": 0.0}, {"lat": 38.914055833333336, "is_disabled": 0, "type": "electric_scooter", "lon": -77.03152483333334, "bike_id": "e02755ee0d36effddf9ac5f4e5d0b5fd", "fusion_lat": 0.0, "name": "e02755ee0d36effddf9ac5f4e5d0b5fd", "is_reserved": 0, "rental_uris": {"android": "https://dc.lft.to/lastmile_qr_scan", "ios": "https://dc.lft.to/lastmile_qr_scan"}, "fusion_lon": 0.0}, {"lat": 38.930165, "is_disabled": 0, "type": "electric_scooter", "lon": -77.04449166666667, "bike_id": "ab6796b855acc3b006263b112de80730", "fusion_lat": 0.0, "name": "ab6796b855acc3b006263b112de80730", "is_reserved": 0, "rental_uris": {"android": "https://dc.lft.to/lastmile_qr_scan", "ios": "https://dc.lft.to/lastmile_qr_scan"}, "fusion_lon": 0.0}, {"lat": 38.943549833333336, "is_disabled": 0, "type": "electric_scooter", "lon": -77.0021795, "bike_id": "a97e45404165ae8672cd3cb004c18658", "fusion_lat": 0.0, "name": "a97e45404165ae8672cd3cb004c18658", "is_reserved": 0, "rental_uris": {"android": "https://dc.lft.to/lastmile_qr_scan", "ios": "https://dc.lft.to/lastmile_qr_scan"}, "fusion_lon": 0.0}, {"lat": 38.89710383333333, "is_disabled": 0, "type": "electric_scooter", "lon": -77.00838683333333, "bike_id": "cf07aec782c645db04f25e0b722bb425", "fusion_lat": 0.0, "name": "cf07aec782c645db04f25e0b722bb425", "is_reserved": 0, "rental_uris": {"android": "https://dc.lft.to/lastmile_qr_scan", "ios": "https://dc.lft.to/lastmile_qr_scan"}, "fusion_lon": 0.0}, {"lat": 38.91910466666667, "is_disabled": 0, "type": "electric_scooter", "lon": -77.03171083333334, "bike_id": "1cef69018abb52224072bc58cce6f978", "fusion_lat": 0.0, "name": "1cef69018abb52224072bc58cce6f978", "is_reserved": 0, "rental_uris": {"android": "https://dc.lft.to/lastmile_qr_scan", "ios": "https://dc.lft.to/lastmile_qr_scan"}, "fusion_lon": 0.0}, {"lat": 38.91748066666667, "is_disabled": 0, "type": "electric_scooter", "lon": -77.024036, "bike_id": "6b8eaa5198702838caec640e19b56b32", "fusion_lat": 0.0, "name": "6b8eaa5198702838caec640e19b56b32", "is_reserved": 0, "rental_uris": {"android": "https://dc.lft.to/lastmile_qr_scan", "ios": "https://dc.lft.to/lastmile_qr_scan"}, "fusion_lon": 0.0}, {"lat": 38.906597833333336, "is_disabled": 0, "type": "electric_scooter", "lon": -77.02953483333333, "bike_id": "13c18c9d8bc21681ea5bfbafefaa00fa", "fusion_lat": 0.0, "name": "13c18c9d8bc21681ea5bfbafefaa00fa", "is_reserved": 0, "rental_uris": {"android": "https://dc.lft.to/lastmile_qr_scan", "ios": "https://dc.lft.to/lastmile_qr_scan"}, "fusion_lon": 0.0}, {"lat": 38.9341385, "is_disabled": 0, "type": "electric_scooter", "lon": -77.042776, "bike_id": "0d5c821c16a103ba4b02991642c48d80", "fusion_lat": 0.0, "name": "0d5c821c16a103ba4b02991642c48d80", "is_reserved": 0, "rental_uris": {"android": "https://dc.lft.to/lastmile_qr_scan", "ios": "https://dc.lft.to/lastmile_qr_scan"}, "fusion_lon": 0.0}, {"lat": 38.91833033333333, "is_disabled": 0, "type": "electric_scooter", "lon": -77.03508433333333, "bike_id": "495f2cce7f4fba97e21412c6f8506a66", "fusion_lat": 0.0, "name": "495f2cce7f4fba97e21412c6f8506a66", "is_reserved": 0, "rental_uris": {"android": "https://dc.lft.to/lastmile_qr_scan", "ios": "https://dc.lft.to/lastmile_qr_scan"}, "fusion_lon": 0.0}, {"lat": 38.9507175, "is_disabled": 0, "type": "electric_scooter", "lon": -77.0271575, "bike_id": "3564027328a210b3139b8c67ef070544", "fusion_lat": 0.0, "name": "3564027328a210b3139b8c67ef070544", "is_reserved": 0, "rental_uris": {"android": "https://dc.lft.to/lastmile_qr_scan", "ios": "https://dc.lft.to/lastmile_qr_scan"}, "fusion_lon": 0.0}, {"lat": 38.85494633333333, "is_disabled": 0, "type": "electric_bike", "lon": -77.12053083333333, "bike_id": "68622f016293f79507b08c2e4f438c19", "fusion_lat": 0.0, "name": "68622f016293f79507b08c2e4f438c19", "is_reserved": 0, "rental_uris": {"android": "https://dc.lft.to/lastmile_qr_scan", "ios": "https://dc.lft.to/lastmile_qr_scan"}, "fusion_lon": 0.0}, {"lat": 38.9055275, "is_disabled": 0, "type": "electric_scooter", "lon": -77.03247816666666, "bike_id": "6d0e27bfd6c66669bf2c523c5b792a86", "fusion_lat": 0.0, "name": "6d0e27bfd6c66669bf2c523c5b792a86", "is_reserved": 0, "rental_uris": {"android": "https://dc.lft.to/lastmile_qr_scan", "ios": "https://dc.lft.to/lastmile_qr_scan"}, "fusion_lon": 0.0}, {"lat": 38.941913666666665, "is_disabled": 0, "type": "electric_scooter", "lon": -77.0401255, "bike_id": "cf8876c9883167b588b1979a257442f9", "fusion_lat": 0.0, "name": "cf8876c9883167b588b1979a257442f9", "is_reserved": 0, "rental_uris": {"android": "https://dc.lft.to/lastmile_qr_scan", "ios": "https://dc.lft.to/lastmile_qr_scan"}, "fusion_lon": 0.0}, {"lat": 38.886536166666666, "is_disabled": 0, "type": "electric_scooter", "lon": -77.0216335, "bike_id": "c377ac4c2117869bab0220e17d5ad78e", "fusion_lat": 0.0, "name": "c377ac4c2117869bab0220e17d5ad78e", "is_reserved": 0, "rental_uris": {"android": "https://dc.lft.to/lastmile_qr_scan", "ios": "https://dc.lft.to/lastmile_qr_scan"}, "fusion_lon": 0.0}, {"lat": 38.92154766666667, "is_disabled": 0, "type": "electric_scooter", "lon": -77.03515266666666, "bike_id": "cd7533fa6e6b4aca23224939a82e21ac", "fusion_lat": 0.0, "name": "cd7533fa6e6b4aca23224939a82e21ac", "is_reserved": 0, "rental_uris": {"android": "https://dc.lft.to/lastmile_qr_scan", "ios": "https://dc.lft.to/lastmile_qr_scan"}, "fusion_lon": 0.0}, {"lat": 38.91342133333333, "is_disabled": 0, "type": "electric_scooter", "lon": -77.017479, "bike_id": "29cad1d5c865767be94e3661de758388", "fusion_lat": 0.0, "name": "29cad1d5c865767be94e3661de758388", "is_reserved": 0, "rental_uris": {"android": "https://dc.lft.to/lastmile_qr_scan", "ios": "https://dc.lft.to/lastmile_qr_scan"}, "fusion_lon": 0.0}, {"lat": 38.87724566666667, "is_disabled": 0, "type": "electric_scooter", "lon": -77.01769933333334, "bike_id": "c54b9a7a7391d0304ed05fc34d32c1a8", "fusion_lat": 0.0, "name": "c54b9a7a7391d0304ed05fc34d32c1a8", "is_reserved": 0, "rental_uris": {"android": "https://dc.lft.to/lastmile_qr_scan", "ios": "https://dc.lft.to/lastmile_qr_scan"}, "fusion_lon": 0.0}, {"lat": 38.908127666666665, "is_disabled": 0, "type": "electric_scooter", "lon": -77.0432485, "bike_id": "11d2e4056b578e9f69bed20a1e2d739a", "fusion_lat": 0.0, "name": "11d2e4056b578e9f69bed20a1e2d739a", "is_reserved": 0, "rental_uris": {"android": "https://dc.lft.to/lastmile_qr_scan", "ios": "https://dc.lft.to/lastmile_qr_scan"}, "fusion_lon": 0.0}, {"lat": 38.8922185, "is_disabled": 0, "type": "electric_scooter", "lon": -77.03214833333334, "bike_id": "190d44874ab86cb850b1d0de1282c70c", "fusion_lat": 0.0, "name": "190d44874ab86cb850b1d0de1282c70c", "is_reserved": 0, "rental_uris": {"android": "https://dc.lft.to/lastmile_qr_scan", "ios": "https://dc.lft.to/lastmile_qr_scan"}, "fusion_lon": 0.0}, {"lat": 38.911120333333336, "is_disabled": 0, "type": "electric_scooter", "lon": -77.0372775, "bike_id": "bdcd1496bdc26ae97e3ea001ef2ef21b", "fusion_lat": 0.0, "name": "bdcd1496bdc26ae97e3ea001ef2ef21b", "is_reserved": 0, "rental_uris": {"android": "https://dc.lft.to/lastmile_qr_scan", "ios": "https://dc.lft.to/lastmile_qr_scan"}, "fusion_lon": 0.0}, {"lat": 38.90627816666667, "is_disabled": 0, "type": "electric_scooter", "lon": -77.03147216666666, "bike_id": "5484546abc7a90fbdc3c5aaa64bb3f51", "fusion_lat": 0.0, "name": "5484546abc7a90fbdc3c5aaa64bb3f51", "is_reserved": 0, "rental_uris": {"android": "https://dc.lft.to/lastmile_qr_scan", "ios": "https://dc.lft.to/lastmile_qr_scan"}, "fusion_lon": 0.0}, {"lat": 38.9164555, "is_disabled": 0, "type": "electric_scooter", "lon": -77.0223895, "bike_id": "2f32c90b999e0e29e968dd17489f7b2d", "fusion_lat": 0.0, "name": "2f32c90b999e0e29e968dd17489f7b2d", "is_reserved": 0, "rental_uris": {"android": "https://dc.lft.to/lastmile_qr_scan", "ios": "https://dc.lft.to/lastmile_qr_scan"}, "fusion_lon": 0.0}, {"lat": 38.9182065, "is_disabled": 0, "type": "electric_scooter", "lon": -77.04168233333333, "bike_id": "27e8c7a2cf06c5d42c199b6813a3c0e7", "fusion_lat": 0.0, "name": "27e8c7a2cf06c5d42c199b6813a3c0e7", "is_reserved": 0, "rental_uris": {"android": "https://dc.lft.to/lastmile_qr_scan", "ios": "https://dc.lft.to/lastmile_qr_scan"}, "fusion_lon": 0.0}, {"lat": 38.9999425, "is_disabled": 0, "type": "electric_bike", "lon": -76.92498516666667, "bike_id": "dd38ee1c3cc2855d1d685d725dfff496", "fusion_lat": 0.0, "name": "dd38ee1c3cc2855d1d685d725dfff496", "is_reserved": 0, "rental_uris": {"android": "https://dc.lft.to/lastmile_qr_scan", "ios": "https://dc.lft.to/lastmile_qr_scan"}, "fusion_lon": 0.0}, {"lat": 38.952132166666665, "is_disabled": 0, "type": "electric_scooter", "lon": -77.085986, "bike_id": "37cddd3c7f4c5bedfb81bd6be1f4ac7b", "fusion_lat": 0.0, "name": "37cddd3c7f4c5bedfb81bd6be1f4ac7b", "is_reserved": 0, "rental_uris": {"android": "https://dc.lft.to/lastmile_qr_scan", "ios": "https://dc.lft.to/lastmile_qr_scan"}, "fusion_lon": 0.0}, {"lat": 38.92137, "is_disabled": 0, "type": "electric_scooter", "lon": -77.04483116666667, "bike_id": "a7a7d1370e711b10486a30e1821e85ad", "fusion_lat": 0.0, "name": "a7a7d1370e711b10486a30e1821e85ad", "is_reserved": 0, "rental_uris": {"android": "https://dc.lft.to/lastmile_qr_scan", "ios": "https://dc.lft.to/lastmile_qr_scan"}, "fusion_lon": 0.0}, {"lat": 38.89090266666667, "is_disabled": 0, "type": "electric_scooter", "lon": -76.9526685, "bike_id": "7f15cd932118b4362f4b515bc9770a8b", "fusion_lat": 0.0, "name": "7f15cd932118b4362f4b515bc9770a8b", "is_reserved": 0, "rental_uris": {"android": "https://dc.lft.to/lastmile_qr_scan", "ios": "https://dc.lft.to/lastmile_qr_scan"}, "fusion_lon": 0.0}, {"lat": 38.996367166666666, "is_disabled": 0, "type": "electric_bike", "lon": -77.0298485, "bike_id": "20ab031022d52d80b87c338cd63ad23a", "fusion_lat": 0.0, "name": "20ab031022d52d80b87c338cd63ad23a", "is_reserved": 0, "rental_uris": {"android": "https://dc.lft.to/lastmile_qr_scan", "ios": "https://dc.lft.to/lastmile_qr_scan"}, "fusion_lon": 0.0}, {"lat": 38.91732616666667, "is_disabled": 0, "type": "electric_scooter", "lon": -77.03665566666666, "bike_id": "4099f24ecc274d1aff0ddf9dbf3f8343", "fusion_lat": 0.0, "name": "4099f24ecc274d1aff0ddf9dbf3f8343", "is_reserved": 0, "rental_uris": {"android": "https://dc.lft.to/lastmile_qr_scan", "ios": "https://dc.lft.to/lastmile_qr_scan"}, "fusion_lon": 0.0}, {"lat": 38.920288166666666, "is_disabled": 0, "type": "electric_scooter", "lon": -77.02451216666667, "bike_id": "e3dc965bb4c678783b88a9f64e8a32b4", "fusion_lat": 0.0, "name": "e3dc965bb4c678783b88a9f64e8a32b4", "is_reserved": 0, "rental_uris": {"android": "https://dc.lft.to/lastmile_qr_scan", "ios": "https://dc.lft.to/lastmile_qr_scan"}, "fusion_lon": 0.0}, {"lat": 38.91420433333333, "is_disabled": 0, "type": "electric_scooter", "lon": -77.022006, "bike_id": "435014e3799dcf0889631e9ed0548390", "fusion_lat": 0.0, "name": "435014e3799dcf0889631e9ed0548390", "is_reserved": 0, "rental_uris": {"android": "https://dc.lft.to/lastmile_qr_scan", "ios": "https://dc.lft.to/lastmile_qr_scan"}, "fusion_lon": 0.0}, {"lat": 38.90736366666667, "is_disabled": 0, "type": "electric_scooter", "lon": -77.027141, "bike_id": "deb59b13ab5a96cee2552b3384612c94", "fusion_lat": 0.0, "name": "deb59b13ab5a96cee2552b3384612c94", "is_reserved": 0, "rental_uris": {"android": "https://dc.lft.to/lastmile_qr_scan", "ios": "https://dc.lft.to/lastmile_qr_scan"}, "fusion_lon": 0.0}, {"lat": 38.903736333333335, "is_disabled": 0, "type": "electric_scooter", "lon": -77.03983616666666, "bike_id": "f875c277a6faad150680d3871d30af22", "fusion_lat": 0.0, "name": "f875c277a6faad150680d3871d30af22", "is_reserved": 0, "rental_uris": {"android": "https://dc.lft.to/lastmile_qr_scan", "ios": "https://dc.lft.to/lastmile_qr_scan"}, "fusion_lon": 0.0}, {"lat": 38.91818116666666, "is_disabled": 0, "type": "electric_scooter", "lon": -77.03913633333333, "bike_id": "6e8029f5e3d7501358da9f6bdd62b3bb", "fusion_lat": 0.0, "name": "6e8029f5e3d7501358da9f6bdd62b3bb", "is_reserved": 0, "rental_uris": {"android": "https://dc.lft.to/lastmile_qr_scan", "ios": "https://dc.lft.to/lastmile_qr_scan"}, "fusion_lon": 0.0}, {"lat": 38.915638666666666, "is_disabled": 0, "type": "electric_scooter", "lon": -77.02978066666667, "bike_id": "660a30864051c6d119a825fd22155f65", "fusion_lat": 0.0, "name": "660a30864051c6d119a825fd22155f65", "is_reserved": 0, "rental_uris": {"android": "https://dc.lft.to/lastmile_qr_scan", "ios": "https://dc.lft.to/lastmile_qr_scan"}, "fusion_lon": 0.0}, {"lat": 38.90804816666667, "is_disabled": 0, "type": "electric_scooter", "lon": -77.04346366666667, "bike_id": "a29489deefbd26fc07baefd2c4ee5227", "fusion_lat": 0.0, "name": "a29489deefbd26fc07baefd2c4ee5227", "is_reserved": 0, "rental_uris": {"android": "https://dc.lft.to/lastmile_qr_scan", "ios": "https://dc.lft.to/lastmile_qr_scan"}, "fusion_lon": 0.0}, {"lat": 38.90737516666667, "is_disabled": 0, "type": "electric_scooter", "lon": -77.0280375, "bike_id": "43992bfb190c24734ce3eed48b31fbee", "fusion_lat": 0.0, "name": "43992bfb190c24734ce3eed48b31fbee", "is_reserved": 0, "rental_uris": {"android": "https://dc.lft.to/lastmile_qr_scan", "ios": "https://dc.lft.to/lastmile_qr_scan"}, "fusion_lon": 0.0}, {"lat": 38.905708833333335, "is_disabled": 0, "type": "electric_scooter", "lon": -77.0218415, "bike_id": "3de1dece5a2c2163a6118b5a6d3ee2d9", "fusion_lat": 0.0, "name": "3de1dece5a2c2163a6118b5a6d3ee2d9", "is_reserved": 0, "rental_uris": {"android": "https://dc.lft.to/lastmile_qr_scan", "ios": "https://dc.lft.to/lastmile_qr_scan"}, "fusion_lon": 0.0}, {"lat": 38.91268683333333, "is_disabled": 0, "type": "electric_bike", "lon": -77.0225705, "bike_id": "47313bde7d8b8ec8729a858bb85e37b3", "fusion_lat": 0.0, "name": "47313bde7d8b8ec8729a858bb85e37b3", "is_reserved": 0, "rental_uris": {"android": "https://dc.lft.to/lastmile_qr_scan", "ios": "https://dc.lft.to/lastmile_qr_scan"}, "fusion_lon": 0.0}, {"lat": 38.928237333333335, "is_disabled": 0, "type": "electric_scooter", "lon": -77.01412783333333, "bike_id": "b64491e8d4712c2511ace846fd5f0cca", "fusion_lat": 0.0, "name": "b64491e8d4712c2511ace846fd5f0cca", "is_reserved": 0, "rental_uris": {"android": "https://dc.lft.to/lastmile_qr_scan", "ios": "https://dc.lft.to/lastmile_qr_scan"}, "fusion_lon": 0.0}, {"lat": 38.80225, "is_disabled": 0, "type": "electric_bike", "lon": -77.07911416666667, "bike_id": "5e30aad7fdb9cf89bcd2d591a758fc34", "fusion_lat": 0.0, "name": "5e30aad7fdb9cf89bcd2d591a758fc34", "is_reserved": 0, "rental_uris": {"android": "https://dc.lft.to/lastmile_qr_scan", "ios": "https://dc.lft.to/lastmile_qr_scan"}, "fusion_lon": 0.0}, {"lat": 38.904674666666665, "is_disabled": 0, "type": "electric_scooter", "lon": -77.03896316666666, "bike_id": "53308952a5781972d168c61d99592bc0", "fusion_lat": 0.0, "name": "53308952a5781972d168c61d99592bc0", "is_reserved": 0, "rental_uris": {"android": "https://dc.lft.to/lastmile_qr_scan", "ios": "https://dc.lft.to/lastmile_qr_scan"}, "fusion_lon": 0.0}, {"lat": 38.863709166666666, "is_disabled": 0, "type": "electric_scooter", "lon": -76.990321, "bike_id": "a3d9277b996926d57059347dae5ca6fc", "fusion_lat": 0.0, "name": "a3d9277b996926d57059347dae5ca6fc", "is_reserved": 0, "rental_uris": {"android": "https://dc.lft.to/lastmile_qr_scan", "ios": "https://dc.lft.to/lastmile_qr_scan"}, "fusion_lon": 0.0}, {"lat": 38.90303633333333, "is_disabled": 0, "type": "electric_scooter", "lon": -77.00904066666666, "bike_id": "a1aaef53aa6c4f5d1242fb2aec7502e0", "fusion_lat": 0.0, "name": "a1aaef53aa6c4f5d1242fb2aec7502e0", "is_reserved": 0, "rental_uris": {"android": "https://dc.lft.to/lastmile_qr_scan", "ios": "https://dc.lft.to/lastmile_qr_scan"}, "fusion_lon": 0.0}, {"lat": 38.941400333333334, "is_disabled": 0, "type": "electric_bike", "lon": -77.03282066666667, "bike_id": "4dddaae325df7183661be29d1fa7f41c", "fusion_lat": 0.0, "name": "4dddaae325df7183661be29d1fa7f41c", "is_reserved": 0, "rental_uris": {"android": "https://dc.lft.to/lastmile_qr_scan", "ios": "https://dc.lft.to/lastmile_qr_scan"}, "fusion_lon": 0.0}, {"lat": 38.922373666666665, "is_disabled": 0, "type": "electric_scooter", "lon": -77.04362316666666, "bike_id": "afa3100eace4dd59e922b07bbc96ee61", "fusion_lat": 0.0, "name": "afa3100eace4dd59e922b07bbc96ee61", "is_reserved": 0, "rental_uris": {"android": "https://dc.lft.to/lastmile_qr_scan", "ios": "https://dc.lft.to/lastmile_qr_scan"}, "fusion_lon": 0.0}, {"lat": 38.884887, "is_disabled": 0, "type": "electric_scooter", "lon": -77.0347435, "bike_id": "921b926f3a3e536b043d9b7df418f97a", "fusion_lat": 0.0, "name": "921b926f3a3e536b043d9b7df418f97a", "is_reserved": 0, "rental_uris": {"android": "https://dc.lft.to/lastmile_qr_scan", "ios": "https://dc.lft.to/lastmile_qr_scan"}, "fusion_lon": 0.0}, {"lat": 38.927206, "is_disabled": 0, "type": "electric_scooter", "lon": -77.022897, "bike_id": "073464646166f0f3c02a506bbccec8ed", "fusion_lat": 0.0, "name": "073464646166f0f3c02a506bbccec8ed", "is_reserved": 0, "rental_uris": {"android": "https://dc.lft.to/lastmile_qr_scan", "ios": "https://dc.lft.to/lastmile_qr_scan"}, "fusion_lon": 0.0}, {"lat": 38.9193365, "is_disabled": 0, "type": "electric_scooter", "lon": -77.0259435, "bike_id": "90ece1e52e47bd483573eab22fba02d9", "fusion_lat": 0.0, "name": "90ece1e52e47bd483573eab22fba02d9", "is_reserved": 0, "rental_uris": {"android": "https://dc.lft.to/lastmile_qr_scan", "ios": "https://dc.lft.to/lastmile_qr_scan"}, "fusion_lon": 0.0}, {"lat": 38.9540045, "is_disabled": 0, "type": "electric_bike", "lon": -76.9786655, "bike_id": "b83974c1d7ce3d5aa531cce9f74a7679", "fusion_lat": 0.0, "name": "b83974c1d7ce3d5aa531cce9f74a7679", "is_reserved": 0, "rental_uris": {"android": "https://dc.lft.to/lastmile_qr_scan", "ios": "https://dc.lft.to/lastmile_qr_scan"}, "fusion_lon": 0.0}, {"lat": 38.87150533333333, "is_disabled": 0, "type": "electric_scooter", "lon": -77.01189333333333, "bike_id": "5ffbf589aea30defd19ab4b42d52bdd3", "fusion_lat": 0.0, "name": "5ffbf589aea30defd19ab4b42d52bdd3", "is_reserved": 0, "rental_uris": {"android": "https://dc.lft.to/lastmile_qr_scan", "ios": "https://dc.lft.to/lastmile_qr_scan"}, "fusion_lon": 0.0}, {"lat": 38.91931533333333, "is_disabled": 0, "type": "electric_scooter", "lon": -76.97016333333333, "bike_id": "668676138d175843b5ced9e1c7d4a0f0", "fusion_lat": 0.0, "name": "668676138d175843b5ced9e1c7d4a0f0", "is_reserved": 0, "rental_uris": {"android": "https://dc.lft.to/lastmile_qr_scan", "ios": "https://dc.lft.to/lastmile_qr_scan"}, "fusion_lon": 0.0}, {"lat": 38.90997633333333, "is_disabled": 0, "type": "electric_scooter", "lon": -77.04005616666667, "bike_id": "859c35be461506c58d0801b913a13eb3", "fusion_lat": 0.0, "name": "859c35be461506c58d0801b913a13eb3", "is_reserved": 0, "rental_uris": {"android": "https://dc.lft.to/lastmile_qr_scan", "ios": "https://dc.lft.to/lastmile_qr_scan"}, "fusion_lon": 0.0}, {"lat": 38.913982833333336, "is_disabled": 0, "type": "electric_scooter", "lon": -77.031829, "bike_id": "f3cb0fdaa9f0d652753e5188b026ffd4", "fusion_lat": 0.0, "name": "f3cb0fdaa9f0d652753e5188b026ffd4", "is_reserved": 0, "rental_uris": {"android": "https://dc.lft.to/lastmile_qr_scan", "ios": "https://dc.lft.to/lastmile_qr_scan"}, "fusion_lon": 0.0}, {"lat": 38.92164, "is_disabled": 0, "type": "electric_scooter", "lon": -77.040138, "bike_id": "713d59bd61694c975aaa346f200aec1a", "fusion_lat": 0.0, "name": "713d59bd61694c975aaa346f200aec1a", "is_reserved": 0, "rental_uris": {"android": "https://dc.lft.to/lastmile_qr_scan", "ios": "https://dc.lft.to/lastmile_qr_scan"}, "fusion_lon": 0.0}, {"lat": 38.957466333333336, "is_disabled": 0, "type": "electric_bike", "lon": -77.02162916666667, "bike_id": "4686b0bc746ddfcdd4e6c6f7c74c3dd9", "fusion_lat": 0.0, "name": "4686b0bc746ddfcdd4e6c6f7c74c3dd9", "is_reserved": 0, "rental_uris": {"android": "https://dc.lft.to/lastmile_qr_scan", "ios": "https://dc.lft.to/lastmile_qr_scan"}, "fusion_lon": 0.0}, {"lat": 38.89224683333333, "is_disabled": 0, "type": "electric_scooter", "lon": -77.0486665, "bike_id": "c8b7b01213c92bfb6fbe2f2df4ed757e", "fusion_lat": 0.0, "name": "c8b7b01213c92bfb6fbe2f2df4ed757e", "is_reserved": 0, "rental_uris": {"android": "https://dc.lft.to/lastmile_qr_scan", "ios": "https://dc.lft.to/lastmile_qr_scan"}, "fusion_lon": 0.0}, {"lat": 38.865952166666666, "is_disabled": 0, "type": "electric_bike", "lon": -76.9323345, "bike_id": "b93a6b9b05c6a3d38250dc6c6e4e9f44", "fusion_lat": 0.0, "name": "b93a6b9b05c6a3d38250dc6c6e4e9f44", "is_reserved": 0, "rental_uris": {"android": "https://dc.lft.to/lastmile_qr_scan", "ios": "https://dc.lft.to/lastmile_qr_scan"}, "fusion_lon": 0.0}, {"lat": 38.89218783333333, "is_disabled": 0, "type": "electric_scooter", "lon": -77.02622466666666, "bike_id": "175cabebdab94c08480c5c2bc035f907", "fusion_lat": 0.0, "name": "175cabebdab94c08480c5c2bc035f907", "is_reserved": 0, "rental_uris": {"android": "https://dc.lft.to/lastmile_qr_scan", "ios": "https://dc.lft.to/lastmile_qr_scan"}, "fusion_lon": 0.0}, {"lat": 38.915957, "is_disabled": 0, "type": "electric_scooter", "lon": -77.01585916666667, "bike_id": "e0cf1737d38fc44a95befaedcf77e470", "fusion_lat": 0.0, "name": "e0cf1737d38fc44a95befaedcf77e470", "is_reserved": 0, "rental_uris": {"android": "https://dc.lft.to/lastmile_qr_scan", "ios": "https://dc.lft.to/lastmile_qr_scan"}, "fusion_lon": 0.0}, {"lat": 38.89220683333333, "is_disabled": 0, "type": "electric_scooter", "lon": -77.026285, "bike_id": "a89c230bb59c9b47880812d37c132df7", "fusion_lat": 0.0, "name": "a89c230bb59c9b47880812d37c132df7", "is_reserved": 0, "rental_uris": {"android": "https://dc.lft.to/lastmile_qr_scan", "ios": "https://dc.lft.to/lastmile_qr_scan"}, "fusion_lon": 0.0}, {"lat": 38.9176245, "is_disabled": 0, "type": "electric_scooter", "lon": -77.004545, "bike_id": "4a6a14df2f5057c582cfba92737c9484", "fusion_lat": 0.0, "name": "4a6a14df2f5057c582cfba92737c9484", "is_reserved": 0, "rental_uris": {"android": "https://dc.lft.to/lastmile_qr_scan", "ios": "https://dc.lft.to/lastmile_qr_scan"}, "fusion_lon": 0.0}, {"lat": 38.93227133333333, "is_disabled": 0, "type": "electric_scooter", "lon": -77.04411516666667, "bike_id": "53b1932f13221872aea7a1ab26326868", "fusion_lat": 0.0, "name": "53b1932f13221872aea7a1ab26326868", "is_reserved": 0, "rental_uris": {"android": "https://dc.lft.to/lastmile_qr_scan", "ios": "https://dc.lft.to/lastmile_qr_scan"}, "fusion_lon": 0.0}, {"lat": 38.85222433333333, "is_disabled": 0, "type": "electric_bike", "lon": -77.1295835, "bike_id": "241f9eee300e8643a196149bc57caa40", "fusion_lat": 0.0, "name": "241f9eee300e8643a196149bc57caa40", "is_reserved": 0, "rental_uris": {"android": "https://dc.lft.to/lastmile_qr_scan", "ios": "https://dc.lft.to/lastmile_qr_scan"}, "fusion_lon": 0.0}, {"lat": 38.8200665, "is_disabled": 0, "type": "electric_bike", "lon": -77.05764366666666, "bike_id": "34f415876fdc3d059de7627a0dca43de", "fusion_lat": 0.0, "name": "34f415876fdc3d059de7627a0dca43de", "is_reserved": 0, "rental_uris": {"android": "https://dc.lft.to/lastmile_qr_scan", "ios": "https://dc.lft.to/lastmile_qr_scan"}, "fusion_lon": 0.0}, {"lat": 38.885299833333335, "is_disabled": 0, "type": "electric_scooter", "lon": -77.01500733333333, "bike_id": "79cedf1774ccba32e5bab356e779ab9f", "fusion_lat": 0.0, "name": "79cedf1774ccba32e5bab356e779ab9f", "is_reserved": 0, "rental_uris": {"android": "https://dc.lft.to/lastmile_qr_scan", "ios": "https://dc.lft.to/lastmile_qr_scan"}, "fusion_lon": 0.0}, {"lat": 38.919136, "is_disabled": 0, "type": "electric_scooter", "lon": -77.03178616666666, "bike_id": "f798737e0cf13ca15fe28adf3b3a7228", "fusion_lat": 0.0, "name": "f798737e0cf13ca15fe28adf3b3a7228", "is_reserved": 0, "rental_uris": {"android": "https://dc.lft.to/lastmile_qr_scan", "ios": "https://dc.lft.to/lastmile_qr_scan"}, "fusion_lon": 0.0}, {"lat": 38.905674166666664, "is_disabled": 0, "type": "electric_scooter", "lon": -77.02184816666667, "bike_id": "a2ac50ecc740ae14f7d2676872871aeb", "fusion_lat": 0.0, "name": "a2ac50ecc740ae14f7d2676872871aeb", "is_reserved": 0, "rental_uris": {"android": "https://dc.lft.to/lastmile_qr_scan", "ios": "https://dc.lft.to/lastmile_qr_scan"}, "fusion_lon": 0.0}, {"lat": 38.86518566666667, "is_disabled": 0, "type": "electric_scooter", "lon": -76.99035116666667, "bike_id": "afc3dc4adc7b8aa6e8e269e7705fd66c", "fusion_lat": 0.0, "name": "afc3dc4adc7b8aa6e8e269e7705fd66c", "is_reserved": 0, "rental_uris": {"android": "https://dc.lft.to/lastmile_qr_scan", "ios": "https://dc.lft.to/lastmile_qr_scan"}, "fusion_lon": 0.0}, {"lat": 38.924704, "is_disabled": 0, "type": "electric_scooter", "lon": -77.03530216666667, "bike_id": "e26d968a1892bb1d04ad7a073c7a001f", "fusion_lat": 0.0, "name": "e26d968a1892bb1d04ad7a073c7a001f", "is_reserved": 0, "rental_uris": {"android": "https://dc.lft.to/lastmile_qr_scan", "ios": "https://dc.lft.to/lastmile_qr_scan"}, "fusion_lon": 0.0}, {"lat": 38.90113433333333, "is_disabled": 0, "type": "electric_scooter", "lon": -76.9961785, "bike_id": "1c001f9b09d33a3722095f1f0ccf0f8d", "fusion_lat": 0.0, "name": "1c001f9b09d33a3722095f1f0ccf0f8d", "is_reserved": 0, "rental_uris": {"android": "https://dc.lft.to/lastmile_qr_scan", "ios": "https://dc.lft.to/lastmile_qr_scan"}, "fusion_lon": 0.0}, {"lat": 38.902716166666664, "is_disabled": 0, "type": "electric_scooter", "lon": -77.0397565, "bike_id": "b37de15ddca978a4b04c116e46623846", "fusion_lat": 0.0, "name": "b37de15ddca978a4b04c116e46623846", "is_reserved": 0, "rental_uris": {"android": "https://dc.lft.to/lastmile_qr_scan", "ios": "https://dc.lft.to/lastmile_qr_scan"}, "fusion_lon": 0.0}, {"lat": 38.8922125, "is_disabled": 0, "type": "electric_scooter", "lon": -77.03165716666666, "bike_id": "4272242e5309c922d0b62cccfb6c5be3", "fusion_lat": 0.0, "name": "4272242e5309c922d0b62cccfb6c5be3", "is_reserved": 0, "rental_uris": {"android": "https://dc.lft.to/lastmile_qr_scan", "ios": "https://dc.lft.to/lastmile_qr_scan"}, "fusion_lon": 0.0}, {"lat": 38.937458, "is_disabled": 0, "type": "electric_scooter", "lon": -77.03471216666667, "bike_id": "b72fe4b1cac2b8a8c293749fdc292694", "fusion_lat": 0.0, "name": "b72fe4b1cac2b8a8c293749fdc292694", "is_reserved": 0, "rental_uris": {"android": "https://dc.lft.to/lastmile_qr_scan", "ios": "https://dc.lft.to/lastmile_qr_scan"}, "fusion_lon": 0.0}, {"lat": 38.9095445, "is_disabled": 0, "type": "electric_scooter", "lon": -77.02282, "bike_id": "99076eb74b077b6c0e23dafdc1878452", "fusion_lat": 0.0, "name": "99076eb74b077b6c0e23dafdc1878452", "is_reserved": 0, "rental_uris": {"android": "https://dc.lft.to/lastmile_qr_scan", "ios": "https://dc.lft.to/lastmile_qr_scan"}, "fusion_lon": 0.0}, {"lat": 38.9096085, "is_disabled": 0, "type": "electric_scooter", "lon": -77.03837633333333, "bike_id": "ecb99cbaef8ac79c0395f6fefba8ba35", "fusion_lat": 0.0, "name": "ecb99cbaef8ac79c0395f6fefba8ba35", "is_reserved": 0, "rental_uris": {"android": "https://dc.lft.to/lastmile_qr_scan", "ios": "https://dc.lft.to/lastmile_qr_scan"}, "fusion_lon": 0.0}, {"lat": 38.905347666666664, "is_disabled": 0, "type": "electric_scooter", "lon": -77.05139583333333, "bike_id": "2339d3e624fae2685d508754446f04dc", "fusion_lat": 0.0, "name": "2339d3e624fae2685d508754446f04dc", "is_reserved": 0, "rental_uris": {"android": "https://dc.lft.to/lastmile_qr_scan", "ios": "https://dc.lft.to/lastmile_qr_scan"}, "fusion_lon": 0.0}, {"lat": 38.885751, "is_disabled": 0, "type": "electric_scooter", "lon": -76.91910283333333, "bike_id": "ab38f0b4d3c2622ddf158a691dba3dd8", "fusion_lat": 0.0, "name": "ab38f0b4d3c2622ddf158a691dba3dd8", "is_reserved": 0, "rental_uris": {"android": "https://dc.lft.to/lastmile_qr_scan", "ios": "https://dc.lft.to/lastmile_qr_scan"}, "fusion_lon": 0.0}, {"lat": 38.92546766666667, "is_disabled": 0, "type": "electric_scooter", "lon": -77.03217183333334, "bike_id": "58e096a870429a03850b03a62f050be7", "fusion_lat": 0.0, "name": "58e096a870429a03850b03a62f050be7", "is_reserved": 0, "rental_uris": {"android": "https://dc.lft.to/lastmile_qr_scan", "ios": "https://dc.lft.to/lastmile_qr_scan"}, "fusion_lon": 0.0}, {"lat": 38.92745566666667, "is_disabled": 0, "type": "electric_scooter", "lon": -77.02414683333333, "bike_id": "ea32ceb3f0bd167967f83445f1d26c1d", "fusion_lat": 0.0, "name": "ea32ceb3f0bd167967f83445f1d26c1d", "is_reserved": 0, "rental_uris": {"android": "https://dc.lft.to/lastmile_qr_scan", "ios": "https://dc.lft.to/lastmile_qr_scan"}, "fusion_lon": 0.0}, {"lat": 38.92768, "is_disabled": 0, "type": "electric_scooter", "lon": -77.02780633333333, "bike_id": "5b7be16986f87c8a7d1bea8199b55e96", "fusion_lat": 0.0, "name": "5b7be16986f87c8a7d1bea8199b55e96", "is_reserved": 0, "rental_uris": {"android": "https://dc.lft.to/lastmile_qr_scan", "ios": "https://dc.lft.to/lastmile_qr_scan"}, "fusion_lon": 0.0}, {"lat": 38.947926833333334, "is_disabled": 0, "type": "electric_scooter", "lon": -77.02173633333334, "bike_id": "c66197a45dc3291f5bc8b72e8d5c69ea", "fusion_lat": 0.0, "name": "c66197a45dc3291f5bc8b72e8d5c69ea", "is_reserved": 0, "rental_uris": {"android": "https://dc.lft.to/lastmile_qr_scan", "ios": "https://dc.lft.to/lastmile_qr_scan"}, "fusion_lon": 0.0}, {"lat": 38.9217105, "is_disabled": 0, "type": "electric_scooter", "lon": -77.03206166666666, "bike_id": "8572ea4597b68ebdc5b3df6b2074b52a", "fusion_lat": 0.0, "name": "8572ea4597b68ebdc5b3df6b2074b52a", "is_reserved": 0, "rental_uris": {"android": "https://dc.lft.to/lastmile_qr_scan", "ios": "https://dc.lft.to/lastmile_qr_scan"}, "fusion_lon": 0.0}, {"lat": 38.921822, "is_disabled": 0, "type": "electric_scooter", "lon": -77.047088, "bike_id": "5fabb724e70d711e7fac7cc66e7b13bc", "fusion_lat": 0.0, "name": "5fabb724e70d711e7fac7cc66e7b13bc", "is_reserved": 0, "rental_uris": {"android": "https://dc.lft.to/lastmile_qr_scan", "ios": "https://dc.lft.to/lastmile_qr_scan"}, "fusion_lon": 0.0}, {"lat": 38.921016333333334, "is_disabled": 0, "type": "electric_bike", "lon": -77.03920866666667, "bike_id": "28180857f46a6a5f917a2811a869d7eb", "fusion_lat": 0.0, "name": "28180857f46a6a5f917a2811a869d7eb", "is_reserved": 0, "rental_uris": {"android": "https://dc.lft.to/lastmile_qr_scan", "ios": "https://dc.lft.to/lastmile_qr_scan"}, "fusion_lon": 0.0}, {"lat": 38.933982666666665, "is_disabled": 0, "type": "electric_scooter", "lon": -77.0412365, "bike_id": "4cc20668d4a6c1ff6d04ac48d7bc570d", "fusion_lat": 0.0, "name": "4cc20668d4a6c1ff6d04ac48d7bc570d", "is_reserved": 0, "rental_uris": {"android": "https://dc.lft.to/lastmile_qr_scan", "ios": "https://dc.lft.to/lastmile_qr_scan"}, "fusion_lon": 0.0}, {"lat": 38.960942833333334, "is_disabled": 0, "type": "electric_scooter", "lon": -77.08285216666667, "bike_id": "47f816b0116ea5d8dccb0be0d26253e5", "fusion_lat": 0.0, "name": "47f816b0116ea5d8dccb0be0d26253e5", "is_reserved": 0, "rental_uris": {"android": "https://dc.lft.to/lastmile_qr_scan", "ios": "https://dc.lft.to/lastmile_qr_scan"}, "fusion_lon": 0.0}, {"lat": 38.918450666666665, "is_disabled": 0, "type": "electric_scooter", "lon": -77.022822, "bike_id": "0b398c5574ef0f231d446087e307b529", "fusion_lat": 0.0, "name": "0b398c5574ef0f231d446087e307b529", "is_reserved": 0, "rental_uris": {"android": "https://dc.lft.to/lastmile_qr_scan", "ios": "https://dc.lft.to/lastmile_qr_scan"}, "fusion_lon": 0.0}, {"lat": 38.92210633333333, "is_disabled": 0, "type": "electric_scooter", "lon": -77.0328655, "bike_id": "d745147c2600adb461b0aff6eab67125", "fusion_lat": 0.0, "name": "d745147c2600adb461b0aff6eab67125", "is_reserved": 0, "rental_uris": {"android": "https://dc.lft.to/lastmile_qr_scan", "ios": "https://dc.lft.to/lastmile_qr_scan"}, "fusion_lon": 0.0}, {"lat": 38.904967166666665, "is_disabled": 0, "type": "electric_scooter", "lon": -77.029501, "bike_id": "2584a1374ee9362c39315309906307a6", "fusion_lat": 0.0, "name": "2584a1374ee9362c39315309906307a6", "is_reserved": 0, "rental_uris": {"android": "https://dc.lft.to/lastmile_qr_scan", "ios": "https://dc.lft.to/lastmile_qr_scan"}, "fusion_lon": 0.0}, {"lat": 38.90219416666667, "is_disabled": 0, "type": "electric_scooter", "lon": -77.04877066666667, "bike_id": "b07a14f27be79d3a000e2907137927a0", "fusion_lat": 0.0, "name": "b07a14f27be79d3a000e2907137927a0", "is_reserved": 0, "rental_uris": {"android": "https://dc.lft.to/lastmile_qr_scan", "ios": "https://dc.lft.to/lastmile_qr_scan"}, "fusion_lon": 0.0}, {"lat": 38.901402166666664, "is_disabled": 0, "type": "electric_scooter", "lon": -77.00069366666666, "bike_id": "511ef86b65ed553937c36b791d14d93a", "fusion_lat": 0.0, "name": "511ef86b65ed553937c36b791d14d93a", "is_reserved": 0, "rental_uris": {"android": "https://dc.lft.to/lastmile_qr_scan", "ios": "https://dc.lft.to/lastmile_qr_scan"}, "fusion_lon": 0.0}, {"lat": 38.920922166666664, "is_disabled": 0, "type": "electric_scooter", "lon": -77.03944516666667, "bike_id": "06f665a6d1600b61914cd2163ad0a880", "fusion_lat": 0.0, "name": "06f665a6d1600b61914cd2163ad0a880", "is_reserved": 0, "rental_uris": {"android": "https://dc.lft.to/lastmile_qr_scan", "ios": "https://dc.lft.to/lastmile_qr_scan"}, "fusion_lon": 0.0}, {"lat": 38.885246, "is_disabled": 0, "type": "electric_scooter", "lon": -77.01134083333334, "bike_id": "cdae9488f044ab69e0585bde5384d640", "fusion_lat": 0.0, "name": "cdae9488f044ab69e0585bde5384d640", "is_reserved": 0, "rental_uris": {"android": "https://dc.lft.to/lastmile_qr_scan", "ios": "https://dc.lft.to/lastmile_qr_scan"}, "fusion_lon": 0.0}, {"lat": 38.9154765, "is_disabled": 0, "type": "electric_scooter", "lon": -77.03848733333334, "bike_id": "751edd332e4d129ee20e499132c4c724", "fusion_lat": 0.0, "name": "751edd332e4d129ee20e499132c4c724", "is_reserved": 0, "rental_uris": {"android": "https://dc.lft.to/lastmile_qr_scan", "ios": "https://dc.lft.to/lastmile_qr_scan"}, "fusion_lon": 0.0}, {"lat": 38.93122, "is_disabled": 0, "type": "electric_scooter", "lon": -77.02097783333333, "bike_id": "cd47f1560bd2f9bdc8377cce29935e38", "fusion_lat": 0.0, "name": "cd47f1560bd2f9bdc8377cce29935e38", "is_reserved": 0, "rental_uris": {"android": "https://dc.lft.to/lastmile_qr_scan", "ios": "https://dc.lft.to/lastmile_qr_scan"}, "fusion_lon": 0.0}, {"lat": 38.867013666666665, "is_disabled": 0, "type": "electric_scooter", "lon": -76.98710283333334, "bike_id": "d864f606af45563a52b4b4deed926783", "fusion_lat": 0.0, "name": "d864f606af45563a52b4b4deed926783", "is_reserved": 0, "rental_uris": {"android": "https://dc.lft.to/lastmile_qr_scan", "ios": "https://dc.lft.to/lastmile_qr_scan"}, "fusion_lon": 0.0}, {"lat": 38.964462833333336, "is_disabled": 0, "type": "electric_bike", "lon": -77.02067616666666, "bike_id": "2615dead1fcb7b5a51409dee759c811e", "fusion_lat": 0.0, "name": "2615dead1fcb7b5a51409dee759c811e", "is_reserved": 0, "rental_uris": {"android": "https://dc.lft.to/lastmile_qr_scan", "ios": "https://dc.lft.to/lastmile_qr_scan"}, "fusion_lon": 0.0}, {"lat": 38.8617115, "is_disabled": 0, "type": "electric_bike", "lon": -77.13149383333334, "bike_id": "f5078ed2c32e5b7b6da604f438683473", "fusion_lat": 0.0, "name": "f5078ed2c32e5b7b6da604f438683473", "is_reserved": 0, "rental_uris": {"android": "https://dc.lft.to/lastmile_qr_scan", "ios": "https://dc.lft.to/lastmile_qr_scan"}, "fusion_lon": 0.0}, {"lat": 38.90567083333333, "is_disabled": 0, "type": "electric_scooter", "lon": -77.01771683333334, "bike_id": "2b282140bdd3d67100694d174f0f1eb9", "fusion_lat": 0.0, "name": "2b282140bdd3d67100694d174f0f1eb9", "is_reserved": 0, "rental_uris": {"android": "https://dc.lft.to/lastmile_qr_scan", "ios": "https://dc.lft.to/lastmile_qr_scan"}, "fusion_lon": 0.0}, {"lat": 38.917846833333336, "is_disabled": 0, "type": "electric_bike", "lon": -76.971821, "bike_id": "8c32a8277aa6458752654525aac95340", "fusion_lat": 0.0, "name": "8c32a8277aa6458752654525aac95340", "is_reserved": 0, "rental_uris": {"android": "https://dc.lft.to/lastmile_qr_scan", "ios": "https://dc.lft.to/lastmile_qr_scan"}, "fusion_lon": 0.0}, {"lat": 38.9173965, "is_disabled": 0, "type": "electric_scooter", "lon": -77.03180883333333, "bike_id": "484df165a7644841e8511c3268ec73ce", "fusion_lat": 0.0, "name": "484df165a7644841e8511c3268ec73ce", "is_reserved": 0, "rental_uris": {"android": "https://dc.lft.to/lastmile_qr_scan", "ios": "https://dc.lft.to/lastmile_qr_scan"}, "fusion_lon": 0.0}, {"lat": 38.91731333333333, "is_disabled": 0, "type": "electric_scooter", "lon": -77.03641833333333, "bike_id": "cfa83df00433e974646b81a9813d74bd", "fusion_lat": 0.0, "name": "cfa83df00433e974646b81a9813d74bd", "is_reserved": 0, "rental_uris": {"android": "https://dc.lft.to/lastmile_qr_scan", "ios": "https://dc.lft.to/lastmile_qr_scan"}, "fusion_lon": 0.0}, {"lat": 38.9187235, "is_disabled": 0, "type": "electric_scooter", "lon": -77.03170683333333, "bike_id": "f1896185e2b6036e46e475fabd36149c", "fusion_lat": 0.0, "name": "f1896185e2b6036e46e475fabd36149c", "is_reserved": 0, "rental_uris": {"android": "https://dc.lft.to/lastmile_qr_scan", "ios": "https://dc.lft.to/lastmile_qr_scan"}, "fusion_lon": 0.0}, {"lat": 38.911148, "is_disabled": 0, "type": "electric_scooter", "lon": -77.03798583333334, "bike_id": "77275b6946fdb39697085d617d28270e", "fusion_lat": 0.0, "name": "77275b6946fdb39697085d617d28270e", "is_reserved": 0, "rental_uris": {"android": "https://dc.lft.to/lastmile_qr_scan", "ios": "https://dc.lft.to/lastmile_qr_scan"}, "fusion_lon": 0.0}, {"lat": 38.932094, "is_disabled": 0, "type": "electric_scooter", "lon": -77.02243733333333, "bike_id": "3615655574066c851fba36c86bb95d70", "fusion_lat": 0.0, "name": "3615655574066c851fba36c86bb95d70", "is_reserved": 0, "rental_uris": {"android": "https://dc.lft.to/lastmile_qr_scan", "ios": "https://dc.lft.to/lastmile_qr_scan"}, "fusion_lon": 0.0}, {"lat": 38.91179783333333, "is_disabled": 0, "type": "electric_scooter", "lon": -77.04299983333334, "bike_id": "ecbf68fffe500bc1ca2fc471117c6232", "fusion_lat": 0.0, "name": "ecbf68fffe500bc1ca2fc471117c6232", "is_reserved": 0, "rental_uris": {"android": "https://dc.lft.to/lastmile_qr_scan", "ios": "https://dc.lft.to/lastmile_qr_scan"}, "fusion_lon": 0.0}, {"lat": 38.8873755, "is_disabled": 0, "type": "electric_scooter", "lon": -77.015253, "bike_id": "907aaa8865de588c0d13a81ee8fbb31c", "fusion_lat": 0.0, "name": "907aaa8865de588c0d13a81ee8fbb31c", "is_reserved": 0, "rental_uris": {"android": "https://dc.lft.to/lastmile_qr_scan", "ios": "https://dc.lft.to/lastmile_qr_scan"}, "fusion_lon": 0.0}, {"lat": 38.884087, "is_disabled": 0, "type": "electric_bike", "lon": -76.954118, "bike_id": "fb89882f3d26b19f9f4f8a1b4d4da7a5", "fusion_lat": 0.0, "name": "fb89882f3d26b19f9f4f8a1b4d4da7a5", "is_reserved": 0, "rental_uris": {"android": "https://dc.lft.to/lastmile_qr_scan", "ios": "https://dc.lft.to/lastmile_qr_scan"}, "fusion_lon": 0.0}, {"lat": 38.89810033333333, "is_disabled": 0, "type": "electric_scooter", "lon": -77.03100183333333, "bike_id": "89350db0687a73c948736b653e36d97b", "fusion_lat": 0.0, "name": "89350db0687a73c948736b653e36d97b", "is_reserved": 0, "rental_uris": {"android": "https://dc.lft.to/lastmile_qr_scan", "ios": "https://dc.lft.to/lastmile_qr_scan"}, "fusion_lon": 0.0}, {"lat": 38.890428, "is_disabled": 0, "type": "electric_scooter", "lon": -76.95246566666667, "bike_id": "8b065dd0cb3841298aadd8f16b59f80d", "fusion_lat": 0.0, "name": "8b065dd0cb3841298aadd8f16b59f80d", "is_reserved": 0, "rental_uris": {"android": "https://dc.lft.to/lastmile_qr_scan", "ios": "https://dc.lft.to/lastmile_qr_scan"}, "fusion_lon": 0.0}, {"lat": 38.919672166666665, "is_disabled": 0, "type": "electric_scooter", "lon": -77.01208383333334, "bike_id": "d69b5050c1001b9b19d7f2f57d230a75", "fusion_lat": 0.0, "name": "d69b5050c1001b9b19d7f2f57d230a75", "is_reserved": 0, "rental_uris": {"android": "https://dc.lft.to/lastmile_qr_scan", "ios": "https://dc.lft.to/lastmile_qr_scan"}, "fusion_lon": 0.0}, {"lat": 38.9026875, "is_disabled": 0, "type": "electric_scooter", "lon": -77.04371766666667, "bike_id": "72969ea15fe9b8949d6c21c4e62af2e3", "fusion_lat": 0.0, "name": "72969ea15fe9b8949d6c21c4e62af2e3", "is_reserved": 0, "rental_uris": {"android": "https://dc.lft.to/lastmile_qr_scan", "ios": "https://dc.lft.to/lastmile_qr_scan"}, "fusion_lon": 0.0}, {"lat": 39.0563745, "is_disabled": 0, "type": "electric_bike", "lon": -77.12530033333333, "bike_id": "c414bc51f0ff919bdc8e8289db1e67a8", "fusion_lat": 0.0, "name": "c414bc51f0ff919bdc8e8289db1e67a8", "is_reserved": 0, "rental_uris": {"android": "https://dc.lft.to/lastmile_qr_scan", "ios": "https://dc.lft.to/lastmile_qr_scan"}, "fusion_lon": 0.0}, {"lat": 38.9262435, "is_disabled": 0, "type": "electric_scooter", "lon": -77.0418335, "bike_id": "f0a4df875be3efa8c81653ebf20a1a29", "fusion_lat": 0.0, "name": "f0a4df875be3efa8c81653ebf20a1a29", "is_reserved": 0, "rental_uris": {"android": "https://dc.lft.to/lastmile_qr_scan", "ios": "https://dc.lft.to/lastmile_qr_scan"}, "fusion_lon": 0.0}, {"lat": 38.90753133333333, "is_disabled": 0, "type": "electric_scooter", "lon": -76.99905183333334, "bike_id": "6e9a4b4a78a74f4bb140ec0c7e0e22e1", "fusion_lat": 0.0, "name": "6e9a4b4a78a74f4bb140ec0c7e0e22e1", "is_reserved": 0, "rental_uris": {"android": "https://dc.lft.to/lastmile_qr_scan", "ios": "https://dc.lft.to/lastmile_qr_scan"}, "fusion_lon": 0.0}, {"lat": 38.93744366666667, "is_disabled": 0, "type": "electric_scooter", "lon": -77.034513, "bike_id": "d4476b74e12fd9e09ce8bd1e7ed7d92b", "fusion_lat": 0.0, "name": "d4476b74e12fd9e09ce8bd1e7ed7d92b", "is_reserved": 0, "rental_uris": {"android": "https://dc.lft.to/lastmile_qr_scan", "ios": "https://dc.lft.to/lastmile_qr_scan"}, "fusion_lon": 0.0}, {"lat": 38.89620933333333, "is_disabled": 0, "type": "electric_scooter", "lon": -77.04492083333334, "bike_id": "1627349f27e3c522f739d3f57aa00a50", "fusion_lat": 0.0, "name": "1627349f27e3c522f739d3f57aa00a50", "is_reserved": 0, "rental_uris": {"android": "https://dc.lft.to/lastmile_qr_scan", "ios": "https://dc.lft.to/lastmile_qr_scan"}, "fusion_lon": 0.0}, {"lat": 38.894940166666665, "is_disabled": 0, "type": "electric_scooter", "lon": -77.00207383333333, "bike_id": "886dd4f9a45196aa5019be848aac23ed", "fusion_lat": 0.0, "name": "886dd4f9a45196aa5019be848aac23ed", "is_reserved": 0, "rental_uris": {"android": "https://dc.lft.to/lastmile_qr_scan", "ios": "https://dc.lft.to/lastmile_qr_scan"}, "fusion_lon": 0.0}, {"lat": 38.92029433333333, "is_disabled": 0, "type": "electric_scooter", "lon": -77.01329616666666, "bike_id": "ac7fb4a06b397465bcf2ab404a37ffa3", "fusion_lat": 0.0, "name": "ac7fb4a06b397465bcf2ab404a37ffa3", "is_reserved": 0, "rental_uris": {"android": "https://dc.lft.to/lastmile_qr_scan", "ios": "https://dc.lft.to/lastmile_qr_scan"}, "fusion_lon": 0.0}, {"lat": 38.94420983333333, "is_disabled": 0, "type": "electric_scooter", "lon": -77.0624245, "bike_id": "126924318154efd2c4fd23b6983056ba", "fusion_lat": 0.0, "name": "126924318154efd2c4fd23b6983056ba", "is_reserved": 0, "rental_uris": {"android": "https://dc.lft.to/lastmile_qr_scan", "ios": "https://dc.lft.to/lastmile_qr_scan"}, "fusion_lon": 0.0}, {"lat": 38.92720883333333, "is_disabled": 0, "type": "electric_bike", "lon": -77.02960266666666, "bike_id": "d0eadd36fb41442e83585f241e53ad13", "fusion_lat": 0.0, "name": "d0eadd36fb41442e83585f241e53ad13", "is_reserved": 0, "rental_uris": {"android": "https://dc.lft.to/lastmile_qr_scan", "ios": "https://dc.lft.to/lastmile_qr_scan"}, "fusion_lon": 0.0}, {"lat": 38.9126365, "is_disabled": 0, "type": "electric_scooter", "lon": -77.03868, "bike_id": "bab00424f725da8248a50ada3bd50bc3", "fusion_lat": 0.0, "name": "bab00424f725da8248a50ada3bd50bc3", "is_reserved": 0, "rental_uris": {"android": "https://dc.lft.to/lastmile_qr_scan", "ios": "https://dc.lft.to/lastmile_qr_scan"}, "fusion_lon": 0.0}, {"lat": 38.90846766666667, "is_disabled": 0, "type": "electric_scooter", "lon": -77.02058183333334, "bike_id": "cb138567f5f2ad99341285ae028a4c86", "fusion_lat": 0.0, "name": "cb138567f5f2ad99341285ae028a4c86", "is_reserved": 0, "rental_uris": {"android": "https://dc.lft.to/lastmile_qr_scan", "ios": "https://dc.lft.to/lastmile_qr_scan"}, "fusion_lon": 0.0}, {"lat": 38.95629016666667, "is_disabled": 0, "type": "electric_bike", "lon": -77.02292333333334, "bike_id": "30ea5b28628805d5d1f537b7e13a0ff8", "fusion_lat": 0.0, "name": "30ea5b28628805d5d1f537b7e13a0ff8", "is_reserved": 0, "rental_uris": {"android": "https://dc.lft.to/lastmile_qr_scan", "ios": "https://dc.lft.to/lastmile_qr_scan"}, "fusion_lon": 0.0}, {"lat": 38.920669333333336, "is_disabled": 0, "type": "electric_scooter", "lon": -77.02532816666667, "bike_id": "58937e7189570a667c1d5a60296b74e6", "fusion_lat": 0.0, "name": "58937e7189570a667c1d5a60296b74e6", "is_reserved": 0, "rental_uris": {"android": "https://dc.lft.to/lastmile_qr_scan", "ios": "https://dc.lft.to/lastmile_qr_scan"}, "fusion_lon": 0.0}, {"lat": 38.86650316666667, "is_disabled": 0, "type": "electric_scooter", "lon": -76.98884383333333, "bike_id": "d2d9dfe4438142c2d90a7c187d53fbac", "fusion_lat": 0.0, "name": "d2d9dfe4438142c2d90a7c187d53fbac", "is_reserved": 0, "rental_uris": {"android": "https://dc.lft.to/lastmile_qr_scan", "ios": "https://dc.lft.to/lastmile_qr_scan"}, "fusion_lon": 0.0}, {"lat": 38.919755, "is_disabled": 0, "type": "electric_bike", "lon": -77.003346, "bike_id": "dffda4e0a1aae7e854c1ed7437f6adc5", "fusion_lat": 0.0, "name": "dffda4e0a1aae7e854c1ed7437f6adc5", "is_reserved": 0, "rental_uris": {"android": "https://dc.lft.to/lastmile_qr_scan", "ios": "https://dc.lft.to/lastmile_qr_scan"}, "fusion_lon": 0.0}, {"lat": 38.8849505, "is_disabled": 0, "type": "electric_scooter", "lon": -77.00708083333333, "bike_id": "ee2fbb1fde85a5821cb8741abc9de1d6", "fusion_lat": 0.0, "name": "ee2fbb1fde85a5821cb8741abc9de1d6", "is_reserved": 0, "rental_uris": {"android": "https://dc.lft.to/lastmile_qr_scan", "ios": "https://dc.lft.to/lastmile_qr_scan"}, "fusion_lon": 0.0}, {"lat": 38.91270183333334, "is_disabled": 0, "type": "electric_scooter", "lon": -77.01842883333333, "bike_id": "8eb132989bcbcf482994dd09f8f3eb36", "fusion_lat": 0.0, "name": "8eb132989bcbcf482994dd09f8f3eb36", "is_reserved": 0, "rental_uris": {"android": "https://dc.lft.to/lastmile_qr_scan", "ios": "https://dc.lft.to/lastmile_qr_scan"}, "fusion_lon": 0.0}, {"lat": 38.800567666666666, "is_disabled": 0, "type": "electric_bike", "lon": -77.07108333333333, "bike_id": "29df28ac9119c4c2e006a0d97997aa9b", "fusion_lat": 0.0, "name": "29df28ac9119c4c2e006a0d97997aa9b", "is_reserved": 0, "rental_uris": {"android": "https://dc.lft.to/lastmile_qr_scan", "ios": "https://dc.lft.to/lastmile_qr_scan"}, "fusion_lon": 0.0}, {"lat": 38.940427, "is_disabled": 0, "type": "electric_bike", "lon": -76.98822466666667, "bike_id": "75be1919c1cde91633ca6ae1c293b166", "fusion_lat": 0.0, "name": "75be1919c1cde91633ca6ae1c293b166", "is_reserved": 0, "rental_uris": {"android": "https://dc.lft.to/lastmile_qr_scan", "ios": "https://dc.lft.to/lastmile_qr_scan"}, "fusion_lon": 0.0}, {"lat": 38.903913, "is_disabled": 0, "type": "electric_scooter", "lon": -76.99009116666667, "bike_id": "f356abbd10d2275accbd467ab88ef18f", "fusion_lat": 0.0, "name": "f356abbd10d2275accbd467ab88ef18f", "is_reserved": 0, "rental_uris": {"android": "https://dc.lft.to/lastmile_qr_scan", "ios": "https://dc.lft.to/lastmile_qr_scan"}, "fusion_lon": 0.0}, {"lat": 38.914299666666665, "is_disabled": 0, "type": "electric_scooter", "lon": -77.03200033333333, "bike_id": "46a44ac1f68ce4dfea226165ac8f9f22", "fusion_lat": 0.0, "name": "46a44ac1f68ce4dfea226165ac8f9f22", "is_reserved": 0, "rental_uris": {"android": "https://dc.lft.to/lastmile_qr_scan", "ios": "https://dc.lft.to/lastmile_qr_scan"}, "fusion_lon": 0.0}, {"lat": 38.87655566666667, "is_disabled": 0, "type": "electric_scooter", "lon": -77.00430766666666, "bike_id": "f373499c24b97cdeef79fbf5d7508b77", "fusion_lat": 0.0, "name": "f373499c24b97cdeef79fbf5d7508b77", "is_reserved": 0, "rental_uris": {"android": "https://dc.lft.to/lastmile_qr_scan", "ios": "https://dc.lft.to/lastmile_qr_scan"}, "fusion_lon": 0.0}, {"lat": 38.91703566666666, "is_disabled": 0, "type": "electric_scooter", "lon": -77.0273205, "bike_id": "f7c9058bd88fabe94d71c983e3aebb16", "fusion_lat": 0.0, "name": "f7c9058bd88fabe94d71c983e3aebb16", "is_reserved": 0, "rental_uris": {"android": "https://dc.lft.to/lastmile_qr_scan", "ios": "https://dc.lft.to/lastmile_qr_scan"}, "fusion_lon": 0.0}, {"lat": 39.02433333333333, "is_disabled": 0, "type": "electric_bike", "lon": -77.130944, "bike_id": "37790c0030bbbd426758965a905c1c2e", "fusion_lat": 0.0, "name": "37790c0030bbbd426758965a905c1c2e", "is_reserved": 0, "rental_uris": {"android": "https://dc.lft.to/lastmile_qr_scan", "ios": "https://dc.lft.to/lastmile_qr_scan"}, "fusion_lon": 0.0}, {"lat": 38.9173905, "is_disabled": 0, "type": "electric_scooter", "lon": -77.03189566666667, "bike_id": "8c625d20499e478d1dc2ea61981d5405", "fusion_lat": 0.0, "name": "8c625d20499e478d1dc2ea61981d5405", "is_reserved": 0, "rental_uris": {"android": "https://dc.lft.to/lastmile_qr_scan", "ios": "https://dc.lft.to/lastmile_qr_scan"}, "fusion_lon": 0.0}, {"lat": 38.913175833333334, "is_disabled": 0, "type": "electric_scooter", "lon": -76.98640633333333, "bike_id": "7ea28e0ce667960199d60a478d9cf225", "fusion_lat": 0.0, "name": "7ea28e0ce667960199d60a478d9cf225", "is_reserved": 0, "rental_uris": {"android": "https://dc.lft.to/lastmile_qr_scan", "ios": "https://dc.lft.to/lastmile_qr_scan"}, "fusion_lon": 0.0}, {"lat": 39.030475, "is_disabled": 0, "type": "electric_bike", "lon": -77.0947095, "bike_id": "1a668a9fc265c5ca4858fba1d562d3a1", "fusion_lat": 0.0, "name": "1a668a9fc265c5ca4858fba1d562d3a1", "is_reserved": 0, "rental_uris": {"android": "https://dc.lft.to/lastmile_qr_scan", "ios": "https://dc.lft.to/lastmile_qr_scan"}, "fusion_lon": 0.0}, {"lat": 38.922466, "is_disabled": 0, "type": "electric_scooter", "lon": -77.03080783333333, "bike_id": "524ae065cfb66d6667da6af58368619e", "fusion_lat": 0.0, "name": "524ae065cfb66d6667da6af58368619e", "is_reserved": 0, "rental_uris": {"android": "https://dc.lft.to/lastmile_qr_scan", "ios": "https://dc.lft.to/lastmile_qr_scan"}, "fusion_lon": 0.0}, {"lat": 38.94973183333333, "is_disabled": 0, "type": "electric_scooter", "lon": -77.06557883333333, "bike_id": "f001a62dbf594b2853c20c5b0c17609f", "fusion_lat": 0.0, "name": "f001a62dbf594b2853c20c5b0c17609f", "is_reserved": 0, "rental_uris": {"android": "https://dc.lft.to/lastmile_qr_scan", "ios": "https://dc.lft.to/lastmile_qr_scan"}, "fusion_lon": 0.0}, {"lat": 38.89205066666667, "is_disabled": 0, "type": "electric_scooter", "lon": -76.985685, "bike_id": "92092be88c0545f6cafb11c647caf547", "fusion_lat": 0.0, "name": "92092be88c0545f6cafb11c647caf547", "is_reserved": 0, "rental_uris": {"android": "https://dc.lft.to/lastmile_qr_scan", "ios": "https://dc.lft.to/lastmile_qr_scan"}, "fusion_lon": 0.0}, {"lat": 38.998135833333336, "is_disabled": 0, "type": "electric_bike", "lon": -76.8837155, "bike_id": "ae6de3a42cbc3363dd8907df8eae53b1", "fusion_lat": 0.0, "name": "ae6de3a42cbc3363dd8907df8eae53b1", "is_reserved": 0, "rental_uris": {"android": "https://dc.lft.to/lastmile_qr_scan", "ios": "https://dc.lft.to/lastmile_qr_scan"}, "fusion_lon": 0.0}, {"lat": 38.93859466666667, "is_disabled": 0, "type": "electric_scooter", "lon": -77.03096883333333, "bike_id": "e7bed752aa5b9b3fe3e6188e4327f069", "fusion_lat": 0.0, "name": "e7bed752aa5b9b3fe3e6188e4327f069", "is_reserved": 0, "rental_uris": {"android": "https://dc.lft.to/lastmile_qr_scan", "ios": "https://dc.lft.to/lastmile_qr_scan"}, "fusion_lon": 0.0}, {"lat": 38.89977183333333, "is_disabled": 0, "type": "electric_scooter", "lon": -77.0206045, "bike_id": "b74f0a391889378f725edfc16d40903d", "fusion_lat": 0.0, "name": "b74f0a391889378f725edfc16d40903d", "is_reserved": 0, "rental_uris": {"android": "https://dc.lft.to/lastmile_qr_scan", "ios": "https://dc.lft.to/lastmile_qr_scan"}, "fusion_lon": 0.0}, {"lat": 38.9220835, "is_disabled": 0, "type": "electric_bike", "lon": -77.082045, "bike_id": "3f0f32d3b4705d033b80d1e0df19b92c", "fusion_lat": 0.0, "name": "3f0f32d3b4705d033b80d1e0df19b92c", "is_reserved": 0, "rental_uris": {"android": "https://dc.lft.to/lastmile_qr_scan", "ios": "https://dc.lft.to/lastmile_qr_scan"}, "fusion_lon": 0.0}, {"lat": 38.894941833333334, "is_disabled": 0, "type": "electric_scooter", "lon": -77.02184933333334, "bike_id": "a48f09cb1f2266003f83ea3917a1afc6", "fusion_lat": 0.0, "name": "a48f09cb1f2266003f83ea3917a1afc6", "is_reserved": 0, "rental_uris": {"android": "https://dc.lft.to/lastmile_qr_scan", "ios": "https://dc.lft.to/lastmile_qr_scan"}, "fusion_lon": 0.0}, {"lat": 38.906246333333335, "is_disabled": 0, "type": "electric_bike", "lon": -76.98604633333333, "bike_id": "2f29c21a4f270460a8462f785687ecfb", "fusion_lat": 0.0, "name": "2f29c21a4f270460a8462f785687ecfb", "is_reserved": 0, "rental_uris": {"android": "https://dc.lft.to/lastmile_qr_scan", "ios": "https://dc.lft.to/lastmile_qr_scan"}, "fusion_lon": 0.0}, {"lat": 38.917009, "is_disabled": 0, "type": "electric_scooter", "lon": -76.97910766666666, "bike_id": "26b3c8ef947757d127871da4f2d4b774", "fusion_lat": 0.0, "name": "26b3c8ef947757d127871da4f2d4b774", "is_reserved": 0, "rental_uris": {"android": "https://dc.lft.to/lastmile_qr_scan", "ios": "https://dc.lft.to/lastmile_qr_scan"}, "fusion_lon": 0.0}, {"lat": 38.91964983333333, "is_disabled": 0, "type": "electric_scooter", "lon": -77.01441266666667, "bike_id": "b0ccce713270f9019cc3356ae638c2d2", "fusion_lat": 0.0, "name": "b0ccce713270f9019cc3356ae638c2d2", "is_reserved": 0, "rental_uris": {"android": "https://dc.lft.to/lastmile_qr_scan", "ios": "https://dc.lft.to/lastmile_qr_scan"}, "fusion_lon": 0.0},