{"data": {"bikes": [{"is_disabled": 0, "fusion_lat": 0.0, "lat": 38.920098, "type": "electric_scooter", "lon": -77.02190966666667, "is_reserved": 0, "fusion_lon": 0.0, "bike_id": "6bd8d4510f7137c4235b6c205a4bb87e", "name": "6bd8d4510f7137c4235b6c205a4bb87e", "rental_uris": {"ios": "https://dc.lft.to/lastmile_qr_scan", "android": "https://dc.lft.to/lastmile_qr_scan"}}, {"is_disabled": 0, "fusion_lat": 0.0, "lat": 38.9012715, "type": "electric_scooter", "lon": -76.99710033333334, "is_reserved": 0, "fusion_lon": 0.0, "bike_id": "2677f9013b1c5b6075cbe49e262b5000", "name": "2677f9013b1c5b6075cbe49e262b5000", "rental_uris": {"ios": "https://dc.lft.to/lastmile_qr_scan", "android": "https://dc.lft.to/lastmile_qr_scan"}}, {"is_disabled": 0, "fusion_lat": 0.0, "lat": 38.911579833333334, "type": "electric_scooter", "lon": -76.98659166666667, "is_reserved": 0, "fusion_lon": 0.0, "bike_id": "048f6d1b7b36c979fb147d4e0a5e33db", "name": "048f6d1b7b36c979fb147d4e0a5e33db", "rental_uris": {"ios": "https://dc.lft.to/lastmile_qr_scan", "android": "https://dc.lft.to/lastmile_qr_scan"}}, {"is_disabled": 0, "fusion_lat": 0.0, "lat": 38.9528425, "type": "electric_scooter", "lon": -77.0688765, "is_reserved": 0, "fusion_lon": 0.0, "bike_id": "55d0835458bb46a11049eea8cfd4e99d", "name": "55d0835458bb46a11049eea8cfd4e99d", "rental_uris": {"ios": "https://dc.lft.to/lastmile_qr_scan", "android": "https://dc.lft.to/lastmile_qr_scan"}}, {"is_disabled": 0, "fusion_lat": 0.0, "lat": 38.927145833333334, "type": "electric_scooter", "lon": -77.040473, "is_reserved": 0, "fusion_lon": 0.0, "bike_id": "49e3603cdbb487179a04f5a6fb077991", "name": "49e3603cdbb487179a04f5a6fb077991", "rental_uris": {"ios": "https://dc.lft.to/lastmile_qr_scan", "android": "https://dc.lft.to/lastmile_qr_scan"}}, {"is_disabled": 0, "fusion_lat": 0.0, "lat": 38.9201355, "type": "electric_scooter", "lon": -77.04072283333333, "is_reserved": 0, "fusion_lon": 0.0, "bike_id": "b55b7d8862e49d25a8470000b0ec5ec6", "name": "b55b7d8862e49d25a8470000b0ec5ec6", "rental_uris": {"ios": "https://dc.lft.to/lastmile_qr_scan", "android": "https://dc.lft.to/lastmile_qr_scan"}}, {"is_disabled": 0, "fusion_lat": 0.0, "lat": 38.89456783333333, "type": "electric_bike", "lon": -76.97033416666666, "is_reserved": 0, "fusion_lon": 0.0, "bike_id": "b415f4d5217688d282818e8db97637f6", "name": "b415f4d5217688d282818e8db97637f6", "rental_uris": {"ios": "https://dc.lft.to/lastmile_qr_scan", "android": "https://dc.lft.to/lastmile_qr_scan"}}, {"is_disabled": 0, "fusion_lat": 0.0, "lat": 38.8643665, "type": "electric_scooter", "lon": -76.97369166666667, "is_reserved": 0, "fusion_lon": 0.0, "bike_id": "8c264d4b5ff1daf88a9d5ccb72a051fc", "name": "8c264d4b5ff1daf88a9d5ccb72a051fc", "rental_uris": {"ios": "https://dc.lft.to/lastmile_qr_scan", "android": "https://dc.lft.to/lastmile_qr_scan"}}, {"is_disabled": 0, "fusion_lat": 0.0, "lat": 38.87669983333333, "type": "electric_scooter", "lon": -77.0043055, "is_reserved": 0, "fusion_lon": 0.0, "bike_id": "620baaf3205df13d3f888ab20baafb8b", "name": "620baaf3205df13d3f888ab20baafb8b", "rental_uris": {"ios": "https://dc.lft.to/lastmile_qr_scan", "android": "https://dc.lft.to/lastmile_qr_scan"}}, {"is_disabled": 0, "fusion_lat": 0.0, "lat": 38.932502666666664, "type": "electric_scooter", "lon": -77.03286983333334, "is_reserved": 0, "fusion_lon": 0.0, "bike_id": "ab036899f5de0eded39127ccdfb32a7c", "name": "ab036899f5de0eded39127ccdfb32a7c", "rental_uris": {"ios": "https://dc.lft.to/lastmile_qr_scan", "android": "https://dc.lft.to/lastmile_qr_scan"}}, {"is_disabled": 0, "fusion_lat": 0.0, "lat": 38.822584666666664, "type": "electric_bike", "lon": -77.005558, "is_reserved": 0, "fusion_lon": 0.0, "bike_id": "2f3de0462653b3f29c7ea224d1e25117", "name": "2f3de0462653b3f29c7ea224d1e25117", "rental_uris": {"ios": "https://dc.lft.to/lastmile_qr_scan", "android": "https://dc.lft.to/lastmile_qr_scan"}}, {"is_disabled": 0, "fusion_lat": 0.0, "lat": 38.90811883333333, "type": "electric_scooter", "lon": -76.99843016666667, "is_reserved": 0, "fusion_lon": 0.0, "bike_id": "cc308d7c1efb574749e1f04f9fe7891b", "name": "cc308d7c1efb574749e1f04f9fe7891b", "rental_uris": {"ios": "https://dc.lft.to/lastmile_qr_scan", "android": "https://dc.lft.to/lastmile_qr_scan"}}, {"is_disabled": 0, "fusion_lat": 0.0, "lat": 38.90820816666667, "type": "electric_scooter", "lon": -77.043593, "is_reserved": 0, "fusion_lon": 0.0, "bike_id": "00a9f1129cac6ff022f05af2dcde107c", "name": "00a9f1129cac6ff022f05af2dcde107c", "rental_uris": {"ios": "https://dc.lft.to/lastmile_qr_scan", "android": "https://dc.lft.to/lastmile_qr_scan"}}, {"is_disabled": 0, "fusion_lat": 0.0, "lat": 38.899566, "type": "electric_scooter", "lon": -77.051762, "is_reserved": 0, "fusion_lon": 0.0, "bike_id": "ad2f179c5cb4a8cd72084194a5de43a7", "name": "ad2f179c5cb4a8cd72084194a5de43a7", "rental_uris": {"ios": "https://dc.lft.to/lastmile_qr_scan", "android": "https://dc.lft.to/lastmile_qr_scan"}}, {"is_disabled": 0, "fusion_lat": 0.0, "lat": 38.90575, "type": "electric_scooter", "lon": -77.02974316666666, "is_reserved": 0, "fusion_lon": 0.0, "bike_id": "452196f15ab0574821e27fd8f06dab25", "name": "452196f15ab0574821e27fd8f06dab25", "rental_uris": {"ios": "https://dc.lft.to/lastmile_qr_scan", "android": "https://dc.lft.to/lastmile_qr_scan"}}, {"is_disabled": 0, "fusion_lat": 0.0, "lat": 38.892245, "type": "electric_scooter", "lon": -77.02644966666666, "is_reserved": 0, "fusion_lon": 0.0, "bike_id": "7aab8004c77ca0b114483390a07d7f68", "name": "7aab8004c77ca0b114483390a07d7f68", "rental_uris": {"ios": "https://dc.lft.to/lastmile_qr_scan", "android": "https://dc.lft.to/lastmile_qr_scan"}}, {"is_disabled": 0, "fusion_lat": 0.0, "lat": 38.926274666666664, "type": "electric_scooter", "lon": -77.03787966666667, "is_reserved": 0, "fusion_lon": 0.0, "bike_id": "46dcadb8039b02d55e10c64c9cd73960", "name": "46dcadb8039b02d55e10c64c9cd73960", "rental_uris": {"ios": "https://dc.lft.to/lastmile_qr_scan", "android": "https://dc.lft.to/lastmile_qr_scan"}}, {"is_disabled": 0, "fusion_lat": 0.0, "lat": 38.892668, "type": "electric_scooter", "lon": -76.94155916666666, "is_reserved": 0, "fusion_lon": 0.0, "bike_id": "35069cee16ee10c2e088743497717af9", "name": "35069cee16ee10c2e088743497717af9", "rental_uris": {"ios": "https://dc.lft.to/lastmile_qr_scan", "android": "https://dc.lft.to/lastmile_qr_scan"}}, {"is_disabled": 0, "fusion_lat": 0.0, "lat": 38.914107333333334, "type": "electric_scooter", "lon": -77.012819, "is_reserved": 0, "fusion_lon": 0.0, "bike_id": "34c0fcbdccce580774abe1d3a81ed804", "name": "34c0fcbdccce580774abe1d3a81ed804", "rental_uris": {"ios": "https://dc.lft.to/lastmile_qr_scan", "android": "https://dc.lft.to/lastmile_qr_scan"}}, {"is_disabled": 0, "fusion_lat": 0.0, "lat": 38.89223116666667, "type": "electric_scooter", "lon": -77.0464865, "is_reserved": 0, "fusion_lon": 0.0, "bike_id": "c6fb9e2342104c76e6ae0e925cb4bb6a", "name": "c6fb9e2342104c76e6ae0e925cb4bb6a", "rental_uris": {"ios": "https://dc.lft.to/lastmile_qr_scan", "android": "https://dc.lft.to/lastmile_qr_scan"}}, {"is_disabled": 0, "fusion_lat": 0.0, "lat": 38.9234285, "type": "electric_scooter", "lon": -77.03577666666666, "is_reserved": 0, "fusion_lon": 0.0, "bike_id": "b14b48d853da58fabac1d1a950114678", "name": "b14b48d853da58fabac1d1a950114678", "rental_uris": {"ios": "https://dc.lft.to/lastmile_qr_scan", "android": "https://dc.lft.to/lastmile_qr_scan"}}, {"is_disabled": 0, "fusion_lat": 0.0, "lat": 38.92254483333333, "type": "electric_scooter", "lon": -77.03408683333333, "is_reserved": 0, "fusion_lon": 0.0, "bike_id": "f61cb0ee50ffd2d341a366579895b93e", "name": "f61cb0ee50ffd2d341a366579895b93e", "rental_uris": {"ios": "https://dc.lft.to/lastmile_qr_scan", "android": "https://dc.lft.to/lastmile_qr_scan"}}, {"is_disabled": 0, "fusion_lat": 0.0, "lat": 38.874770833333336, "type": "electric_scooter", "lon": -77.01070116666666, "is_reserved": 0, "fusion_lon": 0.0, "bike_id": "3e0620a267333789e6e3315da434d2cb", "name": "3e0620a267333789e6e3315da434d2cb", "rental_uris": {"ios": "https://dc.lft.to/lastmile_qr_scan", "android": "https://dc.lft.to/lastmile_qr_scan"}}, {"is_disabled": 0, "fusion_lat": 0.0, "lat": 38.90232983333333, "type": "electric_scooter", "lon": -77.04591183333334, "is_reserved": 0, "fusion_lon": 0.0, "bike_id": "90bfadd352d09ce2b219441fc5989c9b", "name": "90bfadd352d09ce2b219441fc5989c9b", "rental_uris": {"ios": "https://dc.lft.to/lastmile_qr_scan", "android": "https://dc.lft.to/lastmile_qr_scan"}}, {"is_disabled": 0, "fusion_lat": 0.0, "lat": 38.900233, "type": "electric_scooter", "lon": -77.01218533333333, "is_reserved": 0, "fusion_lon": 0.0, "bike_id": "63f25619199594c575192037c4769be9", "name": "63f25619199594c575192037c4769be9", "rental_uris": {"ios": "https://dc.lft.to/lastmile_qr_scan", "android": "https://dc.lft.to/lastmile_qr_scan"}}, {"is_disabled": 0, "fusion_lat": 0.0, "lat": 38.925713, "type": "electric_scooter", "lon": -77.0526255, "is_reserved": 0, "fusion_lon": 0.0, "bike_id": "d49dd0c0f6949d3960ed358c21ad5996", "name": "d49dd0c0f6949d3960ed358c21ad5996", "rental_uris": {"ios": "https://dc.lft.to/lastmile_qr_scan", "android": "https://dc.lft.to/lastmile_qr_scan"}}, {"is_disabled": 0, "fusion_lat": 0.0, "lat": 38.925555333333335, "type": "electric_bike", "lon": -77.001248, "is_reserved": 0, "fusion_lon": 0.0, "bike_id": "be87c6310f996d9aadb53758ad2fb13f", "name": "be87c6310f996d9aadb53758ad2fb13f", "rental_uris": {"ios": "https://dc.lft.to/lastmile_qr_scan", "android": "https://dc.lft.to/lastmile_qr_scan"}}, {"is_disabled": 0, "fusion_lat": 0.0, "lat": 38.9402325, "type": "electric_scooter", "lon": -77.07173416666667, "is_reserved": 0, "fusion_lon": 0.0, "bike_id": "23698cd0e3af2f83fd3da6930e60004f", "name": "23698cd0e3af2f83fd3da6930e60004f", "rental_uris": {"ios": "https://dc.lft.to/lastmile_qr_scan", "android": "https://dc.lft.to/lastmile_qr_scan"}}, {"is_disabled": 0, "fusion_lat": 0.0, "lat": 38.917004, "type": "electric_scooter", "lon": -77.03873683333333, "is_reserved": 0, "fusion_lon": 0.0, "bike_id": "180309a09246b5f8d739507d1d73b9eb", "name": "180309a09246b5f8d739507d1d73b9eb", "rental_uris": {"ios": "https://dc.lft.to/lastmile_qr_scan", "android": "https://dc.lft.to/lastmile_qr_scan"}}, {"is_disabled": 0, "fusion_lat": 0.0, "lat": 38.89882816666667, "type": "electric_scooter", "lon": -76.93176266666667, "is_reserved": 0, "fusion_lon": 0.0, "bike_id": "f6817527b234f98319a7761a20361f94", "name": "f6817527b234f98319a7761a20361f94", "rental_uris": {"ios": "https://dc.lft.to/lastmile_qr_scan", "android": "https://dc.lft.to/lastmile_qr_scan"}}, {"is_disabled": 0, "fusion_lat": 0.0, "lat": 38.86372733333333, "type": "electric_bike", "lon": -76.97004266666667, "is_reserved": 0, "fusion_lon": 0.0, "bike_id": "1ea5522dbc89897a90c9e43a8b4475b1", "name": "1ea5522dbc89897a90c9e43a8b4475b1", "rental_uris": {"ios": "https://dc.lft.to/lastmile_qr_scan", "android": "https://dc.lft.to/lastmile_qr_scan"}}, {"is_disabled": 0, "fusion_lat": 0.0, "lat": 38.9206655, "type": "electric_scooter", "lon": -77.04380333333333, "is_reserved": 0, "fusion_lon": 0.0, "bike_id": "c749c0f983cfca00cfca771ba4007209", "name": "c749c0f983cfca00cfca771ba4007209", "rental_uris": {"ios": "https://dc.lft.to/lastmile_qr_scan", "android": "https://dc.lft.to/lastmile_qr_scan"}}, {"is_disabled": 0, "fusion_lat": 0.0, "lat": 38.91548683333333, "type": "electric_scooter", "lon": -77.04159183333333, "is_reserved": 0, "fusion_lon": 0.0, "bike_id": "80a132d2c53dfd70ef21856245cc136e", "name": "80a132d2c53dfd70ef21856245cc136e", "rental_uris": {"ios": "https://dc.lft.to/lastmile_qr_scan", "android": "https://dc.lft.to/lastmile_qr_scan"}}, {"is_disabled": 0, "fusion_lat": 0.0, "lat": 38.914569, "type": "electric_scooter", "lon": -77.04634116666666, "is_reserved": 0, "fusion_lon": 0.0, "bike_id": "759f4b97b85f991ddc2a55f5c1d3d272", "name": "759f4b97b85f991ddc2a55f5c1d3d272", "rental_uris": {"ios": "https://dc.lft.to/lastmile_qr_scan", "android": "https://dc.lft.to/lastmile_qr_scan"}}, {"is_disabled": 0, "fusion_lat": 0.0, "lat": 38.85056216666667, "type": "electric_bike", "lon": -76.97331983333333, "is_reserved": 0, "fusion_lon": 0.0, "bike_id": "5e2a70d774faee85157bbaafb198496a", "name": "5e2a70d774faee85157bbaafb198496a", "rental_uris": {"ios": "https://dc.lft.to/lastmile_qr_scan", "android": "https://dc.lft.to/lastmile_qr_scan"}}, {"is_disabled": 0, "fusion_lat": 0.0, "lat": 38.8442325, "type": "electric_scooter", "lon": -76.99778116666667, "is_reserved": 0, "fusion_lon": 0.0, "bike_id": "128b6f7c53afd1fa3309fc6506707688", "name": "128b6f7c53afd1fa3309fc6506707688", "rental_uris": {"ios": "https://dc.lft.to/lastmile_qr_scan", "android": "https://dc.lft.to/lastmile_qr_scan"}}, {"is_disabled": 0, "fusion_lat": 0.0, "lat": 38.94950816666667, "type": "electric_bike", "lon": -77.01610833333334, "is_reserved": 0, "fusion_lon": 0.0, "bike_id": "0efd41696dc6313ffd5cf927ba60be29", "name": "0efd41696dc6313ffd5cf927ba60be29", "rental_uris": {"ios": "https://dc.lft.to/lastmile_qr_scan", "android": "https://dc.lft.to/lastmile_qr_scan"}}, {"is_disabled": 0, "fusion_lat": 0.0, "lat": 38.9071645, "type": "electric_scooter", "lon": -77.04342516666667, "is_reserved": 0, "fusion_lon": 0.0, "bike_id": "24b0e6389570f5b925673fc754422331", "name": "24b0e6389570f5b925673fc754422331", "rental_uris": {"ios": "https://dc.lft.to/lastmile_qr_scan", "android": "https://dc.lft.to/lastmile_qr_scan"}}, {"is_disabled": 0, "fusion_lat": 0.0, "lat": 38.9455075, "type": "electric_bike", "lon": -76.89537383333334, "is_reserved": 0, "fusion_lon": 0.0, "bike_id": "8ed4cff1f84170eb0bd90898a30ce2b9", "name": "8ed4cff1f84170eb0bd90898a30ce2b9", "rental_uris": {"ios": "https://dc.lft.to/lastmile_qr_scan", "android": "https://dc.lft.to/lastmile_qr_scan"}}, {"is_disabled": 0, "fusion_lat": 0.0, "lat": 38.86462083333333, "type": "electric_scooter", "lon": -76.97757383333334, "is_reserved": 0, "fusion_lon": 0.0, "bike_id": "4788c9536745c1105f2b75d2baf26171", "name": "4788c9536745c1105f2b75d2baf26171", "rental_uris": {"ios": "https://dc.lft.to/lastmile_qr_scan", "android": "https://dc.lft.to/lastmile_qr_scan"}}, {"is_disabled": 0, "fusion_lat": 0.0, "lat": 38.9166245, "type": "electric_scooter", "lon": -77.03846816666666, "is_reserved": 0, "fusion_lon": 0.0, "bike_id": "6c0019eb8e222f4c826701fbef26b56e", "name": "6c0019eb8e222f4c826701fbef26b56e", "rental_uris": {"ios": "https://dc.lft.to/lastmile_qr_scan", "android": "https://dc.lft.to/lastmile_qr_scan"}}, {"is_disabled": 0, "fusion_lat": 0.0, "lat": 38.95253, "type": "electric_scooter", "lon": -77.06983516666666, "is_reserved": 0, "fusion_lon": 0.0, "bike_id": "d372e94764729a2164df1f6827a3b177", "name": "d372e94764729a2164df1f6827a3b177", "rental_uris": {"ios": "https://dc.lft.to/lastmile_qr_scan", "android": "https://dc.lft.to/lastmile_qr_scan"}}, {"is_disabled": 0, "fusion_lat": 0.0, "lat": 38.925665, "type": "electric_scooter", "lon": -77.02843333333334, "is_reserved": 0, "fusion_lon": 0.0, "bike_id": "f89bbd7194d747894a3de660be19a4a1", "name": "f89bbd7194d747894a3de660be19a4a1", "rental_uris": {"ios": "https://dc.lft.to/lastmile_qr_scan", "android": "https://dc.lft.to/lastmile_qr_scan"}}, {"is_disabled": 0, "fusion_lat": 0.0, "lat": 38.898329333333336, "type": "electric_scooter", "lon": -76.94633, "is_reserved": 0, "fusion_lon": 0.0, "bike_id": "c5389132fc6292835cd98f899a231c42", "name": "c5389132fc6292835cd98f899a231c42", "rental_uris": {"ios": "https://dc.lft.to/lastmile_qr_scan", "android": "https://dc.lft.to/lastmile_qr_scan"}}, {"is_disabled": 0, "fusion_lat": 0.0, "lat": 38.916312166666664, "type": "electric_scooter", "lon": -77.0313875, "is_reserved": 0, "fusion_lon": 0.0, "bike_id": "a36e0228611dc8f8e28620d47f7381a7", "name": "a36e0228611dc8f8e28620d47f7381a7", "rental_uris": {"ios": "https://dc.lft.to/lastmile_qr_scan", "android": "https://dc.lft.to/lastmile_qr_scan"}}, {"is_disabled": 0, "fusion_lat": 0.0, "lat": 38.973288, "type": "electric_bike", "lon": -77.02149016666667, "is_reserved": 0, "fusion_lon": 0.0, "bike_id": "c8b6c2c94ff51f45f180ee540d676a20", "name": "c8b6c2c94ff51f45f180ee540d676a20", "rental_uris": {"ios": "https://dc.lft.to/lastmile_qr_scan", "android": "https://dc.lft.to/lastmile_qr_scan"}}, {"is_disabled": 0, "fusion_lat": 0.0, "lat": 38.917133166666666, "type": "electric_scooter", "lon": -77.0334065, "is_reserved": 0, "fusion_lon": 0.0, "bike_id": "253f6672a566dae909d2ba89aa82f3ea", "name": "253f6672a566dae909d2ba89aa82f3ea", "rental_uris": {"ios": "https://dc.lft.to/lastmile_qr_scan", "android": "https://dc.lft.to/lastmile_qr_scan"}}, {"is_disabled": 0, "fusion_lat": 0.0, "lat": 38.90973116666667, "type": "electric_scooter", "lon": -77.03434533333333, "is_reserved": 0, "fusion_lon": 0.0, "bike_id": "e4a0ab33b5812c10f157532136bdd2f5", "name": "e4a0ab33b5812c10f157532136bdd2f5", "rental_uris": {"ios": "https://dc.lft.to/lastmile_qr_scan", "android": "https://dc.lft.to/lastmile_qr_scan"}}, {"is_disabled": 0, "fusion_lat": 0.0, "lat": 38.89775683333333, "type": "electric_scooter", "lon": -77.03213333333333, "is_reserved": 0, "fusion_lon": 0.0, "bike_id": "d0d1834e40e14c6230ba2d1b88136378", "name": "d0d1834e40e14c6230ba2d1b88136378", "rental_uris": {"ios": "https://dc.lft.to/lastmile_qr_scan", "android": "https://dc.lft.to/lastmile_qr_scan"}}, {"is_disabled": 0, "fusion_lat": 0.0, "lat": 38.86561433333333, "type": "electric_scooter", "lon": -76.98949883333333, "is_reserved": 0, "fusion_lon": 0.0, "bike_id": "c54e7d4c684e5f3e3673a9bd3d65b5c0", "name": "c54e7d4c684e5f3e3673a9bd3d65b5c0", "rental_uris": {"ios": "https://dc.lft.to/lastmile_qr_scan", "android": "https://dc.lft.to/lastmile_qr_scan"}}, {"is_disabled": 0, "fusion_lat": 0.0, "lat": 38.911669833333335, "type": "electric_scooter", "lon": -77.06861066666667, "is_reserved": 0, "fusion_lon": 0.0, "bike_id": "5feab66f21f01e76391b35e7451c2072", "name": "5feab66f21f01e76391b35e7451c2072", "rental_uris": {"ios": "https://dc.lft.to/lastmile_qr_scan", "android": "https://dc.lft.to/lastmile_qr_scan"}}, {"is_disabled": 0, "fusion_lat": 0.0, "lat": 38.90296333333333, "type": "electric_scooter", "lon": -76.9925415, "is_reserved": 0, "fusion_lon": 0.0, "bike_id": "94ca5806af93e88e133199129b099888", "name": "94ca5806af93e88e133199129b099888", "rental_uris": {"ios": "https://dc.lft.to/lastmile_qr_scan", "android": "https://dc.lft.to/lastmile_qr_scan"}}, {"is_disabled": 0, "fusion_lat": 0.0, "lat": 38.9320925, "type": "electric_scooter", "lon": -77.02352016666667, "is_reserved": 0, "fusion_lon": 0.0, "bike_id": "c9f13e5567a525d46ed8d55d6379206d", "name": "c9f13e5567a525d46ed8d55d6379206d", "rental_uris": {"ios": "https://dc.lft.to/lastmile_qr_scan", "android": "https://dc.lft.to/lastmile_qr_scan"}}, {"is_disabled": 0, "fusion_lat": 0.0, "lat": 38.923176833333336, "type": "electric_scooter", "lon": -77.03951066666667, "is_reserved": 0, "fusion_lon": 0.0, "bike_id": "e1e1faa231597827ddeb1799f4730f1b", "name": "e1e1faa231597827ddeb1799f4730f1b", "rental_uris": {"ios": "https://dc.lft.to/lastmile_qr_scan", "android": "https://dc.lft.to/lastmile_qr_scan"}}, {"is_disabled": 0, "fusion_lat": 0.0, "lat": 38.90378666666667, "type": "electric_scooter", "lon": -77.0445655, "is_reserved": 0, "fusion_lon": 0.0, "bike_id": "5e53b5d0c8e3178aad5cada15e955469", "name": "5e53b5d0c8e3178aad5cada15e955469", "rental_uris": {"ios": "https://dc.lft.to/lastmile_qr_scan", "android": "https://dc.lft.to/lastmile_qr_scan"}}, {"is_disabled": 0, "fusion_lat": 0.0, "lat": 38.91101533333333, "type": "electric_scooter", "lon": -77.0021435, "is_reserved": 0, "fusion_lon": 0.0, "bike_id": "fdb02e3707ed86d8ec497db7a9163231", "name": "fdb02e3707ed86d8ec497db7a9163231", "rental_uris": {"ios": "https://dc.lft.to/lastmile_qr_scan", "android": "https://dc.lft.to/lastmile_qr_scan"}}, {"is_disabled": 0, "fusion_lat": 0.0, "lat": 38.8960745, "type": "electric_scooter", "lon": -77.04407733333333, "is_reserved": 0, "fusion_lon": 0.0, "bike_id": "9276cbf368080284ad265568ba121ef6", "name": "9276cbf368080284ad265568ba121ef6", "rental_uris": {"ios": "https://dc.lft.to/lastmile_qr_scan", "android": "https://dc.lft.to/lastmile_qr_scan"}}, {"is_disabled": 0, "fusion_lat": 0.0, "lat": 38.90715183333333, "type": "electric_scooter", "lon": -77.02975933333333, "is_reserved": 0, "fusion_lon": 0.0, "bike_id": "646f285158d359a621fd8b6feb95c199", "name": "646f285158d359a621fd8b6feb95c199", "rental_uris": {"ios": "https://dc.lft.to/lastmile_qr_scan", "android": "https://dc.lft.to/lastmile_qr_scan"}}, {"is_disabled": 0, "fusion_lat": 0.0, "lat": 38.9024755, "type": "electric_scooter", "lon": -77.01759366666667, "is_reserved": 0, "fusion_lon": 0.0, "bike_id": "562bc59efc423c6a43846f85319ee9e7", "name": "562bc59efc423c6a43846f85319ee9e7", "rental_uris": {"ios": "https://dc.lft.to/lastmile_qr_scan", "android": "https://dc.lft.to/lastmile_qr_scan"}}, {"is_disabled": 0, "fusion_lat": 0.0, "lat": 38.92149583333333, "type": "electric_scooter", "lon": -77.04222316666667, "is_reserved": 0, "fusion_lon": 0.0, "bike_id": "0a247a384296569a9dd270b7b97b7e44", "name": "0a247a384296569a9dd270b7b97b7e44", "rental_uris": {"ios": "https://dc.lft.to/lastmile_qr_scan", "android": "https://dc.lft.to/lastmile_qr_scan"}}, {"is_disabled": 0, "fusion_lat": 0.0, "lat": 38.9188785, "type": "electric_scooter", "lon": -77.039147, "is_reserved": 0, "fusion_lon": 0.0, "bike_id": "712a1f254083adb3f5d8514151660a81", "name": "712a1f254083adb3f5d8514151660a81", "rental_uris": {"ios": "https://dc.lft.to/lastmile_qr_scan", "android": "https://dc.lft.to/lastmile_qr_scan"}}, {"is_disabled": 0, "fusion_lat": 0.0, "lat": 38.93101766666667, "type": "electric_scooter", "lon": -77.02511166666666, "is_reserved": 0, "fusion_lon": 0.0, "bike_id": "eb084d5ad3bc44aedd8562e1306e6e20", "name": "eb084d5ad3bc44aedd8562e1306e6e20", "rental_uris": {"ios": "https://dc.lft.to/lastmile_qr_scan", "android": "https://dc.lft.to/lastmile_qr_scan"}}, {"is_disabled": 0, "fusion_lat": 0.0, "lat": 38.9055965, "type": "electric_scooter", "lon": -77.03473816666667, "is_reserved": 0, "fusion_lon": 0.0, "bike_id": "bc86b9c243ce2026c00d5de3e59df7b2", "name": "bc86b9c243ce2026c00d5de3e59df7b2", "rental_uris": {"ios": "https://dc.lft.to/lastmile_qr_scan", "android": "https://dc.lft.to/lastmile_qr_scan"}}, {"is_disabled": 0, "fusion_lat": 0.0, "lat": 38.9214715, "type": "electric_scooter", "lon": -77.02426266666667, "is_reserved": 0, "fusion_lon": 0.0, "bike_id": "aa0d48e6f0ff6e08498de7f491debc91", "name": "aa0d48e6f0ff6e08498de7f491debc91", "rental_uris": {"ios": "https://dc.lft.to/lastmile_qr_scan", "android": "https://dc.lft.to/lastmile_qr_scan"}}, {"is_disabled": 0, "fusion_lat": 0.0, "lat": 38.895605833333335, "type": "electric_bike", "lon": -77.127316, "is_reserved": 0, "fusion_lon": 0.0, "bike_id": "03bf5248775f9a73ceb964ec295ee4c2", "name": "03bf5248775f9a73ceb964ec295ee4c2", "rental_uris": {"ios": "https://dc.lft.to/lastmile_qr_scan", "android": "https://dc.lft.to/lastmile_qr_scan"}}, {"is_disabled": 0, "fusion_lat": 0.0, "lat": 38.918749166666665, "type": "electric_scooter", "lon": -77.02599533333333, "is_reserved": 0, "fusion_lon": 0.0, "bike_id": "e94aa14dd5ab9c72470673a9c65a265e", "name": "e94aa14dd5ab9c72470673a9c65a265e", "rental_uris": {"ios": "https://dc.lft.to/lastmile_qr_scan", "android": "https://dc.lft.to/lastmile_qr_scan"}}, {"is_disabled": 0, "fusion_lat": 0.0, "lat": 38.896116, "type": "electric_scooter", "lon": -76.955909, "is_reserved": 0, "fusion_lon": 0.0, "bike_id": "af80ae5d0e2acd5010eaa6670a81d558", "name": "af80ae5d0e2acd5010eaa6670a81d558", "rental_uris": {"ios": "https://dc.lft.to/lastmile_qr_scan", "android": "https://dc.lft.to/lastmile_qr_scan"}}, {"is_disabled": 0, "fusion_lat": 0.0, "lat": 38.91414066666667, "type": "electric_scooter", "lon": -77.01954416666666, "is_reserved": 0, "fusion_lon": 0.0, "bike_id": "ad2f585fe6909152bafc16f358e3487a", "name": "ad2f585fe6909152bafc16f358e3487a", "rental_uris": {"ios": "https://dc.lft.to/lastmile_qr_scan", "android": "https://dc.lft.to/lastmile_qr_scan"}}, {"is_disabled": 0, "fusion_lat": 0.0, "lat": 38.90294816666667, "type": "electric_scooter", "lon": -77.03855266666666, "is_reserved": 0, "fusion_lon": 0.0, "bike_id": "3f76b41be14f7799c6c92ebdd1134eff", "name": "3f76b41be14f7799c6c92ebdd1134eff", "rental_uris": {"ios": "https://dc.lft.to/lastmile_qr_scan", "android": "https://dc.lft.to/lastmile_qr_scan"}}, {"is_disabled": 0, "fusion_lat": 0.0, "lat": 38.90186033333333, "type": "electric_scooter", "lon": -77.02217533333334, "is_reserved": 0, "fusion_lon": 0.0, "bike_id": "a23644a95b3b7b21498e7a807f2c10d8", "name": "a23644a95b3b7b21498e7a807f2c10d8", "rental_uris": {"ios": "https://dc.lft.to/lastmile_qr_scan", "android": "https://dc.lft.to/lastmile_qr_scan"}}, {"is_disabled": 0, "fusion_lat": 0.0, "lat": 38.9110245, "type": "electric_scooter", "lon": -77.0420465, "is_reserved": 0, "fusion_lon": 0.0, "bike_id": "b39953d8827a4a4d4215946ec60e30cf", "name": "b39953d8827a4a4d4215946ec60e30cf", "rental_uris": {"ios": "https://dc.lft.to/lastmile_qr_scan", "android": "https://dc.lft.to/lastmile_qr_scan"}}, {"is_disabled": 0, "fusion_lat": 0.0, "lat": 38.915521, "type": "electric_scooter", "lon": -77.03837366666667, "is_reserved": 0, "fusion_lon": 0.0, "bike_id": "960df985ee720b10554fa78870f79483", "name": "960df985ee720b10554fa78870f79483", "rental_uris": {"ios": "https://dc.lft.to/lastmile_qr_scan", "android": "https://dc.lft.to/lastmile_qr_scan"}}, {"is_disabled": 0, "fusion_lat": 0.0, "lat": 38.921622666666664, "type": "electric_scooter", "lon": -77.035429, "is_reserved": 0, "fusion_lon": 0.0, "bike_id": "41c6f6d8bcc07eebc2656679ce99f2b7", "name": "41c6f6d8bcc07eebc2656679ce99f2b7", "rental_uris": {"ios": "https://dc.lft.to/lastmile_qr_scan", "android": "https://dc.lft.to/lastmile_qr_scan"}}, {"is_disabled": 0, "fusion_lat": 0.0, "lat": 38.922449, "type": "electric_scooter", "lon": -77.03663966666667, "is_reserved": 0, "fusion_lon": 0.0, "bike_id": "cdd6bd2a60dd6d616ece6082e59e090a", "name": "cdd6bd2a60dd6d616ece6082e59e090a", "rental_uris": {"ios": "https://dc.lft.to/lastmile_qr_scan", "android": "https://dc.lft.to/lastmile_qr_scan"}}, {"is_disabled": 0, "fusion_lat": 0.0, "lat": 38.920350166666665, "type": "electric_scooter", "lon": -76.979046, "is_reserved": 0, "fusion_lon": 0.0, "bike_id": "1c86eaf0ca28c2a434f16573ec902e3a", "name": "1c86eaf0ca28c2a434f16573ec902e3a", "rental_uris": {"ios": "https://dc.lft.to/lastmile_qr_scan", "android": "https://dc.lft.to/lastmile_qr_scan"}}, {"is_disabled": 0, "fusion_lat": 0.0, "lat": 38.903299, "type": "electric_scooter", "lon": -77.037825, "is_reserved": 0, "fusion_lon": 0.0, "bike_id": "0f651efcc5768717a6a3d7d2ff499e73", "name": "0f651efcc5768717a6a3d7d2ff499e73", "rental_uris": {"ios": "https://dc.lft.to/lastmile_qr_scan", "android": "https://dc.lft.to/lastmile_qr_scan"}}, {"is_disabled": 0, "fusion_lat": 0.0, "lat": 38.8947825, "type": "electric_scooter", "lon": -77.021883, "is_reserved": 0, "fusion_lon": 0.0, "bike_id": "57943ea1af7b9937af5a4b4cabb63924", "name": "57943ea1af7b9937af5a4b4cabb63924", "rental_uris": {"ios": "https://dc.lft.to/lastmile_qr_scan", "android": "https://dc.lft.to/lastmile_qr_scan"}}, {"is_disabled": 0, "fusion_lat": 0.0, "lat": 38.905184166666665, "type": "electric_scooter", "lon": -77.047921, "is_reserved": 0, "fusion_lon": 0.0, "bike_id": "a5c139be5b5c380ae35c1406ee156dad", "name": "a5c139be5b5c380ae35c1406ee156dad", "rental_uris": {"ios": "https://dc.lft.to/lastmile_qr_scan", "android": "https://dc.lft.to/lastmile_qr_scan"}}, {"is_disabled": 0, "fusion_lat": 0.0, "lat": 38.914068, "type": "electric_scooter", "lon": -77.01841733333333, "is_reserved": 0, "fusion_lon": 0.0, "bike_id": "f303c0e53548b42f59e800f7d39ebcab", "name": "f303c0e53548b42f59e800f7d39ebcab", "rental_uris": {"ios": "https://dc.lft.to/lastmile_qr_scan", "android": "https://dc.lft.to/lastmile_qr_scan"}}, {"is_disabled": 0, "fusion_lat": 0.0, "lat": 38.90623516666667, "type": "electric_scooter", "lon": -77.03968316666666, "is_reserved": 0, "fusion_lon": 0.0, "bike_id": "54b8178f6614f21294da03dc67c45d1e", "name": "54b8178f6614f21294da03dc67c45d1e", "rental_uris": {"ios": "https://dc.lft.to/lastmile_qr_scan", "android": "https://dc.lft.to/lastmile_qr_scan"}}, {"is_disabled": 0, "fusion_lat": 0.0, "lat": 38.90274333333333, "type": "electric_scooter", "lon": -77.0599895, "is_reserved": 0, "fusion_lon": 0.0, "bike_id": "5645e9decb00c9eb859abcd269d392ae", "name": "5645e9decb00c9eb859abcd269d392ae", "rental_uris": {"ios": "https://dc.lft.to/lastmile_qr_scan", "android": "https://dc.lft.to/lastmile_qr_scan"}}, {"is_disabled": 0, "fusion_lat": 0.0, "lat": 38.968205833333336, "type": "electric_scooter", "lon": -77.01790583333333, "is_reserved": 0, "fusion_lon": 0.0, "bike_id": "a131b5407d7e67c785596d4fc27bb6c7", "name": "a131b5407d7e67c785596d4fc27bb6c7", "rental_uris": {"ios": "https://dc.lft.to/lastmile_qr_scan", "android": "https://dc.lft.to/lastmile_qr_scan"}}, {"is_disabled": 0, "fusion_lat": 0.0, "lat": 38.846306166666665, "type": "electric_bike", "lon": -77.069426, "is_reserved": 0, "fusion_lon": 0.0, "bike_id": "0eefc832370427676e2f78a0c106033c", "name": "0eefc832370427676e2f78a0c106033c", "rental_uris": {"ios": "https://dc.lft.to/lastmile_qr_scan", "android": "https://dc.lft.to/lastmile_qr_scan"}}, {"is_disabled": 0, "fusion_lat": 0.0, "lat": 38.919948166666664, "type": "electric_scooter", "lon": -77.02378266666666, "is_reserved": 0, "fusion_lon": 0.0, "bike_id": "81533847b25d88b3086b759a195dec6e", "name": "81533847b25d88b3086b759a195dec6e", "rental_uris": {"ios": "https://dc.lft.to/lastmile_qr_scan", "android": "https://dc.lft.to/lastmile_qr_scan"}}, {"is_disabled": 0, "fusion_lat": 0.0, "lat": 38.8745705, "type": "electric_scooter", "lon": -77.003123, "is_reserved": 0, "fusion_lon": 0.0, "bike_id": "dafbafab84feb2f8d33d0a40ef251f87", "name": "dafbafab84feb2f8d33d0a40ef251f87", "rental_uris": {"ios": "https://dc.lft.to/lastmile_qr_scan", "android": "https://dc.lft.to/lastmile_qr_scan"}}, {"is_disabled": 0, "fusion_lat": 0.0, "lat": 38.94893116666667, "type": "electric_bike", "lon": -76.96375616666667, "is_reserved": 0, "fusion_lon": 0.0, "bike_id": "037116d6c5f08225afe88a38a9759de5", "name": "037116d6c5f08225afe88a38a9759de5", "rental_uris": {"ios": "https://dc.lft.to/lastmile_qr_scan", "android": "https://dc.lft.to/lastmile_qr_scan"}}, {"is_disabled": 0, "fusion_lat": 0.0, "lat": 38.88449583333333, "type": "electric_scooter", "lon": -77.0057705, "is_reserved": 0, "fusion_lon": 0.0, "bike_id": "06f69b4c29763d08b0ea842c9cc41a72", "name": "06f69b4c29763d08b0ea842c9cc41a72", "rental_uris": {"ios": "https://dc.lft.to/lastmile_qr_scan", "android": "https://dc.lft.to/lastmile_qr_scan"}}, {"is_disabled": 0, "fusion_lat": 0.0, "lat": 38.9038945, "type": "electric_scooter", "lon": -77.03871183333334, "is_reserved": 0, "fusion_lon": 0.0, "bike_id": "526d9a7bd8919e9ba682132e8fb1769c", "name": "526d9a7bd8919e9ba682132e8fb1769c", "rental_uris": {"ios": "https://dc.lft.to/lastmile_qr_scan", "android": "https://dc.lft.to/lastmile_qr_scan"}}, {"is_disabled": 0, "fusion_lat": 0.0, "lat": 38.921500333333334, "type": "electric_scooter", "lon": -77.03868783333333, "is_reserved": 0, "fusion_lon": 0.0, "bike_id": "00e214a61c00e50991b8715ca74fcc25", "name": "00e214a61c00e50991b8715ca74fcc25", "rental_uris": {"ios": "https://dc.lft.to/lastmile_qr_scan", "android": "https://dc.lft.to/lastmile_qr_scan"}}, {"is_disabled": 0, "fusion_lat": 0.0, "lat": 38.89250533333333, "type": "electric_scooter", "lon": -76.9432985, "is_reserved": 0, "fusion_lon": 0.0, "bike_id": "6b197ca1ba8cbd107333ea4619473e2b", "name": "6b197ca1ba8cbd107333ea4619473e2b", "rental_uris": {"ios": "https://dc.lft.to/lastmile_qr_scan", "android": "https://dc.lft.to/lastmile_qr_scan"}}, {"is_disabled": 0, "fusion_lat": 0.0, "lat": 38.901421666666664, "type": "electric_scooter", "lon": -76.9979985, "is_reserved": 0, "fusion_lon": 0.0, "bike_id": "45ebe82e820754e77efbc58019ab88c1", "name": "45ebe82e820754e77efbc58019ab88c1", "rental_uris": {"ios": "https://dc.lft.to/lastmile_qr_scan", "android": "https://dc.lft.to/lastmile_qr_scan"}}, {"is_disabled": 0, "fusion_lat": 0.0, "lat": 38.912700666666666, "type": "electric_scooter", "lon": -77.04174283333333, "is_reserved": 0, "fusion_lon": 0.0, "bike_id": "ca5a7d857b44c71361479660947bab3f", "name": "ca5a7d857b44c71361479660947bab3f", "rental_uris": {"ios": "https://dc.lft.to/lastmile_qr_scan", "android": "https://dc.lft.to/lastmile_qr_scan"}}, {"is_disabled": 0, "fusion_lat": 0.0, "lat": 38.91615266666667, "type": "electric_scooter", "lon": -77.0270785, "is_reserved": 0, "fusion_lon": 0.0, "bike_id": "2c82a86482b4c703f0455eb81f4c7008", "name": "2c82a86482b4c703f0455eb81f4c7008", "rental_uris": {"ios": "https://dc.lft.to/lastmile_qr_scan", "android": "https://dc.lft.to/lastmile_qr_scan"}}, {"is_disabled": 0, "fusion_lat": 0.0, "lat": 38.94804583333333, "type": "electric_bike", "lon": -77.00809933333333, "is_reserved": 0, "fusion_lon": 0.0, "bike_id": "f643c7c6e1e830c5663dc295c555beff", "name": "f643c7c6e1e830c5663dc295c555beff", "rental_uris": {"ios": "https://dc.lft.to/lastmile_qr_scan", "android": "https://dc.lft.to/lastmile_qr_scan"}}, {"is_disabled": 0, "fusion_lat": 0.0, "lat": 38.87142, "type": "electric_bike", "lon": -76.93661966666667, "is_reserved": 0, "fusion_lon": 0.0, "bike_id": "e53dd2687310c0e2db2cc0705e5483b0", "name": "e53dd2687310c0e2db2cc0705e5483b0", "rental_uris": {"ios": "https://dc.lft.to/lastmile_qr_scan", "android": "https://dc.lft.to/lastmile_qr_scan"}}, {"is_disabled": 0, "fusion_lat": 0.0, "lat": 38.9535275, "type": "electric_bike", "lon": -76.98089966666667, "is_reserved": 0, "fusion_lon": 0.0, "bike_id": "de5a3c602513b866a9a6b4fc0b5411aa", "name": "de5a3c602513b866a9a6b4fc0b5411aa", "rental_uris": {"ios": "https://dc.lft.to/lastmile_qr_scan", "android": "https://dc.lft.to/lastmile_qr_scan"}}, {"is_disabled": 0, "fusion_lat": 0.0, "lat": 38.90848666666667, "type": "electric_scooter", "lon": -77.024605, "is_reserved": 0, "fusion_lon": 0.0, "bike_id": "2d329c1c795dafb2a9e351b1017bb248", "name": "2d329c1c795dafb2a9e351b1017bb248", "rental_uris": {"ios": "https://dc.lft.to/lastmile_qr_scan", "android": "https://dc.lft.to/lastmile_qr_scan"}}, {"is_disabled": 0, "fusion_lat": 0.0, "lat": 38.896248166666666, "type": "electric_scooter", "lon": -76.9941465, "is_reserved": 0, "fusion_lon": 0.0, "bike_id": "b5324b358d7c66f6a38dbf4a786f1d8b", "name": "b5324b358d7c66f6a38dbf4a786f1d8b", "rental_uris": {"ios": "https://dc.lft.to/lastmile_qr_scan", "android": "https://dc.lft.to/lastmile_qr_scan"}}, {"is_disabled": 0, "fusion_lat": 0.0, "lat": 38.92498283333333, "type": "electric_scooter", "lon": -77.02151933333333, "is_reserved": 0, "fusion_lon": 0.0, "bike_id": "47f10644c716a8a63c1c380e79d40560", "name": "47f10644c716a8a63c1c380e79d40560", "rental_uris": {"ios": "https://dc.lft.to/lastmile_qr_scan", "android": "https://dc.lft.to/lastmile_qr_scan"}}, {"is_disabled": 0, "fusion_lat": 0.0, "lat": 38.899896166666664, "type": "electric_scooter", "lon": -77.00624633333334, "is_reserved": 0, "fusion_lon": 0.0, "bike_id": "8001dfb11fd01044d70f41ec0431ad34", "name": "8001dfb11fd01044d70f41ec0431ad34", "rental_uris": {"ios": "https://dc.lft.to/lastmile_qr_scan", "android": "https://dc.lft.to/lastmile_qr_scan"}}, {"is_disabled": 0, "fusion_lat": 0.0, "lat": 38.901533, "type": "electric_scooter", "lon": -77.02534833333333, "is_reserved": 0, "fusion_lon": 0.0, "bike_id": "f2f151a8bd2b315083922d39efc04d52", "name": "f2f151a8bd2b315083922d39efc04d52", "rental_uris": {"ios": "https://dc.lft.to/lastmile_qr_scan", "android": "https://dc.lft.to/lastmile_qr_scan"}}, {"is_disabled": 0, "fusion_lat": 0.0, "lat": 38.883149, "type": "electric_scooter", "lon": -77.00935033333333, "is_reserved": 0, "fusion_lon": 0.0, "bike_id": "f16dcbf87681cfcb560ba70fd0822019", "name": "f16dcbf87681cfcb560ba70fd0822019", "rental_uris": {"ios": "https://dc.lft.to/lastmile_qr_scan", "android": "https://dc.lft.to/lastmile_qr_scan"}}, {"is_disabled": 0, "fusion_lat": 0.0, "lat": 38.93828933333333, "type": "electric_bike", "lon": -77.03284616666667, "is_reserved": 0, "fusion_lon": 0.0, "bike_id": "f8e540326737fc7c0c95bc88efc5ae55", "name": "f8e540326737fc7c0c95bc88efc5ae55", "rental_uris": {"ios": "https://dc.lft.to/lastmile_qr_scan", "android": "https://dc.lft.to/lastmile_qr_scan"}}, {"is_disabled": 0, "fusion_lat": 0.0, "lat": 38.922904833333334, "type": "electric_scooter", "lon": -77.0319925, "is_reserved": 0, "fusion_lon": 0.0, "bike_id": "7f0a5e464c947899a82d29305510d931", "name": "7f0a5e464c947899a82d29305510d931", "rental_uris": {"ios": "https://dc.lft.to/lastmile_qr_scan", "android": "https://dc.lft.to/lastmile_qr_scan"}}, {"is_disabled": 0, "fusion_lat": 0.0, "lat": 38.908482, "type": "electric_scooter", "lon": -77.019124, "is_reserved": 0, "fusion_lon": 0.0, "bike_id": "fd9d21ee54d5055db8028f84e0731fd1", "name": "fd9d21ee54d5055db8028f84e0731fd1", "rental_uris": {"ios": "https://dc.lft.to/lastmile_qr_scan", "android": "https://dc.lft.to/lastmile_qr_scan"}}, {"is_disabled": 0, "fusion_lat": 0.0, "lat": 38.8991695, "type": "electric_scooter", "lon": -77.03297666666667, "is_reserved": 0, "fusion_lon": 0.0, "bike_id": "24d605766842b5f7e9054660f5aaf9b2", "name": "24d605766842b5f7e9054660f5aaf9b2", "rental_uris": {"ios": "https://dc.lft.to/lastmile_qr_scan", "android": "https://dc.lft.to/lastmile_qr_scan"}}, {"is_disabled": 0, "fusion_lat": 0.0, "lat": 38.875513, "type": "electric_scooter", "lon": -77.00064266666666, "is_reserved": 0, "fusion_lon": 0.0, "bike_id": "1336599423ca77b1085b0a5870814a71", "name": "1336599423ca77b1085b0a5870814a71", "rental_uris": {"ios": "https://dc.lft.to/lastmile_qr_scan", "android": "https://dc.lft.to/lastmile_qr_scan"}}, {"is_disabled": 0, "fusion_lat": 0.0, "lat": 38.9035755, "type": "electric_scooter", "lon": -77.03644516666667, "is_reserved": 0, "fusion_lon": 0.0, "bike_id": "7b855f72ed274b44380c92b025263ddd", "name": "7b855f72ed274b44380c92b025263ddd", "rental_uris": {"ios": "https://dc.lft.to/lastmile_qr_scan", "android": "https://dc.lft.to/lastmile_qr_scan"}}, {"is_disabled": 0, "fusion_lat": 0.0, "lat": 38.918304166666665, "type": "electric_scooter", "lon": -77.03523233333334, "is_reserved": 0, "fusion_lon": 0.0, "bike_id": "50d683179054c9718e3f2afae046771f", "name": "50d683179054c9718e3f2afae046771f", "rental_uris": {"ios": "https://dc.lft.to/lastmile_qr_scan", "android": "https://dc.lft.to/lastmile_qr_scan"}}, {"is_disabled": 0, "fusion_lat": 0.0, "lat": 38.900730333333335, "type": "electric_scooter", "lon": -77.01294066666667, "is_reserved": 0, "fusion_lon": 0.0, "bike_id": "fd3084054f9ef0af2ed64eec8b899c9a", "name": "fd3084054f9ef0af2ed64eec8b899c9a", "rental_uris": {"ios": "https://dc.lft.to/lastmile_qr_scan", "android": "https://dc.lft.to/lastmile_qr_scan"}}, {"is_disabled": 0, "fusion_lat": 0.0, "lat": 38.886006333333334, "type": "electric_scooter", "lon": -77.04511116666667, "is_reserved": 0, "fusion_lon": 0.0, "bike_id": "c8e794949db1eb78d48ce8189728f570", "name": "c8e794949db1eb78d48ce8189728f570", "rental_uris": {"ios": "https://dc.lft.to/lastmile_qr_scan", "android": "https://dc.lft.to/lastmile_qr_scan"}}, {"is_disabled": 0, "fusion_lat": 0.0, "lat": 38.936110166666666, "type": "electric_scooter", "lon": -77.03794983333333, "is_reserved": 0, "fusion_lon": 0.0, "bike_id": "d817e01ba352211ec4108c5e4541f556", "name": "d817e01ba352211ec4108c5e4541f556", "rental_uris": {"ios": "https://dc.lft.to/lastmile_qr_scan", "android": "https://dc.lft.to/lastmile_qr_scan"}}, {"is_disabled": 0, "fusion_lat": 0.0, "lat": 38.95637166666667, "type": "electric_scooter", "lon": -77.03303133333333, "is_reserved": 0, "fusion_lon": 0.0, "bike_id": "3532467d9fc4d50d3568b6408967a92b", "name": "3532467d9fc4d50d3568b6408967a92b", "rental_uris": {"ios": "https://dc.lft.to/lastmile_qr_scan", "android": "https://dc.lft.to/lastmile_qr_scan"}}, {"is_disabled": 0, "fusion_lat": 0.0, "lat": 38.92679733333333, "type": "electric_scooter", "lon": -77.03053533333333, "is_reserved": 0, "fusion_lon": 0.0, "bike_id": "34e49b3c8cd8723e9ba23ea0ad0fa4b8", "name": "34e49b3c8cd8723e9ba23ea0ad0fa4b8", "rental_uris": {"ios": "https://dc.lft.to/lastmile_qr_scan", "android": "https://dc.lft.to/lastmile_qr_scan"}}, {"is_disabled": 0, "fusion_lat": 0.0, "lat": 38.927197, "type": "electric_scooter", "lon": -77.04115466666667, "is_reserved": 0, "fusion_lon": 0.0, "bike_id": "0200c3639cd6cf1a46431df757dae440", "name": "0200c3639cd6cf1a46431df757dae440", "rental_uris": {"ios": "https://dc.lft.to/lastmile_qr_scan", "android": "https://dc.lft.to/lastmile_qr_scan"}}, {"is_disabled": 0, "fusion_lat": 0.0, "lat": 38.8960515, "type": "electric_scooter", "lon": -77.031694, "is_reserved": 0, "fusion_lon": 0.0, "bike_id": "0ccc4031ee9194999b40f377c0504aad", "name": "0ccc4031ee9194999b40f377c0504aad", "rental_uris": {"ios": "https://dc.lft.to/lastmile_qr_scan", "android": "https://dc.lft.to/lastmile_qr_scan"}}, {"is_disabled": 0, "fusion_lat": 0.0, "lat": 38.92421066666667, "type": "electric_scooter", "lon": -77.0562, "is_reserved": 0, "fusion_lon": 0.0, "bike_id": "a49f209819a6212993bfac082d168e79", "name": "a49f209819a6212993bfac082d168e79", "rental_uris": {"ios": "https://dc.lft.to/lastmile_qr_scan", "android": "https://dc.lft.to/lastmile_qr_scan"}}, {"is_disabled": 0, "fusion_lat": 0.0, "lat": 38.84582266666666, "type": "electric_scooter", "lon": -76.981613, "is_reserved": 0, "fusion_lon": 0.0, "bike_id": "57189cea8b7195817679cc28df1b8d41", "name": "57189cea8b7195817679cc28df1b8d41", "rental_uris": {"ios": "https://dc.lft.to/lastmile_qr_scan", "android": "https://dc.lft.to/lastmile_qr_scan"}}, {"is_disabled": 0, "fusion_lat": 0.0, "lat": 38.901262, "type": "electric_scooter", "lon": -77.02181033333333, "is_reserved": 0, "fusion_lon": 0.0, "bike_id": "a9a40863bc5d03bc2a7ba28557fd5c45", "name": "a9a40863bc5d03bc2a7ba28557fd5c45", "rental_uris": {"ios": "https://dc.lft.to/lastmile_qr_scan", "android": "https://dc.lft.to/lastmile_qr_scan"}}, {"is_disabled": 0, "fusion_lat": 0.0, "lat": 38.90289516666667, "type": "electric_scooter", "lon": -77.03840366666667, "is_reserved": 0, "fusion_lon": 0.0, "bike_id": "3dfb2540b895f04ee8aed0a65ebc0d1c", "name": "3dfb2540b895f04ee8aed0a65ebc0d1c", "rental_uris": {"ios": "https://dc.lft.to/lastmile_qr_scan", "android": "https://dc.lft.to/lastmile_qr_scan"}}, {"is_disabled": 0, "fusion_lat": 0.0, "lat": 38.93378116666667, "type": "electric_scooter", "lon": -77.03259983333334, "is_reserved": 0, "fusion_lon": 0.0, "bike_id": "4a38f07c35f30430cfebccfe27bbf410", "name": "4a38f07c35f30430cfebccfe27bbf410", "rental_uris": {"ios": "https://dc.lft.to/lastmile_qr_scan", "android": "https://dc.lft.to/lastmile_qr_scan"}}, {"is_disabled": 0, "fusion_lat": 0.0, "lat": 38.92182116666667, "type": "electric_scooter", "lon": -77.047083, "is_reserved": 0, "fusion_lon": 0.0, "bike_id": "e6ea6c8e06b0d0769148fe6e02ce9f71", "name": "e6ea6c8e06b0d0769148fe6e02ce9f71", "rental_uris": {"ios": "https://dc.lft.to/lastmile_qr_scan", "android": "https://dc.lft.to/lastmile_qr_scan"}}, {"is_disabled": 0, "fusion_lat": 0.0, "lat": 38.9130425, "type": "electric_bike", "lon": -77.08291683333333, "is_reserved": 0, "fusion_lon": 0.0, "bike_id": "c102e245472fa848fb4949fce74b9e36", "name": "c102e245472fa848fb4949fce74b9e36", "rental_uris": {"ios": "https://dc.lft.to/lastmile_qr_scan", "android": "https://dc.lft.to/lastmile_qr_scan"}}, {"is_disabled": 0, "fusion_lat": 0.0, "lat": 38.8980325, "type": "electric_scooter", "lon": -77.018982, "is_reserved": 0, "fusion_lon": 0.0, "bike_id": "1f121f30b762dcc592ea73aa612bba5d", "name": "1f121f30b762dcc592ea73aa612bba5d", "rental_uris": {"ios": "https://dc.lft.to/lastmile_qr_scan", "android": "https://dc.lft.to/lastmile_qr_scan"}}, {"is_disabled": 0, "fusion_lat": 0.0, "lat": 38.8792165, "type": "electric_scooter", "lon": -76.99251916666667, "is_reserved": 0, "fusion_lon": 0.0, "bike_id": "3e0c95aca3aa362a8a3029e03b5f47f2", "name": "3e0c95aca3aa362a8a3029e03b5f47f2", "rental_uris": {"ios": "https://dc.lft.to/lastmile_qr_scan", "android": "https://dc.lft.to/lastmile_qr_scan"}}, {"is_disabled": 0, "fusion_lat": 0.0, "lat": 38.92290466666667, "type": "electric_scooter", "lon": -77.041479, "is_reserved": 0, "fusion_lon": 0.0, "bike_id": "e5c1c5b45ac46a3e8f037dda69427487", "name": "e5c1c5b45ac46a3e8f037dda69427487", "rental_uris": {"ios": "https://dc.lft.to/lastmile_qr_scan", "android": "https://dc.lft.to/lastmile_qr_scan"}}, {"is_disabled": 0, "fusion_lat": 0.0, "lat": 38.93794466666667, "type": "electric_scooter", "lon": -77.06004783333333, "is_reserved": 0, "fusion_lon": 0.0, "bike_id": "5f610a582e065ce8a373f7bfd4944395", "name": "5f610a582e065ce8a373f7bfd4944395", "rental_uris": {"ios": "https://dc.lft.to/lastmile_qr_scan", "android": "https://dc.lft.to/lastmile_qr_scan"}}, {"is_disabled": 0, "fusion_lat": 0.0, "lat": 38.912466333333334, "type": "electric_scooter", "lon": -77.02226616666667, "is_reserved": 0, "fusion_lon": 0.0, "bike_id": "dc441231c14095b41688d7b1f6937e6b", "name": "dc441231c14095b41688d7b1f6937e6b", "rental_uris": {"ios": "https://dc.lft.to/lastmile_qr_scan", "android": "https://dc.lft.to/lastmile_qr_scan"}}, {"is_disabled": 0, "fusion_lat": 0.0, "lat": 38.9169775, "type": "electric_scooter", "lon": -77.01232766666666, "is_reserved": 0, "fusion_lon": 0.0, "bike_id": "755b61b28c2d1eccccf41690ebeb6106", "name": "755b61b28c2d1eccccf41690ebeb6106", "rental_uris": {"ios": "https://dc.lft.to/lastmile_qr_scan", "android": "https://dc.lft.to/lastmile_qr_scan"}}, {"is_disabled": 0, "fusion_lat": 0.0, "lat": 38.93366966666667, "type": "electric_scooter", "lon": -77.03447783333333, "is_reserved": 0, "fusion_lon": 0.0, "bike_id": "8d9a449a4ea6b3ea09f42b7687126fab", "name": "8d9a449a4ea6b3ea09f42b7687126fab", "rental_uris": {"ios": "https://dc.lft.to/lastmile_qr_scan", "android": "https://dc.lft.to/lastmile_qr_scan"}}, {"is_disabled": 0, "fusion_lat": 0.0, "lat": 38.91331683333333, "type": "electric_scooter", "lon": -77.0481665, "is_reserved": 0, "fusion_lon": 0.0, "bike_id": "5aa7ca525e532826ff77cfcb2236c56e", "name": "5aa7ca525e532826ff77cfcb2236c56e", "rental_uris": {"ios": "https://dc.lft.to/lastmile_qr_scan", "android": "https://dc.lft.to/lastmile_qr_scan"}}, {"is_disabled": 0, "fusion_lat": 0.0, "lat": 38.921062166666665, "type": "electric_scooter", "lon": -77.0422615, "is_reserved": 0, "fusion_lon": 0.0, "bike_id": "179e4c2ac20d3d09af3ccd3d8b1ca210", "name": "179e4c2ac20d3d09af3ccd3d8b1ca210", "rental_uris": {"ios": "https://dc.lft.to/lastmile_qr_scan", "android": "https://dc.lft.to/lastmile_qr_scan"}}, {"is_disabled": 0, "fusion_lat": 0.0, "lat": 38.91408533333333, "type": "electric_scooter", "lon": -77.020457, "is_reserved": 0, "fusion_lon": 0.0, "bike_id": "0a2090ec86483dbd73a0813d3b366400", "name": "0a2090ec86483dbd73a0813d3b366400", "rental_uris": {"ios": "https://dc.lft.to/lastmile_qr_scan", "android": "https://dc.lft.to/lastmile_qr_scan"}}, {"is_disabled": 0, "fusion_lat": 0.0, "lat": 38.9670215, "type": "electric_bike", "lon": -77.10225533333333, "is_reserved": 0, "fusion_lon": 0.0, "bike_id": "89edd667789da89d52fe8088ce4db405", "name": "89edd667789da89d52fe8088ce4db405", "rental_uris": {"ios": "https://dc.lft.to/lastmile_qr_scan", "android": "https://dc.lft.to/lastmile_qr_scan"}}, {"is_disabled": 0, "fusion_lat": 0.0, "lat": 38.897677333333334, "type": "electric_scooter", "lon": -77.02693033333334, "is_reserved": 0, "fusion_lon": 0.0, "bike_id": "488d6f0e4f427fad78ca1773253c1c21", "name": "488d6f0e4f427fad78ca1773253c1c21", "rental_uris": {"ios": "https://dc.lft.to/lastmile_qr_scan", "android": "https://dc.lft.to/lastmile_qr_scan"}}, {"is_disabled": 0, "fusion_lat": 0.0, "lat": 38.861621666666665, "type": "electric_bike", "lon": -77.13092133333333, "is_reserved": 0, "fusion_lon": 0.0, "bike_id": "1f5dd04835aa1eff9d1da281cf851e9f", "name": "1f5dd04835aa1eff9d1da281cf851e9f", "rental_uris": {"ios": "https://dc.lft.to/lastmile_qr_scan", "android": "https://dc.lft.to/lastmile_qr_scan"}}, {"is_disabled": 0, "fusion_lat": 0.0, "lat": 38.902002833333334, "type": "electric_scooter", "lon": -77.02173166666667, "is_reserved": 0, "fusion_lon": 0.0, "bike_id": "13b4369c3692b877be7de666434fdd0f", "name": "13b4369c3692b877be7de666434fdd0f", "rental_uris": {"ios": "https://dc.lft.to/lastmile_qr_scan", "android": "https://dc.lft.to/lastmile_qr_scan"}}, {"is_disabled": 0, "fusion_lat": 0.0, "lat": 38.91982616666667, "type": "electric_scooter", "lon": -77.04174966666666, "is_reserved": 0, "fusion_lon": 0.0, "bike_id": "ee66433ebde4a7ca37a722046dc2c399", "name": "ee66433ebde4a7ca37a722046dc2c399", "rental_uris": {"ios": "https://dc.lft.to/lastmile_qr_scan", "android": "https://dc.lft.to/lastmile_qr_scan"}}, {"is_disabled": 0, "fusion_lat": 0.0, "lat": 38.89521583333333, "type": "electric_scooter", "lon": -76.9808215, "is_reserved": 0, "fusion_lon": 0.0, "bike_id": "77d3ca4097673b0e9e65bd6eb0fb593b", "name": "77d3ca4097673b0e9e65bd6eb0fb593b", "rental_uris": {"ios": "https://dc.lft.to/lastmile_qr_scan", "android": "https://dc.lft.to/lastmile_qr_scan"}}, {"is_disabled": 0, "fusion_lat": 0.0, "lat": 38.93239, "type": "electric_bike", "lon": -76.974217, "is_reserved": 0, "fusion_lon": 0.0, "bike_id": "c73b3d119b3892c01bb7688c7562ada4", "name": "c73b3d119b3892c01bb7688c7562ada4", "rental_uris": {"ios": "https://dc.lft.to/lastmile_qr_scan", "android": "https://dc.lft.to/lastmile_qr_scan"}}, {"is_disabled": 0, "fusion_lat": 0.0, "lat": 38.90362916666667, "type": "electric_scooter", "lon": -77.041877, "is_reserved": 0, "fusion_lon": 0.0, "bike_id": "8db875b79cfe43fcd56496735fe9ac5a", "name": "8db875b79cfe43fcd56496735fe9ac5a", "rental_uris": {"ios": "https://dc.lft.to/lastmile_qr_scan", "android": "https://dc.lft.to/lastmile_qr_scan"}}, {"is_disabled": 0, "fusion_lat": 0.0, "lat": 38.905763666666665, "type": "electric_scooter", "lon": -77.02208116666667, "is_reserved": 0, "fusion_lon": 0.0, "bike_id": "839559a8914e6ae18e2ee70d6045911e", "name": "839559a8914e6ae18e2ee70d6045911e", "rental_uris": {"ios": "https://dc.lft.to/lastmile_qr_scan", "android": "https://dc.lft.to/lastmile_qr_scan"}}, {"is_disabled": 0, "fusion_lat": 0.0, "lat": 38.85721616666667, "type": "electric_scooter", "lon": -76.98088283333334, "is_reserved": 0, "fusion_lon": 0.0, "bike_id": "becd31b497d612c3e1f3d67a96f2ab7f", "name": "becd31b497d612c3e1f3d67a96f2ab7f", "rental_uris": {"ios": "https://dc.lft.to/lastmile_qr_scan", "android": "https://dc.lft.to/lastmile_qr_scan"}}, {"is_disabled": 0, "fusion_lat": 0.0, "lat": 38.91787983333333, "type": "electric_scooter", "lon": -77.03652166666667, "is_reserved": 0, "fusion_lon": 0.0, "bike_id": "0d3ab7c5371b00ae5c63e38b4428a66e", "name": "0d3ab7c5371b00ae5c63e38b4428a66e", "rental_uris": {"ios": "https://dc.lft.to/lastmile_qr_scan", "android": "https://dc.lft.to/lastmile_qr_scan"}}, {"is_disabled": 0, "fusion_lat": 0.0, "lat": 38.89469533333333, "type": "electric_scooter", "lon": -77.02169116666667, "is_reserved": 0, "fusion_lon": 0.0, "bike_id": "c6a85b2b8ed5962e4a14d9537f986ce6", "name": "c6a85b2b8ed5962e4a14d9537f986ce6", "rental_uris": {"ios": "https://dc.lft.to/lastmile_qr_scan", "android": "https://dc.lft.to/lastmile_qr_scan"}}, {"is_disabled": 0, "fusion_lat": 0.0, "lat": 38.876282, "type": "electric_scooter", "lon": -76.96524733333334, "is_reserved": 0, "fusion_lon": 0.0, "bike_id": "f1b4eb96f8d4494348b30d639b4c8860", "name": "f1b4eb96f8d4494348b30d639b4c8860", "rental_uris": {"ios": "https://dc.lft.to/lastmile_qr_scan", "android": "https://dc.lft.to/lastmile_qr_scan"}}, {"is_disabled": 0, "fusion_lat": 0.0, "lat": 38.9417425, "type": "electric_scooter", "lon": -77.02501116666667, "is_reserved": 0, "fusion_lon": 0.0, "bike_id": "edaf00a95fe11b45fe4128cdbc3733ff", "name": "edaf00a95fe11b45fe4128cdbc3733ff", "rental_uris": {"ios": "https://dc.lft.to/lastmile_qr_scan", "android": "https://dc.lft.to/lastmile_qr_scan"}}, {"is_disabled": 0, "fusion_lat": 0.0, "lat": 38.902776, "type": "electric_scooter", "lon": -77.03378666666667, "is_reserved": 0, "fusion_lon": 0.0, "bike_id": "1b1978e75d096a03676ef12767b5bc16", "name": "1b1978e75d096a03676ef12767b5bc16", "rental_uris": {"ios": "https://dc.lft.to/lastmile_qr_scan", "android": "https://dc.lft.to/lastmile_qr_scan"}}, {"is_disabled": 0, "fusion_lat": 0.0, "lat": 38.90265733333333, "type": "electric_scooter", "lon": -77.019645, "is_reserved": 0, "fusion_lon": 0.0, "bike_id": "46fde4b577beb9aa9612162ae279231d", "name": "46fde4b577beb9aa9612162ae279231d", "rental_uris": {"ios": "https://dc.lft.to/lastmile_qr_scan", "android": "https://dc.lft.to/lastmile_qr_scan"}}, {"is_disabled": 0, "fusion_lat": 0.0, "lat": 38.842935, "type": "electric_scooter", "lon": -76.99945933333333, "is_reserved": 0, "fusion_lon": 0.0, "bike_id": "99ad4a2306cc91b71e375d4ede2b65d3", "name": "99ad4a2306cc91b71e375d4ede2b65d3", "rental_uris": {"ios": "https://dc.lft.to/lastmile_qr_scan", "android": "https://dc.lft.to/lastmile_qr_scan"}}, {"is_disabled": 0, "fusion_lat": 0.0, "lat": 38.902367, "type": "electric_scooter", "lon": -77.0174395, "is_reserved": 0, "fusion_lon": 0.0, "bike_id": "988c76e8dff5635955dfc872e6641268", "name": "988c76e8dff5635955dfc872e6641268", "rental_uris": {"ios": "https://dc.lft.to/lastmile_qr_scan", "android": "https://dc.lft.to/lastmile_qr_scan"}}, {"is_disabled": 0, "fusion_lat": 0.0, "lat": 38.897201, "type": "electric_scooter", "lon": -77.02689466666666, "is_reserved": 0, "fusion_lon": 0.0, "bike_id": "bef0e476bdf9df9d17459e85c6f03909", "name": "bef0e476bdf9df9d17459e85c6f03909", "rental_uris": {"ios": "https://dc.lft.to/lastmile_qr_scan", "android": "https://dc.lft.to/lastmile_qr_scan"}}, {"is_disabled": 0, "fusion_lat": 0.0, "lat": 38.933188666666666, "type": "electric_scooter", "lon": -77.03284733333334, "is_reserved": 0, "fusion_lon": 0.0, "bike_id": "1b0e2f29d1826e91d598332711d97d0e", "name": "1b0e2f29d1826e91d598332711d97d0e", "rental_uris": {"ios": "https://dc.lft.to/lastmile_qr_scan", "android": "https://dc.lft.to/lastmile_qr_scan"}}, {"is_disabled": 0, "fusion_lat": 0.0, "lat": 38.95557683333333, "type": "electric_bike", "lon": -76.93544816666666, "is_reserved": 0, "fusion_lon": 0.0, "bike_id": "2e8d184529baaa6ada57295b903f8b6c", "name": "2e8d184529baaa6ada57295b903f8b6c", "rental_uris": {"ios": "https://dc.lft.to/lastmile_qr_scan", "android": "https://dc.lft.to/lastmile_qr_scan"}}, {"is_disabled": 0, "fusion_lat": 0.0, "lat": 38.937197166666664, "type": "electric_scooter", "lon": -77.03264083333333, "is_reserved": 0, "fusion_lon": 0.0, "bike_id": "fcf2d13bdf96d6635dda598506769faf", "name": "fcf2d13bdf96d6635dda598506769faf", "rental_uris": {"ios": "https://dc.lft.to/lastmile_qr_scan", "android": "https://dc.lft.to/lastmile_qr_scan"}}, {"is_disabled": 0, "fusion_lat": 0.0, "lat": 38.92131883333333, "type": "electric_scooter", "lon": -77.04425016666667, "is_reserved": 0, "fusion_lon": 0.0, "bike_id": "aa4f3c8299db6f404dd9ad90312941d4", "name": "aa4f3c8299db6f404dd9ad90312941d4", "rental_uris": {"ios": "https://dc.lft.to/lastmile_qr_scan", "android": "https://dc.lft.to/lastmile_qr_scan"}}, {"is_disabled": 0, "fusion_lat": 0.0, "lat": 38.86347833333333, "type": "electric_scooter", "lon": -76.98999566666667, "is_reserved": 0, "fusion_lon": 0.0, "bike_id": "5f5b39f9b5893f3064331a0aeb206220", "name": "5f5b39f9b5893f3064331a0aeb206220", "rental_uris": {"ios": "https://dc.lft.to/lastmile_qr_scan", "android": "https://dc.lft.to/lastmile_qr_scan"}}, {"is_disabled": 0, "fusion_lat": 0.0, "lat": 38.8984305, "type": "electric_scooter", "lon": -77.03288333333333, "is_reserved": 0, "fusion_lon": 0.0, "bike_id": "3ce3fab4ad05cd4f4c4f2dd25c38d4cb", "name": "3ce3fab4ad05cd4f4c4f2dd25c38d4cb", "rental_uris": {"ios": "https://dc.lft.to/lastmile_qr_scan", "android": "https://dc.lft.to/lastmile_qr_scan"}}, {"is_disabled": 0, "fusion_lat": 0.0, "lat": 38.9279055, "type": "electric_scooter", "lon": -77.02723183333333, "is_reserved": 0, "fusion_lon": 0.0, "bike_id": "e7f83e1f893340fe197177738b48a54f", "name": "e7f83e1f893340fe197177738b48a54f", "rental_uris": {"ios": "https://dc.lft.to/lastmile_qr_scan", "android": "https://dc.lft.to/lastmile_qr_scan"}}, {"is_disabled": 0, "fusion_lat": 0.0, "lat": 38.9060655, "type": "electric_scooter", "lon": -77.0133025, "is_reserved": 0, "fusion_lon": 0.0, "bike_id": "55fe2cc07441e381246237efdd1ad6bb", "name": "55fe2cc07441e381246237efdd1ad6bb", "rental_uris": {"ios": "https://dc.lft.to/lastmile_qr_scan", "android": "https://dc.lft.to/lastmile_qr_scan"}}, {"is_disabled": 0, "fusion_lat": 0.0, "lat": 38.90718366666667, "type": "electric_scooter", "lon": -77.02503933333334, "is_reserved": 0, "fusion_lon": 0.0, "bike_id": "5a61c26a31e9749ce5a2b5a77d237964", "name": "5a61c26a31e9749ce5a2b5a77d237964", "rental_uris": {"ios": "https://dc.lft.to/lastmile_qr_scan", "android": "https://dc.lft.to/lastmile_qr_scan"}}, {"is_disabled": 0, "fusion_lat": 0.0, "lat": 38.90333866666667, "type": "electric_scooter", "lon": -77.06591616666667, "is_reserved": 0, "fusion_lon": 0.0, "bike_id": "dc3c5c7f3d13e7de2ba02d7b56979763", "name": "dc3c5c7f3d13e7de2ba02d7b56979763", "rental_uris": {"ios": "https://dc.lft.to/lastmile_qr_scan", "android": "https://dc.lft.to/lastmile_qr_scan"}}, {"is_disabled": 0, "fusion_lat": 0.0, "lat": 38.89914433333333, "type": "electric_scooter", "lon": -76.93381466666666, "is_reserved": 0, "fusion_lon": 0.0, "bike_id": "39c56ebf131f00b5d61301854b34c492", "name": "39c56ebf131f00b5d61301854b34c492", "rental_uris": {"ios": "https://dc.lft.to/lastmile_qr_scan", "android": "https://dc.lft.to/lastmile_qr_scan"}}, {"is_disabled": 0, "fusion_lat": 0.0, "lat": 38.8429325, "type": "electric_scooter", "lon": -76.99949416666666, "is_reserved": 0, "fusion_lon": 0.0, "bike_id": "d4616217763c8c996b5212808ac36bda", "name": "d4616217763c8c996b5212808ac36bda", "rental_uris": {"ios": "https://dc.lft.to/lastmile_qr_scan", "android": "https://dc.lft.to/lastmile_qr_scan"}}, {"is_disabled": 0, "fusion_lat": 0.0, "lat": 38.908607333333336, "type": "electric_bike", "lon": -77.08076216666667, "is_reserved": 0, "fusion_lon": 0.0, "bike_id": "73c7116e12fe308102520b8140e26c25", "name": "73c7116e12fe308102520b8140e26c25", "rental_uris": {"ios": "https://dc.lft.to/lastmile_qr_scan", "android": "https://dc.lft.to/lastmile_qr_scan"}}, {"is_disabled": 0, "fusion_lat": 0.0, "lat": 38.935313, "type": "electric_scooter", "lon": -77.0236245, "is_reserved": 0, "fusion_lon": 0.0, "bike_id": "cf866e2b4d0130669941871dde8d03fa", "name": "cf866e2b4d0130669941871dde8d03fa", "rental_uris": {"ios": "https://dc.lft.to/lastmile_qr_scan", "android": "https://dc.lft.to/lastmile_qr_scan"}}, {"is_disabled": 0, "fusion_lat": 0.0, "lat": 38.9110205, "type": "electric_scooter", "lon": -77.04200616666667, "is_reserved": 0, "fusion_lon": 0.0, "bike_id": "ebd6d616e70b05cb4caa6bf023a770aa", "name": "ebd6d616e70b05cb4caa6bf023a770aa", "rental_uris": {"ios": "https://dc.lft.to/lastmile_qr_scan", "android": "https://dc.lft.to/lastmile_qr_scan"}}, {"is_disabled": 0, "fusion_lat": 0.0, "lat": 38.882361833333334, "type": "electric_scooter", "lon": -76.99087733333333, "is_reserved": 0, "fusion_lon": 0.0, "bike_id": "ec8af5558f68c764da140550e10f0f1c", "name": "ec8af5558f68c764da140550e10f0f1c", "rental_uris": {"ios": "https://dc.lft.to/lastmile_qr_scan", "android": "https://dc.lft.to/lastmile_qr_scan"}}, {"is_disabled": 0, "fusion_lat": 0.0, "lat": 38.95640383333333, "type": "electric_scooter", "lon": -76.99792966666666, "is_reserved": 0, "fusion_lon": 0.0, "bike_id": "bb69ede86c6365039c867a4431809e5a", "name": "bb69ede86c6365039c867a4431809e5a", "rental_uris": {"ios": "https://dc.lft.to/lastmile_qr_scan", "android": "https://dc.lft.to/lastmile_qr_scan"}}, {"is_disabled": 0, "fusion_lat": 0.0, "lat": 38.88596016666666, "type": "electric_scooter", "lon": -77.01957083333333, "is_reserved": 0, "fusion_lon": 0.0, "bike_id": "0cdc6d26acf573480a377e80d0ad81b9", "name": "0cdc6d26acf573480a377e80d0ad81b9", "rental_uris": {"ios": "https://dc.lft.to/lastmile_qr_scan", "android": "https://dc.lft.to/lastmile_qr_scan"}}, {"is_disabled": 0, "fusion_lat": 0.0, "lat": 38.879724333333336, "type": "electric_scooter", "lon": -76.985384, "is_reserved": 0, "fusion_lon": 0.0, "bike_id": "66603c7369a97e051212ff0b9ccafb93", "name": "66603c7369a97e051212ff0b9ccafb93", "rental_uris": {"ios": "https://dc.lft.to/lastmile_qr_scan", "android": "https://dc.lft.to/lastmile_qr_scan"}}, {"is_disabled": 0, "fusion_lat": 0.0, "lat": 38.991506, "type": "electric_scooter", "lon": -77.04734033333334, "is_reserved": 0, "fusion_lon": 0.0, "bike_id": "081ff42cc8ad686a54576ef55b2e1349", "name": "081ff42cc8ad686a54576ef55b2e1349", "rental_uris": {"ios": "https://dc.lft.to/lastmile_qr_scan", "android": "https://dc.lft.to/lastmile_qr_scan"}}, {"is_disabled": 0, "fusion_lat": 0.0, "lat": 38.887495, "type": "electric_scooter", "lon": -77.02010866666667, "is_reserved": 0, "fusion_lon": 0.0, "bike_id": "8d3fce1961900a3b416c6340e41e8a7b", "name": "8d3fce1961900a3b416c6340e41e8a7b", "rental_uris": {"ios": "https://dc.lft.to/lastmile_qr_scan", "android": "https://dc.lft.to/lastmile_qr_scan"}}, {"is_disabled": 0, "fusion_lat": 0.0, "lat": 38.90419266666667, "type": "electric_scooter", "lon": -77.05322116666666, "is_reserved": 0, "fusion_lon": 0.0, "bike_id": "8d8767775075ff0250f44d2ad867b994", "name": "8d8767775075ff0250f44d2ad867b994", "rental_uris": {"ios": "https://dc.lft.to/lastmile_qr_scan", "android": "https://dc.lft.to/lastmile_qr_scan"}}, {"is_disabled": 0, "fusion_lat": 0.0, "lat": 38.919861833333336, "type": "electric_scooter", "lon": -76.97310716666667, "is_reserved": 0, "fusion_lon": 0.0, "bike_id": "2c5dfddd848713dd592c054c44d56bc5", "name": "2c5dfddd848713dd592c054c44d56bc5", "rental_uris": {"ios": "https://dc.lft.to/lastmile_qr_scan", "android": "https://dc.lft.to/lastmile_qr_scan"}}, {"is_disabled": 0, "fusion_lat": 0.0, "lat": 38.9602395, "type": "electric_bike", "lon": -77.01730616666667, "is_reserved": 0, "fusion_lon": 0.0, "bike_id": "37f373172d753badc8414ee370ad102f", "name": "37f373172d753badc8414ee370ad102f", "rental_uris": {"ios": "https://dc.lft.to/lastmile_qr_scan", "android": "https://dc.lft.to/lastmile_qr_scan"}}, {"is_disabled": 0, "fusion_lat": 0.0, "lat": 38.936075, "type": "electric_scooter", "lon": -77.03761683333333, "is_reserved": 0, "fusion_lon": 0.0, "bike_id": "5410359405cb779ed761a449745b93f5", "name": "5410359405cb779ed761a449745b93f5", "rental_uris": {"ios": "https://dc.lft.to/lastmile_qr_scan", "android": "https://dc.lft.to/lastmile_qr_scan"}}, {"is_disabled": 0, "fusion_lat": 0.0, "lat": 39.029362166666665, "type": "electric_bike", "lon": -77.049279, "is_reserved": 0, "fusion_lon": 0.0, "bike_id": "8668985c6b35cd950184b239fc49dd4a", "name": "8668985c6b35cd950184b239fc49dd4a", "rental_uris": {"ios": "https://dc.lft.to/lastmile_qr_scan", "android": "https://dc.lft.to/lastmile_qr_scan"}}, {"is_disabled": 0, "fusion_lat": 0.0, "lat": 38.89222566666667, "type": "electric_scooter", "lon": -77.02444016666666, "is_reserved": 0, "fusion_lon": 0.0, "bike_id": "0b6037629d6d64fddf860e09b41fe479", "name": "0b6037629d6d64fddf860e09b41fe479", "rental_uris": {"ios": "https://dc.lft.to/lastmile_qr_scan", "android": "https://dc.lft.to/lastmile_qr_scan"}}, {"is_disabled": 0, "fusion_lat": 0.0, "lat": 38.9443955, "type": "electric_scooter", "lon": -77.06351266666667, "is_reserved": 0, "fusion_lon": 0.0, "bike_id": "bccc5956db3139e1ed32d5c826c79ea9", "name": "bccc5956db3139e1ed32d5c826c79ea9", "rental_uris": {"ios": "https://dc.lft.to/lastmile_qr_scan", "android": "https://dc.lft.to/lastmile_qr_scan"}}, {"is_disabled": 0, "fusion_lat": 0.0, "lat": 38.90491983333333, "type": "electric_scooter", "lon": -77.06012233333334, "is_reserved": 0, "fusion_lon": 0.0, "bike_id": "68b81cd41ba73c8162f8f370c55ffd50", "name": "68b81cd41ba73c8162f8f370c55ffd50", "rental_uris": {"ios": "https://dc.lft.to/lastmile_qr_scan", "android": "https://dc.lft.to/lastmile_qr_scan"}}, {"is_disabled": 0, "fusion_lat": 0.0, "lat": 39.03883966666667, "type": "electric_bike", "lon": -76.990413, "is_reserved": 0, "fusion_lon": 0.0, "bike_id": "776c57a470060123db358df1f2718a68", "name": "776c57a470060123db358df1f2718a68", "rental_uris": {"ios": "https://dc.lft.to/lastmile_qr_scan", "android": "https://dc.lft.to/lastmile_qr_scan"}}, {"is_disabled": 0, "fusion_lat": 0.0, "lat": 38.94227983333333, "type": "electric_scooter", "lon": -77.01533166666667, "is_reserved": 0, "fusion_lon": 0.0, "bike_id": "633c075fcf0a8c8ee490b7c018391ff9", "name": "633c075fcf0a8c8ee490b7c018391ff9", "rental_uris": {"ios": "https://dc.lft.to/lastmile_qr_scan", "android": "https://dc.lft.to/lastmile_qr_scan"}}, {"is_disabled": 0, "fusion_lat": 0.0, "lat": 38.8976445, "type": "electric_scooter", "lon": -76.98556433333333, "is_reserved": 0, "fusion_lon": 0.0, "bike_id": "318f6592b1345ffa690055ff4c37ec93", "name": "318f6592b1345ffa690055ff4c37ec93", "rental_uris": {"ios": "https://dc.lft.to/lastmile_qr_scan", "android": "https://dc.lft.to/lastmile_qr_scan"}}, {"is_disabled": 0, "fusion_lat": 0.0, "lat": 38.905138666666666, "type": "electric_scooter", "lon": -77.051477, "is_reserved": 0, "fusion_lon": 0.0, "bike_id": "cfba4e7c276c5787ddfb40c544129e79", "name": "cfba4e7c276c5787ddfb40c544129e79", "rental_uris": {"ios": "https://dc.lft.to/lastmile_qr_scan", "android": "https://dc.lft.to/lastmile_qr_scan"}}, {"is_disabled": 0, "fusion_lat": 0.0, "lat": 38.90801916666667, "type": "electric_scooter", "lon": -77.03421433333334, "is_reserved": 0, "fusion_lon": 0.0, "bike_id": "9452f766b0c2ce48e157016d08f12e28", "name": "9452f766b0c2ce48e157016d08f12e28", "rental_uris": {"ios": "https://dc.lft.to/lastmile_qr_scan", "android": "https://dc.lft.to/lastmile_qr_scan"}}, {"is_disabled": 0, "fusion_lat": 0.0, "lat": 38.858059833333336, "type": "electric_scooter", "lon": -76.986538, "is_reserved": 0, "fusion_lon": 0.0, "bike_id": "24120c584d4094e709816ccb4cac599e", "name": "24120c584d4094e709816ccb4cac599e", "rental_uris": {"ios": "https://dc.lft.to/lastmile_qr_scan", "android": "https://dc.lft.to/lastmile_qr_scan"}}, {"is_disabled": 0, "fusion_lat": 0.0, "lat": 38.942026166666665, "type": "electric_bike", "lon": -77.0182425, "is_reserved": 0, "fusion_lon": 0.0, "bike_id": "1f83e37ac3032e23ae4ac498ef5feaf9", "name": "1f83e37ac3032e23ae4ac498ef5feaf9", "rental_uris": {"ios": "https://dc.lft.to/lastmile_qr_scan", "android": "https://dc.lft.to/lastmile_qr_scan"}}, {"is_disabled": 0, "fusion_lat": 0.0, "lat": 38.905649833333335, "type": "electric_scooter", "lon": -77.03474983333334, "is_reserved": 0, "fusion_lon": 0.0, "bike_id": "86cb4d132a295e98a1c56e193faf4d12", "name": "86cb4d132a295e98a1c56e193faf4d12", "rental_uris": {"ios": "https://dc.lft.to/lastmile_qr_scan", "android": "https://dc.lft.to/lastmile_qr_scan"}}, {"is_disabled": 0, "fusion_lat": 0.0, "lat": 38.8429335, "type": "electric_scooter", "lon": -76.9995065, "is_reserved": 0, "fusion_lon": 0.0, "bike_id": "0bc67c066cd782c038e54ab68e69c30b", "name": "0bc67c066cd782c038e54ab68e69c30b", "rental_uris": {"ios": "https://dc.lft.to/lastmile_qr_scan", "android": "https://dc.lft.to/lastmile_qr_scan"}}, {"is_disabled": 0, "fusion_lat": 0.0, "lat": 38.8937115, "type": "electric_scooter", "lon": -76.94998166666667, "is_reserved": 0, "fusion_lon": 0.0, "bike_id": "22cb44105e7cf73195b782ff6d477f25", "name": "22cb44105e7cf73195b782ff6d477f25", "rental_uris": {"ios": "https://dc.lft.to/lastmile_qr_scan", "android": "https://dc.lft.to/lastmile_qr_scan"}}, {"is_disabled": 0, "fusion_lat": 0.0, "lat": 38.90582283333333, "type": "electric_scooter", "lon": -77.00715566666666, "is_reserved": 0, "fusion_lon": 0.0, "bike_id": "e73f5714d98f0143f7d3b27616b7bc56", "name": "e73f5714d98f0143f7d3b27616b7bc56", "rental_uris": {"ios": "https://dc.lft.to/lastmile_qr_scan", "android": "https://dc.lft.to/lastmile_qr_scan"}}, {"is_disabled": 0, "fusion_lat": 0.0, "lat": 38.918855666666666, "type": "electric_scooter", "lon": -77.02969316666666, "is_reserved": 0, "fusion_lon": 0.0, "bike_id": "1d13156dac7486cb569c9edcc39848cb", "name": "1d13156dac7486cb569c9edcc39848cb", "rental_uris": {"ios": "https://dc.lft.to/lastmile_qr_scan", "android": "https://dc.lft.to/lastmile_qr_scan"}}, {"is_disabled": 0, "fusion_lat": 0.0, "lat": 38.884840833333335, "type": "electric_scooter", "lon": -77.015133, "is_reserved": 0, "fusion_lon": 0.0, "bike_id": "37742cb50814ad529647950a48cf6a3c", "name": "37742cb50814ad529647950a48cf6a3c", "rental_uris": {"ios": "https://dc.lft.to/lastmile_qr_scan", "android": "https://dc.lft.to/lastmile_qr_scan"}}, {"is_disabled": 0, "fusion_lat": 0.0, "lat": 38.907132, "type": "electric_scooter", "lon": -77.0435425, "is_reserved": 0, "fusion_lon": 0.0, "bike_id": "93addb8cddb9cd3c925858af10f28aec", "name": "93addb8cddb9cd3c925858af10f28aec", "rental_uris": {"ios": "https://dc.lft.to/lastmile_qr_scan", "android": "https://dc.lft.to/lastmile_qr_scan"}}, {"is_disabled": 0, "fusion_lat": 0.0, "lat": 38.963950833333335, "type": "electric_scooter", "lon": -77.02591133333334, "is_reserved": 0, "fusion_lon": 0.0, "bike_id": "cabf7d1ec3e9a734e152307a960fa236", "name": "cabf7d1ec3e9a734e152307a960fa236", "rental_uris": {"ios": "https://dc.lft.to/lastmile_qr_scan", "android": "https://dc.lft.to/lastmile_qr_scan"}}, {"is_disabled": 0, "fusion_lat": 0.0, "lat": 38.92144433333333, "type": "electric_scooter", "lon": -77.0178935, "is_reserved": 0, "fusion_lon": 0.0, "bike_id": "ec92361bcdf21074c2d11ac2bacf945b", "name": "ec92361bcdf21074c2d11ac2bacf945b", "rental_uris": {"ios": "https://dc.lft.to/lastmile_qr_scan", "android": "https://dc.lft.to/lastmile_qr_scan"}}, {"is_disabled": 0, "fusion_lat": 0.0, "lat": 38.84936066666667, "type": "electric_bike", "lon": -77.10016516666667, "is_reserved": 0, "fusion_lon": 0.0, "bike_id": "4eae0a72dfa1c97daa6da27adb9dc6d5", "name": "4eae0a72dfa1c97daa6da27adb9dc6d5", "rental_uris": {"ios": "https://dc.lft.to/lastmile_qr_scan", "android": "https://dc.lft.to/lastmile_qr_scan"}}, {"is_disabled": 0, "fusion_lat": 0.0, "lat": 38.914948333333335, "type": "electric_scooter", "lon": -76.9838035, "is_reserved": 0, "fusion_lon": 0.0, "bike_id": "e8c61eae29d04b27486429d69ce245cf", "name": "e8c61eae29d04b27486429d69ce245cf", "rental_uris": {"ios": "https://dc.lft.to/lastmile_qr_scan", "android": "https://dc.lft.to/lastmile_qr_scan"}}, {"is_disabled": 0, "fusion_lat": 0.0, "lat": 38.920084833333334, "type": "electric_scooter", "lon": -77.031899, "is_reserved": 0, "fusion_lon": 0.0, "bike_id": "7791c6a9589961e242403bb048eece56", "name": "7791c6a9589961e242403bb048eece56", "rental_uris": {"ios": "https://dc.lft.to/lastmile_qr_scan", "android": "https://dc.lft.to/lastmile_qr_scan"}}, {"is_disabled": 0, "fusion_lat": 0.0, "lat": 38.905533, "type": "electric_scooter", "lon": -77.03811966666666, "is_reserved": 0, "fusion_lon": 0.0, "bike_id": "198922988dad95e358054c61490427b1", "name": "198922988dad95e358054c61490427b1", "rental_uris": {"ios": "https://dc.lft.to/lastmile_qr_scan", "android": "https://dc.lft.to/lastmile_qr_scan"}}, {"is_disabled": 0, "fusion_lat": 0.0, "lat": 38.930894333333335, "type": "electric_scooter", "lon": -77.03745266666667, "is_reserved": 0, "fusion_lon": 0.0, "bike_id": "a7e55bb7f2e6cc653b3a6c344f3b8f66", "name": "a7e55bb7f2e6cc653b3a6c344f3b8f66", "rental_uris": {"ios": "https://dc.lft.to/lastmile_qr_scan", "android": "https://dc.lft.to/lastmile_qr_scan"}}, {"is_disabled": 0, "fusion_lat": 0.0, "lat": 38.96230833333333, "type": "electric_bike", "lon": -77.02631183333334, "is_reserved": 0, "fusion_lon": 0.0, "bike_id": "f525561816a4f173e99f98ac2a9ab448", "name": "f525561816a4f173e99f98ac2a9ab448", "rental_uris": {"ios": "https://dc.lft.to/lastmile_qr_scan", "android": "https://dc.lft.to/lastmile_qr_scan"}}, {"is_disabled": 0, "fusion_lat": 0.0, "lat": 38.85767533333333, "type": "electric_bike", "lon": -76.9876755, "is_reserved": 0, "fusion_lon": 0.0, "bike_id": "41ac545b9924c1ace12eb21dd6da434d", "name": "41ac545b9924c1ace12eb21dd6da434d", "rental_uris": {"ios": "https://dc.lft.to/lastmile_qr_scan", "android": "https://dc.lft.to/lastmile_qr_scan"}}, {"is_disabled": 0, "fusion_lat": 0.0, "lat": 38.930592833333336, "type": "electric_scooter", "lon": -77.0266005, "is_reserved": 0, "fusion_lon": 0.0, "bike_id": "c5f95ea123db01a403f7a98158b1258f", "name": "c5f95ea123db01a403f7a98158b1258f", "rental_uris": {"ios": "https://dc.lft.to/lastmile_qr_scan", "android": "https://dc.lft.to/lastmile_qr_scan"}}, {"is_disabled": 0, "fusion_lat": 0.0, "lat": 38.90126433333333, "type": "electric_scooter", "lon": -77.0027975, "is_reserved": 0, "fusion_lon": 0.0, "bike_id": "4ddcf4fcf2a8b02db68296a3747d92ad", "name": "4ddcf4fcf2a8b02db68296a3747d92ad", "rental_uris": {"ios": "https://dc.lft.to/lastmile_qr_scan", "android": "https://dc.lft.to/lastmile_qr_scan"}}, {"is_disabled": 0, "fusion_lat": 0.0, "lat": 38.86621016666667, "type": "electric_scooter", "lon": -76.98696716666667, "is_reserved": 0, "fusion_lon": 0.0, "bike_id": "0ac37c6ed7dd7e395b8eec9116322452", "name": "0ac37c6ed7dd7e395b8eec9116322452", "rental_uris": {"ios": "https://dc.lft.to/lastmile_qr_scan", "android": "https://dc.lft.to/lastmile_qr_scan"}}, {"is_disabled": 0, "fusion_lat": 0.0, "lat": 38.881321666666665, "type": "electric_bike", "lon": -76.98093183333333, "is_reserved": 0, "fusion_lon": 0.0, "bike_id": "f88097b674cf3fa7f68bccca8a558409", "name": "f88097b674cf3fa7f68bccca8a558409", "rental_uris": {"ios": "https://dc.lft.to/lastmile_qr_scan", "android": "https://dc.lft.to/lastmile_qr_scan"}}, {"is_disabled": 0, "fusion_lat": 0.0, "lat": 38.83986266666667, "type": "electric_bike", "lon": -77.00568066666666, "is_reserved": 0, "fusion_lon": 0.0, "bike_id": "c0fc00efa3db3887423ad4d598f2a5ec", "name": "c0fc00efa3db3887423ad4d598f2a5ec", "rental_uris": {"ios": "https://dc.lft.to/lastmile_qr_scan", "android": "https://dc.lft.to/lastmile_qr_scan"}}, {"is_disabled": 0, "fusion_lat": 0.0, "lat": 38.898981666666664, "type": "electric_scooter", "lon": -76.93299216666666, "is_reserved": 0, "fusion_lon": 0.0, "bike_id": "15e0cc819b86627091b40f953fa62a35", "name": "15e0cc819b86627091b40f953fa62a35", "rental_uris": {"ios": "https://dc.lft.to/lastmile_qr_scan", "android": "https://dc.lft.to/lastmile_qr_scan"}}, {"is_disabled": 0, "fusion_lat": 0.0, "lat": 38.9156935, "type": "electric_scooter", "lon": -77.01194416666667, "is_reserved": 0, "fusion_lon": 0.0, "bike_id": "ac6dcf20b9a2b026e2bbe88396016d27", "name": "ac6dcf20b9a2b026e2bbe88396016d27", "rental_uris": {"ios": "https://dc.lft.to/lastmile_qr_scan", "android": "https://dc.lft.to/lastmile_qr_scan"}}, {"is_disabled": 0, "fusion_lat": 0.0, "lat": 38.899885833333336, "type": "electric_scooter", "lon": -77.0523235, "is_reserved": 0, "fusion_lon": 0.0, "bike_id": "815b0ed72b7b96eed856aa9400ec99fc", "name": "815b0ed72b7b96eed856aa9400ec99fc", "rental_uris": {"ios": "https://dc.lft.to/lastmile_qr_scan", "android": "https://dc.lft.to/lastmile_qr_scan"}}, {"is_disabled": 0, "fusion_lat": 0.0, "lat": 38.8665585, "type": "electric_scooter", "lon": -76.99017616666667, "is_reserved": 0, "fusion_lon": 0.0, "bike_id": "457bad7d38c3c2aa7d07645d9dbafaea", "name": "457bad7d38c3c2aa7d07645d9dbafaea", "rental_uris": {"ios": "https://dc.lft.to/lastmile_qr_scan", "android": "https://dc.lft.to/lastmile_qr_scan"}}, {"is_disabled": 0, "fusion_lat": 0.0, "lat": 38.919796166666664, "type": "electric_scooter", "lon": -77.04180766666667, "is_reserved": 0, "fusion_lon": 0.0, "bike_id": "f8ebdd614fa53930b53e4f8002f92ea1", "name": "f8ebdd614fa53930b53e4f8002f92ea1", "rental_uris": {"ios": "https://dc.lft.to/lastmile_qr_scan", "android": "https://dc.lft.to/lastmile_qr_scan"}}, {"is_disabled": 0, "fusion_lat": 0.0, "lat": 38.91732583333334, "type": "electric_scooter", "lon": -77.02696566666667, "is_reserved": 0, "fusion_lon": 0.0, "bike_id": "d03fff6c966d0d40d810c058f6d54559", "name": "d03fff6c966d0d40d810c058f6d54559", "rental_uris": {"ios": "https://dc.lft.to/lastmile_qr_scan", "android": "https://dc.lft.to/lastmile_qr_scan"}}, {"is_disabled": 0, "fusion_lat": 0.0, "lat": 38.923012166666666, "type": "electric_scooter", "lon": -77.0414535, "is_reserved": 0, "fusion_lon": 0.0, "bike_id": "85a0601945568d4364e3d972ba87315f", "name": "85a0601945568d4364e3d972ba87315f", "rental_uris": {"ios": "https://dc.lft.to/lastmile_qr_scan", "android": "https://dc.lft.to/lastmile_qr_scan"}}, {"is_disabled": 0, "fusion_lat": 0.0, "lat": 38.897614833333336, "type": "electric_scooter", "lon": -76.94186, "is_reserved": 0, "fusion_lon": 0.0, "bike_id": "ef0ca010fd75e927fa6a3022b3e0b348", "name": "ef0ca010fd75e927fa6a3022b3e0b348", "rental_uris": {"ios": "https://dc.lft.to/lastmile_qr_scan", "android": "https://dc.lft.to/lastmile_qr_scan"}}, {"is_disabled": 0, "fusion_lat": 0.0, "lat": 38.92587433333333, "type": "electric_scooter", "lon": -77.05059483333334, "is_reserved": 0, "fusion_lon": 0.0, "bike_id": "50eb88ccc575717924bc770786efbeb1", "name": "50eb88ccc575717924bc770786efbeb1", "rental_uris": {"ios": "https://dc.lft.to/lastmile_qr_scan", "android": "https://dc.lft.to/lastmile_qr_scan"}}, {"is_disabled": 0, "fusion_lat": 0.0, "lat": 38.85788683333333, "type": "electric_bike", "lon": -77.0995225, "is_reserved": 0, "fusion_lon": 0.0, "bike_id": "349cb7bbae238ccfb7132128b52a7c6f", "name": "349cb7bbae238ccfb7132128b52a7c6f", "rental_uris": {"ios": "https://dc.lft.to/lastmile_qr_scan", "android": "https://dc.lft.to/lastmile_qr_scan"}}, {"is_disabled": 0, "fusion_lat": 0.0, "lat": 38.905125166666664, "type": "electric_scooter", "lon": -77.0478045, "is_reserved": 0, "fusion_lon": 0.0, "bike_id": "4c9baf0cb34f59f1e2b737bbcb966d59", "name": "4c9baf0cb34f59f1e2b737bbcb966d59", "rental_uris": {"ios": "https://dc.lft.to/lastmile_qr_scan", "android": "https://dc.lft.to/lastmile_qr_scan"}}, {"is_disabled": 0, "fusion_lat": 0.0, "lat": 38.900364333333336, "type": "electric_scooter", "lon": -77.03336583333333, "is_reserved": 0, "fusion_lon": 0.0, "bike_id": "5a797adec447eb08f73e9af61769c043", "name": "5a797adec447eb08f73e9af61769c043", "rental_uris": {"ios": "https://dc.lft.to/lastmile_qr_scan", "android": "https://dc.lft.to/lastmile_qr_scan"}}, {"is_disabled": 0, "fusion_lat": 0.0, "lat": 38.90043583333333, "type": "electric_scooter", "lon": -76.924725, "is_reserved": 0, "fusion_lon": 0.0, "bike_id": "57dd1c5a56268fdb5504b57776e4bda4", "name": "57dd1c5a56268fdb5504b57776e4bda4", "rental_uris": {"ios": "https://dc.lft.to/lastmile_qr_scan", "android": "https://dc.lft.to/lastmile_qr_scan"}}, {"is_disabled": 0, "fusion_lat": 0.0, "lat": 38.884342333333336, "type": "electric_scooter", "lon": -76.95758766666667, "is_reserved": 0, "fusion_lon": 0.0, "bike_id": "96fc8dcc94176314110b17663b657219", "name": "96fc8dcc94176314110b17663b657219", "rental_uris": {"ios": "https://dc.lft.to/lastmile_qr_scan", "android": "https://dc.lft.to/lastmile_qr_scan"}}, {"is_disabled": 0, "fusion_lat": 0.0, "lat": 38.879192333333336, "type": "electric_scooter", "lon": -77.02154883333333, "is_reserved": 0, "fusion_lon": 0.0, "bike_id": "a8050ca00b491beac75e9d088e108e4a", "name": "a8050ca00b491beac75e9d088e108e4a", "rental_uris": {"ios": "https://dc.lft.to/lastmile_qr_scan", "android": "https://dc.lft.to/lastmile_qr_scan"}}, {"is_disabled": 0, "fusion_lat": 0.0, "lat": 38.9002695, "type": "electric_scooter", "lon": -77.01214216666666, "is_reserved": 0, "fusion_lon": 0.0, "bike_id": "58711ebf6e2493f6c73c341ad5bf955d", "name": "58711ebf6e2493f6c73c341ad5bf955d", "rental_uris": {"ios": "https://dc.lft.to/lastmile_qr_scan", "android": "https://dc.lft.to/lastmile_qr_scan"}}, {"is_disabled": 0, "fusion_lat": 0.0, "lat": 38.9115965, "type": "electric_scooter", "lon": -77.0200235, "is_reserved": 0, "fusion_lon": 0.0, "bike_id": "62a4969209fcab423286f182766cbe67", "name": "62a4969209fcab423286f182766cbe67", "rental_uris": {"ios": "https://dc.lft.to/lastmile_qr_scan", "android": "https://dc.lft.to/lastmile_qr_scan"}}, {"is_disabled": 0, "fusion_lat": 0.0, "lat": 38.93119183333334, "type": "electric_scooter", "lon": -77.020875, "is_reserved": 0, "fusion_lon": 0.0, "bike_id": "a8eae52563215e6bb4b85eb945d899a5", "name": "a8eae52563215e6bb4b85eb945d899a5", "rental_uris": {"ios": "https://dc.lft.to/lastmile_qr_scan", "android": "https://dc.lft.to/lastmile_qr_scan"}}, {"is_disabled": 0, "fusion_lat": 0.0, "lat": 38.9199475, "type": "electric_scooter", "lon": -77.0237955, "is_reserved": 0, "fusion_lon": 0.0, "bike_id": "e3728fb001117ffcf06ffadc414a9d75", "name": "e3728fb001117ffcf06ffadc414a9d75", "rental_uris": {"ios": "https://dc.lft.to/lastmile_qr_scan", "android": "https://dc.lft.to/lastmile_qr_scan"}}, {"is_disabled": 0, "fusion_lat": 0.0, "lat": 38.916647166666664, "type": "electric_scooter", "lon": -77.027063, "is_reserved": 0, "fusion_lon": 0.0, "bike_id": "0a203f5e42e538a3bfd8fa4d1a89bd89", "name": "0a203f5e42e538a3bfd8fa4d1a89bd89", "rental_uris": {"ios": "https://dc.lft.to/lastmile_qr_scan", "android": "https://dc.lft.to/lastmile_qr_scan"}}, {"is_disabled": 0, "fusion_lat": 0.0, "lat": 38.9096895, "type": "electric_scooter", "lon": -77.03870466666666, "is_reserved": 0, "fusion_lon": 0.0, "bike_id": "4d13fdb3f9a0c01b7a2fda2705afbe1c", "name": "4d13fdb3f9a0c01b7a2fda2705afbe1c", "rental_uris": {"ios": "https://dc.lft.to/lastmile_qr_scan", "android": "https://dc.lft.to/lastmile_qr_scan"}}, {"is_disabled": 0, "fusion_lat": 0.0, "lat": 38.9002465, "type": "electric_scooter", "lon": -77.04029516666667, "is_reserved": 0, "fusion_lon": 0.0, "bike_id": "7cac279c988a01779b52eae7f0043a6c", "name": "7cac279c988a01779b52eae7f0043a6c", "rental_uris": {"ios": "https://dc.lft.to/lastmile_qr_scan", "android": "https://dc.lft.to/lastmile_qr_scan"}}, {"is_disabled": 0, "fusion_lat": 0.0, "lat": 38.926664, "type": "electric_scooter", "lon": -77.01508483333333, "is_reserved": 0, "fusion_lon": 0.0, "bike_id": "3c93ddbd95c5860c2aec5ace8d57b41e", "name": "3c93ddbd95c5860c2aec5ace8d57b41e", "rental_uris": {"ios": "https://dc.lft.to/lastmile_qr_scan", "android": "https://dc.lft.to/lastmile_qr_scan"}}, {"is_disabled": 0, "fusion_lat": 0.0, "lat": 38.91396183333333, "type": "electric_scooter", "lon": -77.03931666666666, "is_reserved": 0, "fusion_lon": 0.0, "bike_id": "a33eaf305f6b731360d75af7ac72c36d", "name": "a33eaf305f6b731360d75af7ac72c36d", "rental_uris": {"ios": "https://dc.lft.to/lastmile_qr_scan", "android": "https://dc.lft.to/lastmile_qr_scan"}}, {"is_disabled": 0, "fusion_lat": 0.0, "lat": 38.90807816666667, "type": "electric_scooter", "lon": -76.99853433333334, "is_reserved": 0, "fusion_lon": 0.0, "bike_id": "15a019b7f8c24ef548452896b199121f", "name": "15a019b7f8c24ef548452896b199121f", "rental_uris": {"ios": "https://dc.lft.to/lastmile_qr_scan", "android": "https://dc.lft.to/lastmile_qr_scan"}}, {"is_disabled": 0, "fusion_lat": 0.0, "lat": 38.874857166666665, "type": "electric_bike", "lon": -76.965186, "is_reserved": 0, "fusion_lon": 0.0, "bike_id": "0187fbd9a54bf35cdff6813b9b1ac065", "name": "0187fbd9a54bf35cdff6813b9b1ac065", "rental_uris": {"ios": "https://dc.lft.to/lastmile_qr_scan", "android": "https://dc.lft.to/lastmile_qr_scan"}}, {"is_disabled": 0, "fusion_lat": 0.0, "lat": 38.915390333333335, "type": "electric_scooter", "lon": -77.03801233333333, "is_reserved": 0, "fusion_lon": 0.0, "bike_id": "cdba2943ade7d45082e1c0882ad44b24", "name": "cdba2943ade7d45082e1c0882ad44b24", "rental_uris": {"ios": "https://dc.lft.to/lastmile_qr_scan", "android": "https://dc.lft.to/lastmile_qr_scan"}}, {"is_disabled": 0, "fusion_lat": 0.0, "lat": 38.905757, "type": "electric_scooter", "lon": -77.0488005, "is_reserved": 0, "fusion_lon": 0.0, "bike_id": "9b0c37b4de41947d2441b02499030743", "name": "9b0c37b4de41947d2441b02499030743", "rental_uris": {"ios": "https://dc.lft.to/lastmile_qr_scan", "android": "https://dc.lft.to/lastmile_qr_scan"}}, {"is_disabled": 0, "fusion_lat": 0.0, "lat": 38.90655233333333, "type": "electric_scooter", "lon": -77.041447, "is_reserved": 0, "fusion_lon": 0.0, "bike_id": "055921c84ee2fc1c0bb7fe2b02f921a1", "name": "055921c84ee2fc1c0bb7fe2b02f921a1", "rental_uris": {"ios": "https://dc.lft.to/lastmile_qr_scan", "android": "https://dc.lft.to/lastmile_qr_scan"}}, {"is_disabled": 0, "fusion_lat": 0.0, "lat": 38.923302, "type": "electric_scooter", "lon": -77.03611533333333, "is_reserved": 0, "fusion_lon": 0.0, "bike_id": "80ceebc3f9f9114b3dc1dc127a3d1411", "name": "80ceebc3f9f9114b3dc1dc127a3d1411", "rental_uris": {"ios": "https://dc.lft.to/lastmile_qr_scan", "android": "https://dc.lft.to/lastmile_qr_scan"}}, {"is_disabled": 0, "fusion_lat": 0.0, "lat": 38.885886166666666, "type": "electric_scooter", "lon": -77.01987066666666, "is_reserved": 0, "fusion_lon": 0.0, "bike_id": "72883f77ac28674f02f30282dd7ea94b", "name": "72883f77ac28674f02f30282dd7ea94b", "rental_uris": {"ios": "https://dc.lft.to/lastmile_qr_scan", "android": "https://dc.lft.to/lastmile_qr_scan"}}, {"is_disabled": 0, "fusion_lat": 0.0, "lat": 38.92075766666667, "type": "electric_scooter", "lon": -77.04551483333333, "is_reserved": 0, "fusion_lon": 0.0, "bike_id": "27ba9ed15741b0a6abbb1d5701de1b7e", "name": "27ba9ed15741b0a6abbb1d5701de1b7e", "rental_uris": {"ios": "https://dc.lft.to/lastmile_qr_scan", "android": "https://dc.lft.to/lastmile_qr_scan"}}, {"is_disabled": 0, "fusion_lat": 0.0, "lat": 38.9169215, "type": "electric_scooter", "lon": -77.03485966666666, "is_reserved": 0, "fusion_lon": 0.0, "bike_id": "ceb7fae1df8a2ace3f4b38f676f27ef9", "name": "ceb7fae1df8a2ace3f4b38f676f27ef9", "rental_uris": {"ios": "https://dc.lft.to/lastmile_qr_scan", "android": "https://dc.lft.to/lastmile_qr_scan"}}, {"is_disabled": 0, "fusion_lat": 0.0, "lat": 38.966203, "type": "electric_bike", "lon": -77.0343085, "is_reserved": 0, "fusion_lon": 0.0, "bike_id": "3df2ec4f6fddc4616ff096f4929944d9", "name": "3df2ec4f6fddc4616ff096f4929944d9", "rental_uris": {"ios": "https://dc.lft.to/lastmile_qr_scan", "android": "https://dc.lft.to/lastmile_qr_scan"}}, {"is_disabled": 0, "fusion_lat": 0.0, "lat": 38.920663166666664, "type": "electric_scooter", "lon": -77.03205283333334, "is_reserved": 0, "fusion_lon": 0.0, "bike_id": "32513f47f16cb7e153081d9b3263a164", "name": "32513f47f16cb7e153081d9b3263a164", "rental_uris": {"ios": "https://dc.lft.to/lastmile_qr_scan", "android": "https://dc.lft.to/lastmile_qr_scan"}}, {"is_disabled": 0, "fusion_lat": 0.0, "lat": 38.960279166666666, "type": "electric_bike", "lon": -77.03390916666666, "is_reserved": 0, "fusion_lon": 0.0, "bike_id": "187b0af98eabb001e9809d825697a410", "name": "187b0af98eabb001e9809d825697a410", "rental_uris": {"ios": "https://dc.lft.to/lastmile_qr_scan", "android": "https://dc.lft.to/lastmile_qr_scan"}}, {"is_disabled": 0, "fusion_lat": 0.0, "lat": 38.923166333333334, "type": "electric_scooter", "lon": -77.04127833333334, "is_reserved": 0, "fusion_lon": 0.0, "bike_id": "4b526085963f88bf6a21b9f320217312", "name": "4b526085963f88bf6a21b9f320217312", "rental_uris": {"ios": "https://dc.lft.to/lastmile_qr_scan", "android": "https://dc.lft.to/lastmile_qr_scan"}}, {"is_disabled": 0, "fusion_lat": 0.0, "lat": 38.89270633333334, "type": "electric_scooter", "lon": -76.94918766666666, "is_reserved": 0, "fusion_lon": 0.0, "bike_id": "a8a9def3418876717fc3b8c7fb381f68", "name": "a8a9def3418876717fc3b8c7fb381f68", "rental_uris": {"ios": "https://dc.lft.to/lastmile_qr_scan", "android": "https://dc.lft.to/lastmile_qr_scan"}}, {"is_disabled": 0, "fusion_lat": 0.0, "lat": 38.90478066666667, "type": "electric_scooter", "lon": -76.9891545, "is_reserved": 0, "fusion_lon": 0.0, "bike_id": "7c170feb9405331fcc4cbcf81501b6a0", "name": "7c170feb9405331fcc4cbcf81501b6a0", "rental_uris": {"ios": "https://dc.lft.to/lastmile_qr_scan", "android": "https://dc.lft.to/lastmile_qr_scan"}}, {"is_disabled": 0, "fusion_lat": 0.0, "lat": 38.892202833333336, "type": "electric_scooter", "lon": -77.04634233333333, "is_reserved": 0, "fusion_lon": 0.0, "bike_id": "b2308a14d9232dbe4a9981a975ef9ae8", "name": "b2308a14d9232dbe4a9981a975ef9ae8", "rental_uris": {"ios": "https://dc.lft.to/lastmile_qr_scan", "android": "https://dc.lft.to/lastmile_qr_scan"}}, {"is_disabled": 0, "fusion_lat": 0.0, "lat": 38.89365983333333, "type": "electric_scooter", "lon": -76.94963766666666, "is_reserved": 0, "fusion_lon": 0.0, "bike_id": "2bc7248f7acfb63cb1a39ce995a8e628", "name": "2bc7248f7acfb63cb1a39ce995a8e628", "rental_uris": {"ios": "https://dc.lft.to/lastmile_qr_scan", "android": "https://dc.lft.to/lastmile_qr_scan"}}, {"is_disabled": 0, "fusion_lat": 0.0, "lat": 38.9290035, "type": "electric_scooter", "lon": -77.03170383333334, "is_reserved": 0, "fusion_lon": 0.0, "bike_id": "6fc6c4bae0918d90127fe0883139fd8d", "name": "6fc6c4bae0918d90127fe0883139fd8d", "rental_uris": {"ios": "https://dc.lft.to/lastmile_qr_scan", "android": "https://dc.lft.to/lastmile_qr_scan"}}, {"is_disabled": 0, "fusion_lat": 0.0, "lat": 38.8719025, "type": "electric_bike", "lon": -77.08410316666667, "is_reserved": 0, "fusion_lon": 0.0, "bike_id": "78d39bdd94899cc98df8030675459266", "name": "78d39bdd94899cc98df8030675459266", "rental_uris": {"ios": "https://dc.lft.to/lastmile_qr_scan", "android": "https://dc.lft.to/lastmile_qr_scan"}}, {"is_disabled": 0, "fusion_lat": 0.0, "lat": 38.932388833333334, "type": "electric_scooter", "lon": -77.03288566666667, "is_reserved": 0, "fusion_lon": 0.0, "bike_id": "e2d8c38dd5f079f069d503e90e461e31", "name": "e2d8c38dd5f079f069d503e90e461e31", "rental_uris": {"ios": "https://dc.lft.to/lastmile_qr_scan", "android": "https://dc.lft.to/lastmile_qr_scan"}}, {"is_disabled": 0, "fusion_lat": 0.0, "lat": 38.92850383333333, "type": "electric_scooter", "lon": -77.054235, "is_reserved": 0, "fusion_lon": 0.0, "bike_id": "8766b5fb7a8f6a0867f08c149154e715", "name": "8766b5fb7a8f6a0867f08c149154e715", "rental_uris": {"ios": "https://dc.lft.to/lastmile_qr_scan", "android": "https://dc.lft.to/lastmile_qr_scan"}}, {"is_disabled": 0, "fusion_lat": 0.0, "lat": 38.93289566666667, "type": "electric_scooter", "lon": -77.039725, "is_reserved": 0, "fusion_lon": 0.0, "bike_id": "798bbb323005505c5a6580e3762abec0", "name": "798bbb323005505c5a6580e3762abec0", "rental_uris": {"ios": "https://dc.lft.to/lastmile_qr_scan", "android": "https://dc.lft.to/lastmile_qr_scan"}}, {"is_disabled": 0, "fusion_lat": 0.0, "lat": 38.909739, "type": "electric_scooter", "lon": -77.04042266666667, "is_reserved": 0, "fusion_lon": 0.0, "bike_id": "43b6bc35e8cee9b10f68bb7d245e9922", "name": "43b6bc35e8cee9b10f68bb7d245e9922", "rental_uris": {"ios": "https://dc.lft.to/lastmile_qr_scan", "android": "https://dc.lft.to/lastmile_qr_scan"}}, {"is_disabled": 0, "fusion_lat": 0.0, "lat": 38.89503033333333, "type": "electric_scooter", "lon": -77.02285083333334, "is_reserved": 0, "fusion_lon": 0.0, "bike_id": "7b7fcf13bcfee775101f097d0a4c3182", "name": "7b7fcf13bcfee775101f097d0a4c3182", "rental_uris": {"ios": "https://dc.lft.to/lastmile_qr_scan", "android": "https://dc.lft.to/lastmile_qr_scan"}}, {"is_disabled": 0, "fusion_lat": 0.0, "lat": 38.91116733333333, "type": "electric_scooter", "lon": -77.048414, "is_reserved": 0, "fusion_lon": 0.0, "bike_id": "45f025fe5aa584f4833347cfcdaf03bd", "name": "45f025fe5aa584f4833347cfcdaf03bd", "rental_uris": {"ios": "https://dc.lft.to/lastmile_qr_scan", "android": "https://dc.lft.to/lastmile_qr_scan"}}, {"is_disabled": 0, "fusion_lat": 0.0, "lat": 38.89828083333333, "type": "electric_scooter", "lon": -77.03299566666666, "is_reserved": 0, "fusion_lon": 0.0, "bike_id": "bf69f9210d69196d77f238880b7f3b27", "name": "bf69f9210d69196d77f238880b7f3b27", "rental_uris": {"ios": "https://dc.lft.to/lastmile_qr_scan", "android": "https://dc.lft.to/lastmile_qr_scan"}}, {"is_disabled": 0, "fusion_lat": 0.0, "lat": 38.89620716666667, "type": "electric_scooter", "lon": -76.99847316666667, "is_reserved": 0, "fusion_lon": 0.0, "bike_id": "e7188fa4528f851d6dc03690645e2276", "name": "e7188fa4528f851d6dc03690645e2276", "rental_uris": {"ios": "https://dc.lft.to/lastmile_qr_scan", "android": "https://dc.lft.to/lastmile_qr_scan"}}, {"is_disabled": 0, "fusion_lat": 0.0, "lat": 38.90566233333333, "type": "electric_scooter", "lon": -77.03076216666666, "is_reserved": 0, "fusion_lon": 0.0, "bike_id": "5ef7d2d9c2c339d866d78aeb7bd4da24", "name": "5ef7d2d9c2c339d866d78aeb7bd4da24", "rental_uris": {"ios": "https://dc.lft.to/lastmile_qr_scan", "android": "https://dc.lft.to/lastmile_qr_scan"}}, {"is_disabled": 0, "fusion_lat": 0.0, "lat": 38.86908566666666, "type": "electric_bike", "lon": -77.13183266666667, "is_reserved": 0, "fusion_lon": 0.0, "bike_id": "52372bae34c90d17e356d0987bbfb1e0", "name": "52372bae34c90d17e356d0987bbfb1e0", "rental_uris": {"ios": "https://dc.lft.to/lastmile_qr_scan", "android": "https://dc.lft.to/lastmile_qr_scan"}}, {"is_disabled": 0, "fusion_lat": 0.0, "lat": 38.92717966666667, "type": "electric_scooter", "lon": -77.02081916666667, "is_reserved": 0, "fusion_lon": 0.0, "bike_id": "ce9a7c43c020837c9831a67d15b60ac0", "name": "ce9a7c43c020837c9831a67d15b60ac0", "rental_uris": {"ios": "https://dc.lft.to/lastmile_qr_scan", "android": "https://dc.lft.to/lastmile_qr_scan"}}, {"is_disabled": 0, "fusion_lat": 0.0, "lat": 38.892218666666665, "type": "electric_scooter", "lon": -77.04633133333333, "is_reserved": 0, "fusion_lon": 0.0, "bike_id": "52a3cc1733f80f62ad0a05506d8e4fa5", "name": "52a3cc1733f80f62ad0a05506d8e4fa5", "rental_uris": {"ios": "https://dc.lft.to/lastmile_qr_scan", "android": "https://dc.lft.to/lastmile_qr_scan"}}, {"is_disabled": 0, "fusion_lat": 0.0, "lat": 38.82002983333334, "type": "electric_bike", "lon": -76.99809016666667, "is_reserved": 0, "fusion_lon": 0.0, "bike_id": "20fd04ac2848b08c736fcc6f42b0953c", "name": "20fd04ac2848b08c736fcc6f42b0953c", "rental_uris": {"ios": "https://dc.lft.to/lastmile_qr_scan", "android": "https://dc.lft.to/lastmile_qr_scan"}}, {"is_disabled": 0, "fusion_lat": 0.0, "lat": 38.932415166666665, "type": "electric_scooter", "lon": -77.031107, "is_reserved": 0, "fusion_lon": 0.0, "bike_id": "aff557921af055771ab46972853f44fa", "name": "aff557921af055771ab46972853f44fa", "rental_uris": {"ios": "https://dc.lft.to/lastmile_qr_scan", "android": "https://dc.lft.to/lastmile_qr_scan"}}, {"is_disabled": 0, "fusion_lat": 0.0, "lat": 38.9414895, "type": "electric_scooter", "lon": -77.029849, "is_reserved": 0, "fusion_lon": 0.0, "bike_id": "f285b52f15c03296c5a77102a0ebdc13", "name": "f285b52f15c03296c5a77102a0ebdc13", "rental_uris": {"ios": "https://dc.lft.to/lastmile_qr_scan", "android": "https://dc.lft.to/lastmile_qr_scan"}}, {"is_disabled": 0, "fusion_lat": 0.0, "lat": 38.92769166666667, "type": "electric_scooter", "lon": -77.02709716666666, "is_reserved": 0, "fusion_lon": 0.0, "bike_id": "200fd4f793911e23f411484ea3b9f19f", "name": "200fd4f793911e23f411484ea3b9f19f", "rental_uris": {"ios": "https://dc.lft.to/lastmile_qr_scan", "android": "https://dc.lft.to/lastmile_qr_scan"}}, {"is_disabled": 0, "fusion_lat": 0.0, "lat": 38.89908066666667, "type": "electric_scooter", "lon": -77.03320133333334, "is_reserved": 0, "fusion_lon": 0.0, "bike_id": "80c3f24e054f13bac07d99362807a8c7", "name": "80c3f24e054f13bac07d99362807a8c7", "rental_uris": {"ios": "https://dc.lft.to/lastmile_qr_scan", "android": "https://dc.lft.to/lastmile_qr_scan"}}, {"is_disabled": 0, "fusion_lat": 0.0, "lat": 38.920188, "type": "electric_scooter", "lon": -77.00211616666667, "is_reserved": 0, "fusion_lon": 0.0, "bike_id": "bdb180bf9a474835d22c186cd5515037", "name": "bdb180bf9a474835d22c186cd5515037", "rental_uris": {"ios": "https://dc.lft.to/lastmile_qr_scan", "android": "https://dc.lft.to/lastmile_qr_scan"}}, {"is_disabled": 0, "fusion_lat": 0.0, "lat": 38.8967835, "type": "electric_scooter", "lon": -76.93529866666667, "is_reserved": 0, "fusion_lon": 0.0, "bike_id": "67a1499e99ba6ecaab684659c7ad2f15", "name": "67a1499e99ba6ecaab684659c7ad2f15", "rental_uris": {"ios": "https://dc.lft.to/lastmile_qr_scan", "android": "https://dc.lft.to/lastmile_qr_scan"}}, {"is_disabled": 0, "fusion_lat": 0.0, "lat": 38.9034295, "type": "electric_scooter", "lon": -76.97244616666667, "is_reserved": 0, "fusion_lon": 0.0, "bike_id": "b1eaa1be787a8107cec19e894594fa90", "name": "b1eaa1be787a8107cec19e894594fa90", "rental_uris": {"ios": "https://dc.lft.to/lastmile_qr_scan", "android": "https://dc.lft.to/lastmile_qr_scan"}}, {"is_disabled": 0, "fusion_lat": 0.0, "lat": 38.9018475, "type": "electric_scooter", "lon": -76.93462866666667, "is_reserved": 0, "fusion_lon": 0.0, "bike_id": "e1df289e339071b5a9b04444f25ae152", "name": "e1df289e339071b5a9b04444f25ae152", "rental_uris": {"ios": "https://dc.lft.to/lastmile_qr_scan", "android": "https://dc.lft.to/lastmile_qr_scan"}}, {"is_disabled": 0, "fusion_lat": 0.0, "lat": 38.90197416666667, "type": "electric_scooter", "lon": -77.02167283333333, "is_reserved": 0, "fusion_lon": 0.0, "bike_id": "37479ddc3fc9931621da9065b5c11d6c", "name": "37479ddc3fc9931621da9065b5c11d6c", "rental_uris": {"ios": "https://dc.lft.to/lastmile_qr_scan", "android": "https://dc.lft.to/lastmile_qr_scan"}}, {"is_disabled": 0, "fusion_lat": 0.0, "lat": 38.91988816666667, "type": "electric_scooter", "lon": -77.0237805, "is_reserved": 0, "fusion_lon": 0.0, "bike_id": "29635a998edfe7a744f82b70051a153f", "name": "29635a998edfe7a744f82b70051a153f", "rental_uris": {"ios": "https://dc.lft.to/lastmile_qr_scan", "android": "https://dc.lft.to/lastmile_qr_scan"}}, {"is_disabled": 0, "fusion_lat": 0.0, "lat": 38.866205666666666, "type": "electric_scooter", "lon": -76.98666616666667, "is_reserved": 0, "fusion_lon": 0.0, "bike_id": "f7815dc890352c7cc578668b1c851604", "name": "f7815dc890352c7cc578668b1c851604", "rental_uris": {"ios": "https://dc.lft.to/lastmile_qr_scan", "android": "https://dc.lft.to/lastmile_qr_scan"}}, {"is_disabled": 0, "fusion_lat": 0.0, "lat": 38.904464, "type": "electric_scooter", "lon": -77.05922733333334, "is_reserved": 0, "fusion_lon": 0.0, "bike_id": "3e0334c3458456eafd257d12d74e7332", "name": "3e0334c3458456eafd257d12d74e7332", "rental_uris": {"ios": "https://dc.lft.to/lastmile_qr_scan", "android": "https://dc.lft.to/lastmile_qr_scan"}}, {"is_disabled": 0, "fusion_lat": 0.0, "lat": 38.92363866666667, "type": "electric_scooter", "lon": -77.05090883333334, "is_reserved": 0, "fusion_lon": 0.0, "bike_id": "6f9cc3cc75ee3825889ccbd2147b0ee1", "name": "6f9cc3cc75ee3825889ccbd2147b0ee1", "rental_uris": {"ios": "https://dc.lft.to/lastmile_qr_scan", "android": "https://dc.lft.to/lastmile_qr_scan"}}, {"is_disabled": 0, "fusion_lat": 0.0, "lat": 38.9041805, "type": "electric_scooter", "lon": -77.04868116666667, "is_reserved": 0, "fusion_lon": 0.0, "bike_id": "d17e1569ffd2c7f8c21e665f964b64ea", "name": "d17e1569ffd2c7f8c21e665f964b64ea", "rental_uris": {"ios": "https://dc.lft.to/lastmile_qr_scan", "android": "https://dc.lft.to/lastmile_qr_scan"}}, {"is_disabled": 0, "fusion_lat": 0.0, "lat": 38.88107733333333, "type": "electric_bike", "lon": -77.0168425, "is_reserved": 0, "fusion_lon": 0.0, "bike_id": "6e654fa7ab95b6ad54f808c8ab0c85bd", "name": "6e654fa7ab95b6ad54f808c8ab0c85bd", "rental_uris": {"ios": "https://dc.lft.to/lastmile_qr_scan", "android": "https://dc.lft.to/lastmile_qr_scan"}}, {"is_disabled": 0, "fusion_lat": 0.0, "lat": 38.95392116666667, "type": "electric_bike", "lon": -77.02753233333334, "is_reserved": 0, "fusion_lon": 0.0, "bike_id": "d982942853e43cba7d14b5260e64bc84", "name": "d982942853e43cba7d14b5260e64bc84", "rental_uris": {"ios": "https://dc.lft.to/lastmile_qr_scan", "android": "https://dc.lft.to/lastmile_qr_scan"}}, {"is_disabled": 0, "fusion_lat": 0.0, "lat": 38.913295166666664, "type": "electric_scooter", "lon": -77.04840966666667, "is_reserved": 0, "fusion_lon": 0.0, "bike_id": "05e94444a96ef8527b79a8c5e107fa55", "name": "05e94444a96ef8527b79a8c5e107fa55", "rental_uris": {"ios": "https://dc.lft.to/lastmile_qr_scan", "android": "https://dc.lft.to/lastmile_qr_scan"}},