{"data": {"bikes": [{"lat": 38.90716616666667, "fusion_lat": 0.0, "type": "electric_scooter", "name": "d922a5c7973df1a9eb9db60f42b5a9ca", "is_disabled": 0, "bike_id": "d922a5c7973df1a9eb9db60f42b5a9ca", "lon": -77.03834966666666, "rental_uris": {"android": "https://dc.lft.to/lastmile_qr_scan", "ios": "https://dc.lft.to/lastmile_qr_scan"}, "fusion_lon": 0.0, "is_reserved": 0}, {"lat": 38.89535333333333, "fusion_lat": 0.0, "type": "electric_scooter", "name": "8b852e6b475e8fb907518ca816826da5", "is_disabled": 0, "bike_id": "8b852e6b475e8fb907518ca816826da5", "lon": -76.94889016666667, "rental_uris": {"android": "https://dc.lft.to/lastmile_qr_scan", "ios": "https://dc.lft.to/lastmile_qr_scan"}, "fusion_lon": 0.0, "is_reserved": 0}, {"lat": 38.89563583333333, "fusion_lat": 0.0, "type": "electric_scooter", "name": "4ba304e6fe9f69b439d2a0cd04555fc4", "is_disabled": 0, "bike_id": "4ba304e6fe9f69b439d2a0cd04555fc4", "lon": -77.02553866666666, "rental_uris": {"android": "https://dc.lft.to/lastmile_qr_scan", "ios": "https://dc.lft.to/lastmile_qr_scan"}, "fusion_lon": 0.0, "is_reserved": 0}, {"lat": 38.90512366666667, "fusion_lat": 0.0, "type": "electric_scooter", "name": "dd971a5569587dd97f0bbbbb62f4fb5f", "is_disabled": 0, "bike_id": "dd971a5569587dd97f0bbbbb62f4fb5f", "lon": -77.01425633333334, "rental_uris": {"android": "https://dc.lft.to/lastmile_qr_scan", "ios": "https://dc.lft.to/lastmile_qr_scan"}, "fusion_lon": 0.0, "is_reserved": 0}, {"lat": 38.9361155, "fusion_lat": 0.0, "type": "electric_scooter", "name": "13a241b0db0098359e8464ec4457d841", "is_disabled": 0, "bike_id": "13a241b0db0098359e8464ec4457d841", "lon": -77.05856, "rental_uris": {"android": "https://dc.lft.to/lastmile_qr_scan", "ios": "https://dc.lft.to/lastmile_qr_scan"}, "fusion_lon": 0.0, "is_reserved": 0}, {"lat": 38.926570166666664, "fusion_lat": 0.0, "type": "electric_scooter", "name": "806dcc56f85ed4d69552ee29360ef56f", "is_disabled": 0, "bike_id": "806dcc56f85ed4d69552ee29360ef56f", "lon": -77.0242095, "rental_uris": {"android": "https://dc.lft.to/lastmile_qr_scan", "ios": "https://dc.lft.to/lastmile_qr_scan"}, "fusion_lon": 0.0, "is_reserved": 0}, {"lat": 38.85786366666667, "fusion_lat": 0.0, "type": "electric_bike", "name": "a07ce6543a919c52beca4bec02ba7775", "is_disabled": 0, "bike_id": "a07ce6543a919c52beca4bec02ba7775", "lon": -77.12016683333333, "rental_uris": {"android": "https://dc.lft.to/lastmile_qr_scan", "ios": "https://dc.lft.to/lastmile_qr_scan"}, "fusion_lon": 0.0, "is_reserved": 0}, {"lat": 38.90268966666667, "fusion_lat": 0.0, "type": "electric_scooter", "name": "e3f1dcd2ea23e956311a1c8a60be73f4", "is_disabled": 0, "bike_id": "e3f1dcd2ea23e956311a1c8a60be73f4", "lon": -77.04007833333333, "rental_uris": {"android": "https://dc.lft.to/lastmile_qr_scan", "ios": "https://dc.lft.to/lastmile_qr_scan"}, "fusion_lon": 0.0, "is_reserved": 0}, {"lat": 38.992281166666665, "fusion_lat": 0.0, "type": "electric_bike", "name": "835b6a731b54296c39f15d63d8a7c86c", "is_disabled": 0, "bike_id": "835b6a731b54296c39f15d63d8a7c86c", "lon": -76.9446735, "rental_uris": {"android": "https://dc.lft.to/lastmile_qr_scan", "ios": "https://dc.lft.to/lastmile_qr_scan"}, "fusion_lon": 0.0, "is_reserved": 0}, {"lat": 38.8553715, "fusion_lat": 0.0, "type": "electric_bike", "name": "475ec30c0a86eb7067f0786670f3a3d2", "is_disabled": 0, "bike_id": "475ec30c0a86eb7067f0786670f3a3d2", "lon": -77.12047283333334, "rental_uris": {"android": "https://dc.lft.to/lastmile_qr_scan", "ios": "https://dc.lft.to/lastmile_qr_scan"}, "fusion_lon": 0.0, "is_reserved": 0}, {"lat": 38.923641833333335, "fusion_lat": 0.0, "type": "electric_scooter", "name": "83ce2073f295aee4441295a91336e669", "is_disabled": 0, "bike_id": "83ce2073f295aee4441295a91336e669", "lon": -77.051086, "rental_uris": {"android": "https://dc.lft.to/lastmile_qr_scan", "ios": "https://dc.lft.to/lastmile_qr_scan"}, "fusion_lon": 0.0, "is_reserved": 0}, {"lat": 38.91351516666667, "fusion_lat": 0.0, "type": "electric_scooter", "name": "c98fa7fdd99ef3d45d3bc90726308d40", "is_disabled": 0, "bike_id": "c98fa7fdd99ef3d45d3bc90726308d40", "lon": -77.04400183333334, "rental_uris": {"android": "https://dc.lft.to/lastmile_qr_scan", "ios": "https://dc.lft.to/lastmile_qr_scan"}, "fusion_lon": 0.0, "is_reserved": 0}, {"lat": 38.898366333333335, "fusion_lat": 0.0, "type": "electric_scooter", "name": "acff56ff2732df3272fd0ef103d395af", "is_disabled": 0, "bike_id": "acff56ff2732df3272fd0ef103d395af", "lon": -77.033404, "rental_uris": {"android": "https://dc.lft.to/lastmile_qr_scan", "ios": "https://dc.lft.to/lastmile_qr_scan"}, "fusion_lon": 0.0, "is_reserved": 0}, {"lat": 38.9846385, "fusion_lat": 0.0, "type": "electric_bike", "name": "d464c80c269240f54112ae42326bb477", "is_disabled": 0, "bike_id": "d464c80c269240f54112ae42326bb477", "lon": -76.97053483333333, "rental_uris": {"android": "https://dc.lft.to/lastmile_qr_scan", "ios": "https://dc.lft.to/lastmile_qr_scan"}, "fusion_lon": 0.0, "is_reserved": 0}, {"lat": 38.9043615, "fusion_lat": 0.0, "type": "electric_scooter", "name": "e36b3a79f0caf438dc09d31390371902", "is_disabled": 0, "bike_id": "e36b3a79f0caf438dc09d31390371902", "lon": -77.0435295, "rental_uris": {"android": "https://dc.lft.to/lastmile_qr_scan", "ios": "https://dc.lft.to/lastmile_qr_scan"}, "fusion_lon": 0.0, "is_reserved": 0}, {"lat": 38.87210366666667, "fusion_lat": 0.0, "type": "electric_scooter", "name": "bfb857f5501cb52f5844d8fd5ae6d020", "is_disabled": 0, "bike_id": "bfb857f5501cb52f5844d8fd5ae6d020", "lon": -77.0123145, "rental_uris": {"android": "https://dc.lft.to/lastmile_qr_scan", "ios": "https://dc.lft.to/lastmile_qr_scan"}, "fusion_lon": 0.0, "is_reserved": 0}, {"lat": 38.911864333333334, "fusion_lat": 0.0, "type": "electric_scooter", "name": "a0154d5b9f9d5cddcb8f7a6e3815e9ea", "is_disabled": 0, "bike_id": "a0154d5b9f9d5cddcb8f7a6e3815e9ea", "lon": -77.007052, "rental_uris": {"android": "https://dc.lft.to/lastmile_qr_scan", "ios": "https://dc.lft.to/lastmile_qr_scan"}, "fusion_lon": 0.0, "is_reserved": 0}, {"lat": 38.91008466666667, "fusion_lat": 0.0, "type": "electric_scooter", "name": "562a2098bbe1a6b1969b8203c6e63d3b", "is_disabled": 0, "bike_id": "562a2098bbe1a6b1969b8203c6e63d3b", "lon": -77.03667666666666, "rental_uris": {"android": "https://dc.lft.to/lastmile_qr_scan", "ios": "https://dc.lft.to/lastmile_qr_scan"}, "fusion_lon": 0.0, "is_reserved": 0}, {"lat": 38.9225785, "fusion_lat": 0.0, "type": "electric_scooter", "name": "77e97170a124682dd8f00e55a2d3fe63", "is_disabled": 0, "bike_id": "77e97170a124682dd8f00e55a2d3fe63", "lon": -77.038959, "rental_uris": {"android": "https://dc.lft.to/lastmile_qr_scan", "ios": "https://dc.lft.to/lastmile_qr_scan"}, "fusion_lon": 0.0, "is_reserved": 0}, {"lat": 38.90372633333333, "fusion_lat": 0.0, "type": "electric_scooter", "name": "33c52c3e729f5c70ec7eb0a7911f49fe", "is_disabled": 0, "bike_id": "33c52c3e729f5c70ec7eb0a7911f49fe", "lon": -77.0433315, "rental_uris": {"android": "https://dc.lft.to/lastmile_qr_scan", "ios": "https://dc.lft.to/lastmile_qr_scan"}, "fusion_lon": 0.0, "is_reserved": 0}, {"lat": 38.924415333333336, "fusion_lat": 0.0, "type": "electric_scooter", "name": "2a2bbb8e83a856fbfa77b0ca62851964", "is_disabled": 0, "bike_id": "2a2bbb8e83a856fbfa77b0ca62851964", "lon": -77.03992066666666, "rental_uris": {"android": "https://dc.lft.to/lastmile_qr_scan", "ios": "https://dc.lft.to/lastmile_qr_scan"}, "fusion_lon": 0.0, "is_reserved": 0}, {"lat": 38.89267516666666, "fusion_lat": 0.0, "type": "electric_bike", "name": "f2d87b47f85c5c8b85594ed20de78eac", "is_disabled": 0, "bike_id": "f2d87b47f85c5c8b85594ed20de78eac", "lon": -77.08145433333334, "rental_uris": {"android": "https://dc.lft.to/lastmile_qr_scan", "ios": "https://dc.lft.to/lastmile_qr_scan"}, "fusion_lon": 0.0, "is_reserved": 0}, {"lat": 38.932908166666664, "fusion_lat": 0.0, "type": "electric_scooter", "name": "f590296b84534025a533ccd4b38ad884", "is_disabled": 0, "bike_id": "f590296b84534025a533ccd4b38ad884", "lon": -76.986277, "rental_uris": {"android": "https://dc.lft.to/lastmile_qr_scan", "ios": "https://dc.lft.to/lastmile_qr_scan"}, "fusion_lon": 0.0, "is_reserved": 0}, {"lat": 38.9125275, "fusion_lat": 0.0, "type": "electric_scooter", "name": "524ad8d4c1e2feb8e510bceab7c266cf", "is_disabled": 0, "bike_id": "524ad8d4c1e2feb8e510bceab7c266cf", "lon": -77.02205533333333, "rental_uris": {"android": "https://dc.lft.to/lastmile_qr_scan", "ios": "https://dc.lft.to/lastmile_qr_scan"}, "fusion_lon": 0.0, "is_reserved": 0}, {"lat": 38.898619833333335, "fusion_lat": 0.0, "type": "electric_scooter", "name": "e957ee1ce207113d8011693bb4dab49b", "is_disabled": 0, "bike_id": "e957ee1ce207113d8011693bb4dab49b", "lon": -77.04367933333333, "rental_uris": {"android": "https://dc.lft.to/lastmile_qr_scan", "ios": "https://dc.lft.to/lastmile_qr_scan"}, "fusion_lon": 0.0, "is_reserved": 0}, {"lat": 38.899133166666665, "fusion_lat": 0.0, "type": "electric_scooter", "name": "36bdbf0d6595e9f126dd5844000d69b2", "is_disabled": 0, "bike_id": "36bdbf0d6595e9f126dd5844000d69b2", "lon": -77.032954, "rental_uris": {"android": "https://dc.lft.to/lastmile_qr_scan", "ios": "https://dc.lft.to/lastmile_qr_scan"}, "fusion_lon": 0.0, "is_reserved": 0}, {"lat": 38.844505166666664, "fusion_lat": 0.0, "type": "electric_bike", "name": "45c5c4120fe289376353fb97c092d2a7", "is_disabled": 0, "bike_id": "45c5c4120fe289376353fb97c092d2a7", "lon": -77.00171916666666, "rental_uris": {"android": "https://dc.lft.to/lastmile_qr_scan", "ios": "https://dc.lft.to/lastmile_qr_scan"}, "fusion_lon": 0.0, "is_reserved": 0}, {"lat": 38.918219, "fusion_lat": 0.0, "type": "electric_scooter", "name": "21deaa3ea3d7c909b47277c0765325db", "is_disabled": 0, "bike_id": "21deaa3ea3d7c909b47277c0765325db", "lon": -77.04174033333334, "rental_uris": {"android": "https://dc.lft.to/lastmile_qr_scan", "ios": "https://dc.lft.to/lastmile_qr_scan"}, "fusion_lon": 0.0, "is_reserved": 0}, {"lat": 38.9078255, "fusion_lat": 0.0, "type": "electric_scooter", "name": "5266bbf557a31a992505433055eafe25", "is_disabled": 0, "bike_id": "5266bbf557a31a992505433055eafe25", "lon": -77.04670416666667, "rental_uris": {"android": "https://dc.lft.to/lastmile_qr_scan", "ios": "https://dc.lft.to/lastmile_qr_scan"}, "fusion_lon": 0.0, "is_reserved": 0}, {"lat": 38.86502816666667, "fusion_lat": 0.0, "type": "electric_scooter", "name": "41d9a318a85393936490ffdc8f3256e5", "is_disabled": 0, "bike_id": "41d9a318a85393936490ffdc8f3256e5", "lon": -76.9899915, "rental_uris": {"android": "https://dc.lft.to/lastmile_qr_scan", "ios": "https://dc.lft.to/lastmile_qr_scan"}, "fusion_lon": 0.0, "is_reserved": 0}, {"lat": 38.914069166666664, "fusion_lat": 0.0, "type": "electric_scooter", "name": "744c5e1db694db95dac247806a12084d", "is_disabled": 0, "bike_id": "744c5e1db694db95dac247806a12084d", "lon": -77.0155605, "rental_uris": {"android": "https://dc.lft.to/lastmile_qr_scan", "ios": "https://dc.lft.to/lastmile_qr_scan"}, "fusion_lon": 0.0, "is_reserved": 0}, {"lat": 38.90143666666667, "fusion_lat": 0.0, "type": "electric_scooter", "name": "c5370b11df02667498af7dfaae23d827", "is_disabled": 0, "bike_id": "c5370b11df02667498af7dfaae23d827", "lon": -77.0027245, "rental_uris": {"android": "https://dc.lft.to/lastmile_qr_scan", "ios": "https://dc.lft.to/lastmile_qr_scan"}, "fusion_lon": 0.0, "is_reserved": 0}, {"lat": 38.89056733333334, "fusion_lat": 0.0, "type": "electric_scooter", "name": "e8fa5930f0db0c255815893b32ebbc06", "is_disabled": 0, "bike_id": "e8fa5930f0db0c255815893b32ebbc06", "lon": -76.937601, "rental_uris": {"android": "https://dc.lft.to/lastmile_qr_scan", "ios": "https://dc.lft.to/lastmile_qr_scan"}, "fusion_lon": 0.0, "is_reserved": 0}, {"lat": 38.897374166666665, "fusion_lat": 0.0, "type": "electric_scooter", "name": "4dd6237a892a033bbcceac743a372f49", "is_disabled": 0, "bike_id": "4dd6237a892a033bbcceac743a372f49", "lon": -77.045673, "rental_uris": {"android": "https://dc.lft.to/lastmile_qr_scan", "ios": "https://dc.lft.to/lastmile_qr_scan"}, "fusion_lon": 0.0, "is_reserved": 0}, {"lat": 38.876370666666666, "fusion_lat": 0.0, "type": "electric_scooter", "name": "045ad7817981887d65324a9cb392e6d7", "is_disabled": 0, "bike_id": "045ad7817981887d65324a9cb392e6d7", "lon": -77.0038545, "rental_uris": {"android": "https://dc.lft.to/lastmile_qr_scan", "ios": "https://dc.lft.to/lastmile_qr_scan"}, "fusion_lon": 0.0, "is_reserved": 0}, {"lat": 38.934762, "fusion_lat": 0.0, "type": "electric_scooter", "name": "3a102e154f5ac1b9d416eb11c76b9298", "is_disabled": 0, "bike_id": "3a102e154f5ac1b9d416eb11c76b9298", "lon": -77.0728435, "rental_uris": {"android": "https://dc.lft.to/lastmile_qr_scan", "ios": "https://dc.lft.to/lastmile_qr_scan"}, "fusion_lon": 0.0, "is_reserved": 0}, {"lat": 38.884533, "fusion_lat": 0.0, "type": "electric_scooter", "name": "5194ed21a25cb35ff53a29a45ec207bf", "is_disabled": 0, "bike_id": "5194ed21a25cb35ff53a29a45ec207bf", "lon": -76.95098383333334, "rental_uris": {"android": "https://dc.lft.to/lastmile_qr_scan", "ios": "https://dc.lft.to/lastmile_qr_scan"}, "fusion_lon": 0.0, "is_reserved": 0}, {"lat": 38.92278433333333, "fusion_lat": 0.0, "type": "electric_scooter", "name": "c288a2e2dcaed83e333b0d4c4edf9339", "is_disabled": 0, "bike_id": "c288a2e2dcaed83e333b0d4c4edf9339", "lon": -77.0423725, "rental_uris": {"android": "https://dc.lft.to/lastmile_qr_scan", "ios": "https://dc.lft.to/lastmile_qr_scan"}, "fusion_lon": 0.0, "is_reserved": 0}, {"lat": 38.8965895, "fusion_lat": 0.0, "type": "electric_scooter", "name": "2bd4f07203c77916d1f9388b65da8029", "is_disabled": 0, "bike_id": "2bd4f07203c77916d1f9388b65da8029", "lon": -77.01895383333333, "rental_uris": {"android": "https://dc.lft.to/lastmile_qr_scan", "ios": "https://dc.lft.to/lastmile_qr_scan"}, "fusion_lon": 0.0, "is_reserved": 0}, {"lat": 38.924211666666665, "fusion_lat": 0.0, "type": "electric_scooter", "name": "02d279e4a96e38df29ccee891ee2979a", "is_disabled": 0, "bike_id": "02d279e4a96e38df29ccee891ee2979a", "lon": -77.0228525, "rental_uris": {"android": "https://dc.lft.to/lastmile_qr_scan", "ios": "https://dc.lft.to/lastmile_qr_scan"}, "fusion_lon": 0.0, "is_reserved": 0}, {"lat": 38.885733333333334, "fusion_lat": 0.0, "type": "electric_scooter", "name": "7f4a475d5b7568e1c9670543a7f36791", "is_disabled": 0, "bike_id": "7f4a475d5b7568e1c9670543a7f36791", "lon": -77.015468, "rental_uris": {"android": "https://dc.lft.to/lastmile_qr_scan", "ios": "https://dc.lft.to/lastmile_qr_scan"}, "fusion_lon": 0.0, "is_reserved": 0}, {"lat": 38.931798, "fusion_lat": 0.0, "type": "electric_scooter", "name": "2f1cc195a45f9ca3daff606a566ce61f", "is_disabled": 0, "bike_id": "2f1cc195a45f9ca3daff606a566ce61f", "lon": -77.04302316666667, "rental_uris": {"android": "https://dc.lft.to/lastmile_qr_scan", "ios": "https://dc.lft.to/lastmile_qr_scan"}, "fusion_lon": 0.0, "is_reserved": 0}, {"lat": 38.899614666666665, "fusion_lat": 0.0, "type": "electric_scooter", "name": "cd6066be91d44a263be9597bba3363cb", "is_disabled": 0, "bike_id": "cd6066be91d44a263be9597bba3363cb", "lon": -77.044885, "rental_uris": {"android": "https://dc.lft.to/lastmile_qr_scan", "ios": "https://dc.lft.to/lastmile_qr_scan"}, "fusion_lon": 0.0, "is_reserved": 0}, {"lat": 38.89082166666667, "fusion_lat": 0.0, "type": "electric_scooter", "name": "efb39b2c7f952eb00f694fd7f6c92cc6", "is_disabled": 0, "bike_id": "efb39b2c7f952eb00f694fd7f6c92cc6", "lon": -76.98822933333334, "rental_uris": {"android": "https://dc.lft.to/lastmile_qr_scan", "ios": "https://dc.lft.to/lastmile_qr_scan"}, "fusion_lon": 0.0, "is_reserved": 0}, {"lat": 38.935015, "fusion_lat": 0.0, "type": "electric_scooter", "name": "feb35d97a419cac1942471ed37139e48", "is_disabled": 0, "bike_id": "feb35d97a419cac1942471ed37139e48", "lon": -77.0272495, "rental_uris": {"android": "https://dc.lft.to/lastmile_qr_scan", "ios": "https://dc.lft.to/lastmile_qr_scan"}, "fusion_lon": 0.0, "is_reserved": 0}, {"lat": 38.83096666666667, "fusion_lat": 0.0, "type": "electric_bike", "name": "4b02acff4f14c076a7a94336e54a0a15", "is_disabled": 0, "bike_id": "4b02acff4f14c076a7a94336e54a0a15", "lon": -77.0429045, "rental_uris": {"android": "https://dc.lft.to/lastmile_qr_scan", "ios": "https://dc.lft.to/lastmile_qr_scan"}, "fusion_lon": 0.0, "is_reserved": 0}, {"lat": 38.901875833333335, "fusion_lat": 0.0, "type": "electric_scooter", "name": "3be61b8292a966ed6a98c3719db1a7f1", "is_disabled": 0, "bike_id": "3be61b8292a966ed6a98c3719db1a7f1", "lon": -76.92897133333334, "rental_uris": {"android": "https://dc.lft.to/lastmile_qr_scan", "ios": "https://dc.lft.to/lastmile_qr_scan"}, "fusion_lon": 0.0, "is_reserved": 0}, {"lat": 38.897450166666665, "fusion_lat": 0.0, "type": "electric_scooter", "name": "d210bd27a4d9b2c4f5839a2ecde2aee8", "is_disabled": 0, "bike_id": "d210bd27a4d9b2c4f5839a2ecde2aee8", "lon": -77.03000233333333, "rental_uris": {"android": "https://dc.lft.to/lastmile_qr_scan", "ios": "https://dc.lft.to/lastmile_qr_scan"}, "fusion_lon": 0.0, "is_reserved": 0}, {"lat": 38.892283166666665, "fusion_lat": 0.0, "type": "electric_scooter", "name": "3770bb27956077288d015095fcf43118", "is_disabled": 0, "bike_id": "3770bb27956077288d015095fcf43118", "lon": -77.02382916666667, "rental_uris": {"android": "https://dc.lft.to/lastmile_qr_scan", "ios": "https://dc.lft.to/lastmile_qr_scan"}, "fusion_lon": 0.0, "is_reserved": 0}, {"lat": 38.89197566666667, "fusion_lat": 0.0, "type": "electric_scooter", "name": "d275504b5bc610a8cb5ac4054463fb7a", "is_disabled": 0, "bike_id": "d275504b5bc610a8cb5ac4054463fb7a", "lon": -77.02380366666667, "rental_uris": {"android": "https://dc.lft.to/lastmile_qr_scan", "ios": "https://dc.lft.to/lastmile_qr_scan"}, "fusion_lon": 0.0, "is_reserved": 0}, {"lat": 38.897659833333336, "fusion_lat": 0.0, "type": "electric_scooter", "name": "73ade2ea974917ffd5c0ed8c3a71e9c9", "is_disabled": 0, "bike_id": "73ade2ea974917ffd5c0ed8c3a71e9c9", "lon": -77.031659, "rental_uris": {"android": "https://dc.lft.to/lastmile_qr_scan", "ios": "https://dc.lft.to/lastmile_qr_scan"}, "fusion_lon": 0.0, "is_reserved": 0}, {"lat": 38.92753783333333, "fusion_lat": 0.0, "type": "electric_scooter", "name": "e6be92d30a49063c8bfeaca9bfb8872e", "is_disabled": 0, "bike_id": "e6be92d30a49063c8bfeaca9bfb8872e", "lon": -77.02106916666666, "rental_uris": {"android": "https://dc.lft.to/lastmile_qr_scan", "ios": "https://dc.lft.to/lastmile_qr_scan"}, "fusion_lon": 0.0, "is_reserved": 0}, {"lat": 38.937030666666665, "fusion_lat": 0.0, "type": "electric_bike", "name": "3cdc0e7e6562c8f7b07511f9d67f1af3", "is_disabled": 0, "bike_id": "3cdc0e7e6562c8f7b07511f9d67f1af3", "lon": -77.0211625, "rental_uris": {"android": "https://dc.lft.to/lastmile_qr_scan", "ios": "https://dc.lft.to/lastmile_qr_scan"}, "fusion_lon": 0.0, "is_reserved": 0}, {"lat": 38.902403666666665, "fusion_lat": 0.0, "type": "electric_scooter", "name": "bbc9b810408a09c57673ebb986e6d600", "is_disabled": 0, "bike_id": "bbc9b810408a09c57673ebb986e6d600", "lon": -77.00198666666667, "rental_uris": {"android": "https://dc.lft.to/lastmile_qr_scan", "ios": "https://dc.lft.to/lastmile_qr_scan"}, "fusion_lon": 0.0, "is_reserved": 0}, {"lat": 38.902807833333334, "fusion_lat": 0.0, "type": "electric_scooter", "name": "99b115adb2e22e11ac139f9654f31cf5", "is_disabled": 0, "bike_id": "99b115adb2e22e11ac139f9654f31cf5", "lon": -77.01765516666667, "rental_uris": {"android": "https://dc.lft.to/lastmile_qr_scan", "ios": "https://dc.lft.to/lastmile_qr_scan"}, "fusion_lon": 0.0, "is_reserved": 0}, {"lat": 38.90692816666667, "fusion_lat": 0.0, "type": "electric_scooter", "name": "5753842c19865f38d3ac78de8ba4dfa8", "is_disabled": 0, "bike_id": "5753842c19865f38d3ac78de8ba4dfa8", "lon": -77.02394883333334, "rental_uris": {"android": "https://dc.lft.to/lastmile_qr_scan", "ios": "https://dc.lft.to/lastmile_qr_scan"}, "fusion_lon": 0.0, "is_reserved": 0}, {"lat": 38.901616, "fusion_lat": 0.0, "type": "electric_scooter", "name": "76dcac821703c79b8f56306a366fde8f", "is_disabled": 0, "bike_id": "76dcac821703c79b8f56306a366fde8f", "lon": -77.02026933333333, "rental_uris": {"android": "https://dc.lft.to/lastmile_qr_scan", "ios": "https://dc.lft.to/lastmile_qr_scan"}, "fusion_lon": 0.0, "is_reserved": 0}, {"lat": 38.884097833333335, "fusion_lat": 0.0, "type": "electric_scooter", "name": "bc4fbb2f6ac1879a2319b73ce8836ef3", "is_disabled": 0, "bike_id": "bc4fbb2f6ac1879a2319b73ce8836ef3", "lon": -76.94823416666667, "rental_uris": {"android": "https://dc.lft.to/lastmile_qr_scan", "ios": "https://dc.lft.to/lastmile_qr_scan"}, "fusion_lon": 0.0, "is_reserved": 0}, {"lat": 38.922466166666666, "fusion_lat": 0.0, "type": "electric_scooter", "name": "0357e98e90e5ddf20f868a70252459b8", "is_disabled": 0, "bike_id": "0357e98e90e5ddf20f868a70252459b8", "lon": -77.042552, "rental_uris": {"android": "https://dc.lft.to/lastmile_qr_scan", "ios": "https://dc.lft.to/lastmile_qr_scan"}, "fusion_lon": 0.0, "is_reserved": 0}, {"lat": 38.9278955, "fusion_lat": 0.0, "type": "electric_scooter", "name": "14708bad06c1588a24e718a5d9e58cb4", "is_disabled": 0, "bike_id": "14708bad06c1588a24e718a5d9e58cb4", "lon": -77.03210083333333, "rental_uris": {"android": "https://dc.lft.to/lastmile_qr_scan", "ios": "https://dc.lft.to/lastmile_qr_scan"}, "fusion_lon": 0.0, "is_reserved": 0}, {"lat": 38.900428833333336, "fusion_lat": 0.0, "type": "electric_scooter", "name": "18700145554ea7ad05cf330a35fd2701", "is_disabled": 0, "bike_id": "18700145554ea7ad05cf330a35fd2701", "lon": -76.98821833333334, "rental_uris": {"android": "https://dc.lft.to/lastmile_qr_scan", "ios": "https://dc.lft.to/lastmile_qr_scan"}, "fusion_lon": 0.0, "is_reserved": 0}, {"lat": 38.916995, "fusion_lat": 0.0, "type": "electric_scooter", "name": "dc0a09cbe7087c25180e9388fbc4ff10", "is_disabled": 0, "bike_id": "dc0a09cbe7087c25180e9388fbc4ff10", "lon": -77.02463583333333, "rental_uris": {"android": "https://dc.lft.to/lastmile_qr_scan", "ios": "https://dc.lft.to/lastmile_qr_scan"}, "fusion_lon": 0.0, "is_reserved": 0}, {"lat": 38.905779833333334, "fusion_lat": 0.0, "type": "electric_scooter", "name": "7910dcc0824179c96ccab2e0162252db", "is_disabled": 0, "bike_id": "7910dcc0824179c96ccab2e0162252db", "lon": -77.0435515, "rental_uris": {"android": "https://dc.lft.to/lastmile_qr_scan", "ios": "https://dc.lft.to/lastmile_qr_scan"}, "fusion_lon": 0.0, "is_reserved": 0}, {"lat": 38.92124416666667, "fusion_lat": 0.0, "type": "electric_scooter", "name": "aa24fa583b5f61ca2e1106e3cbd0cffd", "is_disabled": 0, "bike_id": "aa24fa583b5f61ca2e1106e3cbd0cffd", "lon": -77.04579183333334, "rental_uris": {"android": "https://dc.lft.to/lastmile_qr_scan", "ios": "https://dc.lft.to/lastmile_qr_scan"}, "fusion_lon": 0.0, "is_reserved": 0}, {"lat": 38.90730116666667, "fusion_lat": 0.0, "type": "electric_scooter", "name": "5cff3fe07d40b517238235446b967d7a", "is_disabled": 0, "bike_id": "5cff3fe07d40b517238235446b967d7a", "lon": -77.02373783333333, "rental_uris": {"android": "https://dc.lft.to/lastmile_qr_scan", "ios": "https://dc.lft.to/lastmile_qr_scan"}, "fusion_lon": 0.0, "is_reserved": 0}, {"lat": 38.930766166666665, "fusion_lat": 0.0, "type": "electric_scooter", "name": "7c41a23d8699c4d9c4837a2cf6548509", "is_disabled": 0, "bike_id": "7c41a23d8699c4d9c4837a2cf6548509", "lon": -77.02737383333333, "rental_uris": {"android": "https://dc.lft.to/lastmile_qr_scan", "ios": "https://dc.lft.to/lastmile_qr_scan"}, "fusion_lon": 0.0, "is_reserved": 0}, {"lat": 38.85467933333334, "fusion_lat": 0.0, "type": "electric_bike", "name": "92d8a0529267ba01428fb57e45d1b335", "is_disabled": 0, "bike_id": "92d8a0529267ba01428fb57e45d1b335", "lon": -77.04923283333333, "rental_uris": {"android": "https://dc.lft.to/lastmile_qr_scan", "ios": "https://dc.lft.to/lastmile_qr_scan"}, "fusion_lon": 0.0, "is_reserved": 0}, {"lat": 38.904662333333334, "fusion_lat": 0.0, "type": "electric_scooter", "name": "ee8c60b9df1134b72f0e12bf2891fd1b", "is_disabled": 0, "bike_id": "ee8c60b9df1134b72f0e12bf2891fd1b", "lon": -77.03910583333334, "rental_uris": {"android": "https://dc.lft.to/lastmile_qr_scan", "ios": "https://dc.lft.to/lastmile_qr_scan"}, "fusion_lon": 0.0, "is_reserved": 0}, {"lat": 38.901478, "fusion_lat": 0.0, "type": "electric_bike", "name": "87871d00cb8157f65278ed98186bca96", "is_disabled": 0, "bike_id": "87871d00cb8157f65278ed98186bca96", "lon": -77.04669883333334, "rental_uris": {"android": "https://dc.lft.to/lastmile_qr_scan", "ios": "https://dc.lft.to/lastmile_qr_scan"}, "fusion_lon": 0.0, "is_reserved": 0}, {"lat": 38.90838433333333, "fusion_lat": 0.0, "type": "electric_scooter", "name": "c506fc28fac01bd1831edf55dae77ae5", "is_disabled": 0, "bike_id": "c506fc28fac01bd1831edf55dae77ae5", "lon": -77.04374133333333, "rental_uris": {"android": "https://dc.lft.to/lastmile_qr_scan", "ios": "https://dc.lft.to/lastmile_qr_scan"}, "fusion_lon": 0.0, "is_reserved": 0}, {"lat": 38.937420333333336, "fusion_lat": 0.0, "type": "electric_scooter", "name": "e1178504606d8f865cc3ec7cdd672d0b", "is_disabled": 0, "bike_id": "e1178504606d8f865cc3ec7cdd672d0b", "lon": -77.02364733333333, "rental_uris": {"android": "https://dc.lft.to/lastmile_qr_scan", "ios": "https://dc.lft.to/lastmile_qr_scan"}, "fusion_lon": 0.0, "is_reserved": 0}, {"lat": 38.89647333333333, "fusion_lat": 0.0, "type": "electric_scooter", "name": "dfd675c8b3a8d69bf9cc882070a86dd5", "is_disabled": 0, "bike_id": "dfd675c8b3a8d69bf9cc882070a86dd5", "lon": -77.0400545, "rental_uris": {"android": "https://dc.lft.to/lastmile_qr_scan", "ios": "https://dc.lft.to/lastmile_qr_scan"}, "fusion_lon": 0.0, "is_reserved": 0}, {"lat": 38.906643333333335, "fusion_lat": 0.0, "type": "electric_scooter", "name": "d2d04b3da4cb01ac58f6e495de9e8e47", "is_disabled": 0, "bike_id": "d2d04b3da4cb01ac58f6e495de9e8e47", "lon": -77.041747, "rental_uris": {"android": "https://dc.lft.to/lastmile_qr_scan", "ios": "https://dc.lft.to/lastmile_qr_scan"}, "fusion_lon": 0.0, "is_reserved": 0}, {"lat": 38.89450316666667, "fusion_lat": 0.0, "type": "electric_scooter", "name": "5421a66a9a1b06d9fcc398b616530ac8", "is_disabled": 0, "bike_id": "5421a66a9a1b06d9fcc398b616530ac8", "lon": -77.02628733333333, "rental_uris": {"android": "https://dc.lft.to/lastmile_qr_scan", "ios": "https://dc.lft.to/lastmile_qr_scan"}, "fusion_lon": 0.0, "is_reserved": 0}, {"lat": 38.92588416666667, "fusion_lat": 0.0, "type": "electric_scooter", "name": "10b318ccfe48e5d32ae370d8a557d874", "is_disabled": 0, "bike_id": "10b318ccfe48e5d32ae370d8a557d874", "lon": -77.03223016666666, "rental_uris": {"android": "https://dc.lft.to/lastmile_qr_scan", "ios": "https://dc.lft.to/lastmile_qr_scan"}, "fusion_lon": 0.0, "is_reserved": 0}, {"lat": 38.9044135, "fusion_lat": 0.0, "type": "electric_scooter", "name": "afa91aeed316fc75153ff9ac6728c951", "is_disabled": 0, "bike_id": "afa91aeed316fc75153ff9ac6728c951", "lon": -77.034776, "rental_uris": {"android": "https://dc.lft.to/lastmile_qr_scan", "ios": "https://dc.lft.to/lastmile_qr_scan"}, "fusion_lon": 0.0, "is_reserved": 0}, {"lat": 38.902423, "fusion_lat": 0.0, "type": "electric_scooter", "name": "b3465101760e8135468b4a9497ebdc04", "is_disabled": 0, "bike_id": "b3465101760e8135468b4a9497ebdc04", "lon": -77.00205316666667, "rental_uris": {"android": "https://dc.lft.to/lastmile_qr_scan", "ios": "https://dc.lft.to/lastmile_qr_scan"}, "fusion_lon": 0.0, "is_reserved": 0}, {"lat": 38.90787133333333, "fusion_lat": 0.0, "type": "electric_scooter", "name": "351c883d75fa2549fd9558cf3ccf1cee", "is_disabled": 0, "bike_id": "351c883d75fa2549fd9558cf3ccf1cee", "lon": -77.0725315, "rental_uris": {"android": "https://dc.lft.to/lastmile_qr_scan", "ios": "https://dc.lft.to/lastmile_qr_scan"}, "fusion_lon": 0.0, "is_reserved": 0}, {"lat": 38.887216, "fusion_lat": 0.0, "type": "electric_scooter", "name": "5a98fce5f8ab0cefc040c7d0dd070d6c", "is_disabled": 0, "bike_id": "5a98fce5f8ab0cefc040c7d0dd070d6c", "lon": -77.01982383333333, "rental_uris": {"android": "https://dc.lft.to/lastmile_qr_scan", "ios": "https://dc.lft.to/lastmile_qr_scan"}, "fusion_lon": 0.0, "is_reserved": 0}, {"lat": 38.87311016666666, "fusion_lat": 0.0, "type": "electric_scooter", "name": "e4d504d5fec942657518bf681bd5f97c", "is_disabled": 0, "bike_id": "e4d504d5fec942657518bf681bd5f97c", "lon": -77.0014735, "rental_uris": {"android": "https://dc.lft.to/lastmile_qr_scan", "ios": "https://dc.lft.to/lastmile_qr_scan"}, "fusion_lon": 0.0, "is_reserved": 0}, {"lat": 38.90383516666667, "fusion_lat": 0.0, "type": "electric_scooter", "name": "d68f80d1c0fa6a763888b69a381056dd", "is_disabled": 0, "bike_id": "d68f80d1c0fa6a763888b69a381056dd", "lon": -77.03594733333334, "rental_uris": {"android": "https://dc.lft.to/lastmile_qr_scan", "ios": "https://dc.lft.to/lastmile_qr_scan"}, "fusion_lon": 0.0, "is_reserved": 0}, {"lat": 38.9631675, "fusion_lat": 0.0, "type": "electric_bike", "name": "a9ab6f7ba7d5e2ee8133ecd5c539ef97", "is_disabled": 0, "bike_id": "a9ab6f7ba7d5e2ee8133ecd5c539ef97", "lon": -76.97366133333334, "rental_uris": {"android": "https://dc.lft.to/lastmile_qr_scan", "ios": "https://dc.lft.to/lastmile_qr_scan"}, "fusion_lon": 0.0, "is_reserved": 0}, {"lat": 38.95746366666667, "fusion_lat": 0.0, "type": "electric_bike", "name": "df21208419a8dad72518688225165526", "is_disabled": 0, "bike_id": "df21208419a8dad72518688225165526", "lon": -76.97254983333333, "rental_uris": {"android": "https://dc.lft.to/lastmile_qr_scan", "ios": "https://dc.lft.to/lastmile_qr_scan"}, "fusion_lon": 0.0, "is_reserved": 0}, {"lat": 38.928515166666664, "fusion_lat": 0.0, "type": "electric_scooter", "name": "2340db74cc21ba6089d99a372a906f79", "is_disabled": 0, "bike_id": "2340db74cc21ba6089d99a372a906f79", "lon": -77.08305866666667, "rental_uris": {"android": "https://dc.lft.to/lastmile_qr_scan", "ios": "https://dc.lft.to/lastmile_qr_scan"}, "fusion_lon": 0.0, "is_reserved": 0}, {"lat": 38.9423335, "fusion_lat": 0.0, "type": "electric_scooter", "name": "9b94dd08a3245f433b81040f030fff64", "is_disabled": 0, "bike_id": "9b94dd08a3245f433b81040f030fff64", "lon": -77.01403666666667, "rental_uris": {"android": "https://dc.lft.to/lastmile_qr_scan", "ios": "https://dc.lft.to/lastmile_qr_scan"}, "fusion_lon": 0.0, "is_reserved": 0}, {"lat": 38.90958066666666, "fusion_lat": 0.0, "type": "electric_scooter", "name": "53f13c6ac6c19d13a7e0fe0495ada0f4", "is_disabled": 0, "bike_id": "53f13c6ac6c19d13a7e0fe0495ada0f4", "lon": -77.0107345, "rental_uris": {"android": "https://dc.lft.to/lastmile_qr_scan", "ios": "https://dc.lft.to/lastmile_qr_scan"}, "fusion_lon": 0.0, "is_reserved": 0}, {"lat": 38.90168716666667, "fusion_lat": 0.0, "type": "electric_scooter", "name": "503f6d33061f95858dc2b8513357a7e2", "is_disabled": 0, "bike_id": "503f6d33061f95858dc2b8513357a7e2", "lon": -76.93023383333333, "rental_uris": {"android": "https://dc.lft.to/lastmile_qr_scan", "ios": "https://dc.lft.to/lastmile_qr_scan"}, "fusion_lon": 0.0, "is_reserved": 0}, {"lat": 38.92254966666667, "fusion_lat": 0.0, "type": "electric_scooter", "name": "7db194cb714bb067a56f0192c416dfa5", "is_disabled": 0, "bike_id": "7db194cb714bb067a56f0192c416dfa5", "lon": -77.021062, "rental_uris": {"android": "https://dc.lft.to/lastmile_qr_scan", "ios": "https://dc.lft.to/lastmile_qr_scan"}, "fusion_lon": 0.0, "is_reserved": 0}, {"lat": 38.912541833333336, "fusion_lat": 0.0, "type": "electric_scooter", "name": "fade0dc9117df08742150820014b7fa3", "is_disabled": 0, "bike_id": "fade0dc9117df08742150820014b7fa3", "lon": -77.0382705, "rental_uris": {"android": "https://dc.lft.to/lastmile_qr_scan", "ios": "https://dc.lft.to/lastmile_qr_scan"}, "fusion_lon": 0.0, "is_reserved": 0}, {"lat": 38.8749235, "fusion_lat": 0.0, "type": "electric_scooter", "name": "e571ad240a64f5692feff784c5b4db20", "is_disabled": 0, "bike_id": "e571ad240a64f5692feff784c5b4db20", "lon": -77.00098083333333, "rental_uris": {"android": "https://dc.lft.to/lastmile_qr_scan", "ios": "https://dc.lft.to/lastmile_qr_scan"}, "fusion_lon": 0.0, "is_reserved": 0}, {"lat": 38.871732333333334, "fusion_lat": 0.0, "type": "electric_scooter", "name": "af91ec766fa8e0b176d9bd4edcec2d5f", "is_disabled": 0, "bike_id": "af91ec766fa8e0b176d9bd4edcec2d5f", "lon": -77.00678383333333, "rental_uris": {"android": "https://dc.lft.to/lastmile_qr_scan", "ios": "https://dc.lft.to/lastmile_qr_scan"}, "fusion_lon": 0.0, "is_reserved": 0}, {"lat": 38.89548833333333, "fusion_lat": 0.0, "type": "electric_scooter", "name": "2cb76f80c2d938d0458501f442f51550", "is_disabled": 0, "bike_id": "2cb76f80c2d938d0458501f442f51550", "lon": -77.0200905, "rental_uris": {"android": "https://dc.lft.to/lastmile_qr_scan", "ios": "https://dc.lft.to/lastmile_qr_scan"}, "fusion_lon": 0.0, "is_reserved": 0}, {"lat": 38.926127666666666, "fusion_lat": 0.0, "type": "electric_scooter", "name": "aaa57903bba7b22320ec0a01a20576ff", "is_disabled": 0, "bike_id": "aaa57903bba7b22320ec0a01a20576ff", "lon": -77.02162066666666, "rental_uris": {"android": "https://dc.lft.to/lastmile_qr_scan", "ios": "https://dc.lft.to/lastmile_qr_scan"}, "fusion_lon": 0.0, "is_reserved": 0}, {"lat": 38.896924, "fusion_lat": 0.0, "type": "electric_scooter", "name": "bf444c386d6fc7292a24bc5c5ab331eb", "is_disabled": 0, "bike_id": "bf444c386d6fc7292a24bc5c5ab331eb", "lon": -77.0049065, "rental_uris": {"android": "https://dc.lft.to/lastmile_qr_scan", "ios": "https://dc.lft.to/lastmile_qr_scan"}, "fusion_lon": 0.0, "is_reserved": 0}, {"lat": 38.926784, "fusion_lat": 0.0, "type": "electric_scooter", "name": "76c1095b0a515cb73218abddaf136f10", "is_disabled": 0, "bike_id": "76c1095b0a515cb73218abddaf136f10", "lon": -77.015569, "rental_uris": {"android": "https://dc.lft.to/lastmile_qr_scan", "ios": "https://dc.lft.to/lastmile_qr_scan"}, "fusion_lon": 0.0, "is_reserved": 0}, {"lat": 39.01223566666667, "fusion_lat": 0.0, "type": "electric_bike", "name": "67fbfd9651c0502bfa236d50317e0bd9", "is_disabled": 0, "bike_id": "67fbfd9651c0502bfa236d50317e0bd9", "lon": -77.11078933333333, "rental_uris": {"android": "https://dc.lft.to/lastmile_qr_scan", "ios": "https://dc.lft.to/lastmile_qr_scan"}, "fusion_lon": 0.0, "is_reserved": 0}, {"lat": 38.936408166666666, "fusion_lat": 0.0, "type": "electric_scooter", "name": "095a9ea18276804247c1aa734386a737", "is_disabled": 0, "bike_id": "095a9ea18276804247c1aa734386a737", "lon": -77.06008283333334, "rental_uris": {"android": "https://dc.lft.to/lastmile_qr_scan", "ios": "https://dc.lft.to/lastmile_qr_scan"}, "fusion_lon": 0.0, "is_reserved": 0}, {"lat": 38.937074333333335, "fusion_lat": 0.0, "type": "electric_scooter", "name": "bac6eeb96cb1dd43698a776962a48663", "is_disabled": 0, "bike_id": "bac6eeb96cb1dd43698a776962a48663", "lon": -77.02423666666667, "rental_uris": {"android": "https://dc.lft.to/lastmile_qr_scan", "ios": "https://dc.lft.to/lastmile_qr_scan"}, "fusion_lon": 0.0, "is_reserved": 0}, {"lat": 38.890899833333336, "fusion_lat": 0.0, "type": "electric_scooter", "name": "573e00c5f08710e083dfa518e1619e16", "is_disabled": 0, "bike_id": "573e00c5f08710e083dfa518e1619e16", "lon": -76.99603216666667, "rental_uris": {"android": "https://dc.lft.to/lastmile_qr_scan", "ios": "https://dc.lft.to/lastmile_qr_scan"}, "fusion_lon": 0.0, "is_reserved": 0}, {"lat": 38.922670833333335, "fusion_lat": 0.0, "type": "electric_scooter", "name": "d666b6ddae583a409d0472c5e4046ca2", "is_disabled": 0, "bike_id": "d666b6ddae583a409d0472c5e4046ca2", "lon": -77.03885333333334, "rental_uris": {"android": "https://dc.lft.to/lastmile_qr_scan", "ios": "https://dc.lft.to/lastmile_qr_scan"}, "fusion_lon": 0.0, "is_reserved": 0}, {"lat": 38.89526383333333, "fusion_lat": 0.0, "type": "electric_scooter", "name": "ee527323707081100784dd55640a0225", "is_disabled": 0, "bike_id": "ee527323707081100784dd55640a0225", "lon": -77.04477283333334, "rental_uris": {"android": "https://dc.lft.to/lastmile_qr_scan", "ios": "https://dc.lft.to/lastmile_qr_scan"}, "fusion_lon": 0.0, "is_reserved": 0}, {"lat": 38.89466916666667, "fusion_lat": 0.0, "type": "electric_scooter", "name": "9304376c5cacc122677279ea03504953", "is_disabled": 0, "bike_id": "9304376c5cacc122677279ea03504953", "lon": -77.0237575, "rental_uris": {"android": "https://dc.lft.to/lastmile_qr_scan", "ios": "https://dc.lft.to/lastmile_qr_scan"}, "fusion_lon": 0.0, "is_reserved": 0}, {"lat": 38.886208333333336, "fusion_lat": 0.0, "type": "electric_scooter", "name": "702ddf9f74d89869c788580fefff3e95", "is_disabled": 0, "bike_id": "702ddf9f74d89869c788580fefff3e95", "lon": -76.95581916666667, "rental_uris": {"android": "https://dc.lft.to/lastmile_qr_scan", "ios": "https://dc.lft.to/lastmile_qr_scan"}, "fusion_lon": 0.0, "is_reserved": 0}, {"lat": 38.8842755, "fusion_lat": 0.0, "type": "electric_scooter", "name": "ad8c1a4e30d7aa9901355bef385f3c23", "is_disabled": 0, "bike_id": "ad8c1a4e30d7aa9901355bef385f3c23", "lon": -76.95755316666667, "rental_uris": {"android": "https://dc.lft.to/lastmile_qr_scan", "ios": "https://dc.lft.to/lastmile_qr_scan"}, "fusion_lon": 0.0, "is_reserved": 0}, {"lat": 38.94817116666667, "fusion_lat": 0.0, "type": "electric_scooter", "name": "55d86db28f510a5b24d7fed7395e823d", "is_disabled": 0, "bike_id": "55d86db28f510a5b24d7fed7395e823d", "lon": -77.0328315, "rental_uris": {"android": "https://dc.lft.to/lastmile_qr_scan", "ios": "https://dc.lft.to/lastmile_qr_scan"}, "fusion_lon": 0.0, "is_reserved": 0}, {"lat": 38.89224166666666, "fusion_lat": 0.0, "type": "electric_scooter", "name": "c27a57eb9ea4d23ed3571decf6658589", "is_disabled": 0, "bike_id": "c27a57eb9ea4d23ed3571decf6658589", "lon": -77.0469645, "rental_uris": {"android": "https://dc.lft.to/lastmile_qr_scan", "ios": "https://dc.lft.to/lastmile_qr_scan"}, "fusion_lon": 0.0, "is_reserved": 0}, {"lat": 38.857688, "fusion_lat": 0.0, "type": "electric_scooter", "name": "c50537f66f523dcd7c50c5008017f701", "is_disabled": 0, "bike_id": "c50537f66f523dcd7c50c5008017f701", "lon": -76.98882416666666, "rental_uris": {"android": "https://dc.lft.to/lastmile_qr_scan", "ios": "https://dc.lft.to/lastmile_qr_scan"}, "fusion_lon": 0.0, "is_reserved": 0}, {"lat": 38.901345666666664, "fusion_lat": 0.0, "type": "electric_scooter", "name": "05dee1d6500fce8889e6e9222a181800", "is_disabled": 0, "bike_id": "05dee1d6500fce8889e6e9222a181800", "lon": -76.99797083333333, "rental_uris": {"android": "https://dc.lft.to/lastmile_qr_scan", "ios": "https://dc.lft.to/lastmile_qr_scan"}, "fusion_lon": 0.0, "is_reserved": 0}, {"lat": 38.92668183333333, "fusion_lat": 0.0, "type": "electric_scooter", "name": "e8b292edf9fc07b6336da4dd7cc3d6b3", "is_disabled": 0, "bike_id": "e8b292edf9fc07b6336da4dd7cc3d6b3", "lon": -76.9953405, "rental_uris": {"android": "https://dc.lft.to/lastmile_qr_scan", "ios": "https://dc.lft.to/lastmile_qr_scan"}, "fusion_lon": 0.0, "is_reserved": 0}, {"lat": 38.9042605, "fusion_lat": 0.0, "type": "electric_scooter", "name": "fa5e79208d4927e4e91e4fab15bfec3a", "is_disabled": 0, "bike_id": "fa5e79208d4927e4e91e4fab15bfec3a", "lon": -77.04332983333333, "rental_uris": {"android": "https://dc.lft.to/lastmile_qr_scan", "ios": "https://dc.lft.to/lastmile_qr_scan"}, "fusion_lon": 0.0, "is_reserved": 0}, {"lat": 38.9181115, "fusion_lat": 0.0, "type": "electric_scooter", "name": "dd769ee90d4b9ad9021b84e70155ee2c", "is_disabled": 0, "bike_id": "dd769ee90d4b9ad9021b84e70155ee2c", "lon": -77.02506083333333, "rental_uris": {"android": "https://dc.lft.to/lastmile_qr_scan", "ios": "https://dc.lft.to/lastmile_qr_scan"}, "fusion_lon": 0.0, "is_reserved": 0}, {"lat": 38.92487366666667, "fusion_lat": 0.0, "type": "electric_scooter", "name": "039940e79f0b966e5df287d0b94571aa", "is_disabled": 0, "bike_id": "039940e79f0b966e5df287d0b94571aa", "lon": -77.0219865, "rental_uris": {"android": "https://dc.lft.to/lastmile_qr_scan", "ios": "https://dc.lft.to/lastmile_qr_scan"}, "fusion_lon": 0.0, "is_reserved": 0}, {"lat": 38.9028185, "fusion_lat": 0.0, "type": "electric_scooter", "name": "0a6d1eb9da269c988cf38d651d61b0a6", "is_disabled": 0, "bike_id": "0a6d1eb9da269c988cf38d651d61b0a6", "lon": -77.05924883333333, "rental_uris": {"android": "https://dc.lft.to/lastmile_qr_scan", "ios": "https://dc.lft.to/lastmile_qr_scan"}, "fusion_lon": 0.0, "is_reserved": 0}, {"lat": 38.862348833333336, "fusion_lat": 0.0, "type": "electric_bike", "name": "f542d4ca81b5d97725bdd2433e0b300a", "is_disabled": 0, "bike_id": "f542d4ca81b5d97725bdd2433e0b300a", "lon": -76.95288533333333, "rental_uris": {"android": "https://dc.lft.to/lastmile_qr_scan", "ios": "https://dc.lft.to/lastmile_qr_scan"}, "fusion_lon": 0.0, "is_reserved": 0}, {"lat": 38.874315833333334, "fusion_lat": 0.0, "type": "electric_scooter", "name": "a5fc51ef79d292629a74b1e0f9a2dc1c", "is_disabled": 0, "bike_id": "a5fc51ef79d292629a74b1e0f9a2dc1c", "lon": -77.0004475, "rental_uris": {"android": "https://dc.lft.to/lastmile_qr_scan", "ios": "https://dc.lft.to/lastmile_qr_scan"}, "fusion_lon": 0.0, "is_reserved": 0}, {"lat": 38.905274666666664, "fusion_lat": 0.0, "type": "electric_scooter", "name": "f4f741ac2b0d1ddf1ac3615974f19352", "is_disabled": 0, "bike_id": "f4f741ac2b0d1ddf1ac3615974f19352", "lon": -77.04146533333333, "rental_uris": {"android": "https://dc.lft.to/lastmile_qr_scan", "ios": "https://dc.lft.to/lastmile_qr_scan"}, "fusion_lon": 0.0, "is_reserved": 0}, {"lat": 38.9391685, "fusion_lat": 0.0, "type": "electric_scooter", "name": "0a5cdbca4525bdc4b84cd700fb8e8a7f", "is_disabled": 0, "bike_id": "0a5cdbca4525bdc4b84cd700fb8e8a7f", "lon": -77.06043216666667, "rental_uris": {"android": "https://dc.lft.to/lastmile_qr_scan", "ios": "https://dc.lft.to/lastmile_qr_scan"}, "fusion_lon": 0.0, "is_reserved": 0}, {"lat": 38.905224, "fusion_lat": 0.0, "type": "electric_scooter", "name": "4a087f37bebe240f57c5f9806dc770cc", "is_disabled": 0, "bike_id": "4a087f37bebe240f57c5f9806dc770cc", "lon": -76.9966695, "rental_uris": {"android": "https://dc.lft.to/lastmile_qr_scan", "ios": "https://dc.lft.to/lastmile_qr_scan"}, "fusion_lon": 0.0, "is_reserved": 0}, {"lat": 38.90382483333333, "fusion_lat": 0.0, "type": "electric_scooter", "name": "7bc937ca7641dc7946d8e7cb9ea567f1", "is_disabled": 0, "bike_id": "7bc937ca7641dc7946d8e7cb9ea567f1", "lon": -77.045384, "rental_uris": {"android": "https://dc.lft.to/lastmile_qr_scan", "ios": "https://dc.lft.to/lastmile_qr_scan"}, "fusion_lon": 0.0, "is_reserved": 0}, {"lat": 38.91318, "fusion_lat": 0.0, "type": "electric_scooter", "name": "1aa9c9d95635637d868e7b09aa7c5ee4", "is_disabled": 0, "bike_id": "1aa9c9d95635637d868e7b09aa7c5ee4", "lon": -77.03321583333333, "rental_uris": {"android": "https://dc.lft.to/lastmile_qr_scan", "ios": "https://dc.lft.to/lastmile_qr_scan"}, "fusion_lon": 0.0, "is_reserved": 0}, {"lat": 38.907354166666664, "fusion_lat": 0.0, "type": "electric_scooter", "name": "f6fe3bff4270c9f2c331eb29e73d97ed", "is_disabled": 0, "bike_id": "f6fe3bff4270c9f2c331eb29e73d97ed", "lon": -77.04282066666667, "rental_uris": {"android": "https://dc.lft.to/lastmile_qr_scan", "ios": "https://dc.lft.to/lastmile_qr_scan"}, "fusion_lon": 0.0, "is_reserved": 0}, {"lat": 38.8935465, "fusion_lat": 0.0, "type": "electric_bike", "name": "07a519065ef8bceb22e934435502eeca", "is_disabled": 0, "bike_id": "07a519065ef8bceb22e934435502eeca", "lon": -77.18737933333334, "rental_uris": {"android": "https://dc.lft.to/lastmile_qr_scan", "ios": "https://dc.lft.to/lastmile_qr_scan"}, "fusion_lon": 0.0, "is_reserved": 0}, {"lat": 38.90670383333333, "fusion_lat": 0.0, "type": "electric_scooter", "name": "8d39a36021137c5848c6426b945f84f6", "is_disabled": 0, "bike_id": "8d39a36021137c5848c6426b945f84f6", "lon": -77.02713816666666, "rental_uris": {"android": "https://dc.lft.to/lastmile_qr_scan", "ios": "https://dc.lft.to/lastmile_qr_scan"}, "fusion_lon": 0.0, "is_reserved": 0}, {"lat": 38.8651805, "fusion_lat": 0.0, "type": "electric_scooter", "name": "0d07c2e6449b36241f2368bd315e207e", "is_disabled": 0, "bike_id": "0d07c2e6449b36241f2368bd315e207e", "lon": -76.99011233333333, "rental_uris": {"android": "https://dc.lft.to/lastmile_qr_scan", "ios": "https://dc.lft.to/lastmile_qr_scan"}, "fusion_lon": 0.0, "is_reserved": 0}, {"lat": 38.92327383333333, "fusion_lat": 0.0, "type": "electric_scooter", "name": "65ef9be0504a75df9fe88c9433e50285", "is_disabled": 0, "bike_id": "65ef9be0504a75df9fe88c9433e50285", "lon": -77.0190775, "rental_uris": {"android": "https://dc.lft.to/lastmile_qr_scan", "ios": "https://dc.lft.to/lastmile_qr_scan"}, "fusion_lon": 0.0, "is_reserved": 0}, {"lat": 38.89624166666667, "fusion_lat": 0.0, "type": "electric_scooter", "name": "3fb7c5e7b31517ced444259dfe6d22d5", "is_disabled": 0, "bike_id": "3fb7c5e7b31517ced444259dfe6d22d5", "lon": -77.039587, "rental_uris": {"android": "https://dc.lft.to/lastmile_qr_scan", "ios": "https://dc.lft.to/lastmile_qr_scan"}, "fusion_lon": 0.0, "is_reserved": 0}, {"lat": 38.92595716666666, "fusion_lat": 0.0, "type": "electric_scooter", "name": "1ddc0916ada0ee0fff80a109d4d7e288", "is_disabled": 0, "bike_id": "1ddc0916ada0ee0fff80a109d4d7e288", "lon": -77.032197, "rental_uris": {"android": "https://dc.lft.to/lastmile_qr_scan", "ios": "https://dc.lft.to/lastmile_qr_scan"}, "fusion_lon": 0.0, "is_reserved": 0}, {"lat": 38.833775, "fusion_lat": 0.0, "type": "electric_bike", "name": "ffab8a84878c090a126e09ad98f51a1d", "is_disabled": 0, "bike_id": "ffab8a84878c090a126e09ad98f51a1d", "lon": -77.00294266666667, "rental_uris": {"android": "https://dc.lft.to/lastmile_qr_scan", "ios": "https://dc.lft.to/lastmile_qr_scan"}, "fusion_lon": 0.0, "is_reserved": 0}, {"lat": 38.9278615, "fusion_lat": 0.0, "type": "electric_scooter", "name": "c2e5a4e0ee0c631c2c8520c3c83cbbf7", "is_disabled": 0, "bike_id": "c2e5a4e0ee0c631c2c8520c3c83cbbf7", "lon": -77.05259066666666, "rental_uris": {"android": "https://dc.lft.to/lastmile_qr_scan", "ios": "https://dc.lft.to/lastmile_qr_scan"}, "fusion_lon": 0.0, "is_reserved": 0}, {"lat": 38.9227405, "fusion_lat": 0.0, "type": "electric_scooter", "name": "850feb6324125d3ab06d3b21d7b368a2", "is_disabled": 0, "bike_id": "850feb6324125d3ab06d3b21d7b368a2", "lon": -77.02118133333333, "rental_uris": {"android": "https://dc.lft.to/lastmile_qr_scan", "ios": "https://dc.lft.to/lastmile_qr_scan"}, "fusion_lon": 0.0, "is_reserved": 0}, {"lat": 38.91903516666667, "fusion_lat": 0.0, "type": "electric_scooter", "name": "47bd04ae71106e4be18007b4c59c40cc", "is_disabled": 0, "bike_id": "47bd04ae71106e4be18007b4c59c40cc", "lon": -77.020718, "rental_uris": {"android": "https://dc.lft.to/lastmile_qr_scan", "ios": "https://dc.lft.to/lastmile_qr_scan"}, "fusion_lon": 0.0, "is_reserved": 0}, {"lat": 38.921619666666665, "fusion_lat": 0.0, "type": "electric_scooter", "name": "b323655d923fad1c901137250fc564e9", "is_disabled": 0, "bike_id": "b323655d923fad1c901137250fc564e9", "lon": -77.03397133333333, "rental_uris": {"android": "https://dc.lft.to/lastmile_qr_scan", "ios": "https://dc.lft.to/lastmile_qr_scan"}, "fusion_lon": 0.0, "is_reserved": 0}, {"lat": 38.877312, "fusion_lat": 0.0, "type": "electric_scooter", "name": "8667dcf24689a5f76a51817923dfdfe0", "is_disabled": 0, "bike_id": "8667dcf24689a5f76a51817923dfdfe0", "lon": -77.003252, "rental_uris": {"android": "https://dc.lft.to/lastmile_qr_scan", "ios": "https://dc.lft.to/lastmile_qr_scan"}, "fusion_lon": 0.0, "is_reserved": 0}, {"lat": 38.89884633333333, "fusion_lat": 0.0, "type": "electric_scooter", "name": "2aa09e6fdf1dab30a6faf7e8b5b36c9f", "is_disabled": 0, "bike_id": "2aa09e6fdf1dab30a6faf7e8b5b36c9f", "lon": -77.00930183333334, "rental_uris": {"android": "https://dc.lft.to/lastmile_qr_scan", "ios": "https://dc.lft.to/lastmile_qr_scan"}, "fusion_lon": 0.0, "is_reserved": 0}, {"lat": 38.90307983333334, "fusion_lat": 0.0, "type": "electric_scooter", "name": "54d1cfc58864301e2a50d8b1d55ec346", "is_disabled": 0, "bike_id": "54d1cfc58864301e2a50d8b1d55ec346", "lon": -77.034402, "rental_uris": {"android": "https://dc.lft.to/lastmile_qr_scan", "ios": "https://dc.lft.to/lastmile_qr_scan"}, "fusion_lon": 0.0, "is_reserved": 0}, {"lat": 38.900159, "fusion_lat": 0.0, "type": "electric_scooter", "name": "a6098afc869888a735d3a7eb49c9d1d2", "is_disabled": 0, "bike_id": "a6098afc869888a735d3a7eb49c9d1d2", "lon": -77.04048616666667, "rental_uris": {"android": "https://dc.lft.to/lastmile_qr_scan", "ios": "https://dc.lft.to/lastmile_qr_scan"}, "fusion_lon": 0.0, "is_reserved": 0}, {"lat": 38.894945, "fusion_lat": 0.0, "type": "electric_scooter", "name": "af30269c67bb5d9a38bdaf638c05e858", "is_disabled": 0, "bike_id": "af30269c67bb5d9a38bdaf638c05e858", "lon": -77.00295183333333, "rental_uris": {"android": "https://dc.lft.to/lastmile_qr_scan", "ios": "https://dc.lft.to/lastmile_qr_scan"}, "fusion_lon": 0.0, "is_reserved": 0}, {"lat": 38.8969655, "fusion_lat": 0.0, "type": "electric_scooter", "name": "6b1ffd89d57bf9deb7648d2af67e4680", "is_disabled": 0, "bike_id": "6b1ffd89d57bf9deb7648d2af67e4680", "lon": -77.02418266666666, "rental_uris": {"android": "https://dc.lft.to/lastmile_qr_scan", "ios": "https://dc.lft.to/lastmile_qr_scan"}, "fusion_lon": 0.0, "is_reserved": 0}, {"lat": 38.900169, "fusion_lat": 0.0, "type": "electric_scooter", "name": "77699e26a6c4e5fc3ae5946921a86a54", "is_disabled": 0, "bike_id": "77699e26a6c4e5fc3ae5946921a86a54", "lon": -77.01191333333334, "rental_uris": {"android": "https://dc.lft.to/lastmile_qr_scan", "ios": "https://dc.lft.to/lastmile_qr_scan"}, "fusion_lon": 0.0, "is_reserved": 0}, {"lat": 38.921145833333334, "fusion_lat": 0.0, "type": "electric_scooter", "name": "a9d86ecfdd593dd18f31092624eba39f", "is_disabled": 0, "bike_id": "a9d86ecfdd593dd18f31092624eba39f", "lon": -77.02082016666667, "rental_uris": {"android": "https://dc.lft.to/lastmile_qr_scan", "ios": "https://dc.lft.to/lastmile_qr_scan"}, "fusion_lon": 0.0, "is_reserved": 0}, {"lat": 38.899896166666664, "fusion_lat": 0.0, "type": "electric_scooter", "name": "ed8fc03513bec003ee1f89cb05a2cfdb", "is_disabled": 0, "bike_id": "ed8fc03513bec003ee1f89cb05a2cfdb", "lon": -77.0292995, "rental_uris": {"android": "https://dc.lft.to/lastmile_qr_scan", "ios": "https://dc.lft.to/lastmile_qr_scan"}, "fusion_lon": 0.0, "is_reserved": 0}, {"lat": 38.902362833333335, "fusion_lat": 0.0, "type": "electric_scooter", "name": "53e552db89005da804fc2c2f84da2bd3", "is_disabled": 0, "bike_id": "53e552db89005da804fc2c2f84da2bd3", "lon": -77.04277933333333, "rental_uris": {"android": "https://dc.lft.to/lastmile_qr_scan", "ios": "https://dc.lft.to/lastmile_qr_scan"}, "fusion_lon": 0.0, "is_reserved": 0}, {"lat": 38.89224016666667, "fusion_lat": 0.0, "type": "electric_scooter", "name": "bd317b42e421704d64b057cb66cfc164", "is_disabled": 0, "bike_id": "bd317b42e421704d64b057cb66cfc164", "lon": -77.02415866666666, "rental_uris": {"android": "https://dc.lft.to/lastmile_qr_scan", "ios": "https://dc.lft.to/lastmile_qr_scan"}, "fusion_lon": 0.0, "is_reserved": 0}, {"lat": 38.87484883333333, "fusion_lat": 0.0, "type": "electric_scooter", "name": "c896237c7b215416c4317dc5fad00aec", "is_disabled": 0, "bike_id": "c896237c7b215416c4317dc5fad00aec", "lon": -77.00239233333333, "rental_uris": {"android": "https://dc.lft.to/lastmile_qr_scan", "ios": "https://dc.lft.to/lastmile_qr_scan"}, "fusion_lon": 0.0, "is_reserved": 0}, {"lat": 38.9149865, "fusion_lat": 0.0, "type": "electric_scooter", "name": "6d450876e5b76e4eda175e4d889ebc59", "is_disabled": 0, "bike_id": "6d450876e5b76e4eda175e4d889ebc59", "lon": -77.01862633333333, "rental_uris": {"android": "https://dc.lft.to/lastmile_qr_scan", "ios": "https://dc.lft.to/lastmile_qr_scan"}, "fusion_lon": 0.0, "is_reserved": 0}, {"lat": 38.90710333333333, "fusion_lat": 0.0, "type": "electric_scooter", "name": "c835c846ddfbf93319e2a8b33128eff1", "is_disabled": 0, "bike_id": "c835c846ddfbf93319e2a8b33128eff1", "lon": -76.98699716666667, "rental_uris": {"android": "https://dc.lft.to/lastmile_qr_scan", "ios": "https://dc.lft.to/lastmile_qr_scan"}, "fusion_lon": 0.0, "is_reserved": 0}, {"lat": 38.9274175, "fusion_lat": 0.0, "type": "electric_scooter", "name": "f54a8356c1cbcc3e07c467403d0ccaa2", "is_disabled": 0, "bike_id": "f54a8356c1cbcc3e07c467403d0ccaa2", "lon": -77.03634266666667, "rental_uris": {"android": "https://dc.lft.to/lastmile_qr_scan", "ios": "https://dc.lft.to/lastmile_qr_scan"}, "fusion_lon": 0.0, "is_reserved": 0}, {"lat": 38.907269166666666, "fusion_lat": 0.0, "type": "electric_scooter", "name": "847194181e500313e7d71932468d50c9", "is_disabled": 0, "bike_id": "847194181e500313e7d71932468d50c9", "lon": -77.02504716666667, "rental_uris": {"android": "https://dc.lft.to/lastmile_qr_scan", "ios": "https://dc.lft.to/lastmile_qr_scan"}, "fusion_lon": 0.0, "is_reserved": 0}, {"lat": 38.875633666666666, "fusion_lat": 0.0, "type": "electric_scooter", "name": "33904b3837e83fa00003b951391ac8a9", "is_disabled": 0, "bike_id": "33904b3837e83fa00003b951391ac8a9", "lon": -77.00602083333334, "rental_uris": {"android": "https://dc.lft.to/lastmile_qr_scan", "ios": "https://dc.lft.to/lastmile_qr_scan"}, "fusion_lon": 0.0, "is_reserved": 0}, {"lat": 38.91080933333333, "fusion_lat": 0.0, "type": "electric_scooter", "name": "237bd0cfbd6e674915ffaa0579e476fb", "is_disabled": 0, "bike_id": "237bd0cfbd6e674915ffaa0579e476fb", "lon": -77.04433583333334, "rental_uris": {"android": "https://dc.lft.to/lastmile_qr_scan", "ios": "https://dc.lft.to/lastmile_qr_scan"}, "fusion_lon": 0.0, "is_reserved": 0}, {"lat": 38.9165815, "fusion_lat": 0.0, "type": "electric_scooter", "name": "05787dc8b35f9eda848773d31019d7a2", "is_disabled": 0, "bike_id": "05787dc8b35f9eda848773d31019d7a2", "lon": -77.02814366666667, "rental_uris": {"android": "https://dc.lft.to/lastmile_qr_scan", "ios": "https://dc.lft.to/lastmile_qr_scan"}, "fusion_lon": 0.0, "is_reserved": 0}, {"lat": 38.87720983333333, "fusion_lat": 0.0, "type": "electric_scooter", "name": "d0fd4bf1c1e4eb31de36eede6d9a1951", "is_disabled": 0, "bike_id": "d0fd4bf1c1e4eb31de36eede6d9a1951", "lon": -77.00724566666666, "rental_uris": {"android": "https://dc.lft.to/lastmile_qr_scan", "ios": "https://dc.lft.to/lastmile_qr_scan"}, "fusion_lon": 0.0, "is_reserved": 0}, {"lat": 38.901340166666664, "fusion_lat": 0.0, "type": "electric_scooter", "name": "af7a1abaf780b559173752a5932494e4", "is_disabled": 0, "bike_id": "af7a1abaf780b559173752a5932494e4", "lon": -77.03210266666666, "rental_uris": {"android": "https://dc.lft.to/lastmile_qr_scan", "ios": "https://dc.lft.to/lastmile_qr_scan"}, "fusion_lon": 0.0, "is_reserved": 0}, {"lat": 38.9386565, "fusion_lat": 0.0, "type": "electric_scooter", "name": "22a060fed4663f857b36aa463f50d172", "is_disabled": 0, "bike_id": "22a060fed4663f857b36aa463f50d172", "lon": -77.02648016666667, "rental_uris": {"android": "https://dc.lft.to/lastmile_qr_scan", "ios": "https://dc.lft.to/lastmile_qr_scan"}, "fusion_lon": 0.0, "is_reserved": 0}, {"lat": 38.91569166666667, "fusion_lat": 0.0, "type": "electric_scooter", "name": "87759bf2e46fdaa2d8027ea2bca819c9", "is_disabled": 0, "bike_id": "87759bf2e46fdaa2d8027ea2bca819c9", "lon": -77.0119355, "rental_uris": {"android": "https://dc.lft.to/lastmile_qr_scan", "ios": "https://dc.lft.to/lastmile_qr_scan"}, "fusion_lon": 0.0, "is_reserved": 0}, {"lat": 38.906028666666664, "fusion_lat": 0.0, "type": "electric_scooter", "name": "38db2cb36e412d7229a00edf3b86dc10", "is_disabled": 0, "bike_id": "38db2cb36e412d7229a00edf3b86dc10", "lon": -77.03463383333333, "rental_uris": {"android": "https://dc.lft.to/lastmile_qr_scan", "ios": "https://dc.lft.to/lastmile_qr_scan"}, "fusion_lon": 0.0, "is_reserved": 0}, {"lat": 38.876855166666665, "fusion_lat": 0.0, "type": "electric_scooter", "name": "b0b104d9b3675a30319bc6353a53041d", "is_disabled": 0, "bike_id": "b0b104d9b3675a30319bc6353a53041d", "lon": -77.0006355, "rental_uris": {"android": "https://dc.lft.to/lastmile_qr_scan", "ios": "https://dc.lft.to/lastmile_qr_scan"}, "fusion_lon": 0.0, "is_reserved": 0}, {"lat": 38.89699316666667, "fusion_lat": 0.0, "type": "electric_scooter", "name": "72fccf7e3cf28090bf37397205d48f6a", "is_disabled": 0, "bike_id": "72fccf7e3cf28090bf37397205d48f6a", "lon": -77.050294, "rental_uris": {"android": "https://dc.lft.to/lastmile_qr_scan", "ios": "https://dc.lft.to/lastmile_qr_scan"}, "fusion_lon": 0.0, "is_reserved": 0}, {"lat": 38.900794166666664, "fusion_lat": 0.0, "type": "electric_scooter", "name": "fce7689c79acfbb0093c227d27f892dd", "is_disabled": 0, "bike_id": "fce7689c79acfbb0093c227d27f892dd", "lon": -77.04758783333334, "rental_uris": {"android": "https://dc.lft.to/lastmile_qr_scan", "ios": "https://dc.lft.to/lastmile_qr_scan"}, "fusion_lon": 0.0, "is_reserved": 0}, {"lat": 38.892253333333336, "fusion_lat": 0.0, "type": "electric_scooter", "name": "c975b629b97c69528387778b9daf00cd", "is_disabled": 0, "bike_id": "c975b629b97c69528387778b9daf00cd", "lon": -76.979645, "rental_uris": {"android": "https://dc.lft.to/lastmile_qr_scan", "ios": "https://dc.lft.to/lastmile_qr_scan"}, "fusion_lon": 0.0, "is_reserved": 0}, {"lat": 38.89497016666667, "fusion_lat": 0.0, "type": "electric_scooter", "name": "bee6aede47ba3606f3bf6ae70a8a626e", "is_disabled": 0, "bike_id": "bee6aede47ba3606f3bf6ae70a8a626e", "lon": -77.02275016666667, "rental_uris": {"android": "https://dc.lft.to/lastmile_qr_scan", "ios": "https://dc.lft.to/lastmile_qr_scan"}, "fusion_lon": 0.0, "is_reserved": 0}, {"lat": 38.90365366666666, "fusion_lat": 0.0, "type": "electric_scooter", "name": "8bd09d26ef899da07240ed74ae9b56aa", "is_disabled": 0, "bike_id": "8bd09d26ef899da07240ed74ae9b56aa", "lon": -77.03709966666666, "rental_uris": {"android": "https://dc.lft.to/lastmile_qr_scan", "ios": "https://dc.lft.to/lastmile_qr_scan"}, "fusion_lon": 0.0, "is_reserved": 0}, {"lat": 38.923165833333336, "fusion_lat": 0.0, "type": "electric_scooter", "name": "47047d266ea5dc9a0a0f5e0dfaf1a53a", "is_disabled": 0, "bike_id": "47047d266ea5dc9a0a0f5e0dfaf1a53a", "lon": -77.021289, "rental_uris": {"android": "https://dc.lft.to/lastmile_qr_scan", "ios": "https://dc.lft.to/lastmile_qr_scan"}, "fusion_lon": 0.0, "is_reserved": 0}, {"lat": 38.89949883333333, "fusion_lat": 0.0, "type": "electric_scooter", "name": "33dc48d8e62a720a6cb471993fee788a", "is_disabled": 0, "bike_id": "33dc48d8e62a720a6cb471993fee788a", "lon": -77.04840483333334, "rental_uris": {"android": "https://dc.lft.to/lastmile_qr_scan", "ios": "https://dc.lft.to/lastmile_qr_scan"}, "fusion_lon": 0.0, "is_reserved": 0}, {"lat": 38.8997195, "fusion_lat": 0.0, "type": "electric_bike", "name": "cde590cb21826a2989a6f311be54cdf6", "is_disabled": 0, "bike_id": "cde590cb21826a2989a6f311be54cdf6", "lon": -77.0481265, "rental_uris": {"android": "https://dc.lft.to/lastmile_qr_scan", "ios": "https://dc.lft.to/lastmile_qr_scan"}, "fusion_lon": 0.0, "is_reserved": 0}, {"lat": 38.90554983333333, "fusion_lat": 0.0, "type": "electric_scooter", "name": "d1fde83415d96ff146f2923e392e75b3", "is_disabled": 0, "bike_id": "d1fde83415d96ff146f2923e392e75b3", "lon": -77.04455116666666, "rental_uris": {"android": "https://dc.lft.to/lastmile_qr_scan", "ios": "https://dc.lft.to/lastmile_qr_scan"}, "fusion_lon": 0.0, "is_reserved": 0}, {"lat": 38.916915, "fusion_lat": 0.0, "type": "electric_scooter", "name": "d0d27595f731c0c2e8d222caa4606489", "is_disabled": 0, "bike_id": "d0d27595f731c0c2e8d222caa4606489", "lon": -77.027664, "rental_uris": {"android": "https://dc.lft.to/lastmile_qr_scan", "ios": "https://dc.lft.to/lastmile_qr_scan"}, "fusion_lon": 0.0, "is_reserved": 0}, {"lat": 38.9356065, "fusion_lat": 0.0, "type": "electric_scooter", "name": "2aaef280e4a6293910a7cbf57421fb0b", "is_disabled": 0, "bike_id": "2aaef280e4a6293910a7cbf57421fb0b", "lon": -77.07462233333334, "rental_uris": {"android": "https://dc.lft.to/lastmile_qr_scan", "ios": "https://dc.lft.to/lastmile_qr_scan"}, "fusion_lon": 0.0, "is_reserved": 0}, {"lat": 38.9963195, "fusion_lat": 0.0, "type": "electric_bike", "name": "92f95c2df1004062b0570cef7b7723b9", "is_disabled": 0, "bike_id": "92f95c2df1004062b0570cef7b7723b9", "lon": -77.03987183333334, "rental_uris": {"android": "https://dc.lft.to/lastmile_qr_scan", "ios": "https://dc.lft.to/lastmile_qr_scan"}, "fusion_lon": 0.0, "is_reserved": 0}, {"lat": 38.881151833333334, "fusion_lat": 0.0, "type": "electric_scooter", "name": "b47d888194c6df1dd7defb0128216bca", "is_disabled": 0, "bike_id": "b47d888194c6df1dd7defb0128216bca", "lon": -76.98710183333333, "rental_uris": {"android": "https://dc.lft.to/lastmile_qr_scan", "ios": "https://dc.lft.to/lastmile_qr_scan"}, "fusion_lon": 0.0, "is_reserved": 0}, {"lat": 38.905136166666665, "fusion_lat": 0.0, "type": "electric_scooter", "name": "7c9ded2d2c045561b4a5a291e3b92e2c", "is_disabled": 0, "bike_id": "7c9ded2d2c045561b4a5a291e3b92e2c", "lon": -77.030425, "rental_uris": {"android": "https://dc.lft.to/lastmile_qr_scan", "ios": "https://dc.lft.to/lastmile_qr_scan"}, "fusion_lon": 0.0, "is_reserved": 0}, {"lat": 38.89973233333333, "fusion_lat": 0.0, "type": "electric_scooter", "name": "4f2cfefbf8ab2ceb59ad1654064ebdad", "is_disabled": 0, "bike_id": "4f2cfefbf8ab2ceb59ad1654064ebdad", "lon": -77.03076833333333, "rental_uris": {"android": "https://dc.lft.to/lastmile_qr_scan", "ios": "https://dc.lft.to/lastmile_qr_scan"}, "fusion_lon": 0.0, "is_reserved": 0}, {"lat": 38.884209166666665, "fusion_lat": 0.0, "type": "electric_bike", "name": "e9fe07f6e160bcace9995d24828d7b9c", "is_disabled": 0, "bike_id": "e9fe07f6e160bcace9995d24828d7b9c", "lon": -76.95408383333333, "rental_uris": {"android": "https://dc.lft.to/lastmile_qr_scan", "ios": "https://dc.lft.to/lastmile_qr_scan"}, "fusion_lon": 0.0, "is_reserved": 0}, {"lat": 38.8850295, "fusion_lat": 0.0, "type": "electric_scooter", "name": "b8317b41ab142e84a3bb62f28d31df50", "is_disabled": 0, "bike_id": "b8317b41ab142e84a3bb62f28d31df50", "lon": -77.02098, "rental_uris": {"android": "https://dc.lft.to/lastmile_qr_scan", "ios": "https://dc.lft.to/lastmile_qr_scan"}, "fusion_lon": 0.0, "is_reserved": 0}, {"lat": 38.9084445, "fusion_lat": 0.0, "type": "electric_scooter", "name": "a963281ad2d853a382036033a51252ba", "is_disabled": 0, "bike_id": "a963281ad2d853a382036033a51252ba", "lon": -77.04166883333333, "rental_uris": {"android": "https://dc.lft.to/lastmile_qr_scan", "ios": "https://dc.lft.to/lastmile_qr_scan"}, "fusion_lon": 0.0, "is_reserved": 0}, {"lat": 38.90700866666667, "fusion_lat": 0.0, "type": "electric_scooter", "name": "4d125eb9eb76e623330bbb88538fccb9", "is_disabled": 0, "bike_id": "4d125eb9eb76e623330bbb88538fccb9", "lon": -77.035116, "rental_uris": {"android": "https://dc.lft.to/lastmile_qr_scan", "ios": "https://dc.lft.to/lastmile_qr_scan"}, "fusion_lon": 0.0, "is_reserved": 0}, {"lat": 38.903374166666666, "fusion_lat": 0.0, "type": "electric_scooter", "name": "af6e6db849a1ba3ae15615ef66236932", "is_disabled": 0, "bike_id": "af6e6db849a1ba3ae15615ef66236932", "lon": -77.06187583333333, "rental_uris": {"android": "https://dc.lft.to/lastmile_qr_scan", "ios": "https://dc.lft.to/lastmile_qr_scan"}, "fusion_lon": 0.0, "is_reserved": 0}, {"lat": 38.89604766666667, "fusion_lat": 0.0, "type": "electric_scooter", "name": "51c880976c753cb90646ccfc34b8b6cf", "is_disabled": 0, "bike_id": "51c880976c753cb90646ccfc34b8b6cf", "lon": -77.00931483333333, "rental_uris": {"android": "https://dc.lft.to/lastmile_qr_scan", "ios": "https://dc.lft.to/lastmile_qr_scan"}, "fusion_lon": 0.0, "is_reserved": 0}, {"lat": 38.91419333333333, "fusion_lat": 0.0, "type": "electric_scooter", "name": "10f09d12a206b33f75b34f9f204e173a", "is_disabled": 0, "bike_id": "10f09d12a206b33f75b34f9f204e173a", "lon": -77.03178483333333, "rental_uris": {"android": "https://dc.lft.to/lastmile_qr_scan", "ios": "https://dc.lft.to/lastmile_qr_scan"}, "fusion_lon": 0.0, "is_reserved": 0}, {"lat": 38.91558916666666, "fusion_lat": 0.0, "type": "electric_scooter", "name": "3a74bd86fa96bffc30ce39a5b5e727f7", "is_disabled": 0, "bike_id": "3a74bd86fa96bffc30ce39a5b5e727f7", "lon": -77.03239166666667, "rental_uris": {"android": "https://dc.lft.to/lastmile_qr_scan", "ios": "https://dc.lft.to/lastmile_qr_scan"}, "fusion_lon": 0.0, "is_reserved": 0}, {"lat": 38.90570066666667, "fusion_lat": 0.0, "type": "electric_scooter", "name": "fe112bd6508b73cb74660c8134e74985", "is_disabled": 0, "bike_id": "fe112bd6508b73cb74660c8134e74985", "lon": -77.0007365, "rental_uris": {"android": "https://dc.lft.to/lastmile_qr_scan", "ios": "https://dc.lft.to/lastmile_qr_scan"}, "fusion_lon": 0.0, "is_reserved": 0}, {"lat": 38.9075085, "fusion_lat": 0.0, "type": "electric_scooter", "name": "c33edb665eb8c4d968a91dd8d58fbc71", "is_disabled": 0, "bike_id": "c33edb665eb8c4d968a91dd8d58fbc71", "lon": -77.04148316666667, "rental_uris": {"android": "https://dc.lft.to/lastmile_qr_scan", "ios": "https://dc.lft.to/lastmile_qr_scan"}, "fusion_lon": 0.0, "is_reserved": 0}, {"lat": 38.90370166666666, "fusion_lat": 0.0, "type": "electric_scooter", "name": "f4ec87e16103ae850161fcdd9a026f21", "is_disabled": 0, "bike_id": "f4ec87e16103ae850161fcdd9a026f21", "lon": -77.04575083333333, "rental_uris": {"android": "https://dc.lft.to/lastmile_qr_scan", "ios": "https://dc.lft.to/lastmile_qr_scan"}, "fusion_lon": 0.0, "is_reserved": 0}, {"lat": 38.89744683333333, "fusion_lat": 0.0, "type": "electric_bike", "name": "c7c115df54ef535b4eb6bacf441c2f95", "is_disabled": 0, "bike_id": "c7c115df54ef535b4eb6bacf441c2f95", "lon": -77.05529816666666, "rental_uris": {"android": "https://dc.lft.to/lastmile_qr_scan", "ios": "https://dc.lft.to/lastmile_qr_scan"}, "fusion_lon": 0.0, "is_reserved": 0}, {"lat": 38.88745816666667, "fusion_lat": 0.0, "type": "electric_scooter", "name": "1408c4f6c546c33b2c98938ab57393cf", "is_disabled": 0, "bike_id": "1408c4f6c546c33b2c98938ab57393cf", "lon": -77.02121733333334, "rental_uris": {"android": "https://dc.lft.to/lastmile_qr_scan", "ios": "https://dc.lft.to/lastmile_qr_scan"}, "fusion_lon": 0.0, "is_reserved": 0}, {"lat": 38.91563216666667, "fusion_lat": 0.0, "type": "electric_scooter", "name": "ea62c3d8772e3eb8b1da42b57cc1af72", "is_disabled": 0, "bike_id": "ea62c3d8772e3eb8b1da42b57cc1af72", "lon": -77.01575216666667, "rental_uris": {"android": "https://dc.lft.to/lastmile_qr_scan", "ios": "https://dc.lft.to/lastmile_qr_scan"}, "fusion_lon": 0.0, "is_reserved": 0}, {"lat": 38.866641666666666, "fusion_lat": 0.0, "type": "electric_scooter", "name": "d4c91c3ac6c047a5f734f9763b09edfe", "is_disabled": 0, "bike_id": "d4c91c3ac6c047a5f734f9763b09edfe", "lon": -76.988923, "rental_uris": {"android": "https://dc.lft.to/lastmile_qr_scan", "ios": "https://dc.lft.to/lastmile_qr_scan"}, "fusion_lon": 0.0, "is_reserved": 0}, {"lat": 38.90690766666667, "fusion_lat": 0.0, "type": "electric_scooter", "name": "c1f85fcb63d3c0f247731a10fa6c58bb", "is_disabled": 0, "bike_id": "c1f85fcb63d3c0f247731a10fa6c58bb", "lon": -77.05140483333334, "rental_uris": {"android": "https://dc.lft.to/lastmile_qr_scan", "ios": "https://dc.lft.to/lastmile_qr_scan"}, "fusion_lon": 0.0, "is_reserved": 0}, {"lat": 38.94563633333333, "fusion_lat": 0.0, "type": "electric_scooter", "name": "c1bbe6900928431f04d57b3a9b3df9d7", "is_disabled": 0, "bike_id": "c1bbe6900928431f04d57b3a9b3df9d7", "lon": -77.07959033333333, "rental_uris": {"android": "https://dc.lft.to/lastmile_qr_scan", "ios": "https://dc.lft.to/lastmile_qr_scan"}, "fusion_lon": 0.0, "is_reserved": 0}, {"lat": 38.91914666666667, "fusion_lat": 0.0, "type": "electric_scooter", "name": "8b9b02f281b981be89639c9d15236177", "is_disabled": 0, "bike_id": "8b9b02f281b981be89639c9d15236177", "lon": -77.01211116666667, "rental_uris": {"android": "https://dc.lft.to/lastmile_qr_scan", "ios": "https://dc.lft.to/lastmile_qr_scan"}, "fusion_lon": 0.0, "is_reserved": 0}, {"lat": 38.909813666666665, "fusion_lat": 0.0, "type": "electric_scooter", "name": "ba0eaa35c7b6a84219893a68cc36ed3c", "is_disabled": 0, "bike_id": "ba0eaa35c7b6a84219893a68cc36ed3c", "lon": -76.99496183333333, "rental_uris": {"android": "https://dc.lft.to/lastmile_qr_scan", "ios": "https://dc.lft.to/lastmile_qr_scan"}, "fusion_lon": 0.0, "is_reserved": 0}, {"lat": 38.949794833333335, "fusion_lat": 0.0, "type": "electric_scooter", "name": "83e8bc8fe9d0fc99ca679883955ad2d3", "is_disabled": 0, "bike_id": "83e8bc8fe9d0fc99ca679883955ad2d3", "lon": -77.026913, "rental_uris": {"android": "https://dc.lft.to/lastmile_qr_scan", "ios": "https://dc.lft.to/lastmile_qr_scan"}, "fusion_lon": 0.0, "is_reserved": 0}, {"lat": 38.906859, "fusion_lat": 0.0, "type": "electric_scooter", "name": "3dfa255368af7316f6ec18a092f17e7e", "is_disabled": 0, "bike_id": "3dfa255368af7316f6ec18a092f17e7e", "lon": -77.02692916666666, "rental_uris": {"android": "https://dc.lft.to/lastmile_qr_scan", "ios": "https://dc.lft.to/lastmile_qr_scan"}, "fusion_lon": 0.0, "is_reserved": 0}, {"lat": 38.89903616666667, "fusion_lat": 0.0, "type": "electric_scooter", "name": "54996923a8302f3d1b10bdbdf2283a5d", "is_disabled": 0, "bike_id": "54996923a8302f3d1b10bdbdf2283a5d", "lon": -77.0466695, "rental_uris": {"android": "https://dc.lft.to/lastmile_qr_scan", "ios": "https://dc.lft.to/lastmile_qr_scan"}, "fusion_lon": 0.0, "is_reserved": 0}, {"lat": 38.902699166666665, "fusion_lat": 0.0, "type": "electric_scooter", "name": "9d0e467a6d2aaedf78dd6acf4d868cdd", "is_disabled": 0, "bike_id": "9d0e467a6d2aaedf78dd6acf4d868cdd", "lon": -77.00326516666667, "rental_uris": {"android": "https://dc.lft.to/lastmile_qr_scan", "ios": "https://dc.lft.to/lastmile_qr_scan"}, "fusion_lon": 0.0, "is_reserved": 0}, {"lat": 38.83770233333333, "fusion_lat": 0.0, "type": "electric_bike", "name": "62e7d90ee924ee5329eb9cc01dc89576", "is_disabled": 0, "bike_id": "62e7d90ee924ee5329eb9cc01dc89576", "lon": -77.04994283333333, "rental_uris": {"android": "https://dc.lft.to/lastmile_qr_scan", "ios": "https://dc.lft.to/lastmile_qr_scan"}, "fusion_lon": 0.0, "is_reserved": 0}, {"lat": 38.9170605, "fusion_lat": 0.0, "type": "electric_scooter", "name": "4ee01b2d81a6f13c92635a65e9a1d8d0", "is_disabled": 0, "bike_id": "4ee01b2d81a6f13c92635a65e9a1d8d0", "lon": -77.02842733333334, "rental_uris": {"android": "https://dc.lft.to/lastmile_qr_scan", "ios": "https://dc.lft.to/lastmile_qr_scan"}, "fusion_lon": 0.0, "is_reserved": 0}, {"lat": 38.90509933333333, "fusion_lat": 0.0, "type": "electric_scooter", "name": "4051442d6b3406efe5d9b1761a1b6801", "is_disabled": 0, "bike_id": "4051442d6b3406efe5d9b1761a1b6801", "lon": -77.064965, "rental_uris": {"android": "https://dc.lft.to/lastmile_qr_scan", "ios": "https://dc.lft.to/lastmile_qr_scan"}, "fusion_lon": 0.0, "is_reserved": 0}, {"lat": 38.901652, "fusion_lat": 0.0, "type": "electric_scooter", "name": "1f7fb4f5fa60ffcaf9975e188a3f8b9c", "is_disabled": 0, "bike_id": "1f7fb4f5fa60ffcaf9975e188a3f8b9c", "lon": -76.93075466666667, "rental_uris": {"android": "https://dc.lft.to/lastmile_qr_scan", "ios": "https://dc.lft.to/lastmile_qr_scan"}, "fusion_lon": 0.0, "is_reserved": 0}, {"lat": 38.9498435, "fusion_lat": 0.0, "type": "electric_bike", "name": "1146c247a7c15875c0c4c80248c12f8b", "is_disabled": 0, "bike_id": "1146c247a7c15875c0c4c80248c12f8b", "lon": -77.08015, "rental_uris": {"android": "https://dc.lft.to/lastmile_qr_scan", "ios": "https://dc.lft.to/lastmile_qr_scan"}, "fusion_lon": 0.0, "is_reserved": 0}, {"lat": 38.9096305, "fusion_lat": 0.0, "type": "electric_bike", "name": "3b311ac6bd97ede0b66371fcfd633a35", "is_disabled": 0, "bike_id": "3b311ac6bd97ede0b66371fcfd633a35", "lon": -77.22890366666667, "rental_uris": {"android": "https://dc.lft.to/lastmile_qr_scan", "ios": "https://dc.lft.to/lastmile_qr_scan"}, "fusion_lon": 0.0, "is_reserved": 0}, {"lat": 38.92343533333333, "fusion_lat": 0.0, "type": "electric_scooter", "name": "ebf765e1db72a026ef768630798fb268", "is_disabled": 0, "bike_id": "ebf765e1db72a026ef768630798fb268", "lon": -77.0296505, "rental_uris": {"android": "https://dc.lft.to/lastmile_qr_scan", "ios": "https://dc.lft.to/lastmile_qr_scan"}, "fusion_lon": 0.0, "is_reserved": 0}, {"lat": 38.93422283333334, "fusion_lat": 0.0, "type": "electric_scooter", "name": "cfa1d5af2f1282dbecd26ebe2910e757", "is_disabled": 0, "bike_id": "cfa1d5af2f1282dbecd26ebe2910e757", "lon": -77.044078, "rental_uris": {"android": "https://dc.lft.to/lastmile_qr_scan", "ios": "https://dc.lft.to/lastmile_qr_scan"}, "fusion_lon": 0.0, "is_reserved": 0}, {"lat": 38.9050855, "fusion_lat": 0.0, "type": "electric_scooter", "name": "1651ea3deda6dbfb325f6a3c44f2acc1", "is_disabled": 0, "bike_id": "1651ea3deda6dbfb325f6a3c44f2acc1", "lon": -77.01983883333334, "rental_uris": {"android": "https://dc.lft.to/lastmile_qr_scan", "ios": "https://dc.lft.to/lastmile_qr_scan"}, "fusion_lon": 0.0, "is_reserved": 0}, {"lat": 38.92333816666667, "fusion_lat": 0.0, "type": "electric_scooter", "name": "fd779a8dbdc1a16b20db257ba5bf2439", "is_disabled": 0, "bike_id": "fd779a8dbdc1a16b20db257ba5bf2439", "lon": -77.02046933333334, "rental_uris": {"android": "https://dc.lft.to/lastmile_qr_scan", "ios": "https://dc.lft.to/lastmile_qr_scan"}, "fusion_lon": 0.0, "is_reserved": 0}, {"lat": 38.92387216666667, "fusion_lat": 0.0, "type": "electric_scooter", "name": "a8375002474781e3629700e6009ec6ae", "is_disabled": 0, "bike_id": "a8375002474781e3629700e6009ec6ae", "lon": -77.03096133333334, "rental_uris": {"android": "https://dc.lft.to/lastmile_qr_scan", "ios": "https://dc.lft.to/lastmile_qr_scan"}, "fusion_lon": 0.0, "is_reserved": 0}, {"lat": 38.917008, "fusion_lat": 0.0, "type": "electric_scooter", "name": "5308e41aee3f38ffadeb298db7658583", "is_disabled": 0, "bike_id": "5308e41aee3f38ffadeb298db7658583", "lon": -77.03496666666666, "rental_uris": {"android": "https://dc.lft.to/lastmile_qr_scan", "ios": "https://dc.lft.to/lastmile_qr_scan"}, "fusion_lon": 0.0, "is_reserved": 0}, {"lat": 38.914056333333335, "fusion_lat": 0.0, "type": "electric_scooter", "name": "a102d6a9da448142029a9022c0b2a7bd", "is_disabled": 0, "bike_id": "a102d6a9da448142029a9022c0b2a7bd", "lon": -77.03217783333334, "rental_uris": {"android": "https://dc.lft.to/lastmile_qr_scan", "ios": "https://dc.lft.to/lastmile_qr_scan"}, "fusion_lon": 0.0, "is_reserved": 0}, {"lat": 38.90163, "fusion_lat": 0.0, "type": "electric_scooter", "name": "a6cd230a93a2097732b4307d9dd279c7", "is_disabled": 0, "bike_id": "a6cd230a93a2097732b4307d9dd279c7", "lon": -77.02293966666667, "rental_uris": {"android": "https://dc.lft.to/lastmile_qr_scan", "ios": "https://dc.lft.to/lastmile_qr_scan"}, "fusion_lon": 0.0, "is_reserved": 0}, {"lat": 38.92497933333333, "fusion_lat": 0.0, "type": "electric_scooter", "name": "568f6b67beb2350523258c09871ac935", "is_disabled": 0, "bike_id": "568f6b67beb2350523258c09871ac935", "lon": -77.07333716666666, "rental_uris": {"android": "https://dc.lft.to/lastmile_qr_scan", "ios": "https://dc.lft.to/lastmile_qr_scan"}, "fusion_lon": 0.0, "is_reserved": 0}, {"lat": 38.898459833333334, "fusion_lat": 0.0, "type": "electric_scooter", "name": "9f8711534e7faf73b401c65198d21066", "is_disabled": 0, "bike_id": "9f8711534e7faf73b401c65198d21066", "lon": -76.97824833333334, "rental_uris": {"android": "https://dc.lft.to/lastmile_qr_scan", "ios": "https://dc.lft.to/lastmile_qr_scan"}, "fusion_lon": 0.0, "is_reserved": 0}, {"lat": 38.938878, "fusion_lat": 0.0, "type": "electric_scooter", "name": "0def27370e56b3f8a5e11969d2db4de1", "is_disabled": 0, "bike_id": "0def27370e56b3f8a5e11969d2db4de1", "lon": -77.0332925, "rental_uris": {"android": "https://dc.lft.to/lastmile_qr_scan", "ios": "https://dc.lft.to/lastmile_qr_scan"}, "fusion_lon": 0.0, "is_reserved": 0}, {"lat": 38.86659383333333, "fusion_lat": 0.0, "type": "electric_scooter", "name": "f276fcaa6c8f3560025dfcc05ce48a46", "is_disabled": 0, "bike_id": "f276fcaa6c8f3560025dfcc05ce48a46", "lon": -76.98879716666667, "rental_uris": {"android": "https://dc.lft.to/lastmile_qr_scan", "ios": "https://dc.lft.to/lastmile_qr_scan"}, "fusion_lon": 0.0, "is_reserved": 0}, {"lat": 38.95739066666667, "fusion_lat": 0.0, "type": "electric_scooter", "name": "a2db83eedf6e3af301b713557f646deb", "is_disabled": 0, "bike_id": "a2db83eedf6e3af301b713557f646deb", "lon": -77.0022245, "rental_uris": {"android": "https://dc.lft.to/lastmile_qr_scan", "ios": "https://dc.lft.to/lastmile_qr_scan"}, "fusion_lon": 0.0, "is_reserved": 0}, {"lat": 38.880161666666666, "fusion_lat": 0.0, "type": "electric_scooter", "name": "47333498da6bc42bc2f73ee79cc1799c", "is_disabled": 0, "bike_id": "47333498da6bc42bc2f73ee79cc1799c", "lon": -77.00252183333333, "rental_uris": {"android": "https://dc.lft.to/lastmile_qr_scan", "ios": "https://dc.lft.to/lastmile_qr_scan"}, "fusion_lon": 0.0, "is_reserved": 0}, {"lat": 38.897606, "fusion_lat": 0.0, "type": "electric_scooter", "name": "909f5af678e9bef040f5da9e265224ba", "is_disabled": 0, "bike_id": "909f5af678e9bef040f5da9e265224ba", "lon": -77.048905, "rental_uris": {"android": "https://dc.lft.to/lastmile_qr_scan", "ios": "https://dc.lft.to/lastmile_qr_scan"}, "fusion_lon": 0.0, "is_reserved": 0}, {"lat": 38.92360383333333, "fusion_lat": 0.0, "type": "electric_scooter", "name": "18455fe311535fc6528a862a0d24458e", "is_disabled": 0, "bike_id": "18455fe311535fc6528a862a0d24458e", "lon": -77.033867, "rental_uris": {"android": "https://dc.lft.to/lastmile_qr_scan", "ios": "https://dc.lft.to/lastmile_qr_scan"}, "fusion_lon": 0.0, "is_reserved": 0}, {"lat": 38.89844216666667, "fusion_lat": 0.0, "type": "electric_scooter", "name": "91c6468b4c50c785099572803a0ea740", "is_disabled": 0, "bike_id": "91c6468b4c50c785099572803a0ea740", "lon": -77.033516, "rental_uris": {"android": "https://dc.lft.to/lastmile_qr_scan", "ios": "https://dc.lft.to/lastmile_qr_scan"}, "fusion_lon": 0.0, "is_reserved": 0}, {"lat": 38.902713, "fusion_lat": 0.0, "type": "electric_scooter", "name": "5b44b874aef895b52c1844817f28b8d1", "is_disabled": 0, "bike_id": "5b44b874aef895b52c1844817f28b8d1", "lon": -77.04060966666667, "rental_uris": {"android": "https://dc.lft.to/lastmile_qr_scan", "ios": "https://dc.lft.to/lastmile_qr_scan"}, "fusion_lon": 0.0, "is_reserved": 0}, {"lat": 38.887478, "fusion_lat": 0.0, "type": "electric_scooter", "name": "309b27d489c25d7ba30def19c8c5bef4", "is_disabled": 0, "bike_id": "309b27d489c25d7ba30def19c8c5bef4", "lon": -77.02572616666667, "rental_uris": {"android": "https://dc.lft.to/lastmile_qr_scan", "ios": "https://dc.lft.to/lastmile_qr_scan"}, "fusion_lon": 0.0, "is_reserved": 0}, {"lat": 38.92458766666667, "fusion_lat": 0.0, "type": "electric_scooter", "name": "1df2a7ff715c2c9525e4abcb8d93e2b1", "is_disabled": 0, "bike_id": "1df2a7ff715c2c9525e4abcb8d93e2b1", "lon": -77.02150533333334, "rental_uris": {"android": "https://dc.lft.to/lastmile_qr_scan", "ios": "https://dc.lft.to/lastmile_qr_scan"}, "fusion_lon": 0.0, "is_reserved": 0}, {"lat": 38.90638083333333, "fusion_lat": 0.0, "type": "electric_scooter", "name": "9fbc2621435ee2d2a6b1df5865ba67d1", "is_disabled": 0, "bike_id": "9fbc2621435ee2d2a6b1df5865ba67d1", "lon": -77.038609, "rental_uris": {"android": "https://dc.lft.to/lastmile_qr_scan", "ios": "https://dc.lft.to/lastmile_qr_scan"}, "fusion_lon": 0.0, "is_reserved": 0}, {"lat": 38.90686066666667, "fusion_lat": 0.0, "type": "electric_scooter", "name": "c62c2d89063466a613a9d63abfc79410", "is_disabled": 0, "bike_id": "c62c2d89063466a613a9d63abfc79410", "lon": -77.03830233333333, "rental_uris": {"android": "https://dc.lft.to/lastmile_qr_scan", "ios": "https://dc.lft.to/lastmile_qr_scan"}, "fusion_lon": 0.0, "is_reserved": 0}, {"lat": 38.898674666666665, "fusion_lat": 0.0, "type": "electric_scooter", "name": "ef46615c87e0950a8e3607f44b6f1fbf", "is_disabled": 0, "bike_id": "ef46615c87e0950a8e3607f44b6f1fbf", "lon": -76.94637533333334, "rental_uris": {"android": "https://dc.lft.to/lastmile_qr_scan", "ios": "https://dc.lft.to/lastmile_qr_scan"}, "fusion_lon": 0.0, "is_reserved": 0}, {"lat": 38.90283566666667, "fusion_lat": 0.0, "type": "electric_scooter", "name": "b2c04f2025889fb96bd1a0084d37d371", "is_disabled": 0, "bike_id": "b2c04f2025889fb96bd1a0084d37d371", "lon": -77.03830966666666, "rental_uris": {"android": "https://dc.lft.to/lastmile_qr_scan", "ios": "https://dc.lft.to/lastmile_qr_scan"}, "fusion_lon": 0.0, "is_reserved": 0}, {"lat": 38.9207845, "fusion_lat": 0.0, "type": "electric_scooter", "name": "9c65d020e508b610970c87bc0076f158", "is_disabled": 0, "bike_id": "9c65d020e508b610970c87bc0076f158", "lon": -77.0380745, "rental_uris": {"android": "https://dc.lft.to/lastmile_qr_scan", "ios": "https://dc.lft.to/lastmile_qr_scan"}, "fusion_lon": 0.0, "is_reserved": 0}, {"lat": 38.8902645, "fusion_lat": 0.0, "type": "electric_scooter", "name": "1b9d6759a37b9a49e867bd5497c827f5", "is_disabled": 0, "bike_id": "1b9d6759a37b9a49e867bd5497c827f5", "lon": -76.93727833333334, "rental_uris": {"android": "https://dc.lft.to/lastmile_qr_scan", "ios": "https://dc.lft.to/lastmile_qr_scan"}, "fusion_lon": 0.0, "is_reserved": 0}, {"lat": 38.9360925, "fusion_lat": 0.0, "type": "electric_scooter", "name": "b0149c1a21abf9efe3df88dd697c751a", "is_disabled": 0, "bike_id": "b0149c1a21abf9efe3df88dd697c751a", "lon": -77.05857666666667, "rental_uris": {"android": "https://dc.lft.to/lastmile_qr_scan", "ios": "https://dc.lft.to/lastmile_qr_scan"}, "fusion_lon": 0.0, "is_reserved": 0}, {"lat": 38.91636366666667, "fusion_lat": 0.0, "type": "electric_scooter", "name": "3db3d0036ae41ca3bb789da36bd5e0ce", "is_disabled": 0, "bike_id": "3db3d0036ae41ca3bb789da36bd5e0ce", "lon": -77.02547, "rental_uris": {"android": "https://dc.lft.to/lastmile_qr_scan", "ios": "https://dc.lft.to/lastmile_qr_scan"}, "fusion_lon": 0.0, "is_reserved": 0}, {"lat": 38.9027095, "fusion_lat": 0.0, "type": "electric_scooter", "name": "52bea762bb9675f0de93d1daf32ab255", "is_disabled": 0, "bike_id": "52bea762bb9675f0de93d1daf32ab255", "lon": -77.005545, "rental_uris": {"android": "https://dc.lft.to/lastmile_qr_scan", "ios": "https://dc.lft.to/lastmile_qr_scan"}, "fusion_lon": 0.0, "is_reserved": 0}, {"lat": 38.94190833333333, "fusion_lat": 0.0, "type": "electric_scooter", "name": "083c89ad4dec13108913d082fd9e257c", "is_disabled": 0, "bike_id": "083c89ad4dec13108913d082fd9e257c", "lon": -77.03841083333333, "rental_uris": {"android": "https://dc.lft.to/lastmile_qr_scan", "ios": "https://dc.lft.to/lastmile_qr_scan"}, "fusion_lon": 0.0, "is_reserved": 0}, {"lat": 38.87659566666667, "fusion_lat": 0.0, "type": "electric_scooter", "name": "c365e4a0866159f2a976423daaa6e725", "is_disabled": 0, "bike_id": "c365e4a0866159f2a976423daaa6e725", "lon": -77.00580116666667, "rental_uris": {"android": "https://dc.lft.to/lastmile_qr_scan", "ios": "https://dc.lft.to/lastmile_qr_scan"}, "fusion_lon": 0.0, "is_reserved": 0}, {"lat": 38.9218655, "fusion_lat": 0.0, "type": "electric_scooter", "name": "9cd96d14f8874d142b508aa967039976", "is_disabled": 0, "bike_id": "9cd96d14f8874d142b508aa967039976", "lon": -77.047084, "rental_uris": {"android": "https://dc.lft.to/lastmile_qr_scan", "ios": "https://dc.lft.to/lastmile_qr_scan"}, "fusion_lon": 0.0, "is_reserved": 0}, {"lat": 38.90261133333333, "fusion_lat": 0.0, "type": "electric_scooter", "name": "8bdf7ba5d1fea1ec38359d8aeb36b017", "is_disabled": 0, "bike_id": "8bdf7ba5d1fea1ec38359d8aeb36b017", "lon": -77.030747, "rental_uris": {"android": "https://dc.lft.to/lastmile_qr_scan", "ios": "https://dc.lft.to/lastmile_qr_scan"}, "fusion_lon": 0.0, "is_reserved": 0}, {"lat": 38.927423166666664, "fusion_lat": 0.0, "type": "electric_scooter", "name": "a51d72c51b4e17cf02eb2049eddd1f46", "is_disabled": 0, "bike_id": "a51d72c51b4e17cf02eb2049eddd1f46", "lon": -77.0330215, "rental_uris": {"android": "https://dc.lft.to/lastmile_qr_scan", "ios": "https://dc.lft.to/lastmile_qr_scan"}, "fusion_lon": 0.0, "is_reserved": 0}, {"lat": 38.89220316666667, "fusion_lat": 0.0, "type": "electric_scooter", "name": "eddb1f888589028ea1be5a83c9eb4acc", "is_disabled": 0, "bike_id": "eddb1f888589028ea1be5a83c9eb4acc", "lon": -77.02223883333333, "rental_uris": {"android": "https://dc.lft.to/lastmile_qr_scan", "ios": "https://dc.lft.to/lastmile_qr_scan"}, "fusion_lon": 0.0, "is_reserved": 0}, {"lat": 38.89038633333333, "fusion_lat": 0.0, "type": "electric_scooter", "name": "585f464e51d4d23ab32e7862a46d86b0", "is_disabled": 0, "bike_id": "585f464e51d4d23ab32e7862a46d86b0", "lon": -77.02974766666667, "rental_uris": {"android": "https://dc.lft.to/lastmile_qr_scan", "ios": "https://dc.lft.to/lastmile_qr_scan"}, "fusion_lon": 0.0, "is_reserved": 0}, {"lat": 38.90277116666667, "fusion_lat": 0.0, "type": "electric_scooter", "name": "e5b163c4fb84e0fa3eef40ba12b0bca1", "is_disabled": 0, "bike_id": "e5b163c4fb84e0fa3eef40ba12b0bca1", "lon": -77.0592295, "rental_uris": {"android": "https://dc.lft.to/lastmile_qr_scan", "ios": "https://dc.lft.to/lastmile_qr_scan"}, "fusion_lon": 0.0, "is_reserved": 0}, {"lat": 38.9159175, "fusion_lat": 0.0, "type": "electric_scooter", "name": "89d6088327f12ac32e4c2d567df28bfd", "is_disabled": 0, "bike_id": "89d6088327f12ac32e4c2d567df28bfd", "lon": -77.04479566666667, "rental_uris": {"android": "https://dc.lft.to/lastmile_qr_scan", "ios": "https://dc.lft.to/lastmile_qr_scan"}, "fusion_lon": 0.0, "is_reserved": 0}, {"lat": 38.89375966666667, "fusion_lat": 0.0, "type": "electric_scooter", "name": "d55469dfd3b3ccb6de175ff5b092a310", "is_disabled": 0, "bike_id": "d55469dfd3b3ccb6de175ff5b092a310", "lon": -77.0283535, "rental_uris": {"android": "https://dc.lft.to/lastmile_qr_scan", "ios": "https://dc.lft.to/lastmile_qr_scan"}, "fusion_lon": 0.0, "is_reserved": 0}, {"lat": 38.9082325, "fusion_lat": 0.0, "type": "electric_bike", "name": "636fdc8b73d8dd1d8d46fa192dcba9a7", "is_disabled": 0, "bike_id": "636fdc8b73d8dd1d8d46fa192dcba9a7", "lon": -77.01821483333333, "rental_uris": {"android": "https://dc.lft.to/lastmile_qr_scan", "ios": "https://dc.lft.to/lastmile_qr_scan"}, "fusion_lon": 0.0, "is_reserved": 0}, {"lat": 38.918440833333335, "fusion_lat": 0.0, "type": "electric_scooter", "name": "c027100817b25a82fbe3ca1672b84e45", "is_disabled": 0, "bike_id": "c027100817b25a82fbe3ca1672b84e45", "lon": -77.03190966666666, "rental_uris": {"android": "https://dc.lft.to/lastmile_qr_scan", "ios": "https://dc.lft.to/lastmile_qr_scan"}, "fusion_lon": 0.0, "is_reserved": 0}, {"lat": 38.9027875, "fusion_lat": 0.0, "type": "electric_scooter", "name": "27fa88fb595fab9cb67245c0fd2750e8", "is_disabled": 0, "bike_id": "27fa88fb595fab9cb67245c0fd2750e8", "lon": -77.01770933333333, "rental_uris": {"android": "https://dc.lft.to/lastmile_qr_scan", "ios": "https://dc.lft.to/lastmile_qr_scan"}, "fusion_lon": 0.0, "is_reserved": 0}, {"lat": 38.896225, "fusion_lat": 0.0, "type": "electric_scooter", "name": "13dc241bca9bc3bf90e37ed073494457", "is_disabled": 0, "bike_id": "13dc241bca9bc3bf90e37ed073494457", "lon": -77.04800716666666, "rental_uris": {"android": "https://dc.lft.to/lastmile_qr_scan", "ios": "https://dc.lft.to/lastmile_qr_scan"}, "fusion_lon": 0.0, "is_reserved": 0}, {"lat": 38.900507, "fusion_lat": 0.0, "type": "electric_scooter", "name": "e56e6741d72013bc5d9fa5dca4969f83", "is_disabled": 0, "bike_id": "e56e6741d72013bc5d9fa5dca4969f83", "lon": -77.04322816666667, "rental_uris": {"android": "https://dc.lft.to/lastmile_qr_scan", "ios": "https://dc.lft.to/lastmile_qr_scan"}, "fusion_lon": 0.0, "is_reserved": 0}, {"lat": 38.93390766666667, "fusion_lat": 0.0, "type": "electric_scooter", "name": "fd746a67678a6e80c9f64ea047bda7ca", "is_disabled": 0, "bike_id": "fd746a67678a6e80c9f64ea047bda7ca", "lon": -77.05741033333334, "rental_uris": {"android": "https://dc.lft.to/lastmile_qr_scan", "ios": "https://dc.lft.to/lastmile_qr_scan"}, "fusion_lon": 0.0, "is_reserved": 0}, {"lat": 38.933508333333336, "fusion_lat": 0.0, "type": "electric_scooter", "name": "26af98e1a91bca8e323fa60f933af195", "is_disabled": 0, "bike_id": "26af98e1a91bca8e323fa60f933af195", "lon": -77.0326225, "rental_uris": {"android": "https://dc.lft.to/lastmile_qr_scan", "ios": "https://dc.lft.to/lastmile_qr_scan"}, "fusion_lon": 0.0, "is_reserved": 0}, {"lat": 38.92536783333333, "fusion_lat": 0.0, "type": "electric_scooter", "name": "7662b98370f1d8276d24c7fc867ba928", "is_disabled": 0, "bike_id": "7662b98370f1d8276d24c7fc867ba928", "lon": -77.03351416666666, "rental_uris": {"android": "https://dc.lft.to/lastmile_qr_scan", "ios": "https://dc.lft.to/lastmile_qr_scan"}, "fusion_lon": 0.0, "is_reserved": 0}, {"lat": 38.89913283333333, "fusion_lat": 0.0, "type": "electric_scooter", "name": "18096f354f225474a0f6c7008bc3f521", "is_disabled": 0, "bike_id": "18096f354f225474a0f6c7008bc3f521", "lon": -77.02809516666666, "rental_uris": {"android": "https://dc.lft.to/lastmile_qr_scan", "ios": "https://dc.lft.to/lastmile_qr_scan"}, "fusion_lon": 0.0, "is_reserved": 0}, {"lat": 38.905753833333335, "fusion_lat": 0.0, "type": "electric_scooter", "name": "843e4e462c7bd76bd41f2f3f3310c31a", "is_disabled": 0, "bike_id": "843e4e462c7bd76bd41f2f3f3310c31a", "lon": -77.04357366666666, "rental_uris": {"android": "https://dc.lft.to/lastmile_qr_scan", "ios": "https://dc.lft.to/lastmile_qr_scan"}, "fusion_lon": 0.0, "is_reserved": 0}, {"lat": 38.9266395, "fusion_lat": 0.0, "type": "electric_scooter", "name": "d4607d764d17337a4a26c9d1b2d1bf8f", "is_disabled": 0, "bike_id": "d4607d764d17337a4a26c9d1b2d1bf8f", "lon": -77.01463616666666, "rental_uris": {"android": "https://dc.lft.to/lastmile_qr_scan", "ios": "https://dc.lft.to/lastmile_qr_scan"}, "fusion_lon": 0.0, "is_reserved": 0}, {"lat": 38.877844833333334, "fusion_lat": 0.0, "type": "electric_scooter", "name": "b935b217700d4cad777d9af4ba0a1279", "is_disabled": 0, "bike_id": "b935b217700d4cad777d9af4ba0a1279", "lon": -76.99410616666667, "rental_uris": {"android": "https://dc.lft.to/lastmile_qr_scan", "ios": "https://dc.lft.to/lastmile_qr_scan"}, "fusion_lon": 0.0, "is_reserved": 0}, {"lat": 38.92726066666667, "fusion_lat": 0.0, "type": "electric_scooter", "name": "71d0b365af827adb01674a5a71ac5e05", "is_disabled": 0, "bike_id": "71d0b365af827adb01674a5a71ac5e05", "lon": -77.03240183333334, "rental_uris": {"android": "https://dc.lft.to/lastmile_qr_scan", "ios": "https://dc.lft.to/lastmile_qr_scan"}, "fusion_lon": 0.0, "is_reserved": 0}, {"lat": 38.9081965, "fusion_lat": 0.0, "type": "electric_scooter", "name": "b0b04f34480d586a347165207d0abeb7", "is_disabled": 0, "bike_id": "b0b04f34480d586a347165207d0abeb7", "lon": -77.03565683333333, "rental_uris": {"android": "https://dc.lft.to/lastmile_qr_scan", "ios": "https://dc.lft.to/lastmile_qr_scan"}, "fusion_lon": 0.0, "is_reserved": 0}, {"lat": 38.86626866666667, "fusion_lat": 0.0, "type": "electric_scooter", "name": "33bcbfebfb1a6bfe51f4f20aca86855f", "is_disabled": 0, "bike_id": "33bcbfebfb1a6bfe51f4f20aca86855f", "lon": -76.98714583333333, "rental_uris": {"android": "https://dc.lft.to/lastmile_qr_scan", "ios": "https://dc.lft.to/lastmile_qr_scan"}, "fusion_lon": 0.0, "is_reserved": 0}, {"lat": 38.923393833333336, "fusion_lat": 0.0, "type": "electric_scooter", "name": "3091b929b89e6d5213d0a4e41c51d34f", "is_disabled": 0, "bike_id": "3091b929b89e6d5213d0a4e41c51d34f", "lon": -77.0214625, "rental_uris": {"android": "https://dc.lft.to/lastmile_qr_scan", "ios": "https://dc.lft.to/lastmile_qr_scan"}, "fusion_lon": 0.0, "is_reserved": 0}, {"lat": 38.908321, "fusion_lat": 0.0, "type": "electric_scooter", "name": "c46921ef85d7563464caba838bff11f5", "is_disabled": 0, "bike_id": "c46921ef85d7563464caba838bff11f5", "lon": -77.03971433333334, "rental_uris": {"android": "https://dc.lft.to/lastmile_qr_scan", "ios": "https://dc.lft.to/lastmile_qr_scan"}, "fusion_lon": 0.0, "is_reserved": 0}, {"lat": 38.88770066666667, "fusion_lat": 0.0, "type": "electric_scooter", "name": "aeab3f57f3f044927388c2012ab66f28", "is_disabled": 0, "bike_id": "aeab3f57f3f044927388c2012ab66f28", "lon": -77.02628116666666, "rental_uris": {"android": "https://dc.lft.to/lastmile_qr_scan", "ios": "https://dc.lft.to/lastmile_qr_scan"}, "fusion_lon": 0.0, "is_reserved": 0}, {"lat": 38.92362283333333, "fusion_lat": 0.0, "type": "electric_scooter", "name": "84dd71c741c4c01f11bbfe5365e660f5", "is_disabled": 0, "bike_id": "84dd71c741c4c01f11bbfe5365e660f5", "lon": -77.050465, "rental_uris": {"android": "https://dc.lft.to/lastmile_qr_scan", "ios": "https://dc.lft.to/lastmile_qr_scan"}, "fusion_lon": 0.0, "is_reserved": 0}, {"lat": 38.92725266666667, "fusion_lat": 0.0, "type": "electric_scooter", "name": "5a7bc5638812b0ef1314a3bed2031203", "is_disabled": 0, "bike_id": "5a7bc5638812b0ef1314a3bed2031203", "lon": -77.03241883333334, "rental_uris": {"android": "https://dc.lft.to/lastmile_qr_scan", "ios": "https://dc.lft.to/lastmile_qr_scan"}, "fusion_lon": 0.0, "is_reserved": 0}, {"lat": 38.88515616666667, "fusion_lat": 0.0, "type": "electric_scooter", "name": "f6e12658a884e3398a31335ab9d4e62f", "is_disabled": 0, "bike_id": "f6e12658a884e3398a31335ab9d4e62f", "lon": -77.00449716666667, "rental_uris": {"android": "https://dc.lft.to/lastmile_qr_scan", "ios": "https://dc.lft.to/lastmile_qr_scan"}, "fusion_lon": 0.0, "is_reserved": 0}, {"lat": 38.86683566666667, "fusion_lat": 0.0, "type": "electric_scooter", "name": "0a1d9256a5dfbcb5b36a5d1c46bae4eb", "is_disabled": 0, "bike_id": "0a1d9256a5dfbcb5b36a5d1c46bae4eb", "lon": -76.98571783333334, "rental_uris": {"android": "https://dc.lft.to/lastmile_qr_scan", "ios": "https://dc.lft.to/lastmile_qr_scan"}, "fusion_lon": 0.0, "is_reserved": 0}, {"lat": 38.9187205, "fusion_lat": 0.0, "type": "electric_scooter", "name": "190edc5bb9b74fc18b54a07b737a6cb1", "is_disabled": 0, "bike_id": "190edc5bb9b74fc18b54a07b737a6cb1", "lon": -76.9633405, "rental_uris": {"android": "https://dc.lft.to/lastmile_qr_scan", "ios": "https://dc.lft.to/lastmile_qr_scan"}, "fusion_lon": 0.0, "is_reserved": 0}, {"lat": 38.89740116666667, "fusion_lat": 0.0, "type": "electric_bike", "name": "2070350e6238b187291b4015a0b3d554", "is_disabled": 0, "bike_id": "2070350e6238b187291b4015a0b3d554", "lon": -76.942617, "rental_uris": {"android": "https://dc.lft.to/lastmile_qr_scan", "ios": "https://dc.lft.to/lastmile_qr_scan"}, "fusion_lon": 0.0, "is_reserved": 0}, {"lat": 38.906882333333336, "fusion_lat": 0.0, "type": "electric_scooter", "name": "8125bf776cc2941d35db539471d6c077", "is_disabled": 0, "bike_id": "8125bf776cc2941d35db539471d6c077", "lon": -77.02379783333333, "rental_uris": {"android": "https://dc.lft.to/lastmile_qr_scan", "ios": "https://dc.lft.to/lastmile_qr_scan"}, "fusion_lon": 0.0, "is_reserved": 0}, {"lat": 38.9086935, "fusion_lat": 0.0, "type": "electric_scooter", "name": "268389d4aafc312a7e636899b6b48a48", "is_disabled": 0, "bike_id": "268389d4aafc312a7e636899b6b48a48", "lon": -77.02354766666667, "rental_uris": {"android": "https://dc.lft.to/lastmile_qr_scan", "ios": "https://dc.lft.to/lastmile_qr_scan"}, "fusion_lon": 0.0, "is_reserved": 0}, {"lat": 38.90260716666667, "fusion_lat": 0.0, "type": "electric_scooter", "name": "84c93e948ac8471b3be9d605070eba29", "is_disabled": 0, "bike_id": "84c93e948ac8471b3be9d605070eba29", "lon": -77.03854533333333, "rental_uris": {"android": "https://dc.lft.to/lastmile_qr_scan", "ios": "https://dc.lft.to/lastmile_qr_scan"}, "fusion_lon": 0.0, "is_reserved": 0}, {"lat": 38.926857, "fusion_lat": 0.0, "type": "electric_scooter", "name": "f66911eb6d5523a49cfc7bc68cc0b9c8", "is_disabled": 0, "bike_id": "f66911eb6d5523a49cfc7bc68cc0b9c8", "lon": -77.01569516666666, "rental_uris": {"android": "https://dc.lft.to/lastmile_qr_scan", "ios": "https://dc.lft.to/lastmile_qr_scan"}, "fusion_lon": 0.0, "is_reserved": 0}, {"lat": 38.866295, "fusion_lat": 0.0, "type": "electric_scooter", "name": "f0727bc2461d17b962b429eac36acd19", "is_disabled": 0, "bike_id": "f0727bc2461d17b962b429eac36acd19", "lon": -76.98718566666666, "rental_uris": {"android": "https://dc.lft.to/lastmile_qr_scan", "ios": "https://dc.lft.to/lastmile_qr_scan"}, "fusion_lon": 0.0, "is_reserved": 0}, {"lat": 38.9390205, "fusion_lat": 0.0, "type": "electric_scooter", "name": "f417fa9e6d4128ec9169885a88cdbd82", "is_disabled": 0, "bike_id": "f417fa9e6d4128ec9169885a88cdbd82", "lon": -77.02489016666667, "rental_uris": {"android": "https://dc.lft.to/lastmile_qr_scan", "ios": "https://dc.lft.to/lastmile_qr_scan"}, "fusion_lon": 0.0, "is_reserved": 0}, {"lat": 38.858082333333336, "fusion_lat": 0.0, "type": "electric_scooter", "name": "3ca6c33da0abe065c7db4cbab39e4b5a", "is_disabled": 0, "bike_id": "3ca6c33da0abe065c7db4cbab39e4b5a", "lon": -76.986576, "rental_uris": {"android": "https://dc.lft.to/lastmile_qr_scan", "ios": "https://dc.lft.to/lastmile_qr_scan"}, "fusion_lon": 0.0, "is_reserved": 0}, {"lat": 38.8861065, "fusion_lat": 0.0, "type": "electric_scooter", "name": "ea1097ae09826fedfc23de972163437b", "is_disabled": 0, "bike_id": "ea1097ae09826fedfc23de972163437b", "lon": -77.01249916666667, "rental_uris": {"android": "https://dc.lft.to/lastmile_qr_scan", "ios": "https://dc.lft.to/lastmile_qr_scan"}, "fusion_lon": 0.0, "is_reserved": 0}, {"lat": 38.936046833333336, "fusion_lat": 0.0, "type": "electric_scooter", "name": "a0917c1e3034422ac08ee3be8a9d87de", "is_disabled": 0, "bike_id": "a0917c1e3034422ac08ee3be8a9d87de", "lon": -77.0585885, "rental_uris": {"android": "https://dc.lft.to/lastmile_qr_scan", "ios": "https://dc.lft.to/lastmile_qr_scan"}, "fusion_lon": 0.0, "is_reserved": 0}, {"lat": 38.901462333333335, "fusion_lat": 0.0, "type": "electric_scooter", "name": "44fe6d0a5cc8e00b4b4ea3df74d23df0", "is_disabled": 0, "bike_id": "44fe6d0a5cc8e00b4b4ea3df74d23df0", "lon": -77.04995083333333, "rental_uris": {"android": "https://dc.lft.to/lastmile_qr_scan", "ios": "https://dc.lft.to/lastmile_qr_scan"}, "fusion_lon": 0.0, "is_reserved": 0}, {"lat": 39.051068666666666, "fusion_lat": 0.0, "type": "electric_bike", "name": "e04ba0bfd4168316472363c32239032a", "is_disabled": 0, "bike_id": "e04ba0bfd4168316472363c32239032a", "lon": -77.11751766666667, "rental_uris": {"android": "https://dc.lft.to/lastmile_qr_scan", "ios": "https://dc.lft.to/lastmile_qr_scan"}, "fusion_lon": 0.0, "is_reserved": 0}, {"lat": 38.90794133333333, "fusion_lat": 0.0, "type": "electric_scooter", "name": "e4c4dd3d93e12a18b324223060f54785", "is_disabled": 0, "bike_id": "e4c4dd3d93e12a18b324223060f54785", "lon": -76.99234666666666, "rental_uris": {"android": "https://dc.lft.to/lastmile_qr_scan", "ios": "https://dc.lft.to/lastmile_qr_scan"}, "fusion_lon": 0.0, "is_reserved": 0}, {"lat": 38.902855333333335, "fusion_lat": 0.0, "type": "electric_scooter", "name": "b87399d461ba93d0c1117e449e2b4551", "is_disabled": 0, "bike_id": "b87399d461ba93d0c1117e449e2b4551", "lon": -77.03831033333333, "rental_uris": {"android": "https://dc.lft.to/lastmile_qr_scan", "ios": "https://dc.lft.to/lastmile_qr_scan"}, "fusion_lon": 0.0, "is_reserved": 0}, {"lat": 38.909510833333336, "fusion_lat": 0.0, "type": "electric_scooter", "name": "21e7b4dfb836c83e0a1a99dc870ea3f7", "is_disabled": 0, "bike_id": "21e7b4dfb836c83e0a1a99dc870ea3f7", "lon": -77.05473833333333, "rental_uris": {"android": "https://dc.lft.to/lastmile_qr_scan", "ios": "https://dc.lft.to/lastmile_qr_scan"}, "fusion_lon": 0.0, "is_reserved": 0}, {"lat": 38.9853545, "fusion_lat": 0.0, "type": "electric_scooter", "name": "47eab8a1c6b0e95fbf3df7fff466781c", "is_disabled": 0, "bike_id": "47eab8a1c6b0e95fbf3df7fff466781c", "lon": -77.0365245, "rental_uris": {"android": "https://dc.lft.to/lastmile_qr_scan", "ios": "https://dc.lft.to/lastmile_qr_scan"}, "fusion_lon": 0.0, "is_reserved": 0}, {"lat": 38.86390983333333, "fusion_lat": 0.0, "type": "electric_scooter", "name": "02c57d29b229443062e0e714a0712c0c", "is_disabled": 0, "bike_id": "02c57d29b229443062e0e714a0712c0c", "lon": -76.99039116666667, "rental_uris": {"android": "https://dc.lft.to/lastmile_qr_scan", "ios": "https://dc.lft.to/lastmile_qr_scan"}, "fusion_lon": 0.0, "is_reserved": 0}, {"lat": 38.900289666666666, "fusion_lat": 0.0, "type": "electric_scooter", "name": "3131c6fb1151087c5ec04e683349bc12", "is_disabled": 0, "bike_id": "3131c6fb1151087c5ec04e683349bc12", "lon": -77.03231633333333, "rental_uris": {"android": "https://dc.lft.to/lastmile_qr_scan", "ios": "https://dc.lft.to/lastmile_qr_scan"}, "fusion_lon": 0.0, "is_reserved": 0}, {"lat": 38.898951333333336, "fusion_lat": 0.0, "type": "electric_scooter", "name": "6813417ca611e0fd0280f045c3593e6e", "is_disabled": 0, "bike_id": "6813417ca611e0fd0280f045c3593e6e", "lon": -77.0328545, "rental_uris": {"android": "https://dc.lft.to/lastmile_qr_scan", "ios": "https://dc.lft.to/lastmile_qr_scan"}, "fusion_lon": 0.0, "is_reserved": 0},