{"data": {"bikes": [{"bike_id": "2399e4679aaf5b46adeffaccd91e6155", "type": "electric_scooter", "is_disabled": 0, "lat": 38.90817216666667, "rental_uris": {"ios": "https://dc.lft.to/lastmile_qr_scan", "android": "https://dc.lft.to/lastmile_qr_scan"}, "is_reserved": 0, "fusion_lon": 0.0, "fusion_lat": 0.0, "lon": -77.03444266666666, "name": "2399e4679aaf5b46adeffaccd91e6155"}, {"bike_id": "dcaccdd4608b68f25b3209cd624a3d59", "type": "electric_scooter", "is_disabled": 0, "lat": 38.95188683333333, "rental_uris": {"ios": "https://dc.lft.to/lastmile_qr_scan", "android": "https://dc.lft.to/lastmile_qr_scan"}, "is_reserved": 0, "fusion_lon": 0.0, "fusion_lat": 0.0, "lon": -77.02615833333333, "name": "dcaccdd4608b68f25b3209cd624a3d59"}, {"bike_id": "c344a43a4895bffaecbbf86f79c5790d", "type": "electric_scooter", "is_disabled": 0, "lat": 38.90818016666667, "rental_uris": {"ios": "https://dc.lft.to/lastmile_qr_scan", "android": "https://dc.lft.to/lastmile_qr_scan"}, "is_reserved": 0, "fusion_lon": 0.0, "fusion_lat": 0.0, "lon": -77.0365445, "name": "c344a43a4895bffaecbbf86f79c5790d"}, {"bike_id": "ebb827801ff05b14b5466735eda8cf7d", "type": "electric_scooter", "is_disabled": 0, "lat": 38.89911416666666, "rental_uris": {"ios": "https://dc.lft.to/lastmile_qr_scan", "android": "https://dc.lft.to/lastmile_qr_scan"}, "is_reserved": 0, "fusion_lon": 0.0, "fusion_lat": 0.0, "lon": -76.9336485, "name": "ebb827801ff05b14b5466735eda8cf7d"}, {"bike_id": "a9c4a5541b253a467114d2f337ad56e3", "type": "electric_bike", "is_disabled": 0, "lat": 38.923747, "rental_uris": {"ios": "https://dc.lft.to/lastmile_qr_scan", "android": "https://dc.lft.to/lastmile_qr_scan"}, "is_reserved": 0, "fusion_lon": 0.0, "fusion_lat": 0.0, "lon": -77.0021345, "name": "a9c4a5541b253a467114d2f337ad56e3"}, {"bike_id": "b938797ba08bcad79005aa4c77ac8e66", "type": "electric_scooter", "is_disabled": 0, "lat": 38.88278716666667, "rental_uris": {"ios": "https://dc.lft.to/lastmile_qr_scan", "android": "https://dc.lft.to/lastmile_qr_scan"}, "is_reserved": 0, "fusion_lon": 0.0, "fusion_lat": 0.0, "lon": -76.98778566666667, "name": "b938797ba08bcad79005aa4c77ac8e66"}, {"bike_id": "09915e27c04d5d42c59f8c3f0e1ee413", "type": "electric_scooter", "is_disabled": 0, "lat": 38.91682, "rental_uris": {"ios": "https://dc.lft.to/lastmile_qr_scan", "android": "https://dc.lft.to/lastmile_qr_scan"}, "is_reserved": 0, "fusion_lon": 0.0, "fusion_lat": 0.0, "lon": -77.02975883333333, "name": "09915e27c04d5d42c59f8c3f0e1ee413"}, {"bike_id": "ff7ecf3eb67d4ec94f5aa73bc1dea5d3", "type": "electric_scooter", "is_disabled": 0, "lat": 38.905576333333336, "rental_uris": {"ios": "https://dc.lft.to/lastmile_qr_scan", "android": "https://dc.lft.to/lastmile_qr_scan"}, "is_reserved": 0, "fusion_lon": 0.0, "fusion_lat": 0.0, "lon": -77.0281085, "name": "ff7ecf3eb67d4ec94f5aa73bc1dea5d3"}, {"bike_id": "204272f9db0655f56abd9d9785d5b1f6", "type": "electric_scooter", "is_disabled": 0, "lat": 38.9585885, "rental_uris": {"ios": "https://dc.lft.to/lastmile_qr_scan", "android": "https://dc.lft.to/lastmile_qr_scan"}, "is_reserved": 0, "fusion_lon": 0.0, "fusion_lat": 0.0, "lon": -77.027964, "name": "204272f9db0655f56abd9d9785d5b1f6"}, {"bike_id": "1aaabff8de63ca09eeaee0886aeda286", "type": "electric_scooter", "is_disabled": 0, "lat": 38.9358835, "rental_uris": {"ios": "https://dc.lft.to/lastmile_qr_scan", "android": "https://dc.lft.to/lastmile_qr_scan"}, "is_reserved": 0, "fusion_lon": 0.0, "fusion_lat": 0.0, "lon": -77.05637383333334, "name": "1aaabff8de63ca09eeaee0886aeda286"}, {"bike_id": "108c252f268661ebd69404a6de1524bd", "type": "electric_scooter", "is_disabled": 0, "lat": 38.930876166666664, "rental_uris": {"ios": "https://dc.lft.to/lastmile_qr_scan", "android": "https://dc.lft.to/lastmile_qr_scan"}, "is_reserved": 0, "fusion_lon": 0.0, "fusion_lat": 0.0, "lon": -77.037526, "name": "108c252f268661ebd69404a6de1524bd"}, {"bike_id": "637106bf0a7292f6dbbfdfa21ce1a06b", "type": "electric_scooter", "is_disabled": 0, "lat": 38.9080145, "rental_uris": {"ios": "https://dc.lft.to/lastmile_qr_scan", "android": "https://dc.lft.to/lastmile_qr_scan"}, "is_reserved": 0, "fusion_lon": 0.0, "fusion_lat": 0.0, "lon": -77.03057616666666, "name": "637106bf0a7292f6dbbfdfa21ce1a06b"}, {"bike_id": "bb1e1f1b49732a70080661237d974b03", "type": "electric_scooter", "is_disabled": 0, "lat": 38.942594166666666, "rental_uris": {"ios": "https://dc.lft.to/lastmile_qr_scan", "android": "https://dc.lft.to/lastmile_qr_scan"}, "is_reserved": 0, "fusion_lon": 0.0, "fusion_lat": 0.0, "lon": -77.02530333333333, "name": "bb1e1f1b49732a70080661237d974b03"}, {"bike_id": "4451f75e0d37a7da1d0b21e8e545590a", "type": "electric_scooter", "is_disabled": 0, "lat": 38.92814966666667, "rental_uris": {"ios": "https://dc.lft.to/lastmile_qr_scan", "android": "https://dc.lft.to/lastmile_qr_scan"}, "is_reserved": 0, "fusion_lon": 0.0, "fusion_lat": 0.0, "lon": -77.02811133333333, "name": "4451f75e0d37a7da1d0b21e8e545590a"}, {"bike_id": "c91072221e4699faf58eca933c0e9b70", "type": "electric_scooter", "is_disabled": 0, "lat": 38.904919166666666, "rental_uris": {"ios": "https://dc.lft.to/lastmile_qr_scan", "android": "https://dc.lft.to/lastmile_qr_scan"}, "is_reserved": 0, "fusion_lon": 0.0, "fusion_lat": 0.0, "lon": -77.05367083333333, "name": "c91072221e4699faf58eca933c0e9b70"}, {"bike_id": "275632726535be34ab7768ca603d0c25", "type": "electric_bike", "is_disabled": 0, "lat": 38.9540565, "rental_uris": {"ios": "https://dc.lft.to/lastmile_qr_scan", "android": "https://dc.lft.to/lastmile_qr_scan"}, "is_reserved": 0, "fusion_lon": 0.0, "fusion_lat": 0.0, "lon": -76.98042666666667, "name": "275632726535be34ab7768ca603d0c25"}, {"bike_id": "b9ad65753ff04cc5bfe6ac7ee1e31712", "type": "electric_scooter", "is_disabled": 0, "lat": 38.896091166666665, "rental_uris": {"ios": "https://dc.lft.to/lastmile_qr_scan", "android": "https://dc.lft.to/lastmile_qr_scan"}, "is_reserved": 0, "fusion_lon": 0.0, "fusion_lat": 0.0, "lon": -77.00331783333333, "name": "b9ad65753ff04cc5bfe6ac7ee1e31712"}, {"bike_id": "aa100d6eef36e8edbf77a714840e0b7e", "type": "electric_scooter", "is_disabled": 0, "lat": 38.91693733333334, "rental_uris": {"ios": "https://dc.lft.to/lastmile_qr_scan", "android": "https://dc.lft.to/lastmile_qr_scan"}, "is_reserved": 0, "fusion_lon": 0.0, "fusion_lat": 0.0, "lon": -77.028774, "name": "aa100d6eef36e8edbf77a714840e0b7e"}, {"bike_id": "83ae528531cd7dd0ecad96aa6dd1c4bd", "type": "electric_scooter", "is_disabled": 0, "lat": 38.918791166666665, "rental_uris": {"ios": "https://dc.lft.to/lastmile_qr_scan", "android": "https://dc.lft.to/lastmile_qr_scan"}, "is_reserved": 0, "fusion_lon": 0.0, "fusion_lat": 0.0, "lon": -77.03505416666667, "name": "83ae528531cd7dd0ecad96aa6dd1c4bd"}, {"bike_id": "1aa9b372d673d1ec55d2a36eceadf851", "type": "electric_scooter", "is_disabled": 0, "lat": 38.89889133333333, "rental_uris": {"ios": "https://dc.lft.to/lastmile_qr_scan", "android": "https://dc.lft.to/lastmile_qr_scan"}, "is_reserved": 0, "fusion_lon": 0.0, "fusion_lat": 0.0, "lon": -76.976938, "name": "1aa9b372d673d1ec55d2a36eceadf851"}, {"bike_id": "a14882f38caee4b81a2c46ba45881d77", "type": "electric_scooter", "is_disabled": 0, "lat": 38.918721, "rental_uris": {"ios": "https://dc.lft.to/lastmile_qr_scan", "android": "https://dc.lft.to/lastmile_qr_scan"}, "is_reserved": 0, "fusion_lon": 0.0, "fusion_lat": 0.0, "lon": -77.012133, "name": "a14882f38caee4b81a2c46ba45881d77"}, {"bike_id": "3ce041d4c8333a98bf17ea9a2772f174", "type": "electric_scooter", "is_disabled": 0, "lat": 38.95652583333333, "rental_uris": {"ios": "https://dc.lft.to/lastmile_qr_scan", "android": "https://dc.lft.to/lastmile_qr_scan"}, "is_reserved": 0, "fusion_lon": 0.0, "fusion_lat": 0.0, "lon": -77.02398466666666, "name": "3ce041d4c8333a98bf17ea9a2772f174"}, {"bike_id": "45bac6d579498dd9172fb57070391eba", "type": "electric_scooter", "is_disabled": 0, "lat": 38.93898866666667, "rental_uris": {"ios": "https://dc.lft.to/lastmile_qr_scan", "android": "https://dc.lft.to/lastmile_qr_scan"}, "is_reserved": 0, "fusion_lon": 0.0, "fusion_lat": 0.0, "lon": -77.0167745, "name": "45bac6d579498dd9172fb57070391eba"}, {"bike_id": "78e343093631f90e74e9717a3e15238b", "type": "electric_scooter", "is_disabled": 0, "lat": 38.90637266666667, "rental_uris": {"ios": "https://dc.lft.to/lastmile_qr_scan", "android": "https://dc.lft.to/lastmile_qr_scan"}, "is_reserved": 0, "fusion_lon": 0.0, "fusion_lat": 0.0, "lon": -77.025031, "name": "78e343093631f90e74e9717a3e15238b"}, {"bike_id": "a765010041eeb81f0e488956b7cb6385", "type": "electric_scooter", "is_disabled": 0, "lat": 38.9254495, "rental_uris": {"ios": "https://dc.lft.to/lastmile_qr_scan", "android": "https://dc.lft.to/lastmile_qr_scan"}, "is_reserved": 0, "fusion_lon": 0.0, "fusion_lat": 0.0, "lon": -77.04124283333333, "name": "a765010041eeb81f0e488956b7cb6385"}, {"bike_id": "ee54f0a70845692b8de564aeaba4b5ba", "type": "electric_scooter", "is_disabled": 0, "lat": 38.91457066666667, "rental_uris": {"ios": "https://dc.lft.to/lastmile_qr_scan", "android": "https://dc.lft.to/lastmile_qr_scan"}, "is_reserved": 0, "fusion_lon": 0.0, "fusion_lat": 0.0, "lon": -77.07104983333333, "name": "ee54f0a70845692b8de564aeaba4b5ba"}, {"bike_id": "e6979a406f9be415edb8a392f1c0af41", "type": "electric_bike", "is_disabled": 0, "lat": 38.8435235, "rental_uris": {"ios": "https://dc.lft.to/lastmile_qr_scan", "android": "https://dc.lft.to/lastmile_qr_scan"}, "is_reserved": 0, "fusion_lon": 0.0, "fusion_lat": 0.0, "lon": -76.99953166666667, "name": "e6979a406f9be415edb8a392f1c0af41"}, {"bike_id": "120bcda5b1738861343a4a685cb0535c", "type": "electric_scooter", "is_disabled": 0, "lat": 38.9220835, "rental_uris": {"ios": "https://dc.lft.to/lastmile_qr_scan", "android": "https://dc.lft.to/lastmile_qr_scan"}, "is_reserved": 0, "fusion_lon": 0.0, "fusion_lat": 0.0, "lon": -77.02028216666666, "name": "120bcda5b1738861343a4a685cb0535c"}, {"bike_id": "09a7a1351de7a47c3d73b3a0f4743e22", "type": "electric_bike", "is_disabled": 0, "lat": 38.956906833333335, "rental_uris": {"ios": "https://dc.lft.to/lastmile_qr_scan", "android": "https://dc.lft.to/lastmile_qr_scan"}, "is_reserved": 0, "fusion_lon": 0.0, "fusion_lat": 0.0, "lon": -77.02236716666667, "name": "09a7a1351de7a47c3d73b3a0f4743e22"}, {"bike_id": "17d60cce3680cb1bcb68d95ec9110ce0", "type": "electric_scooter", "is_disabled": 0, "lat": 38.96607483333333, "rental_uris": {"ios": "https://dc.lft.to/lastmile_qr_scan", "android": "https://dc.lft.to/lastmile_qr_scan"}, "is_reserved": 0, "fusion_lon": 0.0, "fusion_lat": 0.0, "lon": -77.01979683333333, "name": "17d60cce3680cb1bcb68d95ec9110ce0"}, {"bike_id": "13f79f6c7255936471fed13e6f0985c7", "type": "electric_scooter", "is_disabled": 0, "lat": 38.917136666666664, "rental_uris": {"ios": "https://dc.lft.to/lastmile_qr_scan", "android": "https://dc.lft.to/lastmile_qr_scan"}, "is_reserved": 0, "fusion_lon": 0.0, "fusion_lat": 0.0, "lon": -77.04608166666667, "name": "13f79f6c7255936471fed13e6f0985c7"}, {"bike_id": "2e013b127749e1353dcbf020968e2b1b", "type": "electric_scooter", "is_disabled": 0, "lat": 38.914235166666664, "rental_uris": {"ios": "https://dc.lft.to/lastmile_qr_scan", "android": "https://dc.lft.to/lastmile_qr_scan"}, "is_reserved": 0, "fusion_lon": 0.0, "fusion_lat": 0.0, "lon": -77.0220265, "name": "2e013b127749e1353dcbf020968e2b1b"}, {"bike_id": "1b87ebd6d01aa9289521e7b444267550", "type": "electric_scooter", "is_disabled": 0, "lat": 38.92058333333333, "rental_uris": {"ios": "https://dc.lft.to/lastmile_qr_scan", "android": "https://dc.lft.to/lastmile_qr_scan"}, "is_reserved": 0, "fusion_lon": 0.0, "fusion_lat": 0.0, "lon": -77.0345955, "name": "1b87ebd6d01aa9289521e7b444267550"}, {"bike_id": "e2593a33c679914dee19b7dd01763659", "type": "electric_scooter", "is_disabled": 0, "lat": 38.896711833333335, "rental_uris": {"ios": "https://dc.lft.to/lastmile_qr_scan", "android": "https://dc.lft.to/lastmile_qr_scan"}, "is_reserved": 0, "fusion_lon": 0.0, "fusion_lat": 0.0, "lon": -76.98815266666666, "name": "e2593a33c679914dee19b7dd01763659"}, {"bike_id": "3f300e323a20116ec23a7827008dfc09", "type": "electric_scooter", "is_disabled": 0, "lat": 38.91920316666667, "rental_uris": {"ios": "https://dc.lft.to/lastmile_qr_scan", "android": "https://dc.lft.to/lastmile_qr_scan"}, "is_reserved": 0, "fusion_lon": 0.0, "fusion_lat": 0.0, "lon": -77.04487983333334, "name": "3f300e323a20116ec23a7827008dfc09"}, {"bike_id": "d4de6186cf46724578024f61d01bac67", "type": "electric_scooter", "is_disabled": 0, "lat": 38.90831033333333, "rental_uris": {"ios": "https://dc.lft.to/lastmile_qr_scan", "android": "https://dc.lft.to/lastmile_qr_scan"}, "is_reserved": 0, "fusion_lon": 0.0, "fusion_lat": 0.0, "lon": -77.03661566666666, "name": "d4de6186cf46724578024f61d01bac67"}, {"bike_id": "ca23197d6fc0559e558f5705b37148cf", "type": "electric_scooter", "is_disabled": 0, "lat": 38.909775833333335, "rental_uris": {"ios": "https://dc.lft.to/lastmile_qr_scan", "android": "https://dc.lft.to/lastmile_qr_scan"}, "is_reserved": 0, "fusion_lon": 0.0, "fusion_lat": 0.0, "lon": -77.0386525, "name": "ca23197d6fc0559e558f5705b37148cf"}, {"bike_id": "dfe36eaeedbe4ee94b214c1fa1edcccb", "type": "electric_scooter", "is_disabled": 0, "lat": 38.910584166666666, "rental_uris": {"ios": "https://dc.lft.to/lastmile_qr_scan", "android": "https://dc.lft.to/lastmile_qr_scan"}, "is_reserved": 0, "fusion_lon": 0.0, "fusion_lat": 0.0, "lon": -77.052842, "name": "dfe36eaeedbe4ee94b214c1fa1edcccb"}, {"bike_id": "f4bc50e567ac61eaf6e5efcfb4a7eb0f", "type": "electric_scooter", "is_disabled": 0, "lat": 38.891975, "rental_uris": {"ios": "https://dc.lft.to/lastmile_qr_scan", "android": "https://dc.lft.to/lastmile_qr_scan"}, "is_reserved": 0, "fusion_lon": 0.0, "fusion_lat": 0.0, "lon": -77.002354, "name": "f4bc50e567ac61eaf6e5efcfb4a7eb0f"}, {"bike_id": "61c0543740d6822e4fe915199b5c64ac", "type": "electric_scooter", "is_disabled": 0, "lat": 38.92417783333333, "rental_uris": {"ios": "https://dc.lft.to/lastmile_qr_scan", "android": "https://dc.lft.to/lastmile_qr_scan"}, "is_reserved": 0, "fusion_lon": 0.0, "fusion_lat": 0.0, "lon": -77.03639166666666, "name": "61c0543740d6822e4fe915199b5c64ac"}, {"bike_id": "b43b094bb6ad22ae8a07a40b7ff00158", "type": "electric_scooter", "is_disabled": 0, "lat": 38.938713, "rental_uris": {"ios": "https://dc.lft.to/lastmile_qr_scan", "android": "https://dc.lft.to/lastmile_qr_scan"}, "is_reserved": 0, "fusion_lon": 0.0, "fusion_lat": 0.0, "lon": -77.027028, "name": "b43b094bb6ad22ae8a07a40b7ff00158"}, {"bike_id": "43117a7058679cb4fd83a42f0d04a7e1", "type": "electric_scooter", "is_disabled": 0, "lat": 38.9026615, "rental_uris": {"ios": "https://dc.lft.to/lastmile_qr_scan", "android": "https://dc.lft.to/lastmile_qr_scan"}, "is_reserved": 0, "fusion_lon": 0.0, "fusion_lat": 0.0, "lon": -77.0265635, "name": "43117a7058679cb4fd83a42f0d04a7e1"}, {"bike_id": "8a7f0eb40340db77455fd37784428a7e", "type": "electric_scooter", "is_disabled": 0, "lat": 38.895009333333334, "rental_uris": {"ios": "https://dc.lft.to/lastmile_qr_scan", "android": "https://dc.lft.to/lastmile_qr_scan"}, "is_reserved": 0, "fusion_lon": 0.0, "fusion_lat": 0.0, "lon": -77.01102316666666, "name": "8a7f0eb40340db77455fd37784428a7e"}, {"bike_id": "a8d00e7157a068aad1b0d303bc6adcd0", "type": "electric_scooter", "is_disabled": 0, "lat": 38.907256333333336, "rental_uris": {"ios": "https://dc.lft.to/lastmile_qr_scan", "android": "https://dc.lft.to/lastmile_qr_scan"}, "is_reserved": 0, "fusion_lon": 0.0, "fusion_lat": 0.0, "lon": -77.04341816666667, "name": "a8d00e7157a068aad1b0d303bc6adcd0"}, {"bike_id": "a825e385d1572fd43bf010496e940819", "type": "electric_scooter", "is_disabled": 0, "lat": 38.9287695, "rental_uris": {"ios": "https://dc.lft.to/lastmile_qr_scan", "android": "https://dc.lft.to/lastmile_qr_scan"}, "is_reserved": 0, "fusion_lon": 0.0, "fusion_lat": 0.0, "lon": -77.0342355, "name": "a825e385d1572fd43bf010496e940819"}, {"bike_id": "53480b51ebc8e3247bcd363ff65c7680", "type": "electric_bike", "is_disabled": 0, "lat": 38.872995, "rental_uris": {"ios": "https://dc.lft.to/lastmile_qr_scan", "android": "https://dc.lft.to/lastmile_qr_scan"}, "is_reserved": 0, "fusion_lon": 0.0, "fusion_lat": 0.0, "lon": -77.13925483333334, "name": "53480b51ebc8e3247bcd363ff65c7680"}, {"bike_id": "d8de646c982741956044b426b47f2afe", "type": "electric_scooter", "is_disabled": 0, "lat": 38.911403, "rental_uris": {"ios": "https://dc.lft.to/lastmile_qr_scan", "android": "https://dc.lft.to/lastmile_qr_scan"}, "is_reserved": 0, "fusion_lon": 0.0, "fusion_lat": 0.0, "lon": -76.9901135, "name": "d8de646c982741956044b426b47f2afe"}, {"bike_id": "bf8730da594fa72935e4e8db74ba8da0", "type": "electric_scooter", "is_disabled": 0, "lat": 38.92432566666667, "rental_uris": {"ios": "https://dc.lft.to/lastmile_qr_scan", "android": "https://dc.lft.to/lastmile_qr_scan"}, "is_reserved": 0, "fusion_lon": 0.0, "fusion_lat": 0.0, "lon": -77.04243816666667, "name": "bf8730da594fa72935e4e8db74ba8da0"}, {"bike_id": "98c2b842c390182a1505f0dc3a44b5e8", "type": "electric_scooter", "is_disabled": 0, "lat": 38.933615833333334, "rental_uris": {"ios": "https://dc.lft.to/lastmile_qr_scan", "android": "https://dc.lft.to/lastmile_qr_scan"}, "is_reserved": 0, "fusion_lon": 0.0, "fusion_lat": 0.0, "lon": -77.0620835, "name": "98c2b842c390182a1505f0dc3a44b5e8"}, {"bike_id": "1a979f5b0afb75710c08732de88240e9", "type": "electric_scooter", "is_disabled": 0, "lat": 38.9531285, "rental_uris": {"ios": "https://dc.lft.to/lastmile_qr_scan", "android": "https://dc.lft.to/lastmile_qr_scan"}, "is_reserved": 0, "fusion_lon": 0.0, "fusion_lat": 0.0, "lon": -77.06978083333334, "name": "1a979f5b0afb75710c08732de88240e9"}, {"bike_id": "920be75c8be865f72ab0afb5a1f9803b", "type": "electric_scooter", "is_disabled": 0, "lat": 38.93605733333333, "rental_uris": {"ios": "https://dc.lft.to/lastmile_qr_scan", "android": "https://dc.lft.to/lastmile_qr_scan"}, "is_reserved": 0, "fusion_lon": 0.0, "fusion_lat": 0.0, "lon": -77.038022, "name": "920be75c8be865f72ab0afb5a1f9803b"}, {"bike_id": "8f9407178a046ff5bb81e0be7a216bf0", "type": "electric_bike", "is_disabled": 0, "lat": 38.863349166666666, "rental_uris": {"ios": "https://dc.lft.to/lastmile_qr_scan", "android": "https://dc.lft.to/lastmile_qr_scan"}, "is_reserved": 0, "fusion_lon": 0.0, "fusion_lat": 0.0, "lon": -76.98724466666667, "name": "8f9407178a046ff5bb81e0be7a216bf0"}, {"bike_id": "013b33916581249c5146c7fb8d938c0d", "type": "electric_scooter", "is_disabled": 0, "lat": 38.85758366666666, "rental_uris": {"ios": "https://dc.lft.to/lastmile_qr_scan", "android": "https://dc.lft.to/lastmile_qr_scan"}, "is_reserved": 0, "fusion_lon": 0.0, "fusion_lat": 0.0, "lon": -76.99297433333334, "name": "013b33916581249c5146c7fb8d938c0d"}, {"bike_id": "0e9213e3564e55201af4adbb1e5c3a08", "type": "electric_scooter", "is_disabled": 0, "lat": 38.94719466666667, "rental_uris": {"ios": "https://dc.lft.to/lastmile_qr_scan", "android": "https://dc.lft.to/lastmile_qr_scan"}, "is_reserved": 0, "fusion_lon": 0.0, "fusion_lat": 0.0, "lon": -77.02777166666667, "name": "0e9213e3564e55201af4adbb1e5c3a08"}, {"bike_id": "f5836ad31d31821f367483291ee90bdd", "type": "electric_scooter", "is_disabled": 0, "lat": 38.829158, "rental_uris": {"ios": "https://dc.lft.to/lastmile_qr_scan", "android": "https://dc.lft.to/lastmile_qr_scan"}, "is_reserved": 0, "fusion_lon": 0.0, "fusion_lat": 0.0, "lon": -77.00141066666667, "name": "f5836ad31d31821f367483291ee90bdd"}, {"bike_id": "15df36bef35c9bfc7d74542a2bb41164", "type": "electric_scooter", "is_disabled": 0, "lat": 38.899389, "rental_uris": {"ios": "https://dc.lft.to/lastmile_qr_scan", "android": "https://dc.lft.to/lastmile_qr_scan"}, "is_reserved": 0, "fusion_lon": 0.0, "fusion_lat": 0.0, "lon": -77.00355316666666, "name": "15df36bef35c9bfc7d74542a2bb41164"}, {"bike_id": "c349369b37134aeba6bf0406f0407e9e", "type": "electric_scooter", "is_disabled": 0, "lat": 38.938174333333336, "rental_uris": {"ios": "https://dc.lft.to/lastmile_qr_scan", "android": "https://dc.lft.to/lastmile_qr_scan"}, "is_reserved": 0, "fusion_lon": 0.0, "fusion_lat": 0.0, "lon": -77.02715066666667, "name": "c349369b37134aeba6bf0406f0407e9e"}, {"bike_id": "c3302e8eec12f70d8d10e4ce25f0b3e7", "type": "electric_bike", "is_disabled": 0, "lat": 38.829438833333334, "rental_uris": {"ios": "https://dc.lft.to/lastmile_qr_scan", "android": "https://dc.lft.to/lastmile_qr_scan"}, "is_reserved": 0, "fusion_lon": 0.0, "fusion_lat": 0.0, "lon": -77.123518, "name": "c3302e8eec12f70d8d10e4ce25f0b3e7"}, {"bike_id": "c024384a09f050c91c80d0064d9c911c", "type": "electric_scooter", "is_disabled": 0, "lat": 38.923534, "rental_uris": {"ios": "https://dc.lft.to/lastmile_qr_scan", "android": "https://dc.lft.to/lastmile_qr_scan"}, "is_reserved": 0, "fusion_lon": 0.0, "fusion_lat": 0.0, "lon": -77.0353985, "name": "c024384a09f050c91c80d0064d9c911c"}, {"bike_id": "0fe13ca1e28b07b75962f0bd143c477c", "type": "electric_scooter", "is_disabled": 0, "lat": 38.9227085, "rental_uris": {"ios": "https://dc.lft.to/lastmile_qr_scan", "android": "https://dc.lft.to/lastmile_qr_scan"}, "is_reserved": 0, "fusion_lon": 0.0, "fusion_lat": 0.0, "lon": -77.01872416666667, "name": "0fe13ca1e28b07b75962f0bd143c477c"}, {"bike_id": "68366574ab82b56c53d9ec0ae45ae45f", "type": "electric_scooter", "is_disabled": 0, "lat": 38.91348816666667, "rental_uris": {"ios": "https://dc.lft.to/lastmile_qr_scan", "android": "https://dc.lft.to/lastmile_qr_scan"}, "is_reserved": 0, "fusion_lon": 0.0, "fusion_lat": 0.0, "lon": -77.03202066666667, "name": "68366574ab82b56c53d9ec0ae45ae45f"}, {"bike_id": "65b5869688abeeadc6901889130f4346", "type": "electric_scooter", "is_disabled": 0, "lat": 38.916906833333336, "rental_uris": {"ios": "https://dc.lft.to/lastmile_qr_scan", "android": "https://dc.lft.to/lastmile_qr_scan"}, "is_reserved": 0, "fusion_lon": 0.0, "fusion_lat": 0.0, "lon": -77.0259845, "name": "65b5869688abeeadc6901889130f4346"}, {"bike_id": "d648fc242394933678c5d9e173e87efe", "type": "electric_scooter", "is_disabled": 0, "lat": 38.89486383333333, "rental_uris": {"ios": "https://dc.lft.to/lastmile_qr_scan", "android": "https://dc.lft.to/lastmile_qr_scan"}, "is_reserved": 0, "fusion_lon": 0.0, "fusion_lat": 0.0, "lon": -76.995201, "name": "d648fc242394933678c5d9e173e87efe"}, {"bike_id": "b41ed03db43d4744cb2d31ab996ab377", "type": "electric_scooter", "is_disabled": 0, "lat": 38.931318166666664, "rental_uris": {"ios": "https://dc.lft.to/lastmile_qr_scan", "android": "https://dc.lft.to/lastmile_qr_scan"}, "is_reserved": 0, "fusion_lon": 0.0, "fusion_lat": 0.0, "lon": -77.0571995, "name": "b41ed03db43d4744cb2d31ab996ab377"}, {"bike_id": "e08b86e1c9a49b986bcee7ab12f71ae7", "type": "electric_scooter", "is_disabled": 0, "lat": 38.915416666666665, "rental_uris": {"ios": "https://dc.lft.to/lastmile_qr_scan", "android": "https://dc.lft.to/lastmile_qr_scan"}, "is_reserved": 0, "fusion_lon": 0.0, "fusion_lat": 0.0, "lon": -77.03852433333333, "name": "e08b86e1c9a49b986bcee7ab12f71ae7"}, {"bike_id": "cb219e3e61f19d0b923670b7d09ed29b", "type": "electric_scooter", "is_disabled": 0, "lat": 38.93374166666667, "rental_uris": {"ios": "https://dc.lft.to/lastmile_qr_scan", "android": "https://dc.lft.to/lastmile_qr_scan"}, "is_reserved": 0, "fusion_lon": 0.0, "fusion_lat": 0.0, "lon": -77.05739516666667, "name": "cb219e3e61f19d0b923670b7d09ed29b"}, {"bike_id": "8018736cf3da8679506668a661a0b79f", "type": "electric_scooter", "is_disabled": 0, "lat": 38.92167083333333, "rental_uris": {"ios": "https://dc.lft.to/lastmile_qr_scan", "android": "https://dc.lft.to/lastmile_qr_scan"}, "is_reserved": 0, "fusion_lon": 0.0, "fusion_lat": 0.0, "lon": -77.03849433333333, "name": "8018736cf3da8679506668a661a0b79f"}, {"bike_id": "9c744e77d531ab5b69561a616a7ac06f", "type": "electric_scooter", "is_disabled": 0, "lat": 38.9422985, "rental_uris": {"ios": "https://dc.lft.to/lastmile_qr_scan", "android": "https://dc.lft.to/lastmile_qr_scan"}, "is_reserved": 0, "fusion_lon": 0.0, "fusion_lat": 0.0, "lon": -77.01440583333333, "name": "9c744e77d531ab5b69561a616a7ac06f"}, {"bike_id": "1e7bb03a00814f74a794d7ab11a560c0", "type": "electric_scooter", "is_disabled": 0, "lat": 38.90524633333333, "rental_uris": {"ios": "https://dc.lft.to/lastmile_qr_scan", "android": "https://dc.lft.to/lastmile_qr_scan"}, "is_reserved": 0, "fusion_lon": 0.0, "fusion_lat": 0.0, "lon": -76.986246, "name": "1e7bb03a00814f74a794d7ab11a560c0"}, {"bike_id": "afffafc7ba4654d5f37e5bdea5dc7fd2", "type": "electric_scooter", "is_disabled": 0, "lat": 38.86210583333333, "rental_uris": {"ios": "https://dc.lft.to/lastmile_qr_scan", "android": "https://dc.lft.to/lastmile_qr_scan"}, "is_reserved": 0, "fusion_lon": 0.0, "fusion_lat": 0.0, "lon": -76.9946945, "name": "afffafc7ba4654d5f37e5bdea5dc7fd2"}, {"bike_id": "1cd8065f47acb1db3c667b696ebda311", "type": "electric_bike", "is_disabled": 0, "lat": 38.906280333333335, "rental_uris": {"ios": "https://dc.lft.to/lastmile_qr_scan", "android": "https://dc.lft.to/lastmile_qr_scan"}, "is_reserved": 0, "fusion_lon": 0.0, "fusion_lat": 0.0, "lon": -76.98605, "name": "1cd8065f47acb1db3c667b696ebda311"}, {"bike_id": "44699f0e96465a3aaa1dfbc8251780e8", "type": "electric_scooter", "is_disabled": 0, "lat": 38.8669805, "rental_uris": {"ios": "https://dc.lft.to/lastmile_qr_scan", "android": "https://dc.lft.to/lastmile_qr_scan"}, "is_reserved": 0, "fusion_lon": 0.0, "fusion_lat": 0.0, "lon": -76.98711933333334, "name": "44699f0e96465a3aaa1dfbc8251780e8"}, {"bike_id": "c4d0f0554e7f18f58ea79f9250a92284", "type": "electric_scooter", "is_disabled": 0, "lat": 38.888886166666666, "rental_uris": {"ios": "https://dc.lft.to/lastmile_qr_scan", "android": "https://dc.lft.to/lastmile_qr_scan"}, "is_reserved": 0, "fusion_lon": 0.0, "fusion_lat": 0.0, "lon": -77.0332625, "name": "c4d0f0554e7f18f58ea79f9250a92284"}, {"bike_id": "3f682939f78b6abde7bde9e01049d36c", "type": "electric_scooter", "is_disabled": 0, "lat": 38.911133, "rental_uris": {"ios": "https://dc.lft.to/lastmile_qr_scan", "android": "https://dc.lft.to/lastmile_qr_scan"}, "is_reserved": 0, "fusion_lon": 0.0, "fusion_lat": 0.0, "lon": -77.0383335, "name": "3f682939f78b6abde7bde9e01049d36c"}, {"bike_id": "db50085b2a04c2fae119b34f2e5aadb3", "type": "electric_scooter", "is_disabled": 0, "lat": 38.92139683333333, "rental_uris": {"ios": "https://dc.lft.to/lastmile_qr_scan", "android": "https://dc.lft.to/lastmile_qr_scan"}, "is_reserved": 0, "fusion_lon": 0.0, "fusion_lat": 0.0, "lon": -77.018058, "name": "db50085b2a04c2fae119b34f2e5aadb3"}, {"bike_id": "4383bafd375fe72074a21408344ae91c", "type": "electric_scooter", "is_disabled": 0, "lat": 38.8617125, "rental_uris": {"ios": "https://dc.lft.to/lastmile_qr_scan", "android": "https://dc.lft.to/lastmile_qr_scan"}, "is_reserved": 0, "fusion_lon": 0.0, "fusion_lat": 0.0, "lon": -77.08819616666666, "name": "4383bafd375fe72074a21408344ae91c"}, {"bike_id": "6d3b06d60d548d388c95b20423480402", "type": "electric_scooter", "is_disabled": 0, "lat": 38.935321, "rental_uris": {"ios": "https://dc.lft.to/lastmile_qr_scan", "android": "https://dc.lft.to/lastmile_qr_scan"}, "is_reserved": 0, "fusion_lon": 0.0, "fusion_lat": 0.0, "lon": -77.0340375, "name": "6d3b06d60d548d388c95b20423480402"}, {"bike_id": "0f4feea6ee64c940143dca24666b9f7f", "type": "electric_scooter", "is_disabled": 0, "lat": 38.896746666666665, "rental_uris": {"ios": "https://dc.lft.to/lastmile_qr_scan", "android": "https://dc.lft.to/lastmile_qr_scan"}, "is_reserved": 0, "fusion_lon": 0.0, "fusion_lat": 0.0, "lon": -77.005211, "name": "0f4feea6ee64c940143dca24666b9f7f"}, {"bike_id": "c5834572eb36b905e22d302fd94188e2", "type": "electric_scooter", "is_disabled": 0, "lat": 38.923328833333336, "rental_uris": {"ios": "https://dc.lft.to/lastmile_qr_scan", "android": "https://dc.lft.to/lastmile_qr_scan"}, "is_reserved": 0, "fusion_lon": 0.0, "fusion_lat": 0.0, "lon": -77.0461905, "name": "c5834572eb36b905e22d302fd94188e2"}, {"bike_id": "f19ee2bcbfd72c3e15ad265426292bba", "type": "electric_scooter", "is_disabled": 0, "lat": 38.92092533333334, "rental_uris": {"ios": "https://dc.lft.to/lastmile_qr_scan", "android": "https://dc.lft.to/lastmile_qr_scan"}, "is_reserved": 0, "fusion_lon": 0.0, "fusion_lat": 0.0, "lon": -77.0043575, "name": "f19ee2bcbfd72c3e15ad265426292bba"}, {"bike_id": "6a0840a5d16b72e0a89eeaa3688a4f85", "type": "electric_scooter", "is_disabled": 0, "lat": 38.938916666666664, "rental_uris": {"ios": "https://dc.lft.to/lastmile_qr_scan", "android": "https://dc.lft.to/lastmile_qr_scan"}, "is_reserved": 0, "fusion_lon": 0.0, "fusion_lat": 0.0, "lon": -77.028244, "name": "6a0840a5d16b72e0a89eeaa3688a4f85"}, {"bike_id": "75e104282c41b7a3078d174f9190c14e", "type": "electric_scooter", "is_disabled": 0, "lat": 38.91576233333333, "rental_uris": {"ios": "https://dc.lft.to/lastmile_qr_scan", "android": "https://dc.lft.to/lastmile_qr_scan"}, "is_reserved": 0, "fusion_lon": 0.0, "fusion_lat": 0.0, "lon": -77.02020566666667, "name": "75e104282c41b7a3078d174f9190c14e"}, {"bike_id": "8eead9d12c3dc2ee35b0efea87061f3a", "type": "electric_scooter", "is_disabled": 0, "lat": 38.90981016666667, "rental_uris": {"ios": "https://dc.lft.to/lastmile_qr_scan", "android": "https://dc.lft.to/lastmile_qr_scan"}, "is_reserved": 0, "fusion_lon": 0.0, "fusion_lat": 0.0, "lon": -77.033426, "name": "8eead9d12c3dc2ee35b0efea87061f3a"}, {"bike_id": "693db900a37c2ae511bf5cf18c73927c", "type": "electric_bike", "is_disabled": 0, "lat": 38.9535905, "rental_uris": {"ios": "https://dc.lft.to/lastmile_qr_scan", "android": "https://dc.lft.to/lastmile_qr_scan"}, "is_reserved": 0, "fusion_lon": 0.0, "fusion_lat": 0.0, "lon": -76.98095716666667, "name": "693db900a37c2ae511bf5cf18c73927c"}, {"bike_id": "6a60acbcb9e6ccaa8345986e6f43e72e", "type": "electric_bike", "is_disabled": 0, "lat": 39.01371783333333, "rental_uris": {"ios": "https://dc.lft.to/lastmile_qr_scan", "android": "https://dc.lft.to/lastmile_qr_scan"}, "is_reserved": 0, "fusion_lon": 0.0, "fusion_lat": 0.0, "lon": -76.92134166666666, "name": "6a60acbcb9e6ccaa8345986e6f43e72e"}, {"bike_id": "e7c6edab6bb349de39b33c7345ae55da", "type": "electric_scooter", "is_disabled": 0, "lat": 38.87223433333333, "rental_uris": {"ios": "https://dc.lft.to/lastmile_qr_scan", "android": "https://dc.lft.to/lastmile_qr_scan"}, "is_reserved": 0, "fusion_lon": 0.0, "fusion_lat": 0.0, "lon": -77.01764083333333, "name": "e7c6edab6bb349de39b33c7345ae55da"}, {"bike_id": "9b0d680ea111386f66e7932a5e10c1bc", "type": "electric_scooter", "is_disabled": 0, "lat": 38.88041066666667, "rental_uris": {"ios": "https://dc.lft.to/lastmile_qr_scan", "android": "https://dc.lft.to/lastmile_qr_scan"}, "is_reserved": 0, "fusion_lon": 0.0, "fusion_lat": 0.0, "lon": -77.00564733333333, "name": "9b0d680ea111386f66e7932a5e10c1bc"}, {"bike_id": "74fc09f356aa0ea7093293ec15c139ce", "type": "electric_scooter", "is_disabled": 0, "lat": 38.92332233333333, "rental_uris": {"ios": "https://dc.lft.to/lastmile_qr_scan", "android": "https://dc.lft.to/lastmile_qr_scan"}, "is_reserved": 0, "fusion_lon": 0.0, "fusion_lat": 0.0, "lon": -77.02302, "name": "74fc09f356aa0ea7093293ec15c139ce"}, {"bike_id": "8d1cc030e0d0326fe3cf110ec148156f", "type": "electric_scooter", "is_disabled": 0, "lat": 38.9115915, "rental_uris": {"ios": "https://dc.lft.to/lastmile_qr_scan", "android": "https://dc.lft.to/lastmile_qr_scan"}, "is_reserved": 0, "fusion_lon": 0.0, "fusion_lat": 0.0, "lon": -77.02962233333334, "name": "8d1cc030e0d0326fe3cf110ec148156f"}, {"bike_id": "ffb380d69983aee756a1c52855ae2bee", "type": "electric_scooter", "is_disabled": 0, "lat": 38.91129983333333, "rental_uris": {"ios": "https://dc.lft.to/lastmile_qr_scan", "android": "https://dc.lft.to/lastmile_qr_scan"}, "is_reserved": 0, "fusion_lon": 0.0, "fusion_lat": 0.0, "lon": -77.02188316666667, "name": "ffb380d69983aee756a1c52855ae2bee"}, {"bike_id": "b675a44469cf354e2358ec45a9a3d5e4", "type": "electric_scooter", "is_disabled": 0, "lat": 38.909717666666666, "rental_uris": {"ios": "https://dc.lft.to/lastmile_qr_scan", "android": "https://dc.lft.to/lastmile_qr_scan"}, "is_reserved": 0, "fusion_lon": 0.0, "fusion_lat": 0.0, "lon": -77.03340816666666, "name": "b675a44469cf354e2358ec45a9a3d5e4"}, {"bike_id": "94ebd21326d408bf29cfc1d71feea448", "type": "electric_scooter", "is_disabled": 0, "lat": 38.922187, "rental_uris": {"ios": "https://dc.lft.to/lastmile_qr_scan", "android": "https://dc.lft.to/lastmile_qr_scan"}, "is_reserved": 0, "fusion_lon": 0.0, "fusion_lat": 0.0, "lon": -77.02213783333333, "name": "94ebd21326d408bf29cfc1d71feea448"}, {"bike_id": "39aaa4af17d2d052712bdb94cdeda14a", "type": "electric_scooter", "is_disabled": 0, "lat": 38.92643833333333, "rental_uris": {"ios": "https://dc.lft.to/lastmile_qr_scan", "android": "https://dc.lft.to/lastmile_qr_scan"}, "is_reserved": 0, "fusion_lon": 0.0, "fusion_lat": 0.0, "lon": -77.01382133333334, "name": "39aaa4af17d2d052712bdb94cdeda14a"}, {"bike_id": "6511581c65e21b4864f1c683469c06b5", "type": "electric_scooter", "is_disabled": 0, "lat": 38.912211166666665, "rental_uris": {"ios": "https://dc.lft.to/lastmile_qr_scan", "android": "https://dc.lft.to/lastmile_qr_scan"}, "is_reserved": 0, "fusion_lon": 0.0, "fusion_lat": 0.0, "lon": -77.031993, "name": "6511581c65e21b4864f1c683469c06b5"}, {"bike_id": "00166c81d6289cd494f6e7d9861831a6", "type": "electric_scooter", "is_disabled": 0, "lat": 38.90244033333333, "rental_uris": {"ios": "https://dc.lft.to/lastmile_qr_scan", "android": "https://dc.lft.to/lastmile_qr_scan"}, "is_reserved": 0, "fusion_lon": 0.0, "fusion_lat": 0.0, "lon": -77.04329683333333, "name": "00166c81d6289cd494f6e7d9861831a6"}, {"bike_id": "19cbcb97676646b539d1f7a1721bd6ca", "type": "electric_scooter", "is_disabled": 0, "lat": 38.88536083333334, "rental_uris": {"ios": "https://dc.lft.to/lastmile_qr_scan", "android": "https://dc.lft.to/lastmile_qr_scan"}, "is_reserved": 0, "fusion_lon": 0.0, "fusion_lat": 0.0, "lon": -76.99829, "name": "19cbcb97676646b539d1f7a1721bd6ca"}, {"bike_id": "53765793ac070020e9c688eb52ee6ffd", "type": "electric_scooter", "is_disabled": 0, "lat": 38.89237766666667, "rental_uris": {"ios": "https://dc.lft.to/lastmile_qr_scan", "android": "https://dc.lft.to/lastmile_qr_scan"}, "is_reserved": 0, "fusion_lon": 0.0, "fusion_lat": 0.0, "lon": -76.95329383333333, "name": "53765793ac070020e9c688eb52ee6ffd"}, {"bike_id": "efb90022699627ca6362f018e8e24227", "type": "electric_scooter", "is_disabled": 0, "lat": 38.93384133333333, "rental_uris": {"ios": "https://dc.lft.to/lastmile_qr_scan", "android": "https://dc.lft.to/lastmile_qr_scan"}, "is_reserved": 0, "fusion_lon": 0.0, "fusion_lat": 0.0, "lon": -77.057381, "name": "efb90022699627ca6362f018e8e24227"}, {"bike_id": "8a108bfc8edd40d08cde140ea32a283a", "type": "electric_bike", "is_disabled": 0, "lat": 38.80903466666667, "rental_uris": {"ios": "https://dc.lft.to/lastmile_qr_scan", "android": "https://dc.lft.to/lastmile_qr_scan"}, "is_reserved": 0, "fusion_lon": 0.0, "fusion_lat": 0.0, "lon": -77.08655666666667, "name": "8a108bfc8edd40d08cde140ea32a283a"}, {"bike_id": "4d12b97b3aa83860c5f6474d8a483db5", "type": "electric_scooter", "is_disabled": 0, "lat": 38.93737516666667, "rental_uris": {"ios": "https://dc.lft.to/lastmile_qr_scan", "android": "https://dc.lft.to/lastmile_qr_scan"}, "is_reserved": 0, "fusion_lon": 0.0, "fusion_lat": 0.0, "lon": -77.02434966666667, "name": "4d12b97b3aa83860c5f6474d8a483db5"}, {"bike_id": "87667d79637c967826b1db5470ed1747", "type": "electric_scooter", "is_disabled": 0, "lat": 38.912736833333334, "rental_uris": {"ios": "https://dc.lft.to/lastmile_qr_scan", "android": "https://dc.lft.to/lastmile_qr_scan"}, "is_reserved": 0, "fusion_lon": 0.0, "fusion_lat": 0.0, "lon": -77.02209666666667, "name": "87667d79637c967826b1db5470ed1747"}, {"bike_id": "79607aa3a8016678519915d921ab72f3", "type": "electric_scooter", "is_disabled": 0, "lat": 38.92864933333333, "rental_uris": {"ios": "https://dc.lft.to/lastmile_qr_scan", "android": "https://dc.lft.to/lastmile_qr_scan"}, "is_reserved": 0, "fusion_lon": 0.0, "fusion_lat": 0.0, "lon": -77.03712083333333, "name": "79607aa3a8016678519915d921ab72f3"}, {"bike_id": "8978077053f50d7c64a2f78bf102f16c", "type": "electric_scooter", "is_disabled": 0, "lat": 38.9126965, "rental_uris": {"ios": "https://dc.lft.to/lastmile_qr_scan", "android": "https://dc.lft.to/lastmile_qr_scan"}, "is_reserved": 0, "fusion_lon": 0.0, "fusion_lat": 0.0, "lon": -77.02209716666667, "name": "8978077053f50d7c64a2f78bf102f16c"}, {"bike_id": "fde31270a91cb4a7505eea25ac2110e6", "type": "electric_scooter", "is_disabled": 0, "lat": 38.92189, "rental_uris": {"ios": "https://dc.lft.to/lastmile_qr_scan", "android": "https://dc.lft.to/lastmile_qr_scan"}, "is_reserved": 0, "fusion_lon": 0.0, "fusion_lat": 0.0, "lon": -77.03802466666667, "name": "fde31270a91cb4a7505eea25ac2110e6"}, {"bike_id": "b997dd64aab43876f913384b0aac1b0b", "type": "electric_scooter", "is_disabled": 0, "lat": 38.91820516666667, "rental_uris": {"ios": "https://dc.lft.to/lastmile_qr_scan", "android": "https://dc.lft.to/lastmile_qr_scan"}, "is_reserved": 0, "fusion_lon": 0.0, "fusion_lat": 0.0, "lon": -77.00257616666667, "name": "b997dd64aab43876f913384b0aac1b0b"}, {"bike_id": "ec78552a398bc8736d23292591cdf3f4", "type": "electric_scooter", "is_disabled": 0, "lat": 38.914176833333336, "rental_uris": {"ios": "https://dc.lft.to/lastmile_qr_scan", "android": "https://dc.lft.to/lastmile_qr_scan"}, "is_reserved": 0, "fusion_lon": 0.0, "fusion_lat": 0.0, "lon": -77.02308483333333, "name": "ec78552a398bc8736d23292591cdf3f4"}, {"bike_id": "6322bed5e1313feeb7833107781b314b", "type": "electric_scooter", "is_disabled": 0, "lat": 38.9200815, "rental_uris": {"ios": "https://dc.lft.to/lastmile_qr_scan", "android": "https://dc.lft.to/lastmile_qr_scan"}, "is_reserved": 0, "fusion_lon": 0.0, "fusion_lat": 0.0, "lon": -77.03973583333334, "name": "6322bed5e1313feeb7833107781b314b"}, {"bike_id": "98d7bb66288b084a489c2fb9ccb44870", "type": "electric_scooter", "is_disabled": 0, "lat": 38.91792933333333, "rental_uris": {"ios": "https://dc.lft.to/lastmile_qr_scan", "android": "https://dc.lft.to/lastmile_qr_scan"}, "is_reserved": 0, "fusion_lon": 0.0, "fusion_lat": 0.0, "lon": -77.0230925, "name": "98d7bb66288b084a489c2fb9ccb44870"}, {"bike_id": "6e6ec5808a470420bce965b73bb15c9c", "type": "electric_scooter", "is_disabled": 0, "lat": 38.917038833333336, "rental_uris": {"ios": "https://dc.lft.to/lastmile_qr_scan", "android": "https://dc.lft.to/lastmile_qr_scan"}, "is_reserved": 0, "fusion_lon": 0.0, "fusion_lat": 0.0, "lon": -77.02350733333333, "name": "6e6ec5808a470420bce965b73bb15c9c"}, {"bike_id": "2316dc3173d061d8bf9942e9aee248f1", "type": "electric_scooter", "is_disabled": 0, "lat": 38.917664, "rental_uris": {"ios": "https://dc.lft.to/lastmile_qr_scan", "android": "https://dc.lft.to/lastmile_qr_scan"}, "is_reserved": 0, "fusion_lon": 0.0, "fusion_lat": 0.0, "lon": -77.047661, "name": "2316dc3173d061d8bf9942e9aee248f1"}, {"bike_id": "3983be20a47cf141557658cf3fe83098", "type": "electric_scooter", "is_disabled": 0, "lat": 38.924788666666664, "rental_uris": {"ios": "https://dc.lft.to/lastmile_qr_scan", "android": "https://dc.lft.to/lastmile_qr_scan"}, "is_reserved": 0, "fusion_lon": 0.0, "fusion_lat": 0.0, "lon": -77.02633833333333, "name": "3983be20a47cf141557658cf3fe83098"}, {"bike_id": "ca1e3a756ef4bd8ebd6d96d5e222fb9b", "type": "electric_scooter", "is_disabled": 0, "lat": 38.91342516666667, "rental_uris": {"ios": "https://dc.lft.to/lastmile_qr_scan", "android": "https://dc.lft.to/lastmile_qr_scan"}, "is_reserved": 0, "fusion_lon": 0.0, "fusion_lat": 0.0, "lon": -77.02584216666666, "name": "ca1e3a756ef4bd8ebd6d96d5e222fb9b"}, {"bike_id": "289baf5f569f54e70eee4173ef312c85", "type": "electric_bike", "is_disabled": 0, "lat": 38.935858333333336, "rental_uris": {"ios": "https://dc.lft.to/lastmile_qr_scan", "android": "https://dc.lft.to/lastmile_qr_scan"}, "is_reserved": 0, "fusion_lon": 0.0, "fusion_lat": 0.0, "lon": -77.02360566666667, "name": "289baf5f569f54e70eee4173ef312c85"}, {"bike_id": "26e7d544973f86427c12066a8537d070", "type": "electric_scooter", "is_disabled": 0, "lat": 38.90883866666667, "rental_uris": {"ios": "https://dc.lft.to/lastmile_qr_scan", "android": "https://dc.lft.to/lastmile_qr_scan"}, "is_reserved": 0, "fusion_lon": 0.0, "fusion_lat": 0.0, "lon": -77.00288616666667, "name": "26e7d544973f86427c12066a8537d070"}, {"bike_id": "ba009ea31ee9c9afdd0bc05018889e47", "type": "electric_scooter", "is_disabled": 0, "lat": 38.95576616666666, "rental_uris": {"ios": "https://dc.lft.to/lastmile_qr_scan", "android": "https://dc.lft.to/lastmile_qr_scan"}, "is_reserved": 0, "fusion_lon": 0.0, "fusion_lat": 0.0, "lon": -77.08037283333333, "name": "ba009ea31ee9c9afdd0bc05018889e47"}, {"bike_id": "bdf53d504d14288690f583a421a22805", "type": "electric_scooter", "is_disabled": 0, "lat": 38.928331666666665, "rental_uris": {"ios": "https://dc.lft.to/lastmile_qr_scan", "android": "https://dc.lft.to/lastmile_qr_scan"}, "is_reserved": 0, "fusion_lon": 0.0, "fusion_lat": 0.0, "lon": -77.05499883333333, "name": "bdf53d504d14288690f583a421a22805"}, {"bike_id": "500e284005ea8e8cd19e33d2b08f6520", "type": "electric_scooter", "is_disabled": 0, "lat": 38.878599, "rental_uris": {"ios": "https://dc.lft.to/lastmile_qr_scan", "android": "https://dc.lft.to/lastmile_qr_scan"}, "is_reserved": 0, "fusion_lon": 0.0, "fusion_lat": 0.0, "lon": -77.00850966666667, "name": "500e284005ea8e8cd19e33d2b08f6520"}, {"bike_id": "39d4550d15720c1210a94a253e705eb5", "type": "electric_scooter", "is_disabled": 0, "lat": 38.98430783333333, "rental_uris": {"ios": "https://dc.lft.to/lastmile_qr_scan", "android": "https://dc.lft.to/lastmile_qr_scan"}, "is_reserved": 0, "fusion_lon": 0.0, "fusion_lat": 0.0, "lon": -77.0267295, "name": "39d4550d15720c1210a94a253e705eb5"}, {"bike_id": "d1ae64fc21d457a26d3fe99e82c16f2c", "type": "electric_bike", "is_disabled": 0, "lat": 38.809682333333335, "rental_uris": {"ios": "https://dc.lft.to/lastmile_qr_scan", "android": "https://dc.lft.to/lastmile_qr_scan"}, "is_reserved": 0, "fusion_lon": 0.0, "fusion_lat": 0.0, "lon": -77.086293, "name": "d1ae64fc21d457a26d3fe99e82c16f2c"}, {"bike_id": "17c117f29effaeec2c68b373f5d22b98", "type": "electric_scooter", "is_disabled": 0, "lat": 38.922505666666666, "rental_uris": {"ios": "https://dc.lft.to/lastmile_qr_scan", "android": "https://dc.lft.to/lastmile_qr_scan"}, "is_reserved": 0, "fusion_lon": 0.0, "fusion_lat": 0.0, "lon": -77.01970666666666, "name": "17c117f29effaeec2c68b373f5d22b98"}, {"bike_id": "6d5ac4fb92c87c81d0dcbdc3df0ff348", "type": "electric_bike", "is_disabled": 0, "lat": 38.97059383333333, "rental_uris": {"ios": "https://dc.lft.to/lastmile_qr_scan", "android": "https://dc.lft.to/lastmile_qr_scan"}, "is_reserved": 0, "fusion_lon": 0.0, "fusion_lat": 0.0, "lon": -76.93612016666667, "name": "6d5ac4fb92c87c81d0dcbdc3df0ff348"}, {"bike_id": "62c7eda5bfa8fc3deb7b9af6e076f49d", "type": "electric_scooter", "is_disabled": 0, "lat": 38.881657, "rental_uris": {"ios": "https://dc.lft.to/lastmile_qr_scan", "android": "https://dc.lft.to/lastmile_qr_scan"}, "is_reserved": 0, "fusion_lon": 0.0, "fusion_lat": 0.0, "lon": -77.02770516666666, "name": "62c7eda5bfa8fc3deb7b9af6e076f49d"}, {"bike_id": "aedb0d3f970603453bb42acba9438dca", "type": "electric_scooter", "is_disabled": 0, "lat": 38.86372433333333, "rental_uris": {"ios": "https://dc.lft.to/lastmile_qr_scan", "android": "https://dc.lft.to/lastmile_qr_scan"}, "is_reserved": 0, "fusion_lon": 0.0, "fusion_lat": 0.0, "lon": -76.99054466666666, "name": "aedb0d3f970603453bb42acba9438dca"}, {"bike_id": "00c5c056eb1c8a8773e3eb8eeb2990f7", "type": "electric_scooter", "is_disabled": 0, "lat": 38.903190333333335, "rental_uris": {"ios": "https://dc.lft.to/lastmile_qr_scan", "android": "https://dc.lft.to/lastmile_qr_scan"}, "is_reserved": 0, "fusion_lon": 0.0, "fusion_lat": 0.0, "lon": -76.99130033333333, "name": "00c5c056eb1c8a8773e3eb8eeb2990f7"}, {"bike_id": "fe4878a4c1a594bc821b223e096bbd23", "type": "electric_scooter", "is_disabled": 0, "lat": 38.91777183333333, "rental_uris": {"ios": "https://dc.lft.to/lastmile_qr_scan", "android": "https://dc.lft.to/lastmile_qr_scan"}, "is_reserved": 0, "fusion_lon": 0.0, "fusion_lat": 0.0, "lon": -77.04776266666667, "name": "fe4878a4c1a594bc821b223e096bbd23"}, {"bike_id": "e099451bd0f629982cca0ef64a0667cb", "type": "electric_scooter", "is_disabled": 0, "lat": 38.9002945, "rental_uris": {"ios": "https://dc.lft.to/lastmile_qr_scan", "android": "https://dc.lft.to/lastmile_qr_scan"}, "is_reserved": 0, "fusion_lon": 0.0, "fusion_lat": 0.0, "lon": -77.001877, "name": "e099451bd0f629982cca0ef64a0667cb"}, {"bike_id": "7518fdb114a8714e93ebd850dde49401", "type": "electric_scooter", "is_disabled": 0, "lat": 38.89707816666667, "rental_uris": {"ios": "https://dc.lft.to/lastmile_qr_scan", "android": "https://dc.lft.to/lastmile_qr_scan"}, "is_reserved": 0, "fusion_lon": 0.0, "fusion_lat": 0.0, "lon": -77.02291733333334, "name": "7518fdb114a8714e93ebd850dde49401"}, {"bike_id": "e1fdd259baf5e129b1cea1c191030ffc", "type": "electric_scooter", "is_disabled": 0, "lat": 38.928611333333336, "rental_uris": {"ios": "https://dc.lft.to/lastmile_qr_scan", "android": "https://dc.lft.to/lastmile_qr_scan"}, "is_reserved": 0, "fusion_lon": 0.0, "fusion_lat": 0.0, "lon": -77.037095, "name": "e1fdd259baf5e129b1cea1c191030ffc"}, {"bike_id": "445718339a530eaedf436e2cf951ab3e", "type": "electric_scooter", "is_disabled": 0, "lat": 38.9163715, "rental_uris": {"ios": "https://dc.lft.to/lastmile_qr_scan", "android": "https://dc.lft.to/lastmile_qr_scan"}, "is_reserved": 0, "fusion_lon": 0.0, "fusion_lat": 0.0, "lon": -77.02557516666667, "name": "445718339a530eaedf436e2cf951ab3e"}, {"bike_id": "83cc35d2357584844c866293020c7827", "type": "electric_scooter", "is_disabled": 0, "lat": 38.92069766666667, "rental_uris": {"ios": "https://dc.lft.to/lastmile_qr_scan", "android": "https://dc.lft.to/lastmile_qr_scan"}, "is_reserved": 0, "fusion_lon": 0.0, "fusion_lat": 0.0, "lon": -77.02837783333334, "name": "83cc35d2357584844c866293020c7827"}, {"bike_id": "0df1c317f2556cf92e0765e2d922ba94", "type": "electric_scooter", "is_disabled": 0, "lat": 38.91635683333333, "rental_uris": {"ios": "https://dc.lft.to/lastmile_qr_scan", "android": "https://dc.lft.to/lastmile_qr_scan"}, "is_reserved": 0, "fusion_lon": 0.0, "fusion_lat": 0.0, "lon": -77.04006333333334, "name": "0df1c317f2556cf92e0765e2d922ba94"}, {"bike_id": "ef88a620f73f22a3087a829e03249faf", "type": "electric_scooter", "is_disabled": 0, "lat": 38.91561933333333, "rental_uris": {"ios": "https://dc.lft.to/lastmile_qr_scan", "android": "https://dc.lft.to/lastmile_qr_scan"}, "is_reserved": 0, "fusion_lon": 0.0, "fusion_lat": 0.0, "lon": -77.02407983333333, "name": "ef88a620f73f22a3087a829e03249faf"}, {"bike_id": "7a52e287b740e301bd2c55e59f7554c7", "type": "electric_scooter", "is_disabled": 0, "lat": 38.920392666666665, "rental_uris": {"ios": "https://dc.lft.to/lastmile_qr_scan", "android": "https://dc.lft.to/lastmile_qr_scan"}, "is_reserved": 0, "fusion_lon": 0.0, "fusion_lat": 0.0, "lon": -77.01312133333333, "name": "7a52e287b740e301bd2c55e59f7554c7"}, {"bike_id": "25518171f7012c53e01456e54d3d4fb0", "type": "electric_scooter", "is_disabled": 0, "lat": 38.931812666666666, "rental_uris": {"ios": "https://dc.lft.to/lastmile_qr_scan", "android": "https://dc.lft.to/lastmile_qr_scan"}, "is_reserved": 0, "fusion_lon": 0.0, "fusion_lat": 0.0, "lon": -77.03168166666667, "name": "25518171f7012c53e01456e54d3d4fb0"}, {"bike_id": "aeec8ebcc57577872d119f48444d7513", "type": "electric_scooter", "is_disabled": 0, "lat": 38.9058125, "rental_uris": {"ios": "https://dc.lft.to/lastmile_qr_scan", "android": "https://dc.lft.to/lastmile_qr_scan"}, "is_reserved": 0, "fusion_lon": 0.0, "fusion_lat": 0.0, "lon": -76.98434383333333, "name": "aeec8ebcc57577872d119f48444d7513"}, {"bike_id": "1c412eda6af0eba8ad46884f3aba724a", "type": "electric_scooter", "is_disabled": 0, "lat": 38.917098, "rental_uris": {"ios": "https://dc.lft.to/lastmile_qr_scan", "android": "https://dc.lft.to/lastmile_qr_scan"}, "is_reserved": 0, "fusion_lon": 0.0, "fusion_lat": 0.0, "lon": -77.02876383333333, "name": "1c412eda6af0eba8ad46884f3aba724a"}, {"bike_id": "da7d4bdcba3b93bf979eb0cd25d34436", "type": "electric_scooter", "is_disabled": 0, "lat": 38.90108633333333, "rental_uris": {"ios": "https://dc.lft.to/lastmile_qr_scan", "android": "https://dc.lft.to/lastmile_qr_scan"}, "is_reserved": 0, "fusion_lon": 0.0, "fusion_lat": 0.0, "lon": -77.05021183333334, "name": "da7d4bdcba3b93bf979eb0cd25d34436"}, {"bike_id": "411303f2dd295476cf8569713834d523", "type": "electric_scooter", "is_disabled": 0, "lat": 38.928644, "rental_uris": {"ios": "https://dc.lft.to/lastmile_qr_scan", "android": "https://dc.lft.to/lastmile_qr_scan"}, "is_reserved": 0, "fusion_lon": 0.0, "fusion_lat": 0.0, "lon": -77.03712, "name": "411303f2dd295476cf8569713834d523"}, {"bike_id": "810bc34b6951c1b765f9d2707132dc38", "type": "electric_scooter", "is_disabled": 0, "lat": 38.94205483333333, "rental_uris": {"ios": "https://dc.lft.to/lastmile_qr_scan", "android": "https://dc.lft.to/lastmile_qr_scan"}, "is_reserved": 0, "fusion_lon": 0.0, "fusion_lat": 0.0, "lon": -77.01739666666667, "name": "810bc34b6951c1b765f9d2707132dc38"}, {"bike_id": "c0fcee7903b00b1a921ee27b8dca9cec", "type": "electric_scooter", "is_disabled": 0, "lat": 38.939227333333335, "rental_uris": {"ios": "https://dc.lft.to/lastmile_qr_scan", "android": "https://dc.lft.to/lastmile_qr_scan"}, "is_reserved": 0, "fusion_lon": 0.0, "fusion_lat": 0.0, "lon": -77.06050983333333, "name": "c0fcee7903b00b1a921ee27b8dca9cec"}, {"bike_id": "84c5bb261f4641ef5e2e402521f3889d", "type": "electric_scooter", "is_disabled": 0, "lat": 38.91555183333333, "rental_uris": {"ios": "https://dc.lft.to/lastmile_qr_scan", "android": "https://dc.lft.to/lastmile_qr_scan"}, "is_reserved": 0, "fusion_lon": 0.0, "fusion_lat": 0.0, "lon": -77.0317045, "name": "84c5bb261f4641ef5e2e402521f3889d"}, {"bike_id": "72883103b86b45de932bb8339afa32c8", "type": "electric_bike", "is_disabled": 0, "lat": 38.873048833333335, "rental_uris": {"ios": "https://dc.lft.to/lastmile_qr_scan", "android": "https://dc.lft.to/lastmile_qr_scan"}, "is_reserved": 0, "fusion_lon": 0.0, "fusion_lat": 0.0, "lon": -77.1393055, "name": "72883103b86b45de932bb8339afa32c8"}, {"bike_id": "a3b0fc6ebdbe75cbf675fb179258542c", "type": "electric_scooter", "is_disabled": 0, "lat": 38.884773, "rental_uris": {"ios": "https://dc.lft.to/lastmile_qr_scan", "android": "https://dc.lft.to/lastmile_qr_scan"}, "is_reserved": 0, "fusion_lon": 0.0, "fusion_lat": 0.0, "lon": -76.98219733333333, "name": "a3b0fc6ebdbe75cbf675fb179258542c"}, {"bike_id": "e6fcde82b73b0e835b1c8223d4a1e65c", "type": "electric_scooter", "is_disabled": 0, "lat": 38.8874595, "rental_uris": {"ios": "https://dc.lft.to/lastmile_qr_scan", "android": "https://dc.lft.to/lastmile_qr_scan"}, "is_reserved": 0, "fusion_lon": 0.0, "fusion_lat": 0.0, "lon": -76.99628183333333, "name": "e6fcde82b73b0e835b1c8223d4a1e65c"}, {"bike_id": "a4161d977117c7952fd418bf056cd0dd", "type": "electric_scooter", "is_disabled": 0, "lat": 38.933345333333335, "rental_uris": {"ios": "https://dc.lft.to/lastmile_qr_scan", "android": "https://dc.lft.to/lastmile_qr_scan"}, "is_reserved": 0, "fusion_lon": 0.0, "fusion_lat": 0.0, "lon": -77.0398635, "name": "a4161d977117c7952fd418bf056cd0dd"}, {"bike_id": "e0b6ee8ad1074de9559188e3599422ec", "type": "electric_scooter", "is_disabled": 0, "lat": 38.9052835, "rental_uris": {"ios": "https://dc.lft.to/lastmile_qr_scan", "android": "https://dc.lft.to/lastmile_qr_scan"}, "is_reserved": 0, "fusion_lon": 0.0, "fusion_lat": 0.0, "lon": -76.996356, "name": "e0b6ee8ad1074de9559188e3599422ec"}, {"bike_id": "aa3b7a295a50a7b6d9301613d026740c", "type": "electric_scooter", "is_disabled": 0, "lat": 38.888800333333336, "rental_uris": {"ios": "https://dc.lft.to/lastmile_qr_scan", "android": "https://dc.lft.to/lastmile_qr_scan"}, "is_reserved": 0, "fusion_lon": 0.0, "fusion_lat": 0.0, "lon": -76.99033633333333, "name": "aa3b7a295a50a7b6d9301613d026740c"}, {"bike_id": "3da00945d0987a21f266fda974efef30", "type": "electric_scooter", "is_disabled": 0, "lat": 38.95475066666667, "rental_uris": {"ios": "https://dc.lft.to/lastmile_qr_scan", "android": "https://dc.lft.to/lastmile_qr_scan"}, "is_reserved": 0, "fusion_lon": 0.0, "fusion_lat": 0.0, "lon": -77.0925135, "name": "3da00945d0987a21f266fda974efef30"}, {"bike_id": "cbe1aa45aaefcf8d2e1ca89e508dfe97", "type": "electric_scooter", "is_disabled": 0, "lat": 38.94293066666667, "rental_uris": {"ios": "https://dc.lft.to/lastmile_qr_scan", "android": "https://dc.lft.to/lastmile_qr_scan"}, "is_reserved": 0, "fusion_lon": 0.0, "fusion_lat": 0.0, "lon": -77.02170533333333, "name": "cbe1aa45aaefcf8d2e1ca89e508dfe97"}, {"bike_id": "389c994ce02a7d815423759bce0ba355", "type": "electric_scooter", "is_disabled": 0, "lat": 38.9195625, "rental_uris": {"ios": "https://dc.lft.to/lastmile_qr_scan", "android": "https://dc.lft.to/lastmile_qr_scan"}, "is_reserved": 0, "fusion_lon": 0.0, "fusion_lat": 0.0, "lon": -77.02492416666666, "name": "389c994ce02a7d815423759bce0ba355"}, {"bike_id": "99c120f79136ecff00042330e94ff986", "type": "electric_scooter", "is_disabled": 0, "lat": 38.901761666666665, "rental_uris": {"ios": "https://dc.lft.to/lastmile_qr_scan", "android": "https://dc.lft.to/lastmile_qr_scan"}, "is_reserved": 0, "fusion_lon": 0.0, "fusion_lat": 0.0, "lon": -76.98449866666667, "name": "99c120f79136ecff00042330e94ff986"}, {"bike_id": "1335dc5433df6e2f393f31d0249f6a8e", "type": "electric_scooter", "is_disabled": 0, "lat": 38.904219, "rental_uris": {"ios": "https://dc.lft.to/lastmile_qr_scan", "android": "https://dc.lft.to/lastmile_qr_scan"}, "is_reserved": 0, "fusion_lon": 0.0, "fusion_lat": 0.0, "lon": -76.97376366666667, "name": "1335dc5433df6e2f393f31d0249f6a8e"}, {"bike_id": "ab88f7a8b8fa9acc983b2a814ec11ea6", "type": "electric_scooter", "is_disabled": 0, "lat": 38.924535166666665, "rental_uris": {"ios": "https://dc.lft.to/lastmile_qr_scan", "android": "https://dc.lft.to/lastmile_qr_scan"}, "is_reserved": 0, "fusion_lon": 0.0, "fusion_lat": 0.0, "lon": -77.02412466666667, "name": "ab88f7a8b8fa9acc983b2a814ec11ea6"}, {"bike_id": "bc374a5aa2fde90edee6d573fd894f45", "type": "electric_bike", "is_disabled": 0, "lat": 38.854241, "rental_uris": {"ios": "https://dc.lft.to/lastmile_qr_scan", "android": "https://dc.lft.to/lastmile_qr_scan"}, "is_reserved": 0, "fusion_lon": 0.0, "fusion_lat": 0.0, "lon": -77.120781, "name": "bc374a5aa2fde90edee6d573fd894f45"}, {"bike_id": "363dcef9a2b080be052694b5b8cb017c", "type": "electric_scooter", "is_disabled": 0, "lat": 38.907933, "rental_uris": {"ios": "https://dc.lft.to/lastmile_qr_scan", "android": "https://dc.lft.to/lastmile_qr_scan"}, "is_reserved": 0, "fusion_lon": 0.0, "fusion_lat": 0.0, "lon": -77.00205883333334, "name": "363dcef9a2b080be052694b5b8cb017c"}, {"bike_id": "c0d8052dcd6564da216c49092f99fef2", "type": "electric_scooter", "is_disabled": 0, "lat": 38.8656745, "rental_uris": {"ios": "https://dc.lft.to/lastmile_qr_scan", "android": "https://dc.lft.to/lastmile_qr_scan"}, "is_reserved": 0, "fusion_lon": 0.0, "fusion_lat": 0.0, "lon": -76.98217116666666, "name": "c0d8052dcd6564da216c49092f99fef2"}, {"bike_id": "20ab27050b9f645296e23beec204ff0f", "type": "electric_scooter", "is_disabled": 0, "lat": 38.918797, "rental_uris": {"ios": "https://dc.lft.to/lastmile_qr_scan", "android": "https://dc.lft.to/lastmile_qr_scan"}, "is_reserved": 0, "fusion_lon": 0.0, "fusion_lat": 0.0, "lon": -77.04470566666667, "name": "20ab27050b9f645296e23beec204ff0f"}, {"bike_id": "f37d374062afd404879fc58281ba15a0", "type": "electric_scooter", "is_disabled": 0, "lat": 38.91634783333333, "rental_uris": {"ios": "https://dc.lft.to/lastmile_qr_scan", "android": "https://dc.lft.to/lastmile_qr_scan"}, "is_reserved": 0, "fusion_lon": 0.0, "fusion_lat": 0.0, "lon": -77.0229185, "name": "f37d374062afd404879fc58281ba15a0"}, {"bike_id": "7a6cde1e491a5faf2235a657c556a7eb", "type": "electric_scooter", "is_disabled": 0, "lat": 38.85320433333333, "rental_uris": {"ios": "https://dc.lft.to/lastmile_qr_scan", "android": "https://dc.lft.to/lastmile_qr_scan"}, "is_reserved": 0, "fusion_lon": 0.0, "fusion_lat": 0.0, "lon": -76.980106, "name": "7a6cde1e491a5faf2235a657c556a7eb"}, {"bike_id": "e9e88ac968cb8f54cccc84831422a3e1", "type": "electric_scooter", "is_disabled": 0, "lat": 38.912709166666666, "rental_uris": {"ios": "https://dc.lft.to/lastmile_qr_scan", "android": "https://dc.lft.to/lastmile_qr_scan"}, "is_reserved": 0, "fusion_lon": 0.0, "fusion_lat": 0.0, "lon": -77.03750816666667, "name": "e9e88ac968cb8f54cccc84831422a3e1"}, {"bike_id": "9ab03787c6e54b23aa3650bc91e0197a", "type": "electric_scooter", "is_disabled": 0, "lat": 38.8786795, "rental_uris": {"ios": "https://dc.lft.to/lastmile_qr_scan", "android": "https://dc.lft.to/lastmile_qr_scan"}, "is_reserved": 0, "fusion_lon": 0.0, "fusion_lat": 0.0, "lon": -76.96985766666667, "name": "9ab03787c6e54b23aa3650bc91e0197a"}, {"bike_id": "7be8d6955f130f2cf7cbf25538a41ca5", "type": "electric_scooter", "is_disabled": 0, "lat": 38.88849116666667, "rental_uris": {"ios": "https://dc.lft.to/lastmile_qr_scan", "android": "https://dc.lft.to/lastmile_qr_scan"}, "is_reserved": 0, "fusion_lon": 0.0, "fusion_lat": 0.0, "lon": -76.9268125, "name": "7be8d6955f130f2cf7cbf25538a41ca5"}, {"bike_id": "6c877106ec139b2d77e22a791f3f56d6", "type": "electric_scooter", "is_disabled": 0, "lat": 38.911131833333336, "rental_uris": {"ios": "https://dc.lft.to/lastmile_qr_scan", "android": "https://dc.lft.to/lastmile_qr_scan"}, "is_reserved": 0, "fusion_lon": 0.0, "fusion_lat": 0.0, "lon": -77.03837766666666, "name": "6c877106ec139b2d77e22a791f3f56d6"}, {"bike_id": "f549630f9d41a6a97e266771a03816f1", "type": "electric_scooter", "is_disabled": 0, "lat": 38.87426166666667, "rental_uris": {"ios": "https://dc.lft.to/lastmile_qr_scan", "android": "https://dc.lft.to/lastmile_qr_scan"}, "is_reserved": 0, "fusion_lon": 0.0, "fusion_lat": 0.0, "lon": -76.969092, "name": "f549630f9d41a6a97e266771a03816f1"}, {"bike_id": "4594e0ce2cdd2c1bbe99b12f9803449b", "type": "electric_scooter", "is_disabled": 0, "lat": 38.902327, "rental_uris": {"ios": "https://dc.lft.to/lastmile_qr_scan", "android": "https://dc.lft.to/lastmile_qr_scan"}, "is_reserved": 0, "fusion_lon": 0.0, "fusion_lat": 0.0, "lon": -77.0432635, "name": "4594e0ce2cdd2c1bbe99b12f9803449b"}, {"bike_id": "b6de4b9bfcc2bd3235a72760176a8c8d", "type": "electric_scooter", "is_disabled": 0, "lat": 38.92472133333333, "rental_uris": {"ios": "https://dc.lft.to/lastmile_qr_scan", "android": "https://dc.lft.to/lastmile_qr_scan"}, "is_reserved": 0, "fusion_lon": 0.0, "fusion_lat": 0.0, "lon": -77.02834166666666, "name": "b6de4b9bfcc2bd3235a72760176a8c8d"}, {"bike_id": "bdd24d241e3b7cb7871f4cfe1520978a", "type": "electric_scooter", "is_disabled": 0, "lat": 38.914437166666666, "rental_uris": {"ios": "https://dc.lft.to/lastmile_qr_scan", "android": "https://dc.lft.to/lastmile_qr_scan"}, "is_reserved": 0, "fusion_lon": 0.0, "fusion_lat": 0.0, "lon": -77.02287416666667, "name": "bdd24d241e3b7cb7871f4cfe1520978a"}, {"bike_id": "40d129f80335638d9ed9ecf9c2ac6291", "type": "electric_scooter", "is_disabled": 0, "lat": 38.92918216666666, "rental_uris": {"ios": "https://dc.lft.to/lastmile_qr_scan", "android": "https://dc.lft.to/lastmile_qr_scan"}, "is_reserved": 0, "fusion_lon": 0.0, "fusion_lat": 0.0, "lon": -77.02093666666667, "name": "40d129f80335638d9ed9ecf9c2ac6291"}, {"bike_id": "35983d1f2b7680d42e289e9f8d967bc6", "type": "electric_scooter", "is_disabled": 0, "lat": 38.8668735, "rental_uris": {"ios": "https://dc.lft.to/lastmile_qr_scan", "android": "https://dc.lft.to/lastmile_qr_scan"}, "is_reserved": 0, "fusion_lon": 0.0, "fusion_lat": 0.0, "lon": -76.98576283333334, "name": "35983d1f2b7680d42e289e9f8d967bc6"}, {"bike_id": "b2353b7de2200255167e8006c9ff7cbe", "type": "electric_scooter", "is_disabled": 0, "lat": 38.94271083333334, "rental_uris": {"ios": "https://dc.lft.to/lastmile_qr_scan", "android": "https://dc.lft.to/lastmile_qr_scan"}, "is_reserved": 0, "fusion_lon": 0.0, "fusion_lat": 0.0, "lon": -77.03258016666666, "name": "b2353b7de2200255167e8006c9ff7cbe"}, {"bike_id": "b9accca95994c1c2d48557b24fda7f40", "type": "electric_scooter", "is_disabled": 0, "lat": 38.9215075, "rental_uris": {"ios": "https://dc.lft.to/lastmile_qr_scan", "android": "https://dc.lft.to/lastmile_qr_scan"}, "is_reserved": 0, "fusion_lon": 0.0, "fusion_lat": 0.0, "lon": -77.03315733333334, "name": "b9accca95994c1c2d48557b24fda7f40"}, {"bike_id": "148af36f4e25d9aea82ca4e6e5e54902", "type": "electric_scooter", "is_disabled": 0, "lat": 38.9315445, "rental_uris": {"ios": "https://dc.lft.to/lastmile_qr_scan", "android": "https://dc.lft.to/lastmile_qr_scan"}, "is_reserved": 0, "fusion_lon": 0.0, "fusion_lat": 0.0, "lon": -77.03354516666667, "name": "148af36f4e25d9aea82ca4e6e5e54902"}, {"bike_id": "2fae3e1ec0ecd797aa4393adef9c2e6d", "type": "electric_scooter", "is_disabled": 0, "lat": 38.90970883333333, "rental_uris": {"ios": "https://dc.lft.to/lastmile_qr_scan", "android": "https://dc.lft.to/lastmile_qr_scan"}, "is_reserved": 0, "fusion_lon": 0.0, "fusion_lat": 0.0, "lon": -77.03230883333333, "name": "2fae3e1ec0ecd797aa4393adef9c2e6d"}, {"bike_id": "c0442d90360c3bbc63d117f9bef7546b", "type": "electric_scooter", "is_disabled": 0, "lat": 38.9039505, "rental_uris": {"ios": "https://dc.lft.to/lastmile_qr_scan", "android": "https://dc.lft.to/lastmile_qr_scan"}, "is_reserved": 0, "fusion_lon": 0.0, "fusion_lat": 0.0, "lon": -77.06857833333333, "name": "c0442d90360c3bbc63d117f9bef7546b"}, {"bike_id": "1b0c609f5ef5d1ffbbaa07781a60537d", "type": "electric_scooter", "is_disabled": 0, "lat": 38.90425116666667, "rental_uris": {"ios": "https://dc.lft.to/lastmile_qr_scan", "android": "https://dc.lft.to/lastmile_qr_scan"}, "is_reserved": 0, "fusion_lon": 0.0, "fusion_lat": 0.0, "lon": -77.05458216666666, "name": "1b0c609f5ef5d1ffbbaa07781a60537d"}, {"bike_id": "c5184aeb312ff87e88477c9191b519ce", "type": "electric_scooter", "is_disabled": 0, "lat": 38.9127695, "rental_uris": {"ios": "https://dc.lft.to/lastmile_qr_scan", "android": "https://dc.lft.to/lastmile_qr_scan"}, "is_reserved": 0, "fusion_lon": 0.0, "fusion_lat": 0.0, "lon": -77.05159166666667, "name": "c5184aeb312ff87e88477c9191b519ce"}, {"bike_id": "69100eb8c40e6291b420c1484850475f", "type": "electric_scooter", "is_disabled": 0, "lat": 38.92274183333333, "rental_uris": {"ios": "https://dc.lft.to/lastmile_qr_scan", "android": "https://dc.lft.to/lastmile_qr_scan"}, "is_reserved": 0, "fusion_lon": 0.0, "fusion_lat": 0.0, "lon": -76.99125983333333, "name": "69100eb8c40e6291b420c1484850475f"}, {"bike_id": "a924ebfd72de122a260481e93862bf37", "type": "electric_scooter", "is_disabled": 0, "lat": 38.916962, "rental_uris": {"ios": "https://dc.lft.to/lastmile_qr_scan", "android": "https://dc.lft.to/lastmile_qr_scan"}, "is_reserved": 0, "fusion_lon": 0.0, "fusion_lat": 0.0, "lon": -77.03219183333333, "name": "a924ebfd72de122a260481e93862bf37"}, {"bike_id": "c4391af296e7f1937381329eb2b3b0c7", "type": "electric_scooter", "is_disabled": 0, "lat": 38.882676833333335, "rental_uris": {"ios": "https://dc.lft.to/lastmile_qr_scan", "android": "https://dc.lft.to/lastmile_qr_scan"}, "is_reserved": 0, "fusion_lon": 0.0, "fusion_lat": 0.0, "lon": -76.9925625, "name": "c4391af296e7f1937381329eb2b3b0c7"}, {"bike_id": "f3748278746dcb66356b3531acf9617b", "type": "electric_scooter", "is_disabled": 0, "lat": 38.918641666666666, "rental_uris": {"ios": "https://dc.lft.to/lastmile_qr_scan", "android": "https://dc.lft.to/lastmile_qr_scan"}, "is_reserved": 0, "fusion_lon": 0.0, "fusion_lat": 0.0, "lon": -77.01510366666666, "name": "f3748278746dcb66356b3531acf9617b"}, {"bike_id": "a70fc083b5ed578705f258521ca1e255", "type": "electric_scooter", "is_disabled": 0, "lat": 38.94342416666667, "rental_uris": {"ios": "https://dc.lft.to/lastmile_qr_scan", "android": "https://dc.lft.to/lastmile_qr_scan"}, "is_reserved": 0, "fusion_lon": 0.0, "fusion_lat": 0.0, "lon": -77.014867, "name": "a70fc083b5ed578705f258521ca1e255"}, {"bike_id": "c498cd96dd53ff29a1f17131bfd89dcc", "type": "electric_scooter", "is_disabled": 0, "lat": 38.91136866666667, "rental_uris": {"ios": "https://dc.lft.to/lastmile_qr_scan", "android": "https://dc.lft.to/lastmile_qr_scan"}, "is_reserved": 0, "fusion_lon": 0.0, "fusion_lat": 0.0, "lon": -77.0653585, "name": "c498cd96dd53ff29a1f17131bfd89dcc"}, {"bike_id": "aaa95817b09817a37964428a6a5ba628", "type": "electric_scooter", "is_disabled": 0, "lat": 38.965046, "rental_uris": {"ios": "https://dc.lft.to/lastmile_qr_scan", "android": "https://dc.lft.to/lastmile_qr_scan"}, "is_reserved": 0, "fusion_lon": 0.0, "fusion_lat": 0.0, "lon": -77.00205966666667, "name": "aaa95817b09817a37964428a6a5ba628"}, {"bike_id": "e69d2e2ac2da313f28d9562519fc2d50", "type": "electric_scooter", "is_disabled": 0, "lat": 38.909469, "rental_uris": {"ios": "https://dc.lft.to/lastmile_qr_scan", "android": "https://dc.lft.to/lastmile_qr_scan"}, "is_reserved": 0, "fusion_lon": 0.0, "fusion_lat": 0.0, "lon": -77.05563983333333, "name": "e69d2e2ac2da313f28d9562519fc2d50"}, {"bike_id": "99af59384e8c0f3c7a6a6ad70fa456a3", "type": "electric_scooter", "is_disabled": 0, "lat": 38.91109483333334, "rental_uris": {"ios": "https://dc.lft.to/lastmile_qr_scan", "android": "https://dc.lft.to/lastmile_qr_scan"}, "is_reserved": 0, "fusion_lon": 0.0, "fusion_lat": 0.0, "lon": -77.011542, "name": "99af59384e8c0f3c7a6a6ad70fa456a3"}, {"bike_id": "89c649a8c787626533504cdd1c069e48", "type": "electric_scooter", "is_disabled": 0, "lat": 38.84436616666667, "rental_uris": {"ios": "https://dc.lft.to/lastmile_qr_scan", "android": "https://dc.lft.to/lastmile_qr_scan"}, "is_reserved": 0, "fusion_lon": 0.0, "fusion_lat": 0.0, "lon": -76.9986795, "name": "89c649a8c787626533504cdd1c069e48"}, {"bike_id": "7a7b4990a09008cb2b1bbd7a26c3c955", "type": "electric_scooter", "is_disabled": 0, "lat": 38.9068855, "rental_uris": {"ios": "https://dc.lft.to/lastmile_qr_scan", "android": "https://dc.lft.to/lastmile_qr_scan"}, "is_reserved": 0, "fusion_lon": 0.0, "fusion_lat": 0.0, "lon": -77.04160166666666, "name": "7a7b4990a09008cb2b1bbd7a26c3c955"}, {"bike_id": "3fc4c4e44dba844e3fe943e647cfe7af", "type": "electric_scooter", "is_disabled": 0, "lat": 38.9340435, "rental_uris": {"ios": "https://dc.lft.to/lastmile_qr_scan", "android": "https://dc.lft.to/lastmile_qr_scan"}, "is_reserved": 0, "fusion_lon": 0.0, "fusion_lat": 0.0, "lon": -77.03523866666667, "name": "3fc4c4e44dba844e3fe943e647cfe7af"}, {"bike_id": "ae016b6ac085e94174e4211819e49981", "type": "electric_scooter", "is_disabled": 0, "lat": 38.908345, "rental_uris": {"ios": "https://dc.lft.to/lastmile_qr_scan", "android": "https://dc.lft.to/lastmile_qr_scan"}, "is_reserved": 0, "fusion_lon": 0.0, "fusion_lat": 0.0, "lon": -77.01971433333334, "name": "ae016b6ac085e94174e4211819e49981"}, {"bike_id": "32ee5f6ddffa02f818d8e0028b6c4afe", "type": "electric_scooter", "is_disabled": 0, "lat": 38.917262666666666, "rental_uris": {"ios": "https://dc.lft.to/lastmile_qr_scan", "android": "https://dc.lft.to/lastmile_qr_scan"}, "is_reserved": 0, "fusion_lon": 0.0, "fusion_lat": 0.0, "lon": -77.0366485, "name": "32ee5f6ddffa02f818d8e0028b6c4afe"}, {"bike_id": "14a20bcdca119445400d690d59103af1", "type": "electric_scooter", "is_disabled": 0, "lat": 38.93850116666667, "rental_uris": {"ios": "https://dc.lft.to/lastmile_qr_scan", "android": "https://dc.lft.to/lastmile_qr_scan"}, "is_reserved": 0, "fusion_lon": 0.0, "fusion_lat": 0.0, "lon": -77.07231766666666, "name": "14a20bcdca119445400d690d59103af1"}, {"bike_id": "201cf2c7e75d87fc3ca099e1b1a02c14", "type": "electric_scooter", "is_disabled": 0, "lat": 38.909810666666665, "rental_uris": {"ios": "https://dc.lft.to/lastmile_qr_scan", "android": "https://dc.lft.to/lastmile_qr_scan"}, "is_reserved": 0, "fusion_lon": 0.0, "fusion_lat": 0.0, "lon": -77.01510683333333, "name": "201cf2c7e75d87fc3ca099e1b1a02c14"}, {"bike_id": "85fa9355343acfb2d82f0555a1c26eee", "type": "electric_scooter", "is_disabled": 0, "lat": 38.924885833333335, "rental_uris": {"ios": "https://dc.lft.to/lastmile_qr_scan", "android": "https://dc.lft.to/lastmile_qr_scan"}, "is_reserved": 0, "fusion_lon": 0.0, "fusion_lat": 0.0, "lon": -77.05213783333333, "name": "85fa9355343acfb2d82f0555a1c26eee"}, {"bike_id": "f93fc8cbf5f9df98af7b6dd55aaefe6f", "type": "electric_scooter", "is_disabled": 0, "lat": 38.90597833333333, "rental_uris": {"ios": "https://dc.lft.to/lastmile_qr_scan", "android": "https://dc.lft.to/lastmile_qr_scan"}, "is_reserved": 0, "fusion_lon": 0.0, "fusion_lat": 0.0, "lon": -77.07355066666666, "name": "f93fc8cbf5f9df98af7b6dd55aaefe6f"}, {"bike_id": "add2232d6136260873b7177d44cf9c0a", "type": "electric_scooter", "is_disabled": 0, "lat": 38.92207116666667, "rental_uris": {"ios": "https://dc.lft.to/lastmile_qr_scan", "android": "https://dc.lft.to/lastmile_qr_scan"}, "is_reserved": 0, "fusion_lon": 0.0, "fusion_lat": 0.0, "lon": -77.036557, "name": "add2232d6136260873b7177d44cf9c0a"}, {"bike_id": "0ee4fff324c1fba09e0a07f509e842e2", "type": "electric_scooter", "is_disabled": 0, "lat": 38.924743666666664, "rental_uris": {"ios": "https://dc.lft.to/lastmile_qr_scan", "android": "https://dc.lft.to/lastmile_qr_scan"}, "is_reserved": 0, "fusion_lon": 0.0, "fusion_lat": 0.0, "lon": -77.0283775, "name": "0ee4fff324c1fba09e0a07f509e842e2"}, {"bike_id": "f174ac66cd906b7e53cc51823631c00c", "type": "electric_scooter", "is_disabled": 0, "lat": 38.91071866666667, "rental_uris": {"ios": "https://dc.lft.to/lastmile_qr_scan", "android": "https://dc.lft.to/lastmile_qr_scan"}, "is_reserved": 0, "fusion_lon": 0.0, "fusion_lat": 0.0, "lon": -77.027217, "name": "f174ac66cd906b7e53cc51823631c00c"}, {"bike_id": "ad81d01bb337a43cbf0cfa754c9d97f3", "type": "electric_scooter", "is_disabled": 0, "lat": 38.863731, "rental_uris": {"ios": "https://dc.lft.to/lastmile_qr_scan", "android": "https://dc.lft.to/lastmile_qr_scan"}, "is_reserved": 0, "fusion_lon": 0.0, "fusion_lat": 0.0, "lon": -76.99059116666666, "name": "ad81d01bb337a43cbf0cfa754c9d97f3"}, {"bike_id": "64fed16bdf86972e33f3068e80dbd8c0", "type": "electric_scooter", "is_disabled": 0, "lat": 38.9049215, "rental_uris": {"ios": "https://dc.lft.to/lastmile_qr_scan", "android": "https://dc.lft.to/lastmile_qr_scan"}, "is_reserved": 0, "fusion_lon": 0.0, "fusion_lat": 0.0, "lon": -76.949613, "name": "64fed16bdf86972e33f3068e80dbd8c0"}, {"bike_id": "eb117c37b513ed7773e860d04184f8a0", "type": "electric_scooter", "is_disabled": 0, "lat": 38.8668655, "rental_uris": {"ios": "https://dc.lft.to/lastmile_qr_scan", "android": "https://dc.lft.to/lastmile_qr_scan"}, "is_reserved": 0, "fusion_lon": 0.0, "fusion_lat": 0.0, "lon": -76.98555983333333, "name": "eb117c37b513ed7773e860d04184f8a0"}, {"bike_id": "0e121519161b467538b0b802dca85e2e", "type": "electric_scooter", "is_disabled": 0, "lat": 38.910262, "rental_uris": {"ios": "https://dc.lft.to/lastmile_qr_scan", "android": "https://dc.lft.to/lastmile_qr_scan"}, "is_reserved": 0, "fusion_lon": 0.0, "fusion_lat": 0.0, "lon": -77.04350783333334, "name": "0e121519161b467538b0b802dca85e2e"}, {"bike_id": "c9c91f3563875a559d4a5244651b3335", "type": "electric_scooter", "is_disabled": 0, "lat": 38.92336433333333, "rental_uris": {"ios": "https://dc.lft.to/lastmile_qr_scan", "android": "https://dc.lft.to/lastmile_qr_scan"}, "is_reserved": 0, "fusion_lon": 0.0, "fusion_lat": 0.0, "lon": -77.03615483333333, "name": "c9c91f3563875a559d4a5244651b3335"}, {"bike_id": "466d0bd02ec629c170899f536d695aca", "type": "electric_scooter", "is_disabled": 0, "lat": 38.902486333333336, "rental_uris": {"ios": "https://dc.lft.to/lastmile_qr_scan", "android": "https://dc.lft.to/lastmile_qr_scan"}, "is_reserved": 0, "fusion_lon": 0.0, "fusion_lat": 0.0, "lon": -77.01784766666667, "name": "466d0bd02ec629c170899f536d695aca"}, {"bike_id": "c19c35c446aff65f1950fadaa65e18d0", "type": "electric_scooter", "is_disabled": 0, "lat": 38.88437916666667, "rental_uris": {"ios": "https://dc.lft.to/lastmile_qr_scan", "android": "https://dc.lft.to/lastmile_qr_scan"}, "is_reserved": 0, "fusion_lon": 0.0, "fusion_lat": 0.0, "lon": -76.95747483333334, "name": "c19c35c446aff65f1950fadaa65e18d0"}, {"bike_id": "18efe842a1b04af99fa8d815514c5e24", "type": "electric_scooter", "is_disabled": 0, "lat": 38.917643, "rental_uris": {"ios": "https://dc.lft.to/lastmile_qr_scan", "android": "https://dc.lft.to/lastmile_qr_scan"}, "is_reserved": 0, "fusion_lon": 0.0, "fusion_lat": 0.0, "lon": -77.03185633333334, "name": "18efe842a1b04af99fa8d815514c5e24"}, {"bike_id": "16452a70dbfb27e94f1f4a45b658fe14", "type": "electric_scooter", "is_disabled": 0, "lat": 38.90282883333333, "rental_uris": {"ios": "https://dc.lft.to/lastmile_qr_scan", "android": "https://dc.lft.to/lastmile_qr_scan"}, "is_reserved": 0, "fusion_lon": 0.0, "fusion_lat": 0.0, "lon": -77.03661266666667, "name": "16452a70dbfb27e94f1f4a45b658fe14"}, {"bike_id": "29a14c4196ba8c357bfadc3f25af9f61", "type": "electric_scooter", "is_disabled": 0, "lat": 38.874703333333336, "rental_uris": {"ios": "https://dc.lft.to/lastmile_qr_scan", "android": "https://dc.lft.to/lastmile_qr_scan"}, "is_reserved": 0, "fusion_lon": 0.0, "fusion_lat": 0.0, "lon": -77.01069766666667, "name": "29a14c4196ba8c357bfadc3f25af9f61"}, {"bike_id": "8785098cf24d153ae3aaf89a2bc743cc", "type": "electric_scooter", "is_disabled": 0, "lat": 38.90513466666667, "rental_uris": {"ios": "https://dc.lft.to/lastmile_qr_scan", "android": "https://dc.lft.to/lastmile_qr_scan"}, "is_reserved": 0, "fusion_lon": 0.0, "fusion_lat": 0.0, "lon": -77.06244466666666, "name": "8785098cf24d153ae3aaf89a2bc743cc"}, {"bike_id": "944b8b792203f2c60e32a27737b17051", "type": "electric_scooter", "is_disabled": 0, "lat": 38.91822633333334, "rental_uris": {"ios": "https://dc.lft.to/lastmile_qr_scan", "android": "https://dc.lft.to/lastmile_qr_scan"}, "is_reserved": 0, "fusion_lon": 0.0, "fusion_lat": 0.0, "lon": -77.03166783333333, "name": "944b8b792203f2c60e32a27737b17051"}, {"bike_id": "cb2f4a97d24d761fcf19c1681e6002c4", "type": "electric_scooter", "is_disabled": 0, "lat": 38.887387833333335, "rental_uris": {"ios": "https://dc.lft.to/lastmile_qr_scan", "android": "https://dc.lft.to/lastmile_qr_scan"}, "is_reserved": 0, "fusion_lon": 0.0, "fusion_lat": 0.0, "lon": -77.01535016666666, "name": "cb2f4a97d24d761fcf19c1681e6002c4"}, {"bike_id": "26e21c6d0632a6014205ebe5c226300f", "type": "electric_scooter", "is_disabled": 0, "lat": 38.957337833333334, "rental_uris": {"ios": "https://dc.lft.to/lastmile_qr_scan", "android": "https://dc.lft.to/lastmile_qr_scan"}, "is_reserved": 0, "fusion_lon": 0.0, "fusion_lat": 0.0, "lon": -77.02420383333333, "name": "26e21c6d0632a6014205ebe5c226300f"}, {"bike_id": "9cedee0de59e3d642868a3a915db2ab4", "type": "electric_scooter", "is_disabled": 0, "lat": 38.9142755, "rental_uris": {"ios": "https://dc.lft.to/lastmile_qr_scan", "android": "https://dc.lft.to/lastmile_qr_scan"}, "is_reserved": 0, "fusion_lon": 0.0, "fusion_lat": 0.0, "lon": -77.022003, "name": "9cedee0de59e3d642868a3a915db2ab4"}, {"bike_id": "9616a4acf758aa6325e7bc62abcdda79", "type": "electric_scooter", "is_disabled": 0, "lat": 38.90248666666667, "rental_uris": {"ios": "https://dc.lft.to/lastmile_qr_scan", "android": "https://dc.lft.to/lastmile_qr_scan"}, "is_reserved": 0, "fusion_lon": 0.0, "fusion_lat": 0.0, "lon": -77.01782416666667, "name": "9616a4acf758aa6325e7bc62abcdda79"}, {"bike_id": "8e4928ed6e37a5dd6173dc6a8e4d44ee", "type": "electric_scooter", "is_disabled": 0, "lat": 38.928622, "rental_uris": {"ios": "https://dc.lft.to/lastmile_qr_scan", "android": "https://dc.lft.to/lastmile_qr_scan"}, "is_reserved": 0, "fusion_lon": 0.0, "fusion_lat": 0.0, "lon": -77.02306566666667, "name": "8e4928ed6e37a5dd6173dc6a8e4d44ee"}, {"bike_id": "db1b7c06ecda017b5400387c54bc7bda", "type": "electric_scooter", "is_disabled": 0, "lat": 38.937550333333334, "rental_uris": {"ios": "https://dc.lft.to/lastmile_qr_scan", "android": "https://dc.lft.to/lastmile_qr_scan"}, "is_reserved": 0, "fusion_lon": 0.0, "fusion_lat": 0.0, "lon": -77.02477816666666, "name": "db1b7c06ecda017b5400387c54bc7bda"}, {"bike_id": "350dcd5d2b4697da64cd6cd55bc41100", "type": "electric_scooter", "is_disabled": 0, "lat": 38.9194005, "rental_uris": {"ios": "https://dc.lft.to/lastmile_qr_scan", "android": "https://dc.lft.to/lastmile_qr_scan"}, "is_reserved": 0, "fusion_lon": 0.0, "fusion_lat": 0.0, "lon": -77.00233083333333, "name": "350dcd5d2b4697da64cd6cd55bc41100"}, {"bike_id": "ca4fd0bed07d4f1657872e0d489e46e5", "type": "electric_scooter", "is_disabled": 0, "lat": 38.9038205, "rental_uris": {"ios": "https://dc.lft.to/lastmile_qr_scan", "android": "https://dc.lft.to/lastmile_qr_scan"}, "is_reserved": 0, "fusion_lon": 0.0, "fusion_lat": 0.0, "lon": -76.982022, "name": "ca4fd0bed07d4f1657872e0d489e46e5"}, {"bike_id": "766778d49efcc9840da4c31f71e43961", "type": "electric_scooter", "is_disabled": 0, "lat": 38.91685066666667, "rental_uris": {"ios": "https://dc.lft.to/lastmile_qr_scan", "android": "https://dc.lft.to/lastmile_qr_scan"}, "is_reserved": 0, "fusion_lon": 0.0, "fusion_lat": 0.0, "lon": -77.02975733333334, "name": "766778d49efcc9840da4c31f71e43961"}, {"bike_id": "fcf61f092813fcb87b7aba9d6b5c6ea0", "type": "electric_scooter", "is_disabled": 0, "lat": 38.932372, "rental_uris": {"ios": "https://dc.lft.to/lastmile_qr_scan", "android": "https://dc.lft.to/lastmile_qr_scan"}, "is_reserved": 0, "fusion_lon": 0.0, "fusion_lat": 0.0, "lon": -77.03876816666667, "name": "fcf61f092813fcb87b7aba9d6b5c6ea0"}, {"bike_id": "1eb7d4d0fae99d285578167287c886e1", "type": "electric_scooter", "is_disabled": 0, "lat": 38.9365355, "rental_uris": {"ios": "https://dc.lft.to/lastmile_qr_scan", "android": "https://dc.lft.to/lastmile_qr_scan"}, "is_reserved": 0, "fusion_lon": 0.0, "fusion_lat": 0.0, "lon": -77.02639316666667, "name": "1eb7d4d0fae99d285578167287c886e1"}, {"bike_id": "dfdf003124d0722d7705a8f14b55e8f1", "type": "electric_bike", "is_disabled": 0, "lat": 38.83854133333333, "rental_uris": {"ios": "https://dc.lft.to/lastmile_qr_scan", "android": "https://dc.lft.to/lastmile_qr_scan"}, "is_reserved": 0, "fusion_lon": 0.0, "fusion_lat": 0.0, "lon": -77.05006516666667, "name": "dfdf003124d0722d7705a8f14b55e8f1"}, {"bike_id": "6a9e3d915ae2812a447470d067f542f5", "type": "electric_scooter", "is_disabled": 0, "lat": 38.927687166666665, "rental_uris": {"ios": "https://dc.lft.to/lastmile_qr_scan", "android": "https://dc.lft.to/lastmile_qr_scan"}, "is_reserved": 0, "fusion_lon": 0.0, "fusion_lat": 0.0, "lon": -77.0564895, "name": "6a9e3d915ae2812a447470d067f542f5"}, {"bike_id": "7e34a1c9ea23800361f43d0433da6d6b", "type": "electric_scooter", "is_disabled": 0, "lat": 38.911046166666665, "rental_uris": {"ios": "https://dc.lft.to/lastmile_qr_scan", "android": "https://dc.lft.to/lastmile_qr_scan"}, "is_reserved": 0, "fusion_lon": 0.0, "fusion_lat": 0.0, "lon": -77.00214816666667, "name": "7e34a1c9ea23800361f43d0433da6d6b"}, {"bike_id": "f84df30d89cf058b35b281f1949831fc", "type": "electric_scooter", "is_disabled": 0, "lat": 38.909802, "rental_uris": {"ios": "https://dc.lft.to/lastmile_qr_scan", "android": "https://dc.lft.to/lastmile_qr_scan"}, "is_reserved": 0, "fusion_lon": 0.0, "fusion_lat": 0.0, "lon": -77.0280615, "name": "f84df30d89cf058b35b281f1949831fc"}, {"bike_id": "95000f51f23f52498f0802efa99e5f2a", "type": "electric_scooter", "is_disabled": 0, "lat": 38.880531166666664, "rental_uris": {"ios": "https://dc.lft.to/lastmile_qr_scan", "android": "https://dc.lft.to/lastmile_qr_scan"}, "is_reserved": 0, "fusion_lon": 0.0, "fusion_lat": 0.0, "lon": -76.93216583333333, "name": "95000f51f23f52498f0802efa99e5f2a"}, {"bike_id": "30835bb288c23ecb3afaef88fabb7039", "type": "electric_scooter", "is_disabled": 0, "lat": 38.82918216666667, "rental_uris": {"ios": "https://dc.lft.to/lastmile_qr_scan", "android": "https://dc.lft.to/lastmile_qr_scan"}, "is_reserved": 0, "fusion_lon": 0.0, "fusion_lat": 0.0, "lon": -77.0013495, "name": "30835bb288c23ecb3afaef88fabb7039"}, {"bike_id": "ca77cf82a4d5bec5176b11c895bb5ef0", "type": "electric_scooter", "is_disabled": 0, "lat": 38.90073183333333, "rental_uris": {"ios": "https://dc.lft.to/lastmile_qr_scan", "android": "https://dc.lft.to/lastmile_qr_scan"}, "is_reserved": 0, "fusion_lon": 0.0, "fusion_lat": 0.0, "lon": -77.05309916666667, "name": "ca77cf82a4d5bec5176b11c895bb5ef0"}, {"bike_id": "1592b24a1c28cff5fee611967b43f974", "type": "electric_scooter", "is_disabled": 0, "lat": 38.9267545, "rental_uris": {"ios": "https://dc.lft.to/lastmile_qr_scan", "android": "https://dc.lft.to/lastmile_qr_scan"}, "is_reserved": 0, "fusion_lon": 0.0, "fusion_lat": 0.0, "lon": -76.99540283333333, "name": "1592b24a1c28cff5fee611967b43f974"}, {"bike_id": "c20526898e74c684081e5e1fd66acf7a", "type": "electric_scooter", "is_disabled": 0, "lat": 38.901202833333336, "rental_uris": {"ios": "https://dc.lft.to/lastmile_qr_scan", "android": "https://dc.lft.to/lastmile_qr_scan"}, "is_reserved": 0, "fusion_lon": 0.0, "fusion_lat": 0.0, "lon": -77.03886816666666, "name": "c20526898e74c684081e5e1fd66acf7a"}, {"bike_id": "a265fd84e730ee2e457fbb7c2e360a34", "type": "electric_scooter", "is_disabled": 0, "lat": 38.931765166666665, "rental_uris": {"ios": "https://dc.lft.to/lastmile_qr_scan", "android": "https://dc.lft.to/lastmile_qr_scan"}, "is_reserved": 0, "fusion_lon": 0.0, "fusion_lat": 0.0, "lon": -77.028485, "name": "a265fd84e730ee2e457fbb7c2e360a34"}, {"bike_id": "a30566af58dd982580aea74d05e67146", "type": "electric_scooter", "is_disabled": 0, "lat": 38.923921, "rental_uris": {"ios": "https://dc.lft.to/lastmile_qr_scan", "android": "https://dc.lft.to/lastmile_qr_scan"}, "is_reserved": 0, "fusion_lon": 0.0, "fusion_lat": 0.0, "lon": -77.0308865, "name": "a30566af58dd982580aea74d05e67146"}, {"bike_id": "cc5749449e93878894558f7caeedc9e1", "type": "electric_scooter", "is_disabled": 0, "lat": 38.95604866666667, "rental_uris": {"ios": "https://dc.lft.to/lastmile_qr_scan", "android": "https://dc.lft.to/lastmile_qr_scan"}, "is_reserved": 0, "fusion_lon": 0.0, "fusion_lat": 0.0, "lon": -77.000959, "name": "cc5749449e93878894558f7caeedc9e1"}, {"bike_id": "eb4ecffa4cf4a72f70962127fe56a2e4", "type": "electric_scooter", "is_disabled": 0, "lat": 38.91599, "rental_uris": {"ios": "https://dc.lft.to/lastmile_qr_scan", "android": "https://dc.lft.to/lastmile_qr_scan"}, "is_reserved": 0, "fusion_lon": 0.0, "fusion_lat": 0.0, "lon": -77.0019675, "name": "eb4ecffa4cf4a72f70962127fe56a2e4"}, {"bike_id": "1d3e7ea287fb8ea868c8f98d480b66a6", "type": "electric_scooter", "is_disabled": 0, "lat": 38.922861, "rental_uris": {"ios": "https://dc.lft.to/lastmile_qr_scan", "android": "https://dc.lft.to/lastmile_qr_scan"}, "is_reserved": 0, "fusion_lon": 0.0, "fusion_lat": 0.0, "lon": -77.0447765, "name": "1d3e7ea287fb8ea868c8f98d480b66a6"}, {"bike_id": "d8041cf2724c13ab5c8a1aaf571027ad", "type": "electric_scooter", "is_disabled": 0, "lat": 38.866305833333335, "rental_uris": {"ios": "https://dc.lft.to/lastmile_qr_scan", "android": "https://dc.lft.to/lastmile_qr_scan"}, "is_reserved": 0, "fusion_lon": 0.0, "fusion_lat": 0.0, "lon": -76.98712766666667, "name": "d8041cf2724c13ab5c8a1aaf571027ad"}, {"bike_id": "8fd81f50f617778d6751d8eca054d2b6", "type": "electric_scooter", "is_disabled": 0, "lat": 38.887773833333334, "rental_uris": {"ios": "https://dc.lft.to/lastmile_qr_scan", "android": "https://dc.lft.to/lastmile_qr_scan"}, "is_reserved": 0, "fusion_lon": 0.0, "fusion_lat": 0.0, "lon": -76.95526883333334, "name": "8fd81f50f617778d6751d8eca054d2b6"}, {"bike_id": "e47ed87c0c1e767b56420f4cde3681cf", "type": "electric_scooter", "is_disabled": 0, "lat": 38.922455666666664, "rental_uris": {"ios": "https://dc.lft.to/lastmile_qr_scan", "android": "https://dc.lft.to/lastmile_qr_scan"}, "is_reserved": 0, "fusion_lon": 0.0, "fusion_lat": 0.0, "lon": -77.03134466666667, "name": "e47ed87c0c1e767b56420f4cde3681cf"}, {"bike_id": "df2957778640056ca3731a2b64bb81d3", "type": "electric_scooter", "is_disabled": 0, "lat": 38.920454666666664, "rental_uris": {"ios": "https://dc.lft.to/lastmile_qr_scan", "android": "https://dc.lft.to/lastmile_qr_scan"}, "is_reserved": 0, "fusion_lon": 0.0, "fusion_lat": 0.0, "lon": -77.04245716666667, "name": "df2957778640056ca3731a2b64bb81d3"}, {"bike_id": "3729b47e98a874cb8f240cd2484f796c", "type": "electric_scooter", "is_disabled": 0, "lat": 38.9084625, "rental_uris": {"ios": "https://dc.lft.to/lastmile_qr_scan", "android": "https://dc.lft.to/lastmile_qr_scan"}, "is_reserved": 0, "fusion_lon": 0.0, "fusion_lat": 0.0, "lon": -77.02230133333333, "name": "3729b47e98a874cb8f240cd2484f796c"}, {"bike_id": "9b660267dfceb31f32dc8aad220ccff8", "type": "electric_scooter", "is_disabled": 0, "lat": 38.90235716666667, "rental_uris": {"ios": "https://dc.lft.to/lastmile_qr_scan", "android": "https://dc.lft.to/lastmile_qr_scan"}, "is_reserved": 0, "fusion_lon": 0.0, "fusion_lat": 0.0, "lon": -77.03364416666666, "name": "9b660267dfceb31f32dc8aad220ccff8"}, {"bike_id": "ae9e731837ea30b5517ee98664e2a6f8", "type": "electric_scooter", "is_disabled": 0, "lat": 38.89663866666667, "rental_uris": {"ios": "https://dc.lft.to/lastmile_qr_scan", "android": "https://dc.lft.to/lastmile_qr_scan"}, "is_reserved": 0, "fusion_lon": 0.0, "fusion_lat": 0.0, "lon": -77.07113283333334, "name": "ae9e731837ea30b5517ee98664e2a6f8"}, {"bike_id": "c1fe3aa2d29468a6e232042a6a5d5824", "type": "electric_scooter", "is_disabled": 0, "lat": 38.907952, "rental_uris": {"ios": "https://dc.lft.to/lastmile_qr_scan", "android": "https://dc.lft.to/lastmile_qr_scan"}, "is_reserved": 0, "fusion_lon": 0.0, "fusion_lat": 0.0, "lon": -77.0481225, "name": "c1fe3aa2d29468a6e232042a6a5d5824"}, {"bike_id": "4eb165f69e85bf311a3c50855a1af72e", "type": "electric_scooter", "is_disabled": 0, "lat": 38.91803683333333, "rental_uris": {"ios": "https://dc.lft.to/lastmile_qr_scan", "android": "https://dc.lft.to/lastmile_qr_scan"}, "is_reserved": 0, "fusion_lon": 0.0, "fusion_lat": 0.0, "lon": -77.03435116666667, "name": "4eb165f69e85bf311a3c50855a1af72e"}, {"bike_id": "3b4e2286804e609ffa78204ad51f904c", "type": "electric_bike", "is_disabled": 0, "lat": 38.931647166666664, "rental_uris": {"ios": "https://dc.lft.to/lastmile_qr_scan", "android": "https://dc.lft.to/lastmile_qr_scan"}, "is_reserved": 0, "fusion_lon": 0.0, "fusion_lat": 0.0, "lon": -77.07845116666667, "name": "3b4e2286804e609ffa78204ad51f904c"}, {"bike_id": "21a038c3a28bd5d57f729ca6880cd7a2", "type": "electric_bike", "is_disabled": 0, "lat": 38.96959566666666, "rental_uris": {"ios": "https://dc.lft.to/lastmile_qr_scan", "android": "https://dc.lft.to/lastmile_qr_scan"}, "is_reserved": 0, "fusion_lon": 0.0, "fusion_lat": 0.0, "lon": -76.95749133333334, "name": "21a038c3a28bd5d57f729ca6880cd7a2"}, {"bike_id": "8a72a5cb9d102e768ec53a4b9acf3fc2", "type": "electric_scooter", "is_disabled": 0, "lat": 38.92480583333333, "rental_uris": {"ios": "https://dc.lft.to/lastmile_qr_scan", "android": "https://dc.lft.to/lastmile_qr_scan"}, "is_reserved": 0, "fusion_lon": 0.0, "fusion_lat": 0.0, "lon": -77.02833783333334, "name": "8a72a5cb9d102e768ec53a4b9acf3fc2"}, {"bike_id": "e634b23725513fc8bd23c827f9780ef1", "type": "electric_scooter", "is_disabled": 0, "lat": 38.90723883333333, "rental_uris": {"ios": "https://dc.lft.to/lastmile_qr_scan", "android": "https://dc.lft.to/lastmile_qr_scan"}, "is_reserved": 0, "fusion_lon": 0.0, "fusion_lat": 0.0, "lon": -77.043389, "name": "e634b23725513fc8bd23c827f9780ef1"}, {"bike_id": "5eaefedc949e63c731a86524cb5ee94d", "type": "electric_scooter", "is_disabled": 0, "lat": 38.907006333333335, "rental_uris": {"ios": "https://dc.lft.to/lastmile_qr_scan", "android": "https://dc.lft.to/lastmile_qr_scan"}, "is_reserved": 0, "fusion_lon": 0.0, "fusion_lat": 0.0, "lon": -76.98730416666666, "name": "5eaefedc949e63c731a86524cb5ee94d"}, {"bike_id": "2dae76e29c81da4559c38eae26b48e34", "type": "electric_scooter", "is_disabled": 0, "lat": 38.920568, "rental_uris": {"ios": "https://dc.lft.to/lastmile_qr_scan", "android": "https://dc.lft.to/lastmile_qr_scan"}, "is_reserved": 0, "fusion_lon": 0.0, "fusion_lat": 0.0, "lon": -76.99884833333333, "name": "2dae76e29c81da4559c38eae26b48e34"}, {"bike_id": "2ddffd23f33875364c347523c7cf3050", "type": "electric_scooter", "is_disabled": 0, "lat": 38.9236195, "rental_uris": {"ios": "https://dc.lft.to/lastmile_qr_scan", "android": "https://dc.lft.to/lastmile_qr_scan"}, "is_reserved": 0, "fusion_lon": 0.0, "fusion_lat": 0.0, "lon": -77.07643266666666, "name": "2ddffd23f33875364c347523c7cf3050"}, {"bike_id": "9cb9850755e91a0d7708b1b1e6c93a1c", "type": "electric_scooter", "is_disabled": 0, "lat": 38.91684133333333, "rental_uris": {"ios": "https://dc.lft.to/lastmile_qr_scan", "android": "https://dc.lft.to/lastmile_qr_scan"}, "is_reserved": 0, "fusion_lon": 0.0, "fusion_lat": 0.0, "lon": -77.02976133333334, "name": "9cb9850755e91a0d7708b1b1e6c93a1c"}, {"bike_id": "8f40a2e87948fd56bc66e091d80d7521", "type": "electric_scooter", "is_disabled": 0, "lat": 38.91978866666667, "rental_uris": {"ios": "https://dc.lft.to/lastmile_qr_scan", "android": "https://dc.lft.to/lastmile_qr_scan"}, "is_reserved": 0, "fusion_lon": 0.0, "fusion_lat": 0.0, "lon": -77.0396365, "name": "8f40a2e87948fd56bc66e091d80d7521"}, {"bike_id": "6b015caabd695afb56c68d3277747a04", "type": "electric_scooter", "is_disabled": 0, "lat": 38.914150666666664, "rental_uris": {"ios": "https://dc.lft.to/lastmile_qr_scan", "android": "https://dc.lft.to/lastmile_qr_scan"}, "is_reserved": 0, "fusion_lon": 0.0, "fusion_lat": 0.0, "lon": -77.03174616666666, "name": "6b015caabd695afb56c68d3277747a04"}, {"bike_id": "089c9cb4b5566801b0742c4a7373e670", "type": "electric_scooter", "is_disabled": 0, "lat": 38.92693233333333, "rental_uris": {"ios": "https://dc.lft.to/lastmile_qr_scan", "android": "https://dc.lft.to/lastmile_qr_scan"}, "is_reserved": 0, "fusion_lon": 0.0, "fusion_lat": 0.0, "lon": -77.02088833333333, "name": "089c9cb4b5566801b0742c4a7373e670"}, {"bike_id": "ecdbf4182f9c4159dad5e02ac224e11d", "type": "electric_scooter", "is_disabled": 0, "lat": 38.854711, "rental_uris": {"ios": "https://dc.lft.to/lastmile_qr_scan", "android": "https://dc.lft.to/lastmile_qr_scan"}, "is_reserved": 0, "fusion_lon": 0.0, "fusion_lat": 0.0, "lon": -76.97231483333333, "name": "ecdbf4182f9c4159dad5e02ac224e11d"}, {"bike_id": "38947bb3796e809cf8b80f96407b1468", "type": "electric_scooter", "is_disabled": 0, "lat": 38.92328116666667, "rental_uris": {"ios": "https://dc.lft.to/lastmile_qr_scan", "android": "https://dc.lft.to/lastmile_qr_scan"}, "is_reserved": 0, "fusion_lon": 0.0, "fusion_lat": 0.0, "lon": -77.0296755, "name": "38947bb3796e809cf8b80f96407b1468"}, {"bike_id": "b99cc411ca71d1b9d49d7717611ff1ba", "type": "electric_scooter", "is_disabled": 0, "lat": 38.921456666666664, "rental_uris": {"ios": "https://dc.lft.to/lastmile_qr_scan", "android": "https://dc.lft.to/lastmile_qr_scan"}, "is_reserved": 0, "fusion_lon": 0.0, "fusion_lat": 0.0, "lon": -77.0344495, "name": "b99cc411ca71d1b9d49d7717611ff1ba"}, {"bike_id": "dbb82be1587bc7e04a9f1e0f8f321438", "type": "electric_scooter", "is_disabled": 0, "lat": 38.88302016666667, "rental_uris": {"ios": "https://dc.lft.to/lastmile_qr_scan", "android": "https://dc.lft.to/lastmile_qr_scan"}, "is_reserved": 0, "fusion_lon": 0.0, "fusion_lat": 0.0, "lon": -76.94854266666667, "name": "dbb82be1587bc7e04a9f1e0f8f321438"}, {"bike_id": "ce376ad12b7a0d0b90faeedfe94e21f8", "type": "electric_scooter", "is_disabled": 0, "lat": 38.910434333333335, "rental_uris": {"ios": "https://dc.lft.to/lastmile_qr_scan", "android": "https://dc.lft.to/lastmile_qr_scan"}, "is_reserved": 0, "fusion_lon": 0.0, "fusion_lat": 0.0, "lon": -77.04352783333333, "name": "ce376ad12b7a0d0b90faeedfe94e21f8"}, {"bike_id": "ddf0e6ed376b00afefaef37aab7074b4", "type": "electric_bike", "is_disabled": 0, "lat": 38.95250733333334, "rental_uris": {"ios": "https://dc.lft.to/lastmile_qr_scan", "android": "https://dc.lft.to/lastmile_qr_scan"}, "is_reserved": 0, "fusion_lon": 0.0, "fusion_lat": 0.0, "lon": -76.97675116666667, "name": "ddf0e6ed376b00afefaef37aab7074b4"}, {"bike_id": "8047f5521abe43fbb41f2ae1a7ac96e9", "type": "electric_scooter", "is_disabled": 0, "lat": 38.923790833333335, "rental_uris": {"ios": "https://dc.lft.to/lastmile_qr_scan", "android": "https://dc.lft.to/lastmile_qr_scan"}, "is_reserved": 0, "fusion_lon": 0.0, "fusion_lat": 0.0, "lon": -77.05048083333334, "name": "8047f5521abe43fbb41f2ae1a7ac96e9"}, {"bike_id": "ff9ede45f170714c02f8f6874766e44c", "type": "electric_bike", "is_disabled": 0, "lat": 38.96325266666667, "rental_uris": {"ios": "https://dc.lft.to/lastmile_qr_scan", "android": "https://dc.lft.to/lastmile_qr_scan"}, "is_reserved": 0, "fusion_lon": 0.0, "fusion_lat": 0.0, "lon": -76.97362716666666, "name": "ff9ede45f170714c02f8f6874766e44c"}, {"bike_id": "4a72311430cbc360467f2f7c54444efb", "type": "electric_scooter", "is_disabled": 0, "lat": 38.90843016666667, "rental_uris": {"ios": "https://dc.lft.to/lastmile_qr_scan", "android": "https://dc.lft.to/lastmile_qr_scan"}, "is_reserved": 0, "fusion_lon": 0.0, "fusion_lat": 0.0, "lon": -77.04475316666667, "name": "4a72311430cbc360467f2f7c54444efb"}, {"bike_id": "2c33516bf89255d5279f35a983177740", "type": "electric_scooter", "is_disabled": 0, "lat": 38.9080755, "rental_uris": {"ios": "https://dc.lft.to/lastmile_qr_scan", "android": "https://dc.lft.to/lastmile_qr_scan"}, "is_reserved": 0, "fusion_lon": 0.0, "fusion_lat": 0.0, "lon": -77.084155, "name": "2c33516bf89255d5279f35a983177740"}, {"bike_id": "34b68ec88ec2c5e058924cb22b68ff80", "type": "electric_scooter", "is_disabled": 0, "lat": 38.871797666666666, "rental_uris": {"ios": "https://dc.lft.to/lastmile_qr_scan", "android": "https://dc.lft.to/lastmile_qr_scan"}, "is_reserved": 0, "fusion_lon": 0.0, "fusion_lat": 0.0, "lon": -77.00616233333334, "name": "34b68ec88ec2c5e058924cb22b68ff80"}, {"bike_id": "575e43e9773c57b8ca3d7b2bda425c5d", "type": "electric_scooter", "is_disabled": 0, "lat": 38.915379333333334, "rental_uris": {"ios": "https://dc.lft.to/lastmile_qr_scan", "android": "https://dc.lft.to/lastmile_qr_scan"}, "is_reserved": 0, "fusion_lon": 0.0, "fusion_lat": 0.0, "lon": -77.03862716666667, "name": "575e43e9773c57b8ca3d7b2bda425c5d"}, {"bike_id": "18a2dcffbcef2da1896887de34e4d205", "type": "electric_bike", "is_disabled": 0, "lat": 38.96281416666667, "rental_uris": {"ios": "https://dc.lft.to/lastmile_qr_scan", "android": "https://dc.lft.to/lastmile_qr_scan"}, "is_reserved": 0, "fusion_lon": 0.0, "fusion_lat": 0.0, "lon": -77.01105666666666, "name": "18a2dcffbcef2da1896887de34e4d205"}, {"bike_id": "e862e835bf178bf5bc7e0a15f06d470d", "type": "electric_scooter", "is_disabled": 0, "lat": 38.87424016666667, "rental_uris": {"ios": "https://dc.lft.to/lastmile_qr_scan", "android": "https://dc.lft.to/lastmile_qr_scan"}, "is_reserved": 0, "fusion_lon": 0.0, "fusion_lat": 0.0, "lon": -76.9690715, "name": "e862e835bf178bf5bc7e0a15f06d470d"}, {"bike_id": "c39b049b7c8bf3db7ff9571cb0071b27", "type": "electric_scooter", "is_disabled": 0, "lat": 38.924710833333336, "rental_uris": {"ios": "https://dc.lft.to/lastmile_qr_scan", "android": "https://dc.lft.to/lastmile_qr_scan"}, "is_reserved": 0, "fusion_lon": 0.0, "fusion_lat": 0.0, "lon": -77.022537, "name": "c39b049b7c8bf3db7ff9571cb0071b27"}, {"bike_id": "7b40d1ebd3024596d706bb29a37340c6", "type": "electric_scooter", "is_disabled": 0, "lat": 38.90788666666667, "rental_uris": {"ios": "https://dc.lft.to/lastmile_qr_scan", "android": "https://dc.lft.to/lastmile_qr_scan"}, "is_reserved": 0, "fusion_lon": 0.0, "fusion_lat": 0.0, "lon": -76.99424933333333, "name": "7b40d1ebd3024596d706bb29a37340c6"}, {"bike_id": "ff259b08f6cb659d28f393854195e519", "type": "electric_scooter", "is_disabled": 0, "lat": 38.86631933333334, "rental_uris": {"ios": "https://dc.lft.to/lastmile_qr_scan", "android": "https://dc.lft.to/lastmile_qr_scan"}, "is_reserved": 0, "fusion_lon": 0.0, "fusion_lat": 0.0, "lon": -76.98717666666667, "name": "ff259b08f6cb659d28f393854195e519"}, {"bike_id": "21f751582809dbc7d2bb9ded03f7782c", "type": "electric_scooter", "is_disabled": 0, "lat": 38.870714666666665, "rental_uris": {"ios": "https://dc.lft.to/lastmile_qr_scan", "android": "https://dc.lft.to/lastmile_qr_scan"}, "is_reserved": 0, "fusion_lon": 0.0, "fusion_lat": 0.0, "lon": -76.98126933333333, "name": "21f751582809dbc7d2bb9ded03f7782c"}, {"bike_id": "ff4fa10ffd28700358f0c23791f7bc50", "type": "electric_scooter", "is_disabled": 0, "lat": 38.93984066666667, "rental_uris": {"ios": "https://dc.lft.to/lastmile_qr_scan", "android": "https://dc.lft.to/lastmile_qr_scan"}, "is_reserved": 0, "fusion_lon": 0.0, "fusion_lat": 0.0, "lon": -77.0287305, "name": "ff4fa10ffd28700358f0c23791f7bc50"}, {"bike_id": "1a1f968dcfe2f2fe344641368c96fd33", "type": "electric_bike", "is_disabled": 0, "lat": 38.94366333333333, "rental_uris": {"ios": "https://dc.lft.to/lastmile_qr_scan", "android": "https://dc.lft.to/lastmile_qr_scan"}, "is_reserved": 0, "fusion_lon": 0.0, "fusion_lat": 0.0, "lon": -77.00355766666667, "name": "1a1f968dcfe2f2fe344641368c96fd33"}, {"bike_id": "b3241d05f3310b7fd17fe4db64c4eaa4", "type": "electric_scooter", "is_disabled": 0, "lat": 38.894898, "rental_uris": {"ios": "https://dc.lft.to/lastmile_qr_scan", "android": "https://dc.lft.to/lastmile_qr_scan"}, "is_reserved": 0, "fusion_lon": 0.0, "fusion_lat": 0.0, "lon": -76.98780466666666, "name": "b3241d05f3310b7fd17fe4db64c4eaa4"}, {"bike_id": "61f81f3642a94249692efd56d289b345", "type": "electric_scooter", "is_disabled": 0, "lat": 38.923308166666665, "rental_uris": {"ios": "https://dc.lft.to/lastmile_qr_scan", "android": "https://dc.lft.to/lastmile_qr_scan"}, "is_reserved": 0, "fusion_lon": 0.0, "fusion_lat": 0.0, "lon": -77.00050583333334, "name": "61f81f3642a94249692efd56d289b345"}, {"bike_id": "33ca6a29d5d92539f132c8caf89fd36b", "type": "electric_scooter", "is_disabled": 0, "lat": 38.8928845, "rental_uris": {"ios": "https://dc.lft.to/lastmile_qr_scan", "android": "https://dc.lft.to/lastmile_qr_scan"}, "is_reserved": 0, "fusion_lon": 0.0, "fusion_lat": 0.0, "lon": -77.02011783333333, "name": "33ca6a29d5d92539f132c8caf89fd36b"}, {"bike_id": "5389355cec88ac592f87f060fd3b964f", "type": "electric_bike", "is_disabled": 0, "lat": 38.8075345, "rental_uris": {"ios": "https://dc.lft.to/lastmile_qr_scan", "android": "https://dc.lft.to/lastmile_qr_scan"}, "is_reserved": 0, "fusion_lon": 0.0, "fusion_lat": 0.0, "lon": -77.09454116666667, "name": "5389355cec88ac592f87f060fd3b964f"}, {"bike_id": "00abb841f945a588aff66e28d09cec97", "type": "electric_scooter", "is_disabled": 0, "lat": 38.91732283333333, "rental_uris": {"ios": "https://dc.lft.to/lastmile_qr_scan", "android": "https://dc.lft.to/lastmile_qr_scan"}, "is_reserved": 0, "fusion_lon": 0.0, "fusion_lat": 0.0, "lon": -77.0082085, "name": "00abb841f945a588aff66e28d09cec97"}, {"bike_id": "749bf5f08a21c61b85cd2c155572fb79", "type": "electric_bike", "is_disabled": 0, "lat": 38.864817, "rental_uris": {"ios": "https://dc.lft.to/lastmile_qr_scan", "android": "https://dc.lft.to/lastmile_qr_scan"}, "is_reserved": 0, "fusion_lon": 0.0, "fusion_lat": 0.0, "lon": -76.97742716666667, "name": "749bf5f08a21c61b85cd2c155572fb79"}, {"bike_id": "21ad341bcdbf923c20e1319ecbcb61f0", "type": "electric_scooter", "is_disabled": 0, "lat": 38.93898983333333, "rental_uris": {"ios": "https://dc.lft.to/lastmile_qr_scan", "android": "https://dc.lft.to/lastmile_qr_scan"}, "is_reserved": 0, "fusion_lon": 0.0, "fusion_lat": 0.0, "lon": -77.03342633333334, "name": "21ad341bcdbf923c20e1319ecbcb61f0"}, {"bike_id": "915fd83fd7267969cf28266ea36b3bee", "type": "electric_scooter", "is_disabled": 0, "lat": 38.91413416666666, "rental_uris": {"ios": "https://dc.lft.to/lastmile_qr_scan", "android": "https://dc.lft.to/lastmile_qr_scan"}, "is_reserved": 0, "fusion_lon": 0.0, "fusion_lat": 0.0, "lon": -77.039599, "name": "915fd83fd7267969cf28266ea36b3bee"},