{"data": {"bikes": [{"is_reserved": 0, "type": "electric_scooter", "fusion_lat": 0.0, "is_disabled": 0, "rental_uris": {"ios": "https://dc.lft.to/lastmile_qr_scan", "android": "https://dc.lft.to/lastmile_qr_scan"}, "bike_id": "50dd1132e601b82ed7d98176819c0e85", "lat": 38.91912133333334, "name": "50dd1132e601b82ed7d98176819c0e85", "lon": -77.01165766666666, "fusion_lon": 0.0}, {"is_reserved": 0, "type": "electric_scooter", "fusion_lat": 0.0, "is_disabled": 0, "rental_uris": {"ios": "https://dc.lft.to/lastmile_qr_scan", "android": "https://dc.lft.to/lastmile_qr_scan"}, "bike_id": "0a9a14c1159095f2e6bd3578c7b330bf", "lat": 38.89870416666667, "name": "0a9a14c1159095f2e6bd3578c7b330bf", "lon": -77.04651466666667, "fusion_lon": 0.0}, {"is_reserved": 0, "type": "electric_scooter", "fusion_lat": 0.0, "is_disabled": 0, "rental_uris": {"ios": "https://dc.lft.to/lastmile_qr_scan", "android": "https://dc.lft.to/lastmile_qr_scan"}, "bike_id": "26a77cfda520ad501ff31fbd26ec500c", "lat": 38.894301, "name": "26a77cfda520ad501ff31fbd26ec500c", "lon": -77.0447305, "fusion_lon": 0.0}, {"is_reserved": 0, "type": "electric_scooter", "fusion_lat": 0.0, "is_disabled": 0, "rental_uris": {"ios": "https://dc.lft.to/lastmile_qr_scan", "android": "https://dc.lft.to/lastmile_qr_scan"}, "bike_id": "f89fcc82b18ce5dcf35fc35141e6e302", "lat": 38.8767045, "name": "f89fcc82b18ce5dcf35fc35141e6e302", "lon": -77.00332966666667, "fusion_lon": 0.0}, {"is_reserved": 0, "type": "electric_scooter", "fusion_lat": 0.0, "is_disabled": 0, "rental_uris": {"ios": "https://dc.lft.to/lastmile_qr_scan", "android": "https://dc.lft.to/lastmile_qr_scan"}, "bike_id": "67e24b18731d187e4bcb3486cd2f3749", "lat": 38.927935166666664, "name": "67e24b18731d187e4bcb3486cd2f3749", "lon": -77.03154833333333, "fusion_lon": 0.0}, {"is_reserved": 0, "type": "electric_scooter", "fusion_lat": 0.0, "is_disabled": 0, "rental_uris": {"ios": "https://dc.lft.to/lastmile_qr_scan", "android": "https://dc.lft.to/lastmile_qr_scan"}, "bike_id": "ac83314a0587fc05bb8d52aec5c348f8", "lat": 38.93192283333333, "name": "ac83314a0587fc05bb8d52aec5c348f8", "lon": -77.01987383333334, "fusion_lon": 0.0}, {"is_reserved": 0, "type": "electric_scooter", "fusion_lat": 0.0, "is_disabled": 0, "rental_uris": {"ios": "https://dc.lft.to/lastmile_qr_scan", "android": "https://dc.lft.to/lastmile_qr_scan"}, "bike_id": "c71a1083b7003736140bfc029df93c24", "lat": 38.88173616666667, "name": "c71a1083b7003736140bfc029df93c24", "lon": -77.01763833333334, "fusion_lon": 0.0}, {"is_reserved": 0, "type": "electric_scooter", "fusion_lat": 0.0, "is_disabled": 0, "rental_uris": {"ios": "https://dc.lft.to/lastmile_qr_scan", "android": "https://dc.lft.to/lastmile_qr_scan"}, "bike_id": "13caaeeebc0be6945a67edd30fc8fc62", "lat": 38.8860765, "name": "13caaeeebc0be6945a67edd30fc8fc62", "lon": -77.00336516666667, "fusion_lon": 0.0}, {"is_reserved": 0, "type": "electric_scooter", "fusion_lat": 0.0, "is_disabled": 0, "rental_uris": {"ios": "https://dc.lft.to/lastmile_qr_scan", "android": "https://dc.lft.to/lastmile_qr_scan"}, "bike_id": "c729c03c577034226f2c9cb21a74eff4", "lat": 38.9105215, "name": "c729c03c577034226f2c9cb21a74eff4", "lon": -77.04345883333333, "fusion_lon": 0.0}, {"is_reserved": 0, "type": "electric_bike", "fusion_lat": 0.0, "is_disabled": 0, "rental_uris": {"ios": "https://dc.lft.to/lastmile_qr_scan", "android": "https://dc.lft.to/lastmile_qr_scan"}, "bike_id": "4f7a1ed00f359a19f548e8d564d1ef1f", "lat": 38.91903083333333, "name": "4f7a1ed00f359a19f548e8d564d1ef1f", "lon": -77.00067866666667, "fusion_lon": 0.0}, {"is_reserved": 0, "type": "electric_scooter", "fusion_lat": 0.0, "is_disabled": 0, "rental_uris": {"ios": "https://dc.lft.to/lastmile_qr_scan", "android": "https://dc.lft.to/lastmile_qr_scan"}, "bike_id": "0a593478b1f9330177a866aa3befa78c", "lat": 38.9273015, "name": "0a593478b1f9330177a866aa3befa78c", "lon": -77.02070366666666, "fusion_lon": 0.0}, {"is_reserved": 0, "type": "electric_scooter", "fusion_lat": 0.0, "is_disabled": 0, "rental_uris": {"ios": "https://dc.lft.to/lastmile_qr_scan", "android": "https://dc.lft.to/lastmile_qr_scan"}, "bike_id": "867009140cf3ddcb6c4a2151957c1be2", "lat": 38.91675683333333, "name": "867009140cf3ddcb6c4a2151957c1be2", "lon": -77.04155283333333, "fusion_lon": 0.0}, {"is_reserved": 0, "type": "electric_scooter", "fusion_lat": 0.0, "is_disabled": 0, "rental_uris": {"ios": "https://dc.lft.to/lastmile_qr_scan", "android": "https://dc.lft.to/lastmile_qr_scan"}, "bike_id": "1c3e91abc7661375766d50881184976f", "lat": 38.942728, "name": "1c3e91abc7661375766d50881184976f", "lon": -77.02933083333333, "fusion_lon": 0.0}, {"is_reserved": 0, "type": "electric_scooter", "fusion_lat": 0.0, "is_disabled": 0, "rental_uris": {"ios": "https://dc.lft.to/lastmile_qr_scan", "android": "https://dc.lft.to/lastmile_qr_scan"}, "bike_id": "9c22dc2ad03df8b4e28b051ade07d0a0", "lat": 38.9263955, "name": "9c22dc2ad03df8b4e28b051ade07d0a0", "lon": -77.03852833333333, "fusion_lon": 0.0}, {"is_reserved": 0, "type": "electric_scooter", "fusion_lat": 0.0, "is_disabled": 0, "rental_uris": {"ios": "https://dc.lft.to/lastmile_qr_scan", "android": "https://dc.lft.to/lastmile_qr_scan"}, "bike_id": "6992e387b246fa2b8855316944e75cb7", "lat": 38.9420315, "name": "6992e387b246fa2b8855316944e75cb7", "lon": -77.01332066666667, "fusion_lon": 0.0}, {"is_reserved": 0, "type": "electric_scooter", "fusion_lat": 0.0, "is_disabled": 0, "rental_uris": {"ios": "https://dc.lft.to/lastmile_qr_scan", "android": "https://dc.lft.to/lastmile_qr_scan"}, "bike_id": "939456f3acd7560278226abacd32f2fa", "lat": 38.89855083333333, "name": "939456f3acd7560278226abacd32f2fa", "lon": -77.039694, "fusion_lon": 0.0}, {"is_reserved": 0, "type": "electric_scooter", "fusion_lat": 0.0, "is_disabled": 0, "rental_uris": {"ios": "https://dc.lft.to/lastmile_qr_scan", "android": "https://dc.lft.to/lastmile_qr_scan"}, "bike_id": "959011141beab2662d62641b7330b0f9", "lat": 38.904099333333335, "name": "959011141beab2662d62641b7330b0f9", "lon": -76.97331883333334, "fusion_lon": 0.0}, {"is_reserved": 0, "type": "electric_scooter", "fusion_lat": 0.0, "is_disabled": 0, "rental_uris": {"ios": "https://dc.lft.to/lastmile_qr_scan", "android": "https://dc.lft.to/lastmile_qr_scan"}, "bike_id": "7dd97243ac98f727d853a44fa235e5ca", "lat": 38.94643033333333, "name": "7dd97243ac98f727d853a44fa235e5ca", "lon": -77.017428, "fusion_lon": 0.0}, {"is_reserved": 0, "type": "electric_scooter", "fusion_lat": 0.0, "is_disabled": 0, "rental_uris": {"ios": "https://dc.lft.to/lastmile_qr_scan", "android": "https://dc.lft.to/lastmile_qr_scan"}, "bike_id": "84809d28983bc6bd17b71d80da68917d", "lat": 38.905317833333335, "name": "84809d28983bc6bd17b71d80da68917d", "lon": -77.05811, "fusion_lon": 0.0}, {"is_reserved": 0, "type": "electric_scooter", "fusion_lat": 0.0, "is_disabled": 0, "rental_uris": {"ios": "https://dc.lft.to/lastmile_qr_scan", "android": "https://dc.lft.to/lastmile_qr_scan"}, "bike_id": "fd086bfd0ad313046417cd1359caeffc", "lat": 38.90606866666667, "name": "fd086bfd0ad313046417cd1359caeffc", "lon": -77.06664416666666, "fusion_lon": 0.0}, {"is_reserved": 0, "type": "electric_scooter", "fusion_lat": 0.0, "is_disabled": 0, "rental_uris": {"ios": "https://dc.lft.to/lastmile_qr_scan", "android": "https://dc.lft.to/lastmile_qr_scan"}, "bike_id": "629b8d364844fa67f989114f986d8b26", "lat": 38.89220916666667, "name": "629b8d364844fa67f989114f986d8b26", "lon": -77.04367683333334, "fusion_lon": 0.0}, {"is_reserved": 0, "type": "electric_scooter", "fusion_lat": 0.0, "is_disabled": 0, "rental_uris": {"ios": "https://dc.lft.to/lastmile_qr_scan", "android": "https://dc.lft.to/lastmile_qr_scan"}, "bike_id": "f77f5b264f5ce23e4c6304dccdf8e17b", "lat": 38.9223255, "name": "f77f5b264f5ce23e4c6304dccdf8e17b", "lon": -76.97531683333334, "fusion_lon": 0.0}, {"is_reserved": 0, "type": "electric_scooter", "fusion_lat": 0.0, "is_disabled": 0, "rental_uris": {"ios": "https://dc.lft.to/lastmile_qr_scan", "android": "https://dc.lft.to/lastmile_qr_scan"}, "bike_id": "69252174133241eb01ee77d5f9ca0c67", "lat": 38.9339505, "name": "69252174133241eb01ee77d5f9ca0c67", "lon": -77.0738295, "fusion_lon": 0.0}, {"is_reserved": 0, "type": "electric_scooter", "fusion_lat": 0.0, "is_disabled": 0, "rental_uris": {"ios": "https://dc.lft.to/lastmile_qr_scan", "android": "https://dc.lft.to/lastmile_qr_scan"}, "bike_id": "a2e5f71092d4922c1ae704106bf0d4e6", "lat": 38.90677766666667, "name": "a2e5f71092d4922c1ae704106bf0d4e6", "lon": -77.04874166666667, "fusion_lon": 0.0}, {"is_reserved": 0, "type": "electric_scooter", "fusion_lat": 0.0, "is_disabled": 0, "rental_uris": {"ios": "https://dc.lft.to/lastmile_qr_scan", "android": "https://dc.lft.to/lastmile_qr_scan"}, "bike_id": "f8ccaa293c58fda794a5ce7c8b7cff65", "lat": 38.9266685, "name": "f8ccaa293c58fda794a5ce7c8b7cff65", "lon": -77.02714983333334, "fusion_lon": 0.0}, {"is_reserved": 0, "type": "electric_scooter", "fusion_lat": 0.0, "is_disabled": 0, "rental_uris": {"ios": "https://dc.lft.to/lastmile_qr_scan", "android": "https://dc.lft.to/lastmile_qr_scan"}, "bike_id": "8b9fab07ca2554af588396a439580cd4", "lat": 38.90084816666667, "name": "8b9fab07ca2554af588396a439580cd4", "lon": -77.0435585, "fusion_lon": 0.0}, {"is_reserved": 0, "type": "electric_scooter", "fusion_lat": 0.0, "is_disabled": 0, "rental_uris": {"ios": "https://dc.lft.to/lastmile_qr_scan", "android": "https://dc.lft.to/lastmile_qr_scan"}, "bike_id": "dad693e864aed3a7cccb0511eb6dfdf5", "lat": 38.92062683333333, "name": "dad693e864aed3a7cccb0511eb6dfdf5", "lon": -77.03471566666667, "fusion_lon": 0.0}, {"is_reserved": 0, "type": "electric_scooter", "fusion_lat": 0.0, "is_disabled": 0, "rental_uris": {"ios": "https://dc.lft.to/lastmile_qr_scan", "android": "https://dc.lft.to/lastmile_qr_scan"}, "bike_id": "8e9759f7644faec822daf5b771c4785a", "lat": 38.92468866666667, "name": "8e9759f7644faec822daf5b771c4785a", "lon": -77.02221116666666, "fusion_lon": 0.0}, {"is_reserved": 0, "type": "electric_scooter", "fusion_lat": 0.0, "is_disabled": 0, "rental_uris": {"ios": "https://dc.lft.to/lastmile_qr_scan", "android": "https://dc.lft.to/lastmile_qr_scan"}, "bike_id": "32c11f3bc736ca4dd78fcce8a1dea4c3", "lat": 38.93863233333333, "name": "32c11f3bc736ca4dd78fcce8a1dea4c3", "lon": -77.07821983333334, "fusion_lon": 0.0}, {"is_reserved": 0, "type": "electric_scooter", "fusion_lat": 0.0, "is_disabled": 0, "rental_uris": {"ios": "https://dc.lft.to/lastmile_qr_scan", "android": "https://dc.lft.to/lastmile_qr_scan"}, "bike_id": "7e59a2ec5ab0e8119057ba7b8a4daf1e", "lat": 38.901240666666666, "name": "7e59a2ec5ab0e8119057ba7b8a4daf1e", "lon": -77.051502, "fusion_lon": 0.0}, {"is_reserved": 0, "type": "electric_scooter", "fusion_lat": 0.0, "is_disabled": 0, "rental_uris": {"ios": "https://dc.lft.to/lastmile_qr_scan", "android": "https://dc.lft.to/lastmile_qr_scan"}, "bike_id": "abf50450f36c2cf15b540c947cf943b4", "lat": 38.924187833333335, "name": "abf50450f36c2cf15b540c947cf943b4", "lon": -77.01952, "fusion_lon": 0.0}, {"is_reserved": 0, "type": "electric_scooter", "fusion_lat": 0.0, "is_disabled": 0, "rental_uris": {"ios": "https://dc.lft.to/lastmile_qr_scan", "android": "https://dc.lft.to/lastmile_qr_scan"}, "bike_id": "1dc96073ae0f6ab09db29626180fefb7", "lat": 38.931628333333336, "name": "1dc96073ae0f6ab09db29626180fefb7", "lon": -77.05611166666667, "fusion_lon": 0.0}, {"is_reserved": 0, "type": "electric_scooter", "fusion_lat": 0.0, "is_disabled": 0, "rental_uris": {"ios": "https://dc.lft.to/lastmile_qr_scan", "android": "https://dc.lft.to/lastmile_qr_scan"}, "bike_id": "ac9ac10271add494871891524edaf956", "lat": 38.909464166666666, "name": "ac9ac10271add494871891524edaf956", "lon": -76.9359445, "fusion_lon": 0.0}, {"is_reserved": 0, "type": "electric_scooter", "fusion_lat": 0.0, "is_disabled": 0, "rental_uris": {"ios": "https://dc.lft.to/lastmile_qr_scan", "android": "https://dc.lft.to/lastmile_qr_scan"}, "bike_id": "9b4b9f1ecc4477ea0fa6fa99083e759d", "lat": 38.9073235, "name": "9b4b9f1ecc4477ea0fa6fa99083e759d", "lon": -77.0452315, "fusion_lon": 0.0}, {"is_reserved": 0, "type": "electric_bike", "fusion_lat": 0.0, "is_disabled": 0, "rental_uris": {"ios": "https://dc.lft.to/lastmile_qr_scan", "android": "https://dc.lft.to/lastmile_qr_scan"}, "bike_id": "1e0cf4add2c5b313186251df438cafa5", "lat": 38.85788516666667, "name": "1e0cf4add2c5b313186251df438cafa5", "lon": -77.09967066666667, "fusion_lon": 0.0}, {"is_reserved": 0, "type": "electric_scooter", "fusion_lat": 0.0, "is_disabled": 0, "rental_uris": {"ios": "https://dc.lft.to/lastmile_qr_scan", "android": "https://dc.lft.to/lastmile_qr_scan"}, "bike_id": "7f0db77b5c24ebe97d08fd5a81308130", "lat": 38.90379766666667, "name": "7f0db77b5c24ebe97d08fd5a81308130", "lon": -77.0508115, "fusion_lon": 0.0}, {"is_reserved": 0, "type": "electric_scooter", "fusion_lat": 0.0, "is_disabled": 0, "rental_uris": {"ios": "https://dc.lft.to/lastmile_qr_scan", "android": "https://dc.lft.to/lastmile_qr_scan"}, "bike_id": "45dab1af4810a23a5c55a4ebd4366c09", "lat": 38.884023166666665, "name": "45dab1af4810a23a5c55a4ebd4366c09", "lon": -76.93044283333333, "fusion_lon": 0.0}, {"is_reserved": 0, "type": "electric_scooter", "fusion_lat": 0.0, "is_disabled": 0, "rental_uris": {"ios": "https://dc.lft.to/lastmile_qr_scan", "android": "https://dc.lft.to/lastmile_qr_scan"}, "bike_id": "f836912725ec3417770c020d2215b26a", "lat": 38.90364733333333, "name": "f836912725ec3417770c020d2215b26a", "lon": -77.00571533333333, "fusion_lon": 0.0}, {"is_reserved": 0, "type": "electric_scooter", "fusion_lat": 0.0, "is_disabled": 0, "rental_uris": {"ios": "https://dc.lft.to/lastmile_qr_scan", "android": "https://dc.lft.to/lastmile_qr_scan"}, "bike_id": "7ef086a29609259667cff4b0cf6740d2", "lat": 38.906736, "name": "7ef086a29609259667cff4b0cf6740d2", "lon": -77.02711833333333, "fusion_lon": 0.0}, {"is_reserved": 0, "type": "electric_scooter", "fusion_lat": 0.0, "is_disabled": 0, "rental_uris": {"ios": "https://dc.lft.to/lastmile_qr_scan", "android": "https://dc.lft.to/lastmile_qr_scan"}, "bike_id": "f3422f2d03e0046bf1c2661c1c5a3b0e", "lat": 38.92365083333333, "name": "f3422f2d03e0046bf1c2661c1c5a3b0e", "lon": -77.029779, "fusion_lon": 0.0}, {"is_reserved": 0, "type": "electric_bike", "fusion_lat": 0.0, "is_disabled": 0, "rental_uris": {"ios": "https://dc.lft.to/lastmile_qr_scan", "android": "https://dc.lft.to/lastmile_qr_scan"}, "bike_id": "f08f8bfa233a6ccbf3c976f4f52b9b83", "lat": 39.084303166666665, "name": "f08f8bfa233a6ccbf3c976f4f52b9b83", "lon": -76.95139633333334, "fusion_lon": 0.0}, {"is_reserved": 0, "type": "electric_scooter", "fusion_lat": 0.0, "is_disabled": 0, "rental_uris": {"ios": "https://dc.lft.to/lastmile_qr_scan", "android": "https://dc.lft.to/lastmile_qr_scan"}, "bike_id": "59ad3f833d478b18e58370fb7935853e", "lat": 38.9280325, "name": "59ad3f833d478b18e58370fb7935853e", "lon": -77.0238895, "fusion_lon": 0.0}, {"is_reserved": 0, "type": "electric_scooter", "fusion_lat": 0.0, "is_disabled": 0, "rental_uris": {"ios": "https://dc.lft.to/lastmile_qr_scan", "android": "https://dc.lft.to/lastmile_qr_scan"}, "bike_id": "24cb8a3e56b2d0c299bc5094dda7c3fc", "lat": 38.89849383333333, "name": "24cb8a3e56b2d0c299bc5094dda7c3fc", "lon": -76.99034933333333, "fusion_lon": 0.0}, {"is_reserved": 0, "type": "electric_scooter", "fusion_lat": 0.0, "is_disabled": 0, "rental_uris": {"ios": "https://dc.lft.to/lastmile_qr_scan", "android": "https://dc.lft.to/lastmile_qr_scan"}, "bike_id": "8ef273a04364a35431630e8fb249f831", "lat": 38.92682216666667, "name": "8ef273a04364a35431630e8fb249f831", "lon": -77.00874966666667, "fusion_lon": 0.0}, {"is_reserved": 0, "type": "electric_bike", "fusion_lat": 0.0, "is_disabled": 0, "rental_uris": {"ios": "https://dc.lft.to/lastmile_qr_scan", "android": "https://dc.lft.to/lastmile_qr_scan"}, "bike_id": "a00e83273f72ce8a06b34893ab53b71d", "lat": 38.88373833333333, "name": "a00e83273f72ce8a06b34893ab53b71d", "lon": -76.92374866666667, "fusion_lon": 0.0}, {"is_reserved": 0, "type": "electric_bike", "fusion_lat": 0.0, "is_disabled": 0, "rental_uris": {"ios": "https://dc.lft.to/lastmile_qr_scan", "android": "https://dc.lft.to/lastmile_qr_scan"}, "bike_id": "564eabad9e09c66eba2d6a8df14bb4a5", "lat": 38.96381316666667, "name": "564eabad9e09c66eba2d6a8df14bb4a5", "lon": -77.01978833333334, "fusion_lon": 0.0}, {"is_reserved": 0, "type": "electric_scooter", "fusion_lat": 0.0, "is_disabled": 0, "rental_uris": {"ios": "https://dc.lft.to/lastmile_qr_scan", "android": "https://dc.lft.to/lastmile_qr_scan"}, "bike_id": "8c7ed795f72f2afe83fbd1b492726fb7", "lat": 38.924713833333335, "name": "8c7ed795f72f2afe83fbd1b492726fb7", "lon": -77.02845833333333, "fusion_lon": 0.0}, {"is_reserved": 0, "type": "electric_scooter", "fusion_lat": 0.0, "is_disabled": 0, "rental_uris": {"ios": "https://dc.lft.to/lastmile_qr_scan", "android": "https://dc.lft.to/lastmile_qr_scan"}, "bike_id": "1ca504c87647109f311200256f842b08", "lat": 38.925693, "name": "1ca504c87647109f311200256f842b08", "lon": -77.052497, "fusion_lon": 0.0}, {"is_reserved": 0, "type": "electric_scooter", "fusion_lat": 0.0, "is_disabled": 0, "rental_uris": {"ios": "https://dc.lft.to/lastmile_qr_scan", "android": "https://dc.lft.to/lastmile_qr_scan"}, "bike_id": "61235a0af3cbd79f400e2fe7d761aef9", "lat": 38.89544983333333, "name": "61235a0af3cbd79f400e2fe7d761aef9", "lon": -76.9833905, "fusion_lon": 0.0}, {"is_reserved": 0, "type": "electric_scooter", "fusion_lat": 0.0, "is_disabled": 0, "rental_uris": {"ios": "https://dc.lft.to/lastmile_qr_scan", "android": "https://dc.lft.to/lastmile_qr_scan"}, "bike_id": "e71465a839823554b5a6e8b93fb28a97", "lat": 38.884565333333335, "name": "e71465a839823554b5a6e8b93fb28a97", "lon": -77.02520566666666, "fusion_lon": 0.0}, {"is_reserved": 0, "type": "electric_bike", "fusion_lat": 0.0, "is_disabled": 0, "rental_uris": {"ios": "https://dc.lft.to/lastmile_qr_scan", "android": "https://dc.lft.to/lastmile_qr_scan"}, "bike_id": "d7070d9ad9f47b52f82cd13553a1d9ad", "lat": 38.951834833333336, "name": "d7070d9ad9f47b52f82cd13553a1d9ad", "lon": -76.93543216666667, "fusion_lon": 0.0}, {"is_reserved": 0, "type": "electric_scooter", "fusion_lat": 0.0, "is_disabled": 0, "rental_uris": {"ios": "https://dc.lft.to/lastmile_qr_scan", "android": "https://dc.lft.to/lastmile_qr_scan"}, "bike_id": "06a3f816c826b141ca9cd8af036581b6", "lat": 38.928383, "name": "06a3f816c826b141ca9cd8af036581b6", "lon": -77.01387983333333, "fusion_lon": 0.0}, {"is_reserved": 0, "type": "electric_scooter", "fusion_lat": 0.0, "is_disabled": 0, "rental_uris": {"ios": "https://dc.lft.to/lastmile_qr_scan", "android": "https://dc.lft.to/lastmile_qr_scan"}, "bike_id": "77952697e111eb9e6ca4439713a321f1", "lat": 38.92054433333333, "name": "77952697e111eb9e6ca4439713a321f1", "lon": -77.01801783333333, "fusion_lon": 0.0}, {"is_reserved": 0, "type": "electric_scooter", "fusion_lat": 0.0, "is_disabled": 0, "rental_uris": {"ios": "https://dc.lft.to/lastmile_qr_scan", "android": "https://dc.lft.to/lastmile_qr_scan"}, "bike_id": "3f5dbfbb3090730fc4179a5d57156db3", "lat": 38.933345, "name": "3f5dbfbb3090730fc4179a5d57156db3", "lon": -77.03875433333333, "fusion_lon": 0.0}, {"is_reserved": 0, "type": "electric_scooter", "fusion_lat": 0.0, "is_disabled": 0, "rental_uris": {"ios": "https://dc.lft.to/lastmile_qr_scan", "android": "https://dc.lft.to/lastmile_qr_scan"}, "bike_id": "4f796507fd13b597b2062bda7d4dadf2", "lat": 38.9234315, "name": "4f796507fd13b597b2062bda7d4dadf2", "lon": -77.04027866666667, "fusion_lon": 0.0}, {"is_reserved": 0, "type": "electric_scooter", "fusion_lat": 0.0, "is_disabled": 0, "rental_uris": {"ios": "https://dc.lft.to/lastmile_qr_scan", "android": "https://dc.lft.to/lastmile_qr_scan"}, "bike_id": "899a3873e49f0c661e1a967f45e24bac", "lat": 38.89761933333333, "name": "899a3873e49f0c661e1a967f45e24bac", "lon": -77.04780233333334, "fusion_lon": 0.0}, {"is_reserved": 0, "type": "electric_bike", "fusion_lat": 0.0, "is_disabled": 0, "rental_uris": {"ios": "https://dc.lft.to/lastmile_qr_scan", "android": "https://dc.lft.to/lastmile_qr_scan"}, "bike_id": "c2ea895750d61954113baa537db40169", "lat": 38.920203, "name": "c2ea895750d61954113baa537db40169", "lon": -77.00328866666666, "fusion_lon": 0.0}, {"is_reserved": 0, "type": "electric_scooter", "fusion_lat": 0.0, "is_disabled": 0, "rental_uris": {"ios": "https://dc.lft.to/lastmile_qr_scan", "android": "https://dc.lft.to/lastmile_qr_scan"}, "bike_id": "69e3454b35b5553ee26e866b5f25d82d", "lat": 38.898172833333334, "name": "69e3454b35b5553ee26e866b5f25d82d", "lon": -77.0127085, "fusion_lon": 0.0}, {"is_reserved": 0, "type": "electric_bike", "fusion_lat": 0.0, "is_disabled": 0, "rental_uris": {"ios": "https://dc.lft.to/lastmile_qr_scan", "android": "https://dc.lft.to/lastmile_qr_scan"}, "bike_id": "80dc030187be3784382323b6fec9eec3", "lat": 38.93640366666666, "name": "80dc030187be3784382323b6fec9eec3", "lon": -76.95457016666667, "fusion_lon": 0.0}, {"is_reserved": 0, "type": "electric_scooter", "fusion_lat": 0.0, "is_disabled": 0, "rental_uris": {"ios": "https://dc.lft.to/lastmile_qr_scan", "android": "https://dc.lft.to/lastmile_qr_scan"}, "bike_id": "273e3838e413a2807ec26ea2e97b599a", "lat": 38.89443683333333, "name": "273e3838e413a2807ec26ea2e97b599a", "lon": -76.9809, "fusion_lon": 0.0}, {"is_reserved": 0, "type": "electric_scooter", "fusion_lat": 0.0, "is_disabled": 0, "rental_uris": {"ios": "https://dc.lft.to/lastmile_qr_scan", "android": "https://dc.lft.to/lastmile_qr_scan"}, "bike_id": "13a92513fec0e4c63ded613024e74cb3", "lat": 38.9266425, "name": "13a92513fec0e4c63ded613024e74cb3", "lon": -76.9953815, "fusion_lon": 0.0}, {"is_reserved": 0, "type": "electric_scooter", "fusion_lat": 0.0, "is_disabled": 0, "rental_uris": {"ios": "https://dc.lft.to/lastmile_qr_scan", "android": "https://dc.lft.to/lastmile_qr_scan"}, "bike_id": "6aa1a06f643b2503ad068ccacd1ce973", "lat": 38.90752366666667, "name": "6aa1a06f643b2503ad068ccacd1ce973", "lon": -77.007734, "fusion_lon": 0.0}, {"is_reserved": 0, "type": "electric_scooter", "fusion_lat": 0.0, "is_disabled": 0, "rental_uris": {"ios": "https://dc.lft.to/lastmile_qr_scan", "android": "https://dc.lft.to/lastmile_qr_scan"}, "bike_id": "a6e5dbed80a2fb3a011101ac2a2a522c", "lat": 38.917139, "name": "a6e5dbed80a2fb3a011101ac2a2a522c", "lon": -77.038578, "fusion_lon": 0.0}, {"is_reserved": 0, "type": "electric_scooter", "fusion_lat": 0.0, "is_disabled": 0, "rental_uris": {"ios": "https://dc.lft.to/lastmile_qr_scan", "android": "https://dc.lft.to/lastmile_qr_scan"}, "bike_id": "717ccb50c6af03f8116fd0955c4dd848", "lat": 38.92464116666667, "name": "717ccb50c6af03f8116fd0955c4dd848", "lon": -77.02241316666667, "fusion_lon": 0.0}, {"is_reserved": 0, "type": "electric_scooter", "fusion_lat": 0.0, "is_disabled": 0, "rental_uris": {"ios": "https://dc.lft.to/lastmile_qr_scan", "android": "https://dc.lft.to/lastmile_qr_scan"}, "bike_id": "7ec708778c73696ced16b67520dde903", "lat": 38.91877433333333, "name": "7ec708778c73696ced16b67520dde903", "lon": -77.0350555, "fusion_lon": 0.0}, {"is_reserved": 0, "type": "electric_scooter", "fusion_lat": 0.0, "is_disabled": 0, "rental_uris": {"ios": "https://dc.lft.to/lastmile_qr_scan", "android": "https://dc.lft.to/lastmile_qr_scan"}, "bike_id": "50e82152c2213ad830aa33f7252a1868", "lat": 38.9165525, "name": "50e82152c2213ad830aa33f7252a1868", "lon": -77.01028666666667, "fusion_lon": 0.0}, {"is_reserved": 0, "type": "electric_bike", "fusion_lat": 0.0, "is_disabled": 0, "rental_uris": {"ios": "https://dc.lft.to/lastmile_qr_scan", "android": "https://dc.lft.to/lastmile_qr_scan"}, "bike_id": "66a2e6456ea2e49adeb682c568e48205", "lat": 38.883008333333336, "name": "66a2e6456ea2e49adeb682c568e48205", "lon": -77.00198333333333, "fusion_lon": 0.0}, {"is_reserved": 0, "type": "electric_scooter", "fusion_lat": 0.0, "is_disabled": 0, "rental_uris": {"ios": "https://dc.lft.to/lastmile_qr_scan", "android": "https://dc.lft.to/lastmile_qr_scan"}, "bike_id": "4a3e14e38fec9484915fbda8880a652f", "lat": 38.944873, "name": "4a3e14e38fec9484915fbda8880a652f", "lon": -77.0950185, "fusion_lon": 0.0}, {"is_reserved": 0, "type": "electric_scooter", "fusion_lat": 0.0, "is_disabled": 0, "rental_uris": {"ios": "https://dc.lft.to/lastmile_qr_scan", "android": "https://dc.lft.to/lastmile_qr_scan"}, "bike_id": "e3d71b6ec2707c5908033c688c110b35", "lat": 38.921571166666666, "name": "e3d71b6ec2707c5908033c688c110b35", "lon": -77.033895, "fusion_lon": 0.0}, {"is_reserved": 0, "type": "electric_scooter", "fusion_lat": 0.0, "is_disabled": 0, "rental_uris": {"ios": "https://dc.lft.to/lastmile_qr_scan", "android": "https://dc.lft.to/lastmile_qr_scan"}, "bike_id": "b716e20c10669c000dff2485c4ac3198", "lat": 38.896462, "name": "b716e20c10669c000dff2485c4ac3198", "lon": -77.0286855, "fusion_lon": 0.0}, {"is_reserved": 0, "type": "electric_scooter", "fusion_lat": 0.0, "is_disabled": 0, "rental_uris": {"ios": "https://dc.lft.to/lastmile_qr_scan", "android": "https://dc.lft.to/lastmile_qr_scan"}, "bike_id": "a7dd1b1255b9c8ae9366918a758a0053", "lat": 38.935881, "name": "a7dd1b1255b9c8ae9366918a758a0053", "lon": -77.037753, "fusion_lon": 0.0}, {"is_reserved": 0, "type": "electric_scooter", "fusion_lat": 0.0, "is_disabled": 0, "rental_uris": {"ios": "https://dc.lft.to/lastmile_qr_scan", "android": "https://dc.lft.to/lastmile_qr_scan"}, "bike_id": "34b5be8e70914141f5858ec0a76c682e", "lat": 38.8922155, "name": "34b5be8e70914141f5858ec0a76c682e", "lon": -77.04636733333334, "fusion_lon": 0.0}, {"is_reserved": 0, "type": "electric_scooter", "fusion_lat": 0.0, "is_disabled": 0, "rental_uris": {"ios": "https://dc.lft.to/lastmile_qr_scan", "android": "https://dc.lft.to/lastmile_qr_scan"}, "bike_id": "e0248cd5ff99527faebe0891737fccc9", "lat": 38.9221195, "name": "e0248cd5ff99527faebe0891737fccc9", "lon": -77.04238066666667, "fusion_lon": 0.0}, {"is_reserved": 0, "type": "electric_bike", "fusion_lat": 0.0, "is_disabled": 0, "rental_uris": {"ios": "https://dc.lft.to/lastmile_qr_scan", "android": "https://dc.lft.to/lastmile_qr_scan"}, "bike_id": "dca139523ab2f85fca77b17c10dbfcb0", "lat": 38.80980816666667, "name": "dca139523ab2f85fca77b17c10dbfcb0", "lon": -77.07658, "fusion_lon": 0.0}, {"is_reserved": 0, "type": "electric_scooter", "fusion_lat": 0.0, "is_disabled": 0, "rental_uris": {"ios": "https://dc.lft.to/lastmile_qr_scan", "android": "https://dc.lft.to/lastmile_qr_scan"}, "bike_id": "5a8f76c51b544d01fff6b4cca7d892eb", "lat": 38.8982225, "name": "5a8f76c51b544d01fff6b4cca7d892eb", "lon": -76.93003266666666, "fusion_lon": 0.0}, {"is_reserved": 0, "type": "electric_scooter", "fusion_lat": 0.0, "is_disabled": 0, "rental_uris": {"ios": "https://dc.lft.to/lastmile_qr_scan", "android": "https://dc.lft.to/lastmile_qr_scan"}, "bike_id": "53b97be2cbb36a924c96363946768063", "lat": 38.892095166666664, "name": "53b97be2cbb36a924c96363946768063", "lon": -76.96118483333333, "fusion_lon": 0.0}, {"is_reserved": 0, "type": "electric_scooter", "fusion_lat": 0.0, "is_disabled": 0, "rental_uris": {"ios": "https://dc.lft.to/lastmile_qr_scan", "android": "https://dc.lft.to/lastmile_qr_scan"}, "bike_id": "9de2af1d6be6e13ea1f23ab0b1c2992d", "lat": 38.9595775, "name": "9de2af1d6be6e13ea1f23ab0b1c2992d", "lon": -77.03315033333334, "fusion_lon": 0.0}, {"is_reserved": 0, "type": "electric_bike", "fusion_lat": 0.0, "is_disabled": 0, "rental_uris": {"ios": "https://dc.lft.to/lastmile_qr_scan", "android": "https://dc.lft.to/lastmile_qr_scan"}, "bike_id": "c3917f4c0ad3e25f45b0610dd65df8ef", "lat": 38.99826933333333, "name": "c3917f4c0ad3e25f45b0610dd65df8ef", "lon": -76.99728333333333, "fusion_lon": 0.0}, {"is_reserved": 0, "type": "electric_scooter", "fusion_lat": 0.0, "is_disabled": 0, "rental_uris": {"ios": "https://dc.lft.to/lastmile_qr_scan", "android": "https://dc.lft.to/lastmile_qr_scan"}, "bike_id": "fa75a414d0446437c4a44de317d0fb77", "lat": 38.9127585, "name": "fa75a414d0446437c4a44de317d0fb77", "lon": -77.04666616666667, "fusion_lon": 0.0}, {"is_reserved": 0, "type": "electric_scooter", "fusion_lat": 0.0, "is_disabled": 0, "rental_uris": {"ios": "https://dc.lft.to/lastmile_qr_scan", "android": "https://dc.lft.to/lastmile_qr_scan"}, "bike_id": "027936d40726d5bc0f8e065dc328a7da", "lat": 38.88381583333334, "name": "027936d40726d5bc0f8e065dc328a7da", "lon": -77.046053, "fusion_lon": 0.0}, {"is_reserved": 0, "type": "electric_scooter", "fusion_lat": 0.0, "is_disabled": 0, "rental_uris": {"ios": "https://dc.lft.to/lastmile_qr_scan", "android": "https://dc.lft.to/lastmile_qr_scan"}, "bike_id": "33b20e5063749c0163a60f366efd9aa7", "lat": 38.92199016666667, "name": "33b20e5063749c0163a60f366efd9aa7", "lon": -77.0432835, "fusion_lon": 0.0}, {"is_reserved": 0, "type": "electric_scooter", "fusion_lat": 0.0, "is_disabled": 0, "rental_uris": {"ios": "https://dc.lft.to/lastmile_qr_scan", "android": "https://dc.lft.to/lastmile_qr_scan"}, "bike_id": "c0fc6aae697f211bc6e6f5bea78cc7e9", "lat": 38.911914833333334, "name": "c0fc6aae697f211bc6e6f5bea78cc7e9", "lon": -77.017688, "fusion_lon": 0.0}, {"is_reserved": 0, "type": "electric_bike", "fusion_lat": 0.0, "is_disabled": 0, "rental_uris": {"ios": "https://dc.lft.to/lastmile_qr_scan", "android": "https://dc.lft.to/lastmile_qr_scan"}, "bike_id": "d2d2cb6637ae968ac552d6f9a1b47d03", "lat": 38.94407016666667, "name": "d2d2cb6637ae968ac552d6f9a1b47d03", "lon": -77.02182933333333, "fusion_lon": 0.0}, {"is_reserved": 0, "type": "electric_scooter", "fusion_lat": 0.0, "is_disabled": 0, "rental_uris": {"ios": "https://dc.lft.to/lastmile_qr_scan", "android": "https://dc.lft.to/lastmile_qr_scan"}, "bike_id": "bfcfb338e539276eb794c04f1c7ee892", "lat": 38.92882816666667, "name": "bfcfb338e539276eb794c04f1c7ee892", "lon": -77.038777, "fusion_lon": 0.0}, {"is_reserved": 0, "type": "electric_scooter", "fusion_lat": 0.0, "is_disabled": 0, "rental_uris": {"ios": "https://dc.lft.to/lastmile_qr_scan", "android": "https://dc.lft.to/lastmile_qr_scan"}, "bike_id": "e83aadc06fd7faba7d10f8e2ac6ef958", "lat": 38.902869333333335, "name": "e83aadc06fd7faba7d10f8e2ac6ef958", "lon": -77.0334355, "fusion_lon": 0.0}, {"is_reserved": 0, "type": "electric_scooter", "fusion_lat": 0.0, "is_disabled": 0, "rental_uris": {"ios": "https://dc.lft.to/lastmile_qr_scan", "android": "https://dc.lft.to/lastmile_qr_scan"}, "bike_id": "935d99664d21709188c18b66e23d547f", "lat": 38.91027116666667, "name": "935d99664d21709188c18b66e23d547f", "lon": -77.03835516666666, "fusion_lon": 0.0}, {"is_reserved": 0, "type": "electric_scooter", "fusion_lat": 0.0, "is_disabled": 0, "rental_uris": {"ios": "https://dc.lft.to/lastmile_qr_scan", "android": "https://dc.lft.to/lastmile_qr_scan"}, "bike_id": "9cce834ac64a89ed6aac1ba5ab133ab1", "lat": 38.900605666666664, "name": "9cce834ac64a89ed6aac1ba5ab133ab1", "lon": -76.99342366666667, "fusion_lon": 0.0}, {"is_reserved": 0, "type": "electric_scooter", "fusion_lat": 0.0, "is_disabled": 0, "rental_uris": {"ios": "https://dc.lft.to/lastmile_qr_scan", "android": "https://dc.lft.to/lastmile_qr_scan"}, "bike_id": "a0fa076312160e9b0ff123e783fd42a2", "lat": 38.90311166666667, "name": "a0fa076312160e9b0ff123e783fd42a2", "lon": -76.97805533333333, "fusion_lon": 0.0}, {"is_reserved": 0, "type": "electric_scooter", "fusion_lat": 0.0, "is_disabled": 0, "rental_uris": {"ios": "https://dc.lft.to/lastmile_qr_scan", "android": "https://dc.lft.to/lastmile_qr_scan"}, "bike_id": "eed79066e19dee3c376d0f3ff7008cea", "lat": 38.8837095, "name": "eed79066e19dee3c376d0f3ff7008cea", "lon": -76.9951495, "fusion_lon": 0.0}, {"is_reserved": 0, "type": "electric_scooter", "fusion_lat": 0.0, "is_disabled": 0, "rental_uris": {"ios": "https://dc.lft.to/lastmile_qr_scan", "android": "https://dc.lft.to/lastmile_qr_scan"}, "bike_id": "555e3d03aed70de5cd88893ae0d38b15", "lat": 38.95643366666667, "name": "555e3d03aed70de5cd88893ae0d38b15", "lon": -77.0281245, "fusion_lon": 0.0}, {"is_reserved": 0, "type": "electric_scooter", "fusion_lat": 0.0, "is_disabled": 0, "rental_uris": {"ios": "https://dc.lft.to/lastmile_qr_scan", "android": "https://dc.lft.to/lastmile_qr_scan"}, "bike_id": "0e510ade39192b3740b1fb83195017fb", "lat": 38.905042333333334, "name": "0e510ade39192b3740b1fb83195017fb", "lon": -77.02945466666667, "fusion_lon": 0.0}, {"is_reserved": 0, "type": "electric_scooter", "fusion_lat": 0.0, "is_disabled": 0, "rental_uris": {"ios": "https://dc.lft.to/lastmile_qr_scan", "android": "https://dc.lft.to/lastmile_qr_scan"}, "bike_id": "1f97568c4fd48971fa0a541815455e05", "lat": 38.88607183333333, "name": "1f97568c4fd48971fa0a541815455e05", "lon": -76.92502683333333, "fusion_lon": 0.0}, {"is_reserved": 0, "type": "electric_scooter", "fusion_lat": 0.0, "is_disabled": 0, "rental_uris": {"ios": "https://dc.lft.to/lastmile_qr_scan", "android": "https://dc.lft.to/lastmile_qr_scan"}, "bike_id": "01f79fe4b1608038992593dd1e9a1558", "lat": 38.909606, "name": "01f79fe4b1608038992593dd1e9a1558", "lon": -77.023774, "fusion_lon": 0.0}, {"is_reserved": 0, "type": "electric_scooter", "fusion_lat": 0.0, "is_disabled": 0, "rental_uris": {"ios": "https://dc.lft.to/lastmile_qr_scan", "android": "https://dc.lft.to/lastmile_qr_scan"}, "bike_id": "453a765d8502162a132ec8adfa6f2720", "lat": 38.84272133333333, "name": "453a765d8502162a132ec8adfa6f2720", "lon": -76.988404, "fusion_lon": 0.0}, {"is_reserved": 0, "type": "electric_scooter", "fusion_lat": 0.0, "is_disabled": 0, "rental_uris": {"ios": "https://dc.lft.to/lastmile_qr_scan", "android": "https://dc.lft.to/lastmile_qr_scan"}, "bike_id": "6209524588c0a8082cefe4647602662e", "lat": 38.902153166666665, "name": "6209524588c0a8082cefe4647602662e", "lon": -77.023834, "fusion_lon": 0.0}, {"is_reserved": 0, "type": "electric_scooter", "fusion_lat": 0.0, "is_disabled": 0, "rental_uris": {"ios": "https://dc.lft.to/lastmile_qr_scan", "android": "https://dc.lft.to/lastmile_qr_scan"}, "bike_id": "73a7307c88872fb31f2c6af4a7d816d3", "lat": 38.90963083333333, "name": "73a7307c88872fb31f2c6af4a7d816d3", "lon": -77.02290816666667, "fusion_lon": 0.0}, {"is_reserved": 0, "type": "electric_scooter", "fusion_lat": 0.0, "is_disabled": 0, "rental_uris": {"ios": "https://dc.lft.to/lastmile_qr_scan", "android": "https://dc.lft.to/lastmile_qr_scan"}, "bike_id": "b2463e5004dcd5ff5003eb8ef6610996", "lat": 38.909016666666666, "name": "b2463e5004dcd5ff5003eb8ef6610996", "lon": -76.991181, "fusion_lon": 0.0}, {"is_reserved": 0, "type": "electric_scooter", "fusion_lat": 0.0, "is_disabled": 0, "rental_uris": {"ios": "https://dc.lft.to/lastmile_qr_scan", "android": "https://dc.lft.to/lastmile_qr_scan"}, "bike_id": "b072f099a26bb6cfae1bea18767e1de4", "lat": 38.87473766666667, "name": "b072f099a26bb6cfae1bea18767e1de4", "lon": -76.99164683333333, "fusion_lon": 0.0}, {"is_reserved": 0, "type": "electric_scooter", "fusion_lat": 0.0, "is_disabled": 0, "rental_uris": {"ios": "https://dc.lft.to/lastmile_qr_scan", "android": "https://dc.lft.to/lastmile_qr_scan"}, "bike_id": "2ecb1ed5b4560abce08524506f2ad7a3", "lat": 38.917855333333335, "name": "2ecb1ed5b4560abce08524506f2ad7a3", "lon": -77.0231435, "fusion_lon": 0.0}, {"is_reserved": 0, "type": "electric_bike", "fusion_lat": 0.0, "is_disabled": 0, "rental_uris": {"ios": "https://dc.lft.to/lastmile_qr_scan", "android": "https://dc.lft.to/lastmile_qr_scan"}, "bike_id": "fbe0300b728ec0e50f1cf95873fb13b8", "lat": 38.80404716666666, "name": "fbe0300b728ec0e50f1cf95873fb13b8", "lon": -77.113316, "fusion_lon": 0.0}, {"is_reserved": 0, "type": "electric_scooter", "fusion_lat": 0.0, "is_disabled": 0, "rental_uris": {"ios": "https://dc.lft.to/lastmile_qr_scan", "android": "https://dc.lft.to/lastmile_qr_scan"}, "bike_id": "a34c5882953a242861cdae1e992d8781", "lat": 38.93260883333333, "name": "a34c5882953a242861cdae1e992d8781", "lon": -77.0209325, "fusion_lon": 0.0}, {"is_reserved": 0, "type": "electric_bike", "fusion_lat": 0.0, "is_disabled": 0, "rental_uris": {"ios": "https://dc.lft.to/lastmile_qr_scan", "android": "https://dc.lft.to/lastmile_qr_scan"}, "bike_id": "0079830e8b99813dc498ea6ce691c29f", "lat": 38.855916666666666, "name": "0079830e8b99813dc498ea6ce691c29f", "lon": -76.9727775, "fusion_lon": 0.0}, {"is_reserved": 0, "type": "electric_scooter", "fusion_lat": 0.0, "is_disabled": 0, "rental_uris": {"ios": "https://dc.lft.to/lastmile_qr_scan", "android": "https://dc.lft.to/lastmile_qr_scan"}, "bike_id": "96f107a87dc0ceee0b192a8d92651118", "lat": 38.917256, "name": "96f107a87dc0ceee0b192a8d92651118", "lon": -77.045846, "fusion_lon": 0.0}, {"is_reserved": 0, "type": "electric_scooter", "fusion_lat": 0.0, "is_disabled": 0, "rental_uris": {"ios": "https://dc.lft.to/lastmile_qr_scan", "android": "https://dc.lft.to/lastmile_qr_scan"}, "bike_id": "fe2e635a6dbb00e6ccd445b9373fe138", "lat": 38.9146425, "name": "fe2e635a6dbb00e6ccd445b9373fe138", "lon": -77.00203, "fusion_lon": 0.0}, {"is_reserved": 0, "type": "electric_scooter", "fusion_lat": 0.0, "is_disabled": 0, "rental_uris": {"ios": "https://dc.lft.to/lastmile_qr_scan", "android": "https://dc.lft.to/lastmile_qr_scan"}, "bike_id": "1ed8f618002359d79108e85e1b292ef6", "lat": 38.9169995, "name": "1ed8f618002359d79108e85e1b292ef6", "lon": -77.053037, "fusion_lon": 0.0}, {"is_reserved": 0, "type": "electric_scooter", "fusion_lat": 0.0, "is_disabled": 0, "rental_uris": {"ios": "https://dc.lft.to/lastmile_qr_scan", "android": "https://dc.lft.to/lastmile_qr_scan"}, "bike_id": "a9bb061db585efd51dde22e3aa90b9a2", "lat": 38.917258333333336, "name": "a9bb061db585efd51dde22e3aa90b9a2", "lon": -77.0684045, "fusion_lon": 0.0}, {"is_reserved": 0, "type": "electric_scooter", "fusion_lat": 0.0, "is_disabled": 0, "rental_uris": {"ios": "https://dc.lft.to/lastmile_qr_scan", "android": "https://dc.lft.to/lastmile_qr_scan"}, "bike_id": "95ec34f2f1704d8b276b5d3d09ab5574", "lat": 38.90285266666667, "name": "95ec34f2f1704d8b276b5d3d09ab5574", "lon": -77.03342033333334, "fusion_lon": 0.0}, {"is_reserved": 0, "type": "electric_bike", "fusion_lat": 0.0, "is_disabled": 0, "rental_uris": {"ios": "https://dc.lft.to/lastmile_qr_scan", "android": "https://dc.lft.to/lastmile_qr_scan"}, "bike_id": "ead2c7855e70bf7a8feefc1692470d8f", "lat": 38.82213383333333, "name": "ead2c7855e70bf7a8feefc1692470d8f", "lon": -76.97703083333333, "fusion_lon": 0.0}, {"is_reserved": 0, "type": "electric_scooter", "fusion_lat": 0.0, "is_disabled": 0, "rental_uris": {"ios": "https://dc.lft.to/lastmile_qr_scan", "android": "https://dc.lft.to/lastmile_qr_scan"}, "bike_id": "16a8f654b67b4ddb13a08e70f9e3d926", "lat": 38.89667083333333, "name": "16a8f654b67b4ddb13a08e70f9e3d926", "lon": -77.04349983333333, "fusion_lon": 0.0}, {"is_reserved": 0, "type": "electric_scooter", "fusion_lat": 0.0, "is_disabled": 0, "rental_uris": {"ios": "https://dc.lft.to/lastmile_qr_scan", "android": "https://dc.lft.to/lastmile_qr_scan"}, "bike_id": "3721782fddec3bac5c883e15bbb6623f", "lat": 38.92932, "name": "3721782fddec3bac5c883e15bbb6623f", "lon": -77.03269983333334, "fusion_lon": 0.0}, {"is_reserved": 0, "type": "electric_bike", "fusion_lat": 0.0, "is_disabled": 0, "rental_uris": {"ios": "https://dc.lft.to/lastmile_qr_scan", "android": "https://dc.lft.to/lastmile_qr_scan"}, "bike_id": "f1c80c895784aa62f706b9e57b686582", "lat": 38.880204666666664, "name": "f1c80c895784aa62f706b9e57b686582", "lon": -76.98625683333333, "fusion_lon": 0.0}, {"is_reserved": 0, "type": "electric_scooter", "fusion_lat": 0.0, "is_disabled": 0, "rental_uris": {"ios": "https://dc.lft.to/lastmile_qr_scan", "android": "https://dc.lft.to/lastmile_qr_scan"}, "bike_id": "69f1f767f5885527694aa02522e5e6ec", "lat": 38.88661066666667, "name": "69f1f767f5885527694aa02522e5e6ec", "lon": -76.98563883333334, "fusion_lon": 0.0}, {"is_reserved": 0, "type": "electric_scooter", "fusion_lat": 0.0, "is_disabled": 0, "rental_uris": {"ios": "https://dc.lft.to/lastmile_qr_scan", "android": "https://dc.lft.to/lastmile_qr_scan"}, "bike_id": "194f95c3cf21b73246671b2608203141", "lat": 38.855213, "name": "194f95c3cf21b73246671b2608203141", "lon": -76.99145266666666, "fusion_lon": 0.0}, {"is_reserved": 0, "type": "electric_scooter", "fusion_lat": 0.0, "is_disabled": 0, "rental_uris": {"ios": "https://dc.lft.to/lastmile_qr_scan", "android": "https://dc.lft.to/lastmile_qr_scan"}, "bike_id": "8796b3499464bec912ab454a47604ab3", "lat": 38.934208, "name": "8796b3499464bec912ab454a47604ab3", "lon": -77.04405083333333, "fusion_lon": 0.0}, {"is_reserved": 0, "type": "electric_scooter", "fusion_lat": 0.0, "is_disabled": 0, "rental_uris": {"ios": "https://dc.lft.to/lastmile_qr_scan", "android": "https://dc.lft.to/lastmile_qr_scan"}, "bike_id": "eeef4e826666f2e3d75b87dfcce04af6", "lat": 38.911076666666666, "name": "eeef4e826666f2e3d75b87dfcce04af6", "lon": -77.03843, "fusion_lon": 0.0}, {"is_reserved": 0, "type": "electric_scooter", "fusion_lat": 0.0, "is_disabled": 0, "rental_uris": {"ios": "https://dc.lft.to/lastmile_qr_scan", "android": "https://dc.lft.to/lastmile_qr_scan"}, "bike_id": "5b37a547cdb0a5580c3d7861ef1dd764", "lat": 38.89472766666667, "name": "5b37a547cdb0a5580c3d7861ef1dd764", "lon": -76.99357683333334, "fusion_lon": 0.0}, {"is_reserved": 0, "type": "electric_scooter", "fusion_lat": 0.0, "is_disabled": 0, "rental_uris": {"ios": "https://dc.lft.to/lastmile_qr_scan", "android": "https://dc.lft.to/lastmile_qr_scan"}, "bike_id": "c7094a7d678ffc797aea025ea75ff90f", "lat": 38.92285016666666, "name": "c7094a7d678ffc797aea025ea75ff90f", "lon": -77.01993433333334, "fusion_lon": 0.0}, {"is_reserved": 0, "type": "electric_scooter", "fusion_lat": 0.0, "is_disabled": 0, "rental_uris": {"ios": "https://dc.lft.to/lastmile_qr_scan", "android": "https://dc.lft.to/lastmile_qr_scan"}, "bike_id": "922f2729b96e65c09dda56c9694613a1", "lat": 38.89831083333333, "name": "922f2729b96e65c09dda56c9694613a1", "lon": -76.94633133333333, "fusion_lon": 0.0}, {"is_reserved": 0, "type": "electric_scooter", "fusion_lat": 0.0, "is_disabled": 0, "rental_uris": {"ios": "https://dc.lft.to/lastmile_qr_scan", "android": "https://dc.lft.to/lastmile_qr_scan"}, "bike_id": "d03ed587862ae29fd1d2f734b0a9e253", "lat": 38.88124716666667, "name": "d03ed587862ae29fd1d2f734b0a9e253", "lon": -76.99344766666667, "fusion_lon": 0.0}, {"is_reserved": 0, "type": "electric_scooter", "fusion_lat": 0.0, "is_disabled": 0, "rental_uris": {"ios": "https://dc.lft.to/lastmile_qr_scan", "android": "https://dc.lft.to/lastmile_qr_scan"}, "bike_id": "efaf337fb09bcadeee6dab31db4ab19b", "lat": 38.92222266666667, "name": "efaf337fb09bcadeee6dab31db4ab19b", "lon": -77.03299233333334, "fusion_lon": 0.0}, {"is_reserved": 0, "type": "electric_scooter", "fusion_lat": 0.0, "is_disabled": 0, "rental_uris": {"ios": "https://dc.lft.to/lastmile_qr_scan", "android": "https://dc.lft.to/lastmile_qr_scan"}, "bike_id": "cca01b77415bb6944c9ebdb9277ebe1f", "lat": 38.901955666666666, "name": "cca01b77415bb6944c9ebdb9277ebe1f", "lon": -77.023703, "fusion_lon": 0.0}, {"is_reserved": 0, "type": "electric_scooter", "fusion_lat": 0.0, "is_disabled": 0, "rental_uris": {"ios": "https://dc.lft.to/lastmile_qr_scan", "android": "https://dc.lft.to/lastmile_qr_scan"}, "bike_id": "e76ebb287ccba18124079a6f1468ca84", "lat": 38.9146475, "name": "e76ebb287ccba18124079a6f1468ca84", "lon": -77.00209416666667, "fusion_lon": 0.0}, {"is_reserved": 0, "type": "electric_scooter", "fusion_lat": 0.0, "is_disabled": 0, "rental_uris": {"ios": "https://dc.lft.to/lastmile_qr_scan", "android": "https://dc.lft.to/lastmile_qr_scan"}, "bike_id": "5001fdb2da15fb9593a4b543e5508ec0", "lat": 38.928326, "name": "5001fdb2da15fb9593a4b543e5508ec0", "lon": -77.0370475, "fusion_lon": 0.0}, {"is_reserved": 0, "type": "electric_scooter", "fusion_lat": 0.0, "is_disabled": 0, "rental_uris": {"ios": "https://dc.lft.to/lastmile_qr_scan", "android": "https://dc.lft.to/lastmile_qr_scan"}, "bike_id": "00c9f9d631dc78c32b18e34ddc2623bc", "lat": 38.87632283333333, "name": "00c9f9d631dc78c32b18e34ddc2623bc", "lon": -77.009633, "fusion_lon": 0.0}, {"is_reserved": 0, "type": "electric_scooter", "fusion_lat": 0.0, "is_disabled": 0, "rental_uris": {"ios": "https://dc.lft.to/lastmile_qr_scan", "android": "https://dc.lft.to/lastmile_qr_scan"}, "bike_id": "4ee96cb2fbbf5e054bf10a5ae5f5c886", "lat": 38.8985025, "name": "4ee96cb2fbbf5e054bf10a5ae5f5c886", "lon": -77.0395595, "fusion_lon": 0.0}, {"is_reserved": 0, "type": "electric_scooter", "fusion_lat": 0.0, "is_disabled": 0, "rental_uris": {"ios": "https://dc.lft.to/lastmile_qr_scan", "android": "https://dc.lft.to/lastmile_qr_scan"}, "bike_id": "c19816248703f4c303b0820f8b8d2e24", "lat": 38.904908, "name": "c19816248703f4c303b0820f8b8d2e24", "lon": -77.02816533333333, "fusion_lon": 0.0}, {"is_reserved": 0, "type": "electric_scooter", "fusion_lat": 0.0, "is_disabled": 0, "rental_uris": {"ios": "https://dc.lft.to/lastmile_qr_scan", "android": "https://dc.lft.to/lastmile_qr_scan"}, "bike_id": "5f84dc5ba85d678fc7cf38b3fa99fa6c", "lat": 38.906028666666664, "name": "5f84dc5ba85d678fc7cf38b3fa99fa6c", "lon": -77.02112666666666, "fusion_lon": 0.0}, {"is_reserved": 0, "type": "electric_scooter", "fusion_lat": 0.0, "is_disabled": 0, "rental_uris": {"ios": "https://dc.lft.to/lastmile_qr_scan", "android": "https://dc.lft.to/lastmile_qr_scan"}, "bike_id": "6b9acf0f2011ae045445e5087c11bd57", "lat": 38.919014833333335, "name": "6b9acf0f2011ae045445e5087c11bd57", "lon": -77.00046083333334, "fusion_lon": 0.0}, {"is_reserved": 0, "type": "electric_scooter", "fusion_lat": 0.0, "is_disabled": 0, "rental_uris": {"ios": "https://dc.lft.to/lastmile_qr_scan", "android": "https://dc.lft.to/lastmile_qr_scan"}, "bike_id": "33bd2d2256df99c5fa9eb57856b9e482", "lat": 38.90143833333333, "name": "33bd2d2256df99c5fa9eb57856b9e482", "lon": -77.04190883333334, "fusion_lon": 0.0}, {"is_reserved": 0, "type": "electric_bike", "fusion_lat": 0.0, "is_disabled": 0, "rental_uris": {"ios": "https://dc.lft.to/lastmile_qr_scan", "android": "https://dc.lft.to/lastmile_qr_scan"}, "bike_id": "8e2ded1494cc499c40e5c69a697037e0", "lat": 38.86816133333333, "name": "8e2ded1494cc499c40e5c69a697037e0", "lon": -76.98028366666666, "fusion_lon": 0.0}, {"is_reserved": 0, "type": "electric_scooter", "fusion_lat": 0.0, "is_disabled": 0, "rental_uris": {"ios": "https://dc.lft.to/lastmile_qr_scan", "android": "https://dc.lft.to/lastmile_qr_scan"}, "bike_id": "e3b2c1363ecdf793b233d63417d23bba", "lat": 38.955008166666666, "name": "e3b2c1363ecdf793b233d63417d23bba", "lon": -77.07000883333333, "fusion_lon": 0.0}, {"is_reserved": 0, "type": "electric_scooter", "fusion_lat": 0.0, "is_disabled": 0, "rental_uris": {"ios": "https://dc.lft.to/lastmile_qr_scan", "android": "https://dc.lft.to/lastmile_qr_scan"}, "bike_id": "9b8164958c937221fa1f1fe519a5ff22", "lat": 38.923363, "name": "9b8164958c937221fa1f1fe519a5ff22", "lon": -76.98492466666667, "fusion_lon": 0.0}, {"is_reserved": 0, "type": "electric_scooter", "fusion_lat": 0.0, "is_disabled": 0, "rental_uris": {"ios": "https://dc.lft.to/lastmile_qr_scan", "android": "https://dc.lft.to/lastmile_qr_scan"}, "bike_id": "30bb1d94a5e82db7ffb2003cca014562", "lat": 38.908632833333336, "name": "30bb1d94a5e82db7ffb2003cca014562", "lon": -77.04054716666667, "fusion_lon": 0.0}, {"is_reserved": 0, "type": "electric_scooter", "fusion_lat": 0.0, "is_disabled": 0, "rental_uris": {"ios": "https://dc.lft.to/lastmile_qr_scan", "android": "https://dc.lft.to/lastmile_qr_scan"}, "bike_id": "175590e121ad52835eec943ec1cbe450", "lat": 38.92360633333333, "name": "175590e121ad52835eec943ec1cbe450", "lon": -77.03640733333333, "fusion_lon": 0.0}, {"is_reserved": 0, "type": "electric_scooter", "fusion_lat": 0.0, "is_disabled": 0, "rental_uris": {"ios": "https://dc.lft.to/lastmile_qr_scan", "android": "https://dc.lft.to/lastmile_qr_scan"}, "bike_id": "dcd3beac1c55f248d03c587e078779c2", "lat": 38.916728166666665, "name": "dcd3beac1c55f248d03c587e078779c2", "lon": -77.02689833333334, "fusion_lon": 0.0}, {"is_reserved": 0, "type": "electric_scooter", "fusion_lat": 0.0, "is_disabled": 0, "rental_uris": {"ios": "https://dc.lft.to/lastmile_qr_scan", "android": "https://dc.lft.to/lastmile_qr_scan"}, "bike_id": "8ab9de9e162557fb5eb2d2a7f442dff7", "lat": 38.94298533333333, "name": "8ab9de9e162557fb5eb2d2a7f442dff7", "lon": -77.02530266666666, "fusion_lon": 0.0}, {"is_reserved": 0, "type": "electric_scooter", "fusion_lat": 0.0, "is_disabled": 0, "rental_uris": {"ios": "https://dc.lft.to/lastmile_qr_scan", "android": "https://dc.lft.to/lastmile_qr_scan"}, "bike_id": "87d4ccd1c17650fccecf7db07b624761", "lat": 38.905780666666665, "name": "87d4ccd1c17650fccecf7db07b624761", "lon": -77.00591333333334, "fusion_lon": 0.0}, {"is_reserved": 0, "type": "electric_scooter", "fusion_lat": 0.0, "is_disabled": 0, "rental_uris": {"ios": "https://dc.lft.to/lastmile_qr_scan", "android": "https://dc.lft.to/lastmile_qr_scan"}, "bike_id": "16d7241a7eede6ec189dffaba64b388d", "lat": 38.919598, "name": "16d7241a7eede6ec189dffaba64b388d", "lon": -77.02379416666666, "fusion_lon": 0.0}, {"is_reserved": 0, "type": "electric_scooter", "fusion_lat": 0.0, "is_disabled": 0, "rental_uris": {"ios": "https://dc.lft.to/lastmile_qr_scan", "android": "https://dc.lft.to/lastmile_qr_scan"}, "bike_id": "79487d8818a21c104ca2c737776ce3e6", "lat": 38.896683, "name": "79487d8818a21c104ca2c737776ce3e6", "lon": -76.93212533333333, "fusion_lon": 0.0}, {"is_reserved": 0, "type": "electric_scooter", "fusion_lat": 0.0, "is_disabled": 0, "rental_uris": {"ios": "https://dc.lft.to/lastmile_qr_scan", "android": "https://dc.lft.to/lastmile_qr_scan"}, "bike_id": "77d1b6e063bc7ca5e61a189116ffeacd", "lat": 38.900091, "name": "77d1b6e063bc7ca5e61a189116ffeacd", "lon": -77.00679316666667, "fusion_lon": 0.0}, {"is_reserved": 0, "type": "electric_scooter", "fusion_lat": 0.0, "is_disabled": 0, "rental_uris": {"ios": "https://dc.lft.to/lastmile_qr_scan", "android": "https://dc.lft.to/lastmile_qr_scan"}, "bike_id": "5117afb84179b3902c522d866d39bae7", "lat": 38.92641833333333, "name": "5117afb84179b3902c522d866d39bae7", "lon": -77.03836683333333, "fusion_lon": 0.0}, {"is_reserved": 0, "type": "electric_scooter", "fusion_lat": 0.0, "is_disabled": 0, "rental_uris": {"ios": "https://dc.lft.to/lastmile_qr_scan", "android": "https://dc.lft.to/lastmile_qr_scan"}, "bike_id": "4606b56367525ef19365ee4a139d417a", "lat": 38.914128833333336, "name": "4606b56367525ef19365ee4a139d417a", "lon": -77.04513283333333, "fusion_lon": 0.0}, {"is_reserved": 0, "type": "electric_scooter", "fusion_lat": 0.0, "is_disabled": 0, "rental_uris": {"ios": "https://dc.lft.to/lastmile_qr_scan", "android": "https://dc.lft.to/lastmile_qr_scan"}, "bike_id": "db2ed72aaa78f857a7444ca72fbd6de6", "lat": 38.908502166666665, "name": "db2ed72aaa78f857a7444ca72fbd6de6", "lon": -77.0246465, "fusion_lon": 0.0}, {"is_reserved": 0, "type": "electric_scooter", "fusion_lat": 0.0, "is_disabled": 0, "rental_uris": {"ios": "https://dc.lft.to/lastmile_qr_scan", "android": "https://dc.lft.to/lastmile_qr_scan"}, "bike_id": "458af9ab74d6b8669495ec2a4be26aea", "lat": 38.911603166666666, "name": "458af9ab74d6b8669495ec2a4be26aea", "lon": -77.04482916666667, "fusion_lon": 0.0}, {"is_reserved": 0, "type": "electric_scooter", "fusion_lat": 0.0, "is_disabled": 0, "rental_uris": {"ios": "https://dc.lft.to/lastmile_qr_scan", "android": "https://dc.lft.to/lastmile_qr_scan"}, "bike_id": "df348b6e7a8d148ebd22a3507c3faff9", "lat": 38.893294, "name": "df348b6e7a8d148ebd22a3507c3faff9", "lon": -76.93930366666666, "fusion_lon": 0.0}, {"is_reserved": 0, "type": "electric_bike", "fusion_lat": 0.0, "is_disabled": 0, "rental_uris": {"ios": "https://dc.lft.to/lastmile_qr_scan", "android": "https://dc.lft.to/lastmile_qr_scan"}, "bike_id": "0d3d7e2ec4c92401471f877aa7d534e4", "lat": 38.87666983333333, "name": "0d3d7e2ec4c92401471f877aa7d534e4", "lon": -77.02090833333334, "fusion_lon": 0.0}, {"is_reserved": 0, "type": "electric_scooter", "fusion_lat": 0.0, "is_disabled": 0, "rental_uris": {"ios": "https://dc.lft.to/lastmile_qr_scan", "android": "https://dc.lft.to/lastmile_qr_scan"}, "bike_id": "7cc0408912c2e23f55573834ff7d8119", "lat": 38.917644833333334, "name": "7cc0408912c2e23f55573834ff7d8119", "lon": -77.00451316666667, "fusion_lon": 0.0}, {"is_reserved": 0, "type": "electric_bike", "fusion_lat": 0.0, "is_disabled": 0, "rental_uris": {"ios": "https://dc.lft.to/lastmile_qr_scan", "android": "https://dc.lft.to/lastmile_qr_scan"}, "bike_id": "604a8de3e0383f3e1ce550d60467db2d", "lat": 38.87579216666666, "name": "604a8de3e0383f3e1ce550d60467db2d", "lon": -77.234104, "fusion_lon": 0.0}, {"is_reserved": 0, "type": "electric_scooter", "fusion_lat": 0.0, "is_disabled": 0, "rental_uris": {"ios": "https://dc.lft.to/lastmile_qr_scan", "android": "https://dc.lft.to/lastmile_qr_scan"}, "bike_id": "32e5925ff1d71637835967452de3a7d9", "lat": 38.90285933333333, "name": "32e5925ff1d71637835967452de3a7d9", "lon": -77.01759333333334, "fusion_lon": 0.0}, {"is_reserved": 0, "type": "electric_scooter", "fusion_lat": 0.0, "is_disabled": 0, "rental_uris": {"ios": "https://dc.lft.to/lastmile_qr_scan", "android": "https://dc.lft.to/lastmile_qr_scan"}, "bike_id": "ac158f81547ec3887d16ba071cc34177", "lat": 38.924341166666665, "name": "ac158f81547ec3887d16ba071cc34177", "lon": -77.04236716666666, "fusion_lon": 0.0}, {"is_reserved": 0, "type": "electric_scooter", "fusion_lat": 0.0, "is_disabled": 0, "rental_uris": {"ios": "https://dc.lft.to/lastmile_qr_scan", "android": "https://dc.lft.to/lastmile_qr_scan"}, "bike_id": "b3b59102f36b45ee8af36184d0025d51", "lat": 38.93029516666667, "name": "b3b59102f36b45ee8af36184d0025d51", "lon": -77.06074616666666, "fusion_lon": 0.0}, {"is_reserved": 0, "type": "electric_scooter", "fusion_lat": 0.0, "is_disabled": 0, "rental_uris": {"ios": "https://dc.lft.to/lastmile_qr_scan", "android": "https://dc.lft.to/lastmile_qr_scan"}, "bike_id": "5d5b11565dae758c1ec282d08e505514", "lat": 38.916582, "name": "5d5b11565dae758c1ec282d08e505514", "lon": -77.022984, "fusion_lon": 0.0}, {"is_reserved": 0, "type": "electric_scooter", "fusion_lat": 0.0, "is_disabled": 0, "rental_uris": {"ios": "https://dc.lft.to/lastmile_qr_scan", "android": "https://dc.lft.to/lastmile_qr_scan"}, "bike_id": "a673efc2efad7e7649bdd57069e90257", "lat": 38.87070333333333, "name": "a673efc2efad7e7649bdd57069e90257", "lon": -76.98132733333334, "fusion_lon": 0.0}, {"is_reserved": 0, "type": "electric_scooter", "fusion_lat": 0.0, "is_disabled": 0, "rental_uris": {"ios": "https://dc.lft.to/lastmile_qr_scan", "android": "https://dc.lft.to/lastmile_qr_scan"}, "bike_id": "89f5e810fb1b7595bc20dae32d7d4c3e", "lat": 38.894805166666664, "name": "89f5e810fb1b7595bc20dae32d7d4c3e", "lon": -76.94870283333333, "fusion_lon": 0.0}, {"is_reserved": 0, "type": "electric_scooter", "fusion_lat": 0.0, "is_disabled": 0, "rental_uris": {"ios": "https://dc.lft.to/lastmile_qr_scan", "android": "https://dc.lft.to/lastmile_qr_scan"}, "bike_id": "1e54850d37eb973b2f1cda187239546b", "lat": 38.918292666666666, "name": "1e54850d37eb973b2f1cda187239546b", "lon": -77.02713633333333, "fusion_lon": 0.0}, {"is_reserved": 0, "type": "electric_scooter", "fusion_lat": 0.0, "is_disabled": 0, "rental_uris": {"ios": "https://dc.lft.to/lastmile_qr_scan", "android": "https://dc.lft.to/lastmile_qr_scan"}, "bike_id": "2f5cf2fcd432d96511fefa24296ae5cc", "lat": 38.925015, "name": "2f5cf2fcd432d96511fefa24296ae5cc", "lon": -77.0511025, "fusion_lon": 0.0}, {"is_reserved": 0, "type": "electric_scooter", "fusion_lat": 0.0, "is_disabled": 0, "rental_uris": {"ios": "https://dc.lft.to/lastmile_qr_scan", "android": "https://dc.lft.to/lastmile_qr_scan"}, "bike_id": "3531958c90af34b45c7bf4af15b6d441", "lat": 38.90285983333333, "name": "3531958c90af34b45c7bf4af15b6d441", "lon": -77.0454375, "fusion_lon": 0.0}, {"is_reserved": 0, "type": "electric_bike", "fusion_lat": 0.0, "is_disabled": 0, "rental_uris": {"ios": "https://dc.lft.to/lastmile_qr_scan", "android": "https://dc.lft.to/lastmile_qr_scan"}, "bike_id": "9be634fe9347bf8405b12ffd25a88300", "lat": 38.842895666666664, "name": "9be634fe9347bf8405b12ffd25a88300", "lon": -77.06377766666667, "fusion_lon": 0.0}, {"is_reserved": 0, "type": "electric_bike", "fusion_lat": 0.0, "is_disabled": 0, "rental_uris": {"ios": "https://dc.lft.to/lastmile_qr_scan", "android": "https://dc.lft.to/lastmile_qr_scan"}, "bike_id": "5b92a18752ea4143916ce49e094b61fe", "lat": 38.95246733333333, "name": "5b92a18752ea4143916ce49e094b61fe", "lon": -77.0962435, "fusion_lon": 0.0}, {"is_reserved": 0, "type": "electric_scooter", "fusion_lat": 0.0, "is_disabled": 0, "rental_uris": {"ios": "https://dc.lft.to/lastmile_qr_scan", "android": "https://dc.lft.to/lastmile_qr_scan"}, "bike_id": "fabff9fcd339239f6e94afb668b3a788", "lat": 38.89460166666667, "name": "fabff9fcd339239f6e94afb668b3a788", "lon": -77.02731983333334, "fusion_lon": 0.0}, {"is_reserved": 0, "type": "electric_scooter", "fusion_lat": 0.0, "is_disabled": 0, "rental_uris": {"ios": "https://dc.lft.to/lastmile_qr_scan", "android": "https://dc.lft.to/lastmile_qr_scan"}, "bike_id": "ab64934ce59f0c772e3ffebdd589e274", "lat": 38.878443833333336, "name": "ab64934ce59f0c772e3ffebdd589e274", "lon": -77.00880166666667, "fusion_lon": 0.0}, {"is_reserved": 0, "type": "electric_scooter", "fusion_lat": 0.0, "is_disabled": 0, "rental_uris": {"ios": "https://dc.lft.to/lastmile_qr_scan", "android": "https://dc.lft.to/lastmile_qr_scan"}, "bike_id": "979930375921f7d1ec86496181e41919", "lat": 38.920884666666666, "name": "979930375921f7d1ec86496181e41919", "lon": -77.02505283333333, "fusion_lon": 0.0}, {"is_reserved": 0, "type": "electric_scooter", "fusion_lat": 0.0, "is_disabled": 0, "rental_uris": {"ios": "https://dc.lft.to/lastmile_qr_scan", "android": "https://dc.lft.to/lastmile_qr_scan"}, "bike_id": "6216235a8827bf2fa13ba5d6bf7e1210", "lat": 38.92332916666667, "name": "6216235a8827bf2fa13ba5d6bf7e1210", "lon": -77.037791, "fusion_lon": 0.0}, {"is_reserved": 0, "type": "electric_bike", "fusion_lat": 0.0, "is_disabled": 0, "rental_uris": {"ios": "https://dc.lft.to/lastmile_qr_scan", "android": "https://dc.lft.to/lastmile_qr_scan"}, "bike_id": "a28c19ed7e24c3d3fe096996fa4ebc69", "lat": 38.92969766666667, "name": "a28c19ed7e24c3d3fe096996fa4ebc69", "lon": -77.02010816666666, "fusion_lon": 0.0}, {"is_reserved": 0, "type": "electric_scooter", "fusion_lat": 0.0, "is_disabled": 0, "rental_uris": {"ios": "https://dc.lft.to/lastmile_qr_scan", "android": "https://dc.lft.to/lastmile_qr_scan"}, "bike_id": "f1a3ccf51d969c7967a9fa6553c48d4f", "lat": 38.9068315, "name": "f1a3ccf51d969c7967a9fa6553c48d4f", "lon": -77.02719066666667, "fusion_lon": 0.0}, {"is_reserved": 0, "type": "electric_bike", "fusion_lat": 0.0, "is_disabled": 0, "rental_uris": {"ios": "https://dc.lft.to/lastmile_qr_scan", "android": "https://dc.lft.to/lastmile_qr_scan"}, "bike_id": "a84fef5b3427f2cc403eaa03669d1166", "lat": 38.971519666666666, "name": "a84fef5b3427f2cc403eaa03669d1166", "lon": -77.02722466666667, "fusion_lon": 0.0}, {"is_reserved": 0, "type": "electric_scooter", "fusion_lat": 0.0, "is_disabled": 0, "rental_uris": {"ios": "https://dc.lft.to/lastmile_qr_scan", "android": "https://dc.lft.to/lastmile_qr_scan"}, "bike_id": "60d3a76a2ba9f2d6008e444948e8419b", "lat": 38.92086116666667, "name": "60d3a76a2ba9f2d6008e444948e8419b", "lon": -76.9947815, "fusion_lon": 0.0}, {"is_reserved": 0, "type": "electric_scooter", "fusion_lat": 0.0, "is_disabled": 0, "rental_uris": {"ios": "https://dc.lft.to/lastmile_qr_scan", "android": "https://dc.lft.to/lastmile_qr_scan"}, "bike_id": "0fb35c68c938df613fc41a1bd4a3b48a", "lat": 38.907287333333336, "name": "0fb35c68c938df613fc41a1bd4a3b48a", "lon": -77.04773566666667, "fusion_lon": 0.0}, {"is_reserved": 0, "type": "electric_scooter", "fusion_lat": 0.0, "is_disabled": 0, "rental_uris": {"ios": "https://dc.lft.to/lastmile_qr_scan", "android": "https://dc.lft.to/lastmile_qr_scan"}, "bike_id": "d939ba3925e14ef2d2a5fc66c8517795", "lat": 38.931331, "name": "d939ba3925e14ef2d2a5fc66c8517795", "lon": -77.02199233333333, "fusion_lon": 0.0}, {"is_reserved": 0, "type": "electric_scooter", "fusion_lat": 0.0, "is_disabled": 0, "rental_uris": {"ios": "https://dc.lft.to/lastmile_qr_scan", "android": "https://dc.lft.to/lastmile_qr_scan"}, "bike_id": "4a76c6a1b8ece5814585c29b41fde104", "lat": 38.90569133333333, "name": "4a76c6a1b8ece5814585c29b41fde104", "lon": -77.00570983333333, "fusion_lon": 0.0}, {"is_reserved": 0, "type": "electric_scooter", "fusion_lat": 0.0, "is_disabled": 0, "rental_uris": {"ios": "https://dc.lft.to/lastmile_qr_scan", "android": "https://dc.lft.to/lastmile_qr_scan"}, "bike_id": "e758ca5d9343a83d748ffc71edb2c239", "lat": 38.918691833333334, "name": "e758ca5d9343a83d748ffc71edb2c239", "lon": -77.01531316666667, "fusion_lon": 0.0}, {"is_reserved": 0, "type": "electric_scooter", "fusion_lat": 0.0, "is_disabled": 0, "rental_uris": {"ios": "https://dc.lft.to/lastmile_qr_scan", "android": "https://dc.lft.to/lastmile_qr_scan"}, "bike_id": "f3c1e19560d38a92528406d6df52e098", "lat": 38.873716333333334, "name": "f3c1e19560d38a92528406d6df52e098", "lon": -77.0018625, "fusion_lon": 0.0}, {"is_reserved": 0, "type": "electric_scooter", "fusion_lat": 0.0, "is_disabled": 0, "rental_uris": {"ios": "https://dc.lft.to/lastmile_qr_scan", "android": "https://dc.lft.to/lastmile_qr_scan"}, "bike_id": "9669dc49292d0d8bc448322ad6961fb7", "lat": 38.92241466666667, "name": "9669dc49292d0d8bc448322ad6961fb7", "lon": -77.03664883333333, "fusion_lon": 0.0}, {"is_reserved": 0, "type": "electric_scooter", "fusion_lat": 0.0, "is_disabled": 0, "rental_uris": {"ios": "https://dc.lft.to/lastmile_qr_scan", "android": "https://dc.lft.to/lastmile_qr_scan"}, "bike_id": "99560c58d42d737ceed4ce030c9dcc06", "lat": 38.8784145, "name": "99560c58d42d737ceed4ce030c9dcc06", "lon": -76.931218, "fusion_lon": 0.0}, {"is_reserved": 0, "type": "electric_scooter", "fusion_lat": 0.0, "is_disabled": 0, "rental_uris": {"ios": "https://dc.lft.to/lastmile_qr_scan", "android": "https://dc.lft.to/lastmile_qr_scan"}, "bike_id": "4d888fab275d0e2616682fcdb2a553fb", "lat": 38.90179333333333, "name": "4d888fab275d0e2616682fcdb2a553fb", "lon": -76.98842233333333, "fusion_lon": 0.0}, {"is_reserved": 0, "type": "electric_bike", "fusion_lat": 0.0, "is_disabled": 0, "rental_uris": {"ios": "https://dc.lft.to/lastmile_qr_scan", "android": "https://dc.lft.to/lastmile_qr_scan"}, "bike_id": "8f169ae114dfc0b6475f4ff45cf809fd", "lat": 39.01068433333333, "name": "8f169ae114dfc0b6475f4ff45cf809fd", "lon": -76.92232883333334, "fusion_lon": 0.0}, {"is_reserved": 0, "type": "electric_scooter", "fusion_lat": 0.0, "is_disabled": 0, "rental_uris": {"ios": "https://dc.lft.to/lastmile_qr_scan", "android": "https://dc.lft.to/lastmile_qr_scan"}, "bike_id": "d2dc6a720b48a11d3ef13d441516d66c", "lat": 38.93080966666667, "name": "d2dc6a720b48a11d3ef13d441516d66c", "lon": -77.02681466666667, "fusion_lon": 0.0}, {"is_reserved": 0, "type": "electric_scooter", "fusion_lat": 0.0, "is_disabled": 0, "rental_uris": {"ios": "https://dc.lft.to/lastmile_qr_scan", "android": "https://dc.lft.to/lastmile_qr_scan"}, "bike_id": "93d48ef2dde70cb50d73a31c405610c9", "lat": 38.91413633333333, "name": "93d48ef2dde70cb50d73a31c405610c9", "lon": -77.03095866666666, "fusion_lon": 0.0}, {"is_reserved": 0, "type": "electric_scooter", "fusion_lat": 0.0, "is_disabled": 0, "rental_uris": {"ios": "https://dc.lft.to/lastmile_qr_scan", "android": "https://dc.lft.to/lastmile_qr_scan"}, "bike_id": "63f222a12c59f3f2aad114fc62287412", "lat": 38.915464166666666, "name": "63f222a12c59f3f2aad114fc62287412", "lon": -77.03849083333333, "fusion_lon": 0.0}, {"is_reserved": 0, "type": "electric_scooter", "fusion_lat": 0.0, "is_disabled": 0, "rental_uris": {"ios": "https://dc.lft.to/lastmile_qr_scan", "android": "https://dc.lft.to/lastmile_qr_scan"}, "bike_id": "b687f783ec4b267d85521430a0a70a94", "lat": 38.87920616666667, "name": "b687f783ec4b267d85521430a0a70a94", "lon": -77.01702016666667, "fusion_lon": 0.0}, {"is_reserved": 0, "type": "electric_scooter", "fusion_lat": 0.0, "is_disabled": 0, "rental_uris": {"ios": "https://dc.lft.to/lastmile_qr_scan", "android": "https://dc.lft.to/lastmile_qr_scan"}, "bike_id": "3f1a8ae8cca768c883c09e5c175a21dc", "lat": 38.932535, "name": "3f1a8ae8cca768c883c09e5c175a21dc", "lon": -77.032869, "fusion_lon": 0.0}, {"is_reserved": 0, "type": "electric_scooter", "fusion_lat": 0.0, "is_disabled": 0, "rental_uris": {"ios": "https://dc.lft.to/lastmile_qr_scan", "android": "https://dc.lft.to/lastmile_qr_scan"}, "bike_id": "a626bd7523266c9733500f507f5943ff", "lat": 38.8737435, "name": "a626bd7523266c9733500f507f5943ff", "lon": -77.00124616666666, "fusion_lon": 0.0}, {"is_reserved": 0, "type": "electric_bike", "fusion_lat": 0.0, "is_disabled": 0, "rental_uris": {"ios": "https://dc.lft.to/lastmile_qr_scan", "android": "https://dc.lft.to/lastmile_qr_scan"}, "bike_id": "933bd2742f795e60711ccca282914616", "lat": 38.864372333333336, "name": "933bd2742f795e60711ccca282914616", "lon": -76.96990633333333, "fusion_lon": 0.0}, {"is_reserved": 0, "type": "electric_scooter", "fusion_lat": 0.0, "is_disabled": 0, "rental_uris": {"ios": "https://dc.lft.to/lastmile_qr_scan", "android": "https://dc.lft.to/lastmile_qr_scan"}, "bike_id": "a3d60ab8c1f67c09445c4f5bb9e0f021", "lat": 38.905698666666666, "name": "a3d60ab8c1f67c09445c4f5bb9e0f021", "lon": -77.00645216666666, "fusion_lon": 0.0}, {"is_reserved": 0, "type": "electric_scooter", "fusion_lat": 0.0, "is_disabled": 0, "rental_uris": {"ios": "https://dc.lft.to/lastmile_qr_scan", "android": "https://dc.lft.to/lastmile_qr_scan"}, "bike_id": "504ba7f01d3a48dd4108e76085470ebb", "lat": 38.9163505, "name": "504ba7f01d3a48dd4108e76085470ebb", "lon": -77.0143545, "fusion_lon": 0.0}, {"is_reserved": 0, "type": "electric_scooter", "fusion_lat": 0.0, "is_disabled": 0, "rental_uris": {"ios": "https://dc.lft.to/lastmile_qr_scan", "android": "https://dc.lft.to/lastmile_qr_scan"}, "bike_id": "c63eec6b4b62231fb2714c73df065924", "lat": 38.8786255, "name": "c63eec6b4b62231fb2714c73df065924", "lon": -77.00713383333333, "fusion_lon": 0.0}, {"is_reserved": 0, "type": "electric_scooter", "fusion_lat": 0.0, "is_disabled": 0, "rental_uris": {"ios": "https://dc.lft.to/lastmile_qr_scan", "android": "https://dc.lft.to/lastmile_qr_scan"}, "bike_id": "3b779625a661aad01350287c89ae359a", "lat": 38.921128, "name": "3b779625a661aad01350287c89ae359a", "lon": -77.04713, "fusion_lon": 0.0}, {"is_reserved": 0, "type": "electric_scooter", "fusion_lat": 0.0, "is_disabled": 0, "rental_uris": {"ios": "https://dc.lft.to/lastmile_qr_scan", "android": "https://dc.lft.to/lastmile_qr_scan"}, "bike_id": "a214f0ae1586acce92a2811c70205c9d", "lat": 38.9050425, "name": "a214f0ae1586acce92a2811c70205c9d", "lon": -76.99181633333333, "fusion_lon": 0.0}, {"is_reserved": 0, "type": "electric_scooter", "fusion_lat": 0.0, "is_disabled": 0, "rental_uris": {"ios": "https://dc.lft.to/lastmile_qr_scan", "android": "https://dc.lft.to/lastmile_qr_scan"}, "bike_id": "8e21686c05002650baf9f59c3b546286", "lat": 38.92592883333333, "name": "8e21686c05002650baf9f59c3b546286", "lon": -77.02500066666667, "fusion_lon": 0.0}, {"is_reserved": 0, "type": "electric_scooter", "fusion_lat": 0.0, "is_disabled": 0, "rental_uris": {"ios": "https://dc.lft.to/lastmile_qr_scan", "android": "https://dc.lft.to/lastmile_qr_scan"}, "bike_id": "768fe896520b285ae115eecfdf6e0473", "lat": 38.9039975, "name": "768fe896520b285ae115eecfdf6e0473", "lon": -77.03995916666666, "fusion_lon": 0.0}, {"is_reserved": 0, "type": "electric_scooter", "fusion_lat": 0.0, "is_disabled": 0, "rental_uris": {"ios": "https://dc.lft.to/lastmile_qr_scan", "android": "https://dc.lft.to/lastmile_qr_scan"}, "bike_id": "42613ebb8391db4676d1cb98149e97b6", "lat": 38.885738, "name": "42613ebb8391db4676d1cb98149e97b6", "lon": -77.01209333333334, "fusion_lon": 0.0}, {"is_reserved": 0, "type": "electric_scooter", "fusion_lat": 0.0, "is_disabled": 0, "rental_uris": {"ios": "https://dc.lft.to/lastmile_qr_scan", "android": "https://dc.lft.to/lastmile_qr_scan"}, "bike_id": "ca7c26dcc5c725ad3c63d33c84d9f4b4", "lat": 38.935125166666666, "name": "ca7c26dcc5c725ad3c63d33c84d9f4b4", "lon": -77.036742, "fusion_lon": 0.0}, {"is_reserved": 0, "type": "electric_scooter", "fusion_lat": 0.0, "is_disabled": 0, "rental_uris": {"ios": "https://dc.lft.to/lastmile_qr_scan", "android": "https://dc.lft.to/lastmile_qr_scan"}, "bike_id": "ff16e7f517a1eee2d956d85429840c31", "lat": 38.908188333333335, "name": "ff16e7f517a1eee2d956d85429840c31", "lon": -77.08429133333334, "fusion_lon": 0.0}, {"is_reserved": 0, "type": "electric_scooter", "fusion_lat": 0.0, "is_disabled": 0, "rental_uris": {"ios": "https://dc.lft.to/lastmile_qr_scan", "android": "https://dc.lft.to/lastmile_qr_scan"}, "bike_id": "e62988e8629cffd4616f422b153c685e", "lat": 38.91557916666667, "name": "e62988e8629cffd4616f422b153c685e", "lon": -77.032611, "fusion_lon": 0.0}, {"is_reserved": 0, "type": "electric_scooter", "fusion_lat": 0.0, "is_disabled": 0, "rental_uris": {"ios": "https://dc.lft.to/lastmile_qr_scan", "android": "https://dc.lft.to/lastmile_qr_scan"}, "bike_id": "4ea4c3bcd88c158449d05f23f60cd190", "lat": 38.91557533333334, "name": "4ea4c3bcd88c158449d05f23f60cd190", "lon": -76.98500533333333, "fusion_lon": 0.0}, {"is_reserved": 0, "type": "electric_scooter", "fusion_lat": 0.0, "is_disabled": 0, "rental_uris": {"ios": "https://dc.lft.to/lastmile_qr_scan", "android": "https://dc.lft.to/lastmile_qr_scan"}, "bike_id": "a4e453d89601d8beda35f696d3e96270", "lat": 38.919501, "name": "a4e453d89601d8beda35f696d3e96270", "lon": -77.07979833333333, "fusion_lon": 0.0}, {"is_reserved": 0, "type": "electric_scooter", "fusion_lat": 0.0, "is_disabled": 0, "rental_uris": {"ios": "https://dc.lft.to/lastmile_qr_scan", "android": "https://dc.lft.to/lastmile_qr_scan"}, "bike_id": "4269219235a42abac58e062903b196e2", "lat": 38.935732, "name": "4269219235a42abac58e062903b196e2", "lon": -77.02462866666667, "fusion_lon": 0.0}, {"is_reserved": 0, "type": "electric_scooter", "fusion_lat": 0.0, "is_disabled": 0, "rental_uris": {"ios": "https://dc.lft.to/lastmile_qr_scan", "android": "https://dc.lft.to/lastmile_qr_scan"}, "bike_id": "f05a7dde08055a50765266ee5a244580", "lat": 38.887108, "name": "f05a7dde08055a50765266ee5a244580", "lon": -76.983393, "fusion_lon": 0.0}, {"is_reserved": 0, "type": "electric_scooter", "fusion_lat": 0.0, "is_disabled": 0, "rental_uris": {"ios": "https://dc.lft.to/lastmile_qr_scan", "android": "https://dc.lft.to/lastmile_qr_scan"}, "bike_id": "174f780ef9ab69df6d3cde1d638bc27a", "lat": 38.932264833333335, "name": "174f780ef9ab69df6d3cde1d638bc27a", "lon": -77.0296195, "fusion_lon": 0.0}, {"is_reserved": 0, "type": "electric_scooter", "fusion_lat": 0.0, "is_disabled": 0, "rental_uris": {"ios": "https://dc.lft.to/lastmile_qr_scan", "android": "https://dc.lft.to/lastmile_qr_scan"}, "bike_id": "7df40b94c492c3198ff683d8eae8d909", "lat": 38.924709166666666, "name": "7df40b94c492c3198ff683d8eae8d909", "lon": -77.02220283333334, "fusion_lon": 0.0}, {"is_reserved": 0, "type": "electric_bike", "fusion_lat": 0.0, "is_disabled": 0, "rental_uris": {"ios": "https://dc.lft.to/lastmile_qr_scan", "android": "https://dc.lft.to/lastmile_qr_scan"}, "bike_id": "3d5075b187a475d191b67b633bec8875", "lat": 38.84617816666667, "name": "3d5075b187a475d191b67b633bec8875", "lon": -76.97835966666666, "fusion_lon": 0.0}, {"is_reserved": 0, "type": "electric_scooter", "fusion_lat": 0.0, "is_disabled": 0, "rental_uris": {"ios": "https://dc.lft.to/lastmile_qr_scan", "android": "https://dc.lft.to/lastmile_qr_scan"}, "bike_id": "29a54d67c0a422c4cc319dd37f871aaf", "lat": 38.90862883333333, "name": "29a54d67c0a422c4cc319dd37f871aaf", "lon": -77.02666383333333, "fusion_lon": 0.0}, {"is_reserved": 0, "type": "electric_scooter", "fusion_lat": 0.0, "is_disabled": 0, "rental_uris": {"ios": "https://dc.lft.to/lastmile_qr_scan", "android": "https://dc.lft.to/lastmile_qr_scan"}, "bike_id": "d378c8b400acfeb93b13c3f5be4152a3", "lat": 38.91107233333334, "name": "d378c8b400acfeb93b13c3f5be4152a3", "lon": -77.00377833333333, "fusion_lon": 0.0}, {"is_reserved": 0, "type": "electric_scooter", "fusion_lat": 0.0, "is_disabled": 0, "rental_uris": {"ios": "https://dc.lft.to/lastmile_qr_scan", "android": "https://dc.lft.to/lastmile_qr_scan"}, "bike_id": "1202a368d9779bc68378c07a115acd11", "lat": 38.89376516666667, "name": "1202a368d9779bc68378c07a115acd11", "lon": -77.02067283333334, "fusion_lon": 0.0}, {"is_reserved": 0, "type": "electric_scooter", "fusion_lat": 0.0, "is_disabled": 0, "rental_uris": {"ios": "https://dc.lft.to/lastmile_qr_scan", "android": "https://dc.lft.to/lastmile_qr_scan"}, "bike_id": "b1fa211da285715c680ca26c73ab1de7", "lat": 38.92907566666667, "name": "b1fa211da285715c680ca26c73ab1de7", "lon": -77.02089083333334, "fusion_lon": 0.0}, {"is_reserved": 0, "type": "electric_scooter", "fusion_lat": 0.0, "is_disabled": 0, "rental_uris": {"ios": "https://dc.lft.to/lastmile_qr_scan", "android": "https://dc.lft.to/lastmile_qr_scan"}, "bike_id": "63cca74227428689cc1d8c664ac164c5", "lat": 38.85559766666667, "name": "63cca74227428689cc1d8c664ac164c5", "lon": -76.99078066666667, "fusion_lon": 0.0}, {"is_reserved": 0, "type": "electric_scooter", "fusion_lat": 0.0, "is_disabled": 0, "rental_uris": {"ios": "https://dc.lft.to/lastmile_qr_scan", "android": "https://dc.lft.to/lastmile_qr_scan"}, "bike_id": "19c9470358aae8d5f52e0db547fcfdde", "lat": 38.93117083333333, "name": "19c9470358aae8d5f52e0db547fcfdde", "lon": -77.02097816666667, "fusion_lon": 0.0}, {"is_reserved": 0, "type": "electric_scooter", "fusion_lat": 0.0, "is_disabled": 0, "rental_uris": {"ios": "https://dc.lft.to/lastmile_qr_scan", "android": "https://dc.lft.to/lastmile_qr_scan"}, "bike_id": "ac0df4d05568c7a3aeb11b756aae233d", "lat": 38.9178555, "name": "ac0df4d05568c7a3aeb11b756aae233d", "lon": -77.02310066666666, "fusion_lon": 0.0}, {"is_reserved": 0, "type": "electric_scooter", "fusion_lat": 0.0, "is_disabled": 0, "rental_uris": {"ios": "https://dc.lft.to/lastmile_qr_scan", "android": "https://dc.lft.to/lastmile_qr_scan"}, "bike_id": "8f3a21614a11f1b9f53df6b2817a99da", "lat": 38.88228566666667, "name": "8f3a21614a11f1b9f53df6b2817a99da", "lon": -76.9334135, "fusion_lon": 0.0}, {"is_reserved": 0, "type": "electric_scooter", "fusion_lat": 0.0, "is_disabled": 0, "rental_uris": {"ios": "https://dc.lft.to/lastmile_qr_scan", "android": "https://dc.lft.to/lastmile_qr_scan"}, "bike_id": "66101a7fbe1f0f7185decb9f53231c50", "lat": 38.936051666666664, "name": "66101a7fbe1f0f7185decb9f53231c50", "lon": -77.0241595, "fusion_lon": 0.0}, {"is_reserved": 0, "type": "electric_scooter", "fusion_lat": 0.0, "is_disabled": 0, "rental_uris": {"ios": "https://dc.lft.to/lastmile_qr_scan", "android": "https://dc.lft.to/lastmile_qr_scan"}, "bike_id": "aaadec0b324ad0e470915bff53137660", "lat": 38.90332433333333, "name": "aaadec0b324ad0e470915bff53137660", "lon": -77.02602916666666, "fusion_lon": 0.0}, {"is_reserved": 0, "type": "electric_scooter", "fusion_lat": 0.0, "is_disabled": 0, "rental_uris": {"ios": "https://dc.lft.to/lastmile_qr_scan", "android": "https://dc.lft.to/lastmile_qr_scan"}, "bike_id": "b7b05f8b9e5573d1fb8469f7e335f44f", "lat": 38.91188316666667, "name": "b7b05f8b9e5573d1fb8469f7e335f44f", "lon": -77.06085083333333, "fusion_lon": 0.0}, {"is_reserved": 0, "type": "electric_scooter", "fusion_lat": 0.0, "is_disabled": 0, "rental_uris": {"ios": "https://dc.lft.to/lastmile_qr_scan", "android": "https://dc.lft.to/lastmile_qr_scan"}, "bike_id": "a1d4fa5e9a43c630eead2b5a140542b1", "lat": 38.94716733333333, "name": "a1d4fa5e9a43c630eead2b5a140542b1", "lon": -77.06807, "fusion_lon": 0.0}, {"is_reserved": 0, "type": "electric_bike", "fusion_lat": 0.0, "is_disabled": 0, "rental_uris": {"ios": "https://dc.lft.to/lastmile_qr_scan", "android": "https://dc.lft.to/lastmile_qr_scan"}, "bike_id": "c8f187d0202390d670aec51def233236", "lat": 38.906925333333334, "name": "c8f187d0202390d670aec51def233236", "lon": -76.95255966666667, "fusion_lon": 0.0}, {"is_reserved": 0, "type": "electric_scooter", "fusion_lat": 0.0, "is_disabled": 0, "rental_uris": {"ios": "https://dc.lft.to/lastmile_qr_scan", "android": "https://dc.lft.to/lastmile_qr_scan"}, "bike_id": "7bbec2a7b50aa4b7f194e501466b3646", "lat": 38.8973765, "name": "7bbec2a7b50aa4b7f194e501466b3646", "lon": -77.02553383333333, "fusion_lon": 0.0}, {"is_reserved": 0, "type": "electric_scooter", "fusion_lat": 0.0, "is_disabled": 0, "rental_uris": {"ios": "https://dc.lft.to/lastmile_qr_scan", "android": "https://dc.lft.to/lastmile_qr_scan"}, "bike_id": "778a0131f15085dffa4c05a84df0e391", "lat": 38.9426365, "name": "778a0131f15085dffa4c05a84df0e391", "lon": -76.98472783333334, "fusion_lon": 0.0}, {"is_reserved": 0, "type": "electric_scooter", "fusion_lat": 0.0, "is_disabled": 0, "rental_uris": {"ios": "https://dc.lft.to/lastmile_qr_scan", "android": "https://dc.lft.to/lastmile_qr_scan"}, "bike_id": "3194c1e077448db85233842703354dc9", "lat": 38.895338, "name": "3194c1e077448db85233842703354dc9", "lon": -76.98835966666667, "fusion_lon": 0.0}, {"is_reserved": 0, "type": "electric_scooter", "fusion_lat": 0.0, "is_disabled": 0, "rental_uris": {"ios": "https://dc.lft.to/lastmile_qr_scan", "android": "https://dc.lft.to/lastmile_qr_scan"}, "bike_id": "b390490cb15b6ee005806f7f67f2b34f", "lat": 38.883604166666665, "name": "b390490cb15b6ee005806f7f67f2b34f", "lon": -76.95769616666666, "fusion_lon": 0.0}, {"is_reserved": 0, "type": "electric_scooter", "fusion_lat": 0.0, "is_disabled": 0, "rental_uris": {"ios": "https://dc.lft.to/lastmile_qr_scan", "android": "https://dc.lft.to/lastmile_qr_scan"}, "bike_id": "b147e48953708a4fe8e3d922d8bee49f", "lat": 38.89659916666667, "name": "b147e48953708a4fe8e3d922d8bee49f", "lon": -77.05126733333333, "fusion_lon": 0.0}, {"is_reserved": 0, "type": "electric_scooter", "fusion_lat": 0.0, "is_disabled": 0, "rental_uris": {"ios": "https://dc.lft.to/lastmile_qr_scan", "android": "https://dc.lft.to/lastmile_qr_scan"}, "bike_id": "100193b231da3f116956fa61075b998d", "lat": 38.90506216666667, "name": "100193b231da3f116956fa61075b998d", "lon": -77.04328366666667, "fusion_lon": 0.0}, {"is_reserved": 0, "type": "electric_scooter", "fusion_lat": 0.0, "is_disabled": 0, "rental_uris": {"ios": "https://dc.lft.to/lastmile_qr_scan", "android": "https://dc.lft.to/lastmile_qr_scan"}, "bike_id": "b2bd244b7a2c75a2d8271e2e2e7f008d", "lat": 38.873738333333336, "name": "b2bd244b7a2c75a2d8271e2e2e7f008d", "lon": -77.00125383333334, "fusion_lon": 0.0}, {"is_reserved": 0, "type": "electric_scooter", "fusion_lat": 0.0, "is_disabled": 0, "rental_uris": {"ios": "https://dc.lft.to/lastmile_qr_scan", "android": "https://dc.lft.to/lastmile_qr_scan"}, "bike_id": "69d51cb90d85ff7df1fda3930891508f", "lat": 38.933787333333335, "name": "69d51cb90d85ff7df1fda3930891508f", "lon": -77.072499, "fusion_lon": 0.0}, {"is_reserved": 0, "type": "electric_scooter", "fusion_lat": 0.0, "is_disabled": 0, "rental_uris": {"ios": "https://dc.lft.to/lastmile_qr_scan", "android": "https://dc.lft.to/lastmile_qr_scan"}, "bike_id": "1ffb7ad17a7ed601533c03d203c39492", "lat": 38.9446275, "name": "1ffb7ad17a7ed601533c03d203c39492", "lon": -77.00658166666666, "fusion_lon": 0.0}, {"is_reserved": 0, "type": "electric_scooter", "fusion_lat": 0.0, "is_disabled": 0, "rental_uris": {"ios": "https://dc.lft.to/lastmile_qr_scan", "android": "https://dc.lft.to/lastmile_qr_scan"}, "bike_id": "fd1d8759e578398d24d66e785a1bac24", "lat": 38.920533166666665, "name": "fd1d8759e578398d24d66e785a1bac24", "lon": -77.0339755, "fusion_lon": 0.0}, {"is_reserved": 0, "type": "electric_scooter", "fusion_lat": 0.0, "is_disabled": 0, "rental_uris": {"ios": "https://dc.lft.to/lastmile_qr_scan", "android": "https://dc.lft.to/lastmile_qr_scan"}, "bike_id": "f8489eb1fc6f1eb166f8199977f1640c", "lat": 38.912156, "name": "f8489eb1fc6f1eb166f8199977f1640c", "lon": -77.00661766666667, "fusion_lon": 0.0}, {"is_reserved": 0, "type": "electric_scooter", "fusion_lat": 0.0, "is_disabled": 0, "rental_uris": {"ios": "https://dc.lft.to/lastmile_qr_scan", "android": "https://dc.lft.to/lastmile_qr_scan"}, "bike_id": "c0f4abf85c9cb59a76583f91197db514", "lat": 38.902697833333335, "name": "c0f4abf85c9cb59a76583f91197db514", "lon": -76.9898, "fusion_lon": 0.0}, {"is_reserved": 0, "type": "electric_scooter", "fusion_lat": 0.0, "is_disabled": 0, "rental_uris": {"ios": "https://dc.lft.to/lastmile_qr_scan", "android": "https://dc.lft.to/lastmile_qr_scan"}, "bike_id": "64569b054d83927ba9492efeccc73f78", "lat": 38.90780733333333, "name": "64569b054d83927ba9492efeccc73f78", "lon": -77.07255383333333, "fusion_lon": 0.0}, {"is_reserved": 0, "type": "electric_scooter", "fusion_lat": 0.0, "is_disabled": 0, "rental_uris": {"ios": "https://dc.lft.to/lastmile_qr_scan", "android": "https://dc.lft.to/lastmile_qr_scan"}, "bike_id": "acd42287e949bf04bd3db33889d919c9", "lat": 38.9154765, "name": "acd42287e949bf04bd3db33889d919c9", "lon": -77.0296995, "fusion_lon": 0.0}, {"is_reserved": 0, "type": "electric_scooter", "fusion_lat": 0.0, "is_disabled": 0, "rental_uris": {"ios": "https://dc.lft.to/lastmile_qr_scan", "android": "https://dc.lft.to/lastmile_qr_scan"}, "bike_id": "1444890de22d31f4e4d29e0989870035", "lat": 38.89227733333333, "name": "1444890de22d31f4e4d29e0989870035", "lon": -77.0448555, "fusion_lon": 0.0}, {"is_reserved": 0, "type": "electric_scooter", "fusion_lat": 0.0, "is_disabled": 0, "rental_uris": {"ios": "https://dc.lft.to/lastmile_qr_scan", "android": "https://dc.lft.to/lastmile_qr_scan"}, "bike_id": "b96ab51e284f4c4cb7124637af7ab209", "lat": 38.919533, "name": "b96ab51e284f4c4cb7124637af7ab209", "lon": -77.0230675, "fusion_lon": 0.0}, {"is_reserved": 0, "type": "electric_scooter", "fusion_lat": 0.0, "is_disabled": 0, "rental_uris": {"ios": "https://dc.lft.to/lastmile_qr_scan", "android": "https://dc.lft.to/lastmile_qr_scan"}, "bike_id": "fe6d2c902b14c26bdecf498414cb8325", "lat": 38.91935083333333, "name": "fe6d2c902b14c26bdecf498414cb8325", "lon": -77.03199966666666, "fusion_lon": 0.0}, {"is_reserved": 0, "type": "electric_scooter", "fusion_lat": 0.0, "is_disabled": 0, "rental_uris": {"ios": "https://dc.lft.to/lastmile_qr_scan", "android": "https://dc.lft.to/lastmile_qr_scan"}, "bike_id": "5e8285e0447ab7cf2b73d0d72415b7ff", "lat": 38.912362333333334, "name": "5e8285e0447ab7cf2b73d0d72415b7ff", "lon": -77.038612, "fusion_lon": 0.0}, {"is_reserved": 0, "type": "electric_scooter", "fusion_lat": 0.0, "is_disabled": 0, "rental_uris": {"ios": "https://dc.lft.to/lastmile_qr_scan", "android": "https://dc.lft.to/lastmile_qr_scan"}, "bike_id": "74c4d9c31130a70f2bd494a2a4e74035", "lat": 38.951526, "name": "74c4d9c31130a70f2bd494a2a4e74035", "lon": -77.0186675, "fusion_lon": 0.0}, {"is_reserved": 0, "type": "electric_scooter", "fusion_lat": 0.0, "is_disabled": 0, "rental_uris": {"ios": "https://dc.lft.to/lastmile_qr_scan", "android": "https://dc.lft.to/lastmile_qr_scan"}, "bike_id": "a2dc1c5e2f70d9d8dc4dec7e4a9aa41e", "lat": 38.917703, "name": "a2dc1c5e2f70d9d8dc4dec7e4a9aa41e", "lon": -77.0475265, "fusion_lon": 0.0}, {"is_reserved": 0, "type": "electric_scooter", "fusion_lat": 0.0, "is_disabled": 0, "rental_uris": {"ios": "https://dc.lft.to/lastmile_qr_scan", "android": "https://dc.lft.to/lastmile_qr_scan"}, "bike_id": "bfe9c8839c51dab0bfeff2dd825e104b", "lat": 38.907563333333336, "name": "bfe9c8839c51dab0bfeff2dd825e104b", "lon": -77.019025, "fusion_lon": 0.0}, {"is_reserved": 0, "type": "electric_scooter", "fusion_lat": 0.0, "is_disabled": 0, "rental_uris": {"ios": "https://dc.lft.to/lastmile_qr_scan", "android": "https://dc.lft.to/lastmile_qr_scan"}, "bike_id": "e6d0701810ccdb3b7786290c6e7bfdaa", "lat": 38.90373683333333, "name": "e6d0701810ccdb3b7786290c6e7bfdaa", "lon": -77.00988933333333, "fusion_lon": 0.0}, {"is_reserved": 0, "type": "electric_scooter", "fusion_lat": 0.0, "is_disabled": 0, "rental_uris": {"ios": "https://dc.lft.to/lastmile_qr_scan", "android": "https://dc.lft.to/lastmile_qr_scan"}, "bike_id": "5d0a19906c53c777496d1de253a34cb5", "lat": 38.917204, "name": "5d0a19906c53c777496d1de253a34cb5", "lon": -77.03461483333334, "fusion_lon": 0.0}, {"is_reserved": 0, "type": "electric_scooter", "fusion_lat": 0.0, "is_disabled": 0, "rental_uris": {"ios": "https://dc.lft.to/lastmile_qr_scan", "android": "https://dc.lft.to/lastmile_qr_scan"}, "bike_id": "7ac33cad449a5448b85ecfd5ab827e80", "lat": 38.902705166666664, "name": "7ac33cad449a5448b85ecfd5ab827e80", "lon": -77.02006883333334, "fusion_lon": 0.0}, {"is_reserved": 0, "type": "electric_scooter", "fusion_lat": 0.0, "is_disabled": 0, "rental_uris": {"ios": "https://dc.lft.to/lastmile_qr_scan", "android": "https://dc.lft.to/lastmile_qr_scan"}, "bike_id": "f2a3115f113114dbf325915ebf7d715b", "lat": 38.905712333333334, "name": "f2a3115f113114dbf325915ebf7d715b", "lon": -77.02988933333333, "fusion_lon": 0.0}, {"is_reserved": 0, "type": "electric_scooter", "fusion_lat": 0.0, "is_disabled": 0, "rental_uris": {"ios": "https://dc.lft.to/lastmile_qr_scan", "android": "https://dc.lft.to/lastmile_qr_scan"}, "bike_id": "44dafdda1f8fb4e91d33761c0b2bf995", "lat": 38.902799, "name": "44dafdda1f8fb4e91d33761c0b2bf995", "lon": -77.041736, "fusion_lon": 0.0}, {"is_reserved": 0, "type": "electric_scooter", "fusion_lat": 0.0, "is_disabled": 0, "rental_uris": {"ios": "https://dc.lft.to/lastmile_qr_scan", "android": "https://dc.lft.to/lastmile_qr_scan"}, "bike_id": "b7cf1acb94ece42a138cc39ca1e99087", "lat": 38.9136525, "name": "b7cf1acb94ece42a138cc39ca1e99087", "lon": -77.0449485, "fusion_lon": 0.0}, {"is_reserved": 0, "type": "electric_scooter", "fusion_lat": 0.0, "is_disabled": 0, "rental_uris": {"ios": "https://dc.lft.to/lastmile_qr_scan", "android": "https://dc.lft.to/lastmile_qr_scan"}, "bike_id": "d1f5504e987d4f97ae49a32596941835", "lat": 38.928724833333334, "name": "d1f5504e987d4f97ae49a32596941835", "lon": -77.03991583333334, "fusion_lon": 0.0}, {"is_reserved": 0, "type": "electric_bike", "fusion_lat": 0.0, "is_disabled": 0, "rental_uris": {"ios": "https://dc.lft.to/lastmile_qr_scan", "android": "https://dc.lft.to/lastmile_qr_scan"}, "bike_id": "17bfce984fa0a384e7d544d0454a9d9a", "lat": 38.8681795, "name": "17bfce984fa0a384e7d544d0454a9d9a", "lon": -76.98018266666666, "fusion_lon": 0.0}, {"is_reserved": 0, "type": "electric_scooter", "fusion_lat": 0.0, "is_disabled": 0, "rental_uris": {"ios": "https://dc.lft.to/lastmile_qr_scan", "android": "https://dc.lft.to/lastmile_qr_scan"}, "bike_id": "8eac2a91b38fd41e86ee786cdbd29253", "lat": 38.89314516666666, "name": "8eac2a91b38fd41e86ee786cdbd29253", "lon": -77.01982766666667, "fusion_lon": 0.0}, {"is_reserved": 0, "type": "electric_scooter", "fusion_lat": 0.0, "is_disabled": 0, "rental_uris": {"ios": "https://dc.lft.to/lastmile_qr_scan", "android": "https://dc.lft.to/lastmile_qr_scan"}, "bike_id": "d22f624917b524049cc285ac82426c11", "lat": 38.904739666666664, "name": "d22f624917b524049cc285ac82426c11", "lon": -77.0271395, "fusion_lon": 0.0}, {"is_reserved": 0, "type": "electric_scooter", "fusion_lat": 0.0, "is_disabled": 0, "rental_uris": {"ios": "https://dc.lft.to/lastmile_qr_scan", "android": "https://dc.lft.to/lastmile_qr_scan"}, "bike_id": "6dd318f1f3833640173f8fdd59e1a17d", "lat": 38.944494166666665, "name": "6dd318f1f3833640173f8fdd59e1a17d", "lon": -77.0328655, "fusion_lon": 0.0}, {"is_reserved": 0, "type": "electric_scooter", "fusion_lat": 0.0, "is_disabled": 0, "rental_uris": {"ios": "https://dc.lft.to/lastmile_qr_scan", "android": "https://dc.lft.to/lastmile_qr_scan"}, "bike_id": "75bb7498951cc6bff5569ba97db4b7c3", "lat": 38.912686666666666, "name": "75bb7498951cc6bff5569ba97db4b7c3", "lon": -77.014354, "fusion_lon": 0.0}, {"is_reserved": 0, "type": "electric_scooter", "fusion_lat": 0.0, "is_disabled": 0, "rental_uris": {"ios": "https://dc.lft.to/lastmile_qr_scan", "android": "https://dc.lft.to/lastmile_qr_scan"}, "bike_id": "80a73a4f44e267f76158467d1a27d281", "lat": 38.877122, "name": "80a73a4f44e267f76158467d1a27d281", "lon": -77.005578, "fusion_lon": 0.0}, {"is_reserved": 0, "type": "electric_scooter", "fusion_lat": 0.0, "is_disabled": 0, "rental_uris": {"ios": "https://dc.lft.to/lastmile_qr_scan", "android": "https://dc.lft.to/lastmile_qr_scan"}, "bike_id": "2a38f055f0231618cc276071ef5f286b", "lat": 38.93192766666667, "name": "2a38f055f0231618cc276071ef5f286b", "lon": -77.03263433333333, "fusion_lon": 0.0}, {"is_reserved": 0, "type": "electric_scooter", "fusion_lat": 0.0, "is_disabled": 0, "rental_uris": {"ios": "https://dc.lft.to/lastmile_qr_scan", "android": "https://dc.lft.to/lastmile_qr_scan"}, "bike_id": "95159c0a13a1e7ae3cc248ae73b676ee", "lat": 38.922921, "name": "95159c0a13a1e7ae3cc248ae73b676ee", "lon": -77.0207445, "fusion_lon": 0.0}, {"is_reserved": 0, "type": "electric_bike", "fusion_lat": 0.0, "is_disabled": 0, "rental_uris": {"ios": "https://dc.lft.to/lastmile_qr_scan", "android": "https://dc.lft.to/lastmile_qr_scan"}, "bike_id": "705e876990106c7a11afd4ce17f7e9b8", "lat": 38.961243, "name": "705e876990106c7a11afd4ce17f7e9b8", "lon": -77.03275783333333, "fusion_lon": 0.0}, {"is_reserved": 0, "type": "electric_scooter", "fusion_lat": 0.0, "is_disabled": 0, "rental_uris": {"ios": "https://dc.lft.to/lastmile_qr_scan", "android": "https://dc.lft.to/lastmile_qr_scan"}, "bike_id": "8e28c23252dc974b2941af9273bfe07b", "lat": 38.913383, "name": "8e28c23252dc974b2941af9273bfe07b", "lon": -77.010663, "fusion_lon": 0.0}, {"is_reserved": 0, "type": "electric_scooter", "fusion_lat": 0.0, "is_disabled": 0, "rental_uris": {"ios": "https://dc.lft.to/lastmile_qr_scan", "android": "https://dc.lft.to/lastmile_qr_scan"}, "bike_id": "ca68f3de7037bd283f0da28b36d33152", "lat": 38.91562666666667, "name": "ca68f3de7037bd283f0da28b36d33152", "lon": -77.03169466666667, "fusion_lon": 0.0}, {"is_reserved": 0, "type": "electric_scooter", "fusion_lat": 0.0, "is_disabled": 0, "rental_uris": {"ios": "https://dc.lft.to/lastmile_qr_scan", "android": "https://dc.lft.to/lastmile_qr_scan"}, "bike_id": "385774152d3fade7f330cd92789c55e6", "lat": 38.946793, "name": "385774152d3fade7f330cd92789c55e6", "lon": -77.03279283333333, "fusion_lon": 0.0}, {"is_reserved": 0, "type": "electric_bike", "fusion_lat": 0.0, "is_disabled": 0, "rental_uris": {"ios": "https://dc.lft.to/lastmile_qr_scan", "android": "https://dc.lft.to/lastmile_qr_scan"}, "bike_id": "97ec2f6da478ec26738c469da872a234", "lat": 38.81328666666667, "name": "97ec2f6da478ec26738c469da872a234", "lon": -77.05092866666666, "fusion_lon": 0.0}, {"is_reserved": 0, "type": "electric_scooter", "fusion_lat": 0.0, "is_disabled": 0, "rental_uris": {"ios": "https://dc.lft.to/lastmile_qr_scan", "android": "https://dc.lft.to/lastmile_qr_scan"}, "bike_id": "718473711b27ce42e0f73a7d4c59d61a", "lat": 38.939026, "name": "718473711b27ce42e0f73a7d4c59d61a", "lon": -77.03286133333333, "fusion_lon": 0.0}, {"is_reserved": 0, "type": "electric_scooter", "fusion_lat": 0.0, "is_disabled": 0, "rental_uris": {"ios": "https://dc.lft.to/lastmile_qr_scan", "android": "https://dc.lft.to/lastmile_qr_scan"}, "bike_id": "f25613d2b1a0d23b417b403fce7df3ed", "lat": 38.89532166666667, "name": "f25613d2b1a0d23b417b403fce7df3ed", "lon": -76.94888866666666, "fusion_lon": 0.0}, {"is_reserved": 0, "type": "electric_scooter", "fusion_lat": 0.0, "is_disabled": 0, "rental_uris": {"ios": "https://dc.lft.to/lastmile_qr_scan", "android": "https://dc.lft.to/lastmile_qr_scan"}, "bike_id": "0ac7f7a3d182d3cbbda0a1e6e3f194a8", "lat": 38.909025, "name": "0ac7f7a3d182d3cbbda0a1e6e3f194a8", "lon": -77.00301366666666, "fusion_lon": 0.0}, {"is_reserved": 0, "type": "electric_scooter", "fusion_lat": 0.0, "is_disabled": 0, "rental_uris": {"ios": "https://dc.lft.to/lastmile_qr_scan", "android": "https://dc.lft.to/lastmile_qr_scan"}, "bike_id": "d047660874bbd2c402178fffc0f791cf", "lat": 38.91830366666667, "name": "d047660874bbd2c402178fffc0f791cf", "lon": -77.02709833333333, "fusion_lon": 0.0}, {"is_reserved": 0, "type": "electric_bike", "fusion_lat": 0.0, "is_disabled": 0, "rental_uris": {"ios": "https://dc.lft.to/lastmile_qr_scan", "android": "https://dc.lft.to/lastmile_qr_scan"}, "bike_id": "ff4634037b2603d06ddfc9a90b23c18e", "lat": 38.92271933333333, "name": "ff4634037b2603d06ddfc9a90b23c18e", "lon": -76.997595, "fusion_lon": 0.0}, {"is_reserved": 0, "type": "electric_scooter", "fusion_lat": 0.0, "is_disabled": 0, "rental_uris": {"ios": "https://dc.lft.to/lastmile_qr_scan", "android": "https://dc.lft.to/lastmile_qr_scan"}, "bike_id": "1ebf12e506c980df73c6448197868d05", "lat": 38.89525583333333, "name": "1ebf12e506c980df73c6448197868d05", "lon": -76.9773105, "fusion_lon": 0.0}, {"is_reserved": 0, "type": "electric_scooter", "fusion_lat": 0.0, "is_disabled": 0, "rental_uris": {"ios": "https://dc.lft.to/lastmile_qr_scan", "android": "https://dc.lft.to/lastmile_qr_scan"}, "bike_id": "0a9f7a3a852826bc451f108acb376b95", "lat": 38.9234155, "name": "0a9f7a3a852826bc451f108acb376b95", "lon": -77.035265, "fusion_lon": 0.0}, {"is_reserved": 0, "type": "electric_scooter", "fusion_lat": 0.0, "is_disabled": 0, "rental_uris": {"ios": "https://dc.lft.to/lastmile_qr_scan", "android": "https://dc.lft.to/lastmile_qr_scan"}, "bike_id": "4d0e51bb1b219d59a63c80684897edaf", "lat": 38.88107266666667, "name": "4d0e51bb1b219d59a63c80684897edaf", "lon": -77.02634233333333, "fusion_lon": 0.0}, {"is_reserved": 0, "type": "electric_scooter", "fusion_lat": 0.0, "is_disabled": 0, "rental_uris": {"ios": "https://dc.lft.to/lastmile_qr_scan", "android": "https://dc.lft.to/lastmile_qr_scan"}, "bike_id": "4ae920e1a707727929bd06f547260ad3", "lat": 38.899792833333336, "name": "4ae920e1a707727929bd06f547260ad3", "lon": -77.041907, "fusion_lon": 0.0}, {"is_reserved": 0, "type": "electric_scooter", "fusion_lat": 0.0, "is_disabled": 0, "rental_uris": {"ios": "https://dc.lft.to/lastmile_qr_scan", "android": "https://dc.lft.to/lastmile_qr_scan"}, "bike_id": "cd46a71ef9191261125891bb7e2b5f00", "lat": 38.903861166666665, "name": "cd46a71ef9191261125891bb7e2b5f00", "lon": -77.05136183333333, "fusion_lon": 0.0}, {"is_reserved": 0, "type": "electric_scooter", "fusion_lat": 0.0, "is_disabled": 0, "rental_uris": {"ios": "https://dc.lft.to/lastmile_qr_scan", "android": "https://dc.lft.to/lastmile_qr_scan"}, "bike_id": "76054d8f6d13ff8aad2fff8d7ecf29bd", "lat": 38.9105015, "name": "76054d8f6d13ff8aad2fff8d7ecf29bd", "lon": -76.997932, "fusion_lon": 0.0}, {"is_reserved": 0, "type": "electric_scooter", "fusion_lat": 0.0, "is_disabled": 0, "rental_uris": {"ios": "https://dc.lft.to/lastmile_qr_scan", "android": "https://dc.lft.to/lastmile_qr_scan"}, "bike_id": "a52a278835922227659916d3009eeb01", "lat": 38.918434833333336, "name": "a52a278835922227659916d3009eeb01", "lon": -77.045377, "fusion_lon": 0.0}, {"is_reserved": 0, "type": "electric_scooter", "fusion_lat": 0.0, "is_disabled": 0, "rental_uris": {"ios": "https://dc.lft.to/lastmile_qr_scan", "android": "https://dc.lft.to/lastmile_qr_scan"}, "bike_id": "1dfc89d8d2a19cbfb4b5356f97f4a7c5", "lat": 38.911060166666665, "name": "1dfc89d8d2a19cbfb4b5356f97f4a7c5", "lon": -77.0110025, "fusion_lon": 0.0}, {"is_reserved": 0, "type": "electric_scooter", "fusion_lat": 0.0, "is_disabled": 0, "rental_uris": {"ios": "https://dc.lft.to/lastmile_qr_scan", "android": "https://dc.lft.to/lastmile_qr_scan"}, "bike_id": "abd9dc30bc6ba73bb8893b357409e6d4", "lat": 38.92332283333333, "name": "abd9dc30bc6ba73bb8893b357409e6d4", "lon": -77.00892833333333, "fusion_lon": 0.0}, {"is_reserved": 0, "type": "electric_scooter", "fusion_lat": 0.0, "is_disabled": 0, "rental_uris": {"ios": "https://dc.lft.to/lastmile_qr_scan", "android": "https://dc.lft.to/lastmile_qr_scan"}, "bike_id": "2e062809d378f174cd5eac619c7a4b91", "lat": 38.9026275, "name": "2e062809d378f174cd5eac619c7a4b91", "lon": -77.02647866666666, "fusion_lon": 0.0}, {"is_reserved": 0, "type": "electric_scooter", "fusion_lat": 0.0, "is_disabled": 0, "rental_uris": {"ios": "https://dc.lft.to/lastmile_qr_scan", "android": "https://dc.lft.to/lastmile_qr_scan"}, "bike_id": "eaa7d4cc62d2433f0f5dac291d07cf8b", "lat": 38.902679666666664, "name": "eaa7d4cc62d2433f0f5dac291d07cf8b", "lon": -77.03963066666667, "fusion_lon": 0.0}, {"is_reserved": 0, "type": "electric_scooter", "fusion_lat": 0.0, "is_disabled": 0, "rental_uris": {"ios": "https://dc.lft.to/lastmile_qr_scan", "android": "https://dc.lft.to/lastmile_qr_scan"}, "bike_id": "6cb58bdf27ee7bda11eb65f2ca3da33e", "lat": 38.909513, "name": "6cb58bdf27ee7bda11eb65f2ca3da33e", "lon": -77.04649983333333, "fusion_lon": 0.0}, {"is_reserved": 0, "type": "electric_scooter", "fusion_lat": 0.0, "is_disabled": 0, "rental_uris": {"ios": "https://dc.lft.to/lastmile_qr_scan", "android": "https://dc.lft.to/lastmile_qr_scan"}, "bike_id": "c26fdf0222411a1725c73fb13ec39ec8", "lat": 38.92171033333333, "name": "c26fdf0222411a1725c73fb13ec39ec8", "lon": -77.0411855, "fusion_lon": 0.0}, {"is_reserved": 0, "type": "electric_scooter", "fusion_lat": 0.0, "is_disabled": 0, "rental_uris": {"ios": "https://dc.lft.to/lastmile_qr_scan", "android": "https://dc.lft.to/lastmile_qr_scan"}, "bike_id": "f1265122ee8b8d4d3ea58864717af707", "lat": 38.919879, "name": "f1265122ee8b8d4d3ea58864717af707", "lon": -77.04158966666667, "fusion_lon": 0.0}, {"is_reserved": 0, "type": "electric_scooter", "fusion_lat": 0.0, "is_disabled": 0, "rental_uris": {"ios": "https://dc.lft.to/lastmile_qr_scan", "android": "https://dc.lft.to/lastmile_qr_scan"}, "bike_id": "b07bf572f96e969f6e19e99a95c4d4d2", "lat": 38.93100033333333, "name": "b07bf572f96e969f6e19e99a95c4d4d2", "lon": -77.0247845, "fusion_lon": 0.0}, {"is_reserved": 0, "type": "electric_scooter", "fusion_lat": 0.0, "is_disabled": 0, "rental_uris": {"ios": "https://dc.lft.to/lastmile_qr_scan", "android": "https://dc.lft.to/lastmile_qr_scan"}, "bike_id": "5ea011815c8d9de618e5251c6c9fa6dd", "lat": 38.88371716666666, "name": "5ea011815c8d9de618e5251c6c9fa6dd", "lon": -76.995178, "fusion_lon": 0.0}, {"is_reserved": 0, "type": "electric_scooter", "fusion_lat": 0.0, "is_disabled": 0, "rental_uris": {"ios": "https://dc.lft.to/lastmile_qr_scan", "android": "https://dc.lft.to/lastmile_qr_scan"}, "bike_id": "9d165143fd5d8c4a05ad0b8d91e5c959", "lat": 38.899789, "name": "9d165143fd5d8c4a05ad0b8d91e5c959", "lon": -77.04191883333333, "fusion_lon": 0.0}, {"is_reserved": 0, "type": "electric_scooter", "fusion_lat": 0.0, "is_disabled": 0, "rental_uris": {"ios": "https://dc.lft.to/lastmile_qr_scan", "android": "https://dc.lft.to/lastmile_qr_scan"}, "bike_id": "18b05571511cd15ae42876caf3424816", "lat": 38.905919833333336, "name": "18b05571511cd15ae42876caf3424816", "lon": -77.043909, "fusion_lon": 0.0}, {"is_reserved": 0, "type": "electric_scooter", "fusion_lat": 0.0, "is_disabled": 0, "rental_uris": {"ios": "https://dc.lft.to/lastmile_qr_scan", "android": "https://dc.lft.to/lastmile_qr_scan"}, "bike_id": "dc97c7d250bc98b4d091f7175e4cbd08", "lat": 38.919672166666665, "name": "dc97c7d250bc98b4d091f7175e4cbd08", "lon": -77.03959583333334, "fusion_lon": 0.0}, {"is_reserved": 0, "type": "electric_scooter", "fusion_lat": 0.0, "is_disabled": 0, "rental_uris": {"ios": "https://dc.lft.to/lastmile_qr_scan", "android": "https://dc.lft.to/lastmile_qr_scan"}, "bike_id": "37d1695311561d1f864d1afdced144de", "lat": 38.92009983333333, "name": "37d1695311561d1f864d1afdced144de", "lon": -77.041789, "fusion_lon": 0.0}, {"is_reserved": 0, "type": "electric_scooter", "fusion_lat": 0.0, "is_disabled": 0, "rental_uris": {"ios": "https://dc.lft.to/lastmile_qr_scan", "android": "https://dc.lft.to/lastmile_qr_scan"}, "bike_id": "061c77cff7edb17991743ef4cfd83b4a", "lat": 38.892289, "name": "061c77cff7edb17991743ef4cfd83b4a", "lon": -77.02382983333334, "fusion_lon": 0.0}, {"is_reserved": 0, "type": "electric_scooter", "fusion_lat": 0.0, "is_disabled": 0, "rental_uris": {"ios": "https://dc.lft.to/lastmile_qr_scan", "android": "https://dc.lft.to/lastmile_qr_scan"}, "bike_id": "d9290ac151ff01dea82e1c2bcd7ada56", "lat": 38.88542733333333, "name": "d9290ac151ff01dea82e1c2bcd7ada56", "lon": -76.95441433333333, "fusion_lon": 0.0}, {"is_reserved": 0, "type": "electric_scooter", "fusion_lat": 0.0, "is_disabled": 0, "rental_uris": {"ios": "https://dc.lft.to/lastmile_qr_scan", "android": "https://dc.lft.to/lastmile_qr_scan"},