{"data": {"bikes": [{"is_disabled": 0, "is_reserved": 0, "fusion_lat": 0.0, "lat": 38.90977683333333, "fusion_lon": 0.0, "rental_uris": {"ios": "https://dc.lft.to/lastmile_qr_scan", "android": "https://dc.lft.to/lastmile_qr_scan"}, "lon": -77.03324616666667, "bike_id": "b5ed748a59c3c468c87f42a1567674c4", "type": "electric_scooter", "name": "b5ed748a59c3c468c87f42a1567674c4"}, {"is_disabled": 0, "is_reserved": 0, "fusion_lat": 0.0, "lat": 38.8765125, "fusion_lon": 0.0, "rental_uris": {"ios": "https://dc.lft.to/lastmile_qr_scan", "android": "https://dc.lft.to/lastmile_qr_scan"}, "lon": -77.01572666666667, "bike_id": "79272363c3d50e47dff399a84fdabf39", "type": "electric_scooter", "name": "79272363c3d50e47dff399a84fdabf39"}, {"is_disabled": 0, "is_reserved": 0, "fusion_lat": 0.0, "lat": 38.904455666666664, "fusion_lon": 0.0, "rental_uris": {"ios": "https://dc.lft.to/lastmile_qr_scan", "android": "https://dc.lft.to/lastmile_qr_scan"}, "lon": -76.9731105, "bike_id": "1104b8897716d4d5b765e967aeb04792", "type": "electric_scooter", "name": "1104b8897716d4d5b765e967aeb04792"}, {"is_disabled": 0, "is_reserved": 0, "fusion_lat": 0.0, "lat": 38.96357366666667, "fusion_lon": 0.0, "rental_uris": {"ios": "https://dc.lft.to/lastmile_qr_scan", "android": "https://dc.lft.to/lastmile_qr_scan"}, "lon": -77.03446866666667, "bike_id": "1fdb60a6a10f3572888fbfd6887e932d", "type": "electric_scooter", "name": "1fdb60a6a10f3572888fbfd6887e932d"}, {"is_disabled": 0, "is_reserved": 0, "fusion_lat": 0.0, "lat": 38.90362916666667, "fusion_lon": 0.0, "rental_uris": {"ios": "https://dc.lft.to/lastmile_qr_scan", "android": "https://dc.lft.to/lastmile_qr_scan"}, "lon": -77.05989166666667, "bike_id": "c6cd5183e60104a8a366da57c07b459b", "type": "electric_scooter", "name": "c6cd5183e60104a8a366da57c07b459b"}, {"is_disabled": 0, "is_reserved": 0, "fusion_lat": 0.0, "lat": 38.8426105, "fusion_lon": 0.0, "rental_uris": {"ios": "https://dc.lft.to/lastmile_qr_scan", "android": "https://dc.lft.to/lastmile_qr_scan"}, "lon": -76.98842833333333, "bike_id": "35ebad8f88a664b702fece87b2a4d4a5", "type": "electric_scooter", "name": "35ebad8f88a664b702fece87b2a4d4a5"}, {"is_disabled": 0, "is_reserved": 0, "fusion_lat": 0.0, "lat": 38.91514866666667, "fusion_lon": 0.0, "rental_uris": {"ios": "https://dc.lft.to/lastmile_qr_scan", "android": "https://dc.lft.to/lastmile_qr_scan"}, "lon": -77.02593216666666, "bike_id": "b0bdd3c52e4e970fa081cb85e4b44f63", "type": "electric_scooter", "name": "b0bdd3c52e4e970fa081cb85e4b44f63"}, {"is_disabled": 0, "is_reserved": 0, "fusion_lat": 0.0, "lat": 38.892315833333335, "fusion_lon": 0.0, "rental_uris": {"ios": "https://dc.lft.to/lastmile_qr_scan", "android": "https://dc.lft.to/lastmile_qr_scan"}, "lon": -77.03165616666666, "bike_id": "86282ffc82bf680cd9b95a09687340b6", "type": "electric_scooter", "name": "86282ffc82bf680cd9b95a09687340b6"}, {"is_disabled": 0, "is_reserved": 0, "fusion_lat": 0.0, "lat": 38.927679499999996, "fusion_lon": 0.0, "rental_uris": {"ios": "https://dc.lft.to/lastmile_qr_scan", "android": "https://dc.lft.to/lastmile_qr_scan"}, "lon": -77.02955066666667, "bike_id": "6529c3d3215b039ee5cf88602d698884", "type": "electric_scooter", "name": "6529c3d3215b039ee5cf88602d698884"}, {"is_disabled": 0, "is_reserved": 0, "fusion_lat": 0.0, "lat": 38.9105675, "fusion_lon": 0.0, "rental_uris": {"ios": "https://dc.lft.to/lastmile_qr_scan", "android": "https://dc.lft.to/lastmile_qr_scan"}, "lon": -77.04094666666667, "bike_id": "9313ad684e9b0c4fb9c4b799e2eaba65", "type": "electric_scooter", "name": "9313ad684e9b0c4fb9c4b799e2eaba65"}, {"is_disabled": 0, "is_reserved": 0, "fusion_lat": 0.0, "lat": 38.892427, "fusion_lon": 0.0, "rental_uris": {"ios": "https://dc.lft.to/lastmile_qr_scan", "android": "https://dc.lft.to/lastmile_qr_scan"}, "lon": -77.04877433333333, "bike_id": "77fc1e01d491d33d5d3801945827d7a4", "type": "electric_scooter", "name": "77fc1e01d491d33d5d3801945827d7a4"}, {"is_disabled": 0, "is_reserved": 0, "fusion_lat": 0.0, "lat": 38.92870533333333, "fusion_lon": 0.0, "rental_uris": {"ios": "https://dc.lft.to/lastmile_qr_scan", "android": "https://dc.lft.to/lastmile_qr_scan"}, "lon": -77.056572, "bike_id": "e0c6e195f854f9ef442dffc40a243492", "type": "electric_scooter", "name": "e0c6e195f854f9ef442dffc40a243492"}, {"is_disabled": 0, "is_reserved": 0, "fusion_lat": 0.0, "lat": 38.89487033333333, "fusion_lon": 0.0, "rental_uris": {"ios": "https://dc.lft.to/lastmile_qr_scan", "android": "https://dc.lft.to/lastmile_qr_scan"}, "lon": -77.02203433333334, "bike_id": "e3910e032ed32a9aa3afb9df9afb7ec9", "type": "electric_scooter", "name": "e3910e032ed32a9aa3afb9df9afb7ec9"}, {"is_disabled": 0, "is_reserved": 0, "fusion_lat": 0.0, "lat": 38.829282, "fusion_lon": 0.0, "rental_uris": {"ios": "https://dc.lft.to/lastmile_qr_scan", "android": "https://dc.lft.to/lastmile_qr_scan"}, "lon": -77.068777, "bike_id": "398c6f57c536d7de923911c1308f555d", "type": "electric_bike", "name": "398c6f57c536d7de923911c1308f555d"}, {"is_disabled": 0, "is_reserved": 0, "fusion_lat": 0.0, "lat": 38.922603333333335, "fusion_lon": 0.0, "rental_uris": {"ios": "https://dc.lft.to/lastmile_qr_scan", "android": "https://dc.lft.to/lastmile_qr_scan"}, "lon": -77.07278766666667, "bike_id": "6e0d632fbf9c32d2d4171c790b535bd3", "type": "electric_scooter", "name": "6e0d632fbf9c32d2d4171c790b535bd3"}, {"is_disabled": 0, "is_reserved": 0, "fusion_lat": 0.0, "lat": 38.88042633333333, "fusion_lon": 0.0, "rental_uris": {"ios": "https://dc.lft.to/lastmile_qr_scan", "android": "https://dc.lft.to/lastmile_qr_scan"}, "lon": -76.927205, "bike_id": "90d3b34145d61ed4ed76796af69d3b44", "type": "electric_scooter", "name": "90d3b34145d61ed4ed76796af69d3b44"}, {"is_disabled": 0, "is_reserved": 0, "fusion_lat": 0.0, "lat": 38.89910416666667, "fusion_lon": 0.0, "rental_uris": {"ios": "https://dc.lft.to/lastmile_qr_scan", "android": "https://dc.lft.to/lastmile_qr_scan"}, "lon": -76.93395133333334, "bike_id": "629edf411336e0b2ac9453d420a53355", "type": "electric_scooter", "name": "629edf411336e0b2ac9453d420a53355"}, {"is_disabled": 0, "is_reserved": 0, "fusion_lat": 0.0, "lat": 38.9236035, "fusion_lon": 0.0, "rental_uris": {"ios": "https://dc.lft.to/lastmile_qr_scan", "android": "https://dc.lft.to/lastmile_qr_scan"}, "lon": -77.04318116666667, "bike_id": "17116ffdc718b7dad111c6d5f3c7b645", "type": "electric_scooter", "name": "17116ffdc718b7dad111c6d5f3c7b645"}, {"is_disabled": 0, "is_reserved": 0, "fusion_lat": 0.0, "lat": 38.888846, "fusion_lon": 0.0, "rental_uris": {"ios": "https://dc.lft.to/lastmile_qr_scan", "android": "https://dc.lft.to/lastmile_qr_scan"}, "lon": -76.97715166666667, "bike_id": "c2980190826aa7785ad61692f31ac2e3", "type": "electric_scooter", "name": "c2980190826aa7785ad61692f31ac2e3"}, {"is_disabled": 0, "is_reserved": 0, "fusion_lat": 0.0, "lat": 38.965119, "fusion_lon": 0.0, "rental_uris": {"ios": "https://dc.lft.to/lastmile_qr_scan", "android": "https://dc.lft.to/lastmile_qr_scan"}, "lon": -77.03366916666667, "bike_id": "e95c9128b5ef01061c7560c97d4b5fcd", "type": "electric_bike", "name": "e95c9128b5ef01061c7560c97d4b5fcd"}, {"is_disabled": 0, "is_reserved": 0, "fusion_lat": 0.0, "lat": 38.89228966666667, "fusion_lon": 0.0, "rental_uris": {"ios": "https://dc.lft.to/lastmile_qr_scan", "android": "https://dc.lft.to/lastmile_qr_scan"}, "lon": -77.048666, "bike_id": "2739642a43359b56ea01413c7c6ec640", "type": "electric_scooter", "name": "2739642a43359b56ea01413c7c6ec640"}, {"is_disabled": 0, "is_reserved": 0, "fusion_lat": 0.0, "lat": 38.96176966666667, "fusion_lon": 0.0, "rental_uris": {"ios": "https://dc.lft.to/lastmile_qr_scan", "android": "https://dc.lft.to/lastmile_qr_scan"}, "lon": -77.03229633333333, "bike_id": "5c8eb9468ee9db4621fd493467b754f2", "type": "electric_scooter", "name": "5c8eb9468ee9db4621fd493467b754f2"}, {"is_disabled": 0, "is_reserved": 0, "fusion_lat": 0.0, "lat": 38.93750683333333, "fusion_lon": 0.0, "rental_uris": {"ios": "https://dc.lft.to/lastmile_qr_scan", "android": "https://dc.lft.to/lastmile_qr_scan"}, "lon": -77.03589, "bike_id": "b3b4829d9a37b506a8cb0c558826b5ee", "type": "electric_scooter", "name": "b3b4829d9a37b506a8cb0c558826b5ee"}, {"is_disabled": 0, "is_reserved": 0, "fusion_lat": 0.0, "lat": 38.94375566666667, "fusion_lon": 0.0, "rental_uris": {"ios": "https://dc.lft.to/lastmile_qr_scan", "android": "https://dc.lft.to/lastmile_qr_scan"}, "lon": -77.06096566666666, "bike_id": "efb6e6991768f2ee8494ad46d5d575da", "type": "electric_scooter", "name": "efb6e6991768f2ee8494ad46d5d575da"}, {"is_disabled": 0, "is_reserved": 0, "fusion_lat": 0.0, "lat": 38.937047666666665, "fusion_lon": 0.0, "rental_uris": {"ios": "https://dc.lft.to/lastmile_qr_scan", "android": "https://dc.lft.to/lastmile_qr_scan"}, "lon": -77.05686483333334, "bike_id": "056ddc8b685be7633104aecd58e81944", "type": "electric_scooter", "name": "056ddc8b685be7633104aecd58e81944"}, {"is_disabled": 0, "is_reserved": 0, "fusion_lat": 0.0, "lat": 38.915252333333335, "fusion_lon": 0.0, "rental_uris": {"ios": "https://dc.lft.to/lastmile_qr_scan", "android": "https://dc.lft.to/lastmile_qr_scan"}, "lon": -77.04155116666666, "bike_id": "53049fcbb5d3d46b2b7ef0a2f7f71cfd", "type": "electric_scooter", "name": "53049fcbb5d3d46b2b7ef0a2f7f71cfd"}, {"is_disabled": 0, "is_reserved": 0, "fusion_lat": 0.0, "lat": 38.8950775, "fusion_lon": 0.0, "rental_uris": {"ios": "https://dc.lft.to/lastmile_qr_scan", "android": "https://dc.lft.to/lastmile_qr_scan"}, "lon": -77.04160233333333, "bike_id": "31935c532f0892136cd3dea14449078a", "type": "electric_scooter", "name": "31935c532f0892136cd3dea14449078a"}, {"is_disabled": 0, "is_reserved": 0, "fusion_lat": 0.0, "lat": 38.919290833333335, "fusion_lon": 0.0, "rental_uris": {"ios": "https://dc.lft.to/lastmile_qr_scan", "android": "https://dc.lft.to/lastmile_qr_scan"}, "lon": -77.0247035, "bike_id": "d944df7eb2029c7a1d12b476f098299b", "type": "electric_scooter", "name": "d944df7eb2029c7a1d12b476f098299b"}, {"is_disabled": 0, "is_reserved": 0, "fusion_lat": 0.0, "lat": 38.899649833333335, "fusion_lon": 0.0, "rental_uris": {"ios": "https://dc.lft.to/lastmile_qr_scan", "android": "https://dc.lft.to/lastmile_qr_scan"}, "lon": -77.01613066666667, "bike_id": "f2dd290cf23faadff6a163f9bb9baf29", "type": "electric_scooter", "name": "f2dd290cf23faadff6a163f9bb9baf29"}, {"is_disabled": 0, "is_reserved": 0, "fusion_lat": 0.0, "lat": 38.949762666666665, "fusion_lon": 0.0, "rental_uris": {"ios": "https://dc.lft.to/lastmile_qr_scan", "android": "https://dc.lft.to/lastmile_qr_scan"}, "lon": -77.02444816666667, "bike_id": "b09dae4dc34c4c7318848f82cc469ccf", "type": "electric_scooter", "name": "b09dae4dc34c4c7318848f82cc469ccf"}, {"is_disabled": 0, "is_reserved": 0, "fusion_lat": 0.0, "lat": 38.9352935, "fusion_lon": 0.0, "rental_uris": {"ios": "https://dc.lft.to/lastmile_qr_scan", "android": "https://dc.lft.to/lastmile_qr_scan"}, "lon": -77.03806783333333, "bike_id": "7ac5a990a63b6edfa5943733259b7e30", "type": "electric_scooter", "name": "7ac5a990a63b6edfa5943733259b7e30"}, {"is_disabled": 0, "is_reserved": 0, "fusion_lat": 0.0, "lat": 38.886600333333334, "fusion_lon": 0.0, "rental_uris": {"ios": "https://dc.lft.to/lastmile_qr_scan", "android": "https://dc.lft.to/lastmile_qr_scan"}, "lon": -77.03384916666667, "bike_id": "a513c84e279714b555d6c320b9a2b84d", "type": "electric_scooter", "name": "a513c84e279714b555d6c320b9a2b84d"}, {"is_disabled": 0, "is_reserved": 0, "fusion_lat": 0.0, "lat": 38.89421166666666, "fusion_lon": 0.0, "rental_uris": {"ios": "https://dc.lft.to/lastmile_qr_scan", "android": "https://dc.lft.to/lastmile_qr_scan"}, "lon": -77.02137166666667, "bike_id": "8da49ca1701b7ca5f365a7bd70b3771d", "type": "electric_scooter", "name": "8da49ca1701b7ca5f365a7bd70b3771d"}, {"is_disabled": 0, "is_reserved": 0, "fusion_lat": 0.0, "lat": 38.88417583333333, "fusion_lon": 0.0, "rental_uris": {"ios": "https://dc.lft.to/lastmile_qr_scan", "android": "https://dc.lft.to/lastmile_qr_scan"}, "lon": -77.030353, "bike_id": "c86370be6b2f4e15c4d156f8791121af", "type": "electric_scooter", "name": "c86370be6b2f4e15c4d156f8791121af"}, {"is_disabled": 0, "is_reserved": 0, "fusion_lat": 0.0, "lat": 38.902361, "fusion_lon": 0.0, "rental_uris": {"ios": "https://dc.lft.to/lastmile_qr_scan", "android": "https://dc.lft.to/lastmile_qr_scan"}, "lon": -77.05331483333333, "bike_id": "c13267910c37c67c4198c537a56e8cde", "type": "electric_scooter", "name": "c13267910c37c67c4198c537a56e8cde"}, {"is_disabled": 0, "is_reserved": 0, "fusion_lat": 0.0, "lat": 38.907847833333335, "fusion_lon": 0.0, "rental_uris": {"ios": "https://dc.lft.to/lastmile_qr_scan", "android": "https://dc.lft.to/lastmile_qr_scan"}, "lon": -77.04660466666667, "bike_id": "bb12936dc39ea65d1640639a203e35be", "type": "electric_scooter", "name": "bb12936dc39ea65d1640639a203e35be"}, {"is_disabled": 0, "is_reserved": 0, "fusion_lat": 0.0, "lat": 38.93604466666667, "fusion_lon": 0.0, "rental_uris": {"ios": "https://dc.lft.to/lastmile_qr_scan", "android": "https://dc.lft.to/lastmile_qr_scan"}, "lon": -77.0387385, "bike_id": "d6c9cc8565bc9f03de0faeb9a7ab4563", "type": "electric_scooter", "name": "d6c9cc8565bc9f03de0faeb9a7ab4563"}, {"is_disabled": 0, "is_reserved": 0, "fusion_lat": 0.0, "lat": 38.880872333333336, "fusion_lon": 0.0, "rental_uris": {"ios": "https://dc.lft.to/lastmile_qr_scan", "android": "https://dc.lft.to/lastmile_qr_scan"}, "lon": -77.02597183333333, "bike_id": "5ac02b8efcedbe6e92b1ece38677e7a6", "type": "electric_scooter", "name": "5ac02b8efcedbe6e92b1ece38677e7a6"}, {"is_disabled": 0, "is_reserved": 0, "fusion_lat": 0.0, "lat": 38.83585983333333, "fusion_lon": 0.0, "rental_uris": {"ios": "https://dc.lft.to/lastmile_qr_scan", "android": "https://dc.lft.to/lastmile_qr_scan"}, "lon": -76.99028083333333, "bike_id": "82b8464775558fd6d8dc4f3c7f77c9ab", "type": "electric_bike", "name": "82b8464775558fd6d8dc4f3c7f77c9ab"}, {"is_disabled": 0, "is_reserved": 0, "fusion_lat": 0.0, "lat": 38.909009166666664, "fusion_lon": 0.0, "rental_uris": {"ios": "https://dc.lft.to/lastmile_qr_scan", "android": "https://dc.lft.to/lastmile_qr_scan"}, "lon": -76.99792266666667, "bike_id": "ace05e856d4e41e905d7f7c62606655e", "type": "electric_scooter", "name": "ace05e856d4e41e905d7f7c62606655e"}, {"is_disabled": 0, "is_reserved": 0, "fusion_lat": 0.0, "lat": 38.93415066666667, "fusion_lon": 0.0, "rental_uris": {"ios": "https://dc.lft.to/lastmile_qr_scan", "android": "https://dc.lft.to/lastmile_qr_scan"}, "lon": -77.04280333333334, "bike_id": "dbfdff1dbe796f06191fa5ecae07b909", "type": "electric_scooter", "name": "dbfdff1dbe796f06191fa5ecae07b909"}, {"is_disabled": 0, "is_reserved": 0, "fusion_lat": 0.0, "lat": 38.900364, "fusion_lon": 0.0, "rental_uris": {"ios": "https://dc.lft.to/lastmile_qr_scan", "android": "https://dc.lft.to/lastmile_qr_scan"}, "lon": -76.998308, "bike_id": "b10dbeb629056ac32035996b014565af", "type": "electric_scooter", "name": "b10dbeb629056ac32035996b014565af"}, {"is_disabled": 0, "is_reserved": 0, "fusion_lat": 0.0, "lat": 38.920408, "fusion_lon": 0.0, "rental_uris": {"ios": "https://dc.lft.to/lastmile_qr_scan", "android": "https://dc.lft.to/lastmile_qr_scan"}, "lon": -77.031278, "bike_id": "570d2ccd208727b87123ed2872419b6e", "type": "electric_scooter", "name": "570d2ccd208727b87123ed2872419b6e"}, {"is_disabled": 0, "is_reserved": 0, "fusion_lat": 0.0, "lat": 38.919109666666664, "fusion_lon": 0.0, "rental_uris": {"ios": "https://dc.lft.to/lastmile_qr_scan", "android": "https://dc.lft.to/lastmile_qr_scan"}, "lon": -77.10179783333334, "bike_id": "afb04113b7ff57f47b977f0cc3fb44c5", "type": "electric_bike", "name": "afb04113b7ff57f47b977f0cc3fb44c5"}, {"is_disabled": 0, "is_reserved": 0, "fusion_lat": 0.0, "lat": 38.9288825, "fusion_lon": 0.0, "rental_uris": {"ios": "https://dc.lft.to/lastmile_qr_scan", "android": "https://dc.lft.to/lastmile_qr_scan"}, "lon": -77.02610866666667, "bike_id": "c3532fccb1d6dcdc01220bd388b20b6b", "type": "electric_scooter", "name": "c3532fccb1d6dcdc01220bd388b20b6b"}, {"is_disabled": 0, "is_reserved": 0, "fusion_lat": 0.0, "lat": 38.91764333333333, "fusion_lon": 0.0, "rental_uris": {"ios": "https://dc.lft.to/lastmile_qr_scan", "android": "https://dc.lft.to/lastmile_qr_scan"}, "lon": -77.02411066666667, "bike_id": "799112d16ee62e36dcd3bd3ad1e2ccd9", "type": "electric_scooter", "name": "799112d16ee62e36dcd3bd3ad1e2ccd9"}, {"is_disabled": 0, "is_reserved": 0, "fusion_lat": 0.0, "lat": 38.85560533333334, "fusion_lon": 0.0, "rental_uris": {"ios": "https://dc.lft.to/lastmile_qr_scan", "android": "https://dc.lft.to/lastmile_qr_scan"}, "lon": -77.06404433333333, "bike_id": "6ae0af2e557a16304f146d6c5bd7c924", "type": "electric_bike", "name": "6ae0af2e557a16304f146d6c5bd7c924"}, {"is_disabled": 0, "is_reserved": 0, "fusion_lat": 0.0, "lat": 38.9282525, "fusion_lon": 0.0, "rental_uris": {"ios": "https://dc.lft.to/lastmile_qr_scan", "android": "https://dc.lft.to/lastmile_qr_scan"}, "lon": -77.02258233333333, "bike_id": "486edf1920595e2339177e9b189cffdf", "type": "electric_scooter", "name": "486edf1920595e2339177e9b189cffdf"}, {"is_disabled": 0, "is_reserved": 0, "fusion_lat": 0.0, "lat": 38.842307, "fusion_lon": 0.0, "rental_uris": {"ios": "https://dc.lft.to/lastmile_qr_scan", "android": "https://dc.lft.to/lastmile_qr_scan"}, "lon": -77.0017475, "bike_id": "b5d064d14975e653a1962a8bb7715ebb", "type": "electric_scooter", "name": "b5d064d14975e653a1962a8bb7715ebb"}, {"is_disabled": 0, "is_reserved": 0, "fusion_lat": 0.0, "lat": 38.923372666666666, "fusion_lon": 0.0, "rental_uris": {"ios": "https://dc.lft.to/lastmile_qr_scan", "android": "https://dc.lft.to/lastmile_qr_scan"}, "lon": -77.05678433333334, "bike_id": "27d07b253837d9ac84b84856c76d5b35", "type": "electric_scooter", "name": "27d07b253837d9ac84b84856c76d5b35"}, {"is_disabled": 0, "is_reserved": 0, "fusion_lat": 0.0, "lat": 38.84226983333333, "fusion_lon": 0.0, "rental_uris": {"ios": "https://dc.lft.to/lastmile_qr_scan", "android": "https://dc.lft.to/lastmile_qr_scan"}, "lon": -76.94892416666667, "bike_id": "b3b7945861a98944caa573a8a061f82b", "type": "electric_bike", "name": "b3b7945861a98944caa573a8a061f82b"}, {"is_disabled": 0, "is_reserved": 0, "fusion_lat": 0.0, "lat": 38.95754266666667, "fusion_lon": 0.0, "rental_uris": {"ios": "https://dc.lft.to/lastmile_qr_scan", "android": "https://dc.lft.to/lastmile_qr_scan"}, "lon": -77.02066666666667, "bike_id": "adae8c150393dbbff148e3ef98f11abb", "type": "electric_scooter", "name": "adae8c150393dbbff148e3ef98f11abb"}, {"is_disabled": 0, "is_reserved": 0, "fusion_lat": 0.0, "lat": 38.9309435, "fusion_lon": 0.0, "rental_uris": {"ios": "https://dc.lft.to/lastmile_qr_scan", "android": "https://dc.lft.to/lastmile_qr_scan"}, "lon": -77.02468166666667, "bike_id": "8563b2b2faaa654ece5b4b4869264dfa", "type": "electric_scooter", "name": "8563b2b2faaa654ece5b4b4869264dfa"}, {"is_disabled": 0, "is_reserved": 0, "fusion_lat": 0.0, "lat": 38.92709983333334, "fusion_lon": 0.0, "rental_uris": {"ios": "https://dc.lft.to/lastmile_qr_scan", "android": "https://dc.lft.to/lastmile_qr_scan"}, "lon": -77.0382365, "bike_id": "1ec249ea2a695d8475498cdb68956176", "type": "electric_scooter", "name": "1ec249ea2a695d8475498cdb68956176"}, {"is_disabled": 0, "is_reserved": 0, "fusion_lat": 0.0, "lat": 38.98370716666667, "fusion_lon": 0.0, "rental_uris": {"ios": "https://dc.lft.to/lastmile_qr_scan", "android": "https://dc.lft.to/lastmile_qr_scan"}, "lon": -76.98854366666667, "bike_id": "af7c58b9cd682dc0a663c07b427677a0", "type": "electric_bike", "name": "af7c58b9cd682dc0a663c07b427677a0"}, {"is_disabled": 0, "is_reserved": 0, "fusion_lat": 0.0, "lat": 38.8999075, "fusion_lon": 0.0, "rental_uris": {"ios": "https://dc.lft.to/lastmile_qr_scan", "android": "https://dc.lft.to/lastmile_qr_scan"}, "lon": -77.02256416666667, "bike_id": "c02100c70813a49fa450d13b665c7a1a", "type": "electric_scooter", "name": "c02100c70813a49fa450d13b665c7a1a"}, {"is_disabled": 0, "is_reserved": 0, "fusion_lat": 0.0, "lat": 38.89486733333333, "fusion_lon": 0.0, "rental_uris": {"ios": "https://dc.lft.to/lastmile_qr_scan", "android": "https://dc.lft.to/lastmile_qr_scan"}, "lon": -77.04164133333333, "bike_id": "8c44c7c6041764c96847b608a06a67ef", "type": "electric_scooter", "name": "8c44c7c6041764c96847b608a06a67ef"}, {"is_disabled": 0, "is_reserved": 0, "fusion_lat": 0.0, "lat": 38.91928433333333, "fusion_lon": 0.0, "rental_uris": {"ios": "https://dc.lft.to/lastmile_qr_scan", "android": "https://dc.lft.to/lastmile_qr_scan"}, "lon": -77.03425266666666, "bike_id": "b05d5c2213d74169ea5b5e3fa594898a", "type": "electric_scooter", "name": "b05d5c2213d74169ea5b5e3fa594898a"}, {"is_disabled": 0, "is_reserved": 0, "fusion_lat": 0.0, "lat": 38.919809666666666, "fusion_lon": 0.0, "rental_uris": {"ios": "https://dc.lft.to/lastmile_qr_scan", "android": "https://dc.lft.to/lastmile_qr_scan"}, "lon": -77.02182216666667, "bike_id": "dfefcdf68dee49289733158bba9266e7", "type": "electric_scooter", "name": "dfefcdf68dee49289733158bba9266e7"}, {"is_disabled": 0, "is_reserved": 0, "fusion_lat": 0.0, "lat": 38.922588166666664, "fusion_lon": 0.0, "rental_uris": {"ios": "https://dc.lft.to/lastmile_qr_scan", "android": "https://dc.lft.to/lastmile_qr_scan"}, "lon": -77.03655683333334, "bike_id": "4d2c7de38b23cd39f625d904569b4717", "type": "electric_scooter", "name": "4d2c7de38b23cd39f625d904569b4717"}, {"is_disabled": 0, "is_reserved": 0, "fusion_lat": 0.0, "lat": 38.91557, "fusion_lon": 0.0, "rental_uris": {"ios": "https://dc.lft.to/lastmile_qr_scan", "android": "https://dc.lft.to/lastmile_qr_scan"}, "lon": -77.01159433333333, "bike_id": "7778c03e97066cfbf52cf492695372df", "type": "electric_scooter", "name": "7778c03e97066cfbf52cf492695372df"}, {"is_disabled": 0, "is_reserved": 0, "fusion_lat": 0.0, "lat": 38.912036666666665, "fusion_lon": 0.0, "rental_uris": {"ios": "https://dc.lft.to/lastmile_qr_scan", "android": "https://dc.lft.to/lastmile_qr_scan"}, "lon": -77.02102116666667, "bike_id": "4f783cd3768047c6eb01cc4bb0e14424", "type": "electric_scooter", "name": "4f783cd3768047c6eb01cc4bb0e14424"}, {"is_disabled": 0, "is_reserved": 0, "fusion_lat": 0.0, "lat": 38.917662, "fusion_lon": 0.0, "rental_uris": {"ios": "https://dc.lft.to/lastmile_qr_scan", "android": "https://dc.lft.to/lastmile_qr_scan"}, "lon": -77.00454183333333, "bike_id": "292854f493fc3419a63df83037d1105c", "type": "electric_scooter", "name": "292854f493fc3419a63df83037d1105c"}, {"is_disabled": 0, "is_reserved": 0, "fusion_lat": 0.0, "lat": 38.892026666666666, "fusion_lon": 0.0, "rental_uris": {"ios": "https://dc.lft.to/lastmile_qr_scan", "android": "https://dc.lft.to/lastmile_qr_scan"}, "lon": -77.02471883333334, "bike_id": "9e0c68b91364ec808fc88a6a57de2c35", "type": "electric_scooter", "name": "9e0c68b91364ec808fc88a6a57de2c35"}, {"is_disabled": 0, "is_reserved": 0, "fusion_lat": 0.0, "lat": 38.876717666666664, "fusion_lon": 0.0, "rental_uris": {"ios": "https://dc.lft.to/lastmile_qr_scan", "android": "https://dc.lft.to/lastmile_qr_scan"}, "lon": -77.01761616666667, "bike_id": "c6a5fc763792acf43bca9f3d042929cd", "type": "electric_scooter", "name": "c6a5fc763792acf43bca9f3d042929cd"}, {"is_disabled": 0, "is_reserved": 0, "fusion_lat": 0.0, "lat": 38.921705833333334, "fusion_lon": 0.0, "rental_uris": {"ios": "https://dc.lft.to/lastmile_qr_scan", "android": "https://dc.lft.to/lastmile_qr_scan"}, "lon": -77.03672783333333, "bike_id": "40b134a574c8df5c4b58381aee4fdaf2", "type": "electric_scooter", "name": "40b134a574c8df5c4b58381aee4fdaf2"}, {"is_disabled": 0, "is_reserved": 0, "fusion_lat": 0.0, "lat": 38.89259416666667, "fusion_lon": 0.0, "rental_uris": {"ios": "https://dc.lft.to/lastmile_qr_scan", "android": "https://dc.lft.to/lastmile_qr_scan"}, "lon": -77.05024433333334, "bike_id": "83b583e48f1af9c260c4a8c4d4e33085", "type": "electric_scooter", "name": "83b583e48f1af9c260c4a8c4d4e33085"}, {"is_disabled": 0, "is_reserved": 0, "fusion_lat": 0.0, "lat": 38.88484183333333, "fusion_lon": 0.0, "rental_uris": {"ios": "https://dc.lft.to/lastmile_qr_scan", "android": "https://dc.lft.to/lastmile_qr_scan"}, "lon": -77.03350183333333, "bike_id": "a5c8a2063c55783dc6bd098b7cc13996", "type": "electric_scooter", "name": "a5c8a2063c55783dc6bd098b7cc13996"}, {"is_disabled": 0, "is_reserved": 0, "fusion_lat": 0.0, "lat": 38.93135733333333, "fusion_lon": 0.0, "rental_uris": {"ios": "https://dc.lft.to/lastmile_qr_scan", "android": "https://dc.lft.to/lastmile_qr_scan"}, "lon": -77.0281165, "bike_id": "2be38326f59bb916e9f94db4e003d611", "type": "electric_scooter", "name": "2be38326f59bb916e9f94db4e003d611"}, {"is_disabled": 0, "is_reserved": 0, "fusion_lat": 0.0, "lat": 38.9071945, "fusion_lon": 0.0, "rental_uris": {"ios": "https://dc.lft.to/lastmile_qr_scan", "android": "https://dc.lft.to/lastmile_qr_scan"}, "lon": -77.0530835, "bike_id": "0ed01cfb0207d355d43bf10bebc7b53d", "type": "electric_scooter", "name": "0ed01cfb0207d355d43bf10bebc7b53d"}, {"is_disabled": 0, "is_reserved": 0, "fusion_lat": 0.0, "lat": 38.935194, "fusion_lon": 0.0, "rental_uris": {"ios": "https://dc.lft.to/lastmile_qr_scan", "android": "https://dc.lft.to/lastmile_qr_scan"}, "lon": -77.081689, "bike_id": "6387d9a6d203704a4d428e5a3e09586d", "type": "electric_scooter", "name": "6387d9a6d203704a4d428e5a3e09586d"}, {"is_disabled": 0, "is_reserved": 0, "fusion_lat": 0.0, "lat": 38.89716466666667, "fusion_lon": 0.0, "rental_uris": {"ios": "https://dc.lft.to/lastmile_qr_scan", "android": "https://dc.lft.to/lastmile_qr_scan"}, "lon": -77.02129666666667, "bike_id": "bfc664e219f0eb9e0bbafc5f63cdf328", "type": "electric_scooter", "name": "bfc664e219f0eb9e0bbafc5f63cdf328"}, {"is_disabled": 0, "is_reserved": 0, "fusion_lat": 0.0, "lat": 38.933170833333335, "fusion_lon": 0.0, "rental_uris": {"ios": "https://dc.lft.to/lastmile_qr_scan", "android": "https://dc.lft.to/lastmile_qr_scan"}, "lon": -77.03193316666666, "bike_id": "a9522f8ac5f65625c097564fde8d6ef1", "type": "electric_scooter", "name": "a9522f8ac5f65625c097564fde8d6ef1"}, {"is_disabled": 0, "is_reserved": 0, "fusion_lat": 0.0, "lat": 38.916953166666666, "fusion_lon": 0.0, "rental_uris": {"ios": "https://dc.lft.to/lastmile_qr_scan", "android": "https://dc.lft.to/lastmile_qr_scan"}, "lon": -77.025231, "bike_id": "79ee72dfd661496bf1eb96b7a2c00ff8", "type": "electric_scooter", "name": "79ee72dfd661496bf1eb96b7a2c00ff8"}, {"is_disabled": 0, "is_reserved": 0, "fusion_lat": 0.0, "lat": 38.93058683333334, "fusion_lon": 0.0, "rental_uris": {"ios": "https://dc.lft.to/lastmile_qr_scan", "android": "https://dc.lft.to/lastmile_qr_scan"}, "lon": -77.03206933333334, "bike_id": "d544d18d19353375a1c0f80a5ba28251", "type": "electric_scooter", "name": "d544d18d19353375a1c0f80a5ba28251"}, {"is_disabled": 0, "is_reserved": 0, "fusion_lat": 0.0, "lat": 38.893543333333334, "fusion_lon": 0.0, "rental_uris": {"ios": "https://dc.lft.to/lastmile_qr_scan", "android": "https://dc.lft.to/lastmile_qr_scan"}, "lon": -76.99213183333333, "bike_id": "04ec37109ad62c3d012e0f71f7def1b1", "type": "electric_scooter", "name": "04ec37109ad62c3d012e0f71f7def1b1"}, {"is_disabled": 0, "is_reserved": 0, "fusion_lat": 0.0, "lat": 38.9303495, "fusion_lon": 0.0, "rental_uris": {"ios": "https://dc.lft.to/lastmile_qr_scan", "android": "https://dc.lft.to/lastmile_qr_scan"}, "lon": -77.06074616666666, "bike_id": "3b22b7ac4ea35d2ff7d1dc0acb0ce60e", "type": "electric_scooter", "name": "3b22b7ac4ea35d2ff7d1dc0acb0ce60e"}, {"is_disabled": 0, "is_reserved": 0, "fusion_lat": 0.0, "lat": 38.931734666666664, "fusion_lon": 0.0, "rental_uris": {"ios": "https://dc.lft.to/lastmile_qr_scan", "android": "https://dc.lft.to/lastmile_qr_scan"}, "lon": -77.02819133333334, "bike_id": "af347cda8133c5be5d689ad2485f6811", "type": "electric_scooter", "name": "af347cda8133c5be5d689ad2485f6811"}, {"is_disabled": 0, "is_reserved": 0, "fusion_lat": 0.0, "lat": 38.875788666666665, "fusion_lon": 0.0, "rental_uris": {"ios": "https://dc.lft.to/lastmile_qr_scan", "android": "https://dc.lft.to/lastmile_qr_scan"}, "lon": -77.2341115, "bike_id": "80550b6b2d26a9fe114f9468c50b2495", "type": "electric_bike", "name": "80550b6b2d26a9fe114f9468c50b2495"}, {"is_disabled": 0, "is_reserved": 0, "fusion_lat": 0.0, "lat": 38.914463833333336, "fusion_lon": 0.0, "rental_uris": {"ios": "https://dc.lft.to/lastmile_qr_scan", "android": "https://dc.lft.to/lastmile_qr_scan"}, "lon": -77.02290366666666, "bike_id": "2c567323282bb556e58b3a4995201b5b", "type": "electric_scooter", "name": "2c567323282bb556e58b3a4995201b5b"}, {"is_disabled": 0, "is_reserved": 0, "fusion_lat": 0.0, "lat": 38.8804525, "fusion_lon": 0.0, "rental_uris": {"ios": "https://dc.lft.to/lastmile_qr_scan", "android": "https://dc.lft.to/lastmile_qr_scan"}, "lon": -76.92716283333333, "bike_id": "aa47861c109f1794cbf81bf907017c8a", "type": "electric_scooter", "name": "aa47861c109f1794cbf81bf907017c8a"}, {"is_disabled": 0, "is_reserved": 0, "fusion_lat": 0.0, "lat": 38.92040316666667, "fusion_lon": 0.0, "rental_uris": {"ios": "https://dc.lft.to/lastmile_qr_scan", "android": "https://dc.lft.to/lastmile_qr_scan"}, "lon": -77.04719533333333, "bike_id": "aa28c42c78d23c81e37ab36c4292e011", "type": "electric_scooter", "name": "aa28c42c78d23c81e37ab36c4292e011"}, {"is_disabled": 0, "is_reserved": 0, "fusion_lat": 0.0, "lat": 38.897138166666664, "fusion_lon": 0.0, "rental_uris": {"ios": "https://dc.lft.to/lastmile_qr_scan", "android": "https://dc.lft.to/lastmile_qr_scan"}, "lon": -77.048823, "bike_id": "7e2b542978c4189a03f674563b09ced9", "type": "electric_scooter", "name": "7e2b542978c4189a03f674563b09ced9"}, {"is_disabled": 0, "is_reserved": 0, "fusion_lat": 0.0, "lat": 38.87075316666667, "fusion_lon": 0.0, "rental_uris": {"ios": "https://dc.lft.to/lastmile_qr_scan", "android": "https://dc.lft.to/lastmile_qr_scan"}, "lon": -76.97977883333333, "bike_id": "5029ebc91ea06f39ee6ad93af49cc592", "type": "electric_scooter", "name": "5029ebc91ea06f39ee6ad93af49cc592"}, {"is_disabled": 0, "is_reserved": 0, "fusion_lat": 0.0, "lat": 38.88152433333333, "fusion_lon": 0.0, "rental_uris": {"ios": "https://dc.lft.to/lastmile_qr_scan", "android": "https://dc.lft.to/lastmile_qr_scan"}, "lon": -77.02700183333333, "bike_id": "da3fe1aeada5b45ff1c20966efee3f92", "type": "electric_scooter", "name": "da3fe1aeada5b45ff1c20966efee3f92"}, {"is_disabled": 0, "is_reserved": 0, "fusion_lat": 0.0, "lat": 38.934156333333334, "fusion_lon": 0.0, "rental_uris": {"ios": "https://dc.lft.to/lastmile_qr_scan", "android": "https://dc.lft.to/lastmile_qr_scan"}, "lon": -77.02524033333333, "bike_id": "a818601d5bb67bdbb1ac830e76ecd123", "type": "electric_bike", "name": "a818601d5bb67bdbb1ac830e76ecd123"}, {"is_disabled": 0, "is_reserved": 0, "fusion_lat": 0.0, "lat": 38.975911333333336, "fusion_lon": 0.0, "rental_uris": {"ios": "https://dc.lft.to/lastmile_qr_scan", "android": "https://dc.lft.to/lastmile_qr_scan"}, "lon": -77.01862016666666, "bike_id": "686392e28d2b28a1115b99e733e95962", "type": "electric_scooter", "name": "686392e28d2b28a1115b99e733e95962"}, {"is_disabled": 0, "is_reserved": 0, "fusion_lat": 0.0, "lat": 38.900367, "fusion_lon": 0.0, "rental_uris": {"ios": "https://dc.lft.to/lastmile_qr_scan", "android": "https://dc.lft.to/lastmile_qr_scan"}, "lon": -76.98819966666667, "bike_id": "d55c816b56b94cad4fbaa7314377f428", "type": "electric_scooter", "name": "d55c816b56b94cad4fbaa7314377f428"}, {"is_disabled": 0, "is_reserved": 0, "fusion_lat": 0.0, "lat": 38.89243233333333, "fusion_lon": 0.0, "rental_uris": {"ios": "https://dc.lft.to/lastmile_qr_scan", "android": "https://dc.lft.to/lastmile_qr_scan"}, "lon": -77.04878233333334, "bike_id": "ca3991ec90731929fb52e9beaa555c23", "type": "electric_scooter", "name": "ca3991ec90731929fb52e9beaa555c23"}, {"is_disabled": 0, "is_reserved": 0, "fusion_lat": 0.0, "lat": 38.98725783333333, "fusion_lon": 0.0, "rental_uris": {"ios": "https://dc.lft.to/lastmile_qr_scan", "android": "https://dc.lft.to/lastmile_qr_scan"}, "lon": -77.037513, "bike_id": "3cc85b06a5023f2a10cb71250640dba6", "type": "electric_bike", "name": "3cc85b06a5023f2a10cb71250640dba6"}, {"is_disabled": 0, "is_reserved": 0, "fusion_lat": 0.0, "lat": 38.842954166666665, "fusion_lon": 0.0, "rental_uris": {"ios": "https://dc.lft.to/lastmile_qr_scan", "android": "https://dc.lft.to/lastmile_qr_scan"}, "lon": -77.06374916666667, "bike_id": "173869abf4a97a1bf4e4a474948a9f55", "type": "electric_bike", "name": "173869abf4a97a1bf4e4a474948a9f55"}, {"is_disabled": 0, "is_reserved": 0, "fusion_lat": 0.0, "lat": 38.910299333333334, "fusion_lon": 0.0, "rental_uris": {"ios": "https://dc.lft.to/lastmile_qr_scan", "android": "https://dc.lft.to/lastmile_qr_scan"}, "lon": -77.04162233333334, "bike_id": "784a8568bcffda5b7bf067ed0ff110f9", "type": "electric_scooter", "name": "784a8568bcffda5b7bf067ed0ff110f9"}, {"is_disabled": 0, "is_reserved": 0, "fusion_lat": 0.0, "lat": 38.891329999999996, "fusion_lon": 0.0, "rental_uris": {"ios": "https://dc.lft.to/lastmile_qr_scan", "android": "https://dc.lft.to/lastmile_qr_scan"}, "lon": -76.9994065, "bike_id": "adc87838cd0e43e74c7b456df83595d0", "type": "electric_scooter", "name": "adc87838cd0e43e74c7b456df83595d0"}, {"is_disabled": 0, "is_reserved": 0, "fusion_lat": 0.0, "lat": 38.928475, "fusion_lon": 0.0, "rental_uris": {"ios": "https://dc.lft.to/lastmile_qr_scan", "android": "https://dc.lft.to/lastmile_qr_scan"}, "lon": -77.01402433333334, "bike_id": "a5a85b13a3d621cd7077c16f9491d13f", "type": "electric_scooter", "name": "a5a85b13a3d621cd7077c16f9491d13f"}, {"is_disabled": 0, "is_reserved": 0, "fusion_lat": 0.0, "lat": 38.905959333333335, "fusion_lon": 0.0, "rental_uris": {"ios": "https://dc.lft.to/lastmile_qr_scan", "android": "https://dc.lft.to/lastmile_qr_scan"}, "lon": -77.065455, "bike_id": "32efed95bcac8ac82c08c0cb0e7d0e8f", "type": "electric_scooter", "name": "32efed95bcac8ac82c08c0cb0e7d0e8f"}, {"is_disabled": 0, "is_reserved": 0, "fusion_lat": 0.0, "lat": 38.864734, "fusion_lon": 0.0, "rental_uris": {"ios": "https://dc.lft.to/lastmile_qr_scan", "android": "https://dc.lft.to/lastmile_qr_scan"}, "lon": -76.97761433333334, "bike_id": "abfe233c68c023b41c92e18b116b37cd", "type": "electric_scooter", "name": "abfe233c68c023b41c92e18b116b37cd"}, {"is_disabled": 0, "is_reserved": 0, "fusion_lat": 0.0, "lat": 38.876444166666666, "fusion_lon": 0.0, "rental_uris": {"ios": "https://dc.lft.to/lastmile_qr_scan", "android": "https://dc.lft.to/lastmile_qr_scan"}, "lon": -76.9929375, "bike_id": "2632d63740eb1140ee16471bd51380d9", "type": "electric_scooter", "name": "2632d63740eb1140ee16471bd51380d9"}, {"is_disabled": 0, "is_reserved": 0, "fusion_lat": 0.0, "lat": 38.924130166666664, "fusion_lon": 0.0, "rental_uris": {"ios": "https://dc.lft.to/lastmile_qr_scan", "android": "https://dc.lft.to/lastmile_qr_scan"}, "lon": -77.05047883333333, "bike_id": "05f9214be94c692f0ef3102788862552", "type": "electric_bike", "name": "05f9214be94c692f0ef3102788862552"}, {"is_disabled": 0, "is_reserved": 0, "fusion_lat": 0.0, "lat": 38.94926016666667, "fusion_lon": 0.0, "rental_uris": {"ios": "https://dc.lft.to/lastmile_qr_scan", "android": "https://dc.lft.to/lastmile_qr_scan"}, "lon": -77.0080355, "bike_id": "fefc55f073dd1af0eb9b473a638d8199", "type": "electric_bike", "name": "fefc55f073dd1af0eb9b473a638d8199"}, {"is_disabled": 0, "is_reserved": 0, "fusion_lat": 0.0, "lat": 38.9009855, "fusion_lon": 0.0, "rental_uris": {"ios": "https://dc.lft.to/lastmile_qr_scan", "android": "https://dc.lft.to/lastmile_qr_scan"}, "lon": -77.04912966666667, "bike_id": "f704029c7ad16eb6ec76cb9ad8a758b6", "type": "electric_scooter", "name": "f704029c7ad16eb6ec76cb9ad8a758b6"}, {"is_disabled": 0, "is_reserved": 0, "fusion_lat": 0.0, "lat": 38.9163515, "fusion_lon": 0.0, "rental_uris": {"ios": "https://dc.lft.to/lastmile_qr_scan", "android": "https://dc.lft.to/lastmile_qr_scan"}, "lon": -77.042551, "bike_id": "f39445420fcee9ccaf245b3d8cb4ee63", "type": "electric_scooter", "name": "f39445420fcee9ccaf245b3d8cb4ee63"}, {"is_disabled": 0, "is_reserved": 0, "fusion_lat": 0.0, "lat": 38.8965895, "fusion_lon": 0.0, "rental_uris": {"ios": "https://dc.lft.to/lastmile_qr_scan", "android": "https://dc.lft.to/lastmile_qr_scan"}, "lon": -77.04337966666667, "bike_id": "d574973b6c9b15064d7973ce251f5de5", "type": "electric_scooter", "name": "d574973b6c9b15064d7973ce251f5de5"}, {"is_disabled": 0, "is_reserved": 0, "fusion_lat": 0.0, "lat": 38.95430833333333, "fusion_lon": 0.0, "rental_uris": {"ios": "https://dc.lft.to/lastmile_qr_scan", "android": "https://dc.lft.to/lastmile_qr_scan"}, "lon": -76.98795666666666, "bike_id": "f07655ab4e77f0d7bbe3ab77e45e00d4", "type": "electric_scooter", "name": "f07655ab4e77f0d7bbe3ab77e45e00d4"}, {"is_disabled": 0, "is_reserved": 0, "fusion_lat": 0.0, "lat": 38.91933916666667, "fusion_lon": 0.0, "rental_uris": {"ios": "https://dc.lft.to/lastmile_qr_scan", "android": "https://dc.lft.to/lastmile_qr_scan"}, "lon": -77.0135635, "bike_id": "8e15ff9448a32eac2b4417993cbb0497", "type": "electric_scooter", "name": "8e15ff9448a32eac2b4417993cbb0497"}, {"is_disabled": 0, "is_reserved": 0, "fusion_lat": 0.0, "lat": 38.909707166666664, "fusion_lon": 0.0, "rental_uris": {"ios": "https://dc.lft.to/lastmile_qr_scan", "android": "https://dc.lft.to/lastmile_qr_scan"}, "lon": -77.04834266666667, "bike_id": "c725b00b4b8067afa8f1340712cbed72", "type": "electric_scooter", "name": "c725b00b4b8067afa8f1340712cbed72"}, {"is_disabled": 0, "is_reserved": 0, "fusion_lat": 0.0, "lat": 38.902520833333334, "fusion_lon": 0.0, "rental_uris": {"ios": "https://dc.lft.to/lastmile_qr_scan", "android": "https://dc.lft.to/lastmile_qr_scan"}, "lon": -76.97701983333333, "bike_id": "5344f30aee5cd97d590d08fd74ea35f0", "type": "electric_scooter", "name": "5344f30aee5cd97d590d08fd74ea35f0"}, {"is_disabled": 0, "is_reserved": 0, "fusion_lat": 0.0, "lat": 38.8901295, "fusion_lon": 0.0, "rental_uris": {"ios": "https://dc.lft.to/lastmile_qr_scan", "android": "https://dc.lft.to/lastmile_qr_scan"}, "lon": -76.93749, "bike_id": "da7ed154602fa64fe81fe4f5de5c2acc", "type": "electric_scooter", "name": "da7ed154602fa64fe81fe4f5de5c2acc"}, {"is_disabled": 0, "is_reserved": 0, "fusion_lat": 0.0, "lat": 38.918621333333334, "fusion_lon": 0.0, "rental_uris": {"ios": "https://dc.lft.to/lastmile_qr_scan", "android": "https://dc.lft.to/lastmile_qr_scan"}, "lon": -76.96087916666667, "bike_id": "b6f8c6c51af7f91a053de80be600e865", "type": "electric_scooter", "name": "b6f8c6c51af7f91a053de80be600e865"}, {"is_disabled": 0, "is_reserved": 0, "fusion_lat": 0.0, "lat": 38.894088333333336, "fusion_lon": 0.0, "rental_uris": {"ios": "https://dc.lft.to/lastmile_qr_scan", "android": "https://dc.lft.to/lastmile_qr_scan"}, "lon": -77.03375216666667, "bike_id": "69ef721b97a5af5d473efdc14c0180b7", "type": "electric_scooter", "name": "69ef721b97a5af5d473efdc14c0180b7"}, {"is_disabled": 0, "is_reserved": 0, "fusion_lat": 0.0, "lat": 38.89720333333333, "fusion_lon": 0.0, "rental_uris": {"ios": "https://dc.lft.to/lastmile_qr_scan", "android": "https://dc.lft.to/lastmile_qr_scan"}, "lon": -77.007976, "bike_id": "cf16481082e379055a1d3712865c23c6", "type": "electric_scooter", "name": "cf16481082e379055a1d3712865c23c6"}, {"is_disabled": 0, "is_reserved": 0, "fusion_lat": 0.0, "lat": 38.919051, "fusion_lon": 0.0, "rental_uris": {"ios": "https://dc.lft.to/lastmile_qr_scan", "android": "https://dc.lft.to/lastmile_qr_scan"}, "lon": -77.03217016666666, "bike_id": "502cd22b1aba90118ca7c0d584c21aec", "type": "electric_scooter", "name": "502cd22b1aba90118ca7c0d584c21aec"}, {"is_disabled": 0, "is_reserved": 0, "fusion_lat": 0.0, "lat": 38.91381616666666, "fusion_lon": 0.0, "rental_uris": {"ios": "https://dc.lft.to/lastmile_qr_scan", "android": "https://dc.lft.to/lastmile_qr_scan"}, "lon": -77.04608583333334, "bike_id": "8adc87dca23e0dbd1701d6e0b1e87560", "type": "electric_scooter", "name": "8adc87dca23e0dbd1701d6e0b1e87560"}, {"is_disabled": 0, "is_reserved": 0, "fusion_lat": 0.0, "lat": 38.936121166666666, "fusion_lon": 0.0, "rental_uris": {"ios": "https://dc.lft.to/lastmile_qr_scan", "android": "https://dc.lft.to/lastmile_qr_scan"}, "lon": -77.037899, "bike_id": "1b258fcd8c84a2de19f0ac88dca641d1", "type": "electric_scooter", "name": "1b258fcd8c84a2de19f0ac88dca641d1"}, {"is_disabled": 0, "is_reserved": 0, "fusion_lat": 0.0, "lat": 38.89253583333333, "fusion_lon": 0.0, "rental_uris": {"ios": "https://dc.lft.to/lastmile_qr_scan", "android": "https://dc.lft.to/lastmile_qr_scan"}, "lon": -77.04660033333333, "bike_id": "de9641d75922b386bd39f9d3da5b20da", "type": "electric_scooter", "name": "de9641d75922b386bd39f9d3da5b20da"}, {"is_disabled": 0, "is_reserved": 0, "fusion_lat": 0.0, "lat": 38.931006, "fusion_lon": 0.0, "rental_uris": {"ios": "https://dc.lft.to/lastmile_qr_scan", "android": "https://dc.lft.to/lastmile_qr_scan"}, "lon": -77.0247525, "bike_id": "728ca9646a87f3a984cb0e004ab66403", "type": "electric_scooter", "name": "728ca9646a87f3a984cb0e004ab66403"}, {"is_disabled": 0, "is_reserved": 0, "fusion_lat": 0.0, "lat": 38.933507, "fusion_lon": 0.0, "rental_uris": {"ios": "https://dc.lft.to/lastmile_qr_scan", "android": "https://dc.lft.to/lastmile_qr_scan"}, "lon": -77.02400616666667, "bike_id": "939b30ee2aba0bf49e2fc5c6d461acee", "type": "electric_scooter", "name": "939b30ee2aba0bf49e2fc5c6d461acee"}, {"is_disabled": 0, "is_reserved": 0, "fusion_lat": 0.0, "lat": 38.932126833333335, "fusion_lon": 0.0, "rental_uris": {"ios": "https://dc.lft.to/lastmile_qr_scan", "android": "https://dc.lft.to/lastmile_qr_scan"}, "lon": -77.02289166666667, "bike_id": "2d174a974e80113eb2a807b80615867a", "type": "electric_scooter", "name": "2d174a974e80113eb2a807b80615867a"}, {"is_disabled": 0, "is_reserved": 0, "fusion_lat": 0.0, "lat": 38.900803333333336, "fusion_lon": 0.0, "rental_uris": {"ios": "https://dc.lft.to/lastmile_qr_scan", "android": "https://dc.lft.to/lastmile_qr_scan"}, "lon": -77.05024366666666, "bike_id": "257b65a106966248e702e449dfaf9947", "type": "electric_scooter", "name": "257b65a106966248e702e449dfaf9947"}, {"is_disabled": 0, "is_reserved": 0, "fusion_lat": 0.0, "lat": 38.92079433333333, "fusion_lon": 0.0, "rental_uris": {"ios": "https://dc.lft.to/lastmile_qr_scan", "android": "https://dc.lft.to/lastmile_qr_scan"}, "lon": -77.02406666666667, "bike_id": "1c60aceab1a3911420ef061c78ab2562", "type": "electric_scooter", "name": "1c60aceab1a3911420ef061c78ab2562"}, {"is_disabled": 0, "is_reserved": 0, "fusion_lat": 0.0, "lat": 38.80484216666667, "fusion_lon": 0.0, "rental_uris": {"ios": "https://dc.lft.to/lastmile_qr_scan", "android": "https://dc.lft.to/lastmile_qr_scan"}, "lon": -76.9911085, "bike_id": "a7ce8f0a5f5a334fa14cf37ceeb5161a", "type": "electric_bike", "name": "a7ce8f0a5f5a334fa14cf37ceeb5161a"}, {"is_disabled": 0, "is_reserved": 0, "fusion_lat": 0.0, "lat": 38.93068783333333, "fusion_lon": 0.0, "rental_uris": {"ios": "https://dc.lft.to/lastmile_qr_scan", "android": "https://dc.lft.to/lastmile_qr_scan"}, "lon": -76.97328666666667, "bike_id": "a41a2d758989834eea24eaec17641724", "type": "electric_scooter", "name": "a41a2d758989834eea24eaec17641724"}, {"is_disabled": 0, "is_reserved": 0, "fusion_lat": 0.0, "lat": 38.907611, "fusion_lon": 0.0, "rental_uris": {"ios": "https://dc.lft.to/lastmile_qr_scan", "android": "https://dc.lft.to/lastmile_qr_scan"}, "lon": -77.0360885, "bike_id": "6f7ac1d7d7d7789924e905c4b9966985", "type": "electric_scooter", "name": "6f7ac1d7d7d7789924e905c4b9966985"}, {"is_disabled": 0, "is_reserved": 0, "fusion_lat": 0.0, "lat": 38.956421166666665, "fusion_lon": 0.0, "rental_uris": {"ios": "https://dc.lft.to/lastmile_qr_scan", "android": "https://dc.lft.to/lastmile_qr_scan"}, "lon": -77.03627733333333, "bike_id": "2b9b7808701dfc4f9e855b8b6977c2a1", "type": "electric_scooter", "name": "2b9b7808701dfc4f9e855b8b6977c2a1"}, {"is_disabled": 0, "is_reserved": 0, "fusion_lat": 0.0, "lat": 38.92599466666667, "fusion_lon": 0.0, "rental_uris": {"ios": "https://dc.lft.to/lastmile_qr_scan", "android": "https://dc.lft.to/lastmile_qr_scan"}, "lon": -76.98245066666667, "bike_id": "dca06ee9fa101dcc1573e3d604c38f53", "type": "electric_bike", "name": "dca06ee9fa101dcc1573e3d604c38f53"}, {"is_disabled": 0, "is_reserved": 0, "fusion_lat": 0.0, "lat": 38.931906166666664, "fusion_lon": 0.0, "rental_uris": {"ios": "https://dc.lft.to/lastmile_qr_scan", "android": "https://dc.lft.to/lastmile_qr_scan"}, "lon": -77.018725, "bike_id": "b525f0e086abc015ff41917372ce1722", "type": "electric_scooter", "name": "b525f0e086abc015ff41917372ce1722"}, {"is_disabled": 0, "is_reserved": 0, "fusion_lat": 0.0, "lat": 38.89085583333333, "fusion_lon": 0.0, "rental_uris": {"ios": "https://dc.lft.to/lastmile_qr_scan", "android": "https://dc.lft.to/lastmile_qr_scan"}, "lon": -76.95478216666666, "bike_id": "f2e47d0807da719c2f0492003adc1672", "type": "electric_bike", "name": "f2e47d0807da719c2f0492003adc1672"}, {"is_disabled": 0, "is_reserved": 0, "fusion_lat": 0.0, "lat": 38.9228015, "fusion_lon": 0.0, "rental_uris": {"ios": "https://dc.lft.to/lastmile_qr_scan", "android": "https://dc.lft.to/lastmile_qr_scan"}, "lon": -77.034145, "bike_id": "fbf6ef2b0fbee547658cded5f49fd5f9", "type": "electric_scooter", "name": "fbf6ef2b0fbee547658cded5f49fd5f9"}, {"is_disabled": 0, "is_reserved": 0, "fusion_lat": 0.0, "lat": 38.92183566666667, "fusion_lon": 0.0, "rental_uris": {"ios": "https://dc.lft.to/lastmile_qr_scan", "android": "https://dc.lft.to/lastmile_qr_scan"}, "lon": -77.04694583333334, "bike_id": "3539acdfcca76274b300c68cbab90ee8", "type": "electric_scooter", "name": "3539acdfcca76274b300c68cbab90ee8"}, {"is_disabled": 0, "is_reserved": 0, "fusion_lat": 0.0, "lat": 38.9193045, "fusion_lon": 0.0, "rental_uris": {"ios": "https://dc.lft.to/lastmile_qr_scan", "android": "https://dc.lft.to/lastmile_qr_scan"}, "lon": -77.02513533333334, "bike_id": "d71342ba2bad38d5d646933a05727245", "type": "electric_scooter", "name": "d71342ba2bad38d5d646933a05727245"}, {"is_disabled": 0, "is_reserved": 0, "fusion_lat": 0.0, "lat": 38.894987, "fusion_lon": 0.0, "rental_uris": {"ios": "https://dc.lft.to/lastmile_qr_scan", "android": "https://dc.lft.to/lastmile_qr_scan"}, "lon": -77.02092566666667, "bike_id": "6fd140d66f684ba7129b6c7dc0a66d57", "type": "electric_scooter", "name": "6fd140d66f684ba7129b6c7dc0a66d57"}, {"is_disabled": 0, "is_reserved": 0, "fusion_lat": 0.0, "lat": 38.938732333333334, "fusion_lon": 0.0, "rental_uris": {"ios": "https://dc.lft.to/lastmile_qr_scan", "android": "https://dc.lft.to/lastmile_qr_scan"}, "lon": -77.06018566666667, "bike_id": "95223b8c80712d566b72b979d2d5c657", "type": "electric_scooter", "name": "95223b8c80712d566b72b979d2d5c657"}, {"is_disabled": 0, "is_reserved": 0, "fusion_lat": 0.0, "lat": 38.89237, "fusion_lon": 0.0, "rental_uris": {"ios": "https://dc.lft.to/lastmile_qr_scan", "android": "https://dc.lft.to/lastmile_qr_scan"}, "lon": -77.0260155, "bike_id": "2a63564fe69a7e9d017b087ed58af5bc", "type": "electric_scooter", "name": "2a63564fe69a7e9d017b087ed58af5bc"}, {"is_disabled": 0, "is_reserved": 0, "fusion_lat": 0.0, "lat": 38.906678166666666, "fusion_lon": 0.0, "rental_uris": {"ios": "https://dc.lft.to/lastmile_qr_scan", "android": "https://dc.lft.to/lastmile_qr_scan"}, "lon": -76.98598216666667, "bike_id": "a928e81eec4f1e372a535d55520fb8e4", "type": "electric_scooter", "name": "a928e81eec4f1e372a535d55520fb8e4"}, {"is_disabled": 0, "is_reserved": 0, "fusion_lat": 0.0, "lat": 38.93744183333333, "fusion_lon": 0.0, "rental_uris": {"ios": "https://dc.lft.to/lastmile_qr_scan", "android": "https://dc.lft.to/lastmile_qr_scan"}, "lon": -77.02134716666667, "bike_id": "0e9d5ab4cc53bfee7fb03fe246ef7589", "type": "electric_scooter", "name": "0e9d5ab4cc53bfee7fb03fe246ef7589"}, {"is_disabled": 0, "is_reserved": 0, "fusion_lat": 0.0, "lat": 38.96048116666667, "fusion_lon": 0.0, "rental_uris": {"ios": "https://dc.lft.to/lastmile_qr_scan", "android": "https://dc.lft.to/lastmile_qr_scan"}, "lon": -77.00511583333333, "bike_id": "e513fcd28d5fd7a2631e21a99890889d", "type": "electric_scooter", "name": "e513fcd28d5fd7a2631e21a99890889d"}, {"is_disabled": 0, "is_reserved": 0, "fusion_lat": 0.0, "lat": 38.930637833333336, "fusion_lon": 0.0, "rental_uris": {"ios": "https://dc.lft.to/lastmile_qr_scan", "android": "https://dc.lft.to/lastmile_qr_scan"}, "lon": -77.0434255, "bike_id": "b0d73817ce9e09a8b69476ef90ab7321", "type": "electric_scooter", "name": "b0d73817ce9e09a8b69476ef90ab7321"}, {"is_disabled": 0, "is_reserved": 0, "fusion_lat": 0.0, "lat": 38.90265816666667, "fusion_lon": 0.0, "rental_uris": {"ios": "https://dc.lft.to/lastmile_qr_scan", "android": "https://dc.lft.to/lastmile_qr_scan"}, "lon": -77.00175116666666, "bike_id": "4db10a500f617db4c62d2e15ec16c77e", "type": "electric_scooter", "name": "4db10a500f617db4c62d2e15ec16c77e"}, {"is_disabled": 0, "is_reserved": 0, "fusion_lat": 0.0, "lat": 38.90654283333333, "fusion_lon": 0.0, "rental_uris": {"ios": "https://dc.lft.to/lastmile_qr_scan", "android": "https://dc.lft.to/lastmile_qr_scan"}, "lon": -77.00569216666666, "bike_id": "11955cf21c8cef5dfb45f07901ff5107", "type": "electric_scooter", "name": "11955cf21c8cef5dfb45f07901ff5107"}, {"is_disabled": 0, "is_reserved": 0, "fusion_lat": 0.0, "lat": 38.877776, "fusion_lon": 0.0, "rental_uris": {"ios": "https://dc.lft.to/lastmile_qr_scan", "android": "https://dc.lft.to/lastmile_qr_scan"}, "lon": -77.00208916666666, "bike_id": "7498f52aa5209dac0adf533942fd125f", "type": "electric_scooter", "name": "7498f52aa5209dac0adf533942fd125f"}, {"is_disabled": 0, "is_reserved": 0, "fusion_lat": 0.0, "lat": 38.89237033333333, "fusion_lon": 0.0, "rental_uris": {"ios": "https://dc.lft.to/lastmile_qr_scan", "android": "https://dc.lft.to/lastmile_qr_scan"}, "lon": -77.03185433333333, "bike_id": "561f125bf6f5ad6c6336c8371c580ab7", "type": "electric_scooter", "name": "561f125bf6f5ad6c6336c8371c580ab7"}, {"is_disabled": 0, "is_reserved": 0, "fusion_lat": 0.0, "lat": 38.90036533333333, "fusion_lon": 0.0, "rental_uris": {"ios": "https://dc.lft.to/lastmile_qr_scan", "android": "https://dc.lft.to/lastmile_qr_scan"}, "lon": -77.01191033333333, "bike_id": "8e189cd809221590febd4fd07fe3e82b", "type": "electric_scooter", "name": "8e189cd809221590febd4fd07fe3e82b"}, {"is_disabled": 0, "is_reserved": 0, "fusion_lat": 0.0, "lat": 38.90264283333333, "fusion_lon": 0.0, "rental_uris": {"ios": "https://dc.lft.to/lastmile_qr_scan", "android": "https://dc.lft.to/lastmile_qr_scan"}, "lon": -77.06174766666666, "bike_id": "0ce4c11582bf572fe6edfdd1e12cbf64", "type": "electric_scooter", "name": "0ce4c11582bf572fe6edfdd1e12cbf64"}, {"is_disabled": 0, "is_reserved": 0, "fusion_lat": 0.0, "lat": 38.9192385, "fusion_lon": 0.0, "rental_uris": {"ios": "https://dc.lft.to/lastmile_qr_scan", "android": "https://dc.lft.to/lastmile_qr_scan"}, "lon": -77.03222366666667, "bike_id": "ea6d88a42439903f90621bfe5c69e1bf", "type": "electric_scooter", "name": "ea6d88a42439903f90621bfe5c69e1bf"}, {"is_disabled": 0, "is_reserved": 0, "fusion_lat": 0.0, "lat": 38.918374666666665, "fusion_lon": 0.0, "rental_uris": {"ios": "https://dc.lft.to/lastmile_qr_scan", "android": "https://dc.lft.to/lastmile_qr_scan"}, "lon": -77.05317366666667, "bike_id": "2a5cdec9964f1de5aa1a234222c4e3f2", "type": "electric_scooter", "name": "2a5cdec9964f1de5aa1a234222c4e3f2"}, {"is_disabled": 0, "is_reserved": 0, "fusion_lat": 0.0, "lat": 38.95670783333333, "fusion_lon": 0.0, "rental_uris": {"ios": "https://dc.lft.to/lastmile_qr_scan", "android": "https://dc.lft.to/lastmile_qr_scan"}, "lon": -77.036301, "bike_id": "df9b791da0858349cb56e01b95fea74c", "type": "electric_scooter", "name": "df9b791da0858349cb56e01b95fea74c"}, {"is_disabled": 0, "is_reserved": 0, "fusion_lat": 0.0, "lat": 38.850849, "fusion_lon": 0.0, "rental_uris": {"ios": "https://dc.lft.to/lastmile_qr_scan", "android": "https://dc.lft.to/lastmile_qr_scan"}, "lon": -76.98121783333333, "bike_id": "ec5b43931d8256a8a6485d0c8d62f35d", "type": "electric_bike", "name": "ec5b43931d8256a8a6485d0c8d62f35d"}, {"is_disabled": 0, "is_reserved": 0, "fusion_lat": 0.0, "lat": 38.8764895, "fusion_lon": 0.0, "rental_uris": {"ios": "https://dc.lft.to/lastmile_qr_scan", "android": "https://dc.lft.to/lastmile_qr_scan"}, "lon": -77.02079133333334, "bike_id": "6059c1918b18df0e636e69e18249d54c", "type": "electric_scooter", "name": "6059c1918b18df0e636e69e18249d54c"}, {"is_disabled": 0, "is_reserved": 0, "fusion_lat": 0.0, "lat": 38.92383233333334, "fusion_lon": 0.0, "rental_uris": {"ios": "https://dc.lft.to/lastmile_qr_scan", "android": "https://dc.lft.to/lastmile_qr_scan"}, "lon": -77.03098383333334, "bike_id": "bfd0e1ff96a2bbb6952012a353f1917d", "type": "electric_scooter", "name": "bfd0e1ff96a2bbb6952012a353f1917d"}, {"is_disabled": 0, "is_reserved": 0, "fusion_lat": 0.0, "lat": 38.91253066666667, "fusion_lon": 0.0, "rental_uris": {"ios": "https://dc.lft.to/lastmile_qr_scan", "android": "https://dc.lft.to/lastmile_qr_scan"}, "lon": -77.01948183333333, "bike_id": "21c23a5d5132f7916edee7289c789ff1", "type": "electric_scooter", "name": "21c23a5d5132f7916edee7289c789ff1"}, {"is_disabled": 0, "is_reserved": 0, "fusion_lat": 0.0, "lat": 38.90281516666667, "fusion_lon": 0.0, "rental_uris": {"ios": "https://dc.lft.to/lastmile_qr_scan", "android": "https://dc.lft.to/lastmile_qr_scan"}, "lon": -77.01544883333334, "bike_id": "b0c21e5e909f8ccbf02aef511fc170d1", "type": "electric_scooter", "name": "b0c21e5e909f8ccbf02aef511fc170d1"}, {"is_disabled": 0, "is_reserved": 0, "fusion_lat": 0.0, "lat": 38.925536, "fusion_lon": 0.0, "rental_uris": {"ios": "https://dc.lft.to/lastmile_qr_scan", "android": "https://dc.lft.to/lastmile_qr_scan"}, "lon": -77.022522, "bike_id": "0416003745477cc3687534e483837f75", "type": "electric_scooter", "name": "0416003745477cc3687534e483837f75"}, {"is_disabled": 0, "is_reserved": 0, "fusion_lat": 0.0, "lat": 38.88626683333333, "fusion_lon": 0.0, "rental_uris": {"ios": "https://dc.lft.to/lastmile_qr_scan", "android": "https://dc.lft.to/lastmile_qr_scan"}, "lon": -77.028249, "bike_id": "c874feeef73185d55d5e3e498b764bb5", "type": "electric_scooter", "name": "c874feeef73185d55d5e3e498b764bb5"}, {"is_disabled": 0, "is_reserved": 0, "fusion_lat": 0.0, "lat": 38.90845266666667, "fusion_lon": 0.0, "rental_uris": {"ios": "https://dc.lft.to/lastmile_qr_scan", "android": "https://dc.lft.to/lastmile_qr_scan"}, "lon": -76.93447916666666, "bike_id": "c1ac6b8f215dcf1744e1d8e4fd23bdd5", "type": "electric_scooter", "name": "c1ac6b8f215dcf1744e1d8e4fd23bdd5"}, {"is_disabled": 0, "is_reserved": 0, "fusion_lat": 0.0, "lat": 38.925844, "fusion_lon": 0.0, "rental_uris": {"ios": "https://dc.lft.to/lastmile_qr_scan", "android": "https://dc.lft.to/lastmile_qr_scan"}, "lon": -77.04022316666666, "bike_id": "0defac4fe775407124585ede90d60c9c", "type": "electric_bike", "name": "0defac4fe775407124585ede90d60c9c"}, {"is_disabled": 0, "is_reserved": 0, "fusion_lat": 0.0, "lat": 38.90588983333333, "fusion_lon": 0.0, "rental_uris": {"ios": "https://dc.lft.to/lastmile_qr_scan", "android": "https://dc.lft.to/lastmile_qr_scan"}, "lon": -77.0218125, "bike_id": "a44d3ed90e42700219397f84ae36880f", "type": "electric_scooter", "name": "a44d3ed90e42700219397f84ae36880f"}, {"is_disabled": 0, "is_reserved": 0, "fusion_lat": 0.0, "lat": 38.927481666666665, "fusion_lon": 0.0, "rental_uris": {"ios": "https://dc.lft.to/lastmile_qr_scan", "android": "https://dc.lft.to/lastmile_qr_scan"}, "lon": -77.033065, "bike_id": "9af23890d38c3a351325187c4c4051f9", "type": "electric_scooter", "name": "9af23890d38c3a351325187c4c4051f9"}, {"is_disabled": 0, "is_reserved": 0, "fusion_lat": 0.0, "lat": 38.968018, "fusion_lon": 0.0, "rental_uris": {"ios": "https://dc.lft.to/lastmile_qr_scan", "android": "https://dc.lft.to/lastmile_qr_scan"}, "lon": -77.024329, "bike_id": "8190b5669038c32ed36b6518f6c68c0e", "type": "electric_scooter", "name": "8190b5669038c32ed36b6518f6c68c0e"}, {"is_disabled": 0, "is_reserved": 0, "fusion_lat": 0.0, "lat": 38.9065515, "fusion_lon": 0.0, "rental_uris": {"ios": "https://dc.lft.to/lastmile_qr_scan", "android": "https://dc.lft.to/lastmile_qr_scan"}, "lon": -77.05131083333333, "bike_id": "3670fd41d0553be989d1d8b2aceac42d", "type": "electric_bike", "name": "3670fd41d0553be989d1d8b2aceac42d"}, {"is_disabled": 0, "is_reserved": 0, "fusion_lat": 0.0, "lat": 38.91555116666667, "fusion_lon": 0.0, "rental_uris": {"ios": "https://dc.lft.to/lastmile_qr_scan", "android": "https://dc.lft.to/lastmile_qr_scan"}, "lon": -77.00363383333334, "bike_id": "60f17d1ff46dfb67a6951a063f75c6cf", "type": "electric_scooter", "name": "60f17d1ff46dfb67a6951a063f75c6cf"}, {"is_disabled": 0, "is_reserved": 0, "fusion_lat": 0.0, "lat": 38.9491505, "fusion_lon": 0.0, "rental_uris": {"ios": "https://dc.lft.to/lastmile_qr_scan", "android": "https://dc.lft.to/lastmile_qr_scan"}, "lon": -77.02085466666666, "bike_id": "8c61b90b7f8af0b65a65866eda2a3bee", "type": "electric_scooter", "name": "8c61b90b7f8af0b65a65866eda2a3bee"}, {"is_disabled": 0, "is_reserved": 0, "fusion_lat": 0.0, "lat": 38.87527216666667, "fusion_lon": 0.0, "rental_uris": {"ios": "https://dc.lft.to/lastmile_qr_scan", "android": "https://dc.lft.to/lastmile_qr_scan"}, "lon": -77.01234083333334, "bike_id": "1da38901cd71cefdea6bb6c9893dbf23", "type": "electric_scooter", "name": "1da38901cd71cefdea6bb6c9893dbf23"}, {"is_disabled": 0, "is_reserved": 0, "fusion_lat": 0.0, "lat": 38.9270865, "fusion_lon": 0.0, "rental_uris": {"ios": "https://dc.lft.to/lastmile_qr_scan", "android": "https://dc.lft.to/lastmile_qr_scan"}, "lon": -76.96079516666667, "bike_id": "3f543da481b1cdaf70411ac951b6d466", "type": "electric_scooter", "name": "3f543da481b1cdaf70411ac951b6d466"}, {"is_disabled": 0, "is_reserved": 0, "fusion_lat": 0.0, "lat": 38.9161515, "fusion_lon": 0.0, "rental_uris": {"ios": "https://dc.lft.to/lastmile_qr_scan", "android": "https://dc.lft.to/lastmile_qr_scan"}, "lon": -77.02093083333334, "bike_id": "565312c48f63efc7fb328baf68cd1447", "type": "electric_scooter", "name": "565312c48f63efc7fb328baf68cd1447"}, {"is_disabled": 0, "is_reserved": 0, "fusion_lat": 0.0, "lat": 38.8905445, "fusion_lon": 0.0, "rental_uris": {"ios": "https://dc.lft.to/lastmile_qr_scan", "android": "https://dc.lft.to/lastmile_qr_scan"}, "lon": -77.019688, "bike_id": "b0e0f1ab1a9df061ab3914b8ff41e94a", "type": "electric_scooter", "name": "b0e0f1ab1a9df061ab3914b8ff41e94a"}, {"is_disabled": 0, "is_reserved": 0, "fusion_lat": 0.0, "lat": 38.93640666666667, "fusion_lon": 0.0, "rental_uris": {"ios": "https://dc.lft.to/lastmile_qr_scan", "android": "https://dc.lft.to/lastmile_qr_scan"}, "lon": -77.03311516666666, "bike_id": "47df17bb5f79abaa3708ce7338903b31", "type": "electric_scooter", "name": "47df17bb5f79abaa3708ce7338903b31"}, {"is_disabled": 0, "is_reserved": 0, "fusion_lat": 0.0, "lat": 38.892967, "fusion_lon": 0.0, "rental_uris": {"ios": "https://dc.lft.to/lastmile_qr_scan", "android": "https://dc.lft.to/lastmile_qr_scan"}, "lon": -77.05000516666666, "bike_id": "cf3567561fca005493fcb2afd4172ac8", "type": "electric_scooter", "name": "cf3567561fca005493fcb2afd4172ac8"}, {"is_disabled": 0, "is_reserved": 0, "fusion_lat": 0.0, "lat": 38.937544333333335, "fusion_lon": 0.0, "rental_uris": {"ios": "https://dc.lft.to/lastmile_qr_scan", "android": "https://dc.lft.to/lastmile_qr_scan"}, "lon": -77.03433116666666, "bike_id": "74e6d9c3fd2c4404a3409356c96846ff", "type": "electric_scooter", "name": "74e6d9c3fd2c4404a3409356c96846ff"}, {"is_disabled": 0, "is_reserved": 0, "fusion_lat": 0.0, "lat": 38.92386583333333, "fusion_lon": 0.0, "rental_uris": {"ios": "https://dc.lft.to/lastmile_qr_scan", "android": "https://dc.lft.to/lastmile_qr_scan"}, "lon": -77.04314216666667, "bike_id": "9258bfa2fd97896e4a91bb1707e8501b", "type": "electric_scooter", "name": "9258bfa2fd97896e4a91bb1707e8501b"}, {"is_disabled": 0, "is_reserved": 0, "fusion_lat": 0.0, "lat": 38.87911833333333, "fusion_lon": 0.0, "rental_uris": {"ios": "https://dc.lft.to/lastmile_qr_scan", "android": "https://dc.lft.to/lastmile_qr_scan"}, "lon": -77.0086455, "bike_id": "aec9e5a450859f0c7f61430b03af2e10", "type": "electric_scooter", "name": "aec9e5a450859f0c7f61430b03af2e10"}, {"is_disabled": 0, "is_reserved": 0, "fusion_lat": 0.0, "lat": 38.91925633333334, "fusion_lon": 0.0, "rental_uris": {"ios": "https://dc.lft.to/lastmile_qr_scan", "android": "https://dc.lft.to/lastmile_qr_scan"}, "lon": -77.02405733333333, "bike_id": "d43bee76cdabff192ce1686e037b8fa2", "type": "electric_scooter", "name": "d43bee76cdabff192ce1686e037b8fa2"}, {"is_disabled": 0, "is_reserved": 0, "fusion_lat": 0.0, "lat": 38.9180075, "fusion_lon": 0.0, "rental_uris": {"ios": "https://dc.lft.to/lastmile_qr_scan", "android": "https://dc.lft.to/lastmile_qr_scan"}, "lon": -77.0354865, "bike_id": "1fde4c8da36d18c44c16dabe123bd3d2", "type": "electric_scooter", "name": "1fde4c8da36d18c44c16dabe123bd3d2"}, {"is_disabled": 0, "is_reserved": 0, "fusion_lat": 0.0, "lat": 38.939196, "fusion_lon": 0.0, "rental_uris": {"ios": "https://dc.lft.to/lastmile_qr_scan", "android": "https://dc.lft.to/lastmile_qr_scan"}, "lon": -77.03269966666667, "bike_id": "3abfcab11ba6af1873340122ba7aa449", "type": "electric_scooter", "name": "3abfcab11ba6af1873340122ba7aa449"}, {"is_disabled": 0, "is_reserved": 0, "fusion_lat": 0.0, "lat": 38.887151833333334, "fusion_lon": 0.0, "rental_uris": {"ios": "https://dc.lft.to/lastmile_qr_scan", "android": "https://dc.lft.to/lastmile_qr_scan"}, "lon": -76.99628933333334, "bike_id": "581ae4e6e8c7229a8dbdcffb95e04221", "type": "electric_scooter", "name": "581ae4e6e8c7229a8dbdcffb95e04221"}, {"is_disabled": 0, "is_reserved": 0, "fusion_lat": 0.0, "lat": 38.87067316666667, "fusion_lon": 0.0, "rental_uris": {"ios": "https://dc.lft.to/lastmile_qr_scan", "android": "https://dc.lft.to/lastmile_qr_scan"}, "lon": -77.110369, "bike_id": "628b8a11ab8c64081d2300e13df32e86", "type": "electric_bike", "name": "628b8a11ab8c64081d2300e13df32e86"}, {"is_disabled": 0, "is_reserved": 0, "fusion_lat": 0.0, "lat": 38.868294166666665, "fusion_lon": 0.0, "rental_uris": {"ios": "https://dc.lft.to/lastmile_qr_scan", "android": "https://dc.lft.to/lastmile_qr_scan"}, "lon": -76.98015433333333, "bike_id": "3b93b98c6f86aabdc245f181b40338da", "type": "electric_bike", "name": "3b93b98c6f86aabdc245f181b40338da"}, {"is_disabled": 0, "is_reserved": 0, "fusion_lat": 0.0, "lat": 38.922431333333336, "fusion_lon": 0.0, "rental_uris": {"ios": "https://dc.lft.to/lastmile_qr_scan", "android": "https://dc.lft.to/lastmile_qr_scan"}, "lon": -77.03901633333334, "bike_id": "a41f61ab9298efc951c5edb08cd713db", "type": "electric_scooter", "name": "a41f61ab9298efc951c5edb08cd713db"}, {"is_disabled": 0, "is_reserved": 0, "fusion_lat": 0.0, "lat": 38.902613333333335, "fusion_lon": 0.0, "rental_uris": {"ios": "https://dc.lft.to/lastmile_qr_scan", "android": "https://dc.lft.to/lastmile_qr_scan"}, "lon": -77.001711, "bike_id": "0226fcf4fe0eada163a9fd763407cce6", "type": "electric_scooter", "name": "0226fcf4fe0eada163a9fd763407cce6"}, {"is_disabled": 0, "is_reserved": 0, "fusion_lat": 0.0, "lat": 38.870904833333334, "fusion_lon": 0.0, "rental_uris": {"ios": "https://dc.lft.to/lastmile_qr_scan", "android": "https://dc.lft.to/lastmile_qr_scan"}, "lon": -77.13327966666667, "bike_id": "f93b35a56a7b24f8b12f39c1b81df35b", "type": "electric_bike", "name": "f93b35a56a7b24f8b12f39c1b81df35b"}, {"is_disabled": 0, "is_reserved": 0, "fusion_lat": 0.0, "lat": 38.90243516666666, "fusion_lon": 0.0, "rental_uris": {"ios": "https://dc.lft.to/lastmile_qr_scan", "android": "https://dc.lft.to/lastmile_qr_scan"}, "lon": -77.0343975, "bike_id": "413ab455607c64acde0b4a28dbefa1a6", "type": "electric_scooter", "name": "413ab455607c64acde0b4a28dbefa1a6"}, {"is_disabled": 0, "is_reserved": 0, "fusion_lat": 0.0, "lat": 38.8465075, "fusion_lon": 0.0, "rental_uris": {"ios": "https://dc.lft.to/lastmile_qr_scan", "android": "https://dc.lft.to/lastmile_qr_scan"}, "lon": -77.00370216666667, "bike_id": "8a2a73ceec33a85bfbf48c46eea62792", "type": "electric_scooter", "name": "8a2a73ceec33a85bfbf48c46eea62792"}, {"is_disabled": 0, "is_reserved": 0, "fusion_lat": 0.0, "lat": 38.900370333333335, "fusion_lon": 0.0, "rental_uris": {"ios": "https://dc.lft.to/lastmile_qr_scan", "android": "https://dc.lft.to/lastmile_qr_scan"}, "lon": -77.0176415, "bike_id": "fffd8db16ca885f21be3c98b84694c98", "type": "electric_scooter", "name": "fffd8db16ca885f21be3c98b84694c98"}, {"is_disabled": 0, "is_reserved": 0, "fusion_lat": 0.0, "lat": 38.913155833333334, "fusion_lon": 0.0, "rental_uris": {"ios": "https://dc.lft.to/lastmile_qr_scan", "android": "https://dc.lft.to/lastmile_qr_scan"}, "lon": -77.01436183333334, "bike_id": "f83cb789693cea5ffda5a5b4e0c4c58b", "type": "electric_scooter", "name": "f83cb789693cea5ffda5a5b4e0c4c58b"}, {"is_disabled": 0, "is_reserved": 0, "fusion_lat": 0.0, "lat": 38.887127166666666, "fusion_lon": 0.0, "rental_uris": {"ios": "https://dc.lft.to/lastmile_qr_scan", "android": "https://dc.lft.to/lastmile_qr_scan"}, "lon": -76.9834305, "bike_id": "ccc18fc873d0ace564c2244594208574", "type": "electric_scooter", "name": "ccc18fc873d0ace564c2244594208574"}, {"is_disabled": 0, "is_reserved": 0, "fusion_lat": 0.0, "lat": 38.88027916666667, "fusion_lon": 0.0, "rental_uris": {"ios": "https://dc.lft.to/lastmile_qr_scan", "android": "https://dc.lft.to/lastmile_qr_scan"}, "lon": -76.9432225, "bike_id": "7c7b9ccf7c61f4bf28efd58730baba47", "type": "electric_scooter", "name": "7c7b9ccf7c61f4bf28efd58730baba47"}, {"is_disabled": 0, "is_reserved": 0, "fusion_lat": 0.0, "lat": 38.831629, "fusion_lon": 0.0, "rental_uris": {"ios": "https://dc.lft.to/lastmile_qr_scan", "android": "https://dc.lft.to/lastmile_qr_scan"}, "lon": -76.99578266666667, "bike_id": "a33950aecd5caa8ee2a147d8aab531b4", "type": "electric_bike", "name": "a33950aecd5caa8ee2a147d8aab531b4"}, {"is_disabled": 0, "is_reserved": 0, "fusion_lat": 0.0, "lat": 38.92430433333333, "fusion_lon": 0.0, "rental_uris": {"ios": "https://dc.lft.to/lastmile_qr_scan", "android": "https://dc.lft.to/lastmile_qr_scan"}, "lon": -77.02978433333334, "bike_id": "10eb9266827dedd6097d9674ccbced4c", "type": "electric_scooter", "name": "10eb9266827dedd6097d9674ccbced4c"}, {"is_disabled": 0, "is_reserved": 0, "fusion_lat": 0.0, "lat": 38.9147355, "fusion_lon": 0.0, "rental_uris": {"ios": "https://dc.lft.to/lastmile_qr_scan", "android": "https://dc.lft.to/lastmile_qr_scan"}, "lon": -77.01798, "bike_id": "dc24313e35ae7377190b9633d7d1d7f5", "type": "electric_scooter", "name": "dc24313e35ae7377190b9633d7d1d7f5"}, {"is_disabled": 0, "is_reserved": 0, "fusion_lat": 0.0, "lat": 38.91560583333333, "fusion_lon": 0.0, "rental_uris": {"ios": "https://dc.lft.to/lastmile_qr_scan", "android": "https://dc.lft.to/lastmile_qr_scan"}, "lon": -77.050982, "bike_id": "59f25d6813b8147a844568393b61f0cd", "type": "electric_scooter", "name": "59f25d6813b8147a844568393b61f0cd"}, {"is_disabled": 0, "is_reserved": 0, "fusion_lat": 0.0, "lat": 38.89977283333333, "fusion_lon": 0.0, "rental_uris": {"ios": "https://dc.lft.to/lastmile_qr_scan", "android": "https://dc.lft.to/lastmile_qr_scan"}, "lon": -77.023941, "bike_id": "f7c42a47498e45df891c039d2f3ac210", "type": "electric_scooter", "name": "f7c42a47498e45df891c039d2f3ac210"}, {"is_disabled": 0, "is_reserved": 0, "fusion_lat": 0.0, "lat": 38.88978266666667, "fusion_lon": 0.0, "rental_uris": {"ios": "https://dc.lft.to/lastmile_qr_scan", "android": "https://dc.lft.to/lastmile_qr_scan"}, "lon": -76.98042116666667, "bike_id": "242872fa1a45d80fe125532777c9fdf7", "type": "electric_scooter", "name": "242872fa1a45d80fe125532777c9fdf7"}, {"is_disabled": 0, "is_reserved": 0, "fusion_lat": 0.0, "lat": 38.93274016666667, "fusion_lon": 0.0, "rental_uris": {"ios": "https://dc.lft.to/lastmile_qr_scan", "android": "https://dc.lft.to/lastmile_qr_scan"}, "lon": -77.02099766666667, "bike_id": "02d7421c9911692cddda9965daa9a187", "type": "electric_scooter", "name": "02d7421c9911692cddda9965daa9a187"}, {"is_disabled": 0, "is_reserved": 0, "fusion_lat": 0.0, "lat": 38.92781866666667, "fusion_lon": 0.0, "rental_uris": {"ios": "https://dc.lft.to/lastmile_qr_scan", "android": "https://dc.lft.to/lastmile_qr_scan"}, "lon": -77.027456, "bike_id": "cafdc1dbf5845c085c47a3fe61ecc3e8", "type": "electric_scooter", "name": "cafdc1dbf5845c085c47a3fe61ecc3e8"}, {"is_disabled": 0, "is_reserved": 0, "fusion_lat": 0.0, "lat": 38.92233816666667, "fusion_lon": 0.0, "rental_uris": {"ios": "https://dc.lft.to/lastmile_qr_scan", "android": "https://dc.lft.to/lastmile_qr_scan"}, "lon": -77.03892516666667, "bike_id": "a3dd6e629b59de58415718cbc2a9b11a", "type": "electric_scooter", "name": "a3dd6e629b59de58415718cbc2a9b11a"}, {"is_disabled": 0, "is_reserved": 0, "fusion_lat": 0.0, "lat": 38.9113295, "fusion_lon": 0.0, "rental_uris": {"ios": "https://dc.lft.to/lastmile_qr_scan", "android": "https://dc.lft.to/lastmile_qr_scan"}, "lon": -77.02200466666666, "bike_id": "0a880fdc96f57e110eddb16ab767c057", "type": "electric_scooter", "name": "0a880fdc96f57e110eddb16ab767c057"}, {"is_disabled": 0, "is_reserved": 0, "fusion_lat": 0.0, "lat": 38.846809, "fusion_lon": 0.0, "rental_uris": {"ios": "https://dc.lft.to/lastmile_qr_scan", "android": "https://dc.lft.to/lastmile_qr_scan"}, "lon": -77.1394145, "bike_id": "747c5e1eea171fee24ec2ebf64d30240", "type": "electric_bike", "name": "747c5e1eea171fee24ec2ebf64d30240"}, {"is_disabled": 0, "is_reserved": 0, "fusion_lat": 0.0, "lat": 38.8848775, "fusion_lon": 0.0, "rental_uris": {"ios": "https://dc.lft.to/lastmile_qr_scan", "android": "https://dc.lft.to/lastmile_qr_scan"}, "lon": -77.03475633333333, "bike_id": "2ce9c1801dc8a4cce6fb129d1bd7bb81", "type": "electric_scooter", "name": "2ce9c1801dc8a4cce6fb129d1bd7bb81"}, {"is_disabled": 0, "is_reserved": 0, "fusion_lat": 0.0, "lat": 38.930611999999996, "fusion_lon": 0.0, "rental_uris": {"ios": "https://dc.lft.to/lastmile_qr_scan", "android": "https://dc.lft.to/lastmile_qr_scan"}, "lon": -77.023251, "bike_id": "96083ed51fe53dd186873b9b7a42552f", "type": "electric_scooter", "name": "96083ed51fe53dd186873b9b7a42552f"}, {"is_disabled": 0, "is_reserved": 0, "fusion_lat": 0.0, "lat": 38.906481166666666, "fusion_lon": 0.0, "rental_uris": {"ios": "https://dc.lft.to/lastmile_qr_scan", "android": "https://dc.lft.to/lastmile_qr_scan"}, "lon": -77.07033266666667, "bike_id": "eb8e24c88f11df0ef243bbf6a38439ea", "type": "electric_scooter", "name": "eb8e24c88f11df0ef243bbf6a38439ea"}, {"is_disabled": 0, "is_reserved": 0, "fusion_lat": 0.0, "lat": 38.925347, "fusion_lon": 0.0, "rental_uris": {"ios": "https://dc.lft.to/lastmile_qr_scan", "android": "https://dc.lft.to/lastmile_qr_scan"}, "lon": -77.07703966666666, "bike_id": "4dc7a9c9a0d34da7357ae75f31492dfd", "type": "electric_scooter", "name": "4dc7a9c9a0d34da7357ae75f31492dfd"}, {"is_disabled": 0, "is_reserved": 0, "fusion_lat": 0.0, "lat": 38.916578, "fusion_lon": 0.0, "rental_uris": {"ios": "https://dc.lft.to/lastmile_qr_scan", "android": "https://dc.lft.to/lastmile_qr_scan"}, "lon": -77.023983, "bike_id": "4e3baceeff41df2e107a5567a03e48e7", "type": "electric_scooter", "name": "4e3baceeff41df2e107a5567a03e48e7"}, {"is_disabled": 0, "is_reserved": 0, "fusion_lat": 0.0, "lat": 38.92381566666667, "fusion_lon": 0.0, "rental_uris": {"ios": "https://dc.lft.to/lastmile_qr_scan", "android": "https://dc.lft.to/lastmile_qr_scan"}, "lon": -77.027434, "bike_id": "4615b3bbcb944848ad84df40634245b4", "type": "electric_scooter", "name": "4615b3bbcb944848ad84df40634245b4"}, {"is_disabled": 0, "is_reserved": 0, "fusion_lat": 0.0, "lat": 38.909599, "fusion_lon": 0.0, "rental_uris": {"ios": "https://dc.lft.to/lastmile_qr_scan", "android": "https://dc.lft.to/lastmile_qr_scan"}, "lon": -77.04862766666666, "bike_id": "30b85c413952b871df51fa6e29e3d110", "type": "electric_scooter", "name": "30b85c413952b871df51fa6e29e3d110"}, {"is_disabled": 0, "is_reserved": 0, "fusion_lat": 0.0, "lat": 38.893693166666665, "fusion_lon": 0.0, "rental_uris": {"ios": "https://dc.lft.to/lastmile_qr_scan", "android": "https://dc.lft.to/lastmile_qr_scan"}, "lon": -77.02005216666667, "bike_id": "1c1b6a6a2888adc98a20b900d5cf69a4", "type": "electric_scooter", "name": "1c1b6a6a2888adc98a20b900d5cf69a4"}, {"is_disabled": 0, "is_reserved": 0, "fusion_lat": 0.0, "lat": 38.91138616666667, "fusion_lon": 0.0, "rental_uris": {"ios": "https://dc.lft.to/lastmile_qr_scan", "android": "https://dc.lft.to/lastmile_qr_scan"}, "lon": -77.06580833333334, "bike_id": "0b86314a43e54de1058f52d5fa4e4e3d", "type": "electric_bike", "name": "0b86314a43e54de1058f52d5fa4e4e3d"}, {"is_disabled": 0, "is_reserved": 0, "fusion_lat": 0.0, "lat": 38.906543, "fusion_lon": 0.0, "rental_uris": {"ios": "https://dc.lft.to/lastmile_qr_scan", "android": "https://dc.lft.to/lastmile_qr_scan"}, "lon": -76.97943116666667, "bike_id": "45ac985a549d33669a2fdfb108b4de88", "type": "electric_scooter", "name": "45ac985a549d33669a2fdfb108b4de88"}, {"is_disabled": 0, "is_reserved": 0, "fusion_lat": 0.0, "lat": 38.92111516666667, "fusion_lon": 0.0, "rental_uris": {"ios": "https://dc.lft.to/lastmile_qr_scan", "android": "https://dc.lft.to/lastmile_qr_scan"}, "lon": -77.04210066666667, "bike_id": "ee533c0b7b88920ebafd2104e16c3357", "type": "electric_scooter", "name": "ee533c0b7b88920ebafd2104e16c3357"}, {"is_disabled": 0, "is_reserved": 0, "fusion_lat": 0.0, "lat": 38.862848, "fusion_lon": 0.0, "rental_uris": {"ios": "https://dc.lft.to/lastmile_qr_scan", "android": "https://dc.lft.to/lastmile_qr_scan"}, "lon": -76.945172, "bike_id": "f5f79e324d42158449052f74b0611237", "type": "electric_bike", "name": "f5f79e324d42158449052f74b0611237"}, {"is_disabled": 0, "is_reserved": 0, "fusion_lat": 0.0, "lat": 38.91289116666667, "fusion_lon": 0.0, "rental_uris": {"ios": "https://dc.lft.to/lastmile_qr_scan", "android": "https://dc.lft.to/lastmile_qr_scan"}, "lon": -76.9373855, "bike_id": "b7a1deeae3858004372d18b45e459aa7", "type": "electric_scooter", "name": "b7a1deeae3858004372d18b45e459aa7"}, {"is_disabled": 0, "is_reserved": 0, "fusion_lat": 0.0, "lat": 38.908106833333335, "fusion_lon": 0.0, "rental_uris": {"ios": "https://dc.lft.to/lastmile_qr_scan", "android": "https://dc.lft.to/lastmile_qr_scan"}, "lon": -77.034067, "bike_id": "736465d34460cd5aa46dc70fc2d64c4d", "type": "electric_scooter", "name": "736465d34460cd5aa46dc70fc2d64c4d"}, {"is_disabled": 0, "is_reserved": 0, "fusion_lat": 0.0, "lat": 38.8361045, "fusion_lon": 0.0, "rental_uris": {"ios": "https://dc.lft.to/lastmile_qr_scan", "android": "https://dc.lft.to/lastmile_qr_scan"}, "lon": -77.00385883333334, "bike_id": "99bbb988fe255c9df31e2648a3eac325", "type": "electric_bike", "name": "99bbb988fe255c9df31e2648a3eac325"}, {"is_disabled": 0, "is_reserved": 0, "fusion_lat": 0.0, "lat": 38.9003555, "fusion_lon": 0.0, "rental_uris": {"ios": "https://dc.lft.to/lastmile_qr_scan", "android": "https://dc.lft.to/lastmile_qr_scan"}, "lon": -76.9983025, "bike_id": "0c8fe62a03a09977e8876b938426081d", "type": "electric_scooter", "name": "0c8fe62a03a09977e8876b938426081d"}, {"is_disabled": 0, "is_reserved": 0, "fusion_lat": 0.0, "lat": 38.89632966666667, "fusion_lon": 0.0, "rental_uris": {"ios": "https://dc.lft.to/lastmile_qr_scan", "android": "https://dc.lft.to/lastmile_qr_scan"}, "lon": -77.04330783333333, "bike_id": "f58703eb8130154e18112656336200d2", "type": "electric_scooter", "name": "f58703eb8130154e18112656336200d2"}, {"is_disabled": 0, "is_reserved": 0, "fusion_lat": 0.0, "lat": 38.883965, "fusion_lon": 0.0, "rental_uris": {"ios": "https://dc.lft.to/lastmile_qr_scan", "android": "https://dc.lft.to/lastmile_qr_scan"}, "lon": -77.031732, "bike_id": "8d52782ce38358bd3034def5ae577863", "type": "electric_scooter", "name": "8d52782ce38358bd3034def5ae577863"}, {"is_disabled": 0, "is_reserved": 0, "fusion_lat": 0.0, "lat": 38.945162833333335, "fusion_lon": 0.0, "rental_uris": {"ios": "https://dc.lft.to/lastmile_qr_scan", "android": "https://dc.lft.to/lastmile_qr_scan"}, "lon": -77.00677366666666, "bike_id": "179eb3b9315b0dfdb15f72554cf38ee4", "type": "electric_bike", "name": "179eb3b9315b0dfdb15f72554cf38ee4"}, {"is_disabled": 0, "is_reserved": 0, "fusion_lat": 0.0, "lat": 38.8974895, "fusion_lon": 0.0, "rental_uris": {"ios": "https://dc.lft.to/lastmile_qr_scan", "android": "https://dc.lft.to/lastmile_qr_scan"}, "lon": -77.03339366666667, "bike_id": "81c7bcbbfc3b10d9700bdd583a31313f", "type": "electric_scooter", "name": "81c7bcbbfc3b10d9700bdd583a31313f"}, {"is_disabled": 0, "is_reserved": 0, "fusion_lat": 0.0, "lat": 38.929149333333335, "fusion_lon": 0.0, "rental_uris": {"ios": "https://dc.lft.to/lastmile_qr_scan", "android": "https://dc.lft.to/lastmile_qr_scan"}, "lon": -77.02299116666667, "bike_id": "c083d97d71888b05fbe4ce03de184f40", "type": "electric_scooter", "name": "c083d97d71888b05fbe4ce03de184f40"}, {"is_disabled": 0, "is_reserved": 0, "fusion_lat": 0.0, "lat": 38.899403166666666, "fusion_lon": 0.0, "rental_uris": {"ios": "https://dc.lft.to/lastmile_qr_scan", "android": "https://dc.lft.to/lastmile_qr_scan"}, "lon": -76.93762883333333, "bike_id": "ff73c297dd620980edef42722d0dc260", "type": "electric_scooter", "name": "ff73c297dd620980edef42722d0dc260"}, {"is_disabled": 0, "is_reserved": 0, "fusion_lat": 0.0, "lat": 38.9559735, "fusion_lon": 0.0, "rental_uris": {"ios": "https://dc.lft.to/lastmile_qr_scan", "android": "https://dc.lft.to/lastmile_qr_scan"}, "lon": -77.01010116666667, "bike_id": "90b1c7f161330e7a79de82e6cecc6255", "type": "electric_bike", "name": "90b1c7f161330e7a79de82e6cecc6255"}, {"is_disabled": 0, "is_reserved": 0, "fusion_lat": 0.0, "lat": 38.89840316666667, "fusion_lon": 0.0, "rental_uris": {"ios": "https://dc.lft.to/lastmile_qr_scan", "android": "https://dc.lft.to/lastmile_qr_scan"}, "lon": -76.9810855, "bike_id": "855b1fa795fd0e07ff1b72f23f0191a2", "type": "electric_scooter", "name": "855b1fa795fd0e07ff1b72f23f0191a2"}, {"is_disabled": 0, "is_reserved": 0, "fusion_lat": 0.0, "lat": 38.901869833333336, "fusion_lon": 0.0, "rental_uris": {"ios": "https://dc.lft.to/lastmile_qr_scan", "android": "https://dc.lft.to/lastmile_qr_scan"}, "lon": -76.97677133333333, "bike_id": "a23ceea04f7ea977a900f4e410d0478b", "type": "electric_scooter", "name": "a23ceea04f7ea977a900f4e410d0478b"}, {"is_disabled": 0, "is_reserved": 0, "fusion_lat": 0.0, "lat": 38.929816333333335, "fusion_lon": 0.0, "rental_uris": {"ios": "https://dc.lft.to/lastmile_qr_scan", "android": "https://dc.lft.to/lastmile_qr_scan"}, "lon": -77.02820716666666, "bike_id": "b4d9e42c1147e4bc1c0e331e1e07bcf6", "type": "electric_scooter", "name": "b4d9e42c1147e4bc1c0e331e1e07bcf6"}, {"is_disabled": 0, "is_reserved": 0, "fusion_lat": 0.0, "lat": 38.89236066666667, "fusion_lon": 0.0, "rental_uris": {"ios": "https://dc.lft.to/lastmile_qr_scan", "android": "https://dc.lft.to/lastmile_qr_scan"}, "lon": -77.0279235, "bike_id": "3379e01d187886e468c1aac5b9eba11c", "type": "electric_scooter", "name": "3379e01d187886e468c1aac5b9eba11c"}, {"is_disabled": 0, "is_reserved": 0, "fusion_lat": 0.0, "lat": 38.919245833333335, "fusion_lon": 0.0, "rental_uris": {"ios": "https://dc.lft.to/lastmile_qr_scan", "android": "https://dc.lft.to/lastmile_qr_scan"}, "lon": -77.02514233333333, "bike_id": "8ca8510ef83ceee2ab27542324a796bd", "type": "electric_scooter", "name": "8ca8510ef83ceee2ab27542324a796bd"}, {"is_disabled": 0, "is_reserved": 0, "fusion_lat": 0.0, "lat": 38.8578485, "fusion_lon": 0.0, "rental_uris": {"ios": "https://dc.lft.to/lastmile_qr_scan", "android": "https://dc.lft.to/lastmile_qr_scan"}, "lon": -77.09964066666667, "bike_id": "923c18c07d184ee4b48a88247907a965", "type": "electric_bike", "name": "923c18c07d184ee4b48a88247907a965"}, {"is_disabled": 0, "is_reserved": 0, "fusion_lat": 0.0, "lat": 38.955957, "fusion_lon": 0.0, "rental_uris": {"ios": "https://dc.lft.to/lastmile_qr_scan", "android": "https://dc.lft.to/lastmile_qr_scan"}, "lon": -77.028105, "bike_id": "03822abe05ab593826cff3ad1ed1f1ec", "type": "electric_scooter", "name": "03822abe05ab593826cff3ad1ed1f1ec"}, {"is_disabled": 0, "is_reserved": 0, "fusion_lat": 0.0, "lat": 38.909657333333335, "fusion_lon": 0.0, "rental_uris": {"ios": "https://dc.lft.to/lastmile_qr_scan", "android": "https://dc.lft.to/lastmile_qr_scan"}, "lon": -77.01445316666667, "bike_id": "d45bd342c7a04e8929c4e9965a6f2f59", "type": "electric_scooter", "name": "d45bd342c7a04e8929c4e9965a6f2f59"}, {"is_disabled": 0, "is_reserved": 0, "fusion_lat": 0.0, "lat": 38.92577983333334, "fusion_lon": 0.0, "rental_uris": {"ios": "https://dc.lft.to/lastmile_qr_scan", "android": "https://dc.lft.to/lastmile_qr_scan"}, "lon": -77.02569083333333, "bike_id": "1cb7c3ba9d6330cbcd0aec11d4db3d9d", "type": "electric_scooter", "name": "1cb7c3ba9d6330cbcd0aec11d4db3d9d"}, {"is_disabled": 0, "is_reserved": 0, "fusion_lat": 0.0, "lat": 38.878495, "fusion_lon": 0.0, "rental_uris": {"ios": "https://dc.lft.to/lastmile_qr_scan", "android": "https://dc.lft.to/lastmile_qr_scan"}, "lon": -77.018813, "bike_id": "360471b16f29f750be6d399c6103946e", "type": "electric_scooter", "name": "360471b16f29f750be6d399c6103946e"}, {"is_disabled": 0, "is_reserved": 0, "fusion_lat": 0.0, "lat": 38.85517266666667, "fusion_lon": 0.0, "rental_uris": {"ios": "https://dc.lft.to/lastmile_qr_scan", "android": "https://dc.lft.to/lastmile_qr_scan"}, "lon": -77.10158866666667, "bike_id": "b20d7e47a3f5e7aeaf5a90d81de84dd1", "type": "electric_bike", "name": "b20d7e47a3f5e7aeaf5a90d81de84dd1"}, {"is_disabled": 0, "is_reserved": 0, "fusion_lat": 0.0, "lat": 38.86373116666667, "fusion_lon": 0.0, "rental_uris": {"ios": "https://dc.lft.to/lastmile_qr_scan", "android": "https://dc.lft.to/lastmile_qr_scan"}, "lon": -77.01367733333333, "bike_id": "9c02c0e5cf3b86478b675c24162de2b6", "type": "electric_scooter", "name": "9c02c0e5cf3b86478b675c24162de2b6"}, {"is_disabled": 0, "is_reserved": 0, "fusion_lat": 0.0, "lat": 38.959242333333336, "fusion_lon": 0.0, "rental_uris": {"ios": "https://dc.lft.to/lastmile_qr_scan", "android": "https://dc.lft.to/lastmile_qr_scan"}, "lon": -76.92545183333333, "bike_id": "157de700eb5ef45050edeafbccc42489", "type": "electric_bike", "name": "157de700eb5ef45050edeafbccc42489"}, {"is_disabled": 0, "is_reserved": 0, "fusion_lat": 0.0, "lat": 38.927209833333336, "fusion_lon": 0.0, "rental_uris": {"ios": "https://dc.lft.to/lastmile_qr_scan", "android": "https://dc.lft.to/lastmile_qr_scan"}, "lon": -77.05135266666667, "bike_id": "dba5a22d732ebec9e1d6b7c555e3cf0e", "type": "electric_scooter", "name": "dba5a22d732ebec9e1d6b7c555e3cf0e"}, {"is_disabled": 0, "is_reserved": 0, "fusion_lat": 0.0, "lat": 38.921521166666665, "fusion_lon": 0.0, "rental_uris": {"ios": "https://dc.lft.to/lastmile_qr_scan", "android": "https://dc.lft.to/lastmile_qr_scan"}, "lon": -77.01805483333334, "bike_id": "6b7cfb332fe974ef205e4f96a868dabf", "type": "electric_scooter", "name": "6b7cfb332fe974ef205e4f96a868dabf"}, {"is_disabled": 0, "is_reserved": 0, "fusion_lat": 0.0, "lat": 38.927422666666665, "fusion_lon": 0.0, "rental_uris": {"ios": "https://dc.lft.to/lastmile_qr_scan", "android": "https://dc.lft.to/lastmile_qr_scan"}, "lon": -77.02314366666667, "bike_id": "df6310b7952e6a498d43d7d30a6bc1a2", "type": "electric_scooter", "name": "df6310b7952e6a498d43d7d30a6bc1a2"}, {"is_disabled": 0, "is_reserved": 0, "fusion_lat": 0.0, "lat": 38.892767166666665, "fusion_lon": 0.0, "rental_uris": {"ios": "https://dc.lft.to/lastmile_qr_scan", "android": "https://dc.lft.to/lastmile_qr_scan"}, "lon": -77.04655233333334, "bike_id": "bc849442472ef395372a1c1445502fc3", "type": "electric_scooter", "name": "bc849442472ef395372a1c1445502fc3"}, {"is_disabled": 0, "is_reserved": 0, "fusion_lat": 0.0, "lat": 38.885290499999996, "fusion_lon": 0.0, "rental_uris": {"ios": "https://dc.lft.to/lastmile_qr_scan", "android": "https://dc.lft.to/lastmile_qr_scan"}, "lon": -76.9962105, "bike_id": "f6fa048620981a28fef3677db570cf2a", "type": "electric_scooter", "name": "f6fa048620981a28fef3677db570cf2a"}, {"is_disabled": 0, "is_reserved": 0, "fusion_lat": 0.0, "lat": 38.88105633333333, "fusion_lon": 0.0, "rental_uris": {"ios": "https://dc.lft.to/lastmile_qr_scan", "android": "https://dc.lft.to/lastmile_qr_scan"}, "lon": -77.01232366666666, "bike_id": "5087dbe8de1d765f37ab530744992f79", "type": "electric_scooter", "name": "5087dbe8de1d765f37ab530744992f79"}, {"is_disabled": 0, "is_reserved": 0, "fusion_lat": 0.0, "lat": 38.89858433333333, "fusion_lon": 0.0, "rental_uris": {"ios": "https://dc.lft.to/lastmile_qr_scan", "android": "https://dc.lft.to/lastmile_qr_scan"}, "lon": -77.04877, "bike_id": "57e209271b73ed1ea9bca5ac83759ad8", "type": "electric_scooter", "name": "57e209271b73ed1ea9bca5ac83759ad8"}, {"is_disabled": 0, "is_reserved": 0, "fusion_lat": 0.0, "lat": 38.90706316666667, "fusion_lon": 0.0, "rental_uris": {"ios": "https://dc.lft.to/lastmile_qr_scan", "android": "https://dc.lft.to/lastmile_qr_scan"}, "lon": -77.04662183333333, "bike_id": "e0fae3ac6e1a059c4c8ff96a7b42d4a1", "type": "electric_scooter", "name": "e0fae3ac6e1a059c4c8ff96a7b42d4a1"}, {"is_disabled": 0, "is_reserved": 0, "fusion_lat": 0.0, "lat": 39.005353666666664, "fusion_lon": 0.0, "rental_uris": {"ios": "https://dc.lft.to/lastmile_qr_scan", "android": "https://dc.lft.to/lastmile_qr_scan"}, "lon": -77.10402233333333, "bike_id": "eb08707964a2b438a0e409fadfee1d09", "type": "electric_bike", "name": "eb08707964a2b438a0e409fadfee1d09"}, {"is_disabled": 0, "is_reserved": 0, "fusion_lat": 0.0, "lat": 38.906711, "fusion_lon": 0.0, "rental_uris": {"ios": "https://dc.lft.to/lastmile_qr_scan", "android": "https://dc.lft.to/lastmile_qr_scan"}, "lon": -77.00984716666666, "bike_id": "751082313e195797cc8ab91f349e1fec", "type": "electric_scooter", "name": "751082313e195797cc8ab91f349e1fec"}, {"is_disabled": 0, "is_reserved": 0, "fusion_lat": 0.0, "lat": 38.973774666666664, "fusion_lon": 0.0, "rental_uris": {"ios": "https://dc.lft.to/lastmile_qr_scan", "android": "https://dc.lft.to/lastmile_qr_scan"}, "lon": -77.0186735, "bike_id": "7f96fea535b9e4ed3bd99012e3d3b18a", "type": "electric_scooter", "name": "7f96fea535b9e4ed3bd99012e3d3b18a"}, {"is_disabled": 0, "is_reserved": 0, "fusion_lat": 0.0, "lat": 38.9533585, "fusion_lon": 0.0, "rental_uris": {"ios": "https://dc.lft.to/lastmile_qr_scan", "android": "https://dc.lft.to/lastmile_qr_scan"}, "lon": -76.98258983333334, "bike_id": "0fd867520a2990e548716adfc105a59a", "type": "electric_bike", "name": "0fd867520a2990e548716adfc105a59a"}, {"is_disabled": 0, "is_reserved": 0, "fusion_lat": 0.0, "lat": 38.897597833333336, "fusion_lon": 0.0, "rental_uris": {"ios": "https://dc.lft.to/lastmile_qr_scan", "android": "https://dc.lft.to/lastmile_qr_scan"}, "lon": -77.05492216666667, "bike_id": "03903439a1b963425b31484bea709817", "type": "electric_scooter", "name": "03903439a1b963425b31484bea709817"}, {"is_disabled": 0, "is_reserved": 0, "fusion_lat": 0.0, "lat": 38.9167925, "fusion_lon": 0.0, "rental_uris": {"ios": "https://dc.lft.to/lastmile_qr_scan", "android": "https://dc.lft.to/lastmile_qr_scan"}, "lon": -77.03642983333333, "bike_id": "06cf6cbdae106f570f48469666b9a9f0", "type": "electric_scooter", "name": "06cf6cbdae106f570f48469666b9a9f0"}, {"is_disabled": 0, "is_reserved": 0, "fusion_lat": 0.0, "lat": 38.85939366666667, "fusion_lon": 0.0, "rental_uris": {"ios": "https://dc.lft.to/lastmile_qr_scan", "android": "https://dc.lft.to/lastmile_qr_scan"}, "lon": -76.98675116666666, "bike_id": "7d859ce997c10c22c5bb03700a57dd2c", "type": "electric_scooter", "name": "7d859ce997c10c22c5bb03700a57dd2c"}, {"is_disabled": 0, "is_reserved": 0, "fusion_lat": 0.0, "lat": 38.89685983333333, "fusion_lon": 0.0, "rental_uris": {"ios": "https://dc.lft.to/lastmile_qr_scan", "android": "https://dc.lft.to/lastmile_qr_scan"}, "lon": -76.93906516666667, "bike_id": "32b419e4ff8dd96cdd186e33abba8023", "type": "electric_scooter", "name": "32b419e4ff8dd96cdd186e33abba8023"}, {"is_disabled": 0, "is_reserved": 0, "fusion_lat": 0.0, "lat": 38.91120733333333, "fusion_lon": 0.0, "rental_uris": {"ios": "https://dc.lft.to/lastmile_qr_scan", "android": "https://dc.lft.to/lastmile_qr_scan"}, "lon": -77.03737516666666, "bike_id": "66973f9e5a451e3d897bec5e8fda1302", "type": "electric_scooter", "name": "66973f9e5a451e3d897bec5e8fda1302"}, {"is_disabled": 0, "is_reserved": 0, "fusion_lat": 0.0, "lat": 38.89246466666667, "fusion_lon": 0.0, "rental_uris": {"ios": "https://dc.lft.to/lastmile_qr_scan", "android": "https://dc.lft.to/lastmile_qr_scan"}, "lon": -77.03955983333333, "bike_id": "5edea8ab16b7127548be5e4529efa423", "type": "electric_scooter", "name": "5edea8ab16b7127548be5e4529efa423"}, {"is_disabled": 0, "is_reserved": 0, "fusion_lat": 0.0, "lat": 38.930481, "fusion_lon": 0.0, "rental_uris": {"ios": "https://dc.lft.to/lastmile_qr_scan", "android": "https://dc.lft.to/lastmile_qr_scan"}, "lon": -77.03608733333333, "bike_id": "065471715b3e18368f41c948289f53e3", "type": "electric_scooter", "name": "065471715b3e18368f41c948289f53e3"}, {"is_disabled": 0, "is_reserved": 0, "fusion_lat": 0.0, "lat": 38.87478616666667, "fusion_lon": 0.0, "rental_uris": {"ios": "https://dc.lft.to/lastmile_qr_scan", "android": "https://dc.lft.to/lastmile_qr_scan"}, "lon": -77.00418833333333, "bike_id": "c04ae3b00e78bd2776a6acb90edc9981", "type": "electric_scooter", "name": "c04ae3b00e78bd2776a6acb90edc9981"}, {"is_disabled": 0, "is_reserved": 0, "fusion_lat": 0.0, "lat": 38.88769716666667, "fusion_lon": 0.0, "rental_uris": {"ios": "https://dc.lft.to/lastmile_qr_scan", "android": "https://dc.lft.to/lastmile_qr_scan"}, "lon": -77.014639, "bike_id": "aa51dc21a758e597bb955ff0957dbd3c", "type": "electric_scooter", "name": "aa51dc21a758e597bb955ff0957dbd3c"}, {"is_disabled": 0, "is_reserved": 0, "fusion_lat": 0.0, "lat": 38.9181005, "fusion_lon": 0.0, "rental_uris": {"ios": "https://dc.lft.to/lastmile_qr_scan", "android": "https://dc.lft.to/lastmile_qr_scan"}, "lon": -77.03437416666667, "bike_id": "1966930bf73b0b21ea18b3c41610892d", "type": "electric_scooter", "name": "1966930bf73b0b21ea18b3c41610892d"}, {"is_disabled": 0, "is_reserved": 0, "fusion_lat": 0.0, "lat": 38.94736133333333, "fusion_lon": 0.0, "rental_uris": {"ios": "https://dc.lft.to/lastmile_qr_scan", "android": "https://dc.lft.to/lastmile_qr_scan"}, "lon": -76.99582716666667, "bike_id": "6bc87bf2bf6b930ea8316e835562f40d", "type": "electric_bike", "name": "6bc87bf2bf6b930ea8316e835562f40d"}, {"is_disabled": 0, "is_reserved": 0, "fusion_lat": 0.0, "lat": 38.918093999999996, "fusion_lon": 0.0, "rental_uris": {"ios": "https://dc.lft.to/lastmile_qr_scan", "android": "https://dc.lft.to/lastmile_qr_scan"}, "lon": -77.03721166666666, "bike_id": "4e37f1aab5c2b1355303e6302fe5e514", "type": "electric_scooter", "name": "4e37f1aab5c2b1355303e6302fe5e514"}, {"is_disabled": 0, "is_reserved": 0, "fusion_lat": 0.0, "lat": 38.90653233333333, "fusion_lon": 0.0, "rental_uris": {"ios": "https://dc.lft.to/lastmile_qr_scan", "android": "https://dc.lft.to/lastmile_qr_scan"}, "lon": -77.0058835, "bike_id": "c75b30545aae6a56e79705695dea9d12", "type": "electric_scooter", "name": "c75b30545aae6a56e79705695dea9d12"}, {"is_disabled": 0, "is_reserved": 0, "fusion_lat": 0.0, "lat": 38.900244, "fusion_lon": 0.0, "rental_uris": {"ios": "https://dc.lft.to/lastmile_qr_scan", "android": "https://dc.lft.to/lastmile_qr_scan"}, "lon": -76.98835266666667, "bike_id": "0eb54786439ddafea87d0f41e143b12d", "type": "electric_scooter", "name": "0eb54786439ddafea87d0f41e143b12d"}, {"is_disabled": 0, "is_reserved": 0, "fusion_lat": 0.0, "lat": 38.93351166666667, "fusion_lon": 0.0, "rental_uris": {"ios": "https://dc.lft.to/lastmile_qr_scan", "android": "https://dc.lft.to/lastmile_qr_scan"}, "lon": -77.03416933333334, "bike_id": "32b5b22fea3da11549d221f7580ed198", "type": "electric_scooter", "name": "32b5b22fea3da11549d221f7580ed198"}, {"is_disabled": 0, "is_reserved": 0, "fusion_lat": 0.0, "lat": 38.9228925, "fusion_lon": 0.0, "rental_uris": {"ios": "https://dc.lft.to/lastmile_qr_scan", "android": "https://dc.lft.to/lastmile_qr_scan"}, "lon": -77.029666, "bike_id": "9123378bb43fae776515bfa896587bc0", "type": "electric_scooter", "name": "9123378bb43fae776515bfa896587bc0"}, {"is_disabled": 0, "is_reserved": 0, "fusion_lat": 0.0, "lat": 38.912202666666666, "fusion_lon": 0.0, "rental_uris": {"ios": "https://dc.lft.to/lastmile_qr_scan", "android": "https://dc.lft.to/lastmile_qr_scan"}, "lon": -77.02712316666667, "bike_id": "900e391f51bbd08bc077ee6dffa5d23a", "type": "electric_scooter", "name": "900e391f51bbd08bc077ee6dffa5d23a"}, {"is_disabled": 0, "is_reserved": 0, "fusion_lat": 0.0, "lat": 38.95645116666667, "fusion_lon": 0.0, "rental_uris": {"ios": "https://dc.lft.to/lastmile_qr_scan", "android": "https://dc.lft.to/lastmile_qr_scan"}, "lon": -77.02446183333333, "bike_id": "9d4dd4c3e646a243f44dab4753ef50c8", "type": "electric_scooter", "name": "9d4dd4c3e646a243f44dab4753ef50c8"}, {"is_disabled": 0, "is_reserved": 0, "fusion_lat": 0.0, "lat": 38.937974, "fusion_lon": 0.0, "rental_uris": {"ios": "https://dc.lft.to/lastmile_qr_scan", "android": "https://dc.lft.to/lastmile_qr_scan"}, "lon": -77.02977516666667, "bike_id": "0f975069df0fe21da51ca6e0fee6ff5b", "type": "electric_scooter", "name": "0f975069df0fe21da51ca6e0fee6ff5b"}, {"is_disabled": 0, "is_reserved": 0, "fusion_lat": 0.0, "lat": 38.92930916666667, "fusion_lon": 0.0, "rental_uris": {"ios": "https://dc.lft.to/lastmile_qr_scan", "android": "https://dc.lft.to/lastmile_qr_scan"}, "lon": -77.00675633333333, "bike_id": "9793f5368500826f3a33a47efb9683d9", "type": "electric_scooter", "name": "9793f5368500826f3a33a47efb9683d9"}, {"is_disabled": 0, "is_reserved": 0, "fusion_lat": 0.0, "lat": 38.90367633333334, "fusion_lon": 0.0, "rental_uris": {"ios": "https://dc.lft.to/lastmile_qr_scan", "android": "https://dc.lft.to/lastmile_qr_scan"}, "lon": -77.01807716666667, "bike_id": "f618e861ff208b0ad48be31ce2455a19", "type": "electric_scooter", "name": "f618e861ff208b0ad48be31ce2455a19"}, {"is_disabled": 0, "is_reserved": 0, "fusion_lat": 0.0, "lat": 38.91417916666666, "fusion_lon": 0.0, "rental_uris": {"ios": "https://dc.lft.to/lastmile_qr_scan", "android": "https://dc.lft.to/lastmile_qr_scan"}, "lon": -77.022165, "bike_id": "7bba70c174faf229b2f4de0ab7dabe05", "type": "electric_scooter", "name": "7bba70c174faf229b2f4de0ab7dabe05"}, {"is_disabled": 0, "is_reserved": 0, "fusion_lat": 0.0, "lat": 38.90455433333333, "fusion_lon": 0.0, "rental_uris": {"ios": "https://dc.lft.to/lastmile_qr_scan", "android": "https://dc.lft.to/lastmile_qr_scan"}, "lon": -76.93275466666667, "bike_id": "2d595f2a152dd786fbac91cc8aa5cfec", "type": "electric_scooter", "name": "2d595f2a152dd786fbac91cc8aa5cfec"}, {"is_disabled": 0, "is_reserved": 0, "fusion_lat": 0.0, "lat": 38.930622166666666, "fusion_lon": 0.0, "rental_uris": {"ios": "https://dc.lft.to/lastmile_qr_scan", "android": "https://dc.lft.to/lastmile_qr_scan"}, "lon": -77.03217716666667, "bike_id": "748229ae58d9db15177384e8dd29d80b", "type": "electric_scooter", "name": "748229ae58d9db15177384e8dd29d80b"}, {"is_disabled": 0, "is_reserved": 0, "fusion_lat": 0.0, "lat": 38.905908333333336, "fusion_lon": 0.0, "rental_uris": {"ios": "https://dc.lft.to/lastmile_qr_scan", "android": "https://dc.lft.to/lastmile_qr_scan"}, "lon": -77.0218055, "bike_id": "8742c5dcae53b84ac38b37b888036cf8", "type": "electric_scooter", "name": "8742c5dcae53b84ac38b37b888036cf8"}, {"is_disabled": 0, "is_reserved": 0, "fusion_lat": 0.0, "lat": 38.909028, "fusion_lon": 0.0, "rental_uris": {"ios": "https://dc.lft.to/lastmile_qr_scan", "android": "https://dc.lft.to/lastmile_qr_scan"}, "lon": -77.04404099999999, "bike_id": "f4c8f14ce7ef1f3b24247c5c151c537b", "type": "electric_scooter", "name": "f4c8f14ce7ef1f3b24247c5c151c537b"}, {"is_disabled": 0, "is_reserved": 0, "fusion_lat": 0.0, "lat": 38.887497333333336, "fusion_lon": 0.0, "rental_uris": {"ios": "https://dc.lft.to/lastmile_qr_scan", "android": "https://dc.lft.to/lastmile_qr_scan"}, "lon": -77.03221683333334, "bike_id": "87dcada83350d70c5f02816743e1a6d9", "type": "electric_scooter", "name": "87dcada83350d70c5f02816743e1a6d9"}, {"is_disabled": 0, "is_reserved": 0, "fusion_lat": 0.0, "lat": 38.9240005, "fusion_lon": 0.0, "rental_uris": {"ios": "https://dc.lft.to/lastmile_qr_scan", "android": "https://dc.lft.to/lastmile_qr_scan"}, "lon": -77.04013416666666, "bike_id": "79a744ca6e4fc28a5481626533bbe5d4", "type": "electric_scooter", "name": "79a744ca6e4fc28a5481626533bbe5d4"}, {"is_disabled": 0, "is_reserved": 0, "fusion_lat": 0.0, "lat": 38.921364, "fusion_lon": 0.0, "rental_uris": {"ios": "https://dc.lft.to/lastmile_qr_scan", "android": "https://dc.lft.to/lastmile_qr_scan"}, "lon": -77.05164166666667, "bike_id": "7aef2bfdc260e2acd07c422d91537836", "type": "electric_scooter", "name": "7aef2bfdc260e2acd07c422d91537836"}, {"is_disabled": 0, "is_reserved": 0, "fusion_lat": 0.0, "lat": 38.917827333333335, "fusion_lon": 0.0, "rental_uris": {"ios": "https://dc.lft.to/lastmile_qr_scan", "android": "https://dc.lft.to/lastmile_qr_scan"}, "lon": -77.0247105, "bike_id": "82ea0e9caa8e320a3aeb64e78acb29ae", "type": "electric_scooter", "name": "82ea0e9caa8e320a3aeb64e78acb29ae"}, {"is_disabled": 0, "is_reserved": 0, "fusion_lat": 0.0, "lat": 38.9085295, "fusion_lon": 0.0, "rental_uris": {"ios": "https://dc.lft.to/lastmile_qr_scan", "android": "https://dc.lft.to/lastmile_qr_scan"}, "lon": -77.04829233333334, "bike_id": "3fc91eef43269996207ab5c7e50b8499", "type": "electric_scooter", "name": "3fc91eef43269996207ab5c7e50b8499"}, {"is_disabled": 0, "is_reserved": 0, "fusion_lat": 0.0, "lat": 38.90385466666667, "fusion_lon": 0.0, "rental_uris": {"ios": "https://dc.lft.to/lastmile_qr_scan", "android": "https://dc.lft.to/lastmile_qr_scan"}, "lon": -77.00189166666667, "bike_id": "a8b35b4d5aca5b2d42e402ef992c48e9", "type": "electric_scooter", "name": "a8b35b4d5aca5b2d42e402ef992c48e9"}, {"is_disabled": 0, "is_reserved": 0, "fusion_lat": 0.0, "lat": 38.89580983333333, "fusion_lon": 0.0, "rental_uris": {"ios": "https://dc.lft.to/lastmile_qr_scan", "android": "https://dc.lft.to/lastmile_qr_scan"}, "lon": -77.02517233333333, "bike_id": "695596da179336cf41dd5f35287312b1", "type": "electric_scooter", "name": "695596da179336cf41dd5f35287312b1"}, {"is_disabled": 0, "is_reserved": 0, "fusion_lat": 0.0, "lat": 38.915852666666666, "fusion_lon": 0.0, "rental_uris": {"ios": "https://dc.lft.to/lastmile_qr_scan", "android": "https://dc.lft.to/lastmile_qr_scan"}, "lon": -77.06784933333333, "bike_id": "186296611577e29de5ac167d342819ba", "type": "electric_scooter", "name": "186296611577e29de5ac167d342819ba"}, {"is_disabled": 0, "is_reserved": 0, "fusion_lat": 0.0, "lat": 38.901764666666665, "fusion_lon": 0.0, "rental_uris": {"ios": "https://dc.lft.to/lastmile_qr_scan", "android": "https://dc.lft.to/lastmile_qr_scan"}, "lon": -77.05068933333334, "bike_id": "90e80995d51c58fb66b5c2a36ab296a7", "type": "electric_scooter", "name": "90e80995d51c58fb66b5c2a36ab296a7"}, {"is_disabled": 0, "is_reserved": 0, "fusion_lat": 0.0, "lat": 38.929741666666665, "fusion_lon": 0.0, "rental_uris": {"ios": "https://dc.lft.to/lastmile_qr_scan", "android": "https://dc.lft.to/lastmile_qr_scan"}, "lon": -77.04201483333334, "bike_id": "4528aba2344665429c0bb486b987e8b2", "type": "electric_scooter", "name": "4528aba2344665429c0bb486b987e8b2"}, {"is_disabled": 0, "is_reserved": 0, "fusion_lat": 0.0, "lat": 38.947222833333335, "fusion_lon": 0.0, "rental_uris": {"ios": "https://dc.lft.to/lastmile_qr_scan", "android": "https://dc.lft.to/lastmile_qr_scan"}, "lon": -77.02355416666667, "bike_id": "d4e61a6e2b73947943a53729cc37f551", "type": "electric_scooter", "name": "d4e61a6e2b73947943a53729cc37f551"}, {"is_disabled": 0, "is_reserved": 0, "fusion_lat": 0.0, "lat": 38.9492435, "fusion_lon": 0.0, "rental_uris": {"ios": "https://dc.lft.to/lastmile_qr_scan", "android": "https://dc.lft.to/lastmile_qr_scan"}, "lon": -77.02315216666666, "bike_id": "1fa05936c66d7fc4249bd7886ec88b9d", "type": "electric_scooter", "name": "1fa05936c66d7fc4249bd7886ec88b9d"}, {"is_disabled": 0, "is_reserved": 0, "fusion_lat": 0.0, "lat": 38.904938, "fusion_lon": 0.0, "rental_uris": {"ios": "https://dc.lft.to/lastmile_qr_scan", "android": "https://dc.lft.to/lastmile_qr_scan"}, "lon": -76.94963333333334, "bike_id": "3e1e0b3c21683d9e361b0e5ca61b84f2", "type": "electric_scooter", "name": "3e1e0b3c21683d9e361b0e5ca61b84f2"},