{"data": {"bikes": [{"lat": 38.89907483333333, "is_disabled": 0, "type": "electric_scooter", "lon": -76.93356366666667, "bike_id": "693c736034f99d96fa3f81e1133b31da", "fusion_lat": 0.0, "name": "693c736034f99d96fa3f81e1133b31da", "is_reserved": 0, "rental_uris": {"android": "https://dc.lft.to/lastmile_qr_scan", "ios": "https://dc.lft.to/lastmile_qr_scan"}, "fusion_lon": 0.0}, {"lat": 38.89125416666667, "is_disabled": 0, "type": "electric_scooter", "lon": -76.94380333333334, "bike_id": "28403a45d0cff4472e1620eddc7c3ee2", "fusion_lat": 0.0, "name": "28403a45d0cff4472e1620eddc7c3ee2", "is_reserved": 0, "rental_uris": {"android": "https://dc.lft.to/lastmile_qr_scan", "ios": "https://dc.lft.to/lastmile_qr_scan"}, "fusion_lon": 0.0}, {"lat": 38.93061133333333, "is_disabled": 0, "type": "electric_scooter", "lon": -77.0418075, "bike_id": "0809629ee69b0f22ba93889bdd9091b8", "fusion_lat": 0.0, "name": "0809629ee69b0f22ba93889bdd9091b8", "is_reserved": 0, "rental_uris": {"android": "https://dc.lft.to/lastmile_qr_scan", "ios": "https://dc.lft.to/lastmile_qr_scan"}, "fusion_lon": 0.0}, {"lat": 38.8590885, "is_disabled": 0, "type": "electric_scooter", "lon": -76.99144733333333, "bike_id": "5f2c80c3d53d3a33290851b3f2ea2b53", "fusion_lat": 0.0, "name": "5f2c80c3d53d3a33290851b3f2ea2b53", "is_reserved": 0, "rental_uris": {"android": "https://dc.lft.to/lastmile_qr_scan", "ios": "https://dc.lft.to/lastmile_qr_scan"}, "fusion_lon": 0.0}, {"lat": 38.91519783333333, "is_disabled": 0, "type": "electric_scooter", "lon": -77.038443, "bike_id": "dee14cbb5b252086b4003b9d2a414339", "fusion_lat": 0.0, "name": "dee14cbb5b252086b4003b9d2a414339", "is_reserved": 0, "rental_uris": {"android": "https://dc.lft.to/lastmile_qr_scan", "ios": "https://dc.lft.to/lastmile_qr_scan"}, "fusion_lon": 0.0}, {"lat": 38.91275816666667, "is_disabled": 0, "type": "electric_scooter", "lon": -77.02269716666666, "bike_id": "43c03027068371779e69ca263a3742ec", "fusion_lat": 0.0, "name": "43c03027068371779e69ca263a3742ec", "is_reserved": 0, "rental_uris": {"android": "https://dc.lft.to/lastmile_qr_scan", "ios": "https://dc.lft.to/lastmile_qr_scan"}, "fusion_lon": 0.0}, {"lat": 38.90783583333333, "is_disabled": 0, "type": "electric_scooter", "lon": -77.04348816666666, "bike_id": "e8295260807a793c06ce267bc40b5d4f", "fusion_lat": 0.0, "name": "e8295260807a793c06ce267bc40b5d4f", "is_reserved": 0, "rental_uris": {"android": "https://dc.lft.to/lastmile_qr_scan", "ios": "https://dc.lft.to/lastmile_qr_scan"}, "fusion_lon": 0.0}, {"lat": 38.892674, "is_disabled": 0, "type": "electric_scooter", "lon": -77.02587416666667, "bike_id": "5263e9b7b8ec6809c39d7d85694d29c1", "fusion_lat": 0.0, "name": "5263e9b7b8ec6809c39d7d85694d29c1", "is_reserved": 0, "rental_uris": {"android": "https://dc.lft.to/lastmile_qr_scan", "ios": "https://dc.lft.to/lastmile_qr_scan"}, "fusion_lon": 0.0}, {"lat": 38.90733083333333, "is_disabled": 0, "type": "electric_scooter", "lon": -77.00337416666666, "bike_id": "8321f26219d53b57bf42f4a1778914f1", "fusion_lat": 0.0, "name": "8321f26219d53b57bf42f4a1778914f1", "is_reserved": 0, "rental_uris": {"android": "https://dc.lft.to/lastmile_qr_scan", "ios": "https://dc.lft.to/lastmile_qr_scan"}, "fusion_lon": 0.0}, {"lat": 38.91353083333333, "is_disabled": 0, "type": "electric_scooter", "lon": -77.03187216666667, "bike_id": "7e99b31eb43d43666951f99bfc434345", "fusion_lat": 0.0, "name": "7e99b31eb43d43666951f99bfc434345", "is_reserved": 0, "rental_uris": {"android": "https://dc.lft.to/lastmile_qr_scan", "ios": "https://dc.lft.to/lastmile_qr_scan"}, "fusion_lon": 0.0}, {"lat": 38.90460083333333, "is_disabled": 0, "type": "electric_scooter", "lon": -77.0294455, "bike_id": "480f3263d153c2e29b09de8664ba2864", "fusion_lat": 0.0, "name": "480f3263d153c2e29b09de8664ba2864", "is_reserved": 0, "rental_uris": {"android": "https://dc.lft.to/lastmile_qr_scan", "ios": "https://dc.lft.to/lastmile_qr_scan"}, "fusion_lon": 0.0}, {"lat": 38.917084, "is_disabled": 0, "type": "electric_scooter", "lon": -77.00806283333333, "bike_id": "f23c00c6330b36726c902654b15d395a", "fusion_lat": 0.0, "name": "f23c00c6330b36726c902654b15d395a", "is_reserved": 0, "rental_uris": {"android": "https://dc.lft.to/lastmile_qr_scan", "ios": "https://dc.lft.to/lastmile_qr_scan"}, "fusion_lon": 0.0}, {"lat": 38.93214316666667, "is_disabled": 0, "type": "electric_scooter", "lon": -77.03660433333333, "bike_id": "4fe7609c0c33d61cc63924d29d4a8574", "fusion_lat": 0.0, "name": "4fe7609c0c33d61cc63924d29d4a8574", "is_reserved": 0, "rental_uris": {"android": "https://dc.lft.to/lastmile_qr_scan", "ios": "https://dc.lft.to/lastmile_qr_scan"}, "fusion_lon": 0.0}, {"lat": 38.93635833333333, "is_disabled": 0, "type": "electric_scooter", "lon": -77.05876766666667, "bike_id": "6aa47d73647188328f80696b0c86e262", "fusion_lat": 0.0, "name": "6aa47d73647188328f80696b0c86e262", "is_reserved": 0, "rental_uris": {"android": "https://dc.lft.to/lastmile_qr_scan", "ios": "https://dc.lft.to/lastmile_qr_scan"}, "fusion_lon": 0.0}, {"lat": 38.905764166666664, "is_disabled": 0, "type": "electric_scooter", "lon": -77.06281116666666, "bike_id": "d576cb173e3881be8cc801665cdeb826", "fusion_lat": 0.0, "name": "d576cb173e3881be8cc801665cdeb826", "is_reserved": 0, "rental_uris": {"android": "https://dc.lft.to/lastmile_qr_scan", "ios": "https://dc.lft.to/lastmile_qr_scan"}, "fusion_lon": 0.0}, {"lat": 38.906224333333334, "is_disabled": 0, "type": "electric_scooter", "lon": -76.989888, "bike_id": "9154d3f535b75613a6d6b1f6aa2fb73a", "fusion_lat": 0.0, "name": "9154d3f535b75613a6d6b1f6aa2fb73a", "is_reserved": 0, "rental_uris": {"android": "https://dc.lft.to/lastmile_qr_scan", "ios": "https://dc.lft.to/lastmile_qr_scan"}, "fusion_lon": 0.0}, {"lat": 38.905607333333336, "is_disabled": 0, "type": "electric_scooter", "lon": -77.06526933333333, "bike_id": "a94929c8e5ec7d207f4689c5343af06d", "fusion_lat": 0.0, "name": "a94929c8e5ec7d207f4689c5343af06d", "is_reserved": 0, "rental_uris": {"android": "https://dc.lft.to/lastmile_qr_scan", "ios": "https://dc.lft.to/lastmile_qr_scan"}, "fusion_lon": 0.0}, {"lat": 38.915569, "is_disabled": 0, "type": "electric_scooter", "lon": -77.0317025, "bike_id": "5e2c567e0c7d2282965e9adb41baccce", "fusion_lat": 0.0, "name": "5e2c567e0c7d2282965e9adb41baccce", "is_reserved": 0, "rental_uris": {"android": "https://dc.lft.to/lastmile_qr_scan", "ios": "https://dc.lft.to/lastmile_qr_scan"}, "fusion_lon": 0.0}, {"lat": 38.929461333333336, "is_disabled": 0, "type": "electric_scooter", "lon": -77.01889916666667, "bike_id": "460d8c607b7a6f7b2e7b1d67b4f0ed2b", "fusion_lat": 0.0, "name": "460d8c607b7a6f7b2e7b1d67b4f0ed2b", "is_reserved": 0, "rental_uris": {"android": "https://dc.lft.to/lastmile_qr_scan", "ios": "https://dc.lft.to/lastmile_qr_scan"}, "fusion_lon": 0.0}, {"lat": 38.909106, "is_disabled": 0, "type": "electric_scooter", "lon": -77.03645533333334, "bike_id": "4a5b8ab307f1ae3e5b2706af83662f1e", "fusion_lat": 0.0, "name": "4a5b8ab307f1ae3e5b2706af83662f1e", "is_reserved": 0, "rental_uris": {"android": "https://dc.lft.to/lastmile_qr_scan", "ios": "https://dc.lft.to/lastmile_qr_scan"}, "fusion_lon": 0.0}, {"lat": 38.9196955, "is_disabled": 0, "type": "electric_scooter", "lon": -77.01354616666667, "bike_id": "67162ad04fcbe426e10c6efcb0e4975a", "fusion_lat": 0.0, "name": "67162ad04fcbe426e10c6efcb0e4975a", "is_reserved": 0, "rental_uris": {"android": "https://dc.lft.to/lastmile_qr_scan", "ios": "https://dc.lft.to/lastmile_qr_scan"}, "fusion_lon": 0.0}, {"lat": 38.903973666666666, "is_disabled": 0, "type": "electric_scooter", "lon": -77.05380483333333, "bike_id": "9d04d9a54ae4d28eaef07497f1dcc7b3", "fusion_lat": 0.0, "name": "9d04d9a54ae4d28eaef07497f1dcc7b3", "is_reserved": 0, "rental_uris": {"android": "https://dc.lft.to/lastmile_qr_scan", "ios": "https://dc.lft.to/lastmile_qr_scan"}, "fusion_lon": 0.0}, {"lat": 38.9175275, "is_disabled": 0, "type": "electric_scooter", "lon": -77.03661616666666, "bike_id": "76314ee089184bbc777dc015b8a2188c", "fusion_lat": 0.0, "name": "76314ee089184bbc777dc015b8a2188c", "is_reserved": 0, "rental_uris": {"android": "https://dc.lft.to/lastmile_qr_scan", "ios": "https://dc.lft.to/lastmile_qr_scan"}, "fusion_lon": 0.0}, {"lat": 38.922755333333335, "is_disabled": 0, "type": "electric_scooter", "lon": -77.0224205, "bike_id": "818197474fa1fb2770a3539b90ce6909", "fusion_lat": 0.0, "name": "818197474fa1fb2770a3539b90ce6909", "is_reserved": 0, "rental_uris": {"android": "https://dc.lft.to/lastmile_qr_scan", "ios": "https://dc.lft.to/lastmile_qr_scan"}, "fusion_lon": 0.0}, {"lat": 38.9176935, "is_disabled": 0, "type": "electric_scooter", "lon": -77.040597, "bike_id": "4cf35de57ea888d729b0b1eb8ff07123", "fusion_lat": 0.0, "name": "4cf35de57ea888d729b0b1eb8ff07123", "is_reserved": 0, "rental_uris": {"android": "https://dc.lft.to/lastmile_qr_scan", "ios": "https://dc.lft.to/lastmile_qr_scan"}, "fusion_lon": 0.0}, {"lat": 38.90056216666667, "is_disabled": 0, "type": "electric_scooter", "lon": -77.02586766666667, "bike_id": "753a22630fbf133e250d6ba3881dc942", "fusion_lat": 0.0, "name": "753a22630fbf133e250d6ba3881dc942", "is_reserved": 0, "rental_uris": {"android": "https://dc.lft.to/lastmile_qr_scan", "ios": "https://dc.lft.to/lastmile_qr_scan"}, "fusion_lon": 0.0}, {"lat": 38.890112333333335, "is_disabled": 0, "type": "electric_scooter", "lon": -76.93744083333333, "bike_id": "96288b4c544e9164d5fb3a0a49345562", "fusion_lat": 0.0, "name": "96288b4c544e9164d5fb3a0a49345562", "is_reserved": 0, "rental_uris": {"android": "https://dc.lft.to/lastmile_qr_scan", "ios": "https://dc.lft.to/lastmile_qr_scan"}, "fusion_lon": 0.0}, {"lat": 38.909671, "is_disabled": 0, "type": "electric_scooter", "lon": -77.0478725, "bike_id": "f1da76f1d6aef6e5253b4470b8754fc2", "fusion_lat": 0.0, "name": "f1da76f1d6aef6e5253b4470b8754fc2", "is_reserved": 0, "rental_uris": {"android": "https://dc.lft.to/lastmile_qr_scan", "ios": "https://dc.lft.to/lastmile_qr_scan"}, "fusion_lon": 0.0}, {"lat": 39.0520235, "is_disabled": 0, "type": "electric_bike", "lon": -77.1091945, "bike_id": "b9f0961ce5323d5bc2ecbe5de1096f62", "fusion_lat": 0.0, "name": "b9f0961ce5323d5bc2ecbe5de1096f62", "is_reserved": 0, "rental_uris": {"android": "https://dc.lft.to/lastmile_qr_scan", "ios": "https://dc.lft.to/lastmile_qr_scan"}, "fusion_lon": 0.0}, {"lat": 38.900107166666665, "is_disabled": 0, "type": "electric_scooter", "lon": -77.04473516666667, "bike_id": "81ed9f5fcb788e3208cfc99012cb7b40", "fusion_lat": 0.0, "name": "81ed9f5fcb788e3208cfc99012cb7b40", "is_reserved": 0, "rental_uris": {"android": "https://dc.lft.to/lastmile_qr_scan", "ios": "https://dc.lft.to/lastmile_qr_scan"}, "fusion_lon": 0.0}, {"lat": 38.91553833333333, "is_disabled": 0, "type": "electric_scooter", "lon": -77.03238933333333, "bike_id": "ee6f9fe91fe587451251d86a68647d17", "fusion_lat": 0.0, "name": "ee6f9fe91fe587451251d86a68647d17", "is_reserved": 0, "rental_uris": {"android": "https://dc.lft.to/lastmile_qr_scan", "ios": "https://dc.lft.to/lastmile_qr_scan"}, "fusion_lon": 0.0}, {"lat": 38.90750366666666, "is_disabled": 0, "type": "electric_scooter", "lon": -77.00139966666667, "bike_id": "0b398ff1a6ac1ba84bcf1f0c6773bf8e", "fusion_lat": 0.0, "name": "0b398ff1a6ac1ba84bcf1f0c6773bf8e", "is_reserved": 0, "rental_uris": {"android": "https://dc.lft.to/lastmile_qr_scan", "ios": "https://dc.lft.to/lastmile_qr_scan"}, "fusion_lon": 0.0}, {"lat": 38.933577666666665, "is_disabled": 0, "type": "electric_scooter", "lon": -77.0570175, "bike_id": "2c2992884c46d51235099246fba34feb", "fusion_lat": 0.0, "name": "2c2992884c46d51235099246fba34feb", "is_reserved": 0, "rental_uris": {"android": "https://dc.lft.to/lastmile_qr_scan", "ios": "https://dc.lft.to/lastmile_qr_scan"}, "fusion_lon": 0.0}, {"lat": 38.901478166666664, "is_disabled": 0, "type": "electric_scooter", "lon": -77.039568, "bike_id": "0934de8328452ad52bc23288ccb28d2d", "fusion_lat": 0.0, "name": "0934de8328452ad52bc23288ccb28d2d", "is_reserved": 0, "rental_uris": {"android": "https://dc.lft.to/lastmile_qr_scan", "ios": "https://dc.lft.to/lastmile_qr_scan"}, "fusion_lon": 0.0}, {"lat": 38.918204333333335, "is_disabled": 0, "type": "electric_scooter", "lon": -77.027773, "bike_id": "c1a1638bc457300f187157a027235066", "fusion_lat": 0.0, "name": "c1a1638bc457300f187157a027235066", "is_reserved": 0, "rental_uris": {"android": "https://dc.lft.to/lastmile_qr_scan", "ios": "https://dc.lft.to/lastmile_qr_scan"}, "fusion_lon": 0.0}, {"lat": 38.8367915, "is_disabled": 0, "type": "electric_scooter", "lon": -77.00568933333334, "bike_id": "eebc7d10769d3b125bb249697c10a81e", "fusion_lat": 0.0, "name": "eebc7d10769d3b125bb249697c10a81e", "is_reserved": 0, "rental_uris": {"android": "https://dc.lft.to/lastmile_qr_scan", "ios": "https://dc.lft.to/lastmile_qr_scan"}, "fusion_lon": 0.0}, {"lat": 38.90868066666667, "is_disabled": 0, "type": "electric_scooter", "lon": -77.04586266666666, "bike_id": "01446992f169f1abe76d1da8f4df735a", "fusion_lat": 0.0, "name": "01446992f169f1abe76d1da8f4df735a", "is_reserved": 0, "rental_uris": {"android": "https://dc.lft.to/lastmile_qr_scan", "ios": "https://dc.lft.to/lastmile_qr_scan"}, "fusion_lon": 0.0}, {"lat": 38.919083666666666, "is_disabled": 0, "type": "electric_scooter", "lon": -77.01344616666667, "bike_id": "842df993d04f1ceadbb7449595526259", "fusion_lat": 0.0, "name": "842df993d04f1ceadbb7449595526259", "is_reserved": 0, "rental_uris": {"android": "https://dc.lft.to/lastmile_qr_scan", "ios": "https://dc.lft.to/lastmile_qr_scan"}, "fusion_lon": 0.0}, {"lat": 38.8701695, "is_disabled": 0, "type": "electric_bike", "lon": -76.960198, "bike_id": "146caab0bbd9c3ff9f3b8d7cee116842", "fusion_lat": 0.0, "name": "146caab0bbd9c3ff9f3b8d7cee116842", "is_reserved": 0, "rental_uris": {"android": "https://dc.lft.to/lastmile_qr_scan", "ios": "https://dc.lft.to/lastmile_qr_scan"}, "fusion_lon": 0.0}, {"lat": 38.906075, "is_disabled": 0, "type": "electric_scooter", "lon": -77.06295033333333, "bike_id": "e6d04e9c7148bd9b1ff0f350e3266210", "fusion_lat": 0.0, "name": "e6d04e9c7148bd9b1ff0f350e3266210", "is_reserved": 0, "rental_uris": {"android": "https://dc.lft.to/lastmile_qr_scan", "ios": "https://dc.lft.to/lastmile_qr_scan"}, "fusion_lon": 0.0}, {"lat": 38.934983, "is_disabled": 0, "type": "electric_scooter", "lon": -77.0580465, "bike_id": "c62a7036e7ff02eb1d80031b9bfced81", "fusion_lat": 0.0, "name": "c62a7036e7ff02eb1d80031b9bfced81", "is_reserved": 0, "rental_uris": {"android": "https://dc.lft.to/lastmile_qr_scan", "ios": "https://dc.lft.to/lastmile_qr_scan"}, "fusion_lon": 0.0}, {"lat": 38.93035616666667, "is_disabled": 0, "type": "electric_scooter", "lon": -77.03629533333333, "bike_id": "89bf1085d70a4b6ac1ec438622328b98", "fusion_lat": 0.0, "name": "89bf1085d70a4b6ac1ec438622328b98", "is_reserved": 0, "rental_uris": {"android": "https://dc.lft.to/lastmile_qr_scan", "ios": "https://dc.lft.to/lastmile_qr_scan"}, "fusion_lon": 0.0}, {"lat": 38.88563516666667, "is_disabled": 0, "type": "electric_scooter", "lon": -77.020031, "bike_id": "70f06095843bce70f481eddd2825a341", "fusion_lat": 0.0, "name": "70f06095843bce70f481eddd2825a341", "is_reserved": 0, "rental_uris": {"android": "https://dc.lft.to/lastmile_qr_scan", "ios": "https://dc.lft.to/lastmile_qr_scan"}, "fusion_lon": 0.0}, {"lat": 38.91310166666667, "is_disabled": 0, "type": "electric_scooter", "lon": -77.03210833333333, "bike_id": "e6b1bc5042eec9e2d10e894486153607", "fusion_lat": 0.0, "name": "e6b1bc5042eec9e2d10e894486153607", "is_reserved": 0, "rental_uris": {"android": "https://dc.lft.to/lastmile_qr_scan", "ios": "https://dc.lft.to/lastmile_qr_scan"}, "fusion_lon": 0.0}, {"lat": 38.90268583333334, "is_disabled": 0, "type": "electric_scooter", "lon": -77.01743633333334, "bike_id": "2e135692a0e37258780ebd36efcdfcd8", "fusion_lat": 0.0, "name": "2e135692a0e37258780ebd36efcdfcd8", "is_reserved": 0, "rental_uris": {"android": "https://dc.lft.to/lastmile_qr_scan", "ios": "https://dc.lft.to/lastmile_qr_scan"}, "fusion_lon": 0.0}, {"lat": 38.905687, "is_disabled": 0, "type": "electric_scooter", "lon": -77.0209645, "bike_id": "831f6802ddd851a231bfc942765d150d", "fusion_lat": 0.0, "name": "831f6802ddd851a231bfc942765d150d", "is_reserved": 0, "rental_uris": {"android": "https://dc.lft.to/lastmile_qr_scan", "ios": "https://dc.lft.to/lastmile_qr_scan"}, "fusion_lon": 0.0}, {"lat": 38.9049855, "is_disabled": 0, "type": "electric_scooter", "lon": -77.00133783333334, "bike_id": "1ea0c252adfa34f92915c9d59ee48061", "fusion_lat": 0.0, "name": "1ea0c252adfa34f92915c9d59ee48061", "is_reserved": 0, "rental_uris": {"android": "https://dc.lft.to/lastmile_qr_scan", "ios": "https://dc.lft.to/lastmile_qr_scan"}, "fusion_lon": 0.0}, {"lat": 38.917758, "is_disabled": 0, "type": "electric_scooter", "lon": -77.01489283333333, "bike_id": "6b4ec58c72fe8d953754ac1e66a0f251", "fusion_lat": 0.0, "name": "6b4ec58c72fe8d953754ac1e66a0f251", "is_reserved": 0, "rental_uris": {"android": "https://dc.lft.to/lastmile_qr_scan", "ios": "https://dc.lft.to/lastmile_qr_scan"}, "fusion_lon": 0.0}, {"lat": 38.90347916666666, "is_disabled": 0, "type": "electric_scooter", "lon": -77.06572833333334, "bike_id": "e910c8cd24a355eb14c7c0701f6d1c17", "fusion_lat": 0.0, "name": "e910c8cd24a355eb14c7c0701f6d1c17", "is_reserved": 0, "rental_uris": {"android": "https://dc.lft.to/lastmile_qr_scan", "ios": "https://dc.lft.to/lastmile_qr_scan"}, "fusion_lon": 0.0}, {"lat": 38.8876895, "is_disabled": 0, "type": "electric_scooter", "lon": -76.955968, "bike_id": "50cea682eae906fc510059ffc6796fba", "fusion_lat": 0.0, "name": "50cea682eae906fc510059ffc6796fba", "is_reserved": 0, "rental_uris": {"android": "https://dc.lft.to/lastmile_qr_scan", "ios": "https://dc.lft.to/lastmile_qr_scan"}, "fusion_lon": 0.0}, {"lat": 38.93567433333333, "is_disabled": 0, "type": "electric_scooter", "lon": -77.08763666666667, "bike_id": "5dfcbd83a12f0b19cdc5f8344125fb40", "fusion_lat": 0.0, "name": "5dfcbd83a12f0b19cdc5f8344125fb40", "is_reserved": 0, "rental_uris": {"android": "https://dc.lft.to/lastmile_qr_scan", "ios": "https://dc.lft.to/lastmile_qr_scan"}, "fusion_lon": 0.0}, {"lat": 38.89224566666667, "is_disabled": 0, "type": "electric_scooter", "lon": -77.0486805, "bike_id": "59bed239552c61a94bf83ecac1faaca9", "fusion_lat": 0.0, "name": "59bed239552c61a94bf83ecac1faaca9", "is_reserved": 0, "rental_uris": {"android": "https://dc.lft.to/lastmile_qr_scan", "ios": "https://dc.lft.to/lastmile_qr_scan"}, "fusion_lon": 0.0}, {"lat": 38.89694466666667, "is_disabled": 0, "type": "electric_scooter", "lon": -77.02426783333334, "bike_id": "95af84d96a69a36cb25c64cd6c7e6f8a", "fusion_lat": 0.0, "name": "95af84d96a69a36cb25c64cd6c7e6f8a", "is_reserved": 0, "rental_uris": {"android": "https://dc.lft.to/lastmile_qr_scan", "ios": "https://dc.lft.to/lastmile_qr_scan"}, "fusion_lon": 0.0}, {"lat": 38.91950283333333, "is_disabled": 0, "type": "electric_scooter", "lon": -76.98081533333334, "bike_id": "fec69e13bbb0b559215180066d892940", "fusion_lat": 0.0, "name": "fec69e13bbb0b559215180066d892940", "is_reserved": 0, "rental_uris": {"android": "https://dc.lft.to/lastmile_qr_scan", "ios": "https://dc.lft.to/lastmile_qr_scan"}, "fusion_lon": 0.0}, {"lat": 38.97230833333333, "is_disabled": 0, "type": "electric_bike", "lon": -76.99342716666666, "bike_id": "d0cd4c496cf302bbacaa1afe885163bd", "fusion_lat": 0.0, "name": "d0cd4c496cf302bbacaa1afe885163bd", "is_reserved": 0, "rental_uris": {"android": "https://dc.lft.to/lastmile_qr_scan", "ios": "https://dc.lft.to/lastmile_qr_scan"}, "fusion_lon": 0.0}, {"lat": 38.9004225, "is_disabled": 0, "type": "electric_scooter", "lon": -77.033845, "bike_id": "6946c97e7a249d0cac33620b965937ab", "fusion_lat": 0.0, "name": "6946c97e7a249d0cac33620b965937ab", "is_reserved": 0, "rental_uris": {"android": "https://dc.lft.to/lastmile_qr_scan", "ios": "https://dc.lft.to/lastmile_qr_scan"}, "fusion_lon": 0.0}, {"lat": 38.90332866666667, "is_disabled": 0, "type": "electric_scooter", "lon": -77.03778016666666, "bike_id": "3e07a7fa3d84a3db6cca842475850196", "fusion_lat": 0.0, "name": "3e07a7fa3d84a3db6cca842475850196", "is_reserved": 0, "rental_uris": {"android": "https://dc.lft.to/lastmile_qr_scan", "ios": "https://dc.lft.to/lastmile_qr_scan"}, "fusion_lon": 0.0}, {"lat": 38.886543833333334, "is_disabled": 0, "type": "electric_scooter", "lon": -77.03388466666667, "bike_id": "cde41562979c80bf18a65cdd175b667b", "fusion_lat": 0.0, "name": "cde41562979c80bf18a65cdd175b667b", "is_reserved": 0, "rental_uris": {"android": "https://dc.lft.to/lastmile_qr_scan", "ios": "https://dc.lft.to/lastmile_qr_scan"}, "fusion_lon": 0.0}, {"lat": 38.91609566666666, "is_disabled": 0, "type": "electric_scooter", "lon": -77.04861916666667, "bike_id": "05eab396964f7374323e437eb4bba0c7", "fusion_lat": 0.0, "name": "05eab396964f7374323e437eb4bba0c7", "is_reserved": 0, "rental_uris": {"android": "https://dc.lft.to/lastmile_qr_scan", "ios": "https://dc.lft.to/lastmile_qr_scan"}, "fusion_lon": 0.0}, {"lat": 38.86059433333333, "is_disabled": 0, "type": "electric_scooter", "lon": -77.0575845, "bike_id": "f8e852b50993c247d7304a8da4cf619d", "fusion_lat": 0.0, "name": "f8e852b50993c247d7304a8da4cf619d", "is_reserved": 0, "rental_uris": {"android": "https://dc.lft.to/lastmile_qr_scan", "ios": "https://dc.lft.to/lastmile_qr_scan"}, "fusion_lon": 0.0}, {"lat": 38.895370166666666, "is_disabled": 0, "type": "electric_scooter", "lon": -77.01103333333333, "bike_id": "5eb82408b16e94bed3b9cf38d5740c1c", "fusion_lat": 0.0, "name": "5eb82408b16e94bed3b9cf38d5740c1c", "is_reserved": 0, "rental_uris": {"android": "https://dc.lft.to/lastmile_qr_scan", "ios": "https://dc.lft.to/lastmile_qr_scan"}, "fusion_lon": 0.0}, {"lat": 38.92239983333333, "is_disabled": 0, "type": "electric_scooter", "lon": -77.045733, "bike_id": "3401390101fc113203152b2a5d71430f", "fusion_lat": 0.0, "name": "3401390101fc113203152b2a5d71430f", "is_reserved": 0, "rental_uris": {"android": "https://dc.lft.to/lastmile_qr_scan", "ios": "https://dc.lft.to/lastmile_qr_scan"}, "fusion_lon": 0.0}, {"lat": 38.9136215, "is_disabled": 0, "type": "electric_scooter", "lon": -77.045554, "bike_id": "bf36eb749af5c56dbad6e89581ef4be2", "fusion_lat": 0.0, "name": "bf36eb749af5c56dbad6e89581ef4be2", "is_reserved": 0, "rental_uris": {"android": "https://dc.lft.to/lastmile_qr_scan", "ios": "https://dc.lft.to/lastmile_qr_scan"}, "fusion_lon": 0.0}, {"lat": 38.91609583333333, "is_disabled": 0, "type": "electric_scooter", "lon": -77.03850983333334, "bike_id": "ab8e86428ff7d7256c126008584afaee", "fusion_lat": 0.0, "name": "ab8e86428ff7d7256c126008584afaee", "is_reserved": 0, "rental_uris": {"android": "https://dc.lft.to/lastmile_qr_scan", "ios": "https://dc.lft.to/lastmile_qr_scan"}, "fusion_lon": 0.0}, {"lat": 38.9191785, "is_disabled": 0, "type": "electric_scooter", "lon": -77.03163483333333, "bike_id": "ab80344fec32ad1c3dccf592ceae5130", "fusion_lat": 0.0, "name": "ab80344fec32ad1c3dccf592ceae5130", "is_reserved": 0, "rental_uris": {"android": "https://dc.lft.to/lastmile_qr_scan", "ios": "https://dc.lft.to/lastmile_qr_scan"}, "fusion_lon": 0.0}, {"lat": 38.918608, "is_disabled": 0, "type": "electric_scooter", "lon": -77.04585533333334, "bike_id": "38cc7ea27386a25d47b8190ca39e7522", "fusion_lat": 0.0, "name": "38cc7ea27386a25d47b8190ca39e7522", "is_reserved": 0, "rental_uris": {"android": "https://dc.lft.to/lastmile_qr_scan", "ios": "https://dc.lft.to/lastmile_qr_scan"}, "fusion_lon": 0.0}, {"lat": 38.938678833333334, "is_disabled": 0, "type": "electric_scooter", "lon": -77.02560983333333, "bike_id": "85e354e805c3047255c385d150136a04", "fusion_lat": 0.0, "name": "85e354e805c3047255c385d150136a04", "is_reserved": 0, "rental_uris": {"android": "https://dc.lft.to/lastmile_qr_scan", "ios": "https://dc.lft.to/lastmile_qr_scan"}, "fusion_lon": 0.0}, {"lat": 38.856846166666664, "is_disabled": 0, "type": "electric_scooter", "lon": -76.98159833333334, "bike_id": "a4af582f453fb071dd36838e6caa6c75", "fusion_lat": 0.0, "name": "a4af582f453fb071dd36838e6caa6c75", "is_reserved": 0, "rental_uris": {"android": "https://dc.lft.to/lastmile_qr_scan", "ios": "https://dc.lft.to/lastmile_qr_scan"}, "fusion_lon": 0.0}, {"lat": 38.938447, "is_disabled": 0, "type": "electric_scooter", "lon": -77.02598583333334, "bike_id": "8be958cee086421d5d1a65023c49aa4d", "fusion_lat": 0.0, "name": "8be958cee086421d5d1a65023c49aa4d", "is_reserved": 0, "rental_uris": {"android": "https://dc.lft.to/lastmile_qr_scan", "ios": "https://dc.lft.to/lastmile_qr_scan"}, "fusion_lon": 0.0}, {"lat": 38.88999033333333, "is_disabled": 0, "type": "electric_scooter", "lon": -76.95564733333333, "bike_id": "7f1fdbc682a810fc117f9a389315508b", "fusion_lat": 0.0, "name": "7f1fdbc682a810fc117f9a389315508b", "is_reserved": 0, "rental_uris": {"android": "https://dc.lft.to/lastmile_qr_scan", "ios": "https://dc.lft.to/lastmile_qr_scan"}, "fusion_lon": 0.0}, {"lat": 38.93424066666667, "is_disabled": 0, "type": "electric_scooter", "lon": -77.041377, "bike_id": "211dddb32a0d8a77a4f46b5ea13496f5", "fusion_lat": 0.0, "name": "211dddb32a0d8a77a4f46b5ea13496f5", "is_reserved": 0, "rental_uris": {"android": "https://dc.lft.to/lastmile_qr_scan", "ios": "https://dc.lft.to/lastmile_qr_scan"}, "fusion_lon": 0.0}, {"lat": 38.89902216666667, "is_disabled": 0, "type": "electric_scooter", "lon": -76.9820305, "bike_id": "d24c6250b9746d7e1619b5da0fd6e19b", "fusion_lat": 0.0, "name": "d24c6250b9746d7e1619b5da0fd6e19b", "is_reserved": 0, "rental_uris": {"android": "https://dc.lft.to/lastmile_qr_scan", "ios": "https://dc.lft.to/lastmile_qr_scan"}, "fusion_lon": 0.0}, {"lat": 38.90579266666667, "is_disabled": 0, "type": "electric_scooter", "lon": -77.06256266666666, "bike_id": "0f1805cfe82b431e383f1119e3cf5b58", "fusion_lat": 0.0, "name": "0f1805cfe82b431e383f1119e3cf5b58", "is_reserved": 0, "rental_uris": {"android": "https://dc.lft.to/lastmile_qr_scan", "ios": "https://dc.lft.to/lastmile_qr_scan"}, "fusion_lon": 0.0}, {"lat": 38.837259833333334, "is_disabled": 0, "type": "electric_bike", "lon": -76.997535, "bike_id": "87687c8f8d168487f933e29832510459", "fusion_lat": 0.0, "name": "87687c8f8d168487f933e29832510459", "is_reserved": 0, "rental_uris": {"android": "https://dc.lft.to/lastmile_qr_scan", "ios": "https://dc.lft.to/lastmile_qr_scan"}, "fusion_lon": 0.0}, {"lat": 38.916138, "is_disabled": 0, "type": "electric_scooter", "lon": -77.02555116666667, "bike_id": "01e91296ffc63d6c9471138c0442657d", "fusion_lat": 0.0, "name": "01e91296ffc63d6c9471138c0442657d", "is_reserved": 0, "rental_uris": {"android": "https://dc.lft.to/lastmile_qr_scan", "ios": "https://dc.lft.to/lastmile_qr_scan"}, "fusion_lon": 0.0}, {"lat": 38.85519033333333, "is_disabled": 0, "type": "electric_bike", "lon": -76.98428633333333, "bike_id": "a78b1b8df48ecc4337aa1a0e4c03d9f7", "fusion_lat": 0.0, "name": "a78b1b8df48ecc4337aa1a0e4c03d9f7", "is_reserved": 0, "rental_uris": {"android": "https://dc.lft.to/lastmile_qr_scan", "ios": "https://dc.lft.to/lastmile_qr_scan"}, "fusion_lon": 0.0}, {"lat": 38.938315833333334, "is_disabled": 0, "type": "electric_bike", "lon": -77.02648216666667, "bike_id": "71589e8bfc36eb82886138769efcf4b5", "fusion_lat": 0.0, "name": "71589e8bfc36eb82886138769efcf4b5", "is_reserved": 0, "rental_uris": {"android": "https://dc.lft.to/lastmile_qr_scan", "ios": "https://dc.lft.to/lastmile_qr_scan"}, "fusion_lon": 0.0}, {"lat": 38.906800833333335, "is_disabled": 0, "type": "electric_scooter", "lon": -77.07174766666667, "bike_id": "a5d8574760013baefbd052f7fec48690", "fusion_lat": 0.0, "name": "a5d8574760013baefbd052f7fec48690", "is_reserved": 0, "rental_uris": {"android": "https://dc.lft.to/lastmile_qr_scan", "ios": "https://dc.lft.to/lastmile_qr_scan"}, "fusion_lon": 0.0}, {"lat": 38.89736216666667, "is_disabled": 0, "type": "electric_scooter", "lon": -77.00750733333334, "bike_id": "4e8e4aae0b2099868a91c90d31ae9d90", "fusion_lat": 0.0, "name": "4e8e4aae0b2099868a91c90d31ae9d90", "is_reserved": 0, "rental_uris": {"android": "https://dc.lft.to/lastmile_qr_scan", "ios": "https://dc.lft.to/lastmile_qr_scan"}, "fusion_lon": 0.0}, {"lat": 38.902417166666666, "is_disabled": 0, "type": "electric_scooter", "lon": -77.0435715, "bike_id": "98abf89a1aede71c2714a73fbde89eab", "fusion_lat": 0.0, "name": "98abf89a1aede71c2714a73fbde89eab", "is_reserved": 0, "rental_uris": {"android": "https://dc.lft.to/lastmile_qr_scan", "ios": "https://dc.lft.to/lastmile_qr_scan"}, "fusion_lon": 0.0}, {"lat": 38.9007865, "is_disabled": 0, "type": "electric_scooter", "lon": -77.0503085, "bike_id": "ce19278f3eb7af329ccbb6825245fadf", "fusion_lat": 0.0, "name": "ce19278f3eb7af329ccbb6825245fadf", "is_reserved": 0, "rental_uris": {"android": "https://dc.lft.to/lastmile_qr_scan", "ios": "https://dc.lft.to/lastmile_qr_scan"}, "fusion_lon": 0.0}, {"lat": 38.90848883333334, "is_disabled": 0, "type": "electric_scooter", "lon": -77.02066666666667, "bike_id": "cccead2f14f2f0951240660c82eba152", "fusion_lat": 0.0, "name": "cccead2f14f2f0951240660c82eba152", "is_reserved": 0, "rental_uris": {"android": "https://dc.lft.to/lastmile_qr_scan", "ios": "https://dc.lft.to/lastmile_qr_scan"}, "fusion_lon": 0.0}, {"lat": 38.898472, "is_disabled": 0, "type": "electric_scooter", "lon": -77.01864483333334, "bike_id": "8add2ba8ccbc10c8a348fa0986c31a18", "fusion_lat": 0.0, "name": "8add2ba8ccbc10c8a348fa0986c31a18", "is_reserved": 0, "rental_uris": {"android": "https://dc.lft.to/lastmile_qr_scan", "ios": "https://dc.lft.to/lastmile_qr_scan"}, "fusion_lon": 0.0}, {"lat": 38.908799333333334, "is_disabled": 0, "type": "electric_scooter", "lon": -77.04349816666667, "bike_id": "ead76d40c2b93919c3779999badde62f", "fusion_lat": 0.0, "name": "ead76d40c2b93919c3779999badde62f", "is_reserved": 0, "rental_uris": {"android": "https://dc.lft.to/lastmile_qr_scan", "ios": "https://dc.lft.to/lastmile_qr_scan"}, "fusion_lon": 0.0}, {"lat": 38.94499283333333, "is_disabled": 0, "type": "electric_scooter", "lon": -77.01549866666667, "bike_id": "2eb3e5c44013884cd8d2b24610ce43e4", "fusion_lat": 0.0, "name": "2eb3e5c44013884cd8d2b24610ce43e4", "is_reserved": 0, "rental_uris": {"android": "https://dc.lft.to/lastmile_qr_scan", "ios": "https://dc.lft.to/lastmile_qr_scan"}, "fusion_lon": 0.0}, {"lat": 38.91261133333333, "is_disabled": 0, "type": "electric_scooter", "lon": -77.0380055, "bike_id": "3fdc3ed56b8686bcb960185c38a65ee2", "fusion_lat": 0.0, "name": "3fdc3ed56b8686bcb960185c38a65ee2", "is_reserved": 0, "rental_uris": {"android": "https://dc.lft.to/lastmile_qr_scan", "ios": "https://dc.lft.to/lastmile_qr_scan"}, "fusion_lon": 0.0}, {"lat": 38.91717416666667, "is_disabled": 0, "type": "electric_scooter", "lon": -77.03854766666667, "bike_id": "78a9abea481765fa6239d1d1d3c81b97", "fusion_lat": 0.0, "name": "78a9abea481765fa6239d1d1d3c81b97", "is_reserved": 0, "rental_uris": {"android": "https://dc.lft.to/lastmile_qr_scan", "ios": "https://dc.lft.to/lastmile_qr_scan"}, "fusion_lon": 0.0}, {"lat": 38.9134985, "is_disabled": 0, "type": "electric_scooter", "lon": -77.03189383333333, "bike_id": "ab9762f4f498f9fba933c4d70d0cd424", "fusion_lat": 0.0, "name": "ab9762f4f498f9fba933c4d70d0cd424", "is_reserved": 0, "rental_uris": {"android": "https://dc.lft.to/lastmile_qr_scan", "ios": "https://dc.lft.to/lastmile_qr_scan"}, "fusion_lon": 0.0}, {"lat": 38.92186233333334, "is_disabled": 0, "type": "electric_scooter", "lon": -77.02982183333333, "bike_id": "a9a36c77a9c8277f9dbe18f3ae2dde0d", "fusion_lat": 0.0, "name": "a9a36c77a9c8277f9dbe18f3ae2dde0d", "is_reserved": 0, "rental_uris": {"android": "https://dc.lft.to/lastmile_qr_scan", "ios": "https://dc.lft.to/lastmile_qr_scan"}, "fusion_lon": 0.0}, {"lat": 38.92481083333333, "is_disabled": 0, "type": "electric_scooter", "lon": -77.05212416666667, "bike_id": "278c500d2731d7713536b33164207130", "fusion_lat": 0.0, "name": "278c500d2731d7713536b33164207130", "is_reserved": 0, "rental_uris": {"android": "https://dc.lft.to/lastmile_qr_scan", "ios": "https://dc.lft.to/lastmile_qr_scan"}, "fusion_lon": 0.0}, {"lat": 38.92613433333333, "is_disabled": 0, "type": "electric_scooter", "lon": -77.0215875, "bike_id": "8eb2b66a2465d9ca340b203fa2157ff4", "fusion_lat": 0.0, "name": "8eb2b66a2465d9ca340b203fa2157ff4", "is_reserved": 0, "rental_uris": {"android": "https://dc.lft.to/lastmile_qr_scan", "ios": "https://dc.lft.to/lastmile_qr_scan"}, "fusion_lon": 0.0}, {"lat": 38.93062783333333, "is_disabled": 0, "type": "electric_scooter", "lon": -77.0281785, "bike_id": "5154e4332a9d097f6aa817a8a6ff8489", "fusion_lat": 0.0, "name": "5154e4332a9d097f6aa817a8a6ff8489", "is_reserved": 0, "rental_uris": {"android": "https://dc.lft.to/lastmile_qr_scan", "ios": "https://dc.lft.to/lastmile_qr_scan"}, "fusion_lon": 0.0}, {"lat": 38.90903683333333, "is_disabled": 0, "type": "electric_scooter", "lon": -77.02710016666667, "bike_id": "1ccd14c230cfd0a7e4742effc7a4ce28", "fusion_lat": 0.0, "name": "1ccd14c230cfd0a7e4742effc7a4ce28", "is_reserved": 0, "rental_uris": {"android": "https://dc.lft.to/lastmile_qr_scan", "ios": "https://dc.lft.to/lastmile_qr_scan"}, "fusion_lon": 0.0}, {"lat": 38.91308166666666, "is_disabled": 0, "type": "electric_scooter", "lon": -77.03208416666666, "bike_id": "ee4b9bfb89e46751a93994cb0931e5a2", "fusion_lat": 0.0, "name": "ee4b9bfb89e46751a93994cb0931e5a2", "is_reserved": 0, "rental_uris": {"android": "https://dc.lft.to/lastmile_qr_scan", "ios": "https://dc.lft.to/lastmile_qr_scan"}, "fusion_lon": 0.0}, {"lat": 38.8922035, "is_disabled": 0, "type": "electric_scooter", "lon": -77.03977133333333, "bike_id": "cd356fcf52610bece5dfc49bcdd41170", "fusion_lat": 0.0, "name": "cd356fcf52610bece5dfc49bcdd41170", "is_reserved": 0, "rental_uris": {"android": "https://dc.lft.to/lastmile_qr_scan", "ios": "https://dc.lft.to/lastmile_qr_scan"}, "fusion_lon": 0.0}, {"lat": 38.90723216666667, "is_disabled": 0, "type": "electric_scooter", "lon": -77.013495, "bike_id": "d5b18128956b5c6ef3afee1cfc902d4f", "fusion_lat": 0.0, "name": "d5b18128956b5c6ef3afee1cfc902d4f", "is_reserved": 0, "rental_uris": {"android": "https://dc.lft.to/lastmile_qr_scan", "ios": "https://dc.lft.to/lastmile_qr_scan"}, "fusion_lon": 0.0}, {"lat": 38.88743566666667, "is_disabled": 0, "type": "electric_scooter", "lon": -77.02069666666667, "bike_id": "aca638e8c34f50abf6d294a9b9ecac84", "fusion_lat": 0.0, "name": "aca638e8c34f50abf6d294a9b9ecac84", "is_reserved": 0, "rental_uris": {"android": "https://dc.lft.to/lastmile_qr_scan", "ios": "https://dc.lft.to/lastmile_qr_scan"}, "fusion_lon": 0.0}, {"lat": 38.867122, "is_disabled": 0, "type": "electric_scooter", "lon": -76.98722516666666, "bike_id": "8fa261940dbc013074a6f075d308fb03", "fusion_lat": 0.0, "name": "8fa261940dbc013074a6f075d308fb03", "is_reserved": 0, "rental_uris": {"android": "https://dc.lft.to/lastmile_qr_scan", "ios": "https://dc.lft.to/lastmile_qr_scan"}, "fusion_lon": 0.0}, {"lat": 38.933396333333334, "is_disabled": 0, "type": "electric_scooter", "lon": -77.0384555, "bike_id": "42edc00549d709dc19bd7f54311ddb1a", "fusion_lat": 0.0, "name": "42edc00549d709dc19bd7f54311ddb1a", "is_reserved": 0, "rental_uris": {"android": "https://dc.lft.to/lastmile_qr_scan", "ios": "https://dc.lft.to/lastmile_qr_scan"}, "fusion_lon": 0.0}, {"lat": 38.92795533333334, "is_disabled": 0, "type": "electric_scooter", "lon": -76.98490866666667, "bike_id": "f515f3e74d2c5bb1ea96baf01f1f32c3", "fusion_lat": 0.0, "name": "f515f3e74d2c5bb1ea96baf01f1f32c3", "is_reserved": 0, "rental_uris": {"android": "https://dc.lft.to/lastmile_qr_scan", "ios": "https://dc.lft.to/lastmile_qr_scan"}, "fusion_lon": 0.0}, {"lat": 38.92033933333333, "is_disabled": 0, "type": "electric_scooter", "lon": -76.9780545, "bike_id": "57b52d384801c03e06d74cfc2ec7529e", "fusion_lat": 0.0, "name": "57b52d384801c03e06d74cfc2ec7529e", "is_reserved": 0, "rental_uris": {"android": "https://dc.lft.to/lastmile_qr_scan", "ios": "https://dc.lft.to/lastmile_qr_scan"}, "fusion_lon": 0.0}, {"lat": 38.88489216666667, "is_disabled": 0, "type": "electric_scooter", "lon": -77.02387116666667, "bike_id": "269aa2db33f656ea9f704cba2e45f199", "fusion_lat": 0.0, "name": "269aa2db33f656ea9f704cba2e45f199", "is_reserved": 0, "rental_uris": {"android": "https://dc.lft.to/lastmile_qr_scan", "ios": "https://dc.lft.to/lastmile_qr_scan"}, "fusion_lon": 0.0}, {"lat": 38.90916633333333, "is_disabled": 0, "type": "electric_scooter", "lon": -77.03644933333334, "bike_id": "e7c6abdd796fd750c50318d866acb886", "fusion_lat": 0.0, "name": "e7c6abdd796fd750c50318d866acb886", "is_reserved": 0, "rental_uris": {"android": "https://dc.lft.to/lastmile_qr_scan", "ios": "https://dc.lft.to/lastmile_qr_scan"}, "fusion_lon": 0.0}, {"lat": 38.9387805, "is_disabled": 0, "type": "electric_scooter", "lon": -77.024456, "bike_id": "65904130fbdd97284e84e9d3bb292ab7", "fusion_lat": 0.0, "name": "65904130fbdd97284e84e9d3bb292ab7", "is_reserved": 0, "rental_uris": {"android": "https://dc.lft.to/lastmile_qr_scan", "ios": "https://dc.lft.to/lastmile_qr_scan"}, "fusion_lon": 0.0}, {"lat": 38.95560433333333, "is_disabled": 0, "type": "electric_scooter", "lon": -77.022329, "bike_id": "79ab8ff4c98a2855238bd98455dc5759", "fusion_lat": 0.0, "name": "79ab8ff4c98a2855238bd98455dc5759", "is_reserved": 0, "rental_uris": {"android": "https://dc.lft.to/lastmile_qr_scan", "ios": "https://dc.lft.to/lastmile_qr_scan"}, "fusion_lon": 0.0}, {"lat": 38.88184666666667, "is_disabled": 0, "type": "electric_scooter", "lon": -76.99507066666666, "bike_id": "6b6183aceb41d26c2d92fbea721cf57f", "fusion_lat": 0.0, "name": "6b6183aceb41d26c2d92fbea721cf57f", "is_reserved": 0, "rental_uris": {"android": "https://dc.lft.to/lastmile_qr_scan", "ios": "https://dc.lft.to/lastmile_qr_scan"}, "fusion_lon": 0.0}, {"lat": 38.887293, "is_disabled": 0, "type": "electric_scooter", "lon": -77.03200683333333, "bike_id": "ee2cacf014f8910a3580da4e15a98e50", "fusion_lat": 0.0, "name": "ee2cacf014f8910a3580da4e15a98e50", "is_reserved": 0, "rental_uris": {"android": "https://dc.lft.to/lastmile_qr_scan", "ios": "https://dc.lft.to/lastmile_qr_scan"}, "fusion_lon": 0.0}, {"lat": 38.86560266666667, "is_disabled": 0, "type": "electric_scooter", "lon": -76.98948766666666, "bike_id": "8851e52986e02abaabcbb5c86f40be89", "fusion_lat": 0.0, "name": "8851e52986e02abaabcbb5c86f40be89", "is_reserved": 0, "rental_uris": {"android": "https://dc.lft.to/lastmile_qr_scan", "ios": "https://dc.lft.to/lastmile_qr_scan"}, "fusion_lon": 0.0}, {"lat": 38.900417166666664, "is_disabled": 0, "type": "electric_scooter", "lon": -77.00536883333334, "bike_id": "a9d81cf34a856f31c2221631608ef375", "fusion_lat": 0.0, "name": "a9d81cf34a856f31c2221631608ef375", "is_reserved": 0, "rental_uris": {"android": "https://dc.lft.to/lastmile_qr_scan", "ios": "https://dc.lft.to/lastmile_qr_scan"}, "fusion_lon": 0.0}, {"lat": 38.926752, "is_disabled": 0, "type": "electric_scooter", "lon": -77.00738783333334, "bike_id": "a0fd81295e7c7655b13bf58505c2b9d0", "fusion_lat": 0.0, "name": "a0fd81295e7c7655b13bf58505c2b9d0", "is_reserved": 0, "rental_uris": {"android": "https://dc.lft.to/lastmile_qr_scan", "ios": "https://dc.lft.to/lastmile_qr_scan"}, "fusion_lon": 0.0}, {"lat": 38.90755816666667, "is_disabled": 0, "type": "electric_scooter", "lon": -77.0050405, "bike_id": "4f2992a57815ef0009d9f8462a3bcff0", "fusion_lat": 0.0, "name": "4f2992a57815ef0009d9f8462a3bcff0", "is_reserved": 0, "rental_uris": {"android": "https://dc.lft.to/lastmile_qr_scan", "ios": "https://dc.lft.to/lastmile_qr_scan"}, "fusion_lon": 0.0}, {"lat": 38.88448533333333, "is_disabled": 0, "type": "electric_scooter", "lon": -77.01526966666667, "bike_id": "689b95b90dea3793e052989b658a4cd7", "fusion_lat": 0.0, "name": "689b95b90dea3793e052989b658a4cd7", "is_reserved": 0, "rental_uris": {"android": "https://dc.lft.to/lastmile_qr_scan", "ios": "https://dc.lft.to/lastmile_qr_scan"}, "fusion_lon": 0.0}, {"lat": 38.89143033333333, "is_disabled": 0, "type": "electric_bike", "lon": -77.11305483333334, "bike_id": "21c644e4d08bc00961075111886f8615", "fusion_lat": 0.0, "name": "21c644e4d08bc00961075111886f8615", "is_reserved": 0, "rental_uris": {"android": "https://dc.lft.to/lastmile_qr_scan", "ios": "https://dc.lft.to/lastmile_qr_scan"}, "fusion_lon": 0.0}, {"lat": 38.9203455, "is_disabled": 0, "type": "electric_scooter", "lon": -77.0312235, "bike_id": "6442e9a998c1a694b5568b7a8d5f6fe7", "fusion_lat": 0.0, "name": "6442e9a998c1a694b5568b7a8d5f6fe7", "is_reserved": 0, "rental_uris": {"android": "https://dc.lft.to/lastmile_qr_scan", "ios": "https://dc.lft.to/lastmile_qr_scan"}, "fusion_lon": 0.0}, {"lat": 38.89220366666667, "is_disabled": 0, "type": "electric_bike", "lon": -77.10779966666666, "bike_id": "55eb5da7692a91ad4a5536fd704cf77c", "fusion_lat": 0.0, "name": "55eb5da7692a91ad4a5536fd704cf77c", "is_reserved": 0, "rental_uris": {"android": "https://dc.lft.to/lastmile_qr_scan", "ios": "https://dc.lft.to/lastmile_qr_scan"}, "fusion_lon": 0.0}, {"lat": 38.908212666666664, "is_disabled": 0, "type": "electric_scooter", "lon": -76.996738, "bike_id": "e6ecbb573fa47d4cb002846beec95778", "fusion_lat": 0.0, "name": "e6ecbb573fa47d4cb002846beec95778", "is_reserved": 0, "rental_uris": {"android": "https://dc.lft.to/lastmile_qr_scan", "ios": "https://dc.lft.to/lastmile_qr_scan"}, "fusion_lon": 0.0}, {"lat": 38.917321, "is_disabled": 0, "type": "electric_scooter", "lon": -77.0365925, "bike_id": "150cde513b29d9e19f9ab7c3d3599c10", "fusion_lat": 0.0, "name": "150cde513b29d9e19f9ab7c3d3599c10", "is_reserved": 0, "rental_uris": {"android": "https://dc.lft.to/lastmile_qr_scan", "ios": "https://dc.lft.to/lastmile_qr_scan"}, "fusion_lon": 0.0}, {"lat": 38.90035816666666, "is_disabled": 0, "type": "electric_scooter", "lon": -77.0020615, "bike_id": "26b8b7acf8e00df10c6ff6af76f21af0", "fusion_lat": 0.0, "name": "26b8b7acf8e00df10c6ff6af76f21af0", "is_reserved": 0, "rental_uris": {"android": "https://dc.lft.to/lastmile_qr_scan", "ios": "https://dc.lft.to/lastmile_qr_scan"}, "fusion_lon": 0.0}, {"lat": 38.95745766666667, "is_disabled": 0, "type": "electric_bike", "lon": -77.023171, "bike_id": "9d83084cb5f3f8af9f52df74c0376bd6", "fusion_lat": 0.0, "name": "9d83084cb5f3f8af9f52df74c0376bd6", "is_reserved": 0, "rental_uris": {"android": "https://dc.lft.to/lastmile_qr_scan", "ios": "https://dc.lft.to/lastmile_qr_scan"}, "fusion_lon": 0.0}, {"lat": 38.921039666666665, "is_disabled": 0, "type": "electric_scooter", "lon": -77.042162, "bike_id": "5eac38cbbe1b13c6c94c763fbb4d1110", "fusion_lat": 0.0, "name": "5eac38cbbe1b13c6c94c763fbb4d1110", "is_reserved": 0, "rental_uris": {"android": "https://dc.lft.to/lastmile_qr_scan", "ios": "https://dc.lft.to/lastmile_qr_scan"}, "fusion_lon": 0.0}, {"lat": 38.901815666666664, "is_disabled": 0, "type": "electric_scooter", "lon": -77.049924, "bike_id": "f0df5ed61adece71e10a1d378e9e5bfa", "fusion_lat": 0.0, "name": "f0df5ed61adece71e10a1d378e9e5bfa", "is_reserved": 0, "rental_uris": {"android": "https://dc.lft.to/lastmile_qr_scan", "ios": "https://dc.lft.to/lastmile_qr_scan"}, "fusion_lon": 0.0}, {"lat": 38.893662, "is_disabled": 0, "type": "electric_scooter", "lon": -76.99108266666667, "bike_id": "62833d139bd9fc97344cbc9bd066188f", "fusion_lat": 0.0, "name": "62833d139bd9fc97344cbc9bd066188f", "is_reserved": 0, "rental_uris": {"android": "https://dc.lft.to/lastmile_qr_scan", "ios": "https://dc.lft.to/lastmile_qr_scan"}, "fusion_lon": 0.0}, {"lat": 38.92609133333333, "is_disabled": 0, "type": "electric_scooter", "lon": -77.05691983333334, "bike_id": "229eb9b9872be959cba1695b080089a4", "fusion_lat": 0.0, "name": "229eb9b9872be959cba1695b080089a4", "is_reserved": 0, "rental_uris": {"android": "https://dc.lft.to/lastmile_qr_scan", "ios": "https://dc.lft.to/lastmile_qr_scan"}, "fusion_lon": 0.0}, {"lat": 38.915578333333336, "is_disabled": 0, "type": "electric_scooter", "lon": -77.00972133333333, "bike_id": "90cfa629ba685395a9a9152aac9ec6cc", "fusion_lat": 0.0, "name": "90cfa629ba685395a9a9152aac9ec6cc", "is_reserved": 0, "rental_uris": {"android": "https://dc.lft.to/lastmile_qr_scan", "ios": "https://dc.lft.to/lastmile_qr_scan"}, "fusion_lon": 0.0}, {"lat": 38.84426066666666, "is_disabled": 0, "type": "electric_scooter", "lon": -76.9977895, "bike_id": "643b51c2be231b889c10cf71055ad1a3", "fusion_lat": 0.0, "name": "643b51c2be231b889c10cf71055ad1a3", "is_reserved": 0, "rental_uris": {"android": "https://dc.lft.to/lastmile_qr_scan", "ios": "https://dc.lft.to/lastmile_qr_scan"}, "fusion_lon": 0.0}, {"lat": 38.923853, "is_disabled": 0, "type": "electric_scooter", "lon": -77.02761866666667, "bike_id": "fd8de29c1018dd473cd39f8a58b03adf", "fusion_lat": 0.0, "name": "fd8de29c1018dd473cd39f8a58b03adf", "is_reserved": 0, "rental_uris": {"android": "https://dc.lft.to/lastmile_qr_scan", "ios": "https://dc.lft.to/lastmile_qr_scan"}, "fusion_lon": 0.0}, {"lat": 38.8542685, "is_disabled": 0, "type": "electric_bike", "lon": -76.90970616666667, "bike_id": "450884724c15d6faa319910b0e1a2def", "fusion_lat": 0.0, "name": "450884724c15d6faa319910b0e1a2def", "is_reserved": 0, "rental_uris": {"android": "https://dc.lft.to/lastmile_qr_scan", "ios": "https://dc.lft.to/lastmile_qr_scan"}, "fusion_lon": 0.0}, {"lat": 38.8105185, "is_disabled": 0, "type": "electric_bike", "lon": -77.08508383333333, "bike_id": "64ce1e8f5d6d03ed14e4f7f7827ebc19", "fusion_lat": 0.0, "name": "64ce1e8f5d6d03ed14e4f7f7827ebc19", "is_reserved": 0, "rental_uris": {"android": "https://dc.lft.to/lastmile_qr_scan", "ios": "https://dc.lft.to/lastmile_qr_scan"}, "fusion_lon": 0.0}, {"lat": 38.9049325, "is_disabled": 0, "type": "electric_scooter", "lon": -76.99541033333334, "bike_id": "c0beea41ff43839f215b591cf33e33bb", "fusion_lat": 0.0, "name": "c0beea41ff43839f215b591cf33e33bb", "is_reserved": 0, "rental_uris": {"android": "https://dc.lft.to/lastmile_qr_scan", "ios": "https://dc.lft.to/lastmile_qr_scan"}, "fusion_lon": 0.0}, {"lat": 38.915212833333335, "is_disabled": 0, "type": "electric_scooter", "lon": -77.03836666666666, "bike_id": "8e8833fe4130e3c4c0fccc552a178b27", "fusion_lat": 0.0, "name": "8e8833fe4130e3c4c0fccc552a178b27", "is_reserved": 0, "rental_uris": {"android": "https://dc.lft.to/lastmile_qr_scan", "ios": "https://dc.lft.to/lastmile_qr_scan"}, "fusion_lon": 0.0}, {"lat": 38.91971133333333, "is_disabled": 0, "type": "electric_scooter", "lon": -77.0238675, "bike_id": "42090f2de0972c5816656ef97e846343", "fusion_lat": 0.0, "name": "42090f2de0972c5816656ef97e846343", "is_reserved": 0, "rental_uris": {"android": "https://dc.lft.to/lastmile_qr_scan", "ios": "https://dc.lft.to/lastmile_qr_scan"}, "fusion_lon": 0.0}, {"lat": 38.9460195, "is_disabled": 0, "type": "electric_scooter", "lon": -77.07030516666667, "bike_id": "1361e20980a0a566aa71a19fea68bdf2", "fusion_lat": 0.0, "name": "1361e20980a0a566aa71a19fea68bdf2", "is_reserved": 0, "rental_uris": {"android": "https://dc.lft.to/lastmile_qr_scan", "ios": "https://dc.lft.to/lastmile_qr_scan"}, "fusion_lon": 0.0}, {"lat": 38.90774233333333, "is_disabled": 0, "type": "electric_scooter", "lon": -77.03838083333333, "bike_id": "d1266893d2e5f0f7966aadfb33da6de0", "fusion_lat": 0.0, "name": "d1266893d2e5f0f7966aadfb33da6de0", "is_reserved": 0, "rental_uris": {"android": "https://dc.lft.to/lastmile_qr_scan", "ios": "https://dc.lft.to/lastmile_qr_scan"}, "fusion_lon": 0.0}, {"lat": 38.895167666666666, "is_disabled": 0, "type": "electric_scooter", "lon": -77.04356883333334, "bike_id": "c8005984cf905b87c75ece6c834aeed7", "fusion_lat": 0.0, "name": "c8005984cf905b87c75ece6c834aeed7", "is_reserved": 0, "rental_uris": {"android": "https://dc.lft.to/lastmile_qr_scan", "ios": "https://dc.lft.to/lastmile_qr_scan"}, "fusion_lon": 0.0}, {"lat": 38.907301, "is_disabled": 0, "type": "electric_scooter", "lon": -77.04825483333333, "bike_id": "2519976af0bbd5a0fdfe2888716275ab", "fusion_lat": 0.0, "name": "2519976af0bbd5a0fdfe2888716275ab", "is_reserved": 0, "rental_uris": {"android": "https://dc.lft.to/lastmile_qr_scan", "ios": "https://dc.lft.to/lastmile_qr_scan"}, "fusion_lon": 0.0}, {"lat": 39.030504, "is_disabled": 0, "type": "electric_bike", "lon": -77.09482216666666, "bike_id": "690df8c0a3325e0681f2859432926d86", "fusion_lat": 0.0, "name": "690df8c0a3325e0681f2859432926d86", "is_reserved": 0, "rental_uris": {"android": "https://dc.lft.to/lastmile_qr_scan", "ios": "https://dc.lft.to/lastmile_qr_scan"}, "fusion_lon": 0.0}, {"lat": 38.9218365, "is_disabled": 0, "type": "electric_scooter", "lon": -77.04232483333334, "bike_id": "f98b74a87f8da36ab807f11008b78eee", "fusion_lat": 0.0, "name": "f98b74a87f8da36ab807f11008b78eee", "is_reserved": 0, "rental_uris": {"android": "https://dc.lft.to/lastmile_qr_scan", "ios": "https://dc.lft.to/lastmile_qr_scan"}, "fusion_lon": 0.0}, {"lat": 38.909678, "is_disabled": 0, "type": "electric_scooter", "lon": -77.04512316666667, "bike_id": "147c058de1a7e1a40f556c9750a3c7e1", "fusion_lat": 0.0, "name": "147c058de1a7e1a40f556c9750a3c7e1", "is_reserved": 0, "rental_uris": {"android": "https://dc.lft.to/lastmile_qr_scan", "ios": "https://dc.lft.to/lastmile_qr_scan"}, "fusion_lon": 0.0}, {"lat": 38.91714983333333, "is_disabled": 0, "type": "electric_scooter", "lon": -77.03556516666667, "bike_id": "34a4c659df31b477a8ee2344f845b42e", "fusion_lat": 0.0, "name": "34a4c659df31b477a8ee2344f845b42e", "is_reserved": 0, "rental_uris": {"android": "https://dc.lft.to/lastmile_qr_scan", "ios": "https://dc.lft.to/lastmile_qr_scan"}, "fusion_lon": 0.0}, {"lat": 38.93678666666667, "is_disabled": 0, "type": "electric_scooter", "lon": -77.035736, "bike_id": "3ea659673f8559d34dcc80b0039a1e63", "fusion_lat": 0.0, "name": "3ea659673f8559d34dcc80b0039a1e63", "is_reserved": 0, "rental_uris": {"android": "https://dc.lft.to/lastmile_qr_scan", "ios": "https://dc.lft.to/lastmile_qr_scan"}, "fusion_lon": 0.0}, {"lat": 38.88515566666667, "is_disabled": 0, "type": "electric_scooter", "lon": -77.0057355, "bike_id": "b62490c720c2c1ddefb4d7e705f1cfaa", "fusion_lat": 0.0, "name": "b62490c720c2c1ddefb4d7e705f1cfaa", "is_reserved": 0, "rental_uris": {"android": "https://dc.lft.to/lastmile_qr_scan", "ios": "https://dc.lft.to/lastmile_qr_scan"}, "fusion_lon": 0.0}, {"lat": 38.92321416666667, "is_disabled": 0, "type": "electric_scooter", "lon": -77.03897333333333, "bike_id": "15d0d2084c4b3888dbaa9d4f3bac3056", "fusion_lat": 0.0, "name": "15d0d2084c4b3888dbaa9d4f3bac3056", "is_reserved": 0, "rental_uris": {"android": "https://dc.lft.to/lastmile_qr_scan", "ios": "https://dc.lft.to/lastmile_qr_scan"}, "fusion_lon": 0.0}, {"lat": 38.907518833333334, "is_disabled": 0, "type": "electric_scooter", "lon": -76.99874433333333, "bike_id": "837b990578abc43e88d22288047e1e56", "fusion_lat": 0.0, "name": "837b990578abc43e88d22288047e1e56", "is_reserved": 0, "rental_uris": {"android": "https://dc.lft.to/lastmile_qr_scan", "ios": "https://dc.lft.to/lastmile_qr_scan"}, "fusion_lon": 0.0}, {"lat": 38.92889, "is_disabled": 0, "type": "electric_scooter", "lon": -77.03248066666667, "bike_id": "d3f28ca4c0c0e81f06c05b348aac6a17", "fusion_lat": 0.0, "name": "d3f28ca4c0c0e81f06c05b348aac6a17", "is_reserved": 0, "rental_uris": {"android": "https://dc.lft.to/lastmile_qr_scan", "ios": "https://dc.lft.to/lastmile_qr_scan"}, "fusion_lon": 0.0}, {"lat": 38.928806, "is_disabled": 0, "type": "electric_scooter", "lon": -77.03261183333333, "bike_id": "e1f94af99b78824363891fb6378e0e18", "fusion_lat": 0.0, "name": "e1f94af99b78824363891fb6378e0e18", "is_reserved": 0, "rental_uris": {"android": "https://dc.lft.to/lastmile_qr_scan", "ios": "https://dc.lft.to/lastmile_qr_scan"}, "fusion_lon": 0.0}, {"lat": 38.9220415, "is_disabled": 0, "type": "electric_scooter", "lon": -77.04253816666667, "bike_id": "bf15c0c689cae3e7fbd34cbd7019aaf3", "fusion_lat": 0.0, "name": "bf15c0c689cae3e7fbd34cbd7019aaf3", "is_reserved": 0, "rental_uris": {"android": "https://dc.lft.to/lastmile_qr_scan", "ios": "https://dc.lft.to/lastmile_qr_scan"}, "fusion_lon": 0.0}, {"lat": 38.93192466666667, "is_disabled": 0, "type": "electric_scooter", "lon": -77.0256895, "bike_id": "7540dbcce07886e1feff027f1f5a4781", "fusion_lat": 0.0, "name": "7540dbcce07886e1feff027f1f5a4781", "is_reserved": 0, "rental_uris": {"android": "https://dc.lft.to/lastmile_qr_scan", "ios": "https://dc.lft.to/lastmile_qr_scan"}, "fusion_lon": 0.0}, {"lat": 38.90070083333333, "is_disabled": 0, "type": "electric_scooter", "lon": -77.007564, "bike_id": "f4c613e3fc3ff15a47b49acbd9b706a2", "fusion_lat": 0.0, "name": "f4c613e3fc3ff15a47b49acbd9b706a2", "is_reserved": 0, "rental_uris": {"android": "https://dc.lft.to/lastmile_qr_scan", "ios": "https://dc.lft.to/lastmile_qr_scan"}, "fusion_lon": 0.0}, {"lat": 38.88364383333333, "is_disabled": 0, "type": "electric_scooter", "lon": -76.99509566666667, "bike_id": "78b73298022ee3c13901fc04b675ebbb", "fusion_lat": 0.0, "name": "78b73298022ee3c13901fc04b675ebbb", "is_reserved": 0, "rental_uris": {"android": "https://dc.lft.to/lastmile_qr_scan", "ios": "https://dc.lft.to/lastmile_qr_scan"}, "fusion_lon": 0.0}, {"lat": 38.842321, "is_disabled": 0, "type": "electric_bike", "lon": -77.0512535, "bike_id": "2abb5c81f74ee696c648995514bf8f27", "fusion_lat": 0.0, "name": "2abb5c81f74ee696c648995514bf8f27", "is_reserved": 0, "rental_uris": {"android": "https://dc.lft.to/lastmile_qr_scan", "ios": "https://dc.lft.to/lastmile_qr_scan"}, "fusion_lon": 0.0}, {"lat": 38.89713483333333, "is_disabled": 0, "type": "electric_scooter", "lon": -77.02796966666666, "bike_id": "66963fdae4815731de329772aae9b5b4", "fusion_lat": 0.0, "name": "66963fdae4815731de329772aae9b5b4", "is_reserved": 0, "rental_uris": {"android": "https://dc.lft.to/lastmile_qr_scan", "ios": "https://dc.lft.to/lastmile_qr_scan"}, "fusion_lon": 0.0}, {"lat": 38.892273833333334, "is_disabled": 0, "type": "electric_bike", "lon": -77.03324633333334, "bike_id": "738bd5e7af729c87de44977091b9e80f", "fusion_lat": 0.0, "name": "738bd5e7af729c87de44977091b9e80f", "is_reserved": 0, "rental_uris": {"android": "https://dc.lft.to/lastmile_qr_scan", "ios": "https://dc.lft.to/lastmile_qr_scan"}, "fusion_lon": 0.0}, {"lat": 38.9096955, "is_disabled": 0, "type": "electric_scooter", "lon": -77.038622, "bike_id": "85dcdc1ce8db3e709edf85eb88b8f349", "fusion_lat": 0.0, "name": "85dcdc1ce8db3e709edf85eb88b8f349", "is_reserved": 0, "rental_uris": {"android": "https://dc.lft.to/lastmile_qr_scan", "ios": "https://dc.lft.to/lastmile_qr_scan"}, "fusion_lon": 0.0}, {"lat": 38.827797833333335, "is_disabled": 0, "type": "electric_bike", "lon": -77.00912166666667, "bike_id": "44b8de424ebd4f8305bb7f01b744c522", "fusion_lat": 0.0, "name": "44b8de424ebd4f8305bb7f01b744c522", "is_reserved": 0, "rental_uris": {"android": "https://dc.lft.to/lastmile_qr_scan", "ios": "https://dc.lft.to/lastmile_qr_scan"}, "fusion_lon": 0.0}, {"lat": 38.9389045, "is_disabled": 0, "type": "electric_scooter", "lon": -77.033322, "bike_id": "386fc2d4a5e265402ff8c2dca67a3236", "fusion_lat": 0.0, "name": "386fc2d4a5e265402ff8c2dca67a3236", "is_reserved": 0, "rental_uris": {"android": "https://dc.lft.to/lastmile_qr_scan", "ios": "https://dc.lft.to/lastmile_qr_scan"}, "fusion_lon": 0.0}, {"lat": 38.888033, "is_disabled": 0, "type": "electric_scooter", "lon": -76.93359866666667, "bike_id": "10c22b6f7e4f7c0ffc0e3eed0c7d9985", "fusion_lat": 0.0, "name": "10c22b6f7e4f7c0ffc0e3eed0c7d9985", "is_reserved": 0, "rental_uris": {"android": "https://dc.lft.to/lastmile_qr_scan", "ios": "https://dc.lft.to/lastmile_qr_scan"}, "fusion_lon": 0.0}, {"lat": 38.93295283333333, "is_disabled": 0, "type": "electric_scooter", "lon": -77.04530183333334, "bike_id": "e31247ccd83379847ed06726c18a90e6", "fusion_lat": 0.0, "name": "e31247ccd83379847ed06726c18a90e6", "is_reserved": 0, "rental_uris": {"android": "https://dc.lft.to/lastmile_qr_scan", "ios": "https://dc.lft.to/lastmile_qr_scan"}, "fusion_lon": 0.0}, {"lat": 38.9225485, "is_disabled": 0, "type": "electric_scooter", "lon": -77.01973583333333, "bike_id": "51381942e84504cbe4659072de5ca93f", "fusion_lat": 0.0, "name": "51381942e84504cbe4659072de5ca93f", "is_reserved": 0, "rental_uris": {"android": "https://dc.lft.to/lastmile_qr_scan", "ios": "https://dc.lft.to/lastmile_qr_scan"}, "fusion_lon": 0.0}, {"lat": 38.88094183333333, "is_disabled": 0, "type": "electric_scooter", "lon": -76.99258033333334, "bike_id": "d3e08273a7959d0dcb1fa197e6753151", "fusion_lat": 0.0, "name": "d3e08273a7959d0dcb1fa197e6753151", "is_reserved": 0, "rental_uris": {"android": "https://dc.lft.to/lastmile_qr_scan", "ios": "https://dc.lft.to/lastmile_qr_scan"}, "fusion_lon": 0.0}, {"lat": 38.8953165, "is_disabled": 0, "type": "electric_scooter", "lon": -77.03350366666666, "bike_id": "a866b7eaa8174a76036c7d30183df067", "fusion_lat": 0.0, "name": "a866b7eaa8174a76036c7d30183df067", "is_reserved": 0, "rental_uris": {"android": "https://dc.lft.to/lastmile_qr_scan", "ios": "https://dc.lft.to/lastmile_qr_scan"}, "fusion_lon": 0.0}, {"lat": 38.98433083333333, "is_disabled": 0, "type": "electric_scooter", "lon": -77.02672033333333, "bike_id": "edbc76d1762dcb84c63d181e68d73fae", "fusion_lat": 0.0, "name": "edbc76d1762dcb84c63d181e68d73fae", "is_reserved": 0, "rental_uris": {"android": "https://dc.lft.to/lastmile_qr_scan", "ios": "https://dc.lft.to/lastmile_qr_scan"}, "fusion_lon": 0.0}, {"lat": 38.966215166666665, "is_disabled": 0, "type": "electric_scooter", "lon": -77.023226, "bike_id": "c9e258d62645b491f9e63865f34861c6", "fusion_lat": 0.0, "name": "c9e258d62645b491f9e63865f34861c6", "is_reserved": 0, "rental_uris": {"android": "https://dc.lft.to/lastmile_qr_scan", "ios": "https://dc.lft.to/lastmile_qr_scan"}, "fusion_lon": 0.0}, {"lat": 38.85502966666667, "is_disabled": 0, "type": "electric_bike", "lon": -77.120433, "bike_id": "1a97289a49be2299cd3c45908760d2ea", "fusion_lat": 0.0, "name": "1a97289a49be2299cd3c45908760d2ea", "is_reserved": 0, "rental_uris": {"android": "https://dc.lft.to/lastmile_qr_scan", "ios": "https://dc.lft.to/lastmile_qr_scan"}, "fusion_lon": 0.0}, {"lat": 38.943145, "is_disabled": 0, "type": "electric_scooter", "lon": -77.0592725, "bike_id": "7b31a8add604ac794820f5e70562d2bf", "fusion_lat": 0.0, "name": "7b31a8add604ac794820f5e70562d2bf", "is_reserved": 0, "rental_uris": {"android": "https://dc.lft.to/lastmile_qr_scan", "ios": "https://dc.lft.to/lastmile_qr_scan"}, "fusion_lon": 0.0}, {"lat": 38.90028933333333, "is_disabled": 0, "type": "electric_scooter", "lon": -76.998606, "bike_id": "5e6427556baf0c5f0f408aefd2d2ba62", "fusion_lat": 0.0, "name": "5e6427556baf0c5f0f408aefd2d2ba62", "is_reserved": 0, "rental_uris": {"android": "https://dc.lft.to/lastmile_qr_scan", "ios": "https://dc.lft.to/lastmile_qr_scan"}, "fusion_lon": 0.0}, {"lat": 38.83237916666667, "is_disabled": 0, "type": "electric_bike", "lon": -76.94626183333334, "bike_id": "5d6caf471e5b7fe9ea8c742a8aaa29ca", "fusion_lat": 0.0, "name": "5d6caf471e5b7fe9ea8c742a8aaa29ca", "is_reserved": 0, "rental_uris": {"android": "https://dc.lft.to/lastmile_qr_scan", "ios": "https://dc.lft.to/lastmile_qr_scan"}, "fusion_lon": 0.0}, {"lat": 38.92361616666667, "is_disabled": 0, "type": "electric_scooter", "lon": -77.040354, "bike_id": "c9b0cc95214450d7b9cc6c895c9e53b8", "fusion_lat": 0.0, "name": "c9b0cc95214450d7b9cc6c895c9e53b8", "is_reserved": 0, "rental_uris": {"android": "https://dc.lft.to/lastmile_qr_scan", "ios": "https://dc.lft.to/lastmile_qr_scan"}, "fusion_lon": 0.0}, {"lat": 38.89839083333333, "is_disabled": 0, "type": "electric_scooter", "lon": -77.0332675, "bike_id": "e4931f16c4eb58d12e287f55760db6a5", "fusion_lat": 0.0, "name": "e4931f16c4eb58d12e287f55760db6a5", "is_reserved": 0, "rental_uris": {"android": "https://dc.lft.to/lastmile_qr_scan", "ios": "https://dc.lft.to/lastmile_qr_scan"}, "fusion_lon": 0.0}, {"lat": 38.906393333333334, "is_disabled": 0, "type": "electric_scooter", "lon": -76.97949183333333, "bike_id": "a27de7310e2116d10764b14759207cf2", "fusion_lat": 0.0, "name": "a27de7310e2116d10764b14759207cf2", "is_reserved": 0, "rental_uris": {"android": "https://dc.lft.to/lastmile_qr_scan", "ios": "https://dc.lft.to/lastmile_qr_scan"}, "fusion_lon": 0.0}, {"lat": 38.978333666666664, "is_disabled": 0, "type": "electric_bike", "lon": -77.02641483333333, "bike_id": "334c301cd1d368439b15f5c835d81756", "fusion_lat": 0.0, "name": "334c301cd1d368439b15f5c835d81756", "is_reserved": 0, "rental_uris": {"android": "https://dc.lft.to/lastmile_qr_scan", "ios": "https://dc.lft.to/lastmile_qr_scan"}, "fusion_lon": 0.0}, {"lat": 38.917109333333336, "is_disabled": 0, "type": "electric_scooter", "lon": -77.03706666666666, "bike_id": "a322264e475e27493f9f53564dcf7569", "fusion_lat": 0.0, "name": "a322264e475e27493f9f53564dcf7569", "is_reserved": 0, "rental_uris": {"android": "https://dc.lft.to/lastmile_qr_scan", "ios": "https://dc.lft.to/lastmile_qr_scan"}, "fusion_lon": 0.0}, {"lat": 38.86379866666667, "is_disabled": 0, "type": "electric_scooter", "lon": -76.99241233333333, "bike_id": "6373da8b14cef550a1d8997ed008434a", "fusion_lat": 0.0, "name": "6373da8b14cef550a1d8997ed008434a", "is_reserved": 0, "rental_uris": {"android": "https://dc.lft.to/lastmile_qr_scan", "ios": "https://dc.lft.to/lastmile_qr_scan"}, "fusion_lon": 0.0}, {"lat": 38.860912666666664, "is_disabled": 0, "type": "electric_scooter", "lon": -76.98378833333334, "bike_id": "301f81d96a7dec36c1ac226e4f5f80d3", "fusion_lat": 0.0, "name": "301f81d96a7dec36c1ac226e4f5f80d3", "is_reserved": 0, "rental_uris": {"android": "https://dc.lft.to/lastmile_qr_scan", "ios": "https://dc.lft.to/lastmile_qr_scan"}, "fusion_lon": 0.0}, {"lat": 38.90018033333333, "is_disabled": 0, "type": "electric_scooter", "lon": -76.99213116666667, "bike_id": "00a5567f23fa28a4ae136e2d422e7d79", "fusion_lat": 0.0, "name": "00a5567f23fa28a4ae136e2d422e7d79", "is_reserved": 0, "rental_uris": {"android": "https://dc.lft.to/lastmile_qr_scan", "ios": "https://dc.lft.to/lastmile_qr_scan"}, "fusion_lon": 0.0}, {"lat": 38.92447883333333, "is_disabled": 0, "type": "electric_scooter", "lon": -77.0203255, "bike_id": "0f01f8e6075e4689c68b55c4c2471805", "fusion_lat": 0.0, "name": "0f01f8e6075e4689c68b55c4c2471805", "is_reserved": 0, "rental_uris": {"android": "https://dc.lft.to/lastmile_qr_scan", "ios": "https://dc.lft.to/lastmile_qr_scan"}, "fusion_lon": 0.0}, {"lat": 38.904123166666665, "is_disabled": 0, "type": "electric_scooter", "lon": -77.029595, "bike_id": "fb48c1acc17dcc0b12886fa5f67ca1f5", "fusion_lat": 0.0, "name": "fb48c1acc17dcc0b12886fa5f67ca1f5", "is_reserved": 0, "rental_uris": {"android": "https://dc.lft.to/lastmile_qr_scan", "ios": "https://dc.lft.to/lastmile_qr_scan"}, "fusion_lon": 0.0}, {"lat": 38.92391716666667, "is_disabled": 0, "type": "electric_scooter", "lon": -77.00064716666667, "bike_id": "9c8368875429b2c50e1a071297857762", "fusion_lat": 0.0, "name": "9c8368875429b2c50e1a071297857762", "is_reserved": 0, "rental_uris": {"android": "https://dc.lft.to/lastmile_qr_scan", "ios": "https://dc.lft.to/lastmile_qr_scan"}, "fusion_lon": 0.0}, {"lat": 38.908251166666666, "is_disabled": 0, "type": "electric_scooter", "lon": -76.996983, "bike_id": "5aec2a5fea42026ab8223e973fe559bd", "fusion_lat": 0.0, "name": "5aec2a5fea42026ab8223e973fe559bd", "is_reserved": 0, "rental_uris": {"android": "https://dc.lft.to/lastmile_qr_scan", "ios": "https://dc.lft.to/lastmile_qr_scan"}, "fusion_lon": 0.0}, {"lat": 38.90969316666666, "is_disabled": 0, "type": "electric_scooter", "lon": -77.02164033333334, "bike_id": "601c3dc54146d4009980acd8c2bbca3c", "fusion_lat": 0.0, "name": "601c3dc54146d4009980acd8c2bbca3c", "is_reserved": 0, "rental_uris": {"android": "https://dc.lft.to/lastmile_qr_scan", "ios": "https://dc.lft.to/lastmile_qr_scan"}, "fusion_lon": 0.0}, {"lat": 38.91013933333333, "is_disabled": 0, "type": "electric_scooter", "lon": -76.99391033333333, "bike_id": "47a118406ec5f7df5c11844ef2e5086e", "fusion_lat": 0.0, "name": "47a118406ec5f7df5c11844ef2e5086e", "is_reserved": 0, "rental_uris": {"android": "https://dc.lft.to/lastmile_qr_scan", "ios": "https://dc.lft.to/lastmile_qr_scan"}, "fusion_lon": 0.0}, {"lat": 38.86111533333333, "is_disabled": 0, "type": "electric_scooter", "lon": -76.96772683333333, "bike_id": "706c21c6473e5d2c9ea4ae5080430c92", "fusion_lat": 0.0, "name": "706c21c6473e5d2c9ea4ae5080430c92", "is_reserved": 0, "rental_uris": {"android": "https://dc.lft.to/lastmile_qr_scan", "ios": "https://dc.lft.to/lastmile_qr_scan"}, "fusion_lon": 0.0}, {"lat": 38.9042435, "is_disabled": 0, "type": "electric_scooter", "lon": -77.025025, "bike_id": "71c607753279e6f7a1dac12c328dfd71", "fusion_lat": 0.0, "name": "71c607753279e6f7a1dac12c328dfd71", "is_reserved": 0, "rental_uris": {"android": "https://dc.lft.to/lastmile_qr_scan", "ios": "https://dc.lft.to/lastmile_qr_scan"}, "fusion_lon": 0.0}, {"lat": 38.9234445, "is_disabled": 0, "type": "electric_scooter", "lon": -77.01902916666667, "bike_id": "4eab9f40631dee7890ac2e31ef83b58d", "fusion_lat": 0.0, "name": "4eab9f40631dee7890ac2e31ef83b58d", "is_reserved": 0, "rental_uris": {"android": "https://dc.lft.to/lastmile_qr_scan", "ios": "https://dc.lft.to/lastmile_qr_scan"}, "fusion_lon": 0.0}, {"lat": 38.898510333333334, "is_disabled": 0, "type": "electric_scooter", "lon": -77.02974083333334, "bike_id": "7b0fdb49565f7ffacc499246de53569a", "fusion_lat": 0.0, "name": "7b0fdb49565f7ffacc499246de53569a", "is_reserved": 0, "rental_uris": {"android": "https://dc.lft.to/lastmile_qr_scan", "ios": "https://dc.lft.to/lastmile_qr_scan"}, "fusion_lon": 0.0}, {"lat": 38.88338666666667, "is_disabled": 0, "type": "electric_scooter", "lon": -77.03135383333333, "bike_id": "107debceb63c23b056726cd7b759d92e", "fusion_lat": 0.0, "name": "107debceb63c23b056726cd7b759d92e", "is_reserved": 0, "rental_uris": {"android": "https://dc.lft.to/lastmile_qr_scan", "ios": "https://dc.lft.to/lastmile_qr_scan"}, "fusion_lon": 0.0}, {"lat": 38.86103166666667, "is_disabled": 0, "type": "electric_scooter", "lon": -76.98359066666667, "bike_id": "70cbfdb77cfdc9981c26dbf08b26ab72", "fusion_lat": 0.0, "name": "70cbfdb77cfdc9981c26dbf08b26ab72", "is_reserved": 0, "rental_uris": {"android": "https://dc.lft.to/lastmile_qr_scan", "ios": "https://dc.lft.to/lastmile_qr_scan"}, "fusion_lon": 0.0}, {"lat": 38.915559333333334, "is_disabled": 0, "type": "electric_scooter", "lon": -77.038325, "bike_id": "161df15aa59bdbab78d5d16ef407bdd2", "fusion_lat": 0.0, "name": "161df15aa59bdbab78d5d16ef407bdd2", "is_reserved": 0, "rental_uris": {"android": "https://dc.lft.to/lastmile_qr_scan", "ios": "https://dc.lft.to/lastmile_qr_scan"}, "fusion_lon": 0.0}, {"lat": 38.897445166666664, "is_disabled": 0, "type": "electric_scooter", "lon": -77.05518216666667, "bike_id": "84501ad456aaf7cb491114d623e9e7fc", "fusion_lat": 0.0, "name": "84501ad456aaf7cb491114d623e9e7fc", "is_reserved": 0, "rental_uris": {"android": "https://dc.lft.to/lastmile_qr_scan", "ios": "https://dc.lft.to/lastmile_qr_scan"}, "fusion_lon": 0.0}, {"lat": 38.90092683333334, "is_disabled": 0, "type": "electric_scooter", "lon": -77.0498745, "bike_id": "7cdac10cf479994408f57e14569450ee", "fusion_lat": 0.0, "name": "7cdac10cf479994408f57e14569450ee", "is_reserved": 0, "rental_uris": {"android": "https://dc.lft.to/lastmile_qr_scan", "ios": "https://dc.lft.to/lastmile_qr_scan"}, "fusion_lon": 0.0}, {"lat": 38.91337983333333, "is_disabled": 0, "type": "electric_scooter", "lon": -77.00225483333334, "bike_id": "7c7ab96cbd31ea87a962f8284822d230", "fusion_lat": 0.0, "name": "7c7ab96cbd31ea87a962f8284822d230", "is_reserved": 0, "rental_uris": {"android": "https://dc.lft.to/lastmile_qr_scan", "ios": "https://dc.lft.to/lastmile_qr_scan"}, "fusion_lon": 0.0}, {"lat": 38.916998166666666, "is_disabled": 0, "type": "electric_scooter", "lon": -77.0358635, "bike_id": "b18c752988008e0ef7090a3c3f6d3433", "fusion_lat": 0.0, "name": "b18c752988008e0ef7090a3c3f6d3433", "is_reserved": 0, "rental_uris": {"android": "https://dc.lft.to/lastmile_qr_scan", "ios": "https://dc.lft.to/lastmile_qr_scan"}, "fusion_lon": 0.0}, {"lat": 38.927851, "is_disabled": 0, "type": "electric_scooter", "lon": -76.9962485, "bike_id": "4e9678396d39d7f8d10acad4a2662e10", "fusion_lat": 0.0, "name": "4e9678396d39d7f8d10acad4a2662e10", "is_reserved": 0, "rental_uris": {"android": "https://dc.lft.to/lastmile_qr_scan", "ios": "https://dc.lft.to/lastmile_qr_scan"}, "fusion_lon": 0.0}, {"lat": 38.915958833333335, "is_disabled": 0, "type": "electric_scooter", "lon": -77.0269595, "bike_id": "af15883ef5e4b1adde1e03b61e8c5d84", "fusion_lat": 0.0, "name": "af15883ef5e4b1adde1e03b61e8c5d84", "is_reserved": 0, "rental_uris": {"android": "https://dc.lft.to/lastmile_qr_scan", "ios": "https://dc.lft.to/lastmile_qr_scan"}, "fusion_lon": 0.0}, {"lat": 38.895489833333336, "is_disabled": 0, "type": "electric_scooter", "lon": -77.050159, "bike_id": "260153c1297eeb1747a1076b7b3d61da", "fusion_lat": 0.0, "name": "260153c1297eeb1747a1076b7b3d61da", "is_reserved": 0, "rental_uris": {"android": "https://dc.lft.to/lastmile_qr_scan", "ios": "https://dc.lft.to/lastmile_qr_scan"}, "fusion_lon": 0.0}, {"lat": 38.89218283333334, "is_disabled": 0, "type": "electric_scooter", "lon": -77.02016933333333, "bike_id": "3b7aa2226d5490e282c732347bc3af3b", "fusion_lat": 0.0, "name": "3b7aa2226d5490e282c732347bc3af3b", "is_reserved": 0, "rental_uris": {"android": "https://dc.lft.to/lastmile_qr_scan", "ios": "https://dc.lft.to/lastmile_qr_scan"}, "fusion_lon": 0.0}, {"lat": 38.917131, "is_disabled": 0, "type": "electric_scooter", "lon": -77.03455533333333, "bike_id": "aeb019490277ed499e7835e500a0dd0d", "fusion_lat": 0.0, "name": "aeb019490277ed499e7835e500a0dd0d", "is_reserved": 0, "rental_uris": {"android": "https://dc.lft.to/lastmile_qr_scan", "ios": "https://dc.lft.to/lastmile_qr_scan"}, "fusion_lon": 0.0}, {"lat": 38.922491666666666, "is_disabled": 0, "type": "electric_scooter", "lon": -77.02707516666666, "bike_id": "ab9a8a8cc37735b803ff0e39382f0ab6", "fusion_lat": 0.0, "name": "ab9a8a8cc37735b803ff0e39382f0ab6", "is_reserved": 0, "rental_uris": {"android": "https://dc.lft.to/lastmile_qr_scan", "ios": "https://dc.lft.to/lastmile_qr_scan"}, "fusion_lon": 0.0}, {"lat": 38.89289016666667, "is_disabled": 0, "type": "electric_scooter", "lon": -76.95851516666667, "bike_id": "28b72ff489c20ac3952f10d691c5803a", "fusion_lat": 0.0, "name": "28b72ff489c20ac3952f10d691c5803a", "is_reserved": 0, "rental_uris": {"android": "https://dc.lft.to/lastmile_qr_scan", "ios": "https://dc.lft.to/lastmile_qr_scan"}, "fusion_lon": 0.0}, {"lat": 38.892875833333335, "is_disabled": 0, "type": "electric_scooter", "lon": -77.0020425, "bike_id": "7f029095f845cb1766f134a2f264eadd", "fusion_lat": 0.0, "name": "7f029095f845cb1766f134a2f264eadd", "is_reserved": 0, "rental_uris": {"android": "https://dc.lft.to/lastmile_qr_scan", "ios": "https://dc.lft.to/lastmile_qr_scan"}, "fusion_lon": 0.0}, {"lat": 38.9333145, "is_disabled": 0, "type": "electric_scooter", "lon": -77.044012, "bike_id": "b801c609029d321173d867bce6fe8a0a", "fusion_lat": 0.0, "name": "b801c609029d321173d867bce6fe8a0a", "is_reserved": 0, "rental_uris": {"android": "https://dc.lft.to/lastmile_qr_scan", "ios": "https://dc.lft.to/lastmile_qr_scan"}, "fusion_lon": 0.0}, {"lat": 38.892908, "is_disabled": 0, "type": "electric_scooter", "lon": -77.03215716666666, "bike_id": "0aa29181bd33631446d424acd6920576", "fusion_lat": 0.0, "name": "0aa29181bd33631446d424acd6920576", "is_reserved": 0, "rental_uris": {"android": "https://dc.lft.to/lastmile_qr_scan", "ios": "https://dc.lft.to/lastmile_qr_scan"}, "fusion_lon": 0.0}, {"lat": 38.903924833333335, "is_disabled": 0, "type": "electric_scooter", "lon": -77.02800216666667, "bike_id": "7b08dc44f70df72382b922cb8b2f87fd", "fusion_lat": 0.0, "name": "7b08dc44f70df72382b922cb8b2f87fd", "is_reserved": 0, "rental_uris": {"android": "https://dc.lft.to/lastmile_qr_scan", "ios": "https://dc.lft.to/lastmile_qr_scan"}, "fusion_lon": 0.0}, {"lat": 38.89866266666667, "is_disabled": 0, "type": "electric_scooter", "lon": -77.0330605, "bike_id": "e6ed406d454af92cd8494624e116abf4", "fusion_lat": 0.0, "name": "e6ed406d454af92cd8494624e116abf4", "is_reserved": 0, "rental_uris": {"android": "https://dc.lft.to/lastmile_qr_scan", "ios": "https://dc.lft.to/lastmile_qr_scan"}, "fusion_lon": 0.0}, {"lat": 38.899536, "is_disabled": 0, "type": "electric_scooter", "lon": -77.05197466666667, "bike_id": "c1375a981bd334436bf9d8f88523bb26", "fusion_lat": 0.0, "name": "c1375a981bd334436bf9d8f88523bb26", "is_reserved": 0, "rental_uris": {"android": "https://dc.lft.to/lastmile_qr_scan", "ios": "https://dc.lft.to/lastmile_qr_scan"}, "fusion_lon": 0.0}, {"lat": 38.941917833333335, "is_disabled": 0, "type": "electric_bike", "lon": -77.0277545, "bike_id": "c368dd5910baa37b85e60056bf7575cc", "fusion_lat": 0.0, "name": "c368dd5910baa37b85e60056bf7575cc", "is_reserved": 0, "rental_uris": {"android": "https://dc.lft.to/lastmile_qr_scan", "ios": "https://dc.lft.to/lastmile_qr_scan"}, "fusion_lon": 0.0}, {"lat": 38.9068365, "is_disabled": 0, "type": "electric_scooter", "lon": -77.026941, "bike_id": "c301355bc1e4704a8055c1a69a230d0f", "fusion_lat": 0.0, "name": "c301355bc1e4704a8055c1a69a230d0f", "is_reserved": 0, "rental_uris": {"android": "https://dc.lft.to/lastmile_qr_scan", "ios": "https://dc.lft.to/lastmile_qr_scan"}, "fusion_lon": 0.0}, {"lat": 38.909735833333336, "is_disabled": 0, "type": "electric_scooter", "lon": -77.02394483333333, "bike_id": "dfe6b3416c87c9daf53926893ffc6f84", "fusion_lat": 0.0, "name": "dfe6b3416c87c9daf53926893ffc6f84", "is_reserved": 0, "rental_uris": {"android": "https://dc.lft.to/lastmile_qr_scan", "ios": "https://dc.lft.to/lastmile_qr_scan"}, "fusion_lon": 0.0}, {"lat": 38.802285, "is_disabled": 0, "type": "electric_bike", "lon": -77.07917783333333, "bike_id": "b9f41e740c34e8a598fc6cba011657c5", "fusion_lat": 0.0, "name": "b9f41e740c34e8a598fc6cba011657c5", "is_reserved": 0, "rental_uris": {"android": "https://dc.lft.to/lastmile_qr_scan", "ios": "https://dc.lft.to/lastmile_qr_scan"}, "fusion_lon": 0.0}, {"lat": 38.85791966666667, "is_disabled": 0, "type": "electric_bike", "lon": -76.98742216666666, "bike_id": "e85a9f737aa6bf78d339f099d5842c4e", "fusion_lat": 0.0, "name": "e85a9f737aa6bf78d339f099d5842c4e", "is_reserved": 0, "rental_uris": {"android": "https://dc.lft.to/lastmile_qr_scan", "ios": "https://dc.lft.to/lastmile_qr_scan"}, "fusion_lon": 0.0}, {"lat": 38.91754566666667, "is_disabled": 0, "type": "electric_scooter", "lon": -77.03994616666667, "bike_id": "19d4ed53fd926acb5b9f584b64b6f3d8", "fusion_lat": 0.0, "name": "19d4ed53fd926acb5b9f584b64b6f3d8", "is_reserved": 0, "rental_uris": {"android": "https://dc.lft.to/lastmile_qr_scan", "ios": "https://dc.lft.to/lastmile_qr_scan"}, "fusion_lon": 0.0}, {"lat": 38.86645566666667, "is_disabled": 0, "type": "electric_scooter", "lon": -76.9888835, "bike_id": "2da6ee32e6cb49219e4cb54764189775", "fusion_lat": 0.0, "name": "2da6ee32e6cb49219e4cb54764189775", "is_reserved": 0, "rental_uris": {"android": "https://dc.lft.to/lastmile_qr_scan", "ios": "https://dc.lft.to/lastmile_qr_scan"}, "fusion_lon": 0.0}, {"lat": 38.900466, "is_disabled": 0, "type": "electric_scooter", "lon": -77.00186866666667, "bike_id": "a06394de2fb0492707553b000bc36fa5", "fusion_lat": 0.0, "name": "a06394de2fb0492707553b000bc36fa5", "is_reserved": 0, "rental_uris": {"android": "https://dc.lft.to/lastmile_qr_scan", "ios": "https://dc.lft.to/lastmile_qr_scan"}, "fusion_lon": 0.0}, {"lat": 38.92185716666667, "is_disabled": 0, "type": "electric_scooter", "lon": -77.047125, "bike_id": "1e410b5f74a04c263185b3393cfbd23b", "fusion_lat": 0.0, "name": "1e410b5f74a04c263185b3393cfbd23b", "is_reserved": 0, "rental_uris": {"android": "https://dc.lft.to/lastmile_qr_scan", "ios": "https://dc.lft.to/lastmile_qr_scan"}, "fusion_lon": 0.0}, {"lat": 38.92298066666667, "is_disabled": 0, "type": "electric_scooter", "lon": -77.041406, "bike_id": "89b8c48c0d28d1f5328c45cab42612d3", "fusion_lat": 0.0, "name": "89b8c48c0d28d1f5328c45cab42612d3", "is_reserved": 0, "rental_uris": {"android": "https://dc.lft.to/lastmile_qr_scan", "ios": "https://dc.lft.to/lastmile_qr_scan"}, "fusion_lon": 0.0}, {"lat": 38.95402416666667, "is_disabled": 0, "type": "electric_scooter", "lon": -77.02745483333334, "bike_id": "de41adcf9ecd6cd3556486416f1ddb8c", "fusion_lat": 0.0, "name": "de41adcf9ecd6cd3556486416f1ddb8c", "is_reserved": 0, "rental_uris": {"android": "https://dc.lft.to/lastmile_qr_scan", "ios": "https://dc.lft.to/lastmile_qr_scan"}, "fusion_lon": 0.0}, {"lat": 38.93244683333333, "is_disabled": 0, "type": "electric_scooter", "lon": -77.032649, "bike_id": "9eb652b0b6824eedcf8696517e24ad18", "fusion_lat": 0.0, "name": "9eb652b0b6824eedcf8696517e24ad18", "is_reserved": 0, "rental_uris": {"android": "https://dc.lft.to/lastmile_qr_scan", "ios": "https://dc.lft.to/lastmile_qr_scan"}, "fusion_lon": 0.0}, {"lat": 38.92156516666667, "is_disabled": 0, "type": "electric_scooter", "lon": -77.03378383333333, "bike_id": "1a3a0b094467043199dab022246d32bf", "fusion_lat": 0.0, "name": "1a3a0b094467043199dab022246d32bf", "is_reserved": 0, "rental_uris": {"android": "https://dc.lft.to/lastmile_qr_scan", "ios": "https://dc.lft.to/lastmile_qr_scan"}, "fusion_lon": 0.0}, {"lat": 38.903761833333334, "is_disabled": 0, "type": "electric_scooter", "lon": -77.00271033333334, "bike_id": "00cd64ee50a5e3f4079ee17b91883f3c", "fusion_lat": 0.0, "name": "00cd64ee50a5e3f4079ee17b91883f3c", "is_reserved": 0, "rental_uris": {"android": "https://dc.lft.to/lastmile_qr_scan", "ios": "https://dc.lft.to/lastmile_qr_scan"}, "fusion_lon": 0.0}, {"lat": 38.932602, "is_disabled": 0, "type": "electric_scooter", "lon": -77.03276233333334, "bike_id": "d379aad76104c85d095670b0abc0e1ee", "fusion_lat": 0.0, "name": "d379aad76104c85d095670b0abc0e1ee", "is_reserved": 0, "rental_uris": {"android": "https://dc.lft.to/lastmile_qr_scan", "ios": "https://dc.lft.to/lastmile_qr_scan"}, "fusion_lon": 0.0}, {"lat": 38.897516833333334, "is_disabled": 0, "type": "electric_scooter", "lon": -77.0185965, "bike_id": "b8a2c36506373316af431eab3e47b3ac", "fusion_lat": 0.0, "name": "b8a2c36506373316af431eab3e47b3ac", "is_reserved": 0, "rental_uris": {"android": "https://dc.lft.to/lastmile_qr_scan", "ios": "https://dc.lft.to/lastmile_qr_scan"}, "fusion_lon": 0.0}, {"lat": 38.920301333333335, "is_disabled": 0, "type": "electric_scooter", "lon": -77.038523, "bike_id": "08a382bcea1f5a0e1dca4c66d3f9281f", "fusion_lat": 0.0, "name": "08a382bcea1f5a0e1dca4c66d3f9281f", "is_reserved": 0, "rental_uris": {"android": "https://dc.lft.to/lastmile_qr_scan", "ios": "https://dc.lft.to/lastmile_qr_scan"}, "fusion_lon": 0.0}, {"lat": 38.90528533333333, "is_disabled": 0, "type": "electric_scooter", "lon": -76.9861835, "bike_id": "5aa376d0f945771cef3f84666af68671", "fusion_lat": 0.0, "name": "5aa376d0f945771cef3f84666af68671", "is_reserved": 0, "rental_uris": {"android": "https://dc.lft.to/lastmile_qr_scan", "ios": "https://dc.lft.to/lastmile_qr_scan"}, "fusion_lon": 0.0}, {"lat": 38.90687116666667, "is_disabled": 0, "type": "electric_scooter", "lon": -77.062662, "bike_id": "f5caef83e77adc9fd90ee9b74dfdda7e", "fusion_lat": 0.0, "name": "f5caef83e77adc9fd90ee9b74dfdda7e", "is_reserved": 0, "rental_uris": {"android": "https://dc.lft.to/lastmile_qr_scan", "ios": "https://dc.lft.to/lastmile_qr_scan"}, "fusion_lon": 0.0}, {"lat": 38.926805333333334, "is_disabled": 0, "type": "electric_scooter", "lon": -77.05109066666667, "bike_id": "79ec27a22a571788430b66b83300f938", "fusion_lat": 0.0, "name": "79ec27a22a571788430b66b83300f938", "is_reserved": 0, "rental_uris": {"android": "https://dc.lft.to/lastmile_qr_scan", "ios": "https://dc.lft.to/lastmile_qr_scan"}, "fusion_lon": 0.0}, {"lat": 38.9059125, "is_disabled": 0, "type": "electric_scooter", "lon": -77.0580395, "bike_id": "1a99c86ccdd6e1d776bc5393a3809eb7", "fusion_lat": 0.0, "name": "1a99c86ccdd6e1d776bc5393a3809eb7", "is_reserved": 0, "rental_uris": {"android": "https://dc.lft.to/lastmile_qr_scan", "ios": "https://dc.lft.to/lastmile_qr_scan"}, "fusion_lon": 0.0}, {"lat": 38.90438416666667, "is_disabled": 0, "type": "electric_scooter", "lon": -77.06121216666666, "bike_id": "1e93655156ac8633637a8bda94355f47", "fusion_lat": 0.0, "name": "1e93655156ac8633637a8bda94355f47", "is_reserved": 0, "rental_uris": {"android": "https://dc.lft.to/lastmile_qr_scan", "ios": "https://dc.lft.to/lastmile_qr_scan"}, "fusion_lon": 0.0}, {"lat": 38.89918316666667, "is_disabled": 0, "type": "electric_scooter", "lon": -76.93382, "bike_id": "49a3a15d2849aef948d6e0ee6813a4f6", "fusion_lat": 0.0, "name": "49a3a15d2849aef948d6e0ee6813a4f6", "is_reserved": 0, "rental_uris": {"android": "https://dc.lft.to/lastmile_qr_scan", "ios": "https://dc.lft.to/lastmile_qr_scan"}, "fusion_lon": 0.0}, {"lat": 38.863496833333336, "is_disabled": 0, "type": "electric_scooter", "lon": -76.99000316666667, "bike_id": "87653feb01aab7eb5d2e25c675017c1a", "fusion_lat": 0.0, "name": "87653feb01aab7eb5d2e25c675017c1a", "is_reserved": 0, "rental_uris": {"android": "https://dc.lft.to/lastmile_qr_scan", "ios": "https://dc.lft.to/lastmile_qr_scan"}, "fusion_lon": 0.0}, {"lat": 38.90260116666666, "is_disabled": 0, "type": "electric_scooter", "lon": -77.01613983333333, "bike_id": "17745b0d223947ec058e1b4a73c37f43", "fusion_lat": 0.0, "name": "17745b0d223947ec058e1b4a73c37f43", "is_reserved": 0, "rental_uris": {"android": "https://dc.lft.to/lastmile_qr_scan", "ios": "https://dc.lft.to/lastmile_qr_scan"}, "fusion_lon": 0.0}, {"lat": 38.842929166666664, "is_disabled": 0, "type": "electric_scooter", "lon": -76.999513, "bike_id": "0ff16a135fe80bc5211bf9fef44af080", "fusion_lat": 0.0, "name": "0ff16a135fe80bc5211bf9fef44af080", "is_reserved": 0, "rental_uris": {"android": "https://dc.lft.to/lastmile_qr_scan", "ios": "https://dc.lft.to/lastmile_qr_scan"}, "fusion_lon": 0.0}, {"lat": 38.89643816666667, "is_disabled": 0, "type": "electric_scooter", "lon": -77.01981883333333, "bike_id": "9a9a071c2e69be79ba2bf4617b5490a2", "fusion_lat": 0.0, "name": "9a9a071c2e69be79ba2bf4617b5490a2", "is_reserved": 0, "rental_uris": {"android": "https://dc.lft.to/lastmile_qr_scan", "ios": "https://dc.lft.to/lastmile_qr_scan"}, "fusion_lon": 0.0}, {"lat": 38.912676833333336, "is_disabled": 0, "type": "electric_scooter", "lon": -77.01306216666667, "bike_id": "f58a563d045d4c1b71e7dee47fa8a0f9", "fusion_lat": 0.0, "name": "f58a563d045d4c1b71e7dee47fa8a0f9", "is_reserved": 0, "rental_uris": {"android": "https://dc.lft.to/lastmile_qr_scan", "ios": "https://dc.lft.to/lastmile_qr_scan"}, "fusion_lon": 0.0}, {"lat": 38.92992366666667, "is_disabled": 0, "type": "electric_bike", "lon": -77.03473733333334, "bike_id": "e47248f9a15cb064bf1ab40f6812e860", "fusion_lat": 0.0, "name": "e47248f9a15cb064bf1ab40f6812e860", "is_reserved": 0, "rental_uris": {"android": "https://dc.lft.to/lastmile_qr_scan", "ios": "https://dc.lft.to/lastmile_qr_scan"}, "fusion_lon": 0.0}, {"lat": 38.9555525, "is_disabled": 0, "type": "electric_bike", "lon": -76.93544866666667, "bike_id": "78346edc2129d1bfb670f078c75e3484", "fusion_lat": 0.0, "name": "78346edc2129d1bfb670f078c75e3484", "is_reserved": 0, "rental_uris": {"android": "https://dc.lft.to/lastmile_qr_scan", "ios": "https://dc.lft.to/lastmile_qr_scan"}, "fusion_lon": 0.0}, {"lat": 38.957854833333336, "is_disabled": 0, "type": "electric_scooter", "lon": -77.02464166666667, "bike_id": "0af5a4cdc7c96f17fb6015ff45be9a82", "fusion_lat": 0.0, "name": "0af5a4cdc7c96f17fb6015ff45be9a82", "is_reserved": 0, "rental_uris": {"android": "https://dc.lft.to/lastmile_qr_scan", "ios": "https://dc.lft.to/lastmile_qr_scan"}, "fusion_lon": 0.0}, {"lat": 38.90455816666667, "is_disabled": 0, "type": "electric_scooter", "lon": -77.028836, "bike_id": "76addaeb490a70d4e6c7a9c7c1b0b4c2", "fusion_lat": 0.0, "name": "76addaeb490a70d4e6c7a9c7c1b0b4c2", "is_reserved": 0, "rental_uris": {"android": "https://dc.lft.to/lastmile_qr_scan", "ios": "https://dc.lft.to/lastmile_qr_scan"}, "fusion_lon": 0.0}, {"lat": 38.924436166666666, "is_disabled": 0, "type": "electric_scooter", "lon": -77.04028383333333, "bike_id": "80a18117f6f53ea4ed6f73d4b9360595", "fusion_lat": 0.0, "name": "80a18117f6f53ea4ed6f73d4b9360595", "is_reserved": 0, "rental_uris": {"android": "https://dc.lft.to/lastmile_qr_scan", "ios": "https://dc.lft.to/lastmile_qr_scan"}, "fusion_lon": 0.0}, {"lat": 38.8955775, "is_disabled": 0, "type": "electric_scooter", "lon": -77.0111375, "bike_id": "0f76ddfd40b01adf17d93b3dde636006", "fusion_lat": 0.0, "name": "0f76ddfd40b01adf17d93b3dde636006", "is_reserved": 0, "rental_uris": {"android": "https://dc.lft.to/lastmile_qr_scan", "ios": "https://dc.lft.to/lastmile_qr_scan"}, "fusion_lon": 0.0}, {"lat": 38.923656666666666, "is_disabled": 0, "type": "electric_scooter", "lon": -77.07679733333333, "bike_id": "bfaf1adcf2b56df8df566b2306a4baf2", "fusion_lat": 0.0, "name": "bfaf1adcf2b56df8df566b2306a4baf2", "is_reserved": 0, "rental_uris": {"android": "https://dc.lft.to/lastmile_qr_scan", "ios": "https://dc.lft.to/lastmile_qr_scan"}, "fusion_lon": 0.0}, {"lat": 38.90380966666667, "is_disabled": 0, "type": "electric_scooter", "lon": -77.062684, "bike_id": "e6f7777864477538d3a9802495239c12", "fusion_lat": 0.0, "name": "e6f7777864477538d3a9802495239c12", "is_reserved": 0, "rental_uris": {"android": "https://dc.lft.to/lastmile_qr_scan", "ios": "https://dc.lft.to/lastmile_qr_scan"}, "fusion_lon": 0.0}, {"lat": 38.914698, "is_disabled": 0, "type": "electric_scooter", "lon": -77.0190135, "bike_id": "7bfa527b64facccd27f7a499ee7dc1ad", "fusion_lat": 0.0, "name": "7bfa527b64facccd27f7a499ee7dc1ad", "is_reserved": 0, "rental_uris": {"android": "https://dc.lft.to/lastmile_qr_scan", "ios": "https://dc.lft.to/lastmile_qr_scan"}, "fusion_lon": 0.0}, {"lat": 38.8865835, "is_disabled": 0, "type": "electric_scooter", "lon": -76.9962525, "bike_id": "1a5e10bef55311384014671fff897166", "fusion_lat": 0.0, "name": "1a5e10bef55311384014671fff897166", "is_reserved": 0, "rental_uris": {"android": "https://dc.lft.to/lastmile_qr_scan", "ios": "https://dc.lft.to/lastmile_qr_scan"}, "fusion_lon": 0.0}, {"lat": 38.884302, "is_disabled": 0, "type": "electric_bike", "lon": -76.980862, "bike_id": "ad5589f296d59cad4f5a7ff183be1327", "fusion_lat": 0.0, "name": "ad5589f296d59cad4f5a7ff183be1327", "is_reserved": 0, "rental_uris": {"android": "https://dc.lft.to/lastmile_qr_scan", "ios": "https://dc.lft.to/lastmile_qr_scan"}, "fusion_lon": 0.0}, {"lat": 38.892032, "is_disabled": 0, "type": "electric_bike", "lon": -76.97052483333333, "bike_id": "b5d9a2796a19c9f00a770a5e1ae9f991", "fusion_lat": 0.0, "name": "b5d9a2796a19c9f00a770a5e1ae9f991", "is_reserved": 0, "rental_uris": {"android": "https://dc.lft.to/lastmile_qr_scan", "ios": "https://dc.lft.to/lastmile_qr_scan"}, "fusion_lon": 0.0}, {"lat": 38.9167645, "is_disabled": 0, "type": "electric_scooter", "lon": -77.02970716666667, "bike_id": "f57f30b7f351a3470a4e273f8de26a68", "fusion_lat": 0.0, "name": "f57f30b7f351a3470a4e273f8de26a68", "is_reserved": 0, "rental_uris": {"android": "https://dc.lft.to/lastmile_qr_scan", "ios": "https://dc.lft.to/lastmile_qr_scan"}, "fusion_lon": 0.0}, {"lat": 38.929672333333336, "is_disabled": 0, "type": "electric_scooter", "lon": -77.0233555, "bike_id": "ee1fb18c15d496a182e6878e4d12c415", "fusion_lat": 0.0, "name": "ee1fb18c15d496a182e6878e4d12c415", "is_reserved": 0, "rental_uris": {"android": "https://dc.lft.to/lastmile_qr_scan", "ios": "https://dc.lft.to/lastmile_qr_scan"}, "fusion_lon": 0.0}, {"lat": 38.9060885, "is_disabled": 0, "type": "electric_scooter", "lon": -77.0585775, "bike_id": "07b2e1a4abdfcc17ac4afb276ca7ad8c", "fusion_lat": 0.0, "name": "07b2e1a4abdfcc17ac4afb276ca7ad8c", "is_reserved": 0, "rental_uris": {"android": "https://dc.lft.to/lastmile_qr_scan", "ios": "https://dc.lft.to/lastmile_qr_scan"}, "fusion_lon": 0.0}, {"lat": 38.93051966666667, "is_disabled": 0, "type": "electric_scooter", "lon": -77.03245633333333, "bike_id": "5a235b151b15c638ba0f332a4d833649", "fusion_lat": 0.0, "name": "5a235b151b15c638ba0f332a4d833649", "is_reserved": 0, "rental_uris": {"android": "https://dc.lft.to/lastmile_qr_scan", "ios": "https://dc.lft.to/lastmile_qr_scan"}, "fusion_lon": 0.0}, {"lat": 38.8929275, "is_disabled": 0, "type": "electric_bike", "lon": -77.0014375, "bike_id": "4bec41117bf207d3f5fefc92e9bd7ae2", "fusion_lat": 0.0, "name": "4bec41117bf207d3f5fefc92e9bd7ae2", "is_reserved": 0, "rental_uris": {"android": "https://dc.lft.to/lastmile_qr_scan", "ios": "https://dc.lft.to/lastmile_qr_scan"}, "fusion_lon": 0.0}, {"lat": 38.84284533333334, "is_disabled": 0, "type": "electric_bike", "lon": -76.98838116666667, "bike_id": "f5408c15a765e17ecd9109966bc57db2", "fusion_lat": 0.0, "name": "f5408c15a765e17ecd9109966bc57db2", "is_reserved": 0, "rental_uris": {"android": "https://dc.lft.to/lastmile_qr_scan", "ios": "https://dc.lft.to/lastmile_qr_scan"}, "fusion_lon": 0.0}, {"lat": 38.92141433333333, "is_disabled": 0, "type": "electric_scooter", "lon": -77.01037283333334, "bike_id": "07e9b8a173c458a7cfd05dbb35820e46", "fusion_lat": 0.0, "name": "07e9b8a173c458a7cfd05dbb35820e46", "is_reserved": 0, "rental_uris": {"android": "https://dc.lft.to/lastmile_qr_scan", "ios": "https://dc.lft.to/lastmile_qr_scan"}, "fusion_lon": 0.0}, {"lat": 38.849340166666664, "is_disabled": 0, "type": "electric_bike", "lon": -77.10013883333333, "bike_id": "48f14bb106d93831e5efbf6792115530", "fusion_lat": 0.0, "name": "48f14bb106d93831e5efbf6792115530", "is_reserved": 0, "rental_uris": {"android": "https://dc.lft.to/lastmile_qr_scan", "ios": "https://dc.lft.to/lastmile_qr_scan"}, "fusion_lon": 0.0}, {"lat": 38.86628733333333, "is_disabled": 0, "type": "electric_scooter", "lon": -76.986981, "bike_id": "00d7a3a22179fb1532347501297a4c33", "fusion_lat": 0.0, "name": "00d7a3a22179fb1532347501297a4c33", "is_reserved": 0, "rental_uris": {"android": "https://dc.lft.to/lastmile_qr_scan", "ios": "https://dc.lft.to/lastmile_qr_scan"}, "fusion_lon": 0.0}, {"lat": 38.909784333333334, "is_disabled": 0, "type": "electric_scooter", "lon": -77.04796933333333, "bike_id": "9625793779e57dc26ebfa2bd97d8c9e5", "fusion_lat": 0.0, "name": "9625793779e57dc26ebfa2bd97d8c9e5", "is_reserved": 0, "rental_uris": {"android": "https://dc.lft.to/lastmile_qr_scan", "ios": "https://dc.lft.to/lastmile_qr_scan"}, "fusion_lon": 0.0}, {"lat": 38.84298166666667, "is_disabled": 0, "type": "electric_scooter", "lon": -76.99950266666667, "bike_id": "c8ef1b144ba86977268693e7e9821112", "fusion_lat": 0.0, "name": "c8ef1b144ba86977268693e7e9821112", "is_reserved": 0, "rental_uris": {"android": "https://dc.lft.to/lastmile_qr_scan", "ios": "https://dc.lft.to/lastmile_qr_scan"}, "fusion_lon": 0.0}, {"lat": 38.88487516666667, "is_disabled": 0, "type": "electric_scooter", "lon": -77.00709, "bike_id": "adb384a8a66403e83278986681c7e925", "fusion_lat": 0.0, "name": "adb384a8a66403e83278986681c7e925", "is_reserved": 0, "rental_uris": {"android": "https://dc.lft.to/lastmile_qr_scan", "ios": "https://dc.lft.to/lastmile_qr_scan"}, "fusion_lon": 0.0}, {"lat": 38.931145666666666, "is_disabled": 0, "type": "electric_scooter", "lon": -77.03809483333333, "bike_id": "a0f0eaa974cde5236f665f4cd9c3f8fe", "fusion_lat": 0.0, "name": "a0f0eaa974cde5236f665f4cd9c3f8fe", "is_reserved": 0, "rental_uris": {"android": "https://dc.lft.to/lastmile_qr_scan", "ios": "https://dc.lft.to/lastmile_qr_scan"}, "fusion_lon": 0.0}, {"lat": 38.923622, "is_disabled": 0, "type": "electric_scooter", "lon": -77.04028466666666, "bike_id": "0df0f624b87edb89ac4eecd69f30e695", "fusion_lat": 0.0, "name": "0df0f624b87edb89ac4eecd69f30e695", "is_reserved": 0, "rental_uris": {"android": "https://dc.lft.to/lastmile_qr_scan", "ios": "https://dc.lft.to/lastmile_qr_scan"}, "fusion_lon": 0.0}, {"lat": 38.90965633333333, "is_disabled": 0, "type": "electric_scooter", "lon": -77.02267633333334, "bike_id": "488079f648af0018f8461fef9d8d9cd7", "fusion_lat": 0.0, "name": "488079f648af0018f8461fef9d8d9cd7", "is_reserved": 0, "rental_uris": {"android": "https://dc.lft.to/lastmile_qr_scan", "ios": "https://dc.lft.to/lastmile_qr_scan"}, "fusion_lon": 0.0}, {"lat": 38.893716, "is_disabled": 0, "type": "electric_scooter", "lon": -76.94998683333333, "bike_id": "2cdb251ccdef4deed7908f9107f3ddd6", "fusion_lat": 0.0, "name": "2cdb251ccdef4deed7908f9107f3ddd6", "is_reserved": 0, "rental_uris": {"android": "https://dc.lft.to/lastmile_qr_scan", "ios": "https://dc.lft.to/lastmile_qr_scan"}, "fusion_lon": 0.0}, {"lat": 38.8721425, "is_disabled": 0, "type": "electric_scooter", "lon": -77.01762733333334, "bike_id": "0a85d2ef27c34328c026213f5fcfebc1", "fusion_lat": 0.0, "name": "0a85d2ef27c34328c026213f5fcfebc1", "is_reserved": 0, "rental_uris": {"android": "https://dc.lft.to/lastmile_qr_scan", "ios": "https://dc.lft.to/lastmile_qr_scan"}, "fusion_lon": 0.0}, {"lat": 39.030482166666665, "is_disabled": 0, "type": "electric_bike", "lon": -77.09485216666667, "bike_id": "9e8f903a90726ebbf9ba9c7904428f4a", "fusion_lat": 0.0, "name": "9e8f903a90726ebbf9ba9c7904428f4a", "is_reserved": 0, "rental_uris": {"android": "https://dc.lft.to/lastmile_qr_scan", "ios": "https://dc.lft.to/lastmile_qr_scan"}, "fusion_lon": 0.0}, {"lat": 38.91686133333333, "is_disabled": 0, "type": "electric_scooter", "lon": -77.02958983333333, "bike_id": "e17d9722fef971277a430e037d054c87", "fusion_lat": 0.0, "name": "e17d9722fef971277a430e037d054c87", "is_reserved": 0, "rental_uris": {"android": "https://dc.lft.to/lastmile_qr_scan", "ios": "https://dc.lft.to/lastmile_qr_scan"}, "fusion_lon": 0.0}, {"lat": 38.94516733333333, "is_disabled": 0, "type": "electric_scooter", "lon": -77.06398316666667, "bike_id": "a8d9f8da434c011cfa88823960117a4c", "fusion_lat": 0.0, "name": "a8d9f8da434c011cfa88823960117a4c", "is_reserved": 0, "rental_uris": {"android": "https://dc.lft.to/lastmile_qr_scan", "ios": "https://dc.lft.to/lastmile_qr_scan"}, "fusion_lon": 0.0}, {"lat": 38.90286733333333, "is_disabled": 0, "type": "electric_scooter", "lon": -77.03480333333333, "bike_id": "0bd0a48a048f42e22d8d9f92d5cecfc6", "fusion_lat": 0.0, "name": "0bd0a48a048f42e22d8d9f92d5cecfc6", "is_reserved": 0, "rental_uris": {"android": "https://dc.lft.to/lastmile_qr_scan", "ios": "https://dc.lft.to/lastmile_qr_scan"}, "fusion_lon": 0.0}, {"lat": 39.02437416666667, "is_disabled": 0, "type": "electric_bike", "lon": -77.13088583333334, "bike_id": "f774fc9d9414ccd3febb80a218eebd35", "fusion_lat": 0.0, "name": "f774fc9d9414ccd3febb80a218eebd35", "is_reserved": 0, "rental_uris": {"android": "https://dc.lft.to/lastmile_qr_scan", "ios": "https://dc.lft.to/lastmile_qr_scan"}, "fusion_lon": 0.0}, {"lat": 38.88706233333333, "is_disabled": 0, "type": "electric_scooter", "lon": -77.032137, "bike_id": "e4a8115c7dcc552edfbd58fcd3c14834", "fusion_lat": 0.0, "name": "e4a8115c7dcc552edfbd58fcd3c14834", "is_reserved": 0, "rental_uris": {"android": "https://dc.lft.to/lastmile_qr_scan", "ios": "https://dc.lft.to/lastmile_qr_scan"}, "fusion_lon": 0.0}, {"lat": 38.88582733333333, "is_disabled": 0, "type": "electric_scooter", "lon": -77.0122665, "bike_id": "05fbe10cc90aecfacf79503436ea489d", "fusion_lat": 0.0, "name": "05fbe10cc90aecfacf79503436ea489d", "is_reserved": 0, "rental_uris": {"android": "https://dc.lft.to/lastmile_qr_scan", "ios": "https://dc.lft.to/lastmile_qr_scan"}, "fusion_lon": 0.0}, {"lat": 38.964932, "is_disabled": 0, "type": "electric_bike", "lon": -76.9384475, "bike_id": "ce92ff8424d4778811b6a9cb39542021", "fusion_lat": 0.0, "name": "ce92ff8424d4778811b6a9cb39542021", "is_reserved": 0, "rental_uris": {"android": "https://dc.lft.to/lastmile_qr_scan", "ios": "https://dc.lft.to/lastmile_qr_scan"}, "fusion_lon": 0.0}, {"lat": 38.86233283333333, "is_disabled": 0, "type": "electric_scooter", "lon": -76.995489, "bike_id": "0df36368333872399ef2872bc302aaaa", "fusion_lat": 0.0, "name": "0df36368333872399ef2872bc302aaaa", "is_reserved": 0, "rental_uris": {"android": "https://dc.lft.to/lastmile_qr_scan", "ios": "https://dc.lft.to/lastmile_qr_scan"}, "fusion_lon": 0.0}, {"lat": 38.93618166666667, "is_disabled": 0, "type": "electric_scooter", "lon": -77.0321645, "bike_id": "1596ccacef69a93057e4f3aec0575d79", "fusion_lat": 0.0, "name": "1596ccacef69a93057e4f3aec0575d79", "is_reserved": 0, "rental_uris": {"android": "https://dc.lft.to/lastmile_qr_scan", "ios": "https://dc.lft.to/lastmile_qr_scan"}, "fusion_lon": 0.0}, {"lat": 38.907789, "is_disabled": 0, "type": "electric_scooter", "lon": -77.038523, "bike_id": "fdedba1e0af56268a5d4a807aa53a935", "fusion_lat": 0.0, "name": "fdedba1e0af56268a5d4a807aa53a935", "is_reserved": 0, "rental_uris": {"android": "https://dc.lft.to/lastmile_qr_scan", "ios": "https://dc.lft.to/lastmile_qr_scan"}, "fusion_lon": 0.0}, {"lat": 38.84259333333333, "is_disabled": 0, "type": "electric_scooter", "lon": -77.00235066666667, "bike_id": "84b9207bdf8ad8813b0a46c272ca3d1e", "fusion_lat": 0.0, "name": "84b9207bdf8ad8813b0a46c272ca3d1e", "is_reserved": 0, "rental_uris": {"android": "https://dc.lft.to/lastmile_qr_scan", "ios": "https://dc.lft.to/lastmile_qr_scan"}, "fusion_lon": 0.0}, {"lat": 38.913301833333335, "is_disabled": 0, "type": "electric_scooter", "lon": -77.03252316666666, "bike_id": "badbb4a47c2a6a6cf9da946409c937fb", "fusion_lat": 0.0, "name": "badbb4a47c2a6a6cf9da946409c937fb", "is_reserved": 0, "rental_uris": {"android": "https://dc.lft.to/lastmile_qr_scan", "ios": "https://dc.lft.to/lastmile_qr_scan"}, "fusion_lon": 0.0}, {"lat": 38.959555333333334, "is_disabled": 0, "type": "electric_bike", "lon": -77.10092533333334, "bike_id": "ed8128df5c8ff370a5b74254dd2e55c3", "fusion_lat": 0.0, "name": "ed8128df5c8ff370a5b74254dd2e55c3", "is_reserved": 0, "rental_uris": {"android": "https://dc.lft.to/lastmile_qr_scan", "ios": "https://dc.lft.to/lastmile_qr_scan"}, "fusion_lon": 0.0}, {"lat": 38.93144866666667, "is_disabled": 0, "type": "electric_scooter", "lon": -77.0383525, "bike_id": "ec810a4a793ac00bdda76f59cc61703e", "fusion_lat": 0.0, "name": "ec810a4a793ac00bdda76f59cc61703e", "is_reserved": 0, "rental_uris": {"android": "https://dc.lft.to/lastmile_qr_scan", "ios": "https://dc.lft.to/lastmile_qr_scan"}, "fusion_lon": 0.0}, {"lat": 38.892274, "is_disabled": 0, "type": "electric_bike", "lon": -77.03330166666667, "bike_id": "da3fcc3871e33a00c8b21d8e68d38a19", "fusion_lat": 0.0, "name": "da3fcc3871e33a00c8b21d8e68d38a19", "is_reserved": 0, "rental_uris": {"android": "https://dc.lft.to/lastmile_qr_scan", "ios": "https://dc.lft.to/lastmile_qr_scan"}, "fusion_lon": 0.0}, {"lat": 38.9140625, "is_disabled": 0, "type": "electric_scooter", "lon": -77.03260766666666, "bike_id": "1499f4833050c8a82c524a905d52f58a", "fusion_lat": 0.0, "name": "1499f4833050c8a82c524a905d52f58a", "is_reserved": 0, "rental_uris": {"android": "https://dc.lft.to/lastmile_qr_scan", "ios": "https://dc.lft.to/lastmile_qr_scan"}, "fusion_lon": 0.0}, {"lat": 38.9614015, "is_disabled": 0, "type": "electric_scooter", "lon": -77.02814216666667, "bike_id": "8314413d9fb99cb5c720c59e4a33cf08", "fusion_lat": 0.0, "name": "8314413d9fb99cb5c720c59e4a33cf08", "is_reserved": 0, "rental_uris": {"android": "https://dc.lft.to/lastmile_qr_scan", "ios": "https://dc.lft.to/lastmile_qr_scan"}, "fusion_lon": 0.0}, {"lat": 38.880449666666664, "is_disabled": 0, "type": "electric_scooter", "lon": -76.98632883333333, "bike_id": "c477a961c1ac4bceb9bde1296382ea03", "fusion_lat": 0.0, "name": "c477a961c1ac4bceb9bde1296382ea03", "is_reserved": 0, "rental_uris": {"android": "https://dc.lft.to/lastmile_qr_scan", "ios": "https://dc.lft.to/lastmile_qr_scan"}, "fusion_lon": 0.0}, {"lat": 38.896862166666665, "is_disabled": 0, "type": "electric_scooter", "lon": -76.93539583333333, "bike_id": "e91cdcd888bfe62338858fb41da32c15", "fusion_lat": 0.0, "name": "e91cdcd888bfe62338858fb41da32c15", "is_reserved": 0, "rental_uris": {"android": "https://dc.lft.to/lastmile_qr_scan", "ios": "https://dc.lft.to/lastmile_qr_scan"}, "fusion_lon": 0.0}, {"lat": 38.91563933333333, "is_disabled": 0, "type": "electric_scooter", "lon": -77.03153683333333, "bike_id": "2a986fae668379a5b7a45a92151c1370", "fusion_lat": 0.0, "name": "2a986fae668379a5b7a45a92151c1370", "is_reserved": 0, "rental_uris": {"android": "https://dc.lft.to/lastmile_qr_scan", "ios": "https://dc.lft.to/lastmile_qr_scan"}, "fusion_lon": 0.0},