{"data": {"bikes": [{"fusion_lat": 0.0, "type": "electric_scooter", "name": "8026b72c327e4cbbf02ce27cfaa92d8e", "fusion_lon": 0.0, "bike_id": "8026b72c327e4cbbf02ce27cfaa92d8e", "is_reserved": 0, "rental_uris": {"android": "https://dc.lft.to/lastmile_qr_scan", "ios": "https://dc.lft.to/lastmile_qr_scan"}, "lat": 38.89215466666667, "is_disabled": 0, "lon": -77.02594866666666}, {"fusion_lat": 0.0, "type": "electric_bike", "name": "83eec444f749f8d6eb5a869b20427841", "fusion_lon": 0.0, "bike_id": "83eec444f749f8d6eb5a869b20427841", "is_reserved": 0, "rental_uris": {"android": "https://dc.lft.to/lastmile_qr_scan", "ios": "https://dc.lft.to/lastmile_qr_scan"}, "lat": 38.887234666666664, "is_disabled": 0, "lon": -77.13304683333334}, {"fusion_lat": 0.0, "type": "electric_scooter", "name": "0e88062460888e9abfb61e0d4d0f0e9f", "fusion_lon": 0.0, "bike_id": "0e88062460888e9abfb61e0d4d0f0e9f", "is_reserved": 0, "rental_uris": {"android": "https://dc.lft.to/lastmile_qr_scan", "ios": "https://dc.lft.to/lastmile_qr_scan"}, "lat": 38.930498, "is_disabled": 0, "lon": -77.03796433333333}, {"fusion_lat": 0.0, "type": "electric_scooter", "name": "acb9d8443f15e6a0091571c9c9eea21c", "fusion_lon": 0.0, "bike_id": "acb9d8443f15e6a0091571c9c9eea21c", "is_reserved": 0, "rental_uris": {"android": "https://dc.lft.to/lastmile_qr_scan", "ios": "https://dc.lft.to/lastmile_qr_scan"}, "lat": 38.93770683333334, "is_disabled": 0, "lon": -77.02194433333334}, {"fusion_lat": 0.0, "type": "electric_scooter", "name": "3e2823370ba17015e65883b3e7c3b188", "fusion_lon": 0.0, "bike_id": "3e2823370ba17015e65883b3e7c3b188", "is_reserved": 0, "rental_uris": {"android": "https://dc.lft.to/lastmile_qr_scan", "ios": "https://dc.lft.to/lastmile_qr_scan"}, "lat": 38.922544333333335, "is_disabled": 0, "lon": -77.07237066666667}, {"fusion_lat": 0.0, "type": "electric_scooter", "name": "73509fb125cebfb7537409368b4d4e33", "fusion_lon": 0.0, "bike_id": "73509fb125cebfb7537409368b4d4e33", "is_reserved": 0, "rental_uris": {"android": "https://dc.lft.to/lastmile_qr_scan", "ios": "https://dc.lft.to/lastmile_qr_scan"}, "lat": 38.910418666666665, "is_disabled": 0, "lon": -77.0368485}, {"fusion_lat": 0.0, "type": "electric_scooter", "name": "1e6c170c5a65c4779522ae0f1f25d3de", "fusion_lon": 0.0, "bike_id": "1e6c170c5a65c4779522ae0f1f25d3de", "is_reserved": 0, "rental_uris": {"android": "https://dc.lft.to/lastmile_qr_scan", "ios": "https://dc.lft.to/lastmile_qr_scan"}, "lat": 38.91591483333333, "is_disabled": 0, "lon": -77.04171116666667}, {"fusion_lat": 0.0, "type": "electric_scooter", "name": "8ff51617027e19226a3a33457f38ccc2", "fusion_lon": 0.0, "bike_id": "8ff51617027e19226a3a33457f38ccc2", "is_reserved": 0, "rental_uris": {"android": "https://dc.lft.to/lastmile_qr_scan", "ios": "https://dc.lft.to/lastmile_qr_scan"}, "lat": 38.8801885, "is_disabled": 0, "lon": -77.02662116666667}, {"fusion_lat": 0.0, "type": "electric_scooter", "name": "e427f6f46d3a6af97e9cbadcea2f124c", "fusion_lon": 0.0, "bike_id": "e427f6f46d3a6af97e9cbadcea2f124c", "is_reserved": 0, "rental_uris": {"android": "https://dc.lft.to/lastmile_qr_scan", "ios": "https://dc.lft.to/lastmile_qr_scan"}, "lat": 38.92319333333333, "is_disabled": 0, "lon": -77.03418}, {"fusion_lat": 0.0, "type": "electric_scooter", "name": "fb8a86e036c222f17b084116fb317627", "fusion_lon": 0.0, "bike_id": "fb8a86e036c222f17b084116fb317627", "is_reserved": 0, "rental_uris": {"android": "https://dc.lft.to/lastmile_qr_scan", "ios": "https://dc.lft.to/lastmile_qr_scan"}, "lat": 38.91886133333333, "is_disabled": 0, "lon": -77.02302633333333}, {"fusion_lat": 0.0, "type": "electric_scooter", "name": "e591a39290a326a8278643d386d4f422", "fusion_lon": 0.0, "bike_id": "e591a39290a326a8278643d386d4f422", "is_reserved": 0, "rental_uris": {"android": "https://dc.lft.to/lastmile_qr_scan", "ios": "https://dc.lft.to/lastmile_qr_scan"}, "lat": 38.880485, "is_disabled": 0, "lon": -77.0306495}, {"fusion_lat": 0.0, "type": "electric_scooter", "name": "7af1a328c44f8f93becebf6ca3d53a8e", "fusion_lon": 0.0, "bike_id": "7af1a328c44f8f93becebf6ca3d53a8e", "is_reserved": 0, "rental_uris": {"android": "https://dc.lft.to/lastmile_qr_scan", "ios": "https://dc.lft.to/lastmile_qr_scan"}, "lat": 38.929067, "is_disabled": 0, "lon": -77.03761316666667}, {"fusion_lat": 0.0, "type": "electric_scooter", "name": "f736e09ebb77ed5f9c67c4a5ca17eb71", "fusion_lon": 0.0, "bike_id": "f736e09ebb77ed5f9c67c4a5ca17eb71", "is_reserved": 0, "rental_uris": {"android": "https://dc.lft.to/lastmile_qr_scan", "ios": "https://dc.lft.to/lastmile_qr_scan"}, "lat": 38.914392666666664, "is_disabled": 0, "lon": -77.01707916666666}, {"fusion_lat": 0.0, "type": "electric_scooter", "name": "d57958baa3f7b2c6e603f0d15d85d5eb", "fusion_lon": 0.0, "bike_id": "d57958baa3f7b2c6e603f0d15d85d5eb", "is_reserved": 0, "rental_uris": {"android": "https://dc.lft.to/lastmile_qr_scan", "ios": "https://dc.lft.to/lastmile_qr_scan"}, "lat": 38.92376066666667, "is_disabled": 0, "lon": -77.03103866666666}, {"fusion_lat": 0.0, "type": "electric_bike", "name": "3b3d7654df2768c7d105545416793283", "fusion_lon": 0.0, "bike_id": "3b3d7654df2768c7d105545416793283", "is_reserved": 0, "rental_uris": {"android": "https://dc.lft.to/lastmile_qr_scan", "ios": "https://dc.lft.to/lastmile_qr_scan"}, "lat": 38.97401883333333, "is_disabled": 0, "lon": -77.0645035}, {"fusion_lat": 0.0, "type": "electric_scooter", "name": "d944265d99c28ad6b7ac5b74612996b3", "fusion_lon": 0.0, "bike_id": "d944265d99c28ad6b7ac5b74612996b3", "is_reserved": 0, "rental_uris": {"android": "https://dc.lft.to/lastmile_qr_scan", "ios": "https://dc.lft.to/lastmile_qr_scan"}, "lat": 38.914838, "is_disabled": 0, "lon": -77.02582816666667}, {"fusion_lat": 0.0, "type": "electric_scooter", "name": "d8606ba642987c6a0dcb18878070c9b0", "fusion_lon": 0.0, "bike_id": "d8606ba642987c6a0dcb18878070c9b0", "is_reserved": 0, "rental_uris": {"android": "https://dc.lft.to/lastmile_qr_scan", "ios": "https://dc.lft.to/lastmile_qr_scan"}, "lat": 38.89887816666667, "is_disabled": 0, "lon": -77.05300783333334}, {"fusion_lat": 0.0, "type": "electric_scooter", "name": "0c4be9dd45673d9d16032135b1ece088", "fusion_lon": 0.0, "bike_id": "0c4be9dd45673d9d16032135b1ece088", "is_reserved": 0, "rental_uris": {"android": "https://dc.lft.to/lastmile_qr_scan", "ios": "https://dc.lft.to/lastmile_qr_scan"}, "lat": 38.8984555, "is_disabled": 0, "lon": -76.946422}, {"fusion_lat": 0.0, "type": "electric_scooter", "name": "0c6502918e72a2c66a18451b4601b083", "fusion_lon": 0.0, "bike_id": "0c6502918e72a2c66a18451b4601b083", "is_reserved": 0, "rental_uris": {"android": "https://dc.lft.to/lastmile_qr_scan", "ios": "https://dc.lft.to/lastmile_qr_scan"}, "lat": 38.923644, "is_disabled": 0, "lon": -77.05066483333333}, {"fusion_lat": 0.0, "type": "electric_scooter", "name": "9e705c576dbff411c607f8272a184fd2", "fusion_lon": 0.0, "bike_id": "9e705c576dbff411c607f8272a184fd2", "is_reserved": 0, "rental_uris": {"android": "https://dc.lft.to/lastmile_qr_scan", "ios": "https://dc.lft.to/lastmile_qr_scan"}, "lat": 38.88919466666667, "is_disabled": 0, "lon": -76.99134583333333}, {"fusion_lat": 0.0, "type": "electric_scooter", "name": "3d7f8319332a526cdc856e060a3f6894", "fusion_lon": 0.0, "bike_id": "3d7f8319332a526cdc856e060a3f6894", "is_reserved": 0, "rental_uris": {"android": "https://dc.lft.to/lastmile_qr_scan", "ios": "https://dc.lft.to/lastmile_qr_scan"}, "lat": 38.9286095, "is_disabled": 0, "lon": -77.01408483333333}, {"fusion_lat": 0.0, "type": "electric_scooter", "name": "673fe24b86bc2deede1ab2080129f572", "fusion_lon": 0.0, "bike_id": "673fe24b86bc2deede1ab2080129f572", "is_reserved": 0, "rental_uris": {"android": "https://dc.lft.to/lastmile_qr_scan", "ios": "https://dc.lft.to/lastmile_qr_scan"}, "lat": 38.917557333333335, "is_disabled": 0, "lon": -77.01494766666667}, {"fusion_lat": 0.0, "type": "electric_scooter", "name": "ab9977129cb6196a28799dcafa3f33ae", "fusion_lon": 0.0, "bike_id": "ab9977129cb6196a28799dcafa3f33ae", "is_reserved": 0, "rental_uris": {"android": "https://dc.lft.to/lastmile_qr_scan", "ios": "https://dc.lft.to/lastmile_qr_scan"}, "lat": 38.92682666666666, "is_disabled": 0, "lon": -77.028618}, {"fusion_lat": 0.0, "type": "electric_scooter", "name": "a677cd24d5d5ab55a553825a7a559de9", "fusion_lon": 0.0, "bike_id": "a677cd24d5d5ab55a553825a7a559de9", "is_reserved": 0, "rental_uris": {"android": "https://dc.lft.to/lastmile_qr_scan", "ios": "https://dc.lft.to/lastmile_qr_scan"}, "lat": 38.90882633333333, "is_disabled": 0, "lon": -77.04306766666667}, {"fusion_lat": 0.0, "type": "electric_scooter", "name": "887486e1837e31c32d08d9c51ff28613", "fusion_lon": 0.0, "bike_id": "887486e1837e31c32d08d9c51ff28613", "is_reserved": 0, "rental_uris": {"android": "https://dc.lft.to/lastmile_qr_scan", "ios": "https://dc.lft.to/lastmile_qr_scan"}, "lat": 38.936145, "is_disabled": 0, "lon": -77.05894866666667}, {"fusion_lat": 0.0, "type": "electric_scooter", "name": "35f60162f5bc35117499f49d0317e668", "fusion_lon": 0.0, "bike_id": "35f60162f5bc35117499f49d0317e668", "is_reserved": 0, "rental_uris": {"android": "https://dc.lft.to/lastmile_qr_scan", "ios": "https://dc.lft.to/lastmile_qr_scan"}, "lat": 38.934416666666664, "is_disabled": 0, "lon": -77.03660933333333}, {"fusion_lat": 0.0, "type": "electric_scooter", "name": "47231c64a08d3833e9a685040331f95d", "fusion_lon": 0.0, "bike_id": "47231c64a08d3833e9a685040331f95d", "is_reserved": 0, "rental_uris": {"android": "https://dc.lft.to/lastmile_qr_scan", "ios": "https://dc.lft.to/lastmile_qr_scan"}, "lat": 38.908066166666664, "is_disabled": 0, "lon": -76.98735316666667}, {"fusion_lat": 0.0, "type": "electric_scooter", "name": "03935da23fb4d77dd773b6f2f2ea5fa8", "fusion_lon": 0.0, "bike_id": "03935da23fb4d77dd773b6f2f2ea5fa8", "is_reserved": 0, "rental_uris": {"android": "https://dc.lft.to/lastmile_qr_scan", "ios": "https://dc.lft.to/lastmile_qr_scan"}, "lat": 38.899674833333336, "is_disabled": 0, "lon": -77.04224}, {"fusion_lat": 0.0, "type": "electric_scooter", "name": "c9e9c0efa622713f6ecec56ef37a3fa5", "fusion_lon": 0.0, "bike_id": "c9e9c0efa622713f6ecec56ef37a3fa5", "is_reserved": 0, "rental_uris": {"android": "https://dc.lft.to/lastmile_qr_scan", "ios": "https://dc.lft.to/lastmile_qr_scan"}, "lat": 38.90525816666667, "is_disabled": 0, "lon": -77.05323266666667}, {"fusion_lat": 0.0, "type": "electric_scooter", "name": "bcb5db2afd864a2100396329660d2854", "fusion_lon": 0.0, "bike_id": "bcb5db2afd864a2100396329660d2854", "is_reserved": 0, "rental_uris": {"android": "https://dc.lft.to/lastmile_qr_scan", "ios": "https://dc.lft.to/lastmile_qr_scan"}, "lat": 38.939867166666666, "is_disabled": 0, "lon": -77.03007566666666}, {"fusion_lat": 0.0, "type": "electric_scooter", "name": "160817529139d1a1b13c0b1222651515", "fusion_lon": 0.0, "bike_id": "160817529139d1a1b13c0b1222651515", "is_reserved": 0, "rental_uris": {"android": "https://dc.lft.to/lastmile_qr_scan", "ios": "https://dc.lft.to/lastmile_qr_scan"}, "lat": 38.8922825, "is_disabled": 0, "lon": -77.04336883333333}, {"fusion_lat": 0.0, "type": "electric_scooter", "name": "5ffbaea7566cadb89a781b645f3dbe7a", "fusion_lon": 0.0, "bike_id": "5ffbaea7566cadb89a781b645f3dbe7a", "is_reserved": 0, "rental_uris": {"android": "https://dc.lft.to/lastmile_qr_scan", "ios": "https://dc.lft.to/lastmile_qr_scan"}, "lat": 38.9097315, "is_disabled": 0, "lon": -77.034689}, {"fusion_lat": 0.0, "type": "electric_scooter", "name": "f6b4166042afb3cb82b95584be499f98", "fusion_lon": 0.0, "bike_id": "f6b4166042afb3cb82b95584be499f98", "is_reserved": 0, "rental_uris": {"android": "https://dc.lft.to/lastmile_qr_scan", "ios": "https://dc.lft.to/lastmile_qr_scan"}, "lat": 38.919525666666665, "is_disabled": 0, "lon": -76.98078016666666}, {"fusion_lat": 0.0, "type": "electric_scooter", "name": "3095bfb0e411d246b727a7ddc7d6b880", "fusion_lon": 0.0, "bike_id": "3095bfb0e411d246b727a7ddc7d6b880", "is_reserved": 0, "rental_uris": {"android": "https://dc.lft.to/lastmile_qr_scan", "ios": "https://dc.lft.to/lastmile_qr_scan"}, "lat": 38.9085435, "is_disabled": 0, "lon": -77.043164}, {"fusion_lat": 0.0, "type": "electric_scooter", "name": "e598073ff8f7d3638c7af6485ca3a12c", "fusion_lon": 0.0, "bike_id": "e598073ff8f7d3638c7af6485ca3a12c", "is_reserved": 0, "rental_uris": {"android": "https://dc.lft.to/lastmile_qr_scan", "ios": "https://dc.lft.to/lastmile_qr_scan"}, "lat": 38.922445, "is_disabled": 0, "lon": -77.04367783333333}, {"fusion_lat": 0.0, "type": "electric_bike", "name": "fdd3e8a1bcd75dfae414f03797e7752d", "fusion_lon": 0.0, "bike_id": "fdd3e8a1bcd75dfae414f03797e7752d", "is_reserved": 0, "rental_uris": {"android": "https://dc.lft.to/lastmile_qr_scan", "ios": "https://dc.lft.to/lastmile_qr_scan"}, "lat": 38.89651816666667, "is_disabled": 0, "lon": -76.93004333333333}, {"fusion_lat": 0.0, "type": "electric_scooter", "name": "11ca02295e385f5eaf91fdd66e2b3a84", "fusion_lon": 0.0, "bike_id": "11ca02295e385f5eaf91fdd66e2b3a84", "is_reserved": 0, "rental_uris": {"android": "https://dc.lft.to/lastmile_qr_scan", "ios": "https://dc.lft.to/lastmile_qr_scan"}, "lat": 38.905457166666665, "is_disabled": 0, "lon": -77.0484215}, {"fusion_lat": 0.0, "type": "electric_scooter", "name": "4487787857b218467aadcfe28916f289", "fusion_lon": 0.0, "bike_id": "4487787857b218467aadcfe28916f289", "is_reserved": 0, "rental_uris": {"android": "https://dc.lft.to/lastmile_qr_scan", "ios": "https://dc.lft.to/lastmile_qr_scan"}, "lat": 38.921235833333334, "is_disabled": 0, "lon": -77.02561666666666}, {"fusion_lat": 0.0, "type": "electric_bike", "name": "b419425e69874f682758fce2fcf35c8a", "fusion_lon": 0.0, "bike_id": "b419425e69874f682758fce2fcf35c8a", "is_reserved": 0, "rental_uris": {"android": "https://dc.lft.to/lastmile_qr_scan", "ios": "https://dc.lft.to/lastmile_qr_scan"}, "lat": 38.903322, "is_disabled": 0, "lon": -76.975305}, {"fusion_lat": 0.0, "type": "electric_scooter", "name": "48ef0560b6183dd7e7ad04f4e9af67b2", "fusion_lon": 0.0, "bike_id": "48ef0560b6183dd7e7ad04f4e9af67b2", "is_reserved": 0, "rental_uris": {"android": "https://dc.lft.to/lastmile_qr_scan", "ios": "https://dc.lft.to/lastmile_qr_scan"}, "lat": 38.918249, "is_disabled": 0, "lon": -77.03442233333334}, {"fusion_lat": 0.0, "type": "electric_scooter", "name": "b9cb73801ecefda2673bf6534a1d0635", "fusion_lon": 0.0, "bike_id": "b9cb73801ecefda2673bf6534a1d0635", "is_reserved": 0, "rental_uris": {"android": "https://dc.lft.to/lastmile_qr_scan", "ios": "https://dc.lft.to/lastmile_qr_scan"}, "lat": 38.91329783333333, "is_disabled": 0, "lon": -77.04532966666666}, {"fusion_lat": 0.0, "type": "electric_scooter", "name": "c83311e31a537d29c4ad15e22140c264", "fusion_lon": 0.0, "bike_id": "c83311e31a537d29c4ad15e22140c264", "is_reserved": 0, "rental_uris": {"android": "https://dc.lft.to/lastmile_qr_scan", "ios": "https://dc.lft.to/lastmile_qr_scan"}, "lat": 38.935215166666666, "is_disabled": 0, "lon": -77.07289483333334}, {"fusion_lat": 0.0, "type": "electric_scooter", "name": "cfde108ae2297027898c34940f4e11f0", "fusion_lon": 0.0, "bike_id": "cfde108ae2297027898c34940f4e11f0", "is_reserved": 0, "rental_uris": {"android": "https://dc.lft.to/lastmile_qr_scan", "ios": "https://dc.lft.to/lastmile_qr_scan"}, "lat": 38.94990216666667, "is_disabled": 0, "lon": -77.02704333333334}, {"fusion_lat": 0.0, "type": "electric_scooter", "name": "276070ba77bd560386354c99bf93011a", "fusion_lon": 0.0, "bike_id": "276070ba77bd560386354c99bf93011a", "is_reserved": 0, "rental_uris": {"android": "https://dc.lft.to/lastmile_qr_scan", "ios": "https://dc.lft.to/lastmile_qr_scan"}, "lat": 38.887161166666665, "is_disabled": 0, "lon": -77.0221}, {"fusion_lat": 0.0, "type": "electric_scooter", "name": "b03aa34173591d5df6850021e2cf615d", "fusion_lon": 0.0, "bike_id": "b03aa34173591d5df6850021e2cf615d", "is_reserved": 0, "rental_uris": {"android": "https://dc.lft.to/lastmile_qr_scan", "ios": "https://dc.lft.to/lastmile_qr_scan"}, "lat": 38.919967666666665, "is_disabled": 0, "lon": -77.02402416666666}, {"fusion_lat": 0.0, "type": "electric_scooter", "name": "2f0b1378a1604cebb555857cbacebdcf", "fusion_lon": 0.0, "bike_id": "2f0b1378a1604cebb555857cbacebdcf", "is_reserved": 0, "rental_uris": {"android": "https://dc.lft.to/lastmile_qr_scan", "ios": "https://dc.lft.to/lastmile_qr_scan"}, "lat": 38.886104833333334, "is_disabled": 0, "lon": -77.00135633333333}, {"fusion_lat": 0.0, "type": "electric_scooter", "name": "9f70e4aa251ffe981fd7a5f5362f1372", "fusion_lon": 0.0, "bike_id": "9f70e4aa251ffe981fd7a5f5362f1372", "is_reserved": 0, "rental_uris": {"android": "https://dc.lft.to/lastmile_qr_scan", "ios": "https://dc.lft.to/lastmile_qr_scan"}, "lat": 38.86476366666667, "is_disabled": 0, "lon": -76.98230716666667}, {"fusion_lat": 0.0, "type": "electric_scooter", "name": "a0579dd360bf5a53478fb1f70dda3328", "fusion_lon": 0.0, "bike_id": "a0579dd360bf5a53478fb1f70dda3328", "is_reserved": 0, "rental_uris": {"android": "https://dc.lft.to/lastmile_qr_scan", "ios": "https://dc.lft.to/lastmile_qr_scan"}, "lat": 38.921608, "is_disabled": 0, "lon": -77.03387166666667}, {"fusion_lat": 0.0, "type": "electric_bike", "name": "e877137642122a1cb5d5dd8957987d14", "fusion_lon": 0.0, "bike_id": "e877137642122a1cb5d5dd8957987d14", "is_reserved": 0, "rental_uris": {"android": "https://dc.lft.to/lastmile_qr_scan", "ios": "https://dc.lft.to/lastmile_qr_scan"}, "lat": 38.87416433333333, "is_disabled": 0, "lon": -76.97168966666666}, {"fusion_lat": 0.0, "type": "electric_bike", "name": "abf1d14ca34a7e847db5c3b6ee79d1e8", "fusion_lon": 0.0, "bike_id": "abf1d14ca34a7e847db5c3b6ee79d1e8", "is_reserved": 0, "rental_uris": {"android": "https://dc.lft.to/lastmile_qr_scan", "ios": "https://dc.lft.to/lastmile_qr_scan"}, "lat": 38.98159283333333, "is_disabled": 0, "lon": -77.026416}, {"fusion_lat": 0.0, "type": "electric_bike", "name": "9e6b3504143cd3354656cd3aeadbb772", "fusion_lon": 0.0, "bike_id": "9e6b3504143cd3354656cd3aeadbb772", "is_reserved": 0, "rental_uris": {"android": "https://dc.lft.to/lastmile_qr_scan", "ios": "https://dc.lft.to/lastmile_qr_scan"}, "lat": 38.859405, "is_disabled": 0, "lon": -77.11827266666667}, {"fusion_lat": 0.0, "type": "electric_scooter", "name": "fe7dd0cadf4540431eff823c4be6dfef", "fusion_lon": 0.0, "bike_id": "fe7dd0cadf4540431eff823c4be6dfef", "is_reserved": 0, "rental_uris": {"android": "https://dc.lft.to/lastmile_qr_scan", "ios": "https://dc.lft.to/lastmile_qr_scan"}, "lat": 38.92238, "is_disabled": 0, "lon": -77.04249433333334}, {"fusion_lat": 0.0, "type": "electric_scooter", "name": "c9b1420e90635f8e761085a3ca5e2977", "fusion_lon": 0.0, "bike_id": "c9b1420e90635f8e761085a3ca5e2977", "is_reserved": 0, "rental_uris": {"android": "https://dc.lft.to/lastmile_qr_scan", "ios": "https://dc.lft.to/lastmile_qr_scan"}, "lat": 38.892302, "is_disabled": 0, "lon": -77.04334033333333}, {"fusion_lat": 0.0, "type": "electric_bike", "name": "8485ab7f0c00b065afc496d050f559d4", "fusion_lon": 0.0, "bike_id": "8485ab7f0c00b065afc496d050f559d4", "is_reserved": 0, "rental_uris": {"android": "https://dc.lft.to/lastmile_qr_scan", "ios": "https://dc.lft.to/lastmile_qr_scan"}, "lat": 38.846127333333335, "is_disabled": 0, "lon": -77.08970066666667}, {"fusion_lat": 0.0, "type": "electric_bike", "name": "88538b05afbf727706fc87aee0777ca2", "fusion_lon": 0.0, "bike_id": "88538b05afbf727706fc87aee0777ca2", "is_reserved": 0, "rental_uris": {"android": "https://dc.lft.to/lastmile_qr_scan", "ios": "https://dc.lft.to/lastmile_qr_scan"}, "lat": 38.99349333333333, "is_disabled": 0, "lon": -77.115787}, {"fusion_lat": 0.0, "type": "electric_scooter", "name": "ad2f038e1707d8cedec9a02870da979f", "fusion_lon": 0.0, "bike_id": "ad2f038e1707d8cedec9a02870da979f", "is_reserved": 0, "rental_uris": {"android": "https://dc.lft.to/lastmile_qr_scan", "ios": "https://dc.lft.to/lastmile_qr_scan"}, "lat": 38.907112166666664, "is_disabled": 0, "lon": -77.02693116666667}, {"fusion_lat": 0.0, "type": "electric_scooter", "name": "b0c41a4afdec0b01a4f0e74e13f0b95a", "fusion_lon": 0.0, "bike_id": "b0c41a4afdec0b01a4f0e74e13f0b95a", "is_reserved": 0, "rental_uris": {"android": "https://dc.lft.to/lastmile_qr_scan", "ios": "https://dc.lft.to/lastmile_qr_scan"}, "lat": 38.90142933333333, "is_disabled": 0, "lon": -77.044038}, {"fusion_lat": 0.0, "type": "electric_scooter", "name": "5e1a13d36fd49988d1fb916c428a893a", "fusion_lon": 0.0, "bike_id": "5e1a13d36fd49988d1fb916c428a893a", "is_reserved": 0, "rental_uris": {"android": "https://dc.lft.to/lastmile_qr_scan", "ios": "https://dc.lft.to/lastmile_qr_scan"}, "lat": 38.866579, "is_disabled": 0, "lon": -76.98516233333334}, {"fusion_lat": 0.0, "type": "electric_scooter", "name": "5c4e7100b51de3a48e585eadb3eed279", "fusion_lon": 0.0, "bike_id": "5c4e7100b51de3a48e585eadb3eed279", "is_reserved": 0, "rental_uris": {"android": "https://dc.lft.to/lastmile_qr_scan", "ios": "https://dc.lft.to/lastmile_qr_scan"}, "lat": 38.93009383333333, "is_disabled": 0, "lon": -77.055148}, {"fusion_lat": 0.0, "type": "electric_scooter", "name": "4ef76f6a020de4e8def83a63d118b60e", "fusion_lon": 0.0, "bike_id": "4ef76f6a020de4e8def83a63d118b60e", "is_reserved": 0, "rental_uris": {"android": "https://dc.lft.to/lastmile_qr_scan", "ios": "https://dc.lft.to/lastmile_qr_scan"}, "lat": 38.9243245, "is_disabled": 0, "lon": -77.04247066666667}, {"fusion_lat": 0.0, "type": "electric_scooter", "name": "e015778d9106e5bd16e95e4aa4993eff", "fusion_lon": 0.0, "bike_id": "e015778d9106e5bd16e95e4aa4993eff", "is_reserved": 0, "rental_uris": {"android": "https://dc.lft.to/lastmile_qr_scan", "ios": "https://dc.lft.to/lastmile_qr_scan"}, "lat": 38.9069545, "is_disabled": 0, "lon": -77.03694966666667}, {"fusion_lat": 0.0, "type": "electric_scooter", "name": "c646baae31db9270bace1b2d9b6b0026", "fusion_lon": 0.0, "bike_id": "c646baae31db9270bace1b2d9b6b0026", "is_reserved": 0, "rental_uris": {"android": "https://dc.lft.to/lastmile_qr_scan", "ios": "https://dc.lft.to/lastmile_qr_scan"}, "lat": 38.892981666666664, "is_disabled": 0, "lon": -77.01233733333333}, {"fusion_lat": 0.0, "type": "electric_scooter", "name": "5556a092d014d5024d1b1f794a950c48", "fusion_lon": 0.0, "bike_id": "5556a092d014d5024d1b1f794a950c48", "is_reserved": 0, "rental_uris": {"android": "https://dc.lft.to/lastmile_qr_scan", "ios": "https://dc.lft.to/lastmile_qr_scan"}, "lat": 38.89235166666667, "is_disabled": 0, "lon": -77.01982333333333}, {"fusion_lat": 0.0, "type": "electric_scooter", "name": "e057e075a4e9025796a74868223ac812", "fusion_lon": 0.0, "bike_id": "e057e075a4e9025796a74868223ac812", "is_reserved": 0, "rental_uris": {"android": "https://dc.lft.to/lastmile_qr_scan", "ios": "https://dc.lft.to/lastmile_qr_scan"}, "lat": 38.932955166666666, "is_disabled": 0, "lon": -77.04618816666667}, {"fusion_lat": 0.0, "type": "electric_scooter", "name": "744a61b7f2846b3a9bedbb9549990e19", "fusion_lon": 0.0, "bike_id": "744a61b7f2846b3a9bedbb9549990e19", "is_reserved": 0, "rental_uris": {"android": "https://dc.lft.to/lastmile_qr_scan", "ios": "https://dc.lft.to/lastmile_qr_scan"}, "lat": 38.91332283333333, "is_disabled": 0, "lon": -77.04536633333333}, {"fusion_lat": 0.0, "type": "electric_scooter", "name": "4608adde768dd89f413b8d80ed138b91", "fusion_lon": 0.0, "bike_id": "4608adde768dd89f413b8d80ed138b91", "is_reserved": 0, "rental_uris": {"android": "https://dc.lft.to/lastmile_qr_scan", "ios": "https://dc.lft.to/lastmile_qr_scan"}, "lat": 38.928203, "is_disabled": 0, "lon": -77.05529}, {"fusion_lat": 0.0, "type": "electric_scooter", "name": "4aad114f751be1f52faea473ff2a23c4", "fusion_lon": 0.0, "bike_id": "4aad114f751be1f52faea473ff2a23c4", "is_reserved": 0, "rental_uris": {"android": "https://dc.lft.to/lastmile_qr_scan", "ios": "https://dc.lft.to/lastmile_qr_scan"}, "lat": 38.9271355, "is_disabled": 0, "lon": -77.041295}, {"fusion_lat": 0.0, "type": "electric_scooter", "name": "4ef5d886299d97e123fa62222645cc91", "fusion_lon": 0.0, "bike_id": "4ef5d886299d97e123fa62222645cc91", "is_reserved": 0, "rental_uris": {"android": "https://dc.lft.to/lastmile_qr_scan", "ios": "https://dc.lft.to/lastmile_qr_scan"}, "lat": 38.90014216666667, "is_disabled": 0, "lon": -77.0450405}, {"fusion_lat": 0.0, "type": "electric_scooter", "name": "2980f82a8c1e0f76ccda5a6008231e07", "fusion_lon": 0.0, "bike_id": "2980f82a8c1e0f76ccda5a6008231e07", "is_reserved": 0, "rental_uris": {"android": "https://dc.lft.to/lastmile_qr_scan", "ios": "https://dc.lft.to/lastmile_qr_scan"}, "lat": 38.952339333333335, "is_disabled": 0, "lon": -77.01426983333333}, {"fusion_lat": 0.0, "type": "electric_scooter", "name": "022a1a72d0c9166bb087383eef65bdb3", "fusion_lon": 0.0, "bike_id": "022a1a72d0c9166bb087383eef65bdb3", "is_reserved": 0, "rental_uris": {"android": "https://dc.lft.to/lastmile_qr_scan", "ios": "https://dc.lft.to/lastmile_qr_scan"}, "lat": 38.93090183333333, "is_disabled": 0, "lon": -77.00411283333334}, {"fusion_lat": 0.0, "type": "electric_scooter", "name": "a62990914ac0c00ecda4302171c29815", "fusion_lon": 0.0, "bike_id": "a62990914ac0c00ecda4302171c29815", "is_reserved": 0, "rental_uris": {"android": "https://dc.lft.to/lastmile_qr_scan", "ios": "https://dc.lft.to/lastmile_qr_scan"}, "lat": 38.929908833333336, "is_disabled": 0, "lon": -77.034712}, {"fusion_lat": 0.0, "type": "electric_bike", "name": "41eeff84965082d00be292d3e413e1b6", "fusion_lon": 0.0, "bike_id": "41eeff84965082d00be292d3e413e1b6", "is_reserved": 0, "rental_uris": {"android": "https://dc.lft.to/lastmile_qr_scan", "ios": "https://dc.lft.to/lastmile_qr_scan"}, "lat": 38.87989983333333, "is_disabled": 0, "lon": -76.98475233333333}, {"fusion_lat": 0.0, "type": "electric_scooter", "name": "55918d7701fefae1f541fc4d8463b11e", "fusion_lon": 0.0, "bike_id": "55918d7701fefae1f541fc4d8463b11e", "is_reserved": 0, "rental_uris": {"android": "https://dc.lft.to/lastmile_qr_scan", "ios": "https://dc.lft.to/lastmile_qr_scan"}, "lat": 38.88991216666667, "is_disabled": 0, "lon": -76.9833135}, {"fusion_lat": 0.0, "type": "electric_scooter", "name": "f890538ea857c1c6813e85151ec8ca6e", "fusion_lon": 0.0, "bike_id": "f890538ea857c1c6813e85151ec8ca6e", "is_reserved": 0, "rental_uris": {"android": "https://dc.lft.to/lastmile_qr_scan", "ios": "https://dc.lft.to/lastmile_qr_scan"}, "lat": 38.920655, "is_disabled": 0, "lon": -77.004948}, {"fusion_lat": 0.0, "type": "electric_scooter", "name": "bb7135ff3ed979558bcbf6adae4bc61a", "fusion_lon": 0.0, "bike_id": "bb7135ff3ed979558bcbf6adae4bc61a", "is_reserved": 0, "rental_uris": {"android": "https://dc.lft.to/lastmile_qr_scan", "ios": "https://dc.lft.to/lastmile_qr_scan"}, "lat": 38.935741, "is_disabled": 0, "lon": -77.03517566666666}, {"fusion_lat": 0.0, "type": "electric_scooter", "name": "e88266c991665bc41884b17074373aa6", "fusion_lon": 0.0, "bike_id": "e88266c991665bc41884b17074373aa6", "is_reserved": 0, "rental_uris": {"android": "https://dc.lft.to/lastmile_qr_scan", "ios": "https://dc.lft.to/lastmile_qr_scan"}, "lat": 38.94329033333333, "is_disabled": 0, "lon": -77.026827}, {"fusion_lat": 0.0, "type": "electric_scooter", "name": "c0823313e2186c2229a365561c898065", "fusion_lon": 0.0, "bike_id": "c0823313e2186c2229a365561c898065", "is_reserved": 0, "rental_uris": {"android": "https://dc.lft.to/lastmile_qr_scan", "ios": "https://dc.lft.to/lastmile_qr_scan"}, "lat": 38.87636766666667, "is_disabled": 0, "lon": -77.01254716666666}, {"fusion_lat": 0.0, "type": "electric_scooter", "name": "4e2921e11d8ed863ecb343e32fbcc7d5", "fusion_lon": 0.0, "bike_id": "4e2921e11d8ed863ecb343e32fbcc7d5", "is_reserved": 0, "rental_uris": {"android": "https://dc.lft.to/lastmile_qr_scan", "ios": "https://dc.lft.to/lastmile_qr_scan"}, "lat": 38.90958233333333, "is_disabled": 0, "lon": -76.98537783333333}, {"fusion_lat": 0.0, "type": "electric_scooter", "name": "15332a221e1de121783a6d0656a13d5c", "fusion_lon": 0.0, "bike_id": "15332a221e1de121783a6d0656a13d5c", "is_reserved": 0, "rental_uris": {"android": "https://dc.lft.to/lastmile_qr_scan", "ios": "https://dc.lft.to/lastmile_qr_scan"}, "lat": 38.9240825, "is_disabled": 0, "lon": -77.02978833333333}, {"fusion_lat": 0.0, "type": "electric_scooter", "name": "567ea3abb4238ef50e203a7bf4f545f3", "fusion_lon": 0.0, "bike_id": "567ea3abb4238ef50e203a7bf4f545f3", "is_reserved": 0, "rental_uris": {"android": "https://dc.lft.to/lastmile_qr_scan", "ios": "https://dc.lft.to/lastmile_qr_scan"}, "lat": 38.88082133333333, "is_disabled": 0, "lon": -76.99838383333334}, {"fusion_lat": 0.0, "type": "electric_scooter", "name": "659949eb47feef7cb228642c4a1c7855", "fusion_lon": 0.0, "bike_id": "659949eb47feef7cb228642c4a1c7855", "is_reserved": 0, "rental_uris": {"android": "https://dc.lft.to/lastmile_qr_scan", "ios": "https://dc.lft.to/lastmile_qr_scan"}, "lat": 38.874658, "is_disabled": 0, "lon": -77.018962}, {"fusion_lat": 0.0, "type": "electric_scooter", "name": "a53a0c6b4af6b02196b1bc503f09ad28", "fusion_lon": 0.0, "bike_id": "a53a0c6b4af6b02196b1bc503f09ad28", "is_reserved": 0, "rental_uris": {"android": "https://dc.lft.to/lastmile_qr_scan", "ios": "https://dc.lft.to/lastmile_qr_scan"}, "lat": 38.9528515, "is_disabled": 0, "lon": -77.06981966666666}, {"fusion_lat": 0.0, "type": "electric_scooter", "name": "2ffed844836c10e2a9f48960b1bcad5c", "fusion_lon": 0.0, "bike_id": "2ffed844836c10e2a9f48960b1bcad5c", "is_reserved": 0, "rental_uris": {"android": "https://dc.lft.to/lastmile_qr_scan", "ios": "https://dc.lft.to/lastmile_qr_scan"}, "lat": 38.91635383333333, "is_disabled": 0, "lon": -77.04251866666667}, {"fusion_lat": 0.0, "type": "electric_scooter", "name": "1dfba0ac5aed03821e51e7ed9aafc6e5", "fusion_lon": 0.0, "bike_id": "1dfba0ac5aed03821e51e7ed9aafc6e5", "is_reserved": 0, "rental_uris": {"android": "https://dc.lft.to/lastmile_qr_scan", "ios": "https://dc.lft.to/lastmile_qr_scan"}, "lat": 38.903188, "is_disabled": 0, "lon": -76.99110166666667}, {"fusion_lat": 0.0, "type": "electric_scooter", "name": "f58dbd1a787e281d9abe4ae77c9a6c0a", "fusion_lon": 0.0, "bike_id": "f58dbd1a787e281d9abe4ae77c9a6c0a", "is_reserved": 0, "rental_uris": {"android": "https://dc.lft.to/lastmile_qr_scan", "ios": "https://dc.lft.to/lastmile_qr_scan"}, "lat": 38.924806, "is_disabled": 0, "lon": -77.04162633333334}, {"fusion_lat": 0.0, "type": "electric_scooter", "name": "9ce92da271a7e21d93240d68a3114dfd", "fusion_lon": 0.0, "bike_id": "9ce92da271a7e21d93240d68a3114dfd", "is_reserved": 0, "rental_uris": {"android": "https://dc.lft.to/lastmile_qr_scan", "ios": "https://dc.lft.to/lastmile_qr_scan"}, "lat": 38.89888533333333, "is_disabled": 0, "lon": -77.03920866666667}, {"fusion_lat": 0.0, "type": "electric_scooter", "name": "d054b306c2aac5473b9490a9f41dc5fe", "fusion_lon": 0.0, "bike_id": "d054b306c2aac5473b9490a9f41dc5fe", "is_reserved": 0, "rental_uris": {"android": "https://dc.lft.to/lastmile_qr_scan", "ios": "https://dc.lft.to/lastmile_qr_scan"}, "lat": 38.872904166666665, "is_disabled": 0, "lon": -77.0098655}, {"fusion_lat": 0.0, "type": "electric_scooter", "name": "f2a823297477b552c4d1f9ddd22907d5", "fusion_lon": 0.0, "bike_id": "f2a823297477b552c4d1f9ddd22907d5", "is_reserved": 0, "rental_uris": {"android": "https://dc.lft.to/lastmile_qr_scan", "ios": "https://dc.lft.to/lastmile_qr_scan"}, "lat": 38.86016033333333, "is_disabled": 0, "lon": -76.985217}, {"fusion_lat": 0.0, "type": "electric_scooter", "name": "ce7d8cd1d3e5a2a6db58329187fcc6d1", "fusion_lon": 0.0, "bike_id": "ce7d8cd1d3e5a2a6db58329187fcc6d1", "is_reserved": 0, "rental_uris": {"android": "https://dc.lft.to/lastmile_qr_scan", "ios": "https://dc.lft.to/lastmile_qr_scan"}, "lat": 38.91684516666667, "is_disabled": 0, "lon": -77.01583283333333}, {"fusion_lat": 0.0, "type": "electric_scooter", "name": "bd7de05fd3b6ba8a69bee9c499afdc4b", "fusion_lon": 0.0, "bike_id": "bd7de05fd3b6ba8a69bee9c499afdc4b", "is_reserved": 0, "rental_uris": {"android": "https://dc.lft.to/lastmile_qr_scan", "ios": "https://dc.lft.to/lastmile_qr_scan"}, "lat": 38.92390816666666, "is_disabled": 0, "lon": -77.05032883333334}, {"fusion_lat": 0.0, "type": "electric_scooter", "name": "da8ac089af570532e8d89cb991c5a657", "fusion_lon": 0.0, "bike_id": "da8ac089af570532e8d89cb991c5a657", "is_reserved": 0, "rental_uris": {"android": "https://dc.lft.to/lastmile_qr_scan", "ios": "https://dc.lft.to/lastmile_qr_scan"}, "lat": 38.9119075, "is_disabled": 0, "lon": -77.04458183333334}, {"fusion_lat": 0.0, "type": "electric_scooter", "name": "ec6daecc579ba5f9cb4bf46d00ea0880", "fusion_lon": 0.0, "bike_id": "ec6daecc579ba5f9cb4bf46d00ea0880", "is_reserved": 0, "rental_uris": {"android": "https://dc.lft.to/lastmile_qr_scan", "ios": "https://dc.lft.to/lastmile_qr_scan"}, "lat": 38.915496, "is_disabled": 0, "lon": -77.03857616666667}, {"fusion_lat": 0.0, "type": "electric_scooter", "name": "a4478d402be0819908d7e42f013dff2f", "fusion_lon": 0.0, "bike_id": "a4478d402be0819908d7e42f013dff2f", "is_reserved": 0, "rental_uris": {"android": "https://dc.lft.to/lastmile_qr_scan", "ios": "https://dc.lft.to/lastmile_qr_scan"}, "lat": 38.92197316666667, "is_disabled": 0, "lon": -77.029824}, {"fusion_lat": 0.0, "type": "electric_scooter", "name": "7f08579c4624439fd95e30c28fd4075b", "fusion_lon": 0.0, "bike_id": "7f08579c4624439fd95e30c28fd4075b", "is_reserved": 0, "rental_uris": {"android": "https://dc.lft.to/lastmile_qr_scan", "ios": "https://dc.lft.to/lastmile_qr_scan"}, "lat": 38.927072833333334, "is_disabled": 0, "lon": -77.0207425}, {"fusion_lat": 0.0, "type": "electric_scooter", "name": "6701e81acfa891cc9e58f3044df1ae38", "fusion_lon": 0.0, "bike_id": "6701e81acfa891cc9e58f3044df1ae38", "is_reserved": 0, "rental_uris": {"android": "https://dc.lft.to/lastmile_qr_scan", "ios": "https://dc.lft.to/lastmile_qr_scan"}, "lat": 38.8922905, "is_disabled": 0, "lon": -77.00219566666667}, {"fusion_lat": 0.0, "type": "electric_scooter", "name": "723761633a6007d578b3b1dbba064f32", "fusion_lon": 0.0, "bike_id": "723761633a6007d578b3b1dbba064f32", "is_reserved": 0, "rental_uris": {"android": "https://dc.lft.to/lastmile_qr_scan", "ios": "https://dc.lft.to/lastmile_qr_scan"}, "lat": 38.92856416666667, "is_disabled": 0, "lon": -77.02005216666667}, {"fusion_lat": 0.0, "type": "electric_scooter", "name": "0a8a818cbd5d448bb9fa8ab06f1e6429", "fusion_lon": 0.0, "bike_id": "0a8a818cbd5d448bb9fa8ab06f1e6429", "is_reserved": 0, "rental_uris": {"android": "https://dc.lft.to/lastmile_qr_scan", "ios": "https://dc.lft.to/lastmile_qr_scan"}, "lat": 38.9057015, "is_disabled": 0, "lon": -77.05001983333334}, {"fusion_lat": 0.0, "type": "electric_scooter", "name": "93c1a4aab23a7ec4d0dd646d0d294323", "fusion_lon": 0.0, "bike_id": "93c1a4aab23a7ec4d0dd646d0d294323", "is_reserved": 0, "rental_uris": {"android": "https://dc.lft.to/lastmile_qr_scan", "ios": "https://dc.lft.to/lastmile_qr_scan"}, "lat": 38.9080665, "is_disabled": 0, "lon": -77.03430433333334}, {"fusion_lat": 0.0, "type": "electric_bike", "name": "eae57df8d6cefbd7dd51af0c06877427", "fusion_lon": 0.0, "bike_id": "eae57df8d6cefbd7dd51af0c06877427", "is_reserved": 0, "rental_uris": {"android": "https://dc.lft.to/lastmile_qr_scan", "ios": "https://dc.lft.to/lastmile_qr_scan"}, "lat": 38.88407266666667, "is_disabled": 0, "lon": -76.96057466666667}, {"fusion_lat": 0.0, "type": "electric_bike", "name": "70b8105b62cc5cbdcd964dd0ce7a5431", "fusion_lon": 0.0, "bike_id": "70b8105b62cc5cbdcd964dd0ce7a5431", "is_reserved": 0, "rental_uris": {"android": "https://dc.lft.to/lastmile_qr_scan", "ios": "https://dc.lft.to/lastmile_qr_scan"}, "lat": 38.983644, "is_disabled": 0, "lon": -76.97213933333333}, {"fusion_lat": 0.0, "type": "electric_scooter", "name": "6ea5cd9a2aab08aa9ebaed1bc99e831d", "fusion_lon": 0.0, "bike_id": "6ea5cd9a2aab08aa9ebaed1bc99e831d", "is_reserved": 0, "rental_uris": {"android": "https://dc.lft.to/lastmile_qr_scan", "ios": "https://dc.lft.to/lastmile_qr_scan"}, "lat": 38.9149765, "is_disabled": 0, "lon": -77.00777483333333}, {"fusion_lat": 0.0, "type": "electric_bike", "name": "f49470d19847512690293fc10e2fcc8b", "fusion_lon": 0.0, "bike_id": "f49470d19847512690293fc10e2fcc8b", "is_reserved": 0, "rental_uris": {"android": "https://dc.lft.to/lastmile_qr_scan", "ios": "https://dc.lft.to/lastmile_qr_scan"}, "lat": 38.932097666666664, "is_disabled": 0, "lon": -77.0187635}, {"fusion_lat": 0.0, "type": "electric_bike", "name": "22add5e9a82007a5c7a5da56c9e2fc3d", "fusion_lon": 0.0, "bike_id": "22add5e9a82007a5c7a5da56c9e2fc3d", "is_reserved": 0, "rental_uris": {"android": "https://dc.lft.to/lastmile_qr_scan", "ios": "https://dc.lft.to/lastmile_qr_scan"}, "lat": 38.9233965, "is_disabled": 0, "lon": -76.97143166666666}, {"fusion_lat": 0.0, "type": "electric_scooter", "name": "b76d057cca7418a30caf5e972655a3d6", "fusion_lon": 0.0, "bike_id": "b76d057cca7418a30caf5e972655a3d6", "is_reserved": 0, "rental_uris": {"android": "https://dc.lft.to/lastmile_qr_scan", "ios": "https://dc.lft.to/lastmile_qr_scan"}, "lat": 38.95751583333333, "is_disabled": 0, "lon": -77.020692}, {"fusion_lat": 0.0, "type": "electric_scooter", "name": "38d0a1116c3d451eebeba115e4052e23", "fusion_lon": 0.0, "bike_id": "38d0a1116c3d451eebeba115e4052e23", "is_reserved": 0, "rental_uris": {"android": "https://dc.lft.to/lastmile_qr_scan", "ios": "https://dc.lft.to/lastmile_qr_scan"}, "lat": 38.89962883333333, "is_disabled": 0, "lon": -76.97529933333334}, {"fusion_lat": 0.0, "type": "electric_scooter", "name": "5624949597366d7b64ae300abc2077c2", "fusion_lon": 0.0, "bike_id": "5624949597366d7b64ae300abc2077c2", "is_reserved": 0, "rental_uris": {"android": "https://dc.lft.to/lastmile_qr_scan", "ios": "https://dc.lft.to/lastmile_qr_scan"}, "lat": 38.879217833333335, "is_disabled": 0, "lon": -77.02136833333333}, {"fusion_lat": 0.0, "type": "electric_scooter", "name": "1fd82fc19fc849441f2b334737a2d44d", "fusion_lon": 0.0, "bike_id": "1fd82fc19fc849441f2b334737a2d44d", "is_reserved": 0, "rental_uris": {"android": "https://dc.lft.to/lastmile_qr_scan", "ios": "https://dc.lft.to/lastmile_qr_scan"}, "lat": 38.91347483333333, "is_disabled": 0, "lon": -77.03181766666667}, {"fusion_lat": 0.0, "type": "electric_scooter", "name": "53cbb9e99014dc8c859995a958478824", "fusion_lon": 0.0, "bike_id": "53cbb9e99014dc8c859995a958478824", "is_reserved": 0, "rental_uris": {"android": "https://dc.lft.to/lastmile_qr_scan", "ios": "https://dc.lft.to/lastmile_qr_scan"}, "lat": 38.936769, "is_disabled": 0, "lon": -77.03592883333333}, {"fusion_lat": 0.0, "type": "electric_scooter", "name": "9f3a1f3e8cb90864a7a4848fe717fc34", "fusion_lon": 0.0, "bike_id": "9f3a1f3e8cb90864a7a4848fe717fc34", "is_reserved": 0, "rental_uris": {"android": "https://dc.lft.to/lastmile_qr_scan", "ios": "https://dc.lft.to/lastmile_qr_scan"}, "lat": 38.910419166666664, "is_disabled": 0, "lon": -77.034902}, {"fusion_lat": 0.0, "type": "electric_bike", "name": "48d6d5024524f687dff16f90cb5ef2ec", "fusion_lon": 0.0, "bike_id": "48d6d5024524f687dff16f90cb5ef2ec", "is_reserved": 0, "rental_uris": {"android": "https://dc.lft.to/lastmile_qr_scan", "ios": "https://dc.lft.to/lastmile_qr_scan"}, "lat": 38.95156933333333, "is_disabled": 0, "lon": -77.01281083333333}, {"fusion_lat": 0.0, "type": "electric_scooter", "name": "22c503203a154a9b129a562d483a7871", "fusion_lon": 0.0, "bike_id": "22c503203a154a9b129a562d483a7871", "is_reserved": 0, "rental_uris": {"android": "https://dc.lft.to/lastmile_qr_scan", "ios": "https://dc.lft.to/lastmile_qr_scan"}, "lat": 38.901664, "is_disabled": 0, "lon": -76.98082183333334}, {"fusion_lat": 0.0, "type": "electric_scooter", "name": "40487b0fb0e0f074bed5c18c94372bba", "fusion_lon": 0.0, "bike_id": "40487b0fb0e0f074bed5c18c94372bba", "is_reserved": 0, "rental_uris": {"android": "https://dc.lft.to/lastmile_qr_scan", "ios": "https://dc.lft.to/lastmile_qr_scan"}, "lat": 38.89193216666666, "is_disabled": 0, "lon": -76.9885375}, {"fusion_lat": 0.0, "type": "electric_scooter", "name": "d0cb9ea8425430a4bbbde80809aa4bda", "fusion_lon": 0.0, "bike_id": "d0cb9ea8425430a4bbbde80809aa4bda", "is_reserved": 0, "rental_uris": {"android": "https://dc.lft.to/lastmile_qr_scan", "ios": "https://dc.lft.to/lastmile_qr_scan"}, "lat": 38.901905166666666, "is_disabled": 0, "lon": -77.02469966666666}, {"fusion_lat": 0.0, "type": "electric_scooter", "name": "6bdb2089a6938994479561fca6d28ac7", "fusion_lon": 0.0, "bike_id": "6bdb2089a6938994479561fca6d28ac7", "is_reserved": 0, "rental_uris": {"android": "https://dc.lft.to/lastmile_qr_scan", "ios": "https://dc.lft.to/lastmile_qr_scan"}, "lat": 38.9087065, "is_disabled": 0, "lon": -77.085955}, {"fusion_lat": 0.0, "type": "electric_scooter", "name": "f139a167203467f2647cd9aa671b465c", "fusion_lon": 0.0, "bike_id": "f139a167203467f2647cd9aa671b465c", "is_reserved": 0, "rental_uris": {"android": "https://dc.lft.to/lastmile_qr_scan", "ios": "https://dc.lft.to/lastmile_qr_scan"}, "lat": 38.92051033333333, "is_disabled": 0, "lon": -77.03390833333333}, {"fusion_lat": 0.0, "type": "electric_scooter", "name": "72114a797fb206259618ee1c6aa19edc", "fusion_lon": 0.0, "bike_id": "72114a797fb206259618ee1c6aa19edc", "is_reserved": 0, "rental_uris": {"android": "https://dc.lft.to/lastmile_qr_scan", "ios": "https://dc.lft.to/lastmile_qr_scan"}, "lat": 38.9225175, "is_disabled": 0, "lon": -77.03081916666666}, {"fusion_lat": 0.0, "type": "electric_scooter", "name": "49a6de4ba706331fda4e68576ee87132", "fusion_lon": 0.0, "bike_id": "49a6de4ba706331fda4e68576ee87132", "is_reserved": 0, "rental_uris": {"android": "https://dc.lft.to/lastmile_qr_scan", "ios": "https://dc.lft.to/lastmile_qr_scan"}, "lat": 38.9243215, "is_disabled": 0, "lon": -77.0518015}, {"fusion_lat": 0.0, "type": "electric_scooter", "name": "8a35ed6f0d54a02b27cd6494e68418c8", "fusion_lon": 0.0, "bike_id": "8a35ed6f0d54a02b27cd6494e68418c8", "is_reserved": 0, "rental_uris": {"android": "https://dc.lft.to/lastmile_qr_scan", "ios": "https://dc.lft.to/lastmile_qr_scan"}, "lat": 38.923456, "is_disabled": 0, "lon": -77.03413083333334}, {"fusion_lat": 0.0, "type": "electric_scooter", "name": "91c35f0a4ac48a25ebc7f7611d1e3a65", "fusion_lon": 0.0, "bike_id": "91c35f0a4ac48a25ebc7f7611d1e3a65", "is_reserved": 0, "rental_uris": {"android": "https://dc.lft.to/lastmile_qr_scan", "ios": "https://dc.lft.to/lastmile_qr_scan"}, "lat": 38.933808666666664, "is_disabled": 0, "lon": -77.0296505}, {"fusion_lat": 0.0, "type": "electric_scooter", "name": "0dbfd6ba1cad32629498e71752cf23e7", "fusion_lon": 0.0, "bike_id": "0dbfd6ba1cad32629498e71752cf23e7", "is_reserved": 0, "rental_uris": {"android": "https://dc.lft.to/lastmile_qr_scan", "ios": "https://dc.lft.to/lastmile_qr_scan"}, "lat": 38.91711316666667, "is_disabled": 0, "lon": -77.034169}, {"fusion_lat": 0.0, "type": "electric_scooter", "name": "28ec6213d68769133422c3f423b45d23", "fusion_lon": 0.0, "bike_id": "28ec6213d68769133422c3f423b45d23", "is_reserved": 0, "rental_uris": {"android": "https://dc.lft.to/lastmile_qr_scan", "ios": "https://dc.lft.to/lastmile_qr_scan"}, "lat": 38.92587266666666, "is_disabled": 0, "lon": -77.03982616666667}, {"fusion_lat": 0.0, "type": "electric_scooter", "name": "3b85c2f3da03008ea30153b5bf02e8e5", "fusion_lon": 0.0, "bike_id": "3b85c2f3da03008ea30153b5bf02e8e5", "is_reserved": 0, "rental_uris": {"android": "https://dc.lft.to/lastmile_qr_scan", "ios": "https://dc.lft.to/lastmile_qr_scan"}, "lat": 38.934482833333334, "is_disabled": 0, "lon": -77.02983466666667}, {"fusion_lat": 0.0, "type": "electric_scooter", "name": "7aea146d512f722b9c50483eb45ad37f", "fusion_lon": 0.0, "bike_id": "7aea146d512f722b9c50483eb45ad37f", "is_reserved": 0, "rental_uris": {"android": "https://dc.lft.to/lastmile_qr_scan", "ios": "https://dc.lft.to/lastmile_qr_scan"}, "lat": 38.9288145, "is_disabled": 0, "lon": -77.03659416666666}, {"fusion_lat": 0.0, "type": "electric_bike", "name": "5589a7d81edd2eabd3f8edbf0ef1ada6", "fusion_lon": 0.0, "bike_id": "5589a7d81edd2eabd3f8edbf0ef1ada6", "is_reserved": 0, "rental_uris": {"android": "https://dc.lft.to/lastmile_qr_scan", "ios": "https://dc.lft.to/lastmile_qr_scan"}, "lat": 38.96906583333333, "is_disabled": 0, "lon": -76.99492916666667}, {"fusion_lat": 0.0, "type": "electric_bike", "name": "0f8fcd53d4f7f04e2333fc544ee1c715", "fusion_lon": 0.0, "bike_id": "0f8fcd53d4f7f04e2333fc544ee1c715", "is_reserved": 0, "rental_uris": {"android": "https://dc.lft.to/lastmile_qr_scan", "ios": "https://dc.lft.to/lastmile_qr_scan"}, "lat": 38.9632145, "is_disabled": 0, "lon": -76.97360733333333}, {"fusion_lat": 0.0, "type": "electric_bike", "name": "d0944f863c72bc696f539abeeb1ffcb4", "fusion_lon": 0.0, "bike_id": "d0944f863c72bc696f539abeeb1ffcb4", "is_reserved": 0, "rental_uris": {"android": "https://dc.lft.to/lastmile_qr_scan", "ios": "https://dc.lft.to/lastmile_qr_scan"}, "lat": 38.866227333333335, "is_disabled": 0, "lon": -76.94568983333333}, {"fusion_lat": 0.0, "type": "electric_scooter", "name": "d3c44a0da294a50232fe7bbffa787eea", "fusion_lon": 0.0, "bike_id": "d3c44a0da294a50232fe7bbffa787eea", "is_reserved": 0, "rental_uris": {"android": "https://dc.lft.to/lastmile_qr_scan", "ios": "https://dc.lft.to/lastmile_qr_scan"}, "lat": 38.933074166666664, "is_disabled": 0, "lon": -77.03085016666667}, {"fusion_lat": 0.0, "type": "electric_scooter", "name": "528c1714bd382592a6614aa3dc366e08", "fusion_lon": 0.0, "bike_id": "528c1714bd382592a6614aa3dc366e08", "is_reserved": 0, "rental_uris": {"android": "https://dc.lft.to/lastmile_qr_scan", "ios": "https://dc.lft.to/lastmile_qr_scan"}, "lat": 38.920622333333334, "is_disabled": 0, "lon": -77.03993233333334}, {"fusion_lat": 0.0, "type": "electric_scooter", "name": "dbc792addc24036b5d601b55016b3149", "fusion_lon": 0.0, "bike_id": "dbc792addc24036b5d601b55016b3149", "is_reserved": 0, "rental_uris": {"android": "https://dc.lft.to/lastmile_qr_scan", "ios": "https://dc.lft.to/lastmile_qr_scan"}, "lat": 38.9737245, "is_disabled": 0, "lon": -77.018604}, {"fusion_lat": 0.0, "type": "electric_scooter", "name": "d01fd67c4e182bfc1e7d673e5240ff7d", "fusion_lon": 0.0, "bike_id": "d01fd67c4e182bfc1e7d673e5240ff7d", "is_reserved": 0, "rental_uris": {"android": "https://dc.lft.to/lastmile_qr_scan", "ios": "https://dc.lft.to/lastmile_qr_scan"}, "lat": 38.90111133333333, "is_disabled": 0, "lon": -77.04359116666667}, {"fusion_lat": 0.0, "type": "electric_scooter", "name": "49d0dae82c5e384f697123bbf189ebdc", "fusion_lon": 0.0, "bike_id": "49d0dae82c5e384f697123bbf189ebdc", "is_reserved": 0, "rental_uris": {"android": "https://dc.lft.to/lastmile_qr_scan", "ios": "https://dc.lft.to/lastmile_qr_scan"}, "lat": 38.9334325, "is_disabled": 0, "lon": -77.05710483333333}, {"fusion_lat": 0.0, "type": "electric_bike", "name": "de5baae5e04e9fd835347e222c296e31", "fusion_lon": 0.0, "bike_id": "de5baae5e04e9fd835347e222c296e31", "is_reserved": 0, "rental_uris": {"android": "https://dc.lft.to/lastmile_qr_scan", "ios": "https://dc.lft.to/lastmile_qr_scan"}, "lat": 38.93644116666667, "is_disabled": 0, "lon": -77.0368335}, {"fusion_lat": 0.0, "type": "electric_scooter", "name": "a67f33f2d0ba63d570df5fd02b7d4eec", "fusion_lon": 0.0, "bike_id": "a67f33f2d0ba63d570df5fd02b7d4eec", "is_reserved": 0, "rental_uris": {"android": "https://dc.lft.to/lastmile_qr_scan", "ios": "https://dc.lft.to/lastmile_qr_scan"}, "lat": 38.87076166666667, "is_disabled": 0, "lon": -76.98894433333334}, {"fusion_lat": 0.0, "type": "electric_bike", "name": "45992b120d6fc1a948b0fc22535bce51", "fusion_lon": 0.0, "bike_id": "45992b120d6fc1a948b0fc22535bce51", "is_reserved": 0, "rental_uris": {"android": "https://dc.lft.to/lastmile_qr_scan", "ios": "https://dc.lft.to/lastmile_qr_scan"}, "lat": 38.8783755, "is_disabled": 0, "lon": -76.983775}, {"fusion_lat": 0.0, "type": "electric_scooter", "name": "d322aa94594298caad082530404fcf42", "fusion_lon": 0.0, "bike_id": "d322aa94594298caad082530404fcf42", "is_reserved": 0, "rental_uris": {"android": "https://dc.lft.to/lastmile_qr_scan", "ios": "https://dc.lft.to/lastmile_qr_scan"}, "lat": 38.8858425, "is_disabled": 0, "lon": -77.01769583333333}, {"fusion_lat": 0.0, "type": "electric_scooter", "name": "a86c2b52027aeac92da24851bf581aab", "fusion_lon": 0.0, "bike_id": "a86c2b52027aeac92da24851bf581aab", "is_reserved": 0, "rental_uris": {"android": "https://dc.lft.to/lastmile_qr_scan", "ios": "https://dc.lft.to/lastmile_qr_scan"}, "lat": 38.958474, "is_disabled": 0, "lon": -77.068511}, {"fusion_lat": 0.0, "type": "electric_scooter", "name": "c714e2401af6fc33860f66f35614b3ac", "fusion_lon": 0.0, "bike_id": "c714e2401af6fc33860f66f35614b3ac", "is_reserved": 0, "rental_uris": {"android": "https://dc.lft.to/lastmile_qr_scan", "ios": "https://dc.lft.to/lastmile_qr_scan"}, "lat": 38.9067365, "is_disabled": 0, "lon": -77.00577216666667}, {"fusion_lat": 0.0, "type": "electric_scooter", "name": "6f7668fcb6ac37238ce1b75f4e0b036c", "fusion_lon": 0.0, "bike_id": "6f7668fcb6ac37238ce1b75f4e0b036c", "is_reserved": 0, "rental_uris": {"android": "https://dc.lft.to/lastmile_qr_scan", "ios": "https://dc.lft.to/lastmile_qr_scan"}, "lat": 38.928626, "is_disabled": 0, "lon": -77.03086833333333}, {"fusion_lat": 0.0, "type": "electric_scooter", "name": "d7e1f744d10598329098c7d7941c1bc5", "fusion_lon": 0.0, "bike_id": "d7e1f744d10598329098c7d7941c1bc5", "is_reserved": 0, "rental_uris": {"android": "https://dc.lft.to/lastmile_qr_scan", "ios": "https://dc.lft.to/lastmile_qr_scan"}, "lat": 38.914853, "is_disabled": 0, "lon": -77.02581383333333}, {"fusion_lat": 0.0, "type": "electric_bike", "name": "2d9c9d7a27e25c46e50ac355743b60bd", "fusion_lon": 0.0, "bike_id": "2d9c9d7a27e25c46e50ac355743b60bd", "is_reserved": 0, "rental_uris": {"android": "https://dc.lft.to/lastmile_qr_scan", "ios": "https://dc.lft.to/lastmile_qr_scan"}, "lat": 38.93398366666667, "is_disabled": 0, "lon": -77.0354535}, {"fusion_lat": 0.0, "type": "electric_scooter", "name": "8d6f21225ce9d45030a29b91399d45f7", "fusion_lon": 0.0, "bike_id": "8d6f21225ce9d45030a29b91399d45f7", "is_reserved": 0, "rental_uris": {"android": "https://dc.lft.to/lastmile_qr_scan", "ios": "https://dc.lft.to/lastmile_qr_scan"}, "lat": 38.924852333333334, "is_disabled": 0, "lon": -77.021386}, {"fusion_lat": 0.0, "type": "electric_scooter", "name": "588689b72563ff5849689e9522bbf893", "fusion_lon": 0.0, "bike_id": "588689b72563ff5849689e9522bbf893", "is_reserved": 0, "rental_uris": {"android": "https://dc.lft.to/lastmile_qr_scan", "ios": "https://dc.lft.to/lastmile_qr_scan"}, "lat": 38.907465333333334, "is_disabled": 0, "lon": -77.00139066666667}, {"fusion_lat": 0.0, "type": "electric_scooter", "name": "a3ea37b98c62de3193dd45c468ef4adf", "fusion_lon": 0.0, "bike_id": "a3ea37b98c62de3193dd45c468ef4adf", "is_reserved": 0, "rental_uris": {"android": "https://dc.lft.to/lastmile_qr_scan", "ios": "https://dc.lft.to/lastmile_qr_scan"}, "lat": 38.9202945, "is_disabled": 0, "lon": -77.01115833333333}, {"fusion_lat": 0.0, "type": "electric_scooter", "name": "afee13247f59136785cdb7f529508353", "fusion_lon": 0.0, "bike_id": "afee13247f59136785cdb7f529508353", "is_reserved": 0, "rental_uris": {"android": "https://dc.lft.to/lastmile_qr_scan", "ios": "https://dc.lft.to/lastmile_qr_scan"}, "lat": 38.9280225, "is_disabled": 0, "lon": -77.02478783333333}, {"fusion_lat": 0.0, "type": "electric_bike", "name": "1a59c0ac0ba3ca4cf9fceaf409cc7f98", "fusion_lon": 0.0, "bike_id": "1a59c0ac0ba3ca4cf9fceaf409cc7f98", "is_reserved": 0, "rental_uris": {"android": "https://dc.lft.to/lastmile_qr_scan", "ios": "https://dc.lft.to/lastmile_qr_scan"}, "lat": 38.88871316666667, "is_disabled": 0, "lon": -77.0816985}, {"fusion_lat": 0.0, "type": "electric_scooter", "name": "fac789bcdefffcacbedc15e424486ffc", "fusion_lon": 0.0, "bike_id": "fac789bcdefffcacbedc15e424486ffc", "is_reserved": 0, "rental_uris": {"android": "https://dc.lft.to/lastmile_qr_scan", "ios": "https://dc.lft.to/lastmile_qr_scan"}, "lat": 38.93247616666667, "is_disabled": 0, "lon": -77.032857}, {"fusion_lat": 0.0, "type": "electric_scooter", "name": "3b49bdfb7c16279b42ed0bff731cabda", "fusion_lon": 0.0, "bike_id": "3b49bdfb7c16279b42ed0bff731cabda", "is_reserved": 0, "rental_uris": {"android": "https://dc.lft.to/lastmile_qr_scan", "ios": "https://dc.lft.to/lastmile_qr_scan"}, "lat": 38.9130115, "is_disabled": 0, "lon": -77.04552566666666}, {"fusion_lat": 0.0, "type": "electric_scooter", "name": "0e2cb19959ea9c3623e22f74c6016f72", "fusion_lon": 0.0, "bike_id": "0e2cb19959ea9c3623e22f74c6016f72", "is_reserved": 0, "rental_uris": {"android": "https://dc.lft.to/lastmile_qr_scan", "ios": "https://dc.lft.to/lastmile_qr_scan"}, "lat": 38.874613333333336, "is_disabled": 0, "lon": -77.00291066666666}, {"fusion_lat": 0.0, "type": "electric_scooter", "name": "75a377833ec4810b6c3ef29a584efc7a", "fusion_lon": 0.0, "bike_id": "75a377833ec4810b6c3ef29a584efc7a", "is_reserved": 0, "rental_uris": {"android": "https://dc.lft.to/lastmile_qr_scan", "ios": "https://dc.lft.to/lastmile_qr_scan"}, "lat": 38.880401666666664, "is_disabled": 0, "lon": -77.0307705}, {"fusion_lat": 0.0, "type": "electric_scooter", "name": "09d84f722842193996e1d9b505368942", "fusion_lon": 0.0, "bike_id": "09d84f722842193996e1d9b505368942", "is_reserved": 0, "rental_uris": {"android": "https://dc.lft.to/lastmile_qr_scan", "ios": "https://dc.lft.to/lastmile_qr_scan"}, "lat": 38.9224345, "is_disabled": 0, "lon": -77.0308525}, {"fusion_lat": 0.0, "type": "electric_scooter", "name": "48667ab49148858575bedc057b021e50", "fusion_lon": 0.0, "bike_id": "48667ab49148858575bedc057b021e50", "is_reserved": 0, "rental_uris": {"android": "https://dc.lft.to/lastmile_qr_scan", "ios": "https://dc.lft.to/lastmile_qr_scan"}, "lat": 38.9534175, "is_disabled": 0, "lon": -76.999822}, {"fusion_lat": 0.0, "type": "electric_scooter", "name": "2fa180a99c830b439ba59a9568b5dc23", "fusion_lon": 0.0, "bike_id": "2fa180a99c830b439ba59a9568b5dc23", "is_reserved": 0, "rental_uris": {"android": "https://dc.lft.to/lastmile_qr_scan", "ios": "https://dc.lft.to/lastmile_qr_scan"}, "lat": 38.933649, "is_disabled": 0, "lon": -77.05728816666667}, {"fusion_lat": 0.0, "type": "electric_scooter", "name": "7e01d38daf0080c783877f1e25621431", "fusion_lon": 0.0, "bike_id": "7e01d38daf0080c783877f1e25621431", "is_reserved": 0, "rental_uris": {"android": "https://dc.lft.to/lastmile_qr_scan", "ios": "https://dc.lft.to/lastmile_qr_scan"}, "lat": 38.9027015, "is_disabled": 0, "lon": -77.01225266666667}, {"fusion_lat": 0.0, "type": "electric_scooter", "name": "5f9d4c3ef5d6135b1f206a0a1087d521", "fusion_lon": 0.0, "bike_id": "5f9d4c3ef5d6135b1f206a0a1087d521", "is_reserved": 0, "rental_uris": {"android": "https://dc.lft.to/lastmile_qr_scan", "ios": "https://dc.lft.to/lastmile_qr_scan"}, "lat": 38.9073255, "is_disabled": 0, "lon": -77.0077775}, {"fusion_lat": 0.0, "type": "electric_scooter", "name": "d06bbf3168c589b758079255cef73466", "fusion_lon": 0.0, "bike_id": "d06bbf3168c589b758079255cef73466", "is_reserved": 0, "rental_uris": {"android": "https://dc.lft.to/lastmile_qr_scan", "ios": "https://dc.lft.to/lastmile_qr_scan"}, "lat": 38.87200283333333, "is_disabled": 0, "lon": -77.00572516666666}, {"fusion_lat": 0.0, "type": "electric_scooter", "name": "469dcd631f2731d686441ceae5cdde8e", "fusion_lon": 0.0, "bike_id": "469dcd631f2731d686441ceae5cdde8e", "is_reserved": 0, "rental_uris": {"android": "https://dc.lft.to/lastmile_qr_scan", "ios": "https://dc.lft.to/lastmile_qr_scan"}, "lat": 38.9356595, "is_disabled": 0, "lon": -77.0819695}, {"fusion_lat": 0.0, "type": "electric_scooter", "name": "9820eb89e057733298630a79718df7e7", "fusion_lon": 0.0, "bike_id": "9820eb89e057733298630a79718df7e7", "is_reserved": 0, "rental_uris": {"android": "https://dc.lft.to/lastmile_qr_scan", "ios": "https://dc.lft.to/lastmile_qr_scan"}, "lat": 38.899965333333334, "is_disabled": 0, "lon": -77.02625683333333}, {"fusion_lat": 0.0, "type": "electric_scooter", "name": "eaec4f3a95ff7371f18ac9cf97a292bc", "fusion_lon": 0.0, "bike_id": "eaec4f3a95ff7371f18ac9cf97a292bc", "is_reserved": 0, "rental_uris": {"android": "https://dc.lft.to/lastmile_qr_scan", "ios": "https://dc.lft.to/lastmile_qr_scan"}, "lat": 38.89225666666667, "is_disabled": 0, "lon": -77.02345016666666}, {"fusion_lat": 0.0, "type": "electric_scooter", "name": "75521036d84a3a5c75c4537da30a3ddd", "fusion_lon": 0.0, "bike_id": "75521036d84a3a5c75c4537da30a3ddd", "is_reserved": 0, "rental_uris": {"android": "https://dc.lft.to/lastmile_qr_scan", "ios": "https://dc.lft.to/lastmile_qr_scan"}, "lat": 38.90516683333333, "is_disabled": 0, "lon": -77.04824616666667}, {"fusion_lat": 0.0, "type": "electric_scooter", "name": "471e65b92c373fc6e64322012c47030b", "fusion_lon": 0.0, "bike_id": "471e65b92c373fc6e64322012c47030b", "is_reserved": 0, "rental_uris": {"android": "https://dc.lft.to/lastmile_qr_scan", "ios": "https://dc.lft.to/lastmile_qr_scan"}, "lat": 38.892913, "is_disabled": 0, "lon": -77.03209666666666}, {"fusion_lat": 0.0, "type": "electric_scooter", "name": "5f6da28142ca0c3dd3e3ba7bd508e87c", "fusion_lon": 0.0, "bike_id": "5f6da28142ca0c3dd3e3ba7bd508e87c", "is_reserved": 0, "rental_uris": {"android": "https://dc.lft.to/lastmile_qr_scan", "ios": "https://dc.lft.to/lastmile_qr_scan"}, "lat": 38.8859315, "is_disabled": 0, "lon": -77.01231916666667}, {"fusion_lat": 0.0, "type": "electric_scooter", "name": "b7c56b0eabc240171f4c2454dd8d0393", "fusion_lon": 0.0, "bike_id": "b7c56b0eabc240171f4c2454dd8d0393", "is_reserved": 0, "rental_uris": {"android": "https://dc.lft.to/lastmile_qr_scan", "ios": "https://dc.lft.to/lastmile_qr_scan"}, "lat": 38.931027, "is_disabled": 0, "lon": -77.0326795}, {"fusion_lat": 0.0, "type": "electric_bike", "name": "080451733e24724c55f5ca17f7a8d068", "fusion_lon": 0.0, "bike_id": "080451733e24724c55f5ca17f7a8d068", "is_reserved": 0, "rental_uris": {"android": "https://dc.lft.to/lastmile_qr_scan", "ios": "https://dc.lft.to/lastmile_qr_scan"}, "lat": 38.86941433333333, "is_disabled": 0, "lon": -77.09465716666666}, {"fusion_lat": 0.0, "type": "electric_scooter", "name": "857462621a4ff5b065a5caea34708717", "fusion_lon": 0.0, "bike_id": "857462621a4ff5b065a5caea34708717", "is_reserved": 0, "rental_uris": {"android": "https://dc.lft.to/lastmile_qr_scan", "ios": "https://dc.lft.to/lastmile_qr_scan"}, "lat": 38.9051565, "is_disabled": 0, "lon": -77.06858916666667}, {"fusion_lat": 0.0, "type": "electric_scooter", "name": "5d5d2ab1b8e84592806e5f5ebb80ce2a", "fusion_lon": 0.0, "bike_id": "5d5d2ab1b8e84592806e5f5ebb80ce2a", "is_reserved": 0, "rental_uris": {"android": "https://dc.lft.to/lastmile_qr_scan", "ios": "https://dc.lft.to/lastmile_qr_scan"}, "lat": 38.9196665, "is_disabled": 0, "lon": -77.0451225}, {"fusion_lat": 0.0, "type": "electric_scooter", "name": "8e702cda00c45a9996e862d97ccf0119", "fusion_lon": 0.0, "bike_id": "8e702cda00c45a9996e862d97ccf0119", "is_reserved": 0, "rental_uris": {"android": "https://dc.lft.to/lastmile_qr_scan", "ios": "https://dc.lft.to/lastmile_qr_scan"}, "lat": 38.87236133333333, "is_disabled": 0, "lon": -77.01160033333333}, {"fusion_lat": 0.0, "type": "electric_scooter", "name": "989baebdb6b617d2e75051ed88611307", "fusion_lon": 0.0, "bike_id": "989baebdb6b617d2e75051ed88611307", "is_reserved": 0, "rental_uris": {"android": "https://dc.lft.to/lastmile_qr_scan", "ios": "https://dc.lft.to/lastmile_qr_scan"}, "lat": 38.888496333333336, "is_disabled": 0, "lon": -76.92679283333334}, {"fusion_lat": 0.0, "type": "electric_scooter", "name": "7bd993b520956c351d320a26e3bfb556", "fusion_lon": 0.0, "bike_id": "7bd993b520956c351d320a26e3bfb556", "is_reserved": 0, "rental_uris": {"android": "https://dc.lft.to/lastmile_qr_scan", "ios": "https://dc.lft.to/lastmile_qr_scan"}, "lat": 38.91825583333333, "is_disabled": 0, "lon": -77.03362316666667}, {"fusion_lat": 0.0, "type": "electric_bike", "name": "ad8830daed9be7a9f8cc11e9cb23afe1", "fusion_lon": 0.0, "bike_id": "ad8830daed9be7a9f8cc11e9cb23afe1", "is_reserved": 0, "rental_uris": {"android": "https://dc.lft.to/lastmile_qr_scan", "ios": "https://dc.lft.to/lastmile_qr_scan"}, "lat": 38.98548616666667, "is_disabled": 0, "lon": -77.00401116666667}, {"fusion_lat": 0.0, "type": "electric_scooter", "name": "d3dcfb52ddfcac7689d9b6a1e6df119f", "fusion_lon": 0.0, "bike_id": "d3dcfb52ddfcac7689d9b6a1e6df119f", "is_reserved": 0, "rental_uris": {"android": "https://dc.lft.to/lastmile_qr_scan", "ios": "https://dc.lft.to/lastmile_qr_scan"}, "lat": 38.916487833333335, "is_disabled": 0, "lon": -77.03656333333333}, {"fusion_lat": 0.0, "type": "electric_scooter", "name": "455a61775a28c74925df86e82df53aef", "fusion_lon": 0.0, "bike_id": "455a61775a28c74925df86e82df53aef", "is_reserved": 0, "rental_uris": {"android": "https://dc.lft.to/lastmile_qr_scan", "ios": "https://dc.lft.to/lastmile_qr_scan"}, "lat": 38.872100833333334, "is_disabled": 0, "lon": -76.97833116666666}, {"fusion_lat": 0.0, "type": "electric_bike", "name": "20d7ca0603cd462c99c6ac1a3ffce4f4", "fusion_lon": 0.0, "bike_id": "20d7ca0603cd462c99c6ac1a3ffce4f4", "is_reserved": 0, "rental_uris": {"android": "https://dc.lft.to/lastmile_qr_scan", "ios": "https://dc.lft.to/lastmile_qr_scan"}, "lat": 38.922569, "is_disabled": 0, "lon": -77.03070383333333}, {"fusion_lat": 0.0, "type": "electric_scooter", "name": "a5b5289528ab70f441a4cf35318f80f8", "fusion_lon": 0.0, "bike_id": "a5b5289528ab70f441a4cf35318f80f8", "is_reserved": 0, "rental_uris": {"android": "https://dc.lft.to/lastmile_qr_scan", "ios": "https://dc.lft.to/lastmile_qr_scan"}, "lat": 38.93579283333333, "is_disabled": 0, "lon": -77.0811845}, {"fusion_lat": 0.0, "type": "electric_scooter", "name": "ecdcdec4a710bad923fcc2afc1b5f662", "fusion_lon": 0.0, "bike_id": "ecdcdec4a710bad923fcc2afc1b5f662", "is_reserved": 0, "rental_uris": {"android": "https://dc.lft.to/lastmile_qr_scan", "ios": "https://dc.lft.to/lastmile_qr_scan"}, "lat": 38.95069683333333, "is_disabled": 0, "lon": -77.08013416666667}, {"fusion_lat": 0.0, "type": "electric_scooter", "name": "e795c8d4cd03f81431cc1d8d0d0ce162", "fusion_lon": 0.0, "bike_id": "e795c8d4cd03f81431cc1d8d0d0ce162", "is_reserved": 0, "rental_uris": {"android": "https://dc.lft.to/lastmile_qr_scan", "ios": "https://dc.lft.to/lastmile_qr_scan"}, "lat": 38.855409333333334, "is_disabled": 0, "lon": -76.9841805}, {"fusion_lat": 0.0, "type": "electric_scooter", "name": "deb881cc5ffb4f37b9ee45f8396a3a53", "fusion_lon": 0.0, "bike_id": "deb881cc5ffb4f37b9ee45f8396a3a53", "is_reserved": 0, "rental_uris": {"android": "https://dc.lft.to/lastmile_qr_scan", "ios": "https://dc.lft.to/lastmile_qr_scan"}, "lat": 38.897281666666665, "is_disabled": 0, "lon": -77.0273625}, {"fusion_lat": 0.0, "type": "electric_scooter", "name": "5c6d29d2900f7c45be6dae484ea1a7d0", "fusion_lon": 0.0, "bike_id": "5c6d29d2900f7c45be6dae484ea1a7d0", "is_reserved": 0, "rental_uris": {"android": "https://dc.lft.to/lastmile_qr_scan", "ios": "https://dc.lft.to/lastmile_qr_scan"}, "lat": 38.884822166666666, "is_disabled": 0, "lon": -76.9262015}, {"fusion_lat": 0.0, "type": "electric_scooter", "name": "655e955f1aee6268e842cb874a08410d", "fusion_lon": 0.0, "bike_id": "655e955f1aee6268e842cb874a08410d", "is_reserved": 0, "rental_uris": {"android": "https://dc.lft.to/lastmile_qr_scan", "ios": "https://dc.lft.to/lastmile_qr_scan"}, "lat": 38.92713966666667, "is_disabled": 0, "lon": -77.020997}, {"fusion_lat": 0.0, "type": "electric_scooter", "name": "6b2dcdd6201b7a62fdfa199c8654d463", "fusion_lon": 0.0, "bike_id": "6b2dcdd6201b7a62fdfa199c8654d463", "is_reserved": 0, "rental_uris": {"android": "https://dc.lft.to/lastmile_qr_scan", "ios": "https://dc.lft.to/lastmile_qr_scan"}, "lat": 38.89235983333333, "is_disabled": 0, "lon": -77.0318455}, {"fusion_lat": 0.0, "type": "electric_scooter", "name": "0ae0bfb5d591516786cd3672840d2b27", "fusion_lon": 0.0, "bike_id": "0ae0bfb5d591516786cd3672840d2b27", "is_reserved": 0, "rental_uris": {"android": "https://dc.lft.to/lastmile_qr_scan", "ios": "https://dc.lft.to/lastmile_qr_scan"}, "lat": 38.931759, "is_disabled": 0, "lon": -77.07101183333333}, {"fusion_lat": 0.0, "type": "electric_bike", "name": "e012cd41e3ea16b4908b9b3d838dd46b", "fusion_lon": 0.0, "bike_id": "e012cd41e3ea16b4908b9b3d838dd46b", "is_reserved": 0, "rental_uris": {"android": "https://dc.lft.to/lastmile_qr_scan", "ios": "https://dc.lft.to/lastmile_qr_scan"}, "lat": 38.9164365, "is_disabled": 0, "lon": -76.97304683333333}, {"fusion_lat": 0.0, "type": "electric_scooter", "name": "c46d65a3126ae3bafa8070db8ef6fd4d", "fusion_lon": 0.0, "bike_id": "c46d65a3126ae3bafa8070db8ef6fd4d", "is_reserved": 0, "rental_uris": {"android": "https://dc.lft.to/lastmile_qr_scan", "ios": "https://dc.lft.to/lastmile_qr_scan"}, "lat": 38.9441785, "is_disabled": 0, "lon": -77.026001}, {"fusion_lat": 0.0, "type": "electric_scooter", "name": "f23d8f21ea2cd529859f3cd48c6f4409", "fusion_lon": 0.0, "bike_id": "f23d8f21ea2cd529859f3cd48c6f4409", "is_reserved": 0, "rental_uris": {"android": "https://dc.lft.to/lastmile_qr_scan", "ios": "https://dc.lft.to/lastmile_qr_scan"}, "lat": 38.90083516666667, "is_disabled": 0, "lon": -76.93020066666666}, {"fusion_lat": 0.0, "type": "electric_scooter", "name": "e5ddf49ef3f82b44695eebc276d78917", "fusion_lon": 0.0, "bike_id": "e5ddf49ef3f82b44695eebc276d78917", "is_reserved": 0, "rental_uris": {"android": "https://dc.lft.to/lastmile_qr_scan", "ios": "https://dc.lft.to/lastmile_qr_scan"}, "lat": 38.892782833333335, "is_disabled": 0, "lon": -77.04874283333334}, {"fusion_lat": 0.0, "type": "electric_bike", "name": "52458b974991beecb068b39aa65c0a92", "fusion_lon": 0.0, "bike_id": "52458b974991beecb068b39aa65c0a92", "is_reserved": 0, "rental_uris": {"android": "https://dc.lft.to/lastmile_qr_scan", "ios": "https://dc.lft.to/lastmile_qr_scan"}, "lat": 38.82952866666667, "is_disabled": 0, "lon": -77.12353883333333}, {"fusion_lat": 0.0, "type": "electric_scooter", "name": "a8df686af7c5b1035e33f9f66233cba6", "fusion_lon": 0.0, "bike_id": "a8df686af7c5b1035e33f9f66233cba6", "is_reserved": 0, "rental_uris": {"android": "https://dc.lft.to/lastmile_qr_scan", "ios": "https://dc.lft.to/lastmile_qr_scan"}, "lat": 38.91169683333333, "is_disabled": 0, "lon": -77.00468116666667}, {"fusion_lat": 0.0, "type": "electric_scooter", "name": "569711dda8ed56cc6582d09393a02d72", "fusion_lon": 0.0, "bike_id": "569711dda8ed56cc6582d09393a02d72", "is_reserved": 0, "rental_uris": {"android": "https://dc.lft.to/lastmile_qr_scan", "ios": "https://dc.lft.to/lastmile_qr_scan"}, "lat": 38.909675, "is_disabled": 0, "lon": -77.03238733333333}, {"fusion_lat": 0.0, "type": "electric_scooter", "name": "ea13360b44d1a17ca0b9f0f3ac7fe3d1", "fusion_lon": 0.0, "bike_id": "ea13360b44d1a17ca0b9f0f3ac7fe3d1", "is_reserved": 0, "rental_uris": {"android": "https://dc.lft.to/lastmile_qr_scan", "ios": "https://dc.lft.to/lastmile_qr_scan"}, "lat": 38.91988466666667, "is_disabled": 0, "lon": -77.024068}, {"fusion_lat": 0.0, "type": "electric_scooter", "name": "4db762ec7407b63711b7f884de6d7c78", "fusion_lon": 0.0, "bike_id": "4db762ec7407b63711b7f884de6d7c78", "is_reserved": 0, "rental_uris": {"android": "https://dc.lft.to/lastmile_qr_scan", "ios": "https://dc.lft.to/lastmile_qr_scan"}, "lat": 38.93145416666667, "is_disabled": 0, "lon": -77.02987083333333}, {"fusion_lat": 0.0, "type": "electric_scooter", "name": "35a6c1b93ec06c0f28924d137f0a6a5a", "fusion_lon": 0.0, "bike_id": "35a6c1b93ec06c0f28924d137f0a6a5a", "is_reserved": 0, "rental_uris": {"android": "https://dc.lft.to/lastmile_qr_scan", "ios": "https://dc.lft.to/lastmile_qr_scan"}, "lat": 38.92746266666666, "is_disabled": 0, "lon": -77.02143283333334}, {"fusion_lat": 0.0, "type": "electric_scooter", "name": "b09239a15c00aa11f5debb00ab23cd31", "fusion_lon": 0.0, "bike_id": "b09239a15c00aa11f5debb00ab23cd31", "is_reserved": 0, "rental_uris": {"android": "https://dc.lft.to/lastmile_qr_scan", "ios": "https://dc.lft.to/lastmile_qr_scan"}, "lat": 38.926877833333336, "is_disabled": 0, "lon": -77.01517233333334}, {"fusion_lat": 0.0, "type": "electric_scooter", "name": "876e1e7ee158d3beb4307ea270b95831", "fusion_lon": 0.0, "bike_id": "876e1e7ee158d3beb4307ea270b95831", "is_reserved": 0, "rental_uris": {"android": "https://dc.lft.to/lastmile_qr_scan", "ios": "https://dc.lft.to/lastmile_qr_scan"}, "lat": 38.881243, "is_disabled": 0, "lon": -76.99006083333333}, {"fusion_lat": 0.0, "type": "electric_scooter", "name": "707d53f9bc683a2a2fa6a567badc2939", "fusion_lon": 0.0, "bike_id": "707d53f9bc683a2a2fa6a567badc2939", "is_reserved": 0, "rental_uris": {"android": "https://dc.lft.to/lastmile_qr_scan", "ios": "https://dc.lft.to/lastmile_qr_scan"}, "lat": 38.9279905, "is_disabled": 0, "lon": -77.03150683333334}, {"fusion_lat": 0.0, "type": "electric_scooter", "name": "33f797a3caf4e28b28516df097805726", "fusion_lon": 0.0, "bike_id": "33f797a3caf4e28b28516df097805726", "is_reserved": 0, "rental_uris": {"android": "https://dc.lft.to/lastmile_qr_scan", "ios": "https://dc.lft.to/lastmile_qr_scan"}, "lat": 38.91131516666667, "is_disabled": 0, "lon": -77.0220145}, {"fusion_lat": 0.0, "type": "electric_scooter", "name": "848f8173a9b6270a41872f6d9c9a0060", "fusion_lon": 0.0, "bike_id": "848f8173a9b6270a41872f6d9c9a0060", "is_reserved": 0, "rental_uris": {"android": "https://dc.lft.to/lastmile_qr_scan", "ios": "https://dc.lft.to/lastmile_qr_scan"}, "lat": 38.909789333333336, "is_disabled": 0, "lon": -77.03439166666666}, {"fusion_lat": 0.0, "type": "electric_scooter", "name": "6e2eb0bf3fef11fe8790ecdcf73cd56e", "fusion_lon": 0.0, "bike_id": "6e2eb0bf3fef11fe8790ecdcf73cd56e", "is_reserved": 0, "rental_uris": {"android": "https://dc.lft.to/lastmile_qr_scan", "ios": "https://dc.lft.to/lastmile_qr_scan"}, "lat": 38.91738683333333, "is_disabled": 0, "lon": -77.01795466666667}, {"fusion_lat": 0.0, "type": "electric_scooter", "name": "f649e86f20d5f36ce7fece57bab90ae0", "fusion_lon": 0.0, "bike_id": "f649e86f20d5f36ce7fece57bab90ae0", "is_reserved": 0, "rental_uris": {"android": "https://dc.lft.to/lastmile_qr_scan", "ios": "https://dc.lft.to/lastmile_qr_scan"}, "lat": 38.91072316666666, "is_disabled": 0, "lon": -77.05311683333333}, {"fusion_lat": 0.0, "type": "electric_scooter", "name": "e58d2fdf7bb3429ce325651ddab616f3", "fusion_lon": 0.0, "bike_id": "e58d2fdf7bb3429ce325651ddab616f3", "is_reserved": 0, "rental_uris": {"android": "https://dc.lft.to/lastmile_qr_scan", "ios": "https://dc.lft.to/lastmile_qr_scan"}, "lat": 38.900125, "is_disabled": 0, "lon": -77.03960783333333}, {"fusion_lat": 0.0, "type": "electric_scooter", "name": "33517fda1bd95a247e8f00af29dd7a9a", "fusion_lon": 0.0, "bike_id": "33517fda1bd95a247e8f00af29dd7a9a", "is_reserved": 0, "rental_uris": {"android": "https://dc.lft.to/lastmile_qr_scan", "ios": "https://dc.lft.to/lastmile_qr_scan"}, "lat": 38.9001805, "is_disabled": 0, "lon": -76.99307783333333}, {"fusion_lat": 0.0, "type": "electric_scooter", "name": "564a57a9faebfa7dd92d3bd8b90355bd", "fusion_lon": 0.0, "bike_id": "564a57a9faebfa7dd92d3bd8b90355bd", "is_reserved": 0, "rental_uris": {"android": "https://dc.lft.to/lastmile_qr_scan", "ios": "https://dc.lft.to/lastmile_qr_scan"}, "lat": 38.93711166666667, "is_disabled": 0, "lon": -77.06108016666667}, {"fusion_lat": 0.0, "type": "electric_scooter", "name": "d8f6e76319d6e2a7de72def40697c710", "fusion_lon": 0.0, "bike_id": "d8f6e76319d6e2a7de72def40697c710", "is_reserved": 0, "rental_uris": {"android": "https://dc.lft.to/lastmile_qr_scan", "ios": "https://dc.lft.to/lastmile_qr_scan"}, "lat": 38.89737483333333, "is_disabled": 0, "lon": -77.013108}, {"fusion_lat": 0.0, "type": "electric_scooter", "name": "b219644f529a16708d02f7a5303e2609", "fusion_lon": 0.0, "bike_id": "b219644f529a16708d02f7a5303e2609", "is_reserved": 0, "rental_uris": {"android": "https://dc.lft.to/lastmile_qr_scan", "ios": "https://dc.lft.to/lastmile_qr_scan"}, "lat": 38.888267666666664, "is_disabled": 0, "lon": -76.993754}, {"fusion_lat": 0.0, "type": "electric_scooter", "name": "f3b4c59a974206048d3ceb2be989707e", "fusion_lon": 0.0, "bike_id": "f3b4c59a974206048d3ceb2be989707e", "is_reserved": 0, "rental_uris": {"android": "https://dc.lft.to/lastmile_qr_scan", "ios": "https://dc.lft.to/lastmile_qr_scan"}, "lat": 38.866867166666665, "is_disabled": 0, "lon": -76.98594716666666}, {"fusion_lat": 0.0, "type": "electric_bike", "name": "5c922f4851fe9c82a2c5d42e55aeb369", "fusion_lon": 0.0, "bike_id": "5c922f4851fe9c82a2c5d42e55aeb369", "is_reserved": 0, "rental_uris": {"android": "https://dc.lft.to/lastmile_qr_scan", "ios": "https://dc.lft.to/lastmile_qr_scan"}, "lat": 38.96228683333333, "is_disabled": 0, "lon": -77.02635266666667}, {"fusion_lat": 0.0, "type": "electric_scooter", "name": "3175414550f5204192714e1de6d335cf", "fusion_lon": 0.0, "bike_id": "3175414550f5204192714e1de6d335cf", "is_reserved": 0, "rental_uris": {"android": "https://dc.lft.to/lastmile_qr_scan", "ios": "https://dc.lft.to/lastmile_qr_scan"}, "lat": 38.908559833333335, "is_disabled": 0, "lon": -77.04293633333333}, {"fusion_lat": 0.0, "type": "electric_scooter", "name": "1373945b708223a2a9e78b661a1c04b3", "fusion_lon": 0.0, "bike_id": "1373945b708223a2a9e78b661a1c04b3", "is_reserved": 0, "rental_uris": {"android": "https://dc.lft.to/lastmile_qr_scan", "ios": "https://dc.lft.to/lastmile_qr_scan"}, "lat": 38.9275265, "is_disabled": 0, "lon": -77.02531633333334}, {"fusion_lat": 0.0, "type": "electric_scooter", "name": "df71c6b2db518ee2737b37b95734d4ba", "fusion_lon": 0.0, "bike_id": "df71c6b2db518ee2737b37b95734d4ba", "is_reserved": 0, "rental_uris": {"android": "https://dc.lft.to/lastmile_qr_scan", "ios": "https://dc.lft.to/lastmile_qr_scan"}, "lat": 38.92373933333333, "is_disabled": 0, "lon": -77.02800216666667}, {"fusion_lat": 0.0, "type": "electric_scooter", "name": "e60fb79cd97cda54a382d03f7ff0beec", "fusion_lon": 0.0, "bike_id": "e60fb79cd97cda54a382d03f7ff0beec", "is_reserved": 0, "rental_uris": {"android": "https://dc.lft.to/lastmile_qr_scan", "ios": "https://dc.lft.to/lastmile_qr_scan"}, "lat": 38.898872, "is_disabled": 0, "lon": -76.93173016666667}, {"fusion_lat": 0.0, "type": "electric_scooter", "name": "df2e1a41858d810292c63a46196e03c2", "fusion_lon": 0.0, "bike_id": "df2e1a41858d810292c63a46196e03c2", "is_reserved": 0, "rental_uris": {"android": "https://dc.lft.to/lastmile_qr_scan", "ios": "https://dc.lft.to/lastmile_qr_scan"}, "lat": 38.94900883333333, "is_disabled": 0, "lon": -77.0064385}, {"fusion_lat": 0.0, "type": "electric_scooter", "name": "14f0a06f5299397a825a8c4ae909585f", "fusion_lon": 0.0, "bike_id": "14f0a06f5299397a825a8c4ae909585f", "is_reserved": 0, "rental_uris": {"android": "https://dc.lft.to/lastmile_qr_scan", "ios": "https://dc.lft.to/lastmile_qr_scan"}, "lat": 38.89225166666667, "is_disabled": 0, "lon": -77.04682966666667}, {"fusion_lat": 0.0, "type": "electric_scooter", "name": "2bcc84db3cd532ad84f6552a6d38b0eb", "fusion_lon": 0.0, "bike_id": "2bcc84db3cd532ad84f6552a6d38b0eb", "is_reserved": 0, "rental_uris": {"android": "https://dc.lft.to/lastmile_qr_scan", "ios": "https://dc.lft.to/lastmile_qr_scan"}, "lat": 38.9095635, "is_disabled": 0, "lon": -77.02719633333334}, {"fusion_lat": 0.0, "type": "electric_scooter", "name": "edc13b3e5edb27ee2f7d555a0b796524", "fusion_lon": 0.0, "bike_id": "edc13b3e5edb27ee2f7d555a0b796524", "is_reserved": 0, "rental_uris": {"android": "https://dc.lft.to/lastmile_qr_scan", "ios": "https://dc.lft.to/lastmile_qr_scan"}, "lat": 38.93537416666667, "is_disabled": 0, "lon": -77.023449}, {"fusion_lat": 0.0, "type": "electric_scooter", "name": "b6b6c3a8b744308ae12f99fc9c679ecb", "fusion_lon": 0.0, "bike_id": "b6b6c3a8b744308ae12f99fc9c679ecb", "is_reserved": 0, "rental_uris": {"android": "https://dc.lft.to/lastmile_qr_scan", "ios": "https://dc.lft.to/lastmile_qr_scan"}, "lat": 38.934613166666665, "is_disabled": 0, "lon": -77.05781783333333}, {"fusion_lat": 0.0, "type": "electric_scooter", "name": "432bf6c1daebfee00895c31d3efbc0ea", "fusion_lon": 0.0, "bike_id": "432bf6c1daebfee00895c31d3efbc0ea", "is_reserved": 0, "rental_uris": {"android": "https://dc.lft.to/lastmile_qr_scan", "ios": "https://dc.lft.to/lastmile_qr_scan"}, "lat": 38.90992166666667, "is_disabled": 0, "lon": -77.00909683333333}, {"fusion_lat": 0.0, "type": "electric_scooter", "name": "b2c168d48641bc8618bc2e08cadc2fb7", "fusion_lon": 0.0, "bike_id": "b2c168d48641bc8618bc2e08cadc2fb7", "is_reserved": 0, "rental_uris": {"android": "https://dc.lft.to/lastmile_qr_scan", "ios": "https://dc.lft.to/lastmile_qr_scan"}, "lat": 38.923126, "is_disabled": 0, "lon": -77.04458866666667}, {"fusion_lat": 0.0, "type": "electric_scooter", "name": "8a8181932df3d4d8768dfb4a6d1a6e15", "fusion_lon": 0.0, "bike_id": "8a8181932df3d4d8768dfb4a6d1a6e15", "is_reserved": 0, "rental_uris": {"android": "https://dc.lft.to/lastmile_qr_scan", "ios": "https://dc.lft.to/lastmile_qr_scan"}, "lat": 38.87466583333333, "is_disabled": 0, "lon": -77.00958}, {"fusion_lat": 0.0, "type": "electric_scooter", "name": "d0cb1a3f1b8ec96a975e2baa42a425d1", "fusion_lon": 0.0, "bike_id": "d0cb1a3f1b8ec96a975e2baa42a425d1", "is_reserved": 0, "rental_uris": {"android": "https://dc.lft.to/lastmile_qr_scan", "ios": "https://dc.lft.to/lastmile_qr_scan"}, "lat": 38.8984575, "is_disabled": 0, "lon": -76.94640716666666}, {"fusion_lat": 0.0, "type": "electric_scooter", "name": "14474571bebe04012a1743d1874e2ca2", "fusion_lon": 0.0, "bike_id": "14474571bebe04012a1743d1874e2ca2", "is_reserved": 0, "rental_uris": {"android": "https://dc.lft.to/lastmile_qr_scan", "ios": "https://dc.lft.to/lastmile_qr_scan"}, "lat": 38.9088975, "is_disabled": 0, "lon": -77.0322355}, {"fusion_lat": 0.0, "type": "electric_scooter", "name": "3e42819b872af33095f144ec3d0ef1b1", "fusion_lon": 0.0, "bike_id": "3e42819b872af33095f144ec3d0ef1b1", "is_reserved": 0, "rental_uris": {"android": "https://dc.lft.to/lastmile_qr_scan", "ios": "https://dc.lft.to/lastmile_qr_scan"}, "lat": 38.860631, "is_disabled": 0, "lon": -76.98419833333334}, {"fusion_lat": 0.0, "type": "electric_scooter", "name": "3b02ff45b970065792ae79e58a19a4a9", "fusion_lon": 0.0, "bike_id": "3b02ff45b970065792ae79e58a19a4a9", "is_reserved": 0, "rental_uris": {"android": "https://dc.lft.to/lastmile_qr_scan", "ios": "https://dc.lft.to/lastmile_qr_scan"}, "lat": 38.9038875, "is_disabled": 0, "lon": -77.017413}, {"fusion_lat": 0.0, "type": "electric_bike", "name": "d31c143be96e9faf075e5174339865b0", "fusion_lon": 0.0, "bike_id": "d31c143be96e9faf075e5174339865b0", "is_reserved": 0, "rental_uris": {"android": "https://dc.lft.to/lastmile_qr_scan", "ios": "https://dc.lft.to/lastmile_qr_scan"}, "lat": 38.877326833333335, "is_disabled": 0, "lon": -76.98105333333334}, {"fusion_lat": 0.0, "type": "electric_scooter", "name": "c3ef4ab3f72d9fc0feeac42da3b2590d", "fusion_lon": 0.0, "bike_id": "c3ef4ab3f72d9fc0feeac42da3b2590d", "is_reserved": 0, "rental_uris": {"android": "https://dc.lft.to/lastmile_qr_scan", "ios": "https://dc.lft.to/lastmile_qr_scan"}, "lat": 38.918562666666666, "is_disabled": 0, "lon": -77.025379}, {"fusion_lat": 0.0, "type": "electric_scooter", "name": "006803afe1c9b622ef2587c2a58cf49c", "fusion_lon": 0.0, "bike_id": "006803afe1c9b622ef2587c2a58cf49c", "is_reserved": 0, "rental_uris": {"android": "https://dc.lft.to/lastmile_qr_scan", "ios": "https://dc.lft.to/lastmile_qr_scan"}, "lat": 38.919957833333335, "is_disabled": 0, "lon": -77.0320295}, {"fusion_lat": 0.0, "type": "electric_bike", "name": "41646f82e79a8d64020c9c472f12b5fd", "fusion_lon": 0.0, "bike_id": "41646f82e79a8d64020c9c472f12b5fd", "is_reserved": 0, "rental_uris": {"android": "https://dc.lft.to/lastmile_qr_scan", "ios": "https://dc.lft.to/lastmile_qr_scan"}, "lat": 38.919556166666666, "is_disabled": 0, "lon": -77.045029}, {"fusion_lat": 0.0, "type": "electric_scooter", "name": "53e19e26996e61bd6f13cb565f32ecb7", "fusion_lon": 0.0, "bike_id": "53e19e26996e61bd6f13cb565f32ecb7", "is_reserved": 0, "rental_uris": {"android": "https://dc.lft.to/lastmile_qr_scan", "ios": "https://dc.lft.to/lastmile_qr_scan"}, "lat": 38.89356183333334, "is_disabled": 0, "lon": -77.00335566666666}, {"fusion_lat": 0.0, "type": "electric_scooter", "name": "38e6bfd91eecf81a2aef11c5b0019d25", "fusion_lon": 0.0, "bike_id": "38e6bfd91eecf81a2aef11c5b0019d25", "is_reserved": 0, "rental_uris": {"android": "https://dc.lft.to/lastmile_qr_scan", "ios": "https://dc.lft.to/lastmile_qr_scan"}, "lat": 38.93715866666667, "is_disabled": 0, "lon": -77.03634566666666}, {"fusion_lat": 0.0, "type": "electric_scooter", "name": "1d653527c59e1af74054d7bef43494eb", "fusion_lon": 0.0, "bike_id": "1d653527c59e1af74054d7bef43494eb", "is_reserved": 0, "rental_uris": {"android": "https://dc.lft.to/lastmile_qr_scan", "ios": "https://dc.lft.to/lastmile_qr_scan"}, "lat": 38.940846666666665, "is_disabled": 0, "lon": -77.02724016666667}, {"fusion_lat": 0.0, "type": "electric_scooter", "name": "4fb439527a5d11ff6d39491aef12a36a", "fusion_lon": 0.0, "bike_id": "4fb439527a5d11ff6d39491aef12a36a", "is_reserved": 0, "rental_uris": {"android": "https://dc.lft.to/lastmile_qr_scan", "ios": "https://dc.lft.to/lastmile_qr_scan"}, "lat": 38.916824, "is_disabled": 0, "lon": -77.03688033333333}, {"fusion_lat": 0.0, "type": "electric_scooter", "name": "5bc331041a2775a730965277625ff869", "fusion_lon": 0.0, "bike_id": "5bc331041a2775a730965277625ff869", "is_reserved": 0, "rental_uris": {"android": "https://dc.lft.to/lastmile_qr_scan", "ios": "https://dc.lft.to/lastmile_qr_scan"}, "lat": 38.920625666666666, "is_disabled": 0, "lon": -77.02371266666667}, {"fusion_lat": 0.0, "type": "electric_scooter", "name": "c8ee4e8f263da20e8f30c712b6b24e72", "fusion_lon": 0.0, "bike_id": "c8ee4e8f263da20e8f30c712b6b24e72", "is_reserved": 0, "rental_uris": {"android": "https://dc.lft.to/lastmile_qr_scan", "ios": "https://dc.lft.to/lastmile_qr_scan"}, "lat": 38.8917055, "is_disabled": 0, "lon": -77.01546433333333}, {"fusion_lat": 0.0, "type": "electric_scooter", "name": "f2ab2cd3fd26bee93b923adc29b4c06e", "fusion_lon": 0.0, "bike_id": "f2ab2cd3fd26bee93b923adc29b4c06e", "is_reserved": 0, "rental_uris": {"android": "https://dc.lft.to/lastmile_qr_scan", "ios": "https://dc.lft.to/lastmile_qr_scan"}, "lat": 38.906484166666665, "is_disabled": 0, "lon": -77.0480505}, {"fusion_lat": 0.0, "type": "electric_scooter", "name": "d2b655de20b22c259a7ea043c1148842", "fusion_lon": 0.0, "bike_id": "d2b655de20b22c259a7ea043c1148842", "is_reserved": 0, "rental_uris": {"android": "https://dc.lft.to/lastmile_qr_scan", "ios": "https://dc.lft.to/lastmile_qr_scan"}, "lat": 38.90842266666667, "is_disabled": 0, "lon": -77.00203033333334}, {"fusion_lat": 0.0, "type": "electric_scooter", "name": "64d7b2f8cce025377082ca53dd236e39", "fusion_lon": 0.0, "bike_id": "64d7b2f8cce025377082ca53dd236e39", "is_reserved": 0, "rental_uris": {"android": "https://dc.lft.to/lastmile_qr_scan", "ios": "https://dc.lft.to/lastmile_qr_scan"}, "lat": 38.92130233333334, "is_disabled": 0, "lon": -76.99547366666667}, {"fusion_lat": 0.0, "type": "electric_scooter", "name": "e69cb75e505523d3865aec68c9ec5dbe", "fusion_lon": 0.0, "bike_id": "e69cb75e505523d3865aec68c9ec5dbe", "is_reserved": 0, "rental_uris": {"android": "https://dc.lft.to/lastmile_qr_scan", "ios": "https://dc.lft.to/lastmile_qr_scan"}, "lat": 38.941833333333335, "is_disabled": 0, "lon": -77.0274755}, {"fusion_lat": 0.0, "type": "electric_bike", "name": "fd19aa8c4311d148ca5d460c52db318e", "fusion_lon": 0.0, "bike_id": "fd19aa8c4311d148ca5d460c52db318e", "is_reserved": 0, "rental_uris": {"android": "https://dc.lft.to/lastmile_qr_scan", "ios": "https://dc.lft.to/lastmile_qr_scan"}, "lat": 38.89821933333333, "is_disabled": 0, "lon": -76.99064183333333}, {"fusion_lat": 0.0, "type": "electric_scooter", "name": "be59efa9d165725419bb0b6c6f6c2bf4", "fusion_lon": 0.0, "bike_id": "be59efa9d165725419bb0b6c6f6c2bf4", "is_reserved": 0, "rental_uris": {"android": "https://dc.lft.to/lastmile_qr_scan", "ios": "https://dc.lft.to/lastmile_qr_scan"}, "lat": 38.8922955, "is_disabled": 0, "lon": -77.03188733333333}, {"fusion_lat": 0.0, "type": "electric_scooter", "name": "0d842a20e959ea089817d779fd7ccc56", "fusion_lon": 0.0, "bike_id": "0d842a20e959ea089817d779fd7ccc56", "is_reserved": 0, "rental_uris": {"android": "https://dc.lft.to/lastmile_qr_scan", "ios": "https://dc.lft.to/lastmile_qr_scan"}, "lat": 38.933779, "is_disabled": 0, "lon": -77.03555666666666}, {"fusion_lat": 0.0, "type": "electric_scooter", "name": "3ca5b908ec50ad70bc86383bf7a39940", "fusion_lon": 0.0, "bike_id": "3ca5b908ec50ad70bc86383bf7a39940", "is_reserved": 0, "rental_uris": {"android": "https://dc.lft.to/lastmile_qr_scan", "ios": "https://dc.lft.to/lastmile_qr_scan"}, "lat": 38.89564266666667, "is_disabled": 0, "lon": -77.04675333333333}, {"fusion_lat": 0.0, "type": "electric_scooter", "name": "d06a7b4da6b8fd2cfbc2c226417f35b3", "fusion_lon": 0.0, "bike_id": "d06a7b4da6b8fd2cfbc2c226417f35b3", "is_reserved": 0, "rental_uris": {"android": "https://dc.lft.to/lastmile_qr_scan", "ios": "https://dc.lft.to/lastmile_qr_scan"}, "lat": 38.92789116666667, "is_disabled": 0, "lon": -77.05261}, {"fusion_lat": 0.0, "type": "electric_scooter", "name": "4e5a2affc61c0312dc562d2c03a64fe1", "fusion_lon": 0.0, "bike_id": "4e5a2affc61c0312dc562d2c03a64fe1", "is_reserved": 0, "rental_uris": {"android": "https://dc.lft.to/lastmile_qr_scan", "ios": "https://dc.lft.to/lastmile_qr_scan"}, "lat": 38.90737983333333, "is_disabled": 0, "lon": -77.02690533333333}, {"fusion_lat": 0.0, "type": "electric_scooter", "name": "bd70007c2970d8e34f67ba0ecb25cb0c", "fusion_lon": 0.0, "bike_id": "bd70007c2970d8e34f67ba0ecb25cb0c", "is_reserved": 0, "rental_uris": {"android": "https://dc.lft.to/lastmile_qr_scan", "ios": "https://dc.lft.to/lastmile_qr_scan"}, "lat": 38.918737, "is_disabled": 0, "lon": -77.03478833333334}, {"fusion_lat": 0.0, "type": "electric_scooter", "name": "d4ddd1159a9b6ad0004df317b06f05f3", "fusion_lon": 0.0, "bike_id": "d4ddd1159a9b6ad0004df317b06f05f3", "is_reserved": 0, "rental_uris": {"android": "https://dc.lft.to/lastmile_qr_scan", "ios": "https://dc.lft.to/lastmile_qr_scan"}, "lat": 38.903995333333334, "is_disabled": 0, "lon": -77.02949333333333}, {"fusion_lat": 0.0, "type": "electric_scooter", "name": "2df0d15296277e079e431b86937ea612", "fusion_lon": 0.0, "bike_id": "2df0d15296277e079e431b86937ea612", "is_reserved": 0, "rental_uris": {"android": "https://dc.lft.to/lastmile_qr_scan", "ios": "https://dc.lft.to/lastmile_qr_scan"}, "lat": 38.92904983333333, "is_disabled": 0, "lon": -77.05460966666666}, {"fusion_lat": 0.0, "type": "electric_scooter", "name": "03a01a7c4662c0267c3d65f1860cbc51", "fusion_lon": 0.0, "bike_id": "03a01a7c4662c0267c3d65f1860cbc51", "is_reserved": 0, "rental_uris": {"android": "https://dc.lft.to/lastmile_qr_scan", "ios": "https://dc.lft.to/lastmile_qr_scan"}, "lat": 38.92912316666666, "is_disabled": 0, "lon": -77.02091033333333}, {"fusion_lat": 0.0, "type": "electric_scooter", "name": "88eef0eda81bb7318427ae1005d61c9d", "fusion_lon": 0.0, "bike_id": "88eef0eda81bb7318427ae1005d61c9d", "is_reserved": 0, "rental_uris": {"android": "https://dc.lft.to/lastmile_qr_scan", "ios": "https://dc.lft.to/lastmile_qr_scan"}, "lat": 38.880882166666666, "is_disabled": 0, "lon": -76.93006583333333}, {"fusion_lat": 0.0, "type": "electric_scooter", "name": "6344aa901c04fe8699f3acf9afa328f6", "fusion_lon": 0.0, "bike_id": "6344aa901c04fe8699f3acf9afa328f6", "is_reserved": 0, "rental_uris": {"android": "https://dc.lft.to/lastmile_qr_scan", "ios": "https://dc.lft.to/lastmile_qr_scan"}, "lat": 38.91124216666667, "is_disabled": 0, "lon": -77.0652505}, {"fusion_lat": 0.0, "type": "electric_scooter", "name": "9b47daf9744d63969321e6dc8df3a815", "fusion_lon": 0.0, "bike_id": "9b47daf9744d63969321e6dc8df3a815", "is_reserved": 0, "rental_uris": {"android": "https://dc.lft.to/lastmile_qr_scan", "ios": "https://dc.lft.to/lastmile_qr_scan"}, "lat": 38.918197166666666, "is_disabled": 0, "lon": -77.0318125}, {"fusion_lat": 0.0, "type": "electric_scooter", "name": "b997b833831347e813dcb609b95d8a59", "fusion_lon": 0.0, "bike_id": "b997b833831347e813dcb609b95d8a59", "is_reserved": 0, "rental_uris": {"android": "https://dc.lft.to/lastmile_qr_scan", "ios": "https://dc.lft.to/lastmile_qr_scan"}, "lat": 38.851970666666666, "is_disabled": 0, "lon": -76.97074616666667}, {"fusion_lat": 0.0, "type": "electric_scooter", "name": "bb9f04866285023502f324c49adbfb2e", "fusion_lon": 0.0, "bike_id": "bb9f04866285023502f324c49adbfb2e", "is_reserved": 0, "rental_uris": {"android": "https://dc.lft.to/lastmile_qr_scan", "ios": "https://dc.lft.to/lastmile_qr_scan"}, "lat": 38.905658, "is_disabled": 0, "lon": -76.97384583333333}, {"fusion_lat": 0.0, "type": "electric_scooter", "name": "3690a45ae4950ad5f60ead8f5a663a76", "fusion_lon": 0.0, "bike_id": "3690a45ae4950ad5f60ead8f5a663a76", "is_reserved": 0, "rental_uris": {"android": "https://dc.lft.to/lastmile_qr_scan", "ios": "https://dc.lft.to/lastmile_qr_scan"}, "lat": 38.8991895, "is_disabled": 0, "lon": -76.93380583333334}, {"fusion_lat": 0.0, "type": "electric_scooter", "name": "8227557ec1e46bc83f79ad5c86c42d1e", "fusion_lon": 0.0, "bike_id": "8227557ec1e46bc83f79ad5c86c42d1e", "is_reserved": 0, "rental_uris": {"android": "https://dc.lft.to/lastmile_qr_scan", "ios": "https://dc.lft.to/lastmile_qr_scan"}, "lat": 38.924648, "is_disabled": 0, "lon": -77.07806866666667}, {"fusion_lat": 0.0, "type": "electric_bike", "name": "659247d8bf98da3817219c2d748c1777", "fusion_lon": 0.0, "bike_id": "659247d8bf98da3817219c2d748c1777", "is_reserved": 0, "rental_uris": {"android": "https://dc.lft.to/lastmile_qr_scan", "ios": "https://dc.lft.to/lastmile_qr_scan"}, "lat": 38.893542833333335, "is_disabled": 0, "lon": -77.187389}, {"fusion_lat": 0.0, "type": "electric_scooter", "name": "11db6951694982ae3d07fec90985c066", "fusion_lon": 0.0, "bike_id": "11db6951694982ae3d07fec90985c066", "is_reserved": 0, "rental_uris": {"android": "https://dc.lft.to/lastmile_qr_scan", "ios": "https://dc.lft.to/lastmile_qr_scan"}, "lat": 38.920567, "is_disabled": 0, "lon": -77.0333965}, {"fusion_lat": 0.0, "type": "electric_scooter", "name": "8a6d1a93dd8cd70d61329cc8e38a99e3", "fusion_lon": 0.0, "bike_id": "8a6d1a93dd8cd70d61329cc8e38a99e3", "is_reserved": 0, "rental_uris": {"android": "https://dc.lft.to/lastmile_qr_scan", "ios": "https://dc.lft.to/lastmile_qr_scan"}, "lat": 38.911739833333336, "is_disabled": 0, "lon": -77.04919716666667}, {"fusion_lat": 0.0, "type": "electric_scooter", "name": "4e6aef8008848d555af6ceb8af11741f", "fusion_lon": 0.0, "bike_id": "4e6aef8008848d555af6ceb8af11741f", "is_reserved": 0, "rental_uris": {"android": "https://dc.lft.to/lastmile_qr_scan", "ios": "https://dc.lft.to/lastmile_qr_scan"}, "lat": 38.92369466666667, "is_disabled": 0, "lon": -77.0504335}, {"fusion_lat": 0.0, "type": "electric_scooter", "name": "3117ca8ad910aba30ef490e133a5ae04", "fusion_lon": 0.0, "bike_id": "3117ca8ad910aba30ef490e133a5ae04", "is_reserved": 0, "rental_uris": {"android": "https://dc.lft.to/lastmile_qr_scan", "ios": "https://dc.lft.to/lastmile_qr_scan"}, "lat": 38.90259616666667, "is_disabled": 0, "lon": -77.02655866666667}, {"fusion_lat": 0.0, "type": "electric_bike", "name": "f260fa84df6af91655ca521936af1125", "fusion_lon": 0.0, "bike_id": "f260fa84df6af91655ca521936af1125", "is_reserved": 0, "rental_uris": {"android": "https://dc.lft.to/lastmile_qr_scan", "ios": "https://dc.lft.to/lastmile_qr_scan"}, "lat": 38.854183666666664, "is_disabled": 0, "lon": -77.12071016666667}, {"fusion_lat": 0.0, "type": "electric_scooter", "name": "1de329365812d9df2d86b683d82eadd3", "fusion_lon": 0.0, "bike_id": "1de329365812d9df2d86b683d82eadd3", "is_reserved": 0, "rental_uris": {"android": "https://dc.lft.to/lastmile_qr_scan", "ios": "https://dc.lft.to/lastmile_qr_scan"}, "lat": 38.92173, "is_disabled": 0, "lon": -77.03843566666667}, {"fusion_lat": 0.0, "type": "electric_scooter", "name": "49807ffa26c8e3357a08918028b0e6a9", "fusion_lon": 0.0, "bike_id": "49807ffa26c8e3357a08918028b0e6a9", "is_reserved": 0, "rental_uris": {"android": "https://dc.lft.to/lastmile_qr_scan", "ios": "https://dc.lft.to/lastmile_qr_scan"}, "lat": 38.912312666666665, "is_disabled": 0, "lon": -77.022738}, {"fusion_lat": 0.0, "type": "electric_scooter", "name": "a191857fc4c8e80f9832bad455be85ff", "fusion_lon": 0.0, "bike_id": "a191857fc4c8e80f9832bad455be85ff", "is_reserved": 0, "rental_uris": {"android": "https://dc.lft.to/lastmile_qr_scan", "ios": "https://dc.lft.to/lastmile_qr_scan"}, "lat": 38.8988725, "is_disabled": 0, "lon": -76.93173183333333}, {"fusion_lat": 0.0, "type": "electric_scooter", "name": "60220e4431256262280c84d5225bad4e", "fusion_lon": 0.0, "bike_id": "60220e4431256262280c84d5225bad4e", "is_reserved": 0, "rental_uris": {"android": "https://dc.lft.to/lastmile_qr_scan", "ios": "https://dc.lft.to/lastmile_qr_scan"}, "lat": 38.89323866666667, "is_disabled": 0, "lon": -76.943807}, {"fusion_lat": 0.0, "type": "electric_scooter", "name": "9a6ccd8e6fc99b2954704ee42932a608", "fusion_lon": 0.0, "bike_id": "9a6ccd8e6fc99b2954704ee42932a608", "is_reserved": 0, "rental_uris": {"android": "https://dc.lft.to/lastmile_qr_scan", "ios": "https://dc.lft.to/lastmile_qr_scan"}, "lat": 38.932475333333336, "is_disabled": 0, "lon": -77.03413866666666}, {"fusion_lat": 0.0, "type": "electric_scooter", "name": "bb87ae936aad30fc7c6d0b1b897693a5", "fusion_lon": 0.0, "bike_id": "bb87ae936aad30fc7c6d0b1b897693a5", "is_reserved": 0, "rental_uris": {"android": "https://dc.lft.to/lastmile_qr_scan", "ios": "https://dc.lft.to/lastmile_qr_scan"}, "lat": 38.88765583333333, "is_disabled": 0, "lon": -76.98970016666667}, {"fusion_lat": 0.0, "type": "electric_scooter", "name": "82d6580bbbe92f7ea5398c706f64d3cd", "fusion_lon": 0.0, "bike_id": "82d6580bbbe92f7ea5398c706f64d3cd", "is_reserved": 0, "rental_uris": {"android": "https://dc.lft.to/lastmile_qr_scan", "ios": "https://dc.lft.to/lastmile_qr_scan"}, "lat": 38.905025333333334, "is_disabled": 0, "lon": -76.97928466666667}, {"fusion_lat": 0.0, "type": "electric_scooter", "name": "7dff318a8cec8ca0d5e2289dffcc23e7", "fusion_lon": 0.0, "bike_id": "7dff318a8cec8ca0d5e2289dffcc23e7", "is_reserved": 0, "rental_uris": {"android": "https://dc.lft.to/lastmile_qr_scan", "ios": "https://dc.lft.to/lastmile_qr_scan"}, "lat": 38.887515, "is_disabled": 0, "lon": -77.00880816666667}, {"fusion_lat": 0.0, "type": "electric_bike", "name": "53bfef453d5baac0ec2ada08058361fc", "fusion_lon": 0.0, "bike_id": "53bfef453d5baac0ec2ada08058361fc", "is_reserved": 0, "rental_uris": {"android": "https://dc.lft.to/lastmile_qr_scan", "ios": "https://dc.lft.to/lastmile_qr_scan"}, "lat": 38.850201, "is_disabled": 0, "lon": -77.0982465}, {"fusion_lat": 0.0, "type": "electric_scooter", "name": "9108cc3a7a4b81b23cfcbbba36e64c3b", "fusion_lon": 0.0, "bike_id": "9108cc3a7a4b81b23cfcbbba36e64c3b", "is_reserved": 0, "rental_uris": {"android": "https://dc.lft.to/lastmile_qr_scan", "ios": "https://dc.lft.to/lastmile_qr_scan"}, "lat": 38.887200666666665, "is_disabled": 0, "lon": -77.01782}, {"fusion_lat": 0.0, "type": "electric_scooter", "name": "b281f458b1616cb5c4c7bd48b118f042", "fusion_lon": 0.0, "bike_id": "b281f458b1616cb5c4c7bd48b118f042", "is_reserved": 0, "rental_uris": {"android": "https://dc.lft.to/lastmile_qr_scan", "ios": "https://dc.lft.to/lastmile_qr_scan"}, "lat": 38.91772016666667, "is_disabled": 0, "lon": -77.014933}, {"fusion_lat": 0.0, "type": "electric_scooter", "name": "f4e998b3337c780faf2a35585ee7bca1", "fusion_lon": 0.0, "bike_id": "f4e998b3337c780faf2a35585ee7bca1", "is_reserved": 0, "rental_uris": {"android": "https://dc.lft.to/lastmile_qr_scan", "ios": "https://dc.lft.to/lastmile_qr_scan"}, "lat": 38.90052083333333, "is_disabled": 0, "lon": -76.99029983333334}, {"fusion_lat": 0.0, "type": "electric_scooter", "name": "ac838f42314358c507e7b26398fdde82", "fusion_lon": 0.0, "bike_id": "ac838f42314358c507e7b26398fdde82", "is_reserved": 0, "rental_uris": {"android": "https://dc.lft.to/lastmile_qr_scan", "ios": "https://dc.lft.to/lastmile_qr_scan"}, "lat": 38.921601833333334, "is_disabled": 0, "lon": -77.033815}, {"fusion_lat": 0.0, "type": "electric_bike", "name": "f5a91d3413e9ea3947bacef5545a1bd5", "fusion_lon": 0.0, "bike_id": "f5a91d3413e9ea3947bacef5545a1bd5", "is_reserved": 0, "rental_uris": {"android": "https://dc.lft.to/lastmile_qr_scan", "ios": "https://dc.lft.to/lastmile_qr_scan"}, "lat": 38.919303666666664, "is_disabled": 0, "lon": -77.0738095}, {"fusion_lat": 0.0, "type": "electric_scooter", "name": "2408040a2a4d3b16c14ad5d98fee20f5", "fusion_lon": 0.0, "bike_id": "2408040a2a4d3b16c14ad5d98fee20f5", "is_reserved": 0, "rental_uris": {"android": "https://dc.lft.to/lastmile_qr_scan", "ios": "https://dc.lft.to/lastmile_qr_scan"}, "lat": 38.909593666666666, "is_disabled": 0, "lon": -77.03214316666667}, {"fusion_lat": 0.0, "type": "electric_scooter", "name": "9c13a52fb2c42eaa4f3bff5ba6fdd606", "fusion_lon": 0.0, "bike_id": "9c13a52fb2c42eaa4f3bff5ba6fdd606", "is_reserved": 0, "rental_uris": {"android": "https://dc.lft.to/lastmile_qr_scan", "ios": "https://dc.lft.to/lastmile_qr_scan"}, "lat": 38.892273333333335, "is_disabled": 0, "lon": -77.01368583333333}, {"fusion_lat": 0.0, "type": "electric_scooter", "name": "d8d991a38f420311e63686ecc8209c2b", "fusion_lon": 0.0, "bike_id": "d8d991a38f420311e63686ecc8209c2b", "is_reserved": 0, "rental_uris": {"android": "https://dc.lft.to/lastmile_qr_scan", "ios": "https://dc.lft.to/lastmile_qr_scan"}, "lat": 38.9007605, "is_disabled": 0, "lon": -77.00198966666666}, {"fusion_lat": 0.0, "type": "electric_scooter", "name": "e7265696c0c796c87f2c2280b67b1746", "fusion_lon": 0.0, "bike_id": "e7265696c0c796c87f2c2280b67b1746", "is_reserved": 0, "rental_uris": {"android": "https://dc.lft.to/lastmile_qr_scan", "ios": "https://dc.lft.to/lastmile_qr_scan"}, "lat": 38.8670485, "is_disabled": 0, "lon": -76.98712016666667}, {"fusion_lat": 0.0, "type": "electric_bike", "name": "925cb538fd955913db621292491019ec", "fusion_lon": 0.0, "bike_id": "925cb538fd955913db621292491019ec", "is_reserved": 0, "rental_uris": {"android": "https://dc.lft.to/lastmile_qr_scan", "ios": "https://dc.lft.to/lastmile_qr_scan"}, "lat": 38.8887045, "is_disabled": 0, "lon": -77.08164616666667}, {"fusion_lat": 0.0, "type": "electric_scooter", "name": "ddb13c10a7539fe5c2854ccfc1ed1952", "fusion_lon": 0.0, "bike_id": "ddb13c10a7539fe5c2854ccfc1ed1952", "is_reserved": 0, "rental_uris": {"android": "https://dc.lft.to/lastmile_qr_scan", "ios": "https://dc.lft.to/lastmile_qr_scan"}, "lat": 38.84314783333333, "is_disabled": 0, "lon": -76.99936316666667}, {"fusion_lat": 0.0, "type": "electric_scooter", "name": "af4c5d88b4ba578b7499d1783a1175a3", "fusion_lon": 0.0, "bike_id": "af4c5d88b4ba578b7499d1783a1175a3", "is_reserved": 0, "rental_uris": {"android": "https://dc.lft.to/lastmile_qr_scan", "ios": "https://dc.lft.to/lastmile_qr_scan"}, "lat": 38.899365, "is_disabled": 0, "lon": -77.018573}, {"fusion_lat": 0.0, "type": "electric_scooter", "name": "43deb9de94b7c4b532c265110c2c70c4", "fusion_lon": 0.0, "bike_id": "43deb9de94b7c4b532c265110c2c70c4", "is_reserved": 0, "rental_uris": {"android": "https://dc.lft.to/lastmile_qr_scan", "ios": "https://dc.lft.to/lastmile_qr_scan"}, "lat": 38.89225783333333, "is_disabled": 0, "lon": -77.04334766666666}, {"fusion_lat": 0.0, "type": "electric_scooter", "name": "39648ae482955384427d167f9ecb46a3", "fusion_lon": 0.0, "bike_id": "39648ae482955384427d167f9ecb46a3", "is_reserved": 0, "rental_uris": {"android": "https://dc.lft.to/lastmile_qr_scan", "ios": "https://dc.lft.to/lastmile_qr_scan"}, "lat": 38.93463633333333, "is_disabled": 0, "lon": -77.02770366666667}, {"fusion_lat": 0.0, "type": "electric_bike", "name": "435ffdd300a16dc2d6117ccf2d8f4eaa", "fusion_lon": 0.0, "bike_id": "435ffdd300a16dc2d6117ccf2d8f4eaa", "is_reserved": 0, "rental_uris": {"android": "https://dc.lft.to/lastmile_qr_scan", "ios": "https://dc.lft.to/lastmile_qr_scan"}, "lat": 38.90332016666667, "is_disabled": 0, "lon": -76.97534733333333}, {"fusion_lat": 0.0, "type": "electric_scooter", "name": "e2da7e9a546e854b085554ab09178c7b", "fusion_lon": 0.0, "bike_id": "e2da7e9a546e854b085554ab09178c7b", "is_reserved": 0, "rental_uris": {"android": "https://dc.lft.to/lastmile_qr_scan", "ios": "https://dc.lft.to/lastmile_qr_scan"}, "lat": 38.926647, "is_disabled": 0, "lon": -77.0232965},