{"data": {"bikes": [{"rental_uris": {"ios": "https://dc.lft.to/lastmile_qr_scan", "android": "https://dc.lft.to/lastmile_qr_scan"}, "lon": -77.03206233333333, "type": "electric_scooter", "fusion_lat": 0.0, "lat": 38.91747516666667, "name": "663ceb37fda40903aa74a7caf853300d", "fusion_lon": 0.0, "bike_id": "663ceb37fda40903aa74a7caf853300d", "is_disabled": 0, "is_reserved": 0}, {"rental_uris": {"ios": "https://dc.lft.to/lastmile_qr_scan", "android": "https://dc.lft.to/lastmile_qr_scan"}, "lon": -77.0558855, "type": "electric_scooter", "fusion_lat": 0.0, "lat": 38.92779483333333, "name": "ac6717b19abf849a8536f1bc4b2ee51d", "fusion_lon": 0.0, "bike_id": "ac6717b19abf849a8536f1bc4b2ee51d", "is_disabled": 0, "is_reserved": 0}, {"rental_uris": {"ios": "https://dc.lft.to/lastmile_qr_scan", "android": "https://dc.lft.to/lastmile_qr_scan"}, "lon": -77.095189, "type": "electric_bike", "fusion_lat": 0.0, "lat": 38.838104333333334, "name": "e4b69410a7dfd2ff18e8d49826b2bd7f", "fusion_lon": 0.0, "bike_id": "e4b69410a7dfd2ff18e8d49826b2bd7f", "is_disabled": 0, "is_reserved": 0}, {"rental_uris": {"ios": "https://dc.lft.to/lastmile_qr_scan", "android": "https://dc.lft.to/lastmile_qr_scan"}, "lon": -77.01209266666666, "type": "electric_scooter", "fusion_lat": 0.0, "lat": 38.91274166666667, "name": "a9a2385ff7658adc030ece86c10638e9", "fusion_lon": 0.0, "bike_id": "a9a2385ff7658adc030ece86c10638e9", "is_disabled": 0, "is_reserved": 0}, {"rental_uris": {"ios": "https://dc.lft.to/lastmile_qr_scan", "android": "https://dc.lft.to/lastmile_qr_scan"}, "lon": -77.0213765, "type": "electric_scooter", "fusion_lat": 0.0, "lat": 38.89606283333333, "name": "c02e6011412ddf11b4aead3c15f05ffc", "fusion_lon": 0.0, "bike_id": "c02e6011412ddf11b4aead3c15f05ffc", "is_disabled": 0, "is_reserved": 0}, {"rental_uris": {"ios": "https://dc.lft.to/lastmile_qr_scan", "android": "https://dc.lft.to/lastmile_qr_scan"}, "lon": -77.032547, "type": "electric_scooter", "fusion_lat": 0.0, "lat": 38.9181725, "name": "0e7338f039d4fdf0805a2071f4190195", "fusion_lon": 0.0, "bike_id": "0e7338f039d4fdf0805a2071f4190195", "is_disabled": 0, "is_reserved": 0}, {"rental_uris": {"ios": "https://dc.lft.to/lastmile_qr_scan", "android": "https://dc.lft.to/lastmile_qr_scan"}, "lon": -77.027004, "type": "electric_scooter", "fusion_lat": 0.0, "lat": 38.881502166666664, "name": "976cf72b57342c6b08c47cdfccbcbf50", "fusion_lon": 0.0, "bike_id": "976cf72b57342c6b08c47cdfccbcbf50", "is_disabled": 0, "is_reserved": 0}, {"rental_uris": {"ios": "https://dc.lft.to/lastmile_qr_scan", "android": "https://dc.lft.to/lastmile_qr_scan"}, "lon": -77.041697, "type": "electric_scooter", "fusion_lat": 0.0, "lat": 38.91480833333333, "name": "53fc6dda47f6bb7092d4d975df12a31a", "fusion_lon": 0.0, "bike_id": "53fc6dda47f6bb7092d4d975df12a31a", "is_disabled": 0, "is_reserved": 0}, {"rental_uris": {"ios": "https://dc.lft.to/lastmile_qr_scan", "android": "https://dc.lft.to/lastmile_qr_scan"}, "lon": -77.04510016666667, "type": "electric_scooter", "fusion_lat": 0.0, "lat": 38.9158705, "name": "b7b954b89405b18924091e37bb85e9ef", "fusion_lon": 0.0, "bike_id": "b7b954b89405b18924091e37bb85e9ef", "is_disabled": 0, "is_reserved": 0}, {"rental_uris": {"ios": "https://dc.lft.to/lastmile_qr_scan", "android": "https://dc.lft.to/lastmile_qr_scan"}, "lon": -76.986142, "type": "electric_scooter", "fusion_lat": 0.0, "lat": 38.86819716666667, "name": "ba3607fe70409caba505755370d3c2c4", "fusion_lon": 0.0, "bike_id": "ba3607fe70409caba505755370d3c2c4", "is_disabled": 0, "is_reserved": 0}, {"rental_uris": {"ios": "https://dc.lft.to/lastmile_qr_scan", "android": "https://dc.lft.to/lastmile_qr_scan"}, "lon": -77.02804666666667, "type": "electric_scooter", "fusion_lat": 0.0, "lat": 38.893826833333335, "name": "34c8155792714479363141e68a79d857", "fusion_lon": 0.0, "bike_id": "34c8155792714479363141e68a79d857", "is_disabled": 0, "is_reserved": 0}, {"rental_uris": {"ios": "https://dc.lft.to/lastmile_qr_scan", "android": "https://dc.lft.to/lastmile_qr_scan"}, "lon": -77.04368083333334, "type": "electric_scooter", "fusion_lat": 0.0, "lat": 38.92087766666667, "name": "8e75759a93dfa7a5013d469da3021349", "fusion_lon": 0.0, "bike_id": "8e75759a93dfa7a5013d469da3021349", "is_disabled": 0, "is_reserved": 0}, {"rental_uris": {"ios": "https://dc.lft.to/lastmile_qr_scan", "android": "https://dc.lft.to/lastmile_qr_scan"}, "lon": -76.95816133333334, "type": "electric_scooter", "fusion_lat": 0.0, "lat": 38.890555666666664, "name": "6b51b7e9ea937dcd3e0c41eb30fce767", "fusion_lon": 0.0, "bike_id": "6b51b7e9ea937dcd3e0c41eb30fce767", "is_disabled": 0, "is_reserved": 0}, {"rental_uris": {"ios": "https://dc.lft.to/lastmile_qr_scan", "android": "https://dc.lft.to/lastmile_qr_scan"}, "lon": -76.968466, "type": "electric_scooter", "fusion_lat": 0.0, "lat": 38.87466116666667, "name": "95902b8db025bc0a96dedf97ac3dcc16", "fusion_lon": 0.0, "bike_id": "95902b8db025bc0a96dedf97ac3dcc16", "is_disabled": 0, "is_reserved": 0}, {"rental_uris": {"ios": "https://dc.lft.to/lastmile_qr_scan", "android": "https://dc.lft.to/lastmile_qr_scan"}, "lon": -76.99695133333333, "type": "electric_scooter", "fusion_lat": 0.0, "lat": 38.900708, "name": "a87b3fde601d3bcaf37cfab6b9b3e78a", "fusion_lon": 0.0, "bike_id": "a87b3fde601d3bcaf37cfab6b9b3e78a", "is_disabled": 0, "is_reserved": 0}, {"rental_uris": {"ios": "https://dc.lft.to/lastmile_qr_scan", "android": "https://dc.lft.to/lastmile_qr_scan"}, "lon": -77.02963216666667, "type": "electric_scooter", "fusion_lat": 0.0, "lat": 38.922716333333334, "name": "4aa709b259786b1fef7f532b5369ef90", "fusion_lon": 0.0, "bike_id": "4aa709b259786b1fef7f532b5369ef90", "is_disabled": 0, "is_reserved": 0}, {"rental_uris": {"ios": "https://dc.lft.to/lastmile_qr_scan", "android": "https://dc.lft.to/lastmile_qr_scan"}, "lon": -77.0260295, "type": "electric_bike", "fusion_lat": 0.0, "lat": 38.962631, "name": "09a5af81c3bf977cf69772f0aed9474b", "fusion_lon": 0.0, "bike_id": "09a5af81c3bf977cf69772f0aed9474b", "is_disabled": 0, "is_reserved": 0}, {"rental_uris": {"ios": "https://dc.lft.to/lastmile_qr_scan", "android": "https://dc.lft.to/lastmile_qr_scan"}, "lon": -76.99547033333333, "type": "electric_scooter", "fusion_lat": 0.0, "lat": 38.90130516666667, "name": "5754f59aff5f89d792e5035711370da0", "fusion_lon": 0.0, "bike_id": "5754f59aff5f89d792e5035711370da0", "is_disabled": 0, "is_reserved": 0}, {"rental_uris": {"ios": "https://dc.lft.to/lastmile_qr_scan", "android": "https://dc.lft.to/lastmile_qr_scan"}, "lon": -77.0462625, "type": "electric_scooter", "fusion_lat": 0.0, "lat": 38.90140066666667, "name": "93ec150e05f8a47a9149afa9fba7999e", "fusion_lon": 0.0, "bike_id": "93ec150e05f8a47a9149afa9fba7999e", "is_disabled": 0, "is_reserved": 0}, {"rental_uris": {"ios": "https://dc.lft.to/lastmile_qr_scan", "android": "https://dc.lft.to/lastmile_qr_scan"}, "lon": -76.94214, "type": "electric_scooter", "fusion_lat": 0.0, "lat": 38.89677433333333, "name": "3eb5dd06e4385f77f411f2082333b164", "fusion_lon": 0.0, "bike_id": "3eb5dd06e4385f77f411f2082333b164", "is_disabled": 0, "is_reserved": 0}, {"rental_uris": {"ios": "https://dc.lft.to/lastmile_qr_scan", "android": "https://dc.lft.to/lastmile_qr_scan"}, "lon": -76.949982, "type": "electric_scooter", "fusion_lat": 0.0, "lat": 38.89371516666667, "name": "63b62306d8bfbd7897e1b1e1d801c488", "fusion_lon": 0.0, "bike_id": "63b62306d8bfbd7897e1b1e1d801c488", "is_disabled": 0, "is_reserved": 0}, {"rental_uris": {"ios": "https://dc.lft.to/lastmile_qr_scan", "android": "https://dc.lft.to/lastmile_qr_scan"}, "lon": -77.03265416666666, "type": "electric_scooter", "fusion_lat": 0.0, "lat": 38.933280333333336, "name": "f4edbeb07c5622d74bde22967b8d8e12", "fusion_lon": 0.0, "bike_id": "f4edbeb07c5622d74bde22967b8d8e12", "is_disabled": 0, "is_reserved": 0}, {"rental_uris": {"ios": "https://dc.lft.to/lastmile_qr_scan", "android": "https://dc.lft.to/lastmile_qr_scan"}, "lon": -76.9322755, "type": "electric_bike", "fusion_lat": 0.0, "lat": 38.865925, "name": "27e6a24ad2f002da643f825d0e11e62c", "fusion_lon": 0.0, "bike_id": "27e6a24ad2f002da643f825d0e11e62c", "is_disabled": 0, "is_reserved": 0}, {"rental_uris": {"ios": "https://dc.lft.to/lastmile_qr_scan", "android": "https://dc.lft.to/lastmile_qr_scan"}, "lon": -76.97286933333334, "type": "electric_scooter", "fusion_lat": 0.0, "lat": 38.90339866666667, "name": "bf5149735101873548ed2b3ef2e4be02", "fusion_lon": 0.0, "bike_id": "bf5149735101873548ed2b3ef2e4be02", "is_disabled": 0, "is_reserved": 0}, {"rental_uris": {"ios": "https://dc.lft.to/lastmile_qr_scan", "android": "https://dc.lft.to/lastmile_qr_scan"}, "lon": -77.05474233333334, "type": "electric_scooter", "fusion_lat": 0.0, "lat": 38.89389766666667, "name": "ce3e0434330f3d40c23212e564d8066f", "fusion_lon": 0.0, "bike_id": "ce3e0434330f3d40c23212e564d8066f", "is_disabled": 0, "is_reserved": 0}, {"rental_uris": {"ios": "https://dc.lft.to/lastmile_qr_scan", "android": "https://dc.lft.to/lastmile_qr_scan"}, "lon": -77.09204183333334, "type": "electric_scooter", "fusion_lat": 0.0, "lat": 38.941323833333335, "name": "eea559353987bdef70a5be108b63c09c", "fusion_lon": 0.0, "bike_id": "eea559353987bdef70a5be108b63c09c", "is_disabled": 0, "is_reserved": 0}, {"rental_uris": {"ios": "https://dc.lft.to/lastmile_qr_scan", "android": "https://dc.lft.to/lastmile_qr_scan"}, "lon": -77.12954783333333, "type": "electric_bike", "fusion_lat": 0.0, "lat": 38.85218, "name": "08450be98a2aa4f12cdb15a301c78c88", "fusion_lon": 0.0, "bike_id": "08450be98a2aa4f12cdb15a301c78c88", "is_disabled": 0, "is_reserved": 0}, {"rental_uris": {"ios": "https://dc.lft.to/lastmile_qr_scan", "android": "https://dc.lft.to/lastmile_qr_scan"}, "lon": -76.995084, "type": "electric_scooter", "fusion_lat": 0.0, "lat": 38.8860165, "name": "5ec53d69f203a5718efc98b691b909d2", "fusion_lon": 0.0, "bike_id": "5ec53d69f203a5718efc98b691b909d2", "is_disabled": 0, "is_reserved": 0}, {"rental_uris": {"ios": "https://dc.lft.to/lastmile_qr_scan", "android": "https://dc.lft.to/lastmile_qr_scan"}, "lon": -77.007318, "type": "electric_scooter", "fusion_lat": 0.0, "lat": 38.87937516666667, "name": "1b4e6b6fc5cb9bd4e10c01dfc5bd362a", "fusion_lon": 0.0, "bike_id": "1b4e6b6fc5cb9bd4e10c01dfc5bd362a", "is_disabled": 0, "is_reserved": 0}, {"rental_uris": {"ios": "https://dc.lft.to/lastmile_qr_scan", "android": "https://dc.lft.to/lastmile_qr_scan"}, "lon": -76.98346316666667, "type": "electric_scooter", "fusion_lat": 0.0, "lat": 38.91548916666667, "name": "04d338bbd70edd4e66079332b9b7d4a8", "fusion_lon": 0.0, "bike_id": "04d338bbd70edd4e66079332b9b7d4a8", "is_disabled": 0, "is_reserved": 0}, {"rental_uris": {"ios": "https://dc.lft.to/lastmile_qr_scan", "android": "https://dc.lft.to/lastmile_qr_scan"}, "lon": -77.042274, "type": "electric_scooter", "fusion_lat": 0.0, "lat": 38.92130783333333, "name": "1a76e9a706ef8f30cce5b0cb2d4fcf62", "fusion_lon": 0.0, "bike_id": "1a76e9a706ef8f30cce5b0cb2d4fcf62", "is_disabled": 0, "is_reserved": 0}, {"rental_uris": {"ios": "https://dc.lft.to/lastmile_qr_scan", "android": "https://dc.lft.to/lastmile_qr_scan"}, "lon": -77.11430966666667, "type": "electric_bike", "fusion_lat": 0.0, "lat": 38.8524415, "name": "9c361a19bfabdef756762669737222d9", "fusion_lon": 0.0, "bike_id": "9c361a19bfabdef756762669737222d9", "is_disabled": 0, "is_reserved": 0}, {"rental_uris": {"ios": "https://dc.lft.to/lastmile_qr_scan", "android": "https://dc.lft.to/lastmile_qr_scan"}, "lon": -77.03283783333333, "type": "electric_scooter", "fusion_lat": 0.0, "lat": 38.8956405, "name": "50fe727272bc36c119904683f2bdd22f", "fusion_lon": 0.0, "bike_id": "50fe727272bc36c119904683f2bdd22f", "is_disabled": 0, "is_reserved": 0}, {"rental_uris": {"ios": "https://dc.lft.to/lastmile_qr_scan", "android": "https://dc.lft.to/lastmile_qr_scan"}, "lon": -77.0317225, "type": "electric_scooter", "fusion_lat": 0.0, "lat": 38.8995385, "name": "d590bcb4b0c574b7a15a09351f57478c", "fusion_lon": 0.0, "bike_id": "d590bcb4b0c574b7a15a09351f57478c", "is_disabled": 0, "is_reserved": 0}, {"rental_uris": {"ios": "https://dc.lft.to/lastmile_qr_scan", "android": "https://dc.lft.to/lastmile_qr_scan"}, "lon": -77.02620166666667, "type": "electric_scooter", "fusion_lat": 0.0, "lat": 38.883495333333336, "name": "f5b7f67e00dab028abeba1314809ec7b", "fusion_lon": 0.0, "bike_id": "f5b7f67e00dab028abeba1314809ec7b", "is_disabled": 0, "is_reserved": 0}, {"rental_uris": {"ios": "https://dc.lft.to/lastmile_qr_scan", "android": "https://dc.lft.to/lastmile_qr_scan"}, "lon": -77.02242933333333, "type": "electric_scooter", "fusion_lat": 0.0, "lat": 38.91660133333333, "name": "b9e374389df22f5d3bf7218a3209eec4", "fusion_lon": 0.0, "bike_id": "b9e374389df22f5d3bf7218a3209eec4", "is_disabled": 0, "is_reserved": 0}, {"rental_uris": {"ios": "https://dc.lft.to/lastmile_qr_scan", "android": "https://dc.lft.to/lastmile_qr_scan"}, "lon": -77.03375566666666, "type": "electric_scooter", "fusion_lat": 0.0, "lat": 38.919647166666664, "name": "3f43b2ee986ed886d190366c87dbfba4", "fusion_lon": 0.0, "bike_id": "3f43b2ee986ed886d190366c87dbfba4", "is_disabled": 0, "is_reserved": 0}, {"rental_uris": {"ios": "https://dc.lft.to/lastmile_qr_scan", "android": "https://dc.lft.to/lastmile_qr_scan"}, "lon": -76.984154, "type": "electric_scooter", "fusion_lat": 0.0, "lat": 38.913835, "name": "b0b8efb9e31a6466c59271225abe8168", "fusion_lon": 0.0, "bike_id": "b0b8efb9e31a6466c59271225abe8168", "is_disabled": 0, "is_reserved": 0}, {"rental_uris": {"ios": "https://dc.lft.to/lastmile_qr_scan", "android": "https://dc.lft.to/lastmile_qr_scan"}, "lon": -77.02000433333333, "type": "electric_scooter", "fusion_lat": 0.0, "lat": 38.883585833333335, "name": "1258def4c34f225990b5cd2923493d73", "fusion_lon": 0.0, "bike_id": "1258def4c34f225990b5cd2923493d73", "is_disabled": 0, "is_reserved": 0}, {"rental_uris": {"ios": "https://dc.lft.to/lastmile_qr_scan", "android": "https://dc.lft.to/lastmile_qr_scan"}, "lon": -77.07813466666667, "type": "electric_scooter", "fusion_lat": 0.0, "lat": 38.926229166666666, "name": "5b931bd3ea8b32c0eaae75f3028b3787", "fusion_lon": 0.0, "bike_id": "5b931bd3ea8b32c0eaae75f3028b3787", "is_disabled": 0, "is_reserved": 0}, {"rental_uris": {"ios": "https://dc.lft.to/lastmile_qr_scan", "android": "https://dc.lft.to/lastmile_qr_scan"}, "lon": -77.021989, "type": "electric_scooter", "fusion_lat": 0.0, "lat": 38.908352, "name": "2703793fc55d927ac9ede6dc32d8e92b", "fusion_lon": 0.0, "bike_id": "2703793fc55d927ac9ede6dc32d8e92b", "is_disabled": 0, "is_reserved": 0}, {"rental_uris": {"ios": "https://dc.lft.to/lastmile_qr_scan", "android": "https://dc.lft.to/lastmile_qr_scan"}, "lon": -77.0218395, "type": "electric_scooter", "fusion_lat": 0.0, "lat": 38.890911833333334, "name": "b42c9f43e0f9e641b11016a9c22f8873", "fusion_lon": 0.0, "bike_id": "b42c9f43e0f9e641b11016a9c22f8873", "is_disabled": 0, "is_reserved": 0}, {"rental_uris": {"ios": "https://dc.lft.to/lastmile_qr_scan", "android": "https://dc.lft.to/lastmile_qr_scan"}, "lon": -77.18290766666667, "type": "electric_bike", "fusion_lat": 0.0, "lat": 38.88342333333333, "name": "f342f610f4ae1dcf19e865a089d218b1", "fusion_lon": 0.0, "bike_id": "f342f610f4ae1dcf19e865a089d218b1", "is_disabled": 0, "is_reserved": 0}, {"rental_uris": {"ios": "https://dc.lft.to/lastmile_qr_scan", "android": "https://dc.lft.to/lastmile_qr_scan"}, "lon": -77.03183533333333, "type": "electric_scooter", "fusion_lat": 0.0, "lat": 38.917184, "name": "2949d4284f94997a411df579db4b7819", "fusion_lon": 0.0, "bike_id": "2949d4284f94997a411df579db4b7819", "is_disabled": 0, "is_reserved": 0}, {"rental_uris": {"ios": "https://dc.lft.to/lastmile_qr_scan", "android": "https://dc.lft.to/lastmile_qr_scan"}, "lon": -76.99015866666667, "type": "electric_scooter", "fusion_lat": 0.0, "lat": 38.858685333333334, "name": "cc6e89c7c0c7b9949c7659f67801e5de", "fusion_lon": 0.0, "bike_id": "cc6e89c7c0c7b9949c7659f67801e5de", "is_disabled": 0, "is_reserved": 0}, {"rental_uris": {"ios": "https://dc.lft.to/lastmile_qr_scan", "android": "https://dc.lft.to/lastmile_qr_scan"}, "lon": -77.0185955, "type": "electric_scooter", "fusion_lat": 0.0, "lat": 38.89262733333333, "name": "6ad918140fc106e3a72a36718b4b666b", "fusion_lon": 0.0, "bike_id": "6ad918140fc106e3a72a36718b4b666b", "is_disabled": 0, "is_reserved": 0}, {"rental_uris": {"ios": "https://dc.lft.to/lastmile_qr_scan", "android": "https://dc.lft.to/lastmile_qr_scan"}, "lon": -76.94997333333333, "type": "electric_scooter", "fusion_lat": 0.0, "lat": 38.89372316666667, "name": "6872b1d47364dade3f539680ca21f5dd", "fusion_lon": 0.0, "bike_id": "6872b1d47364dade3f539680ca21f5dd", "is_disabled": 0, "is_reserved": 0}, {"rental_uris": {"ios": "https://dc.lft.to/lastmile_qr_scan", "android": "https://dc.lft.to/lastmile_qr_scan"}, "lon": -77.06181833333333, "type": "electric_scooter", "fusion_lat": 0.0, "lat": 38.902452, "name": "d708d6e23caed8eb1e130077789a92d0", "fusion_lon": 0.0, "bike_id": "d708d6e23caed8eb1e130077789a92d0", "is_disabled": 0, "is_reserved": 0}, {"rental_uris": {"ios": "https://dc.lft.to/lastmile_qr_scan", "android": "https://dc.lft.to/lastmile_qr_scan"}, "lon": -77.02531183333333, "type": "electric_scooter", "fusion_lat": 0.0, "lat": 38.892331, "name": "96554ccfeff80917cae13a2ffa7d0e7e", "fusion_lon": 0.0, "bike_id": "96554ccfeff80917cae13a2ffa7d0e7e", "is_disabled": 0, "is_reserved": 0}, {"rental_uris": {"ios": "https://dc.lft.to/lastmile_qr_scan", "android": "https://dc.lft.to/lastmile_qr_scan"}, "lon": -77.08266866666666, "type": "electric_scooter", "fusion_lat": 0.0, "lat": 38.930346166666666, "name": "3dde05c254a74e474da7eafbc1db5818", "fusion_lon": 0.0, "bike_id": "3dde05c254a74e474da7eafbc1db5818", "is_disabled": 0, "is_reserved": 0}, {"rental_uris": {"ios": "https://dc.lft.to/lastmile_qr_scan", "android": "https://dc.lft.to/lastmile_qr_scan"}, "lon": -77.05902083333334, "type": "electric_scooter", "fusion_lat": 0.0, "lat": 38.9360665, "name": "d4e189c27b4b3c132a7f0aa01e7713fc", "fusion_lon": 0.0, "bike_id": "d4e189c27b4b3c132a7f0aa01e7713fc", "is_disabled": 0, "is_reserved": 0}, {"rental_uris": {"ios": "https://dc.lft.to/lastmile_qr_scan", "android": "https://dc.lft.to/lastmile_qr_scan"}, "lon": -77.0330765, "type": "electric_scooter", "fusion_lat": 0.0, "lat": 38.901479, "name": "da50072698fddd03dd25a80fdc2514e9", "fusion_lon": 0.0, "bike_id": "da50072698fddd03dd25a80fdc2514e9", "is_disabled": 0, "is_reserved": 0}, {"rental_uris": {"ios": "https://dc.lft.to/lastmile_qr_scan", "android": "https://dc.lft.to/lastmile_qr_scan"}, "lon": -77.04498416666667, "type": "electric_scooter", "fusion_lat": 0.0, "lat": 38.90662966666667, "name": "5d5c6a63ba48b32f42d3cbcc5b81a102", "fusion_lon": 0.0, "bike_id": "5d5c6a63ba48b32f42d3cbcc5b81a102", "is_disabled": 0, "is_reserved": 0}, {"rental_uris": {"ios": "https://dc.lft.to/lastmile_qr_scan", "android": "https://dc.lft.to/lastmile_qr_scan"}, "lon": -76.97818783333334, "type": "electric_scooter", "fusion_lat": 0.0, "lat": 38.8951645, "name": "806853e9a92adbd9ef9dbda213c43b45", "fusion_lon": 0.0, "bike_id": "806853e9a92adbd9ef9dbda213c43b45", "is_disabled": 0, "is_reserved": 0}, {"rental_uris": {"ios": "https://dc.lft.to/lastmile_qr_scan", "android": "https://dc.lft.to/lastmile_qr_scan"}, "lon": -77.0416395, "type": "electric_scooter", "fusion_lat": 0.0, "lat": 38.91934, "name": "944355208336617e19a8ff1e756bbf5b", "fusion_lon": 0.0, "bike_id": "944355208336617e19a8ff1e756bbf5b", "is_disabled": 0, "is_reserved": 0}, {"rental_uris": {"ios": "https://dc.lft.to/lastmile_qr_scan", "android": "https://dc.lft.to/lastmile_qr_scan"}, "lon": -77.016593, "type": "electric_scooter", "fusion_lat": 0.0, "lat": 38.913996166666664, "name": "68abe5385ae4a213995bb3d4afa8d58f", "fusion_lon": 0.0, "bike_id": "68abe5385ae4a213995bb3d4afa8d58f", "is_disabled": 0, "is_reserved": 0}, {"rental_uris": {"ios": "https://dc.lft.to/lastmile_qr_scan", "android": "https://dc.lft.to/lastmile_qr_scan"}, "lon": -77.01746133333333, "type": "electric_scooter", "fusion_lat": 0.0, "lat": 38.90563016666667, "name": "e53bf0c0cbd605b959202f171018d24d", "fusion_lon": 0.0, "bike_id": "e53bf0c0cbd605b959202f171018d24d", "is_disabled": 0, "is_reserved": 0}, {"rental_uris": {"ios": "https://dc.lft.to/lastmile_qr_scan", "android": "https://dc.lft.to/lastmile_qr_scan"}, "lon": -77.025015, "type": "electric_scooter", "fusion_lat": 0.0, "lat": 38.880315833333334, "name": "941df1ea8297ce0b40a85250d66aaa25", "fusion_lon": 0.0, "bike_id": "941df1ea8297ce0b40a85250d66aaa25", "is_disabled": 0, "is_reserved": 0}, {"rental_uris": {"ios": "https://dc.lft.to/lastmile_qr_scan", "android": "https://dc.lft.to/lastmile_qr_scan"}, "lon": -77.037777, "type": "electric_bike", "fusion_lat": 0.0, "lat": 38.996735, "name": "953233e267b089274f03ae28bfa7d6ff", "fusion_lon": 0.0, "bike_id": "953233e267b089274f03ae28bfa7d6ff", "is_disabled": 0, "is_reserved": 0}, {"rental_uris": {"ios": "https://dc.lft.to/lastmile_qr_scan", "android": "https://dc.lft.to/lastmile_qr_scan"}, "lon": -77.044824, "type": "electric_scooter", "fusion_lat": 0.0, "lat": 38.9110175, "name": "aa44508844d09249e2cc253ae9ae8618", "fusion_lon": 0.0, "bike_id": "aa44508844d09249e2cc253ae9ae8618", "is_disabled": 0, "is_reserved": 0}, {"rental_uris": {"ios": "https://dc.lft.to/lastmile_qr_scan", "android": "https://dc.lft.to/lastmile_qr_scan"}, "lon": -77.02972383333334, "type": "electric_scooter", "fusion_lat": 0.0, "lat": 38.90048866666667, "name": "82f52184f4fcaf79055502c7124fa908", "fusion_lon": 0.0, "bike_id": "82f52184f4fcaf79055502c7124fa908", "is_disabled": 0, "is_reserved": 0}, {"rental_uris": {"ios": "https://dc.lft.to/lastmile_qr_scan", "android": "https://dc.lft.to/lastmile_qr_scan"}, "lon": -77.13169516666666, "type": "electric_bike", "fusion_lat": 0.0, "lat": 38.869081, "name": "fcd3386f00851db466d9d0ed474a2be0", "fusion_lon": 0.0, "bike_id": "fcd3386f00851db466d9d0ed474a2be0", "is_disabled": 0, "is_reserved": 0}, {"rental_uris": {"ios": "https://dc.lft.to/lastmile_qr_scan", "android": "https://dc.lft.to/lastmile_qr_scan"}, "lon": -76.97439683333333, "type": "electric_bike", "fusion_lat": 0.0, "lat": 38.86399983333333, "name": "3873f3394d7b20da702e9912693e4789", "fusion_lon": 0.0, "bike_id": "3873f3394d7b20da702e9912693e4789", "is_disabled": 0, "is_reserved": 0}, {"rental_uris": {"ios": "https://dc.lft.to/lastmile_qr_scan", "android": "https://dc.lft.to/lastmile_qr_scan"}, "lon": -77.03145583333334, "type": "electric_scooter", "fusion_lat": 0.0, "lat": 38.912616166666666, "name": "1aedc2576907458aa79f5a666d9690c2", "fusion_lon": 0.0, "bike_id": "1aedc2576907458aa79f5a666d9690c2", "is_disabled": 0, "is_reserved": 0}, {"rental_uris": {"ios": "https://dc.lft.to/lastmile_qr_scan", "android": "https://dc.lft.to/lastmile_qr_scan"}, "lon": -77.036251, "type": "electric_scooter", "fusion_lat": 0.0, "lat": 38.93716466666667, "name": "1ca16987c90ee6f6fa46028690ebac62", "fusion_lon": 0.0, "bike_id": "1ca16987c90ee6f6fa46028690ebac62", "is_disabled": 0, "is_reserved": 0}, {"rental_uris": {"ios": "https://dc.lft.to/lastmile_qr_scan", "android": "https://dc.lft.to/lastmile_qr_scan"}, "lon": -76.94942716666667, "type": "electric_scooter", "fusion_lat": 0.0, "lat": 38.88378633333333, "name": "debace13475534903bdee75446bb942c", "fusion_lon": 0.0, "bike_id": "debace13475534903bdee75446bb942c", "is_disabled": 0, "is_reserved": 0}, {"rental_uris": {"ios": "https://dc.lft.to/lastmile_qr_scan", "android": "https://dc.lft.to/lastmile_qr_scan"}, "lon": -76.957404, "type": "electric_scooter", "fusion_lat": 0.0, "lat": 38.89217166666667, "name": "0cbde27dfd8580f9ae9fc58a8e23fe6d", "fusion_lon": 0.0, "bike_id": "0cbde27dfd8580f9ae9fc58a8e23fe6d", "is_disabled": 0, "is_reserved": 0}, {"rental_uris": {"ios": "https://dc.lft.to/lastmile_qr_scan", "android": "https://dc.lft.to/lastmile_qr_scan"}, "lon": -77.03926666666666, "type": "electric_scooter", "fusion_lat": 0.0, "lat": 38.92106966666667, "name": "5c6df5b001add740f64ce8ddf160e7c5", "fusion_lon": 0.0, "bike_id": "5c6df5b001add740f64ce8ddf160e7c5", "is_disabled": 0, "is_reserved": 0}, {"rental_uris": {"ios": "https://dc.lft.to/lastmile_qr_scan", "android": "https://dc.lft.to/lastmile_qr_scan"}, "lon": -77.06125166666666, "type": "electric_scooter", "fusion_lat": 0.0, "lat": 38.90230833333333, "name": "bc5a306065b4eb71d415274e90ee401c", "fusion_lon": 0.0, "bike_id": "bc5a306065b4eb71d415274e90ee401c", "is_disabled": 0, "is_reserved": 0}, {"rental_uris": {"ios": "https://dc.lft.to/lastmile_qr_scan", "android": "https://dc.lft.to/lastmile_qr_scan"}, "lon": -77.0330665, "type": "electric_scooter", "fusion_lat": 0.0, "lat": 38.9014935, "name": "5bea13d53789bd84fc85e78ea403c51c", "fusion_lon": 0.0, "bike_id": "5bea13d53789bd84fc85e78ea403c51c", "is_disabled": 0, "is_reserved": 0}, {"rental_uris": {"ios": "https://dc.lft.to/lastmile_qr_scan", "android": "https://dc.lft.to/lastmile_qr_scan"}, "lon": -77.01534316666667, "type": "electric_scooter", "fusion_lat": 0.0, "lat": 38.898221666666664, "name": "d76f7255ee2e47c192b0b8155f91d8df", "fusion_lon": 0.0, "bike_id": "d76f7255ee2e47c192b0b8155f91d8df", "is_disabled": 0, "is_reserved": 0}, {"rental_uris": {"ios": "https://dc.lft.to/lastmile_qr_scan", "android": "https://dc.lft.to/lastmile_qr_scan"}, "lon": -76.9773065, "type": "electric_scooter", "fusion_lat": 0.0, "lat": 38.8728895, "name": "8669aef1000e287ba9abbc362d815166", "fusion_lon": 0.0, "bike_id": "8669aef1000e287ba9abbc362d815166", "is_disabled": 0, "is_reserved": 0}, {"rental_uris": {"ios": "https://dc.lft.to/lastmile_qr_scan", "android": "https://dc.lft.to/lastmile_qr_scan"}, "lon": -77.05470166666667, "type": "electric_scooter", "fusion_lat": 0.0, "lat": 38.90496866666667, "name": "aa216e0c5fc3bfa2b19f415e4b2ea87e", "fusion_lon": 0.0, "bike_id": "aa216e0c5fc3bfa2b19f415e4b2ea87e", "is_disabled": 0, "is_reserved": 0}, {"rental_uris": {"ios": "https://dc.lft.to/lastmile_qr_scan", "android": "https://dc.lft.to/lastmile_qr_scan"}, "lon": -77.03937916666666, "type": "electric_scooter", "fusion_lat": 0.0, "lat": 38.9314885, "name": "0a79beaa8c07b99749ed144528684889", "fusion_lon": 0.0, "bike_id": "0a79beaa8c07b99749ed144528684889", "is_disabled": 0, "is_reserved": 0}, {"rental_uris": {"ios": "https://dc.lft.to/lastmile_qr_scan", "android": "https://dc.lft.to/lastmile_qr_scan"}, "lon": -76.99774166666667, "type": "electric_scooter", "fusion_lat": 0.0, "lat": 38.84425683333333, "name": "50841f006be4943f80a8586d6a874a20", "fusion_lon": 0.0, "bike_id": "50841f006be4943f80a8586d6a874a20", "is_disabled": 0, "is_reserved": 0}, {"rental_uris": {"ios": "https://dc.lft.to/lastmile_qr_scan", "android": "https://dc.lft.to/lastmile_qr_scan"}, "lon": -77.02252316666667, "type": "electric_scooter", "fusion_lat": 0.0, "lat": 38.916544, "name": "8a4cbcb4ef4fe21b9292d3f8253344d9", "fusion_lon": 0.0, "bike_id": "8a4cbcb4ef4fe21b9292d3f8253344d9", "is_disabled": 0, "is_reserved": 0}, {"rental_uris": {"ios": "https://dc.lft.to/lastmile_qr_scan", "android": "https://dc.lft.to/lastmile_qr_scan"}, "lon": -77.042871, "type": "electric_scooter", "fusion_lat": 0.0, "lat": 38.907248833333334, "name": "00385777837f3267f764433a74cfc7eb", "fusion_lon": 0.0, "bike_id": "00385777837f3267f764433a74cfc7eb", "is_disabled": 0, "is_reserved": 0}, {"rental_uris": {"ios": "https://dc.lft.to/lastmile_qr_scan", "android": "https://dc.lft.to/lastmile_qr_scan"}, "lon": -77.02496133333334, "type": "electric_scooter", "fusion_lat": 0.0, "lat": 38.905619333333334, "name": "f92936742a18fff213becf023efa6cef", "fusion_lon": 0.0, "bike_id": "f92936742a18fff213becf023efa6cef", "is_disabled": 0, "is_reserved": 0}, {"rental_uris": {"ios": "https://dc.lft.to/lastmile_qr_scan", "android": "https://dc.lft.to/lastmile_qr_scan"}, "lon": -77.059033, "type": "electric_scooter", "fusion_lat": 0.0, "lat": 38.9008165, "name": "5d80f3413791b8cf63ab52f5815dde33", "fusion_lon": 0.0, "bike_id": "5d80f3413791b8cf63ab52f5815dde33", "is_disabled": 0, "is_reserved": 0}, {"rental_uris": {"ios": "https://dc.lft.to/lastmile_qr_scan", "android": "https://dc.lft.to/lastmile_qr_scan"}, "lon": -77.0551135, "type": "electric_scooter", "fusion_lat": 0.0, "lat": 38.928385166666665, "name": "64d6607f8695a7e737d81e7861d66daf", "fusion_lon": 0.0, "bike_id": "64d6607f8695a7e737d81e7861d66daf", "is_disabled": 0, "is_reserved": 0}, {"rental_uris": {"ios": "https://dc.lft.to/lastmile_qr_scan", "android": "https://dc.lft.to/lastmile_qr_scan"}, "lon": -77.01618183333333, "type": "electric_scooter", "fusion_lat": 0.0, "lat": 38.9065765, "name": "ac2b16a1b2073f1952d5e6326a88c28e", "fusion_lon": 0.0, "bike_id": "ac2b16a1b2073f1952d5e6326a88c28e", "is_disabled": 0, "is_reserved": 0}, {"rental_uris": {"ios": "https://dc.lft.to/lastmile_qr_scan", "android": "https://dc.lft.to/lastmile_qr_scan"}, "lon": -77.07166916666667, "type": "electric_scooter", "fusion_lat": 0.0, "lat": 38.914524166666666, "name": "fb65ac7a39603655f2a953c77f2aa827", "fusion_lon": 0.0, "bike_id": "fb65ac7a39603655f2a953c77f2aa827", "is_disabled": 0, "is_reserved": 0}, {"rental_uris": {"ios": "https://dc.lft.to/lastmile_qr_scan", "android": "https://dc.lft.to/lastmile_qr_scan"}, "lon": -77.0058355, "type": "electric_bike", "fusion_lat": 0.0, "lat": 38.909348333333334, "name": "7500b625150a4b4f689d2ce8605e3491", "fusion_lon": 0.0, "bike_id": "7500b625150a4b4f689d2ce8605e3491", "is_disabled": 0, "is_reserved": 0}, {"rental_uris": {"ios": "https://dc.lft.to/lastmile_qr_scan", "android": "https://dc.lft.to/lastmile_qr_scan"}, "lon": -77.03265116666667, "type": "electric_scooter", "fusion_lat": 0.0, "lat": 38.934447, "name": "3309e5f84e9d66cd53f982e868709032", "fusion_lon": 0.0, "bike_id": "3309e5f84e9d66cd53f982e868709032", "is_disabled": 0, "is_reserved": 0}, {"rental_uris": {"ios": "https://dc.lft.to/lastmile_qr_scan", "android": "https://dc.lft.to/lastmile_qr_scan"}, "lon": -77.04487116666667, "type": "electric_scooter", "fusion_lat": 0.0, "lat": 38.911587, "name": "ff138d16506790fdd4a682644ca52af7", "fusion_lon": 0.0, "bike_id": "ff138d16506790fdd4a682644ca52af7", "is_disabled": 0, "is_reserved": 0}, {"rental_uris": {"ios": "https://dc.lft.to/lastmile_qr_scan", "android": "https://dc.lft.to/lastmile_qr_scan"}, "lon": -77.0443735, "type": "electric_scooter", "fusion_lat": 0.0, "lat": 38.90581866666667, "name": "1e6136a63405fcd24b334ea465f7c1d7", "fusion_lon": 0.0, "bike_id": "1e6136a63405fcd24b334ea465f7c1d7", "is_disabled": 0, "is_reserved": 0}, {"rental_uris": {"ios": "https://dc.lft.to/lastmile_qr_scan", "android": "https://dc.lft.to/lastmile_qr_scan"}, "lon": -77.02331916666667, "type": "electric_scooter", "fusion_lat": 0.0, "lat": 38.88477683333333, "name": "0258ff354ca5ee08cf8c440b57408eae", "fusion_lon": 0.0, "bike_id": "0258ff354ca5ee08cf8c440b57408eae", "is_disabled": 0, "is_reserved": 0}, {"rental_uris": {"ios": "https://dc.lft.to/lastmile_qr_scan", "android": "https://dc.lft.to/lastmile_qr_scan"}, "lon": -77.00612783333334, "type": "electric_scooter", "fusion_lat": 0.0, "lat": 38.90578933333333, "name": "df254847a67e6894c00783bf2ece0aaa", "fusion_lon": 0.0, "bike_id": "df254847a67e6894c00783bf2ece0aaa", "is_disabled": 0, "is_reserved": 0}, {"rental_uris": {"ios": "https://dc.lft.to/lastmile_qr_scan", "android": "https://dc.lft.to/lastmile_qr_scan"}, "lon": -76.94174816666667, "type": "electric_scooter", "fusion_lat": 0.0, "lat": 38.8821955, "name": "84222ab2c9b11930b8edf3bac9e22fc2", "fusion_lon": 0.0, "bike_id": "84222ab2c9b11930b8edf3bac9e22fc2", "is_disabled": 0, "is_reserved": 0}, {"rental_uris": {"ios": "https://dc.lft.to/lastmile_qr_scan", "android": "https://dc.lft.to/lastmile_qr_scan"}, "lon": -77.020136, "type": "electric_scooter", "fusion_lat": 0.0, "lat": 38.94975266666667, "name": "ccc0f8a8828d591a15bbd9a12928919f", "fusion_lon": 0.0, "bike_id": "ccc0f8a8828d591a15bbd9a12928919f", "is_disabled": 0, "is_reserved": 0}, {"rental_uris": {"ios": "https://dc.lft.to/lastmile_qr_scan", "android": "https://dc.lft.to/lastmile_qr_scan"}, "lon": -77.06107816666666, "type": "electric_scooter", "fusion_lat": 0.0, "lat": 38.912816666666664, "name": "f711d2837efc41277510d72790736cd8", "fusion_lon": 0.0, "bike_id": "f711d2837efc41277510d72790736cd8", "is_disabled": 0, "is_reserved": 0}, {"rental_uris": {"ios": "https://dc.lft.to/lastmile_qr_scan", "android": "https://dc.lft.to/lastmile_qr_scan"}, "lon": -76.9871335, "type": "electric_scooter", "fusion_lat": 0.0, "lat": 38.862597, "name": "99ecbf175b5dc53dd9581610a55867f8", "fusion_lon": 0.0, "bike_id": "99ecbf175b5dc53dd9581610a55867f8", "is_disabled": 0, "is_reserved": 0}, {"rental_uris": {"ios": "https://dc.lft.to/lastmile_qr_scan", "android": "https://dc.lft.to/lastmile_qr_scan"}, "lon": -76.9473585, "type": "electric_scooter", "fusion_lat": 0.0, "lat": 38.897071333333336, "name": "d54655dc5dd470d9a919f074c952230b", "fusion_lon": 0.0, "bike_id": "d54655dc5dd470d9a919f074c952230b", "is_disabled": 0, "is_reserved": 0}, {"rental_uris": {"ios": "https://dc.lft.to/lastmile_qr_scan", "android": "https://dc.lft.to/lastmile_qr_scan"}, "lon": -77.04662316666666, "type": "electric_scooter", "fusion_lat": 0.0, "lat": 38.91909366666667, "name": "1b542a712b2e7d0552174d88c0595b94", "fusion_lon": 0.0, "bike_id": "1b542a712b2e7d0552174d88c0595b94", "is_disabled": 0, "is_reserved": 0}, {"rental_uris": {"ios": "https://dc.lft.to/lastmile_qr_scan", "android": "https://dc.lft.to/lastmile_qr_scan"}, "lon": -77.054714, "type": "electric_scooter", "fusion_lat": 0.0, "lat": 38.920988333333334, "name": "4c18b39befc8663f974546264a636ee9", "fusion_lon": 0.0, "bike_id": "4c18b39befc8663f974546264a636ee9", "is_disabled": 0, "is_reserved": 0}, {"rental_uris": {"ios": "https://dc.lft.to/lastmile_qr_scan", "android": "https://dc.lft.to/lastmile_qr_scan"}, "lon": -77.03788366666667, "type": "electric_scooter", "fusion_lat": 0.0, "lat": 38.9056525, "name": "7ca52cd15095e47fae74e56df0c84101", "fusion_lon": 0.0, "bike_id": "7ca52cd15095e47fae74e56df0c84101", "is_disabled": 0, "is_reserved": 0}, {"rental_uris": {"ios": "https://dc.lft.to/lastmile_qr_scan", "android": "https://dc.lft.to/lastmile_qr_scan"}, "lon": -77.02400233333333, "type": "electric_scooter", "fusion_lat": 0.0, "lat": 38.9057535, "name": "ebb20659518da1996ad9baadc8d3fbee", "fusion_lon": 0.0, "bike_id": "ebb20659518da1996ad9baadc8d3fbee", "is_disabled": 0, "is_reserved": 0}, {"rental_uris": {"ios": "https://dc.lft.to/lastmile_qr_scan", "android": "https://dc.lft.to/lastmile_qr_scan"}, "lon": -77.03174033333333, "type": "electric_scooter", "fusion_lat": 0.0, "lat": 38.91854566666667, "name": "cbab5358ade09b246d4a5854f53e742f", "fusion_lon": 0.0, "bike_id": "cbab5358ade09b246d4a5854f53e742f", "is_disabled": 0, "is_reserved": 0}, {"rental_uris": {"ios": "https://dc.lft.to/lastmile_qr_scan", "android": "https://dc.lft.to/lastmile_qr_scan"}, "lon": -77.03177033333333, "type": "electric_scooter", "fusion_lat": 0.0, "lat": 38.91488483333333, "name": "013a2af96eba5cb1bf79c61cf7eee918", "fusion_lon": 0.0, "bike_id": "013a2af96eba5cb1bf79c61cf7eee918", "is_disabled": 0, "is_reserved": 0}, {"rental_uris": {"ios": "https://dc.lft.to/lastmile_qr_scan", "android": "https://dc.lft.to/lastmile_qr_scan"}, "lon": -77.0120085, "type": "electric_scooter", "fusion_lat": 0.0, "lat": 38.91565116666666, "name": "46b55c86ad4cace5958b95cf406f4eb1", "fusion_lon": 0.0, "bike_id": "46b55c86ad4cace5958b95cf406f4eb1", "is_disabled": 0, "is_reserved": 0}, {"rental_uris": {"ios": "https://dc.lft.to/lastmile_qr_scan", "android": "https://dc.lft.to/lastmile_qr_scan"}, "lon": -77.1151955, "type": "electric_bike", "fusion_lat": 0.0, "lat": 38.854923166666666, "name": "1948c331f4b10b38d43593cba3775d38", "fusion_lon": 0.0, "bike_id": "1948c331f4b10b38d43593cba3775d38", "is_disabled": 0, "is_reserved": 0}, {"rental_uris": {"ios": "https://dc.lft.to/lastmile_qr_scan", "android": "https://dc.lft.to/lastmile_qr_scan"}, "lon": -77.05742916666667, "type": "electric_scooter", "fusion_lat": 0.0, "lat": 38.93397683333333, "name": "643b7972cbd0b6ab4e0e128b4763c2ab", "fusion_lon": 0.0, "bike_id": "643b7972cbd0b6ab4e0e128b4763c2ab", "is_disabled": 0, "is_reserved": 0}, {"rental_uris": {"ios": "https://dc.lft.to/lastmile_qr_scan", "android": "https://dc.lft.to/lastmile_qr_scan"}, "lon": -77.04796766666666, "type": "electric_scooter", "fusion_lat": 0.0, "lat": 38.91631266666667, "name": "3e858af872a701bfaef36c06ba1bb80c", "fusion_lon": 0.0, "bike_id": "3e858af872a701bfaef36c06ba1bb80c", "is_disabled": 0, "is_reserved": 0}, {"rental_uris": {"ios": "https://dc.lft.to/lastmile_qr_scan", "android": "https://dc.lft.to/lastmile_qr_scan"}, "lon": -77.03836933333334, "type": "electric_scooter", "fusion_lat": 0.0, "lat": 38.904748833333336, "name": "bce346552c84db1630153ab431188cc5", "fusion_lon": 0.0, "bike_id": "bce346552c84db1630153ab431188cc5", "is_disabled": 0, "is_reserved": 0}, {"rental_uris": {"ios": "https://dc.lft.to/lastmile_qr_scan", "android": "https://dc.lft.to/lastmile_qr_scan"}, "lon": -76.998819, "type": "electric_scooter", "fusion_lat": 0.0, "lat": 38.90938416666667, "name": "e3ae89da9d045b331dbafb3abfbc2070", "fusion_lon": 0.0, "bike_id": "e3ae89da9d045b331dbafb3abfbc2070", "is_disabled": 0, "is_reserved": 0}, {"rental_uris": {"ios": "https://dc.lft.to/lastmile_qr_scan", "android": "https://dc.lft.to/lastmile_qr_scan"}, "lon": -77.0345665, "type": "electric_scooter", "fusion_lat": 0.0, "lat": 38.9086045, "name": "c10a1499186ce82cbc1e2f5fdeb7bea9", "fusion_lon": 0.0, "bike_id": "c10a1499186ce82cbc1e2f5fdeb7bea9", "is_disabled": 0, "is_reserved": 0}, {"rental_uris": {"ios": "https://dc.lft.to/lastmile_qr_scan", "android": "https://dc.lft.to/lastmile_qr_scan"}, "lon": -77.03184416666667, "type": "electric_scooter", "fusion_lat": 0.0, "lat": 38.913259, "name": "9b915941874c712b66a960f7021008df", "fusion_lon": 0.0, "bike_id": "9b915941874c712b66a960f7021008df", "is_disabled": 0, "is_reserved": 0}, {"rental_uris": {"ios": "https://dc.lft.to/lastmile_qr_scan", "android": "https://dc.lft.to/lastmile_qr_scan"}, "lon": -77.0269485, "type": "electric_scooter", "fusion_lat": 0.0, "lat": 38.90627966666667, "name": "de1210e588cf395d8d5c9832fa374ef6", "fusion_lon": 0.0, "bike_id": "de1210e588cf395d8d5c9832fa374ef6", "is_disabled": 0, "is_reserved": 0}, {"rental_uris": {"ios": "https://dc.lft.to/lastmile_qr_scan", "android": "https://dc.lft.to/lastmile_qr_scan"}, "lon": -77.12623216666667, "type": "electric_bike", "fusion_lat": 0.0, "lat": 39.0581485, "name": "662156a539a96adfbbad2dfa496adf85", "fusion_lon": 0.0, "bike_id": "662156a539a96adfbbad2dfa496adf85", "is_disabled": 0, "is_reserved": 0}, {"rental_uris": {"ios": "https://dc.lft.to/lastmile_qr_scan", "android": "https://dc.lft.to/lastmile_qr_scan"}, "lon": -77.02964516666667, "type": "electric_scooter", "fusion_lat": 0.0, "lat": 38.892188166666664, "name": "6c1ad43ab5383761f1710558948e151f", "fusion_lon": 0.0, "bike_id": "6c1ad43ab5383761f1710558948e151f", "is_disabled": 0, "is_reserved": 0}, {"rental_uris": {"ios": "https://dc.lft.to/lastmile_qr_scan", "android": "https://dc.lft.to/lastmile_qr_scan"}, "lon": -77.06177516666666, "type": "electric_scooter", "fusion_lat": 0.0, "lat": 38.90246616666667, "name": "603b834e1fab1c340c3dfc64f129cb4d", "fusion_lon": 0.0, "bike_id": "603b834e1fab1c340c3dfc64f129cb4d", "is_disabled": 0, "is_reserved": 0}, {"rental_uris": {"ios": "https://dc.lft.to/lastmile_qr_scan", "android": "https://dc.lft.to/lastmile_qr_scan"}, "lon": -77.02435433333333, "type": "electric_scooter", "fusion_lat": 0.0, "lat": 38.9010045, "name": "5436a08859a0d9c7fca2300881ecc297", "fusion_lon": 0.0, "bike_id": "5436a08859a0d9c7fca2300881ecc297", "is_disabled": 0, "is_reserved": 0}, {"rental_uris": {"ios": "https://dc.lft.to/lastmile_qr_scan", "android": "https://dc.lft.to/lastmile_qr_scan"}, "lon": -77.03156766666666, "type": "electric_scooter", "fusion_lat": 0.0, "lat": 38.91195183333333, "name": "98761b5228f83321d82103261f9a5e89", "fusion_lon": 0.0, "bike_id": "98761b5228f83321d82103261f9a5e89", "is_disabled": 0, "is_reserved": 0}, {"rental_uris": {"ios": "https://dc.lft.to/lastmile_qr_scan", "android": "https://dc.lft.to/lastmile_qr_scan"}, "lon": -76.97829566666667, "type": "electric_bike", "fusion_lat": 0.0, "lat": 38.846107833333335, "name": "f8a137d68580275eea5870769d62943d", "fusion_lon": 0.0, "bike_id": "f8a137d68580275eea5870769d62943d", "is_disabled": 0, "is_reserved": 0}, {"rental_uris": {"ios": "https://dc.lft.to/lastmile_qr_scan", "android": "https://dc.lft.to/lastmile_qr_scan"}, "lon": -76.9839055, "type": "electric_bike", "fusion_lat": 0.0, "lat": 38.9220005, "name": "371d343b16039384b164e08e60b185d3", "fusion_lon": 0.0, "bike_id": "371d343b16039384b164e08e60b185d3", "is_disabled": 0, "is_reserved": 0}, {"rental_uris": {"ios": "https://dc.lft.to/lastmile_qr_scan", "android": "https://dc.lft.to/lastmile_qr_scan"}, "lon": -77.03758983333333, "type": "electric_scooter", "fusion_lat": 0.0, "lat": 38.916884, "name": "ecc494e7fe139b096d3f4df36d036b07", "fusion_lon": 0.0, "bike_id": "ecc494e7fe139b096d3f4df36d036b07", "is_disabled": 0, "is_reserved": 0}, {"rental_uris": {"ios": "https://dc.lft.to/lastmile_qr_scan", "android": "https://dc.lft.to/lastmile_qr_scan"}, "lon": -77.03977466666667, "type": "electric_scooter", "fusion_lat": 0.0, "lat": 38.90283783333334, "name": "71c0c751dadcfc45a59a7891095c9eeb", "fusion_lon": 0.0, "bike_id": "71c0c751dadcfc45a59a7891095c9eeb", "is_disabled": 0, "is_reserved": 0}, {"rental_uris": {"ios": "https://dc.lft.to/lastmile_qr_scan", "android": "https://dc.lft.to/lastmile_qr_scan"}, "lon": -77.041289, "type": "electric_scooter", "fusion_lat": 0.0, "lat": 38.92203966666667, "name": "1daf3215d3a013454519352f935d1c6e", "fusion_lon": 0.0, "bike_id": "1daf3215d3a013454519352f935d1c6e", "is_disabled": 0, "is_reserved": 0}, {"rental_uris": {"ios": "https://dc.lft.to/lastmile_qr_scan", "android": "https://dc.lft.to/lastmile_qr_scan"}, "lon": -77.04020216666666, "type": "electric_scooter", "fusion_lat": 0.0, "lat": 38.917923, "name": "9d1226c3f1465c63821d487903fc03a9", "fusion_lon": 0.0, "bike_id": "9d1226c3f1465c63821d487903fc03a9", "is_disabled": 0, "is_reserved": 0}, {"rental_uris": {"ios": "https://dc.lft.to/lastmile_qr_scan", "android": "https://dc.lft.to/lastmile_qr_scan"}, "lon": -76.9159695, "type": "electric_bike", "fusion_lat": 0.0, "lat": 38.879818, "name": "56021bb790dcd7c57d80188f9347ac51", "fusion_lon": 0.0, "bike_id": "56021bb790dcd7c57d80188f9347ac51", "is_disabled": 0, "is_reserved": 0}, {"rental_uris": {"ios": "https://dc.lft.to/lastmile_qr_scan", "android": "https://dc.lft.to/lastmile_qr_scan"}, "lon": -77.0244635, "type": "electric_bike", "fusion_lat": 0.0, "lat": 38.99419116666667, "name": "255f1359164cd3fd60feea1455814e5f", "fusion_lon": 0.0, "bike_id": "255f1359164cd3fd60feea1455814e5f", "is_disabled": 0, "is_reserved": 0}, {"rental_uris": {"ios": "https://dc.lft.to/lastmile_qr_scan", "android": "https://dc.lft.to/lastmile_qr_scan"}, "lon": -77.04059866666667, "type": "electric_scooter", "fusion_lat": 0.0, "lat": 38.92649983333333, "name": "ddb31e5eab44da902bba5310f4cd1c4f", "fusion_lon": 0.0, "bike_id": "ddb31e5eab44da902bba5310f4cd1c4f", "is_disabled": 0, "is_reserved": 0}, {"rental_uris": {"ios": "https://dc.lft.to/lastmile_qr_scan", "android": "https://dc.lft.to/lastmile_qr_scan"}, "lon": -77.01995483333333, "type": "electric_scooter", "fusion_lat": 0.0, "lat": 38.90949033333333, "name": "de80b9d4db24f57ae9c139a144518c2f", "fusion_lon": 0.0, "bike_id": "de80b9d4db24f57ae9c139a144518c2f", "is_disabled": 0, "is_reserved": 0}, {"rental_uris": {"ios": "https://dc.lft.to/lastmile_qr_scan", "android": "https://dc.lft.to/lastmile_qr_scan"}, "lon": -77.02240616666667, "type": "electric_scooter", "fusion_lat": 0.0, "lat": 38.91665016666666, "name": "6509610c47bc4845f2b287f5330af043", "fusion_lon": 0.0, "bike_id": "6509610c47bc4845f2b287f5330af043", "is_disabled": 0, "is_reserved": 0}, {"rental_uris": {"ios": "https://dc.lft.to/lastmile_qr_scan", "android": "https://dc.lft.to/lastmile_qr_scan"}, "lon": -76.99945383333333, "type": "electric_scooter", "fusion_lat": 0.0, "lat": 38.84294333333333, "name": "a79b4152be787410db782c05a38c6762", "fusion_lon": 0.0, "bike_id": "a79b4152be787410db782c05a38c6762", "is_disabled": 0, "is_reserved": 0}, {"rental_uris": {"ios": "https://dc.lft.to/lastmile_qr_scan", "android": "https://dc.lft.to/lastmile_qr_scan"}, "lon": -77.07041033333333, "type": "electric_bike", "fusion_lat": 0.0, "lat": 38.824447666666664, "name": "b9e6cf6896a3e7da9cac3bea46963986", "fusion_lon": 0.0, "bike_id": "b9e6cf6896a3e7da9cac3bea46963986", "is_disabled": 0, "is_reserved": 0}, {"rental_uris": {"ios": "https://dc.lft.to/lastmile_qr_scan", "android": "https://dc.lft.to/lastmile_qr_scan"}, "lon": -77.06396366666667, "type": "electric_scooter", "fusion_lat": 0.0, "lat": 38.9290715, "name": "a13070c3c209441edadecea409182e2b", "fusion_lon": 0.0, "bike_id": "a13070c3c209441edadecea409182e2b", "is_disabled": 0, "is_reserved": 0}, {"rental_uris": {"ios": "https://dc.lft.to/lastmile_qr_scan", "android": "https://dc.lft.to/lastmile_qr_scan"}, "lon": -77.06366266666667, "type": "electric_scooter", "fusion_lat": 0.0, "lat": 38.90934433333334, "name": "791403d96d070b39fda2ed8ed319f43f", "fusion_lon": 0.0, "bike_id": "791403d96d070b39fda2ed8ed319f43f", "is_disabled": 0, "is_reserved": 0}, {"rental_uris": {"ios": "https://dc.lft.to/lastmile_qr_scan", "android": "https://dc.lft.to/lastmile_qr_scan"}, "lon": -77.01993633333333, "type": "electric_scooter", "fusion_lat": 0.0, "lat": 38.88377, "name": "e87bd3fca5226ab265e63509b5fe1ff4", "fusion_lon": 0.0, "bike_id": "e87bd3fca5226ab265e63509b5fe1ff4", "is_disabled": 0, "is_reserved": 0}, {"rental_uris": {"ios": "https://dc.lft.to/lastmile_qr_scan", "android": "https://dc.lft.to/lastmile_qr_scan"}, "lon": -77.025292, "type": "electric_scooter", "fusion_lat": 0.0, "lat": 38.9182225, "name": "3d8c98b8786284cfd15ccd0b88dad050", "fusion_lon": 0.0, "bike_id": "3d8c98b8786284cfd15ccd0b88dad050", "is_disabled": 0, "is_reserved": 0}, {"rental_uris": {"ios": "https://dc.lft.to/lastmile_qr_scan", "android": "https://dc.lft.to/lastmile_qr_scan"}, "lon": -76.90816166666667, "type": "electric_bike", "fusion_lat": 0.0, "lat": 39.002519666666664, "name": "a62f85be73477c23166588ef8b8175d8", "fusion_lon": 0.0, "bike_id": "a62f85be73477c23166588ef8b8175d8", "is_disabled": 0, "is_reserved": 0}, {"rental_uris": {"ios": "https://dc.lft.to/lastmile_qr_scan", "android": "https://dc.lft.to/lastmile_qr_scan"}, "lon": -76.991849, "type": "electric_scooter", "fusion_lat": 0.0, "lat": 38.904529, "name": "c37ca92afed7fd3ce4cfcefc1c8e8ef0", "fusion_lon": 0.0, "bike_id": "c37ca92afed7fd3ce4cfcefc1c8e8ef0", "is_disabled": 0, "is_reserved": 0}, {"rental_uris": {"ios": "https://dc.lft.to/lastmile_qr_scan", "android": "https://dc.lft.to/lastmile_qr_scan"}, "lon": -76.99947333333333, "type": "electric_scooter", "fusion_lat": 0.0, "lat": 38.8429085, "name": "c08015c15968cb3735c4a0b24609fbc6", "fusion_lon": 0.0, "bike_id": "c08015c15968cb3735c4a0b24609fbc6", "is_disabled": 0, "is_reserved": 0}, {"rental_uris": {"ios": "https://dc.lft.to/lastmile_qr_scan", "android": "https://dc.lft.to/lastmile_qr_scan"}, "lon": -77.11216816666666, "type": "electric_bike", "fusion_lat": 0.0, "lat": 38.82875716666667, "name": "f1365adf8f6c3a5d625dd8155e9a3658", "fusion_lon": 0.0, "bike_id": "f1365adf8f6c3a5d625dd8155e9a3658", "is_disabled": 0, "is_reserved": 0}, {"rental_uris": {"ios": "https://dc.lft.to/lastmile_qr_scan", "android": "https://dc.lft.to/lastmile_qr_scan"}, "lon": -77.02080833333333, "type": "electric_scooter", "fusion_lat": 0.0, "lat": 38.88187216666667, "name": "e68dea919b497f8f721ddabd498277f2", "fusion_lon": 0.0, "bike_id": "e68dea919b497f8f721ddabd498277f2", "is_disabled": 0, "is_reserved": 0}, {"rental_uris": {"ios": "https://dc.lft.to/lastmile_qr_scan", "android": "https://dc.lft.to/lastmile_qr_scan"}, "lon": -77.037172, "type": "electric_scooter", "fusion_lat": 0.0, "lat": 38.916951166666664, "name": "1682678988f5be66de7201a7504433c4", "fusion_lon": 0.0, "bike_id": "1682678988f5be66de7201a7504433c4", "is_disabled": 0, "is_reserved": 0}, {"rental_uris": {"ios": "https://dc.lft.to/lastmile_qr_scan", "android": "https://dc.lft.to/lastmile_qr_scan"}, "lon": -77.08937133333333, "type": "electric_bike", "fusion_lat": 0.0, "lat": 38.84111633333333, "name": "ee5d3c7fa9aa9d42420392ffe31ecbad", "fusion_lon": 0.0, "bike_id": "ee5d3c7fa9aa9d42420392ffe31ecbad", "is_disabled": 0, "is_reserved": 0}, {"rental_uris": {"ios": "https://dc.lft.to/lastmile_qr_scan", "android": "https://dc.lft.to/lastmile_qr_scan"}, "lon": -77.045, "type": "electric_scooter", "fusion_lat": 0.0, "lat": 38.905656, "name": "8ac2252c3b5dce5838d3834dc738f900", "fusion_lon": 0.0, "bike_id": "8ac2252c3b5dce5838d3834dc738f900", "is_disabled": 0, "is_reserved": 0}, {"rental_uris": {"ios": "https://dc.lft.to/lastmile_qr_scan", "android": "https://dc.lft.to/lastmile_qr_scan"}, "lon": -77.04052933333334, "type": "electric_scooter", "fusion_lat": 0.0, "lat": 38.92715666666667, "name": "6c197d39368bc30fbd1e8447d8e0ac05", "fusion_lon": 0.0, "bike_id": "6c197d39368bc30fbd1e8447d8e0ac05", "is_disabled": 0, "is_reserved": 0}, {"rental_uris": {"ios": "https://dc.lft.to/lastmile_qr_scan", "android": "https://dc.lft.to/lastmile_qr_scan"}, "lon": -77.00554433333333, "type": "electric_scooter", "fusion_lat": 0.0, "lat": 38.879338, "name": "fd4547c4c03d1dd44bfc769c92275cd9", "fusion_lon": 0.0, "bike_id": "fd4547c4c03d1dd44bfc769c92275cd9", "is_disabled": 0, "is_reserved": 0}, {"rental_uris": {"ios": "https://dc.lft.to/lastmile_qr_scan", "android": "https://dc.lft.to/lastmile_qr_scan"}, "lon": -77.03409333333333, "type": "electric_bike", "fusion_lat": 0.0, "lat": 38.9003325, "name": "bfd8bd86c72f5c4023ab3d4f8c5c1c32", "fusion_lon": 0.0, "bike_id": "bfd8bd86c72f5c4023ab3d4f8c5c1c32", "is_disabled": 0, "is_reserved": 0}, {"rental_uris": {"ios": "https://dc.lft.to/lastmile_qr_scan", "android": "https://dc.lft.to/lastmile_qr_scan"}, "lon": -77.0365015, "type": "electric_scooter", "fusion_lat": 0.0, "lat": 38.95625866666666, "name": "6fa304395f9d479544de9b72decdbfcb", "fusion_lon": 0.0, "bike_id": "6fa304395f9d479544de9b72decdbfcb", "is_disabled": 0, "is_reserved": 0}, {"rental_uris": {"ios": "https://dc.lft.to/lastmile_qr_scan", "android": "https://dc.lft.to/lastmile_qr_scan"}, "lon": -77.027954, "type": "electric_scooter", "fusion_lat": 0.0, "lat": 38.92972433333333, "name": "04bfabfd19ac3d835547a73f21c34c27", "fusion_lon": 0.0, "bike_id": "04bfabfd19ac3d835547a73f21c34c27", "is_disabled": 0, "is_reserved": 0}, {"rental_uris": {"ios": "https://dc.lft.to/lastmile_qr_scan", "android": "https://dc.lft.to/lastmile_qr_scan"}, "lon": -77.03559133333333, "type": "electric_scooter", "fusion_lat": 0.0, "lat": 38.90852483333333, "name": "ebfbb32369d99f9178b8a92397d6ccf2", "fusion_lon": 0.0, "bike_id": "ebfbb32369d99f9178b8a92397d6ccf2", "is_disabled": 0, "is_reserved": 0}, {"rental_uris": {"ios": "https://dc.lft.to/lastmile_qr_scan", "android": "https://dc.lft.to/lastmile_qr_scan"}, "lon": -77.01505883333333, "type": "electric_scooter", "fusion_lat": 0.0, "lat": 38.89040383333333, "name": "5f8e69f61cb1cab318143d330cd38db9", "fusion_lon": 0.0, "bike_id": "5f8e69f61cb1cab318143d330cd38db9", "is_disabled": 0, "is_reserved": 0}, {"rental_uris": {"ios": "https://dc.lft.to/lastmile_qr_scan", "android": "https://dc.lft.to/lastmile_qr_scan"}, "lon": -77.03188233333333, "type": "electric_scooter", "fusion_lat": 0.0, "lat": 38.9112715, "name": "57d3ec7070b9354d76c2ebd93e2989f9", "fusion_lon": 0.0, "bike_id": "57d3ec7070b9354d76c2ebd93e2989f9", "is_disabled": 0, "is_reserved": 0}, {"rental_uris": {"ios": "https://dc.lft.to/lastmile_qr_scan", "android": "https://dc.lft.to/lastmile_qr_scan"}, "lon": -77.0321755, "type": "electric_scooter", "fusion_lat": 0.0, "lat": 38.91270383333333, "name": "b06c756b6f1111daefabc0da83b4bb5c", "fusion_lon": 0.0, "bike_id": "b06c756b6f1111daefabc0da83b4bb5c", "is_disabled": 0, "is_reserved": 0}, {"rental_uris": {"ios": "https://dc.lft.to/lastmile_qr_scan", "android": "https://dc.lft.to/lastmile_qr_scan"}, "lon": -77.061179, "type": "electric_scooter", "fusion_lat": 0.0, "lat": 38.90209816666667, "name": "36d9a72d8aca37136e66189e959db0ed", "fusion_lon": 0.0, "bike_id": "36d9a72d8aca37136e66189e959db0ed", "is_disabled": 0, "is_reserved": 0}, {"rental_uris": {"ios": "https://dc.lft.to/lastmile_qr_scan", "android": "https://dc.lft.to/lastmile_qr_scan"}, "lon": -77.02833783333334, "type": "electric_scooter", "fusion_lat": 0.0, "lat": 38.892311666666664, "name": "7dfde4b26edfb126b8c47f4a7d6aeaac", "fusion_lon": 0.0, "bike_id": "7dfde4b26edfb126b8c47f4a7d6aeaac", "is_disabled": 0, "is_reserved": 0}, {"rental_uris": {"ios": "https://dc.lft.to/lastmile_qr_scan", "android": "https://dc.lft.to/lastmile_qr_scan"}, "lon": -77.04653616666667, "type": "electric_scooter", "fusion_lat": 0.0, "lat": 38.91272816666667, "name": "cdc2a5e941041d6eb2413842075caff4", "fusion_lon": 0.0, "bike_id": "cdc2a5e941041d6eb2413842075caff4", "is_disabled": 0, "is_reserved": 0}, {"rental_uris": {"ios": "https://dc.lft.to/lastmile_qr_scan", "android": "https://dc.lft.to/lastmile_qr_scan"}, "lon": -77.0416645, "type": "electric_scooter", "fusion_lat": 0.0, "lat": 38.9198415, "name": "bd04e4abd6a971d7eee3b3fa1999dcf9", "fusion_lon": 0.0, "bike_id": "bd04e4abd6a971d7eee3b3fa1999dcf9", "is_disabled": 0, "is_reserved": 0}, {"rental_uris": {"ios": "https://dc.lft.to/lastmile_qr_scan", "android": "https://dc.lft.to/lastmile_qr_scan"}, "lon": -77.00520033333333, "type": "electric_scooter", "fusion_lat": 0.0, "lat": 38.9290465, "name": "99ff1cf994425845e8c682aaef42268e", "fusion_lon": 0.0, "bike_id": "99ff1cf994425845e8c682aaef42268e", "is_disabled": 0, "is_reserved": 0}, {"rental_uris": {"ios": "https://dc.lft.to/lastmile_qr_scan", "android": "https://dc.lft.to/lastmile_qr_scan"}, "lon": -77.05633616666667, "type": "electric_scooter", "fusion_lat": 0.0, "lat": 38.927529, "name": "096ddccea82ac8e667de255a86613fba", "fusion_lon": 0.0, "bike_id": "096ddccea82ac8e667de255a86613fba", "is_disabled": 0, "is_reserved": 0}, {"rental_uris": {"ios": "https://dc.lft.to/lastmile_qr_scan", "android": "https://dc.lft.to/lastmile_qr_scan"}, "lon": -77.04026833333333, "type": "electric_scooter", "fusion_lat": 0.0, "lat": 38.9244235, "name": "cd63e87a9f470aacab8a74b7a1c1dd4c", "fusion_lon": 0.0, "bike_id": "cd63e87a9f470aacab8a74b7a1c1dd4c", "is_disabled": 0, "is_reserved": 0}, {"rental_uris": {"ios": "https://dc.lft.to/lastmile_qr_scan", "android": "https://dc.lft.to/lastmile_qr_scan"}, "lon": -77.01187266666666, "type": "electric_scooter", "fusion_lat": 0.0, "lat": 38.9002385, "name": "63eda6f562241f9b0a54ff5a0e4be7d3", "fusion_lon": 0.0, "bike_id": "63eda6f562241f9b0a54ff5a0e4be7d3", "is_disabled": 0, "is_reserved": 0}, {"rental_uris": {"ios": "https://dc.lft.to/lastmile_qr_scan", "android": "https://dc.lft.to/lastmile_qr_scan"}, "lon": -77.01373133333334, "type": "electric_scooter", "fusion_lat": 0.0, "lat": 38.919465833333334, "name": "c69e9b561ec883220bf66ec3e325017f", "fusion_lon": 0.0, "bike_id": "c69e9b561ec883220bf66ec3e325017f", "is_disabled": 0, "is_reserved": 0}, {"rental_uris": {"ios": "https://dc.lft.to/lastmile_qr_scan", "android": "https://dc.lft.to/lastmile_qr_scan"}, "lon": -77.04688416666667, "type": "electric_scooter", "fusion_lat": 0.0, "lat": 38.905249166666664, "name": "8a0d09c83022e1a70e40cc677d8fdfdd", "fusion_lon": 0.0, "bike_id": "8a0d09c83022e1a70e40cc677d8fdfdd", "is_disabled": 0, "is_reserved": 0}, {"rental_uris": {"ios": "https://dc.lft.to/lastmile_qr_scan", "android": "https://dc.lft.to/lastmile_qr_scan"}, "lon": -77.07227466666667, "type": "electric_scooter", "fusion_lat": 0.0, "lat": 38.9338595, "name": "87708be294e28c13746c33a85af9a936", "fusion_lon": 0.0, "bike_id": "87708be294e28c13746c33a85af9a936", "is_disabled": 0, "is_reserved": 0}, {"rental_uris": {"ios": "https://dc.lft.to/lastmile_qr_scan", "android": "https://dc.lft.to/lastmile_qr_scan"}, "lon": -77.03183333333334, "type": "electric_scooter", "fusion_lat": 0.0, "lat": 38.91794933333333, "name": "b2cf93476b2c98afd2559bf5d8173932", "fusion_lon": 0.0, "bike_id": "b2cf93476b2c98afd2559bf5d8173932", "is_disabled": 0, "is_reserved": 0}, {"rental_uris": {"ios": "https://dc.lft.to/lastmile_qr_scan", "android": "https://dc.lft.to/lastmile_qr_scan"}, "lon": -77.06414583333333, "type": "electric_scooter", "fusion_lat": 0.0, "lat": 38.909103333333334, "name": "4a00bbcfc514d43e443daecf23340d55", "fusion_lon": 0.0, "bike_id": "4a00bbcfc514d43e443daecf23340d55", "is_disabled": 0, "is_reserved": 0}, {"rental_uris": {"ios": "https://dc.lft.to/lastmile_qr_scan", "android": "https://dc.lft.to/lastmile_qr_scan"}, "lon": -77.0747935, "type": "electric_scooter", "fusion_lat": 0.0, "lat": 38.960375, "name": "62fe156e1760550c40663d6b4204c2de", "fusion_lon": 0.0, "bike_id": "62fe156e1760550c40663d6b4204c2de", "is_disabled": 0, "is_reserved": 0}, {"rental_uris": {"ios": "https://dc.lft.to/lastmile_qr_scan", "android": "https://dc.lft.to/lastmile_qr_scan"}, "lon": -77.07268483333333, "type": "electric_scooter", "fusion_lat": 0.0, "lat": 38.93482066666667, "name": "723cd64e54a43b63d72b30f2a9980b37", "fusion_lon": 0.0, "bike_id": "723cd64e54a43b63d72b30f2a9980b37", "is_disabled": 0, "is_reserved": 0}, {"rental_uris": {"ios": "https://dc.lft.to/lastmile_qr_scan", "android": "https://dc.lft.to/lastmile_qr_scan"}, "lon": -77.02342083333333, "type": "electric_scooter", "fusion_lat": 0.0, "lat": 38.962064, "name": "8f284e230928d7304fa64999f76607b1", "fusion_lon": 0.0, "bike_id": "8f284e230928d7304fa64999f76607b1", "is_disabled": 0, "is_reserved": 0}, {"rental_uris": {"ios": "https://dc.lft.to/lastmile_qr_scan", "android": "https://dc.lft.to/lastmile_qr_scan"}, "lon": -77.0050125, "type": "electric_scooter", "fusion_lat": 0.0, "lat": 38.8959115, "name": "b31af5187008a6550261237a31cd0ab6", "fusion_lon": 0.0, "bike_id": "b31af5187008a6550261237a31cd0ab6", "is_disabled": 0, "is_reserved": 0}, {"rental_uris": {"ios": "https://dc.lft.to/lastmile_qr_scan", "android": "https://dc.lft.to/lastmile_qr_scan"}, "lon": -77.02828816666667, "type": "electric_scooter", "fusion_lat": 0.0, "lat": 38.892352833333334, "name": "4167df3006056b5dbd73da6e0455e7a4", "fusion_lon": 0.0, "bike_id": "4167df3006056b5dbd73da6e0455e7a4", "is_disabled": 0, "is_reserved": 0}, {"rental_uris": {"ios": "https://dc.lft.to/lastmile_qr_scan", "android": "https://dc.lft.to/lastmile_qr_scan"}, "lon": -77.03688633333333, "type": "electric_scooter", "fusion_lat": 0.0, "lat": 38.936581833333335, "name": "6ea0b3bf94d4ccbf8ac892c088b565f1", "fusion_lon": 0.0, "bike_id": "6ea0b3bf94d4ccbf8ac892c088b565f1", "is_disabled": 0, "is_reserved": 0}, {"rental_uris": {"ios": "https://dc.lft.to/lastmile_qr_scan", "android": "https://dc.lft.to/lastmile_qr_scan"}, "lon": -77.04738033333334, "type": "electric_scooter", "fusion_lat": 0.0, "lat": 38.902377, "name": "e377867e3b567c26c75dcb16a3c5fbb6", "fusion_lon": 0.0, "bike_id": "e377867e3b567c26c75dcb16a3c5fbb6", "is_disabled": 0, "is_reserved": 0}, {"rental_uris": {"ios": "https://dc.lft.to/lastmile_qr_scan", "android": "https://dc.lft.to/lastmile_qr_scan"}, "lon": -77.11207933333333, "type": "electric_bike", "fusion_lat": 0.0, "lat": 38.8130985, "name": "30c3fdd2bf27b0d5daf1368c47f35fa1", "fusion_lon": 0.0, "bike_id": "30c3fdd2bf27b0d5daf1368c47f35fa1", "is_disabled": 0, "is_reserved": 0}, {"rental_uris": {"ios": "https://dc.lft.to/lastmile_qr_scan", "android": "https://dc.lft.to/lastmile_qr_scan"}, "lon": -77.04805933333333, "type": "electric_scooter", "fusion_lat": 0.0, "lat": 38.89609316666667, "name": "33ea1dba4e4bd7ccc851484d242fa30e", "fusion_lon": 0.0, "bike_id": "33ea1dba4e4bd7ccc851484d242fa30e", "is_disabled": 0, "is_reserved": 0}, {"rental_uris": {"ios": "https://dc.lft.to/lastmile_qr_scan", "android": "https://dc.lft.to/lastmile_qr_scan"}, "lon": -76.935328, "type": "electric_bike", "fusion_lat": 0.0, "lat": 38.955498166666665, "name": "53b777f06fd1ad47c7274c59c42c5f5a", "fusion_lon": 0.0, "bike_id": "53b777f06fd1ad47c7274c59c42c5f5a", "is_disabled": 0, "is_reserved": 0}, {"rental_uris": {"ios": "https://dc.lft.to/lastmile_qr_scan", "android": "https://dc.lft.to/lastmile_qr_scan"}, "lon": -76.95756066666667, "type": "electric_scooter", "fusion_lat": 0.0, "lat": 38.884310166666666, "name": "62dcb6a76d989f00d919aaaaac842382", "fusion_lon": 0.0, "bike_id": "62dcb6a76d989f00d919aaaaac842382", "is_disabled": 0, "is_reserved": 0}, {"rental_uris": {"ios": "https://dc.lft.to/lastmile_qr_scan", "android": "https://dc.lft.to/lastmile_qr_scan"}, "lon": -76.99502, "type": "electric_scooter", "fusion_lat": 0.0, "lat": 38.8849215, "name": "06701dbb9df80bdf36244e36ba24f168", "fusion_lon": 0.0, "bike_id": "06701dbb9df80bdf36244e36ba24f168", "is_disabled": 0, "is_reserved": 0}, {"rental_uris": {"ios": "https://dc.lft.to/lastmile_qr_scan", "android": "https://dc.lft.to/lastmile_qr_scan"}, "lon": -77.12256316666667, "type": "electric_bike", "fusion_lat": 0.0, "lat": 38.8918995, "name": "1ca94d6bc0ad3957b8c8ba651d61645e", "fusion_lon": 0.0, "bike_id": "1ca94d6bc0ad3957b8c8ba651d61645e", "is_disabled": 0, "is_reserved": 0}, {"rental_uris": {"ios": "https://dc.lft.to/lastmile_qr_scan", "android": "https://dc.lft.to/lastmile_qr_scan"}, "lon": -77.02386316666667, "type": "electric_scooter", "fusion_lat": 0.0, "lat": 38.915975, "name": "cb3da2874b5b4b5220c44c9c72a89cd4", "fusion_lon": 0.0, "bike_id": "cb3da2874b5b4b5220c44c9c72a89cd4", "is_disabled": 0, "is_reserved": 0}, {"rental_uris": {"ios": "https://dc.lft.to/lastmile_qr_scan", "android": "https://dc.lft.to/lastmile_qr_scan"}, "lon": -77.03243566666667, "type": "electric_scooter", "fusion_lat": 0.0, "lat": 38.929271666666665, "name": "2ef5f5b71253e8cbab85d391667363e7", "fusion_lon": 0.0, "bike_id": "2ef5f5b71253e8cbab85d391667363e7", "is_disabled": 0, "is_reserved": 0}, {"rental_uris": {"ios": "https://dc.lft.to/lastmile_qr_scan", "android": "https://dc.lft.to/lastmile_qr_scan"}, "lon": -77.0500075, "type": "electric_scooter", "fusion_lat": 0.0, "lat": 38.898984166666665, "name": "c1b8c3ffe9be9df17643e08d51a259b2", "fusion_lon": 0.0, "bike_id": "c1b8c3ffe9be9df17643e08d51a259b2", "is_disabled": 0, "is_reserved": 0}, {"rental_uris": {"ios": "https://dc.lft.to/lastmile_qr_scan", "android": "https://dc.lft.to/lastmile_qr_scan"}, "lon": -77.076804, "type": "electric_bike", "fusion_lat": 0.0, "lat": 38.831941666666665, "name": "e7b9916b632e3eb910b6833c4ef3682d", "fusion_lon": 0.0, "bike_id": "e7b9916b632e3eb910b6833c4ef3682d", "is_disabled": 0, "is_reserved": 0}, {"rental_uris": {"ios": "https://dc.lft.to/lastmile_qr_scan", "android": "https://dc.lft.to/lastmile_qr_scan"}, "lon": -77.029118, "type": "electric_scooter", "fusion_lat": 0.0, "lat": 38.89840183333333, "name": "84c242d2ca800bf0383fafe080d0b00e", "fusion_lon": 0.0, "bike_id": "84c242d2ca800bf0383fafe080d0b00e", "is_disabled": 0, "is_reserved": 0}, {"rental_uris": {"ios": "https://dc.lft.to/lastmile_qr_scan", "android": "https://dc.lft.to/lastmile_qr_scan"}, "lon": -77.02721283333334, "type": "electric_scooter", "fusion_lat": 0.0, "lat": 38.918181833333335, "name": "5ab4dcd9311d88686016c2a8c81f929b", "fusion_lon": 0.0, "bike_id": "5ab4dcd9311d88686016c2a8c81f929b", "is_disabled": 0, "is_reserved": 0}, {"rental_uris": {"ios": "https://dc.lft.to/lastmile_qr_scan", "android": "https://dc.lft.to/lastmile_qr_scan"}, "lon": -77.112202, "type": "electric_bike", "fusion_lat": 0.0, "lat": 38.82875766666667, "name": "ad88633199de871f4cb357686b3d3fa1", "fusion_lon": 0.0, "bike_id": "ad88633199de871f4cb357686b3d3fa1", "is_disabled": 0, "is_reserved": 0}, {"rental_uris": {"ios": "https://dc.lft.to/lastmile_qr_scan", "android": "https://dc.lft.to/lastmile_qr_scan"}, "lon": -77.01055216666667, "type": "electric_scooter", "fusion_lat": 0.0, "lat": 38.879340666666664, "name": "a1665848326cfe01b0ca9cb1061af75c", "fusion_lon": 0.0, "bike_id": "a1665848326cfe01b0ca9cb1061af75c", "is_disabled": 0, "is_reserved": 0}, {"rental_uris": {"ios": "https://dc.lft.to/lastmile_qr_scan", "android": "https://dc.lft.to/lastmile_qr_scan"}, "lon": -77.04503733333334, "type": "electric_scooter", "fusion_lat": 0.0, "lat": 38.89225066666667, "name": "b9bf75bb28d1ae215d22a17ebd0418d6", "fusion_lon": 0.0, "bike_id": "b9bf75bb28d1ae215d22a17ebd0418d6", "is_disabled": 0, "is_reserved": 0}, {"rental_uris": {"ios": "https://dc.lft.to/lastmile_qr_scan", "android": "https://dc.lft.to/lastmile_qr_scan"}, "lon": -77.0229995, "type": "electric_scooter", "fusion_lat": 0.0, "lat": 38.932949, "name": "20e6422d330538f621e67928d91dab14", "fusion_lon": 0.0, "bike_id": "20e6422d330538f621e67928d91dab14", "is_disabled": 0, "is_reserved": 0}, {"rental_uris": {"ios": "https://dc.lft.to/lastmile_qr_scan", "android": "https://dc.lft.to/lastmile_qr_scan"}, "lon": -77.01766183333334, "type": "electric_scooter", "fusion_lat": 0.0, "lat": 38.90376283333333, "name": "402f89bb843f365f31256c39c0b6e3cf", "fusion_lon": 0.0, "bike_id": "402f89bb843f365f31256c39c0b6e3cf", "is_disabled": 0, "is_reserved": 0}, {"rental_uris": {"ios": "https://dc.lft.to/lastmile_qr_scan", "android": "https://dc.lft.to/lastmile_qr_scan"}, "lon": -77.02998383333333, "type": "electric_scooter", "fusion_lat": 0.0, "lat": 38.905128500000004, "name": "744981d97fcc52c2372457d07fb0d3a4", "fusion_lon": 0.0, "bike_id": "744981d97fcc52c2372457d07fb0d3a4", "is_disabled": 0, "is_reserved": 0}, {"rental_uris": {"ios": "https://dc.lft.to/lastmile_qr_scan", "android": "https://dc.lft.to/lastmile_qr_scan"}, "lon": -77.0211475, "type": "electric_scooter", "fusion_lat": 0.0, "lat": 38.91302616666667, "name": "7bfd9a4a4281128b581f6d7c22c9fab8", "fusion_lon": 0.0, "bike_id": "7bfd9a4a4281128b581f6d7c22c9fab8", "is_disabled": 0, "is_reserved": 0}, {"rental_uris": {"ios": "https://dc.lft.to/lastmile_qr_scan", "android": "https://dc.lft.to/lastmile_qr_scan"}, "lon": -76.93801033333334, "type": "electric_scooter", "fusion_lat": 0.0, "lat": 38.882377, "name": "b1b9132c1d08886f6edbc1c97042ead3", "fusion_lon": 0.0, "bike_id": "b1b9132c1d08886f6edbc1c97042ead3", "is_disabled": 0, "is_reserved": 0}, {"rental_uris": {"ios": "https://dc.lft.to/lastmile_qr_scan", "android": "https://dc.lft.to/lastmile_qr_scan"}, "lon": -77.02829933333334, "type": "electric_scooter", "fusion_lat": 0.0, "lat": 38.892304833333334, "name": "da82db0897442737da8d953818b9df2c", "fusion_lon": 0.0, "bike_id": "da82db0897442737da8d953818b9df2c", "is_disabled": 0, "is_reserved": 0}, {"rental_uris": {"ios": "https://dc.lft.to/lastmile_qr_scan", "android": "https://dc.lft.to/lastmile_qr_scan"}, "lon": -77.0197825, "type": "electric_scooter", "fusion_lat": 0.0, "lat": 38.887213333333335, "name": "ef16b379798bc6d13f7652f5046f3219", "fusion_lon": 0.0, "bike_id": "ef16b379798bc6d13f7652f5046f3219", "is_disabled": 0, "is_reserved": 0}, {"rental_uris": {"ios": "https://dc.lft.to/lastmile_qr_scan", "android": "https://dc.lft.to/lastmile_qr_scan"}, "lon": -77.00981783333333, "type": "electric_scooter", "fusion_lat": 0.0, "lat": 38.91490783333333, "name": "e2a2e9a2992aad4da215fba67af26977", "fusion_lon": 0.0, "bike_id": "e2a2e9a2992aad4da215fba67af26977", "is_disabled": 0, "is_reserved": 0}, {"rental_uris": {"ios": "https://dc.lft.to/lastmile_qr_scan", "android": "https://dc.lft.to/lastmile_qr_scan"}, "lon": -76.9662545, "type": "electric_bike", "fusion_lat": 0.0, "lat": 38.941970166666664, "name": "e5cb71148aa52ec95b5d17b1bfa93267", "fusion_lon": 0.0, "bike_id": "e5cb71148aa52ec95b5d17b1bfa93267", "is_disabled": 0, "is_reserved": 0}, {"rental_uris": {"ios": "https://dc.lft.to/lastmile_qr_scan", "android": "https://dc.lft.to/lastmile_qr_scan"}, "lon": -77.028053, "type": "electric_scooter", "fusion_lat": 0.0, "lat": 38.91765083333333, "name": "9a810a3878b0cfa564a2c23e64b6aac3", "fusion_lon": 0.0, "bike_id": "9a810a3878b0cfa564a2c23e64b6aac3", "is_disabled": 0, "is_reserved": 0}, {"rental_uris": {"ios": "https://dc.lft.to/lastmile_qr_scan", "android": "https://dc.lft.to/lastmile_qr_scan"}, "lon": -77.02392383333333, "type": "electric_scooter", "fusion_lat": 0.0, "lat": 38.952919666666666, "name": "d6973a4105a4e2083734d812671cfca7", "fusion_lon": 0.0, "bike_id": "d6973a4105a4e2083734d812671cfca7", "is_disabled": 0, "is_reserved": 0}, {"rental_uris": {"ios": "https://dc.lft.to/lastmile_qr_scan", "android": "https://dc.lft.to/lastmile_qr_scan"}, "lon": -77.04643333333334, "type": "electric_bike", "fusion_lat": 0.0, "lat": 38.85214083333334, "name": "a06e365817cb2600c9f95140d830d663", "fusion_lon": 0.0, "bike_id": "a06e365817cb2600c9f95140d830d663", "is_disabled": 0, "is_reserved": 0}, {"rental_uris": {"ios": "https://dc.lft.to/lastmile_qr_scan", "android": "https://dc.lft.to/lastmile_qr_scan"}, "lon": -76.94759216666667, "type": "electric_scooter", "fusion_lat": 0.0, "lat": 38.896853166666666, "name": "49daf9012f0951a6941f2bd962caffb2", "fusion_lon": 0.0, "bike_id": "49daf9012f0951a6941f2bd962caffb2", "is_disabled": 0, "is_reserved": 0}, {"rental_uris": {"ios": "https://dc.lft.to/lastmile_qr_scan", "android": "https://dc.lft.to/lastmile_qr_scan"}, "lon": -77.0482425, "type": "electric_scooter", "fusion_lat": 0.0, "lat": 38.90795083333333, "name": "b652a73faad9c98fd2d34f4049d60655", "fusion_lon": 0.0, "bike_id": "b652a73faad9c98fd2d34f4049d60655", "is_disabled": 0, "is_reserved": 0}, {"rental_uris": {"ios": "https://dc.lft.to/lastmile_qr_scan", "android": "https://dc.lft.to/lastmile_qr_scan"}, "lon": -77.05524366666667, "type": "electric_scooter", "fusion_lat": 0.0, "lat": 38.8973095, "name": "d1e45ace31712d712e34288d0ef66059", "fusion_lon": 0.0, "bike_id": "d1e45ace31712d712e34288d0ef66059", "is_disabled": 0, "is_reserved": 0}, {"rental_uris": {"ios": "https://dc.lft.to/lastmile_qr_scan", "android": "https://dc.lft.to/lastmile_qr_scan"}, "lon": -77.04619316666667, "type": "electric_scooter", "fusion_lat": 0.0, "lat": 38.906634, "name": "a2d100a53c09fb66b0952afd5394ce23", "fusion_lon": 0.0, "bike_id": "a2d100a53c09fb66b0952afd5394ce23", "is_disabled": 0, "is_reserved": 0}, {"rental_uris": {"ios": "https://dc.lft.to/lastmile_qr_scan", "android": "https://dc.lft.to/lastmile_qr_scan"}, "lon": -76.93366933333333, "type": "electric_scooter", "fusion_lat": 0.0, "lat": 38.899191, "name": "b09336168a0497e8575f5afd3b857836", "fusion_lon": 0.0, "bike_id": "b09336168a0497e8575f5afd3b857836", "is_disabled": 0, "is_reserved": 0}, {"rental_uris": {"ios": "https://dc.lft.to/lastmile_qr_scan", "android": "https://dc.lft.to/lastmile_qr_scan"}, "lon": -77.06270083333334, "type": "electric_scooter", "fusion_lat": 0.0, "lat": 38.90356116666667, "name": "20b4deb37afed7f91f017d7f36911005", "fusion_lon": 0.0, "bike_id": "20b4deb37afed7f91f017d7f36911005", "is_disabled": 0, "is_reserved": 0}, {"rental_uris": {"ios": "https://dc.lft.to/lastmile_qr_scan", "android": "https://dc.lft.to/lastmile_qr_scan"}, "lon": -77.058618, "type": "electric_scooter", "fusion_lat": 0.0, "lat": 38.936086, "name": "67462395614e8507733653aed7d3730e", "fusion_lon": 0.0, "bike_id": "67462395614e8507733653aed7d3730e", "is_disabled": 0, "is_reserved": 0}, {"rental_uris": {"ios": "https://dc.lft.to/lastmile_qr_scan", "android": "https://dc.lft.to/lastmile_qr_scan"}, "lon": -77.03171766666667, "type": "electric_scooter", "fusion_lat": 0.0, "lat": 38.897405, "name": "b6f1259dd363354afc46115ae348e222", "fusion_lon": 0.0, "bike_id": "b6f1259dd363354afc46115ae348e222", "is_disabled": 0, "is_reserved": 0}, {"rental_uris": {"ios": "https://dc.lft.to/lastmile_qr_scan", "android": "https://dc.lft.to/lastmile_qr_scan"}, "lon": -77.0469835, "type": "electric_scooter", "fusion_lat": 0.0, "lat": 38.90528116666667, "name": "78275c6ebbc12a7c7441393a12c30539", "fusion_lon": 0.0, "bike_id": "78275c6ebbc12a7c7441393a12c30539", "is_disabled": 0, "is_reserved": 0}, {"rental_uris": {"ios": "https://dc.lft.to/lastmile_qr_scan", "android": "https://dc.lft.to/lastmile_qr_scan"}, "lon": -76.99061616666667, "type": "electric_scooter", "fusion_lat": 0.0, "lat": 38.863548, "name": "64688b3fefec0f0dbcc667cb2a9c0812", "fusion_lon": 0.0, "bike_id": "64688b3fefec0f0dbcc667cb2a9c0812", "is_disabled": 0, "is_reserved": 0}, {"rental_uris": {"ios": "https://dc.lft.to/lastmile_qr_scan", "android": "https://dc.lft.to/lastmile_qr_scan"}, "lon": -76.99836183333333, "type": "electric_scooter", "fusion_lat": 0.0, "lat": 38.900053, "name": "d49ecc936ea3f45323f4b223d4e0fc92", "fusion_lon": 0.0, "bike_id": "d49ecc936ea3f45323f4b223d4e0fc92", "is_disabled": 0, "is_reserved": 0}, {"rental_uris": {"ios": "https://dc.lft.to/lastmile_qr_scan", "android": "https://dc.lft.to/lastmile_qr_scan"}, "lon": -77.05523266666667, "type": "electric_scooter", "fusion_lat": 0.0, "lat": 38.897291, "name": "3976b546a46ceb1ed7a4aa07a41d1241", "fusion_lon": 0.0, "bike_id": "3976b546a46ceb1ed7a4aa07a41d1241", "is_disabled": 0, "is_reserved": 0}, {"rental_uris": {"ios": "https://dc.lft.to/lastmile_qr_scan", "android": "https://dc.lft.to/lastmile_qr_scan"}, "lon": -76.96850183333333, "type": "electric_scooter", "fusion_lat": 0.0, "lat": 38.87464966666667, "name": "24ccdaf66ff5dba304d3a0d8070f2fa7", "fusion_lon": 0.0, "bike_id": "24ccdaf66ff5dba304d3a0d8070f2fa7", "is_disabled": 0, "is_reserved": 0}, {"rental_uris": {"ios": "https://dc.lft.to/lastmile_qr_scan", "android": "https://dc.lft.to/lastmile_qr_scan"}, "lon": -77.06376483333334, "type": "electric_scooter", "fusion_lat": 0.0, "lat": 38.90522566666667, "name": "225750ff3017436126d851a9925c303c", "fusion_lon": 0.0, "bike_id": "225750ff3017436126d851a9925c303c", "is_disabled": 0, "is_reserved": 0}, {"rental_uris": {"ios": "https://dc.lft.to/lastmile_qr_scan", "android": "https://dc.lft.to/lastmile_qr_scan"}, "lon": -77.02354716666666, "type": "electric_scooter", "fusion_lat": 0.0, "lat": 38.9316095, "name": "68cb54aee8f8ffd4dd488a4c1919f993", "fusion_lon": 0.0, "bike_id": "68cb54aee8f8ffd4dd488a4c1919f993", "is_disabled": 0, "is_reserved": 0}, {"rental_uris": {"ios": "https://dc.lft.to/lastmile_qr_scan", "android": "https://dc.lft.to/lastmile_qr_scan"}, "lon": -77.02401433333333, "type": "electric_scooter", "fusion_lat": 0.0, "lat": 38.90590683333333, "name": "980411299473e8ef81f757d2e349043e", "fusion_lon": 0.0, "bike_id": "980411299473e8ef81f757d2e349043e", "is_disabled": 0, "is_reserved": 0}, {"rental_uris": {"ios": "https://dc.lft.to/lastmile_qr_scan", "android": "https://dc.lft.to/lastmile_qr_scan"}, "lon": -77.06919066666667, "type": "electric_bike", "fusion_lat": 0.0, "lat": 38.909816, "name": "3624795853136a1c4691e0b1cfabb64f", "fusion_lon": 0.0, "bike_id": "3624795853136a1c4691e0b1cfabb64f", "is_disabled": 0, "is_reserved": 0}, {"rental_uris": {"ios": "https://dc.lft.to/lastmile_qr_scan", "android": "https://dc.lft.to/lastmile_qr_scan"}, "lon": -77.02609, "type": "electric_scooter", "fusion_lat": 0.0, "lat": 38.90165283333333, "name": "9424421c927ee4d7ee35120ad707580f", "fusion_lon": 0.0, "bike_id": "9424421c927ee4d7ee35120ad707580f", "is_disabled": 0, "is_reserved": 0}, {"rental_uris": {"ios": "https://dc.lft.to/lastmile_qr_scan", "android": "https://dc.lft.to/lastmile_qr_scan"}, "lon": -77.07540283333333, "type": "electric_bike", "fusion_lat": 0.0, "lat": 38.906921, "name": "a1711402a738cba59d62ffc0c090b144", "fusion_lon": 0.0, "bike_id": "a1711402a738cba59d62ffc0c090b144", "is_disabled": 0, "is_reserved": 0}, {"rental_uris": {"ios": "https://dc.lft.to/lastmile_qr_scan", "android": "https://dc.lft.to/lastmile_qr_scan"}, "lon": -77.036432, "type": "electric_scooter", "fusion_lat": 0.0, "lat": 38.907921333333334, "name": "f8deb66f22cb0f3aace7e22c94c1bcbf", "fusion_lon": 0.0, "bike_id": "f8deb66f22cb0f3aace7e22c94c1bcbf", "is_disabled": 0, "is_reserved": 0}, {"rental_uris": {"ios": "https://dc.lft.to/lastmile_qr_scan", "android": "https://dc.lft.to/lastmile_qr_scan"}, "lon": -76.99748383333333, "type": "electric_scooter", "fusion_lat": 0.0, "lat": 38.9003015, "name": "5c81d3aace7b8701bb882b905187295d", "fusion_lon": 0.0, "bike_id": "5c81d3aace7b8701bb882b905187295d", "is_disabled": 0, "is_reserved": 0}, {"rental_uris": {"ios": "https://dc.lft.to/lastmile_qr_scan", "android": "https://dc.lft.to/lastmile_qr_scan"}, "lon": -77.032017, "type": "electric_scooter", "fusion_lat": 0.0, "lat": 38.911546666666666, "name": "1a55d155c3df3cffa75155e5e39cd914", "fusion_lon": 0.0, "bike_id": "1a55d155c3df3cffa75155e5e39cd914", "is_disabled": 0, "is_reserved": 0}, {"rental_uris": {"ios": "https://dc.lft.to/lastmile_qr_scan", "android": "https://dc.lft.to/lastmile_qr_scan"}, "lon": -77.10648933333333, "type": "electric_bike", "fusion_lat": 0.0, "lat": 38.85548283333333, "name": "2c1324f49858bc9cd334742b8a18ee57", "fusion_lon": 0.0, "bike_id": "2c1324f49858bc9cd334742b8a18ee57", "is_disabled": 0, "is_reserved": 0}, {"rental_uris": {"ios": "https://dc.lft.to/lastmile_qr_scan", "android": "https://dc.lft.to/lastmile_qr_scan"}, "lon": -76.98844633333333, "type": "electric_scooter", "fusion_lat": 0.0, "lat": 38.892926333333335, "name": "37f9bb8bfbb409bd16e48dedee64e56a", "fusion_lon": 0.0, "bike_id": "37f9bb8bfbb409bd16e48dedee64e56a", "is_disabled": 0, "is_reserved": 0}, {"rental_uris": {"ios": "https://dc.lft.to/lastmile_qr_scan", "android": "https://dc.lft.to/lastmile_qr_scan"}, "lon": -76.99731166666666, "type": "electric_scooter", "fusion_lat": 0.0, "lat": 38.90018633333333, "name": "9fada87d024685df5d657c9313624ccf", "fusion_lon": 0.0, "bike_id": "9fada87d024685df5d657c9313624ccf", "is_disabled": 0, "is_reserved": 0}, {"rental_uris": {"ios": "https://dc.lft.to/lastmile_qr_scan", "android": "https://dc.lft.to/lastmile_qr_scan"}, "lon": -77.06347966666667, "type": "electric_bike", "fusion_lat": 0.0, "lat": 38.9084785, "name": "a9e7de200420a6f38cee389c02fb7ce7", "fusion_lon": 0.0, "bike_id": "a9e7de200420a6f38cee389c02fb7ce7", "is_disabled": 0, "is_reserved": 0}, {"rental_uris": {"ios": "https://dc.lft.to/lastmile_qr_scan", "android": "https://dc.lft.to/lastmile_qr_scan"}, "lon": -77.0336335, "type": "electric_scooter", "fusion_lat": 0.0, "lat": 38.9063245, "name": "6cf87506cd1a68cc79def4f781be16bf", "fusion_lon": 0.0, "bike_id": "6cf87506cd1a68cc79def4f781be16bf", "is_disabled": 0, "is_reserved": 0}, {"rental_uris": {"ios": "https://dc.lft.to/lastmile_qr_scan", "android": "https://dc.lft.to/lastmile_qr_scan"}, "lon": -77.0317565, "type": "electric_scooter", "fusion_lat": 0.0, "lat": 38.91923216666667, "name": "0a500ab9f194d6d56f6da17ac12c7d03", "fusion_lon": 0.0, "bike_id": "0a500ab9f194d6d56f6da17ac12c7d03", "is_disabled": 0, "is_reserved": 0}, {"rental_uris": {"ios": "https://dc.lft.to/lastmile_qr_scan", "android": "https://dc.lft.to/lastmile_qr_scan"}, "lon": -77.04875183333333, "type": "electric_scooter", "fusion_lat": 0.0, "lat": 38.90643216666667, "name": "e8efc02804392a2763006f6ebb00b090", "fusion_lon": 0.0, "bike_id": "e8efc02804392a2763006f6ebb00b090", "is_disabled": 0, "is_reserved": 0}, {"rental_uris": {"ios": "https://dc.lft.to/lastmile_qr_scan", "android": "https://dc.lft.to/lastmile_qr_scan"}, "lon": -76.97250333333334, "type": "electric_bike", "fusion_lat": 0.0, "lat": 38.95742283333333, "name": "06b3a5bc69c42e85ed15e213f267f2f3", "fusion_lon": 0.0, "bike_id": "06b3a5bc69c42e85ed15e213f267f2f3", "is_disabled": 0, "is_reserved": 0}, {"rental_uris": {"ios": "https://dc.lft.to/lastmile_qr_scan", "android": "https://dc.lft.to/lastmile_qr_scan"}, "lon": -77.03205916666667, "type": "electric_scooter", "fusion_lat": 0.0, "lat": 38.93756616666667, "name": "159e54347c7049de466f6ac27d39a059", "fusion_lon": 0.0, "bike_id": "159e54347c7049de466f6ac27d39a059", "is_disabled": 0, "is_reserved": 0}, {"rental_uris": {"ios": "https://dc.lft.to/lastmile_qr_scan", "android": "https://dc.lft.to/lastmile_qr_scan"}, "lon": -77.00483666666666, "type": "electric_scooter", "fusion_lat": 0.0, "lat": 38.91260916666667, "name": "89369412ae2178292960b4ef1eb5aab9", "fusion_lon": 0.0, "bike_id": "89369412ae2178292960b4ef1eb5aab9", "is_disabled": 0, "is_reserved": 0}, {"rental_uris": {"ios": "https://dc.lft.to/lastmile_qr_scan", "android": "https://dc.lft.to/lastmile_qr_scan"}, "lon": -77.01546466666667, "type": "electric_scooter", "fusion_lat": 0.0, "lat": 38.90267716666666, "name": "ab2bdd475694be3ff5c4ebe1f23fb732", "fusion_lon": 0.0, "bike_id": "ab2bdd475694be3ff5c4ebe1f23fb732", "is_disabled": 0, "is_reserved": 0}, {"rental_uris": {"ios": "https://dc.lft.to/lastmile_qr_scan", "android": "https://dc.lft.to/lastmile_qr_scan"}, "lon": -77.04984516666667, "type": "electric_scooter", "fusion_lat": 0.0, "lat": 38.904190166666666, "name": "0d94a8fe75de523ee74ff5772ed87fff", "fusion_lon": 0.0, "bike_id": "0d94a8fe75de523ee74ff5772ed87fff", "is_disabled": 0, "is_reserved": 0}, {"rental_uris": {"ios": "https://dc.lft.to/lastmile_qr_scan", "android": "https://dc.lft.to/lastmile_qr_scan"}, "lon": -77.02157533333333, "type": "electric_scooter", "fusion_lat": 0.0, "lat": 38.91626816666667, "name": "0a94161d33eb0a4503a21502efffa2dc", "fusion_lon": 0.0, "bike_id": "0a94161d33eb0a4503a21502efffa2dc", "is_disabled": 0, "is_reserved": 0}, {"rental_uris": {"ios": "https://dc.lft.to/lastmile_qr_scan", "android": "https://dc.lft.to/lastmile_qr_scan"}, "lon": -77.0321035, "type": "electric_scooter", "fusion_lat": 0.0, "lat": 38.917198166666665, "name": "42ae4257322981200bc5a919d6802cd5", "fusion_lon": 0.0, "bike_id": "42ae4257322981200bc5a919d6802cd5", "is_disabled": 0, "is_reserved": 0}, {"rental_uris": {"ios": "https://dc.lft.to/lastmile_qr_scan", "android": "https://dc.lft.to/lastmile_qr_scan"}, "lon": -77.05880466666666, "type": "electric_scooter", "fusion_lat": 0.0, "lat": 38.936330833333336, "name": "2667292a9d98cf734376a2fc1b6f7db3", "fusion_lon": 0.0, "bike_id": "2667292a9d98cf734376a2fc1b6f7db3", "is_disabled": 0, "is_reserved": 0}, {"rental_uris": {"ios": "https://dc.lft.to/lastmile_qr_scan", "android": "https://dc.lft.to/lastmile_qr_scan"}, "lon": -76.946535, "type": "electric_scooter", "fusion_lat": 0.0, "lat": 38.898252, "name": "3c5e28aa0e7161bdf1441929d413dfdc", "fusion_lon": 0.0, "bike_id": "3c5e28aa0e7161bdf1441929d413dfdc", "is_disabled": 0, "is_reserved": 0}, {"rental_uris": {"ios": "https://dc.lft.to/lastmile_qr_scan", "android": "https://dc.lft.to/lastmile_qr_scan"}, "lon": -77.01109083333333, "type": "electric_scooter", "fusion_lat": 0.0, "lat": 38.895367, "name": "7767de5ab58470178c317daacdbc7f3d", "fusion_lon": 0.0, "bike_id": "7767de5ab58470178c317daacdbc7f3d", "is_disabled": 0, "is_reserved": 0}, {"rental_uris": {"ios": "https://dc.lft.to/lastmile_qr_scan", "android": "https://dc.lft.to/lastmile_qr_scan"}, "lon": -77.02385883333334, "type": "electric_scooter", "fusion_lat": 0.0, "lat": 38.91598916666667, "name": "10ad9e72c75306c5cd28e65d3fee20fa", "fusion_lon": 0.0, "bike_id": "10ad9e72c75306c5cd28e65d3fee20fa", "is_disabled": 0, "is_reserved": 0}, {"rental_uris": {"ios": "https://dc.lft.to/lastmile_qr_scan", "android": "https://dc.lft.to/lastmile_qr_scan"}, "lon": -76.93175516666666, "type": "electric_scooter", "fusion_lat": 0.0, "lat": 38.89884433333334, "name": "fb41193c821ad484e12b6545c783ce19", "fusion_lon": 0.0, "bike_id": "fb41193c821ad484e12b6545c783ce19", "is_disabled": 0, "is_reserved": 0}, {"rental_uris": {"ios": "https://dc.lft.to/lastmile_qr_scan", "android": "https://dc.lft.to/lastmile_qr_scan"}, "lon": -77.35311433333334, "type": "electric_bike", "fusion_lat": 0.0, "lat": 38.950032, "name": "6e6e5ea6a7b9b87e92604f06d803994e", "fusion_lon": 0.0, "bike_id": "6e6e5ea6a7b9b87e92604f06d803994e", "is_disabled": 0, "is_reserved": 0}, {"rental_uris": {"ios": "https://dc.lft.to/lastmile_qr_scan", "android": "https://dc.lft.to/lastmile_qr_scan"}, "lon": -77.0279975, "type": "electric_scooter", "fusion_lat": 0.0, "lat": 38.89615533333333, "name": "e8af2f364680fdc44ba50d139e1d4ce8", "fusion_lon": 0.0, "bike_id": "e8af2f364680fdc44ba50d139e1d4ce8", "is_disabled": 0, "is_reserved": 0}, {"rental_uris": {"ios": "https://dc.lft.to/lastmile_qr_scan", "android": "https://dc.lft.to/lastmile_qr_scan"}, "lon": -77.02838966666667, "type": "electric_scooter", "fusion_lat": 0.0, "lat": 38.9426225, "name": "85fe70113baa11f9cffe0380b5f0d58d", "fusion_lon": 0.0, "bike_id": "85fe70113baa11f9cffe0380b5f0d58d", "is_disabled": 0, "is_reserved": 0}, {"rental_uris": {"ios": "https://dc.lft.to/lastmile_qr_scan", "android": "https://dc.lft.to/lastmile_qr_scan"}, "lon": -77.005748, "type": "electric_scooter", "fusion_lat": 0.0, "lat": 38.88599966666666, "name": "793f2c9a7559f47524b75ff491e63817", "fusion_lon": 0.0, "bike_id": "793f2c9a7559f47524b75ff491e63817", "is_disabled": 0, "is_reserved": 0}, {"rental_uris": {"ios": "https://dc.lft.to/lastmile_qr_scan", "android": "https://dc.lft.to/lastmile_qr_scan"}, "lon": -76.99487416666666, "type": "electric_scooter", "fusion_lat": 0.0, "lat": 38.862368000000004, "name": "f67d103d00477736f18629c0bafba0aa", "fusion_lon": 0.0, "bike_id": "f67d103d00477736f18629c0bafba0aa", "is_disabled": 0, "is_reserved": 0}, {"rental_uris": {"ios": "https://dc.lft.to/lastmile_qr_scan", "android": "https://dc.lft.to/lastmile_qr_scan"}, "lon": -77.06294566666666, "type": "electric_scooter", "fusion_lat": 0.0, "lat": 38.9039825, "name": "b33e2abfb45d4c4ecfc89954c6aad841", "fusion_lon": 0.0, "bike_id": "b33e2abfb45d4c4ecfc89954c6aad841", "is_disabled": 0, "is_reserved": 0}, {"rental_uris": {"ios": "https://dc.lft.to/lastmile_qr_scan", "android": "https://dc.lft.to/lastmile_qr_scan"}, "lon": -77.04746266666666, "type": "electric_scooter", "fusion_lat": 0.0, "lat": 38.9177675, "name": "7b63f3411928273c02240e014d2a73a7", "fusion_lon": 0.0, "bike_id": "7b63f3411928273c02240e014d2a73a7", "is_disabled": 0, "is_reserved": 0}, {"rental_uris": {"ios": "https://dc.lft.to/lastmile_qr_scan", "android": "https://dc.lft.to/lastmile_qr_scan"}, "lon": -77.04616616666667, "type": "electric_bike", "fusion_lat": 0.0, "lat": 38.999106833333336, "name": "475d3425c80113a3442eb97552f3ca94", "fusion_lon": 0.0, "bike_id": "475d3425c80113a3442eb97552f3ca94", "is_disabled": 0, "is_reserved": 0}, {"rental_uris": {"ios": "https://dc.lft.to/lastmile_qr_scan", "android": "https://dc.lft.to/lastmile_qr_scan"}, "lon": -77.02398283333333, "type": "electric_scooter", "fusion_lat": 0.0, "lat": 38.907014, "name": "98abb65f0d6da8aa58440238113e2f48", "fusion_lon": 0.0, "bike_id": "98abb65f0d6da8aa58440238113e2f48", "is_disabled": 0, "is_reserved": 0}, {"rental_uris": {"ios": "https://dc.lft.to/lastmile_qr_scan", "android": "https://dc.lft.to/lastmile_qr_scan"}, "lon": -76.99166116666666, "type": "electric_scooter", "fusion_lat": 0.0, "lat": 38.8792245, "name": "5808b55eeda03d9a4d4c6825cbda819a", "fusion_lon": 0.0, "bike_id": "5808b55eeda03d9a4d4c6825cbda819a", "is_disabled": 0, "is_reserved": 0}, {"rental_uris": {"ios": "https://dc.lft.to/lastmile_qr_scan", "android": "https://dc.lft.to/lastmile_qr_scan"}, "lon": -77.0304185, "type": "electric_scooter", "fusion_lat": 0.0, "lat": 38.91710166666667, "name": "af9189919381faafc877d612aab13422", "fusion_lon": 0.0, "bike_id": "af9189919381faafc877d612aab13422", "is_disabled": 0, "is_reserved": 0}, {"rental_uris": {"ios": "https://dc.lft.to/lastmile_qr_scan", "android": "https://dc.lft.to/lastmile_qr_scan"}, "lon": -77.041646, "type": "electric_scooter", "fusion_lat": 0.0, "lat": 38.91027033333334, "name": "84aab449b8f21b4cdb09b2b830c18ca4", "fusion_lon": 0.0, "bike_id": "84aab449b8f21b4cdb09b2b830c18ca4", "is_disabled": 0, "is_reserved": 0}, {"rental_uris": {"ios": "https://dc.lft.to/lastmile_qr_scan", "android": "https://dc.lft.to/lastmile_qr_scan"}, "lon": -77.0337415, "type": "electric_scooter", "fusion_lat": 0.0, "lat": 38.91039583333333, "name": "5a1a73a2259145db122003da5a742e62", "fusion_lon": 0.0, "bike_id": "5a1a73a2259145db122003da5a742e62", "is_disabled": 0, "is_reserved": 0}, {"rental_uris": {"ios": "https://dc.lft.to/lastmile_qr_scan", "android": "https://dc.lft.to/lastmile_qr_scan"}, "lon": -77.02494816666666, "type": "electric_scooter", "fusion_lat": 0.0, "lat": 38.94287966666667, "name": "cb9fb8448d3013dfb3f593ee316a2ffc", "fusion_lon": 0.0, "bike_id": "cb9fb8448d3013dfb3f593ee316a2ffc", "is_disabled": 0, "is_reserved": 0}, {"rental_uris": {"ios": "https://dc.lft.to/lastmile_qr_scan", "android": "https://dc.lft.to/lastmile_qr_scan"}, "lon": -77.06472583333333, "type": "electric_bike", "fusion_lat": 0.0, "lat": 38.97381516666667, "name": "211cb749c02bede5b18a6cbc79780bd4", "fusion_lon": 0.0, "bike_id": "211cb749c02bede5b18a6cbc79780bd4", "is_disabled": 0, "is_reserved": 0}, {"rental_uris": {"ios": "https://dc.lft.to/lastmile_qr_scan", "android": "https://dc.lft.to/lastmile_qr_scan"}, "lon": -77.00067833333334, "type": "electric_scooter", "fusion_lat": 0.0, "lat": 38.923889, "name": "d00660576e00c9e5912403372097497b", "fusion_lon": 0.0, "bike_id": "d00660576e00c9e5912403372097497b", "is_disabled": 0, "is_reserved": 0}, {"rental_uris": {"ios": "https://dc.lft.to/lastmile_qr_scan", "android": "https://dc.lft.to/lastmile_qr_scan"}, "lon": -77.00253566666666, "type": "electric_scooter", "fusion_lat": 0.0, "lat": 38.901280666666665, "name": "205f110a3fb339901bb8b45dd83e5e1a", "fusion_lon": 0.0, "bike_id": "205f110a3fb339901bb8b45dd83e5e1a", "is_disabled": 0, "is_reserved": 0}, {"rental_uris": {"ios": "https://dc.lft.to/lastmile_qr_scan", "android": "https://dc.lft.to/lastmile_qr_scan"}, "lon": -77.00504366666667, "type": "electric_scooter", "fusion_lat": 0.0, "lat": 38.87534866666667, "name": "b7fdf4b843e1a352f16ac90b496fd908", "fusion_lon": 0.0, "bike_id": "b7fdf4b843e1a352f16ac90b496fd908", "is_disabled": 0, "is_reserved": 0}, {"rental_uris": {"ios": "https://dc.lft.to/lastmile_qr_scan", "android": "https://dc.lft.to/lastmile_qr_scan"}, "lon": -77.03181883333333, "type": "electric_scooter", "fusion_lat": 0.0, "lat": 38.92116433333333, "name": "deaf93a1797cc0e4ab850d24dfca7478", "fusion_lon": 0.0, "bike_id": "deaf93a1797cc0e4ab850d24dfca7478", "is_disabled": 0, "is_reserved": 0}, {"rental_uris": {"ios": "https://dc.lft.to/lastmile_qr_scan", "android": "https://dc.lft.to/lastmile_qr_scan"}, "lon": -77.02671583333333, "type": "electric_scooter", "fusion_lat": 0.0, "lat": 38.90004033333334, "name": "8c3c887bcb3321d3bf334fbce25fbbb3", "fusion_lon": 0.0, "bike_id": "8c3c887bcb3321d3bf334fbce25fbbb3", "is_disabled": 0, "is_reserved": 0}, {"rental_uris": {"ios": "https://dc.lft.to/lastmile_qr_scan", "android": "https://dc.lft.to/lastmile_qr_scan"}, "lon": -77.02381566666666, "type": "electric_scooter", "fusion_lat": 0.0, "lat": 38.93373283333333, "name": "a2901ed46d18de906ee630d6b317e734", "fusion_lon": 0.0, "bike_id": "a2901ed46d18de906ee630d6b317e734", "is_disabled": 0, "is_reserved": 0}, {"rental_uris": {"ios": "https://dc.lft.to/lastmile_qr_scan", "android": "https://dc.lft.to/lastmile_qr_scan"}, "lon": -76.94634466666666, "type": "electric_scooter", "fusion_lat": 0.0, "lat": 38.89836016666667, "name": "a0685fd5e8323808d5c87bdc9c5efe3d", "fusion_lon": 0.0, "bike_id": "a0685fd5e8323808d5c87bdc9c5efe3d", "is_disabled": 0, "is_reserved": 0}, {"rental_uris": {"ios": "https://dc.lft.to/lastmile_qr_scan", "android": "https://dc.lft.to/lastmile_qr_scan"}, "lon": -76.8782105, "type": "electric_bike", "fusion_lat": 0.0, "lat": 38.992331, "name": "c8d9c31694770bf2f0dcc171d0b93cf1", "fusion_lon": 0.0, "bike_id": "c8d9c31694770bf2f0dcc171d0b93cf1", "is_disabled": 0, "is_reserved": 0}, {"rental_uris": {"ios": "https://dc.lft.to/lastmile_qr_scan", "android": "https://dc.lft.to/lastmile_qr_scan"}, "lon": -77.03786616666666, "type": "electric_scooter", "fusion_lat": 0.0, "lat": 38.92627533333334, "name": "1c5c532b7d87d867c70d0f44a1d89c6f", "fusion_lon": 0.0, "bike_id": "1c5c532b7d87d867c70d0f44a1d89c6f", "is_disabled": 0, "is_reserved": 0}, {"rental_uris": {"ios": "https://dc.lft.to/lastmile_qr_scan", "android": "https://dc.lft.to/lastmile_qr_scan"}, "lon": -76.977443, "type": "electric_scooter", "fusion_lat": 0.0, "lat": 38.900125, "name": "98616ccdd2010f585cc615dbfb719535", "fusion_lon": 0.0, "bike_id": "98616ccdd2010f585cc615dbfb719535", "is_disabled": 0, "is_reserved": 0}, {"rental_uris": {"ios": "https://dc.lft.to/lastmile_qr_scan", "android": "https://dc.lft.to/lastmile_qr_scan"}, "lon": -76.95758183333334, "type": "electric_bike", "fusion_lat": 0.0, "lat": 38.88415666666667, "name": "9751b183a3f8e4c21f465877975b8a8b", "fusion_lon": 0.0, "bike_id": "9751b183a3f8e4c21f465877975b8a8b", "is_disabled": 0, "is_reserved": 0}, {"rental_uris": {"ios": "https://dc.lft.to/lastmile_qr_scan", "android": "https://dc.lft.to/lastmile_qr_scan"}, "lon": -77.10708133333333, "type": "electric_bike", "fusion_lat": 0.0, "lat": 38.85538583333334, "name": "946ae306f720356aae142c6a5536f59e", "fusion_lon": 0.0, "bike_id": "946ae306f720356aae142c6a5536f59e", "is_disabled": 0, "is_reserved": 0}, {"rental_uris": {"ios": "https://dc.lft.to/lastmile_qr_scan", "android": "https://dc.lft.to/lastmile_qr_scan"}, "lon": -77.02085233333334, "type": "electric_scooter", "fusion_lat": 0.0, "lat": 38.90160266666667, "name": "1b4e56acc9f17b2a30d504b2fd097c79", "fusion_lon": 0.0, "bike_id": "1b4e56acc9f17b2a30d504b2fd097c79", "is_disabled": 0, "is_reserved": 0}, {"rental_uris": {"ios": "https://dc.lft.to/lastmile_qr_scan", "android": "https://dc.lft.to/lastmile_qr_scan"}, "lon": -77.03822433333333, "type": "electric_scooter", "fusion_lat": 0.0, "lat": 38.921738833333336, "name": "c52bc2325a444180e85ceaf4a44f0a8d", "fusion_lon": 0.0, "bike_id": "c52bc2325a444180e85ceaf4a44f0a8d", "is_disabled": 0, "is_reserved": 0}, {"rental_uris": {"ios": "https://dc.lft.to/lastmile_qr_scan", "android": "https://dc.lft.to/lastmile_qr_scan"}, "lon": -76.9761495, "type": "electric_scooter", "fusion_lat": 0.0, "lat": 38.90380716666667, "name": "619abd28d100c85659a2c868b0dc25a7", "fusion_lon": 0.0, "bike_id": "619abd28d100c85659a2c868b0dc25a7", "is_disabled": 0, "is_reserved": 0}, {"rental_uris": {"ios": "https://dc.lft.to/lastmile_qr_scan", "android": "https://dc.lft.to/lastmile_qr_scan"}, "lon": -77.03979283333334, "type": "electric_scooter", "fusion_lat": 0.0, "lat": 38.90280533333333, "name": "d16f6156133f0bb2795a0fd96b86f5b5", "fusion_lon": 0.0, "bike_id": "d16f6156133f0bb2795a0fd96b86f5b5", "is_disabled": 0, "is_reserved": 0}, {"rental_uris": {"ios": "https://dc.lft.to/lastmile_qr_scan", "android": "https://dc.lft.to/lastmile_qr_scan"}, "lon": -77.05263216666667, "type": "electric_scooter", "fusion_lat": 0.0, "lat": 38.91011433333333, "name": "3d0f52408e539a8e33602b2ece1ccdae", "fusion_lon": 0.0, "bike_id": "3d0f52408e539a8e33602b2ece1ccdae", "is_disabled": 0, "is_reserved": 0}, {"rental_uris": {"ios": "https://dc.lft.to/lastmile_qr_scan", "android": "https://dc.lft.to/lastmile_qr_scan"}, "lon": -76.99555433333333, "type": "electric_scooter", "fusion_lat": 0.0, "lat": 38.923084833333334, "name": "931c09dd7dbc062131833c56a4321610", "fusion_lon": 0.0, "bike_id": "931c09dd7dbc062131833c56a4321610", "is_disabled": 0, "is_reserved": 0}, {"rental_uris": {"ios": "https://dc.lft.to/lastmile_qr_scan", "android": "https://dc.lft.to/lastmile_qr_scan"}, "lon": -77.036401, "type": "electric_scooter", "fusion_lat": 0.0, "lat": 38.91761283333334, "name": "6797f0954801570aa8f9132920f30997", "fusion_lon": 0.0, "bike_id": "6797f0954801570aa8f9132920f30997", "is_disabled": 0, "is_reserved": 0}, {"rental_uris": {"ios": "https://dc.lft.to/lastmile_qr_scan", "android": "https://dc.lft.to/lastmile_qr_scan"}, "lon": -77.0416715, "type": "electric_scooter", "fusion_lat": 0.0, "lat": 38.917694, "name": "bfbf15c700a950ca731b998c5110f620", "fusion_lon": 0.0, "bike_id": "bfbf15c700a950ca731b998c5110f620", "is_disabled": 0, "is_reserved": 0}, {"rental_uris": {"ios": "https://dc.lft.to/lastmile_qr_scan", "android": "https://dc.lft.to/lastmile_qr_scan"}, "lon": -77.036283, "type": "electric_scooter", "fusion_lat": 0.0, "lat": 38.956418, "name": "41127b91bd18e0a7d913113b9b43da3f", "fusion_lon": 0.0, "bike_id": "41127b91bd18e0a7d913113b9b43da3f", "is_disabled": 0, "is_reserved": 0}, {"rental_uris": {"ios": "https://dc.lft.to/lastmile_qr_scan", "android": "https://dc.lft.to/lastmile_qr_scan"}, "lon": -77.02935466666666, "type": "electric_bike", "fusion_lat": 0.0, "lat": 38.89929866666667, "name": "26dc0ce27a734c7ae3b44d0ffdba20d3", "fusion_lon": 0.0, "bike_id": "26dc0ce27a734c7ae3b44d0ffdba20d3", "is_disabled": 0, "is_reserved": 0}, {"rental_uris": {"ios": "https://dc.lft.to/lastmile_qr_scan", "android": "https://dc.lft.to/lastmile_qr_scan"}, "lon": -77.02006883333334, "type": "electric_scooter", "fusion_lat": 0.0, "lat": 38.902648166666665, "name": "01b3979f5107252c553484692cacef29", "fusion_lon": 0.0, "bike_id": "01b3979f5107252c553484692cacef29", "is_disabled": 0, "is_reserved": 0}, {"rental_uris": {"ios": "https://dc.lft.to/lastmile_qr_scan", "android": "https://dc.lft.to/lastmile_qr_scan"}, "lon": -77.04392333333334, "type": "electric_bike", "fusion_lat": 0.0, "lat": 38.9294655, "name": "8a1a4a7b9fc432389f9527e8d7492129", "fusion_lon": 0.0, "bike_id": "8a1a4a7b9fc432389f9527e8d7492129", "is_disabled": 0, "is_reserved": 0}, {"rental_uris": {"ios": "https://dc.lft.to/lastmile_qr_scan", "android": "https://dc.lft.to/lastmile_qr_scan"}, "lon": -77.01736866666667, "type": "electric_scooter", "fusion_lat": 0.0, "lat": 38.97473516666667, "name": "98ff26594f39dfec4c56192e96a556c6", "fusion_lon": 0.0, "bike_id": "98ff26594f39dfec4c56192e96a556c6", "is_disabled": 0, "is_reserved": 0}, {"rental_uris": {"ios": "https://dc.lft.to/lastmile_qr_scan", "android": "https://dc.lft.to/lastmile_qr_scan"}, "lon": -77.04539883333334, "type": "electric_scooter", "fusion_lat": 0.0, "lat": 38.9194055, "name": "6e71ae2bd5abee8a6132d68935679e03", "fusion_lon": 0.0, "bike_id": "6e71ae2bd5abee8a6132d68935679e03", "is_disabled": 0, "is_reserved": 0}, {"rental_uris": {"ios": "https://dc.lft.to/lastmile_qr_scan", "android": "https://dc.lft.to/lastmile_qr_scan"}, "lon": -76.97329283333333, "type": "electric_bike", "fusion_lat": 0.0, "lat": 38.850620666666664, "name": "a3ffa00dcd597d217fdd946c56c922e2", "fusion_lon": 0.0, "bike_id": "a3ffa00dcd597d217fdd946c56c922e2", "is_disabled": 0, "is_reserved": 0}, {"rental_uris": {"ios": "https://dc.lft.to/lastmile_qr_scan", "android": "https://dc.lft.to/lastmile_qr_scan"}, "lon": -77.052375, "type": "electric_scooter", "fusion_lat": 0.0, "lat": 38.9246775, "name": "f32f02bf46dc7c94106eb481ac9eba45", "fusion_lon": 0.0, "bike_id": "f32f02bf46dc7c94106eb481ac9eba45", "is_disabled": 0, "is_reserved": 0}, {"rental_uris": {"ios": "https://dc.lft.to/lastmile_qr_scan", "android": "https://dc.lft.to/lastmile_qr_scan"}, "lon": -77.00886133333333, "type": "electric_scooter", "fusion_lat": 0.0, "lat": 38.92309933333333, "name": "8babcc142722da0e24076c7bc6f013ba", "fusion_lon": 0.0, "bike_id": "8babcc142722da0e24076c7bc6f013ba", "is_disabled": 0, "is_reserved": 0}, {"rental_uris": {"ios": "https://dc.lft.to/lastmile_qr_scan", "android": "https://dc.lft.to/lastmile_qr_scan"}, "lon": -77.03224583333333, "type": "electric_scooter", "fusion_lat": 0.0, "lat": 38.918155, "name": "1235a56104389bd00bd3a0659a686733", "fusion_lon": 0.0, "bike_id": "1235a56104389bd00bd3a0659a686733", "is_disabled": 0, "is_reserved": 0}, {"rental_uris": {"ios": "https://dc.lft.to/lastmile_qr_scan", "android": "https://dc.lft.to/lastmile_qr_scan"}, "lon": -77.0220535, "type": "electric_scooter", "fusion_lat": 0.0, "lat": 38.880553, "name": "c988fd18cd7277302db9059f3785f5e6", "fusion_lon": 0.0, "bike_id": "c988fd18cd7277302db9059f3785f5e6", "is_disabled": 0, "is_reserved": 0}, {"rental_uris": {"ios": "https://dc.lft.to/lastmile_qr_scan", "android": "https://dc.lft.to/lastmile_qr_scan"}, "lon": -77.04816333333333, "type": "electric_scooter", "fusion_lat": 0.0, "lat": 38.91332933333333, "name": "4d921cc3544a71631b165e26c18368ac", "fusion_lon": 0.0, "bike_id": "4d921cc3544a71631b165e26c18368ac", "is_disabled": 0, "is_reserved": 0}, {"rental_uris": {"ios": "https://dc.lft.to/lastmile_qr_scan", "android": "https://dc.lft.to/lastmile_qr_scan"},