{"data": {"bikes": [{"is_disabled": 0, "lat": 38.89486083333333, "bike_id": "5664d198b0a84df6e94d073631acac2f", "fusion_lon": 0.0, "is_reserved": 0, "type": "electric_scooter", "name": "5664d198b0a84df6e94d073631acac2f", "lon": -77.00225366666666, "rental_uris": {"android": "https://dc.lft.to/lastmile_qr_scan", "ios": "https://dc.lft.to/lastmile_qr_scan"}, "fusion_lat": 0.0}, {"is_disabled": 0, "lat": 38.92980516666667, "bike_id": "ee796e45128a9b4a6320fcd7aa7d6074", "fusion_lon": 0.0, "is_reserved": 0, "type": "electric_bike", "name": "ee796e45128a9b4a6320fcd7aa7d6074", "lon": -77.225873, "rental_uris": {"android": "https://dc.lft.to/lastmile_qr_scan", "ios": "https://dc.lft.to/lastmile_qr_scan"}, "fusion_lat": 0.0}, {"is_disabled": 0, "lat": 38.92604216666667, "bike_id": "f26b665049fd49b3458172f4199131b9", "fusion_lon": 0.0, "is_reserved": 0, "type": "electric_scooter", "name": "f26b665049fd49b3458172f4199131b9", "lon": -77.02155266666666, "rental_uris": {"android": "https://dc.lft.to/lastmile_qr_scan", "ios": "https://dc.lft.to/lastmile_qr_scan"}, "fusion_lat": 0.0}, {"is_disabled": 0, "lat": 38.90711733333333, "bike_id": "89eb2f33eabe1cdb1bda8d35c07010bf", "fusion_lon": 0.0, "is_reserved": 0, "type": "electric_scooter", "name": "89eb2f33eabe1cdb1bda8d35c07010bf", "lon": -77.04506116666667, "rental_uris": {"android": "https://dc.lft.to/lastmile_qr_scan", "ios": "https://dc.lft.to/lastmile_qr_scan"}, "fusion_lat": 0.0}, {"is_disabled": 0, "lat": 38.92871516666666, "bike_id": "3b0a7bf0ce4ede9dcae76d3125dff481", "fusion_lon": 0.0, "is_reserved": 0, "type": "electric_scooter", "name": "3b0a7bf0ce4ede9dcae76d3125dff481", "lon": -77.034439, "rental_uris": {"android": "https://dc.lft.to/lastmile_qr_scan", "ios": "https://dc.lft.to/lastmile_qr_scan"}, "fusion_lat": 0.0}, {"is_disabled": 0, "lat": 38.90727783333333, "bike_id": "dc0e476052dcce4bfe1f26bd2ea13935", "fusion_lon": 0.0, "is_reserved": 0, "type": "electric_scooter", "name": "dc0e476052dcce4bfe1f26bd2ea13935", "lon": -77.04174916666666, "rental_uris": {"android": "https://dc.lft.to/lastmile_qr_scan", "ios": "https://dc.lft.to/lastmile_qr_scan"}, "fusion_lat": 0.0}, {"is_disabled": 0, "lat": 38.94361416666667, "bike_id": "005b34392a340324e0a90da244a5b628", "fusion_lon": 0.0, "is_reserved": 0, "type": "electric_scooter", "name": "005b34392a340324e0a90da244a5b628", "lon": -77.06111016666667, "rental_uris": {"android": "https://dc.lft.to/lastmile_qr_scan", "ios": "https://dc.lft.to/lastmile_qr_scan"}, "fusion_lat": 0.0}, {"is_disabled": 0, "lat": 38.90731383333333, "bike_id": "73afbabf05e4abd4a764e1b4d3174849", "fusion_lon": 0.0, "is_reserved": 0, "type": "electric_scooter", "name": "73afbabf05e4abd4a764e1b4d3174849", "lon": -77.04666416666667, "rental_uris": {"android": "https://dc.lft.to/lastmile_qr_scan", "ios": "https://dc.lft.to/lastmile_qr_scan"}, "fusion_lat": 0.0}, {"is_disabled": 0, "lat": 38.9072215, "bike_id": "eca9a9b3586a5c3420832518ba4a0feb", "fusion_lon": 0.0, "is_reserved": 0, "type": "electric_scooter", "name": "eca9a9b3586a5c3420832518ba4a0feb", "lon": -77.04834, "rental_uris": {"android": "https://dc.lft.to/lastmile_qr_scan", "ios": "https://dc.lft.to/lastmile_qr_scan"}, "fusion_lat": 0.0}, {"is_disabled": 0, "lat": 38.903851333333336, "bike_id": "5da8a3a1257782899f72a0eeceb4ff6d", "fusion_lon": 0.0, "is_reserved": 0, "type": "electric_scooter", "name": "5da8a3a1257782899f72a0eeceb4ff6d", "lon": -77.04514933333333, "rental_uris": {"android": "https://dc.lft.to/lastmile_qr_scan", "ios": "https://dc.lft.to/lastmile_qr_scan"}, "fusion_lat": 0.0}, {"is_disabled": 0, "lat": 38.91628683333333, "bike_id": "fd3f884f248c4eee4848e6b43f5624e0", "fusion_lon": 0.0, "is_reserved": 0, "type": "electric_scooter", "name": "fd3f884f248c4eee4848e6b43f5624e0", "lon": -77.00736516666667, "rental_uris": {"android": "https://dc.lft.to/lastmile_qr_scan", "ios": "https://dc.lft.to/lastmile_qr_scan"}, "fusion_lat": 0.0}, {"is_disabled": 0, "lat": 38.9193495, "bike_id": "c3ec0aa8fda988ff2cb31160e2abacc4", "fusion_lon": 0.0, "is_reserved": 0, "type": "electric_scooter", "name": "c3ec0aa8fda988ff2cb31160e2abacc4", "lon": -77.02411733333334, "rental_uris": {"android": "https://dc.lft.to/lastmile_qr_scan", "ios": "https://dc.lft.to/lastmile_qr_scan"}, "fusion_lat": 0.0}, {"is_disabled": 0, "lat": 38.99944583333333, "bike_id": "80dfb71afe9cb325ca9ed6b4320b7678", "fusion_lon": 0.0, "is_reserved": 0, "type": "electric_bike", "name": "80dfb71afe9cb325ca9ed6b4320b7678", "lon": -77.07431816666667, "rental_uris": {"android": "https://dc.lft.to/lastmile_qr_scan", "ios": "https://dc.lft.to/lastmile_qr_scan"}, "fusion_lat": 0.0}, {"is_disabled": 0, "lat": 38.91006633333333, "bike_id": "e1b51c4400150a24ab0122b3ef9694ff", "fusion_lon": 0.0, "is_reserved": 0, "type": "electric_bike", "name": "e1b51c4400150a24ab0122b3ef9694ff", "lon": -77.0462195, "rental_uris": {"android": "https://dc.lft.to/lastmile_qr_scan", "ios": "https://dc.lft.to/lastmile_qr_scan"}, "fusion_lat": 0.0}, {"is_disabled": 0, "lat": 38.93085716666667, "bike_id": "697f6f75c43d6c91ab0ec92618caebd7", "fusion_lon": 0.0, "is_reserved": 0, "type": "electric_scooter", "name": "697f6f75c43d6c91ab0ec92618caebd7", "lon": -77.02337466666667, "rental_uris": {"android": "https://dc.lft.to/lastmile_qr_scan", "ios": "https://dc.lft.to/lastmile_qr_scan"}, "fusion_lat": 0.0}, {"is_disabled": 0, "lat": 38.906546666666664, "bike_id": "48cbeee258a6575d305cae65d177b3fc", "fusion_lon": 0.0, "is_reserved": 0, "type": "electric_scooter", "name": "48cbeee258a6575d305cae65d177b3fc", "lon": -77.03847433333334, "rental_uris": {"android": "https://dc.lft.to/lastmile_qr_scan", "ios": "https://dc.lft.to/lastmile_qr_scan"}, "fusion_lat": 0.0}, {"is_disabled": 0, "lat": 38.899303833333335, "bike_id": "1021c099f90f2297d019fd3b72b9dc0f", "fusion_lon": 0.0, "is_reserved": 0, "type": "electric_scooter", "name": "1021c099f90f2297d019fd3b72b9dc0f", "lon": -77.00060983333333, "rental_uris": {"android": "https://dc.lft.to/lastmile_qr_scan", "ios": "https://dc.lft.to/lastmile_qr_scan"}, "fusion_lat": 0.0}, {"is_disabled": 0, "lat": 38.89222483333333, "bike_id": "991f8784fe99449bc679c564a1896f8b", "fusion_lon": 0.0, "is_reserved": 0, "type": "electric_scooter", "name": "991f8784fe99449bc679c564a1896f8b", "lon": -77.026491, "rental_uris": {"android": "https://dc.lft.to/lastmile_qr_scan", "ios": "https://dc.lft.to/lastmile_qr_scan"}, "fusion_lat": 0.0}, {"is_disabled": 0, "lat": 38.914181666666664, "bike_id": "2dfa0d1582818e355d65d7401a7bbfb2", "fusion_lon": 0.0, "is_reserved": 0, "type": "electric_scooter", "name": "2dfa0d1582818e355d65d7401a7bbfb2", "lon": -77.02110616666667, "rental_uris": {"android": "https://dc.lft.to/lastmile_qr_scan", "ios": "https://dc.lft.to/lastmile_qr_scan"}, "fusion_lat": 0.0}, {"is_disabled": 0, "lat": 38.86629883333333, "bike_id": "c039cde93370d4d3d43e14be76a2eb0e", "fusion_lon": 0.0, "is_reserved": 0, "type": "electric_scooter", "name": "c039cde93370d4d3d43e14be76a2eb0e", "lon": -76.98717533333334, "rental_uris": {"android": "https://dc.lft.to/lastmile_qr_scan", "ios": "https://dc.lft.to/lastmile_qr_scan"}, "fusion_lat": 0.0}, {"is_disabled": 0, "lat": 38.90572933333333, "bike_id": "7116ae1ab45d9fe6701fed5679502e16", "fusion_lon": 0.0, "is_reserved": 0, "type": "electric_scooter", "name": "7116ae1ab45d9fe6701fed5679502e16", "lon": -77.03995216666667, "rental_uris": {"android": "https://dc.lft.to/lastmile_qr_scan", "ios": "https://dc.lft.to/lastmile_qr_scan"}, "fusion_lat": 0.0}, {"is_disabled": 0, "lat": 38.8983955, "bike_id": "d2371581a5db051041a213e8fd3e1afa", "fusion_lon": 0.0, "is_reserved": 0, "type": "electric_scooter", "name": "d2371581a5db051041a213e8fd3e1afa", "lon": -77.04365333333334, "rental_uris": {"android": "https://dc.lft.to/lastmile_qr_scan", "ios": "https://dc.lft.to/lastmile_qr_scan"}, "fusion_lat": 0.0}, {"is_disabled": 0, "lat": 38.9103585, "bike_id": "4a1c352d87b91b5db186e024bdbc6fe4", "fusion_lon": 0.0, "is_reserved": 0, "type": "electric_scooter", "name": "4a1c352d87b91b5db186e024bdbc6fe4", "lon": -76.9855655, "rental_uris": {"android": "https://dc.lft.to/lastmile_qr_scan", "ios": "https://dc.lft.to/lastmile_qr_scan"}, "fusion_lat": 0.0}, {"is_disabled": 0, "lat": 38.90169733333333, "bike_id": "8805238c10f7c06cd421b54ff92e1152", "fusion_lon": 0.0, "is_reserved": 0, "type": "electric_scooter", "name": "8805238c10f7c06cd421b54ff92e1152", "lon": -76.9302095, "rental_uris": {"android": "https://dc.lft.to/lastmile_qr_scan", "ios": "https://dc.lft.to/lastmile_qr_scan"}, "fusion_lat": 0.0}, {"is_disabled": 0, "lat": 38.89717533333334, "bike_id": "89a609dad45ec8f806b51c3803780d70", "fusion_lon": 0.0, "is_reserved": 0, "type": "electric_scooter", "name": "89a609dad45ec8f806b51c3803780d70", "lon": -77.03958666666666, "rental_uris": {"android": "https://dc.lft.to/lastmile_qr_scan", "ios": "https://dc.lft.to/lastmile_qr_scan"}, "fusion_lat": 0.0}, {"is_disabled": 0, "lat": 38.92380966666666, "bike_id": "6e0f48ce0a94955770d339c3ab8894fd", "fusion_lon": 0.0, "is_reserved": 0, "type": "electric_scooter", "name": "6e0f48ce0a94955770d339c3ab8894fd", "lon": -77.05044333333333, "rental_uris": {"android": "https://dc.lft.to/lastmile_qr_scan", "ios": "https://dc.lft.to/lastmile_qr_scan"}, "fusion_lat": 0.0}, {"is_disabled": 0, "lat": 38.95549483333333, "bike_id": "37a21cd35729569c5e55be9b5ec39a5d", "fusion_lon": 0.0, "is_reserved": 0, "type": "electric_bike", "name": "37a21cd35729569c5e55be9b5ec39a5d", "lon": -76.93545083333333, "rental_uris": {"android": "https://dc.lft.to/lastmile_qr_scan", "ios": "https://dc.lft.to/lastmile_qr_scan"}, "fusion_lat": 0.0}, {"is_disabled": 0, "lat": 38.90809566666667, "bike_id": "05bcbf3f3fc77c1b7878af3f94212393", "fusion_lon": 0.0, "is_reserved": 0, "type": "electric_scooter", "name": "05bcbf3f3fc77c1b7878af3f94212393", "lon": -77.03448833333333, "rental_uris": {"android": "https://dc.lft.to/lastmile_qr_scan", "ios": "https://dc.lft.to/lastmile_qr_scan"}, "fusion_lat": 0.0}, {"is_disabled": 0, "lat": 38.866550333333336, "bike_id": "192630f91174e3c530d3fbfe4a492e9e", "fusion_lon": 0.0, "is_reserved": 0, "type": "electric_scooter", "name": "192630f91174e3c530d3fbfe4a492e9e", "lon": -76.98513166666666, "rental_uris": {"android": "https://dc.lft.to/lastmile_qr_scan", "ios": "https://dc.lft.to/lastmile_qr_scan"}, "fusion_lat": 0.0}, {"is_disabled": 0, "lat": 38.9100835, "bike_id": "8318bf10410c5f98906ab5d51c352f5b", "fusion_lon": 0.0, "is_reserved": 0, "type": "electric_scooter", "name": "8318bf10410c5f98906ab5d51c352f5b", "lon": -76.98636933333333, "rental_uris": {"android": "https://dc.lft.to/lastmile_qr_scan", "ios": "https://dc.lft.to/lastmile_qr_scan"}, "fusion_lat": 0.0}, {"is_disabled": 0, "lat": 38.936372666666664, "bike_id": "c272f0e1e838c02ea59119fc3cb43afa", "fusion_lon": 0.0, "is_reserved": 0, "type": "electric_scooter", "name": "c272f0e1e838c02ea59119fc3cb43afa", "lon": -77.05883533333333, "rental_uris": {"android": "https://dc.lft.to/lastmile_qr_scan", "ios": "https://dc.lft.to/lastmile_qr_scan"}, "fusion_lat": 0.0}, {"is_disabled": 0, "lat": 38.92842133333333, "bike_id": "08587204a886e84c5b2c2b1d43e9aebe", "fusion_lon": 0.0, "is_reserved": 0, "type": "electric_scooter", "name": "08587204a886e84c5b2c2b1d43e9aebe", "lon": -76.99360566666667, "rental_uris": {"android": "https://dc.lft.to/lastmile_qr_scan", "ios": "https://dc.lft.to/lastmile_qr_scan"}, "fusion_lat": 0.0}, {"is_disabled": 0, "lat": 38.86253, "bike_id": "b9ceebb1fb02cd38931f4ffb62c3764d", "fusion_lon": 0.0, "is_reserved": 0, "type": "electric_scooter", "name": "b9ceebb1fb02cd38931f4ffb62c3764d", "lon": -76.98696733333334, "rental_uris": {"android": "https://dc.lft.to/lastmile_qr_scan", "ios": "https://dc.lft.to/lastmile_qr_scan"}, "fusion_lat": 0.0}, {"is_disabled": 0, "lat": 38.91305466666667, "bike_id": "b678b30cfa06e0260b72352068669510", "fusion_lon": 0.0, "is_reserved": 0, "type": "electric_scooter", "name": "b678b30cfa06e0260b72352068669510", "lon": -77.0220015, "rental_uris": {"android": "https://dc.lft.to/lastmile_qr_scan", "ios": "https://dc.lft.to/lastmile_qr_scan"}, "fusion_lat": 0.0}, {"is_disabled": 0, "lat": 38.916922166666666, "bike_id": "33e04da10ecd896b95b08d222e886851", "fusion_lon": 0.0, "is_reserved": 0, "type": "electric_scooter", "name": "33e04da10ecd896b95b08d222e886851", "lon": -77.03771483333334, "rental_uris": {"android": "https://dc.lft.to/lastmile_qr_scan", "ios": "https://dc.lft.to/lastmile_qr_scan"}, "fusion_lat": 0.0}, {"is_disabled": 0, "lat": 38.887482, "bike_id": "08558d708dfa7b14343474a41cb3a4f3", "fusion_lon": 0.0, "is_reserved": 0, "type": "electric_scooter", "name": "08558d708dfa7b14343474a41cb3a4f3", "lon": -77.02850433333333, "rental_uris": {"android": "https://dc.lft.to/lastmile_qr_scan", "ios": "https://dc.lft.to/lastmile_qr_scan"}, "fusion_lat": 0.0}, {"is_disabled": 0, "lat": 38.900135, "bike_id": "b35d9d547ce399457611f5c970b98c71", "fusion_lon": 0.0, "is_reserved": 0, "type": "electric_scooter", "name": "b35d9d547ce399457611f5c970b98c71", "lon": -77.00039333333334, "rental_uris": {"android": "https://dc.lft.to/lastmile_qr_scan", "ios": "https://dc.lft.to/lastmile_qr_scan"}, "fusion_lat": 0.0}, {"is_disabled": 0, "lat": 38.89222216666667, "bike_id": "e7bee82f097f3b4fadd6e529a234036a", "fusion_lon": 0.0, "is_reserved": 0, "type": "electric_scooter", "name": "e7bee82f097f3b4fadd6e529a234036a", "lon": -77.04329533333333, "rental_uris": {"android": "https://dc.lft.to/lastmile_qr_scan", "ios": "https://dc.lft.to/lastmile_qr_scan"}, "fusion_lat": 0.0}, {"is_disabled": 0, "lat": 38.89491816666666, "bike_id": "5e016235fbe46f521e2499d5642d7185", "fusion_lon": 0.0, "is_reserved": 0, "type": "electric_scooter", "name": "5e016235fbe46f521e2499d5642d7185", "lon": -77.00297783333333, "rental_uris": {"android": "https://dc.lft.to/lastmile_qr_scan", "ios": "https://dc.lft.to/lastmile_qr_scan"}, "fusion_lat": 0.0}, {"is_disabled": 0, "lat": 38.897384, "bike_id": "ef73819ea0541689370fd17d92982450", "fusion_lon": 0.0, "is_reserved": 0, "type": "electric_scooter", "name": "ef73819ea0541689370fd17d92982450", "lon": -77.007489, "rental_uris": {"android": "https://dc.lft.to/lastmile_qr_scan", "ios": "https://dc.lft.to/lastmile_qr_scan"}, "fusion_lat": 0.0}, {"is_disabled": 0, "lat": 38.90272233333334, "bike_id": "53733e41c63d47083e2f10aabe19e7bf", "fusion_lon": 0.0, "is_reserved": 0, "type": "electric_scooter", "name": "53733e41c63d47083e2f10aabe19e7bf", "lon": -77.03271916666667, "rental_uris": {"android": "https://dc.lft.to/lastmile_qr_scan", "ios": "https://dc.lft.to/lastmile_qr_scan"}, "fusion_lat": 0.0}, {"is_disabled": 0, "lat": 38.9097255, "bike_id": "42a6a3b96b9f4563e7edfab4e240c166", "fusion_lon": 0.0, "is_reserved": 0, "type": "electric_scooter", "name": "42a6a3b96b9f4563e7edfab4e240c166", "lon": -77.046524, "rental_uris": {"android": "https://dc.lft.to/lastmile_qr_scan", "ios": "https://dc.lft.to/lastmile_qr_scan"}, "fusion_lat": 0.0}, {"is_disabled": 0, "lat": 38.92679183333333, "bike_id": "e4ccef6bd4f87c433418d4f704348a31", "fusion_lon": 0.0, "is_reserved": 0, "type": "electric_scooter", "name": "e4ccef6bd4f87c433418d4f704348a31", "lon": -77.007591, "rental_uris": {"android": "https://dc.lft.to/lastmile_qr_scan", "ios": "https://dc.lft.to/lastmile_qr_scan"}, "fusion_lat": 0.0}, {"is_disabled": 0, "lat": 38.9064475, "bike_id": "9fa8c01cad0903245a8c4e397db8bdab", "fusion_lon": 0.0, "is_reserved": 0, "type": "electric_scooter", "name": "9fa8c01cad0903245a8c4e397db8bdab", "lon": -77.03876383333333, "rental_uris": {"android": "https://dc.lft.to/lastmile_qr_scan", "ios": "https://dc.lft.to/lastmile_qr_scan"}, "fusion_lat": 0.0}, {"is_disabled": 0, "lat": 38.895425833333334, "bike_id": "416fea09210392f71b20f9ccdfd25bd4", "fusion_lon": 0.0, "is_reserved": 0, "type": "electric_scooter", "name": "416fea09210392f71b20f9ccdfd25bd4", "lon": -77.00201483333333, "rental_uris": {"android": "https://dc.lft.to/lastmile_qr_scan", "ios": "https://dc.lft.to/lastmile_qr_scan"}, "fusion_lat": 0.0}, {"is_disabled": 0, "lat": 38.9089415, "bike_id": "b9565a6245f4eb3e18b1670dfd063f03", "fusion_lon": 0.0, "is_reserved": 0, "type": "electric_scooter", "name": "b9565a6245f4eb3e18b1670dfd063f03", "lon": -77.0320995, "rental_uris": {"android": "https://dc.lft.to/lastmile_qr_scan", "ios": "https://dc.lft.to/lastmile_qr_scan"}, "fusion_lat": 0.0}, {"is_disabled": 0, "lat": 38.90140983333333, "bike_id": "72e6e6251bd9b6d9e8e8aff175e72601", "fusion_lon": 0.0, "is_reserved": 0, "type": "electric_scooter", "name": "72e6e6251bd9b6d9e8e8aff175e72601", "lon": -77.02018616666666, "rental_uris": {"android": "https://dc.lft.to/lastmile_qr_scan", "ios": "https://dc.lft.to/lastmile_qr_scan"}, "fusion_lat": 0.0}, {"is_disabled": 0, "lat": 38.957197666666666, "bike_id": "779e5b11e80e28580e1372cedf8ce0d8", "fusion_lon": 0.0, "is_reserved": 0, "type": "electric_scooter", "name": "779e5b11e80e28580e1372cedf8ce0d8", "lon": -77.00237116666666, "rental_uris": {"android": "https://dc.lft.to/lastmile_qr_scan", "ios": "https://dc.lft.to/lastmile_qr_scan"}, "fusion_lat": 0.0}, {"is_disabled": 0, "lat": 38.98276033333333, "bike_id": "965a25d799db017e992293082cf6fd18", "fusion_lon": 0.0, "is_reserved": 0, "type": "electric_scooter", "name": "965a25d799db017e992293082cf6fd18", "lon": -77.02601, "rental_uris": {"android": "https://dc.lft.to/lastmile_qr_scan", "ios": "https://dc.lft.to/lastmile_qr_scan"}, "fusion_lat": 0.0}, {"is_disabled": 0, "lat": 38.9260285, "bike_id": "01712b22d6f480cefe64d327bfa0f156", "fusion_lon": 0.0, "is_reserved": 0, "type": "electric_scooter", "name": "01712b22d6f480cefe64d327bfa0f156", "lon": -77.021543, "rental_uris": {"android": "https://dc.lft.to/lastmile_qr_scan", "ios": "https://dc.lft.to/lastmile_qr_scan"}, "fusion_lat": 0.0}, {"is_disabled": 0, "lat": 38.89802816666667, "bike_id": "28380b3cb9e4a2d030c12845cdf30e22", "fusion_lon": 0.0, "is_reserved": 0, "type": "electric_scooter", "name": "28380b3cb9e4a2d030c12845cdf30e22", "lon": -77.02675883333333, "rental_uris": {"android": "https://dc.lft.to/lastmile_qr_scan", "ios": "https://dc.lft.to/lastmile_qr_scan"}, "fusion_lat": 0.0}, {"is_disabled": 0, "lat": 38.90433983333333, "bike_id": "b231033f7ce81e9023b81c705c4f7b70", "fusion_lon": 0.0, "is_reserved": 0, "type": "electric_scooter", "name": "b231033f7ce81e9023b81c705c4f7b70", "lon": -77.01792583333334, "rental_uris": {"android": "https://dc.lft.to/lastmile_qr_scan", "ios": "https://dc.lft.to/lastmile_qr_scan"}, "fusion_lat": 0.0}, {"is_disabled": 0, "lat": 38.917769666666665, "bike_id": "d46e36d84dcf6fa48ae8cedd58e4ce63", "fusion_lon": 0.0, "is_reserved": 0, "type": "electric_scooter", "name": "d46e36d84dcf6fa48ae8cedd58e4ce63", "lon": -77.03214633333333, "rental_uris": {"android": "https://dc.lft.to/lastmile_qr_scan", "ios": "https://dc.lft.to/lastmile_qr_scan"}, "fusion_lat": 0.0}, {"is_disabled": 0, "lat": 38.88406, "bike_id": "ee6834d94e052d6e2886c3573eaafca4", "fusion_lon": 0.0, "is_reserved": 0, "type": "electric_bike", "name": "ee6834d94e052d6e2886c3573eaafca4", "lon": -76.96066366666666, "rental_uris": {"android": "https://dc.lft.to/lastmile_qr_scan", "ios": "https://dc.lft.to/lastmile_qr_scan"}, "fusion_lat": 0.0}, {"is_disabled": 0, "lat": 38.86255033333333, "bike_id": "e0b5c8859e88bfbfde5bb0fbc1d761e6", "fusion_lon": 0.0, "is_reserved": 0, "type": "electric_scooter", "name": "e0b5c8859e88bfbfde5bb0fbc1d761e6", "lon": -76.99543966666667, "rental_uris": {"android": "https://dc.lft.to/lastmile_qr_scan", "ios": "https://dc.lft.to/lastmile_qr_scan"}, "fusion_lat": 0.0}, {"is_disabled": 0, "lat": 38.921987666666666, "bike_id": "e227052ee2355c6b452fcc31b7679464", "fusion_lon": 0.0, "is_reserved": 0, "type": "electric_scooter", "name": "e227052ee2355c6b452fcc31b7679464", "lon": -77.0298155, "rental_uris": {"android": "https://dc.lft.to/lastmile_qr_scan", "ios": "https://dc.lft.to/lastmile_qr_scan"}, "fusion_lat": 0.0}, {"is_disabled": 0, "lat": 38.898531166666665, "bike_id": "478a102692bbbeb9b147ff5c3261b545", "fusion_lon": 0.0, "is_reserved": 0, "type": "electric_scooter", "name": "478a102692bbbeb9b147ff5c3261b545", "lon": -76.990358, "rental_uris": {"android": "https://dc.lft.to/lastmile_qr_scan", "ios": "https://dc.lft.to/lastmile_qr_scan"}, "fusion_lat": 0.0}, {"is_disabled": 0, "lat": 38.938568, "bike_id": "15bbfc5714fdc7175271922ec53d9f17", "fusion_lon": 0.0, "is_reserved": 0, "type": "electric_scooter", "name": "15bbfc5714fdc7175271922ec53d9f17", "lon": -77.024852, "rental_uris": {"android": "https://dc.lft.to/lastmile_qr_scan", "ios": "https://dc.lft.to/lastmile_qr_scan"}, "fusion_lat": 0.0}, {"is_disabled": 0, "lat": 38.900098, "bike_id": "e6f5e4027251bbc80e7f87a41fb3ba94", "fusion_lon": 0.0, "is_reserved": 0, "type": "electric_scooter", "name": "e6f5e4027251bbc80e7f87a41fb3ba94", "lon": -77.03357816666667, "rental_uris": {"android": "https://dc.lft.to/lastmile_qr_scan", "ios": "https://dc.lft.to/lastmile_qr_scan"}, "fusion_lat": 0.0}, {"is_disabled": 0, "lat": 38.911251166666666, "bike_id": "e77dd44f9acd9b1c4216cfbf3197a809", "fusion_lon": 0.0, "is_reserved": 0, "type": "electric_scooter", "name": "e77dd44f9acd9b1c4216cfbf3197a809", "lon": -77.0218225, "rental_uris": {"android": "https://dc.lft.to/lastmile_qr_scan", "ios": "https://dc.lft.to/lastmile_qr_scan"}, "fusion_lat": 0.0}, {"is_disabled": 0, "lat": 38.9519445, "bike_id": "885d3be907ea6b1f5314e2bc43754b1a", "fusion_lon": 0.0, "is_reserved": 0, "type": "electric_bike", "name": "885d3be907ea6b1f5314e2bc43754b1a", "lon": -76.969178, "rental_uris": {"android": "https://dc.lft.to/lastmile_qr_scan", "ios": "https://dc.lft.to/lastmile_qr_scan"}, "fusion_lat": 0.0}, {"is_disabled": 0, "lat": 38.9141415, "bike_id": "14414c5c451ff0851caef677506116d3", "fusion_lon": 0.0, "is_reserved": 0, "type": "electric_scooter", "name": "14414c5c451ff0851caef677506116d3", "lon": -77.01879733333334, "rental_uris": {"android": "https://dc.lft.to/lastmile_qr_scan", "ios": "https://dc.lft.to/lastmile_qr_scan"}, "fusion_lat": 0.0}, {"is_disabled": 0, "lat": 38.89075166666667, "bike_id": "5e128a7684bec9fdebf54f8213ecf401", "fusion_lon": 0.0, "is_reserved": 0, "type": "electric_scooter", "name": "5e128a7684bec9fdebf54f8213ecf401", "lon": -76.98826, "rental_uris": {"android": "https://dc.lft.to/lastmile_qr_scan", "ios": "https://dc.lft.to/lastmile_qr_scan"}, "fusion_lat": 0.0}, {"is_disabled": 0, "lat": 38.921556833333334, "bike_id": "3e4e237cd67fc6afdc4b3f65df559d71", "fusion_lon": 0.0, "is_reserved": 0, "type": "electric_scooter", "name": "3e4e237cd67fc6afdc4b3f65df559d71", "lon": -77.03507733333333, "rental_uris": {"android": "https://dc.lft.to/lastmile_qr_scan", "ios": "https://dc.lft.to/lastmile_qr_scan"}, "fusion_lat": 0.0}, {"is_disabled": 0, "lat": 38.930654, "bike_id": "21e545dd46ea033537d83945f8f3f578", "fusion_lon": 0.0, "is_reserved": 0, "type": "electric_scooter", "name": "21e545dd46ea033537d83945f8f3f578", "lon": -77.031956, "rental_uris": {"android": "https://dc.lft.to/lastmile_qr_scan", "ios": "https://dc.lft.to/lastmile_qr_scan"}, "fusion_lat": 0.0}, {"is_disabled": 0, "lat": 38.92266683333333, "bike_id": "ad35e387bc98aef66f354f86d9035605", "fusion_lon": 0.0, "is_reserved": 0, "type": "electric_scooter", "name": "ad35e387bc98aef66f354f86d9035605", "lon": -77.01866783333334, "rental_uris": {"android": "https://dc.lft.to/lastmile_qr_scan", "ios": "https://dc.lft.to/lastmile_qr_scan"}, "fusion_lat": 0.0}, {"is_disabled": 0, "lat": 38.884013833333334, "bike_id": "9ca74b0871ee29c96f5c4a7d5e0b8f2d", "fusion_lon": 0.0, "is_reserved": 0, "type": "electric_scooter", "name": "9ca74b0871ee29c96f5c4a7d5e0b8f2d", "lon": -77.03194883333333, "rental_uris": {"android": "https://dc.lft.to/lastmile_qr_scan", "ios": "https://dc.lft.to/lastmile_qr_scan"}, "fusion_lat": 0.0}, {"is_disabled": 0, "lat": 38.9488915, "bike_id": "05c88a120ba21212aaae45d37cacb3bb", "fusion_lon": 0.0, "is_reserved": 0, "type": "electric_scooter", "name": "05c88a120ba21212aaae45d37cacb3bb", "lon": -77.02692366666666, "rental_uris": {"android": "https://dc.lft.to/lastmile_qr_scan", "ios": "https://dc.lft.to/lastmile_qr_scan"}, "fusion_lat": 0.0}, {"is_disabled": 0, "lat": 38.90586966666667, "bike_id": "d79083be3ce00946fdf1c99921ceba99", "fusion_lon": 0.0, "is_reserved": 0, "type": "electric_scooter", "name": "d79083be3ce00946fdf1c99921ceba99", "lon": -76.98617283333333, "rental_uris": {"android": "https://dc.lft.to/lastmile_qr_scan", "ios": "https://dc.lft.to/lastmile_qr_scan"}, "fusion_lat": 0.0}, {"is_disabled": 0, "lat": 38.84283516666667, "bike_id": "01fa60d7b4f06f8c288d28ce58f85f1c", "fusion_lon": 0.0, "is_reserved": 0, "type": "electric_scooter", "name": "01fa60d7b4f06f8c288d28ce58f85f1c", "lon": -77.00140133333333, "rental_uris": {"android": "https://dc.lft.to/lastmile_qr_scan", "ios": "https://dc.lft.to/lastmile_qr_scan"}, "fusion_lat": 0.0}, {"is_disabled": 0, "lat": 38.88327433333333, "bike_id": "acf9fc147f3cf20e866836b4dd01eb98", "fusion_lon": 0.0, "is_reserved": 0, "type": "electric_scooter", "name": "acf9fc147f3cf20e866836b4dd01eb98", "lon": -77.0153935, "rental_uris": {"android": "https://dc.lft.to/lastmile_qr_scan", "ios": "https://dc.lft.to/lastmile_qr_scan"}, "fusion_lat": 0.0}, {"is_disabled": 0, "lat": 38.9081485, "bike_id": "28fb89d9922188aa5977c09edc47fe64", "fusion_lon": 0.0, "is_reserved": 0, "type": "electric_scooter", "name": "28fb89d9922188aa5977c09edc47fe64", "lon": -77.0636585, "rental_uris": {"android": "https://dc.lft.to/lastmile_qr_scan", "ios": "https://dc.lft.to/lastmile_qr_scan"}, "fusion_lat": 0.0}, {"is_disabled": 0, "lat": 38.89388266666667, "bike_id": "4809d1733b913faeb032b2f40f9c3932", "fusion_lon": 0.0, "is_reserved": 0, "type": "electric_scooter", "name": "4809d1733b913faeb032b2f40f9c3932", "lon": -76.9501915, "rental_uris": {"android": "https://dc.lft.to/lastmile_qr_scan", "ios": "https://dc.lft.to/lastmile_qr_scan"}, "fusion_lat": 0.0}, {"is_disabled": 0, "lat": 38.915598833333334, "bike_id": "01e316b14f76d806f55c78412141f269", "fusion_lon": 0.0, "is_reserved": 0, "type": "electric_scooter", "name": "01e316b14f76d806f55c78412141f269", "lon": -77.03756083333333, "rental_uris": {"android": "https://dc.lft.to/lastmile_qr_scan", "ios": "https://dc.lft.to/lastmile_qr_scan"}, "fusion_lat": 0.0}, {"is_disabled": 0, "lat": 38.90945816666667, "bike_id": "251827e92e07bb1abc904e399226dad1", "fusion_lon": 0.0, "is_reserved": 0, "type": "electric_bike", "name": "251827e92e07bb1abc904e399226dad1", "lon": -76.9841435, "rental_uris": {"android": "https://dc.lft.to/lastmile_qr_scan", "ios": "https://dc.lft.to/lastmile_qr_scan"}, "fusion_lat": 0.0}, {"is_disabled": 0, "lat": 38.9102295, "bike_id": "eafecedb0d0a3948a6461e68c606dcac", "fusion_lon": 0.0, "is_reserved": 0, "type": "electric_scooter", "name": "eafecedb0d0a3948a6461e68c606dcac", "lon": -76.98539616666666, "rental_uris": {"android": "https://dc.lft.to/lastmile_qr_scan", "ios": "https://dc.lft.to/lastmile_qr_scan"}, "fusion_lat": 0.0}, {"is_disabled": 0, "lat": 38.934471, "bike_id": "97c285fe6e9456493ed3819ec6df41fc", "fusion_lon": 0.0, "is_reserved": 0, "type": "electric_scooter", "name": "97c285fe6e9456493ed3819ec6df41fc", "lon": -76.9646665, "rental_uris": {"android": "https://dc.lft.to/lastmile_qr_scan", "ios": "https://dc.lft.to/lastmile_qr_scan"}, "fusion_lat": 0.0}, {"is_disabled": 0, "lat": 38.89316733333333, "bike_id": "2dacca163f73137c6aa6804f8bfc77f0", "fusion_lon": 0.0, "is_reserved": 0, "type": "electric_scooter", "name": "2dacca163f73137c6aa6804f8bfc77f0", "lon": -77.017898, "rental_uris": {"android": "https://dc.lft.to/lastmile_qr_scan", "ios": "https://dc.lft.to/lastmile_qr_scan"}, "fusion_lat": 0.0}, {"is_disabled": 0, "lat": 38.9848655, "bike_id": "72dd2b4aa0b6b437baa6696ee3c8be7b", "fusion_lon": 0.0, "is_reserved": 0, "type": "electric_scooter", "name": "72dd2b4aa0b6b437baa6696ee3c8be7b", "lon": -77.02683133333333, "rental_uris": {"android": "https://dc.lft.to/lastmile_qr_scan", "ios": "https://dc.lft.to/lastmile_qr_scan"}, "fusion_lat": 0.0}, {"is_disabled": 0, "lat": 38.92673333333333, "bike_id": "dffa589bf90ba20fdae15ddc6e42d864", "fusion_lon": 0.0, "is_reserved": 0, "type": "electric_scooter", "name": "dffa589bf90ba20fdae15ddc6e42d864", "lon": -77.01503016666666, "rental_uris": {"android": "https://dc.lft.to/lastmile_qr_scan", "ios": "https://dc.lft.to/lastmile_qr_scan"}, "fusion_lat": 0.0}, {"is_disabled": 0, "lat": 38.917545833333335, "bike_id": "2ed23fdcadd30b8c18c88827fd5d2c5e", "fusion_lon": 0.0, "is_reserved": 0, "type": "electric_scooter", "name": "2ed23fdcadd30b8c18c88827fd5d2c5e", "lon": -77.02702266666667, "rental_uris": {"android": "https://dc.lft.to/lastmile_qr_scan", "ios": "https://dc.lft.to/lastmile_qr_scan"}, "fusion_lat": 0.0}, {"is_disabled": 0, "lat": 38.891983333333336, "bike_id": "d22e5e3ef502e6de369b837e5771b3e7", "fusion_lon": 0.0, "is_reserved": 0, "type": "electric_scooter", "name": "d22e5e3ef502e6de369b837e5771b3e7", "lon": -77.0022685, "rental_uris": {"android": "https://dc.lft.to/lastmile_qr_scan", "ios": "https://dc.lft.to/lastmile_qr_scan"}, "fusion_lat": 0.0}, {"is_disabled": 0, "lat": 38.905250333333335, "bike_id": "188aa812ca5066d646f136d12a0b1633", "fusion_lon": 0.0, "is_reserved": 0, "type": "electric_scooter", "name": "188aa812ca5066d646f136d12a0b1633", "lon": -77.05438216666667, "rental_uris": {"android": "https://dc.lft.to/lastmile_qr_scan", "ios": "https://dc.lft.to/lastmile_qr_scan"}, "fusion_lat": 0.0}, {"is_disabled": 0, "lat": 38.906666333333334, "bike_id": "a4e177314348d39ffe0e0923b8d5aa70", "fusion_lon": 0.0, "is_reserved": 0, "type": "electric_scooter", "name": "a4e177314348d39ffe0e0923b8d5aa70", "lon": -77.02700266666666, "rental_uris": {"android": "https://dc.lft.to/lastmile_qr_scan", "ios": "https://dc.lft.to/lastmile_qr_scan"}, "fusion_lat": 0.0}, {"is_disabled": 0, "lat": 38.90916966666666, "bike_id": "cad39dd5c54cd037c130ca1622400b3f", "fusion_lon": 0.0, "is_reserved": 0, "type": "electric_scooter", "name": "cad39dd5c54cd037c130ca1622400b3f", "lon": -77.04402, "rental_uris": {"android": "https://dc.lft.to/lastmile_qr_scan", "ios": "https://dc.lft.to/lastmile_qr_scan"}, "fusion_lat": 0.0}, {"is_disabled": 0, "lat": 38.86714416666667, "bike_id": "3f0352a0f26d564eea5678cbcdf7aba8", "fusion_lon": 0.0, "is_reserved": 0, "type": "electric_scooter", "name": "3f0352a0f26d564eea5678cbcdf7aba8", "lon": -76.98724266666666, "rental_uris": {"android": "https://dc.lft.to/lastmile_qr_scan", "ios": "https://dc.lft.to/lastmile_qr_scan"}, "fusion_lat": 0.0}, {"is_disabled": 0, "lat": 38.89218733333333, "bike_id": "44ee4aa8b395e2a5225e039cf1371d86", "fusion_lon": 0.0, "is_reserved": 0, "type": "electric_scooter", "name": "44ee4aa8b395e2a5225e039cf1371d86", "lon": -77.02651566666667, "rental_uris": {"android": "https://dc.lft.to/lastmile_qr_scan", "ios": "https://dc.lft.to/lastmile_qr_scan"}, "fusion_lat": 0.0}, {"is_disabled": 0, "lat": 38.87037933333333, "bike_id": "6f34362ae4ffe4490d7049f30cfa831c", "fusion_lon": 0.0, "is_reserved": 0, "type": "electric_bike", "name": "6f34362ae4ffe4490d7049f30cfa831c", "lon": -76.979028, "rental_uris": {"android": "https://dc.lft.to/lastmile_qr_scan", "ios": "https://dc.lft.to/lastmile_qr_scan"}, "fusion_lat": 0.0}, {"is_disabled": 0, "lat": 38.895116333333334, "bike_id": "0e02e51ffc99fd0a36532d41a481c5ba", "fusion_lon": 0.0, "is_reserved": 0, "type": "electric_scooter", "name": "0e02e51ffc99fd0a36532d41a481c5ba", "lon": -76.9488785, "rental_uris": {"android": "https://dc.lft.to/lastmile_qr_scan", "ios": "https://dc.lft.to/lastmile_qr_scan"}, "fusion_lat": 0.0}, {"is_disabled": 0, "lat": 38.973651, "bike_id": "93f60c0b53da30211f403dfd6f47c912", "fusion_lon": 0.0, "is_reserved": 0, "type": "electric_scooter", "name": "93f60c0b53da30211f403dfd6f47c912", "lon": -77.01854983333334, "rental_uris": {"android": "https://dc.lft.to/lastmile_qr_scan", "ios": "https://dc.lft.to/lastmile_qr_scan"}, "fusion_lat": 0.0}, {"is_disabled": 0, "lat": 38.87764816666667, "bike_id": "b0511ea543f7728b0da15c52b8050115", "fusion_lon": 0.0, "is_reserved": 0, "type": "electric_bike", "name": "b0511ea543f7728b0da15c52b8050115", "lon": -77.01047883333334, "rental_uris": {"android": "https://dc.lft.to/lastmile_qr_scan", "ios": "https://dc.lft.to/lastmile_qr_scan"}, "fusion_lat": 0.0}, {"is_disabled": 0, "lat": 38.917600666666665, "bike_id": "df2a81f3acdcd69be1bc9a7f6959c8de", "fusion_lon": 0.0, "is_reserved": 0, "type": "electric_scooter", "name": "df2a81f3acdcd69be1bc9a7f6959c8de", "lon": -77.02397916666666, "rental_uris": {"android": "https://dc.lft.to/lastmile_qr_scan", "ios": "https://dc.lft.to/lastmile_qr_scan"}, "fusion_lat": 0.0}, {"is_disabled": 0, "lat": 38.95481616666667, "bike_id": "8d737ce276e1605cc6ef63ea6687ca2c", "fusion_lon": 0.0, "is_reserved": 0, "type": "electric_bike", "name": "8d737ce276e1605cc6ef63ea6687ca2c", "lon": -76.98864166666667, "rental_uris": {"android": "https://dc.lft.to/lastmile_qr_scan", "ios": "https://dc.lft.to/lastmile_qr_scan"}, "fusion_lat": 0.0}, {"is_disabled": 0, "lat": 38.909620333333336, "bike_id": "f5354bd1e85f6fd39e2a9f8203a256dd", "fusion_lon": 0.0, "is_reserved": 0, "type": "electric_scooter", "name": "f5354bd1e85f6fd39e2a9f8203a256dd", "lon": -76.99609, "rental_uris": {"android": "https://dc.lft.to/lastmile_qr_scan", "ios": "https://dc.lft.to/lastmile_qr_scan"}, "fusion_lat": 0.0}, {"is_disabled": 0, "lat": 38.884033333333335, "bike_id": "8ece548fa24bd8ccaaad4df43ea0bae2", "fusion_lon": 0.0, "is_reserved": 0, "type": "electric_bike", "name": "8ece548fa24bd8ccaaad4df43ea0bae2", "lon": -76.96064566666666, "rental_uris": {"android": "https://dc.lft.to/lastmile_qr_scan", "ios": "https://dc.lft.to/lastmile_qr_scan"}, "fusion_lat": 0.0}, {"is_disabled": 0, "lat": 38.89827433333333, "bike_id": "03e6493c244c3e6dcf8994caca7c3833", "fusion_lon": 0.0, "is_reserved": 0, "type": "electric_scooter", "name": "03e6493c244c3e6dcf8994caca7c3833", "lon": -76.98661266666667, "rental_uris": {"android": "https://dc.lft.to/lastmile_qr_scan", "ios": "https://dc.lft.to/lastmile_qr_scan"}, "fusion_lat": 0.0}, {"is_disabled": 0, "lat": 38.9364085, "bike_id": "5b499d7991a1c0db42117d865746d96c", "fusion_lon": 0.0, "is_reserved": 0, "type": "electric_scooter", "name": "5b499d7991a1c0db42117d865746d96c", "lon": -77.03337766666667, "rental_uris": {"android": "https://dc.lft.to/lastmile_qr_scan", "ios": "https://dc.lft.to/lastmile_qr_scan"}, "fusion_lat": 0.0}, {"is_disabled": 0, "lat": 38.91057716666667, "bike_id": "8a7dfe5b13fb99de4411df8ea560ad94", "fusion_lon": 0.0, "is_reserved": 0, "type": "electric_scooter", "name": "8a7dfe5b13fb99de4411df8ea560ad94", "lon": -77.04237183333333, "rental_uris": {"android": "https://dc.lft.to/lastmile_qr_scan", "ios": "https://dc.lft.to/lastmile_qr_scan"}, "fusion_lat": 0.0}, {"is_disabled": 0, "lat": 38.871425333333335, "bike_id": "72004def48338993cde03c3e65daf3ff", "fusion_lon": 0.0, "is_reserved": 0, "type": "electric_scooter", "name": "72004def48338993cde03c3e65daf3ff", "lon": -76.9933305, "rental_uris": {"android": "https://dc.lft.to/lastmile_qr_scan", "ios": "https://dc.lft.to/lastmile_qr_scan"}, "fusion_lat": 0.0}, {"is_disabled": 0, "lat": 38.8621445, "bike_id": "15025da3370a55420f020e7a57392576", "fusion_lon": 0.0, "is_reserved": 0, "type": "electric_scooter", "name": "15025da3370a55420f020e7a57392576", "lon": -76.99474683333334, "rental_uris": {"android": "https://dc.lft.to/lastmile_qr_scan", "ios": "https://dc.lft.to/lastmile_qr_scan"}, "fusion_lat": 0.0}, {"is_disabled": 0, "lat": 38.91002733333333, "bike_id": "3c95536b3e647a10520762d63f7c9b5f", "fusion_lon": 0.0, "is_reserved": 0, "type": "electric_scooter", "name": "3c95536b3e647a10520762d63f7c9b5f", "lon": -76.99140666666666, "rental_uris": {"android": "https://dc.lft.to/lastmile_qr_scan", "ios": "https://dc.lft.to/lastmile_qr_scan"}, "fusion_lat": 0.0}, {"is_disabled": 0, "lat": 38.91854133333333, "bike_id": "4440b8cfb5cf3dc95a2630a6dd8163ee", "fusion_lon": 0.0, "is_reserved": 0, "type": "electric_scooter", "name": "4440b8cfb5cf3dc95a2630a6dd8163ee", "lon": -77.04102316666666, "rental_uris": {"android": "https://dc.lft.to/lastmile_qr_scan", "ios": "https://dc.lft.to/lastmile_qr_scan"}, "fusion_lat": 0.0}, {"is_disabled": 0, "lat": 38.8955135, "bike_id": "2cb60e82bf0c48f09efc4bec158944bf", "fusion_lon": 0.0, "is_reserved": 0, "type": "electric_scooter", "name": "2cb60e82bf0c48f09efc4bec158944bf", "lon": -76.95656633333333, "rental_uris": {"android": "https://dc.lft.to/lastmile_qr_scan", "ios": "https://dc.lft.to/lastmile_qr_scan"}, "fusion_lat": 0.0}, {"is_disabled": 0, "lat": 39.08860633333333, "bike_id": "1a3ad5ff2f15691c9392056a6dd4e776", "fusion_lon": 0.0, "is_reserved": 0, "type": "electric_bike", "name": "1a3ad5ff2f15691c9392056a6dd4e776", "lon": -77.17841533333333, "rental_uris": {"android": "https://dc.lft.to/lastmile_qr_scan", "ios": "https://dc.lft.to/lastmile_qr_scan"}, "fusion_lat": 0.0}, {"is_disabled": 0, "lat": 38.90496316666667, "bike_id": "8d9ab5859ad5fa675f77206252aa7542", "fusion_lon": 0.0, "is_reserved": 0, "type": "electric_scooter", "name": "8d9ab5859ad5fa675f77206252aa7542", "lon": -77.02957383333333, "rental_uris": {"android": "https://dc.lft.to/lastmile_qr_scan", "ios": "https://dc.lft.to/lastmile_qr_scan"}, "fusion_lat": 0.0}, {"is_disabled": 0, "lat": 38.8874625, "bike_id": "3eff9acefcab393ee46679cec5ce9fbc", "fusion_lon": 0.0, "is_reserved": 0, "type": "electric_scooter", "name": "3eff9acefcab393ee46679cec5ce9fbc", "lon": -77.01404583333333, "rental_uris": {"android": "https://dc.lft.to/lastmile_qr_scan", "ios": "https://dc.lft.to/lastmile_qr_scan"}, "fusion_lat": 0.0}, {"is_disabled": 0, "lat": 38.8974295, "bike_id": "14243f9fb710335494f64ee28017333b", "fusion_lon": 0.0, "is_reserved": 0, "type": "electric_scooter", "name": "14243f9fb710335494f64ee28017333b", "lon": -76.99941266666667, "rental_uris": {"android": "https://dc.lft.to/lastmile_qr_scan", "ios": "https://dc.lft.to/lastmile_qr_scan"}, "fusion_lat": 0.0}, {"is_disabled": 0, "lat": 38.91964266666667, "bike_id": "c3d23a29b033adab368f08e627808fe3", "fusion_lon": 0.0, "is_reserved": 0, "type": "electric_bike", "name": "c3d23a29b033adab368f08e627808fe3", "lon": -76.97121016666667, "rental_uris": {"android": "https://dc.lft.to/lastmile_qr_scan", "ios": "https://dc.lft.to/lastmile_qr_scan"}, "fusion_lat": 0.0}, {"is_disabled": 0, "lat": 38.903892666666664, "bike_id": "891b5741b8c46e6796fec06c0a36a2bb", "fusion_lon": 0.0, "is_reserved": 0, "type": "electric_scooter", "name": "891b5741b8c46e6796fec06c0a36a2bb", "lon": -76.99002416666667, "rental_uris": {"android": "https://dc.lft.to/lastmile_qr_scan", "ios": "https://dc.lft.to/lastmile_qr_scan"}, "fusion_lat": 0.0}, {"is_disabled": 0, "lat": 38.936432, "bike_id": "2eaeba562f4cd2fe6f7a4fc229de1112", "fusion_lon": 0.0, "is_reserved": 0, "type": "electric_scooter", "name": "2eaeba562f4cd2fe6f7a4fc229de1112", "lon": -77.03285133333333, "rental_uris": {"android": "https://dc.lft.to/lastmile_qr_scan", "ios": "https://dc.lft.to/lastmile_qr_scan"}, "fusion_lat": 0.0}, {"is_disabled": 0, "lat": 38.892207, "bike_id": "467b49fca9016b8cc457e304998fd9e6", "fusion_lon": 0.0, "is_reserved": 0, "type": "electric_scooter", "name": "467b49fca9016b8cc457e304998fd9e6", "lon": -77.02652916666666, "rental_uris": {"android": "https://dc.lft.to/lastmile_qr_scan", "ios": "https://dc.lft.to/lastmile_qr_scan"}, "fusion_lat": 0.0}, {"is_disabled": 0, "lat": 38.90990683333333, "bike_id": "f2ec7f9b776bb2ca08176c5de26e3a9e", "fusion_lon": 0.0, "is_reserved": 0, "type": "electric_scooter", "name": "f2ec7f9b776bb2ca08176c5de26e3a9e", "lon": -76.984918, "rental_uris": {"android": "https://dc.lft.to/lastmile_qr_scan", "ios": "https://dc.lft.to/lastmile_qr_scan"}, "fusion_lat": 0.0}, {"is_disabled": 0, "lat": 38.9175385, "bike_id": "e8ef532f895fbd2fda66d7548be7cbb9", "fusion_lon": 0.0, "is_reserved": 0, "type": "electric_scooter", "name": "e8ef532f895fbd2fda66d7548be7cbb9", "lon": -77.0120845, "rental_uris": {"android": "https://dc.lft.to/lastmile_qr_scan", "ios": "https://dc.lft.to/lastmile_qr_scan"}, "fusion_lat": 0.0}, {"is_disabled": 0, "lat": 38.93211133333333, "bike_id": "f27d8c5ef628ab3aa4e098ef55d0d913", "fusion_lon": 0.0, "is_reserved": 0, "type": "electric_scooter", "name": "f27d8c5ef628ab3aa4e098ef55d0d913", "lon": -77.02829883333334, "rental_uris": {"android": "https://dc.lft.to/lastmile_qr_scan", "ios": "https://dc.lft.to/lastmile_qr_scan"}, "fusion_lat": 0.0}, {"is_disabled": 0, "lat": 38.95400083333333, "bike_id": "3a820a52a02a49013d19476d0694d460", "fusion_lon": 0.0, "is_reserved": 0, "type": "electric_scooter", "name": "3a820a52a02a49013d19476d0694d460", "lon": -77.02797566666666, "rental_uris": {"android": "https://dc.lft.to/lastmile_qr_scan", "ios": "https://dc.lft.to/lastmile_qr_scan"}, "fusion_lat": 0.0}, {"is_disabled": 0, "lat": 38.9224845, "bike_id": "25c687349c291010db9e01b42c3d20e2", "fusion_lon": 0.0, "is_reserved": 0, "type": "electric_scooter", "name": "25c687349c291010db9e01b42c3d20e2", "lon": -77.03077583333334, "rental_uris": {"android": "https://dc.lft.to/lastmile_qr_scan", "ios": "https://dc.lft.to/lastmile_qr_scan"}, "fusion_lat": 0.0}, {"is_disabled": 0, "lat": 38.915390333333335, "bike_id": "d3c650772e97b21b38c00b9847e1e057", "fusion_lon": 0.0, "is_reserved": 0, "type": "electric_scooter", "name": "d3c650772e97b21b38c00b9847e1e057", "lon": -76.983538, "rental_uris": {"android": "https://dc.lft.to/lastmile_qr_scan", "ios": "https://dc.lft.to/lastmile_qr_scan"}, "fusion_lat": 0.0}, {"is_disabled": 0, "lat": 38.9041725, "bike_id": "5980fef2b6c5cbc60684b8a75d6bc5c5", "fusion_lon": 0.0, "is_reserved": 0, "type": "electric_scooter", "name": "5980fef2b6c5cbc60684b8a75d6bc5c5", "lon": -76.9811095, "rental_uris": {"android": "https://dc.lft.to/lastmile_qr_scan", "ios": "https://dc.lft.to/lastmile_qr_scan"}, "fusion_lat": 0.0}, {"is_disabled": 0, "lat": 38.8982755, "bike_id": "775bc9d32212728dd60d339d83274fb4", "fusion_lon": 0.0, "is_reserved": 0, "type": "electric_scooter", "name": "775bc9d32212728dd60d339d83274fb4", "lon": -77.050339, "rental_uris": {"android": "https://dc.lft.to/lastmile_qr_scan", "ios": "https://dc.lft.to/lastmile_qr_scan"}, "fusion_lat": 0.0}, {"is_disabled": 0, "lat": 38.8994265, "bike_id": "994d30ed8df67b622005148dbca5d318", "fusion_lon": 0.0, "is_reserved": 0, "type": "electric_scooter", "name": "994d30ed8df67b622005148dbca5d318", "lon": -77.04349333333333, "rental_uris": {"android": "https://dc.lft.to/lastmile_qr_scan", "ios": "https://dc.lft.to/lastmile_qr_scan"}, "fusion_lat": 0.0}, {"is_disabled": 0, "lat": 38.914188333333335, "bike_id": "e18188fadeaccc77081329d7d3d2252b", "fusion_lon": 0.0, "is_reserved": 0, "type": "electric_scooter", "name": "e18188fadeaccc77081329d7d3d2252b", "lon": -77.023845, "rental_uris": {"android": "https://dc.lft.to/lastmile_qr_scan", "ios": "https://dc.lft.to/lastmile_qr_scan"}, "fusion_lat": 0.0}, {"is_disabled": 0, "lat": 38.94915116666667, "bike_id": "d66911c653a761e15e23af376b0721cb", "fusion_lon": 0.0, "is_reserved": 0, "type": "electric_bike", "name": "d66911c653a761e15e23af376b0721cb", "lon": -76.97703216666666, "rental_uris": {"android": "https://dc.lft.to/lastmile_qr_scan", "ios": "https://dc.lft.to/lastmile_qr_scan"}, "fusion_lat": 0.0}, {"is_disabled": 0, "lat": 38.88758516666667, "bike_id": "2ac3f29ef74d6a81d9b4644fed458bc4", "fusion_lon": 0.0, "is_reserved": 0, "type": "electric_scooter", "name": "2ac3f29ef74d6a81d9b4644fed458bc4", "lon": -77.03150866666667, "rental_uris": {"android": "https://dc.lft.to/lastmile_qr_scan", "ios": "https://dc.lft.to/lastmile_qr_scan"}, "fusion_lat": 0.0}, {"is_disabled": 0, "lat": 38.878549166666666, "bike_id": "42d9a461b1a28bab7b26d65cadce91ea", "fusion_lon": 0.0, "is_reserved": 0, "type": "electric_scooter", "name": "42d9a461b1a28bab7b26d65cadce91ea", "lon": -77.0176065, "rental_uris": {"android": "https://dc.lft.to/lastmile_qr_scan", "ios": "https://dc.lft.to/lastmile_qr_scan"}, "fusion_lat": 0.0}, {"is_disabled": 0, "lat": 38.88520366666667, "bike_id": "9202572d387f7ba99f9fb2e311edf1e5", "fusion_lon": 0.0, "is_reserved": 0, "type": "electric_scooter", "name": "9202572d387f7ba99f9fb2e311edf1e5", "lon": -77.0059845, "rental_uris": {"android": "https://dc.lft.to/lastmile_qr_scan", "ios": "https://dc.lft.to/lastmile_qr_scan"}, "fusion_lat": 0.0}, {"is_disabled": 0, "lat": 38.93958833333333, "bike_id": "cd6d5f8d6db9109c88aed41f69ecd528", "fusion_lon": 0.0, "is_reserved": 0, "type": "electric_bike", "name": "cd6d5f8d6db9109c88aed41f69ecd528", "lon": -77.3609395, "rental_uris": {"android": "https://dc.lft.to/lastmile_qr_scan", "ios": "https://dc.lft.to/lastmile_qr_scan"}, "fusion_lat": 0.0}, {"is_disabled": 0, "lat": 38.916573166666666, "bike_id": "f45033e1885b04ab892ef11459243dad", "fusion_lon": 0.0, "is_reserved": 0, "type": "electric_scooter", "name": "f45033e1885b04ab892ef11459243dad", "lon": -77.0417685, "rental_uris": {"android": "https://dc.lft.to/lastmile_qr_scan", "ios": "https://dc.lft.to/lastmile_qr_scan"}, "fusion_lat": 0.0}, {"is_disabled": 0, "lat": 38.903741833333335, "bike_id": "e5242131518a671201091d07eefe1ab8", "fusion_lon": 0.0, "is_reserved": 0, "type": "electric_scooter", "name": "e5242131518a671201091d07eefe1ab8", "lon": -77.03643933333333, "rental_uris": {"android": "https://dc.lft.to/lastmile_qr_scan", "ios": "https://dc.lft.to/lastmile_qr_scan"}, "fusion_lat": 0.0}, {"is_disabled": 0, "lat": 38.902717, "bike_id": "b453f7bb61a96ef193b0fef69acb8a0d", "fusion_lon": 0.0, "is_reserved": 0, "type": "electric_scooter", "name": "b453f7bb61a96ef193b0fef69acb8a0d", "lon": -77.03870766666667, "rental_uris": {"android": "https://dc.lft.to/lastmile_qr_scan", "ios": "https://dc.lft.to/lastmile_qr_scan"}, "fusion_lat": 0.0}, {"is_disabled": 0, "lat": 38.96218566666667, "bike_id": "95131d7391d43c7f31c9ba76741cfc8b", "fusion_lon": 0.0, "is_reserved": 0, "type": "electric_bike", "name": "95131d7391d43c7f31c9ba76741cfc8b", "lon": -77.026296, "rental_uris": {"android": "https://dc.lft.to/lastmile_qr_scan", "ios": "https://dc.lft.to/lastmile_qr_scan"}, "fusion_lat": 0.0}, {"is_disabled": 0, "lat": 38.890404, "bike_id": "a03f1b460b8f6c371c70285966c0d774", "fusion_lon": 0.0, "is_reserved": 0, "type": "electric_scooter", "name": "a03f1b460b8f6c371c70285966c0d774", "lon": -76.951486, "rental_uris": {"android": "https://dc.lft.to/lastmile_qr_scan", "ios": "https://dc.lft.to/lastmile_qr_scan"}, "fusion_lat": 0.0}, {"is_disabled": 0, "lat": 38.938300166666664, "bike_id": "9c44b82f295a6c0c303f5039c867effa", "fusion_lon": 0.0, "is_reserved": 0, "type": "electric_scooter", "name": "9c44b82f295a6c0c303f5039c867effa", "lon": -76.98617016666667, "rental_uris": {"android": "https://dc.lft.to/lastmile_qr_scan", "ios": "https://dc.lft.to/lastmile_qr_scan"}, "fusion_lat": 0.0}, {"is_disabled": 0, "lat": 38.90731383333333, "bike_id": "e02bbde430367dabc1185f4ff8dfd0a1", "fusion_lon": 0.0, "is_reserved": 0, "type": "electric_scooter", "name": "e02bbde430367dabc1185f4ff8dfd0a1", "lon": -77.00370583333333, "rental_uris": {"android": "https://dc.lft.to/lastmile_qr_scan", "ios": "https://dc.lft.to/lastmile_qr_scan"}, "fusion_lat": 0.0}, {"is_disabled": 0, "lat": 38.906314, "bike_id": "74170eb3877049ae29273e9f6a4d7029", "fusion_lon": 0.0, "is_reserved": 0, "type": "electric_scooter", "name": "74170eb3877049ae29273e9f6a4d7029", "lon": -77.02502066666666, "rental_uris": {"android": "https://dc.lft.to/lastmile_qr_scan", "ios": "https://dc.lft.to/lastmile_qr_scan"}, "fusion_lat": 0.0}, {"is_disabled": 0, "lat": 38.84103116666667, "bike_id": "4302acbc29f08211f38dd7c531e0debc", "fusion_lon": 0.0, "is_reserved": 0, "type": "electric_bike", "name": "4302acbc29f08211f38dd7c531e0debc", "lon": -77.08934166666667, "rental_uris": {"android": "https://dc.lft.to/lastmile_qr_scan", "ios": "https://dc.lft.to/lastmile_qr_scan"}, "fusion_lat": 0.0}, {"is_disabled": 0, "lat": 38.899156, "bike_id": "494d396afe10e72f5e7d8d1c747dae5d", "fusion_lon": 0.0, "is_reserved": 0, "type": "electric_scooter", "name": "494d396afe10e72f5e7d8d1c747dae5d", "lon": -76.93363766666667, "rental_uris": {"android": "https://dc.lft.to/lastmile_qr_scan", "ios": "https://dc.lft.to/lastmile_qr_scan"}, "fusion_lat": 0.0}, {"is_disabled": 0, "lat": 38.894300666666666, "bike_id": "cf806feb8f688e38961fd3d36ba65c53", "fusion_lon": 0.0, "is_reserved": 0, "type": "electric_scooter", "name": "cf806feb8f688e38961fd3d36ba65c53", "lon": -76.9837895, "rental_uris": {"android": "https://dc.lft.to/lastmile_qr_scan", "ios": "https://dc.lft.to/lastmile_qr_scan"}, "fusion_lat": 0.0}, {"is_disabled": 0, "lat": 38.90942416666667, "bike_id": "3337740fe706748d62734be2b2fd2f3b", "fusion_lon": 0.0, "is_reserved": 0, "type": "electric_scooter", "name": "3337740fe706748d62734be2b2fd2f3b", "lon": -77.03190566666666, "rental_uris": {"android": "https://dc.lft.to/lastmile_qr_scan", "ios": "https://dc.lft.to/lastmile_qr_scan"}, "fusion_lat": 0.0}, {"is_disabled": 0, "lat": 38.914923, "bike_id": "cb9527d1fa63d88ae1819f633d4ad020", "fusion_lon": 0.0, "is_reserved": 0, "type": "electric_scooter", "name": "cb9527d1fa63d88ae1819f633d4ad020", "lon": -76.98354566666667, "rental_uris": {"android": "https://dc.lft.to/lastmile_qr_scan", "ios": "https://dc.lft.to/lastmile_qr_scan"}, "fusion_lat": 0.0}, {"is_disabled": 0, "lat": 38.9093485, "bike_id": "d4f41d301605bec7dc948890d0fa48c8", "fusion_lon": 0.0, "is_reserved": 0, "type": "electric_scooter", "name": "d4f41d301605bec7dc948890d0fa48c8", "lon": -77.0269655, "rental_uris": {"android": "https://dc.lft.to/lastmile_qr_scan", "ios": "https://dc.lft.to/lastmile_qr_scan"}, "fusion_lat": 0.0}, {"is_disabled": 0, "lat": 38.9213815, "bike_id": "60f7239b2a306fd10d22bdbb8d02ff53", "fusion_lon": 0.0, "is_reserved": 0, "type": "electric_scooter", "name": "60f7239b2a306fd10d22bdbb8d02ff53", "lon": -77.04779766666667, "rental_uris": {"android": "https://dc.lft.to/lastmile_qr_scan", "ios": "https://dc.lft.to/lastmile_qr_scan"}, "fusion_lat": 0.0}, {"is_disabled": 0, "lat": 38.903077833333334, "bike_id": "647d4cf75bbf53ce3688ac624b48bf26", "fusion_lon": 0.0, "is_reserved": 0, "type": "electric_scooter", "name": "647d4cf75bbf53ce3688ac624b48bf26", "lon": -77.02128933333333, "rental_uris": {"android": "https://dc.lft.to/lastmile_qr_scan", "ios": "https://dc.lft.to/lastmile_qr_scan"}, "fusion_lat": 0.0}, {"is_disabled": 0, "lat": 38.9322455, "bike_id": "ea9c967183b5b6043297236357270ed4", "fusion_lon": 0.0, "is_reserved": 0, "type": "electric_scooter", "name": "ea9c967183b5b6043297236357270ed4", "lon": -77.033822, "rental_uris": {"android": "https://dc.lft.to/lastmile_qr_scan", "ios": "https://dc.lft.to/lastmile_qr_scan"}, "fusion_lat": 0.0}, {"is_disabled": 0, "lat": 38.926127666666666, "bike_id": "429813ca69a07220fb16e972401dc5f4", "fusion_lon": 0.0, "is_reserved": 0, "type": "electric_scooter", "name": "429813ca69a07220fb16e972401dc5f4", "lon": -77.02161116666667, "rental_uris": {"android": "https://dc.lft.to/lastmile_qr_scan", "ios": "https://dc.lft.to/lastmile_qr_scan"}, "fusion_lat": 0.0}, {"is_disabled": 0, "lat": 38.908081333333335, "bike_id": "7433147e76149610054c97e5587717f8", "fusion_lon": 0.0, "is_reserved": 0, "type": "electric_scooter", "name": "7433147e76149610054c97e5587717f8", "lon": -77.03427816666667, "rental_uris": {"android": "https://dc.lft.to/lastmile_qr_scan", "ios": "https://dc.lft.to/lastmile_qr_scan"}, "fusion_lat": 0.0}, {"is_disabled": 0, "lat": 38.89645633333333, "bike_id": "8941f8aaa199b6284c6ca67bdb94b9f6", "fusion_lon": 0.0, "is_reserved": 0, "type": "electric_scooter", "name": "8941f8aaa199b6284c6ca67bdb94b9f6", "lon": -77.00905483333334, "rental_uris": {"android": "https://dc.lft.to/lastmile_qr_scan", "ios": "https://dc.lft.to/lastmile_qr_scan"}, "fusion_lat": 0.0}, {"is_disabled": 0, "lat": 38.83608183333333, "bike_id": "aee5d8d787dfd9133eb54cdcc182cc20", "fusion_lon": 0.0, "is_reserved": 0, "type": "electric_bike", "name": "aee5d8d787dfd9133eb54cdcc182cc20", "lon": -77.00383283333333, "rental_uris": {"android": "https://dc.lft.to/lastmile_qr_scan", "ios": "https://dc.lft.to/lastmile_qr_scan"}, "fusion_lat": 0.0}, {"is_disabled": 0, "lat": 38.928383833333335, "bike_id": "ff5720c8f433f146c5a82600959ab476", "fusion_lon": 0.0, "is_reserved": 0, "type": "electric_scooter", "name": "ff5720c8f433f146c5a82600959ab476", "lon": -77.03243083333334, "rental_uris": {"android": "https://dc.lft.to/lastmile_qr_scan", "ios": "https://dc.lft.to/lastmile_qr_scan"}, "fusion_lat": 0.0}, {"is_disabled": 0, "lat": 38.85699616666667, "bike_id": "d6143044ad3fb3a2a7127f7e76eb8523", "fusion_lon": 0.0, "is_reserved": 0, "type": "electric_scooter", "name": "d6143044ad3fb3a2a7127f7e76eb8523", "lon": -76.995989, "rental_uris": {"android": "https://dc.lft.to/lastmile_qr_scan", "ios": "https://dc.lft.to/lastmile_qr_scan"}, "fusion_lat": 0.0}, {"is_disabled": 0, "lat": 38.898296333333334, "bike_id": "5f8bbac49953a711680e6b8003c82f7e", "fusion_lon": 0.0, "is_reserved": 0, "type": "electric_scooter", "name": "5f8bbac49953a711680e6b8003c82f7e", "lon": -77.02948416666666, "rental_uris": {"android": "https://dc.lft.to/lastmile_qr_scan", "ios": "https://dc.lft.to/lastmile_qr_scan"}, "fusion_lat": 0.0}, {"is_disabled": 0, "lat": 38.8852115, "bike_id": "91dc3571d25283d6a4717483f993dc83", "fusion_lon": 0.0, "is_reserved": 0, "type": "electric_scooter", "name": "91dc3571d25283d6a4717483f993dc83", "lon": -77.00596983333334, "rental_uris": {"android": "https://dc.lft.to/lastmile_qr_scan", "ios": "https://dc.lft.to/lastmile_qr_scan"}, "fusion_lat": 0.0}, {"is_disabled": 0, "lat": 38.89076133333333, "bike_id": "d1cfe21a019414e274b5808eb896578f", "fusion_lon": 0.0, "is_reserved": 0, "type": "electric_scooter", "name": "d1cfe21a019414e274b5808eb896578f", "lon": -76.98826466666667, "rental_uris": {"android": "https://dc.lft.to/lastmile_qr_scan", "ios": "https://dc.lft.to/lastmile_qr_scan"}, "fusion_lat": 0.0}, {"is_disabled": 0, "lat": 38.915418333333335, "bike_id": "115d9ab807ad142dcbccce49ba8c7fa6", "fusion_lon": 0.0, "is_reserved": 0, "type": "electric_scooter", "name": "115d9ab807ad142dcbccce49ba8c7fa6", "lon": -77.04460633333333, "rental_uris": {"android": "https://dc.lft.to/lastmile_qr_scan", "ios": "https://dc.lft.to/lastmile_qr_scan"}, "fusion_lat": 0.0}, {"is_disabled": 0, "lat": 38.905159833333336, "bike_id": "aa6154ccaa28d9ddb95fde5fbe0117ab", "fusion_lon": 0.0, "is_reserved": 0, "type": "electric_scooter", "name": "aa6154ccaa28d9ddb95fde5fbe0117ab", "lon": -77.05071483333333, "rental_uris": {"android": "https://dc.lft.to/lastmile_qr_scan", "ios": "https://dc.lft.to/lastmile_qr_scan"}, "fusion_lat": 0.0}, {"is_disabled": 0, "lat": 38.899071166666666, "bike_id": "efa8e40f489cbc678920eeb98639d0a0", "fusion_lon": 0.0, "is_reserved": 0, "type": "electric_scooter", "name": "efa8e40f489cbc678920eeb98639d0a0", "lon": -77.02574816666667, "rental_uris": {"android": "https://dc.lft.to/lastmile_qr_scan", "ios": "https://dc.lft.to/lastmile_qr_scan"}, "fusion_lat": 0.0}, {"is_disabled": 0, "lat": 38.8870675, "bike_id": "2dcceb8a1c9043309693bc84b7a1ac4f", "fusion_lon": 0.0, "is_reserved": 0, "type": "electric_scooter", "name": "2dcceb8a1c9043309693bc84b7a1ac4f", "lon": -77.01364383333333, "rental_uris": {"android": "https://dc.lft.to/lastmile_qr_scan", "ios": "https://dc.lft.to/lastmile_qr_scan"}, "fusion_lat": 0.0}, {"is_disabled": 0, "lat": 38.93704966666667, "bike_id": "4e2ce2c596b525bdbf6b81045cfe5dd2", "fusion_lon": 0.0, "is_reserved": 0, "type": "electric_scooter", "name": "4e2ce2c596b525bdbf6b81045cfe5dd2", "lon": -77.05604483333333, "rental_uris": {"android": "https://dc.lft.to/lastmile_qr_scan", "ios": "https://dc.lft.to/lastmile_qr_scan"}, "fusion_lat": 0.0}, {"is_disabled": 0, "lat": 38.95429216666667, "bike_id": "16a409cdf53b381124398dab8b3c2cb2", "fusion_lon": 0.0, "is_reserved": 0, "type": "electric_scooter", "name": "16a409cdf53b381124398dab8b3c2cb2", "lon": -77.0276935, "rental_uris": {"android": "https://dc.lft.to/lastmile_qr_scan", "ios": "https://dc.lft.to/lastmile_qr_scan"}, "fusion_lat": 0.0}, {"is_disabled": 0, "lat": 38.805680333333335, "bike_id": "9012259a62a746903373ffcfe7e3c804", "fusion_lon": 0.0, "is_reserved": 0, "type": "electric_bike", "name": "9012259a62a746903373ffcfe7e3c804", "lon": -77.06834333333333, "rental_uris": {"android": "https://dc.lft.to/lastmile_qr_scan", "ios": "https://dc.lft.to/lastmile_qr_scan"}, "fusion_lat": 0.0}, {"is_disabled": 0, "lat": 38.904743333333336, "bike_id": "de9c5c1dd89b2718f491f92a871dda39", "fusion_lon": 0.0, "is_reserved": 0, "type": "electric_scooter", "name": "de9c5c1dd89b2718f491f92a871dda39", "lon": -77.04839433333333, "rental_uris": {"android": "https://dc.lft.to/lastmile_qr_scan", "ios": "https://dc.lft.to/lastmile_qr_scan"}, "fusion_lat": 0.0}, {"is_disabled": 0, "lat": 38.90584666666667, "bike_id": "1b9245bdb09d6d5759f8962287bc036c", "fusion_lon": 0.0, "is_reserved": 0, "type": "electric_scooter", "name": "1b9245bdb09d6d5759f8962287bc036c", "lon": -77.044398, "rental_uris": {"android": "https://dc.lft.to/lastmile_qr_scan", "ios": "https://dc.lft.to/lastmile_qr_scan"}, "fusion_lat": 0.0}, {"is_disabled": 0, "lat": 38.956376, "bike_id": "5d05ed4e18ac7f228e39af0d90c66fa0", "fusion_lon": 0.0, "is_reserved": 0, "type": "electric_scooter", "name": "5d05ed4e18ac7f228e39af0d90c66fa0", "lon": -77.0330215, "rental_uris": {"android": "https://dc.lft.to/lastmile_qr_scan", "ios": "https://dc.lft.to/lastmile_qr_scan"}, "fusion_lat": 0.0}, {"is_disabled": 0, "lat": 38.94291916666667, "bike_id": "049b510fc5c4461b47d42da2044fabaa", "fusion_lon": 0.0, "is_reserved": 0, "type": "electric_scooter", "name": "049b510fc5c4461b47d42da2044fabaa", "lon": -77.0586515, "rental_uris": {"android": "https://dc.lft.to/lastmile_qr_scan", "ios": "https://dc.lft.to/lastmile_qr_scan"}, "fusion_lat": 0.0}, {"is_disabled": 0, "lat": 38.89624366666666, "bike_id": "9363ca324675bd6f8c892d5839d64d16", "fusion_lon": 0.0, "is_reserved": 0, "type": "electric_scooter", "name": "9363ca324675bd6f8c892d5839d64d16", "lon": -77.029542, "rental_uris": {"android": "https://dc.lft.to/lastmile_qr_scan", "ios": "https://dc.lft.to/lastmile_qr_scan"}, "fusion_lat": 0.0}, {"is_disabled": 0, "lat": 38.907107333333336, "bike_id": "a32e6f7905b96076a3ce23646ccf0138", "fusion_lon": 0.0, "is_reserved": 0, "type": "electric_scooter", "name": "a32e6f7905b96076a3ce23646ccf0138", "lon": -76.980866, "rental_uris": {"android": "https://dc.lft.to/lastmile_qr_scan", "ios": "https://dc.lft.to/lastmile_qr_scan"}, "fusion_lat": 0.0}, {"is_disabled": 0, "lat": 38.88737866666666, "bike_id": "b53e551c33b437e1af6aa0bd7cf9674b", "fusion_lon": 0.0, "is_reserved": 0, "type": "electric_scooter", "name": "b53e551c33b437e1af6aa0bd7cf9674b", "lon": -77.01532233333333, "rental_uris": {"android": "https://dc.lft.to/lastmile_qr_scan", "ios": "https://dc.lft.to/lastmile_qr_scan"}, "fusion_lat": 0.0}, {"is_disabled": 0, "lat": 38.91694366666667, "bike_id": "b94c5089cff76a03c0da51d82dbd402f", "fusion_lon": 0.0, "is_reserved": 0, "type": "electric_scooter", "name": "b94c5089cff76a03c0da51d82dbd402f", "lon": -77.02600266666667, "rental_uris": {"android": "https://dc.lft.to/lastmile_qr_scan", "ios": "https://dc.lft.to/lastmile_qr_scan"}, "fusion_lat": 0.0}, {"is_disabled": 0, "lat": 38.888654333333335, "bike_id": "22a1e0584f2baccf79218c78d3e3d6a6", "fusion_lon": 0.0, "is_reserved": 0, "type": "electric_scooter", "name": "22a1e0584f2baccf79218c78d3e3d6a6", "lon": -77.04010666666667, "rental_uris": {"android": "https://dc.lft.to/lastmile_qr_scan", "ios": "https://dc.lft.to/lastmile_qr_scan"}, "fusion_lat": 0.0}, {"is_disabled": 0, "lat": 38.902735666666665, "bike_id": "76df6109e74e091572e31bba5e5f8d22", "fusion_lon": 0.0, "is_reserved": 0, "type": "electric_scooter", "name": "76df6109e74e091572e31bba5e5f8d22", "lon": -77.06023283333333, "rental_uris": {"android": "https://dc.lft.to/lastmile_qr_scan", "ios": "https://dc.lft.to/lastmile_qr_scan"}, "fusion_lat": 0.0}, {"is_disabled": 0, "lat": 38.93727066666667, "bike_id": "085fdcdf68cf0cb0c4c7aba4ec53126f", "fusion_lon": 0.0, "is_reserved": 0, "type": "electric_scooter", "name": "085fdcdf68cf0cb0c4c7aba4ec53126f", "lon": -77.03261083333334, "rental_uris": {"android": "https://dc.lft.to/lastmile_qr_scan", "ios": "https://dc.lft.to/lastmile_qr_scan"}, "fusion_lat": 0.0}, {"is_disabled": 0, "lat": 38.89224083333333, "bike_id": "959ba7850ee0c4ebb6d3f57b7f014fff", "fusion_lon": 0.0, "is_reserved": 0, "type": "electric_scooter", "name": "959ba7850ee0c4ebb6d3f57b7f014fff", "lon": -77.026585, "rental_uris": {"android": "https://dc.lft.to/lastmile_qr_scan", "ios": "https://dc.lft.to/lastmile_qr_scan"}, "fusion_lat": 0.0}, {"is_disabled": 0, "lat": 38.9071995, "bike_id": "07d128e35fa65f0bd0f74954f17258d6", "fusion_lon": 0.0, "is_reserved": 0, "type": "electric_scooter", "name": "07d128e35fa65f0bd0f74954f17258d6", "lon": -77.0343285, "rental_uris": {"android": "https://dc.lft.to/lastmile_qr_scan", "ios": "https://dc.lft.to/lastmile_qr_scan"}, "fusion_lat": 0.0}, {"is_disabled": 0, "lat": 38.894408, "bike_id": "bbd769f0a1453b48992cf64bb5c80dae", "fusion_lon": 0.0, "is_reserved": 0, "type": "electric_scooter", "name": "bbd769f0a1453b48992cf64bb5c80dae", "lon": -77.02434316666667, "rental_uris": {"android": "https://dc.lft.to/lastmile_qr_scan", "ios": "https://dc.lft.to/lastmile_qr_scan"}, "fusion_lat": 0.0}, {"is_disabled": 0, "lat": 38.920557333333335, "bike_id": "b0a47caaec9eddc7303e7b31f622cc29", "fusion_lon": 0.0, "is_reserved": 0, "type": "electric_scooter", "name": "b0a47caaec9eddc7303e7b31f622cc29", "lon": -77.0243615, "rental_uris": {"android": "https://dc.lft.to/lastmile_qr_scan", "ios": "https://dc.lft.to/lastmile_qr_scan"}, "fusion_lat": 0.0}, {"is_disabled": 0, "lat": 38.89550366666667, "bike_id": "36c01463e84097410c65a1ae620d462b", "fusion_lon": 0.0, "is_reserved": 0, "type": "electric_scooter", "name": "36c01463e84097410c65a1ae620d462b", "lon": -76.94878866666667, "rental_uris": {"android": "https://dc.lft.to/lastmile_qr_scan", "ios": "https://dc.lft.to/lastmile_qr_scan"}, "fusion_lat": 0.0}, {"is_disabled": 0, "lat": 38.90400066666667, "bike_id": "7ad4d0b7402f2ea03d729c08c1bd1531", "fusion_lon": 0.0, "is_reserved": 0, "type": "electric_scooter", "name": "7ad4d0b7402f2ea03d729c08c1bd1531", "lon": -76.98097, "rental_uris": {"android": "https://dc.lft.to/lastmile_qr_scan", "ios": "https://dc.lft.to/lastmile_qr_scan"}, "fusion_lat": 0.0}, {"is_disabled": 0, "lat": 38.908260166666665, "bike_id": "79a995efe5c2778ae056155da5438e98", "fusion_lon": 0.0, "is_reserved": 0, "type": "electric_scooter", "name": "79a995efe5c2778ae056155da5438e98", "lon": -76.94159266666666, "rental_uris": {"android": "https://dc.lft.to/lastmile_qr_scan", "ios": "https://dc.lft.to/lastmile_qr_scan"}, "fusion_lat": 0.0}, {"is_disabled": 0, "lat": 38.90678833333333, "bike_id": "b23e2edc984ed5eb09f3049f8731f617", "fusion_lon": 0.0, "is_reserved": 0, "type": "electric_scooter", "name": "b23e2edc984ed5eb09f3049f8731f617", "lon": -77.0501165, "rental_uris": {"android": "https://dc.lft.to/lastmile_qr_scan", "ios": "https://dc.lft.to/lastmile_qr_scan"}, "fusion_lat": 0.0}, {"is_disabled": 0, "lat": 38.95405516666667, "bike_id": "eb3d2a4734da709898373eb95446a115", "fusion_lon": 0.0, "is_reserved": 0, "type": "electric_scooter", "name": "eb3d2a4734da709898373eb95446a115", "lon": -77.02696583333334, "rental_uris": {"android": "https://dc.lft.to/lastmile_qr_scan", "ios": "https://dc.lft.to/lastmile_qr_scan"}, "fusion_lat": 0.0}, {"is_disabled": 0, "lat": 38.916756666666664, "bike_id": "56ba196908f5792e29a5133fc2316627", "fusion_lon": 0.0, "is_reserved": 0, "type": "electric_scooter", "name": "56ba196908f5792e29a5133fc2316627", "lon": -77.03692816666667, "rental_uris": {"android": "https://dc.lft.to/lastmile_qr_scan", "ios": "https://dc.lft.to/lastmile_qr_scan"}, "fusion_lat": 0.0}, {"is_disabled": 0, "lat": 38.89811683333333, "bike_id": "a69a69427373547e03109838599329bc", "fusion_lon": 0.0, "is_reserved": 0, "type": "electric_scooter", "name": "a69a69427373547e03109838599329bc", "lon": -77.02683533333334, "rental_uris": {"android": "https://dc.lft.to/lastmile_qr_scan", "ios": "https://dc.lft.to/lastmile_qr_scan"}, "fusion_lat": 0.0}, {"is_disabled": 0, "lat": 38.89670916666667, "bike_id": "b872ce67dcdd2d267bf5337a74095b8a", "fusion_lon": 0.0, "is_reserved": 0, "type": "electric_scooter", "name": "b872ce67dcdd2d267bf5337a74095b8a", "lon": -77.05078766666666, "rental_uris": {"android": "https://dc.lft.to/lastmile_qr_scan", "ios": "https://dc.lft.to/lastmile_qr_scan"}, "fusion_lat": 0.0}, {"is_disabled": 0, "lat": 38.884908833333334, "bike_id": "dd108d6643e457e7545ea41ae3a7584b", "fusion_lon": 0.0, "is_reserved": 0, "type": "electric_scooter", "name": "dd108d6643e457e7545ea41ae3a7584b", "lon": -77.00722466666667, "rental_uris": {"android": "https://dc.lft.to/lastmile_qr_scan", "ios": "https://dc.lft.to/lastmile_qr_scan"}, "fusion_lat": 0.0}, {"is_disabled": 0, "lat": 38.91675466666667, "bike_id": "3c85b49e95ba6d8e38c2475be54a435e", "fusion_lon": 0.0, "is_reserved": 0, "type": "electric_scooter", "name": "3c85b49e95ba6d8e38c2475be54a435e", "lon": -77.02954766666667, "rental_uris": {"android": "https://dc.lft.to/lastmile_qr_scan", "ios": "https://dc.lft.to/lastmile_qr_scan"}, "fusion_lat": 0.0}, {"is_disabled": 0, "lat": 38.912281666666665, "bike_id": "ee1b91fb2add9d8eb1b86e0153caa016", "fusion_lon": 0.0, "is_reserved": 0, "type": "electric_scooter", "name": "ee1b91fb2add9d8eb1b86e0153caa016", "lon": -77.04774933333333, "rental_uris": {"android": "https://dc.lft.to/lastmile_qr_scan", "ios": "https://dc.lft.to/lastmile_qr_scan"}, "fusion_lat": 0.0}, {"is_disabled": 0, "lat": 38.90562333333333, "bike_id": "87986f61b9442559c7987ae70ecedaca", "fusion_lon": 0.0, "is_reserved": 0, "type": "electric_bike", "name": "87986f61b9442559c7987ae70ecedaca", "lon": -76.99792233333334, "rental_uris": {"android": "https://dc.lft.to/lastmile_qr_scan", "ios": "https://dc.lft.to/lastmile_qr_scan"}, "fusion_lat": 0.0}, {"is_disabled": 0, "lat": 38.9200585, "bike_id": "2e99b5162a54cdbc8fdc86595a3e116b", "fusion_lon": 0.0, "is_reserved": 0, "type": "electric_scooter", "name": "2e99b5162a54cdbc8fdc86595a3e116b", "lon": -77.02383166666667, "rental_uris": {"android": "https://dc.lft.to/lastmile_qr_scan", "ios": "https://dc.lft.to/lastmile_qr_scan"}, "fusion_lat": 0.0}, {"is_disabled": 0, "lat": 38.91691566666667, "bike_id": "79e5de7b4cbad3cf4c4a11f2c5f501d0", "fusion_lon": 0.0, "is_reserved": 0, "type": "electric_scooter", "name": "79e5de7b4cbad3cf4c4a11f2c5f501d0", "lon": -77.0376965, "rental_uris": {"android": "https://dc.lft.to/lastmile_qr_scan", "ios": "https://dc.lft.to/lastmile_qr_scan"}, "fusion_lat": 0.0}, {"is_disabled": 0, "lat": 38.922507333333336, "bike_id": "8bf8425bf2e8a0cd4aaeb996982faa42", "fusion_lon": 0.0, "is_reserved": 0, "type": "electric_scooter", "name": "8bf8425bf2e8a0cd4aaeb996982faa42", "lon": -77.03083766666667, "rental_uris": {"android": "https://dc.lft.to/lastmile_qr_scan", "ios": "https://dc.lft.to/lastmile_qr_scan"}, "fusion_lat": 0.0}, {"is_disabled": 0, "lat": 38.908825666666665, "bike_id": "ff09e159e5b0a49b88e93c5ee2383ae7", "fusion_lon": 0.0, "is_reserved": 0, "type": "electric_scooter", "name": "ff09e159e5b0a49b88e93c5ee2383ae7", "lon": -77.04324933333334, "rental_uris": {"android": "https://dc.lft.to/lastmile_qr_scan", "ios": "https://dc.lft.to/lastmile_qr_scan"}, "fusion_lat": 0.0}, {"is_disabled": 0, "lat": 38.95628283333333, "bike_id": "62305151d8ae7126234c6138596fafa5", "fusion_lon": 0.0, "is_reserved": 0, "type": "electric_scooter", "name": "62305151d8ae7126234c6138596fafa5", "lon": -77.03038733333334, "rental_uris": {"android": "https://dc.lft.to/lastmile_qr_scan", "ios": "https://dc.lft.to/lastmile_qr_scan"}, "fusion_lat": 0.0}, {"is_disabled": 0, "lat": 38.92980983333333, "bike_id": "ed97195116978a1a9a9f3bf1fdce4b86", "fusion_lon": 0.0, "is_reserved": 0, "type": "electric_scooter", "name": "ed97195116978a1a9a9f3bf1fdce4b86", "lon": -77.02526016666667, "rental_uris": {"android": "https://dc.lft.to/lastmile_qr_scan", "ios": "https://dc.lft.to/lastmile_qr_scan"}, "fusion_lat": 0.0}, {"is_disabled": 0, "lat": 38.911227333333336, "bike_id": "fa6b6f4e041bde3c2f5b1b9d18141bbf", "fusion_lon": 0.0, "is_reserved": 0, "type": "electric_scooter", "name": "fa6b6f4e041bde3c2f5b1b9d18141bbf", "lon": -77.02188, "rental_uris": {"android": "https://dc.lft.to/lastmile_qr_scan", "ios": "https://dc.lft.to/lastmile_qr_scan"}, "fusion_lat": 0.0}, {"is_disabled": 0, "lat": 38.89952916666667, "bike_id": "adba572037954c3e63a46e13e60e47ea", "fusion_lon": 0.0, "is_reserved": 0, "type": "electric_scooter", "name": "adba572037954c3e63a46e13e60e47ea", "lon": -77.03166583333334, "rental_uris": {"android": "https://dc.lft.to/lastmile_qr_scan", "ios": "https://dc.lft.to/lastmile_qr_scan"}, "fusion_lat": 0.0}, {"is_disabled": 0, "lat": 38.90411316666667, "bike_id": "ba14a2cbe7d0b4546d257d984397e162", "fusion_lon": 0.0, "is_reserved": 0, "type": "electric_scooter", "name": "ba14a2cbe7d0b4546d257d984397e162", "lon": -76.97328216666666, "rental_uris": {"android": "https://dc.lft.to/lastmile_qr_scan", "ios": "https://dc.lft.to/lastmile_qr_scan"}, "fusion_lat": 0.0}, {"is_disabled": 0, "lat": 38.923642, "bike_id": "6a7f0af07e8e0a3be9baecc1ea6f7a75", "fusion_lon": 0.0, "is_reserved": 0, "type": "electric_scooter", "name": "6a7f0af07e8e0a3be9baecc1ea6f7a75", "lon": -77.00385333333334, "rental_uris": {"android": "https://dc.lft.to/lastmile_qr_scan", "ios": "https://dc.lft.to/lastmile_qr_scan"}, "fusion_lat": 0.0}, {"is_disabled": 0, "lat": 38.9237785, "bike_id": "39e8e2a1b4c8f6ca08895f21b09c4c27", "fusion_lon": 0.0, "is_reserved": 0, "type": "electric_scooter", "name": "39e8e2a1b4c8f6ca08895f21b09c4c27", "lon": -77.050285, "rental_uris": {"android": "https://dc.lft.to/lastmile_qr_scan", "ios": "https://dc.lft.to/lastmile_qr_scan"}, "fusion_lat": 0.0}, {"is_disabled": 0, "lat": 38.90340483333333, "bike_id": "01990a298cf4ab54de428a053c965578", "fusion_lon": 0.0, "is_reserved": 0, "type": "electric_scooter", "name": "01990a298cf4ab54de428a053c965578", "lon": -77.06634066666666, "rental_uris": {"android": "https://dc.lft.to/lastmile_qr_scan", "ios": "https://dc.lft.to/lastmile_qr_scan"}, "fusion_lat": 0.0}, {"is_disabled": 0, "lat": 38.8858495, "bike_id": "5d98faf48a4cb18058dbe783d7d0e1ea", "fusion_lon": 0.0, "is_reserved": 0, "type": "electric_scooter", "name": "5d98faf48a4cb18058dbe783d7d0e1ea", "lon": -77.01749383333333, "rental_uris": {"android": "https://dc.lft.to/lastmile_qr_scan", "ios": "https://dc.lft.to/lastmile_qr_scan"}, "fusion_lat": 0.0}, {"is_disabled": 0, "lat": 38.887374333333334, "bike_id": "38e9d641a1b1c8844437fc2bfaad8f01", "fusion_lon": 0.0, "is_reserved": 0, "type": "electric_scooter", "name": "38e9d641a1b1c8844437fc2bfaad8f01", "lon": -77.015333, "rental_uris": {"android": "https://dc.lft.to/lastmile_qr_scan", "ios": "https://dc.lft.to/lastmile_qr_scan"}, "fusion_lat": 0.0}, {"is_disabled": 0, "lat": 38.885205, "bike_id": "f0dad5d921053f9b12d4a45d6d6ad60e", "fusion_lon": 0.0, "is_reserved": 0, "type": "electric_scooter", "name": "f0dad5d921053f9b12d4a45d6d6ad60e", "lon": -77.00596033333333, "rental_uris": {"android": "https://dc.lft.to/lastmile_qr_scan", "ios": "https://dc.lft.to/lastmile_qr_scan"}, "fusion_lat": 0.0}, {"is_disabled": 0, "lat": 38.89239366666666, "bike_id": "5859dd1bdc5ec611aa5d3d67186f0c7b", "fusion_lon": 0.0, "is_reserved": 0, "type": "electric_scooter", "name": "5859dd1bdc5ec611aa5d3d67186f0c7b", "lon": -77.01520016666667, "rental_uris": {"android": "https://dc.lft.to/lastmile_qr_scan", "ios": "https://dc.lft.to/lastmile_qr_scan"}, "fusion_lat": 0.0}, {"is_disabled": 0, "lat": 38.948064333333335, "bike_id": "c8c98673c10d8741fb8cf35f852d4e58", "fusion_lon": 0.0, "is_reserved": 0, "type": "electric_scooter", "name": "c8c98673c10d8741fb8cf35f852d4e58", "lon": -77.07907116666667, "rental_uris": {"android": "https://dc.lft.to/lastmile_qr_scan", "ios": "https://dc.lft.to/lastmile_qr_scan"}, "fusion_lat": 0.0}, {"is_disabled": 0, "lat": 38.91108883333333, "bike_id": "689fcac314dc7511e500c7cb0cf0f612", "fusion_lon": 0.0, "is_reserved": 0, "type": "electric_scooter", "name": "689fcac314dc7511e500c7cb0cf0f612", "lon": -77.04490566666666, "rental_uris": {"android": "https://dc.lft.to/lastmile_qr_scan", "ios": "https://dc.lft.to/lastmile_qr_scan"}, "fusion_lat": 0.0}, {"is_disabled": 0, "lat": 38.95087983333333, "bike_id": "2253eb971de86de6ff9880d4b050a13a", "fusion_lon": 0.0, "is_reserved": 0, "type": "electric_bike", "name": "2253eb971de86de6ff9880d4b050a13a", "lon": -76.9978825, "rental_uris": {"android": "https://dc.lft.to/lastmile_qr_scan", "ios": "https://dc.lft.to/lastmile_qr_scan"}, "fusion_lat": 0.0}, {"is_disabled": 0, "lat": 38.92114633333333, "bike_id": "1344a69e64d4e4663ccbed23abd0df37", "fusion_lon": 0.0, "is_reserved": 0, "type": "electric_scooter", "name": "1344a69e64d4e4663ccbed23abd0df37", "lon": -77.04387483333333, "rental_uris": {"android": "https://dc.lft.to/lastmile_qr_scan", "ios": "https://dc.lft.to/lastmile_qr_scan"}, "fusion_lat": 0.0}, {"is_disabled": 0, "lat": 38.9167105, "bike_id": "948bd6bbf213aed34466309ccbf7f385", "fusion_lon": 0.0, "is_reserved": 0, "type": "electric_scooter", "name": "948bd6bbf213aed34466309ccbf7f385", "lon": -77.0295225, "rental_uris": {"android": "https://dc.lft.to/lastmile_qr_scan", "ios": "https://dc.lft.to/lastmile_qr_scan"}, "fusion_lat": 0.0}, {"is_disabled": 0, "lat": 38.917055833333336, "bike_id": "6fbc7ebc2aa52c5a9a6e75ce920bc179", "fusion_lon": 0.0, "is_reserved": 0, "type": "electric_scooter", "name": "6fbc7ebc2aa52c5a9a6e75ce920bc179", "lon": -77.00958383333334, "rental_uris": {"android": "https://dc.lft.to/lastmile_qr_scan", "ios": "https://dc.lft.to/lastmile_qr_scan"}, "fusion_lat": 0.0}, {"is_disabled": 0, "lat": 38.975093333333334, "bike_id": "763f622e1893ec9f18aefa0c0b9ffbc2", "fusion_lon": 0.0, "is_reserved": 0, "type": "electric_scooter", "name": "763f622e1893ec9f18aefa0c0b9ffbc2", "lon": -77.01727166666667, "rental_uris": {"android": "https://dc.lft.to/lastmile_qr_scan", "ios": "https://dc.lft.to/lastmile_qr_scan"}, "fusion_lat": 0.0}, {"is_disabled": 0, "lat": 38.921339333333336, "bike_id": "09e2ab235dd4e46fa5e8fa3e524614f6", "fusion_lon": 0.0, "is_reserved": 0, "type": "electric_scooter", "name": "09e2ab235dd4e46fa5e8fa3e524614f6", "lon": -77.046856, "rental_uris": {"android": "https://dc.lft.to/lastmile_qr_scan", "ios": "https://dc.lft.to/lastmile_qr_scan"}, "fusion_lat": 0.0}, {"is_disabled": 0, "lat": 38.93285733333333, "bike_id": "bc3fe512a9949e908f7cef7352e98d13", "fusion_lon": 0.0, "is_reserved": 0, "type": "electric_scooter", "name": "bc3fe512a9949e908f7cef7352e98d13", "lon": -77.03722066666667, "rental_uris": {"android": "https://dc.lft.to/lastmile_qr_scan", "ios": "https://dc.lft.to/lastmile_qr_scan"}, "fusion_lat": 0.0}, {"is_disabled": 0, "lat": 38.92379533333333, "bike_id": "33ec63fe2dde59b62e3705d1063e6210", "fusion_lon": 0.0, "is_reserved": 0, "type": "electric_scooter", "name": "33ec63fe2dde59b62e3705d1063e6210", "lon": -77.0505385, "rental_uris": {"android": "https://dc.lft.to/lastmile_qr_scan", "ios": "https://dc.lft.to/lastmile_qr_scan"}, "fusion_lat": 0.0}, {"is_disabled": 0, "lat": 38.892240666666666, "bike_id": "8f2bf79efd3fda094cc18fdce5d2e923", "fusion_lon": 0.0, "is_reserved": 0, "type": "electric_scooter", "name": "8f2bf79efd3fda094cc18fdce5d2e923", "lon": -77.04378166666666, "rental_uris": {"android": "https://dc.lft.to/lastmile_qr_scan", "ios": "https://dc.lft.to/lastmile_qr_scan"}, "fusion_lat": 0.0}, {"is_disabled": 0, "lat": 38.916981166666666, "bike_id": "05021ae0357fe4fe73f98804b2a998dc", "fusion_lon": 0.0, "is_reserved": 0, "type": "electric_scooter", "name": "05021ae0357fe4fe73f98804b2a998dc", "lon": -77.03591033333333, "rental_uris": {"android": "https://dc.lft.to/lastmile_qr_scan", "ios": "https://dc.lft.to/lastmile_qr_scan"}, "fusion_lat": 0.0}, {"is_disabled": 0, "lat": 38.904125666666665, "bike_id": "33d3f42283a01ce7f29fb804ae24751e", "fusion_lon": 0.0, "is_reserved": 0, "type": "electric_scooter", "name": "33d3f42283a01ce7f29fb804ae24751e", "lon": -76.98105033333333, "rental_uris": {"android": "https://dc.lft.to/lastmile_qr_scan", "ios": "https://dc.lft.to/lastmile_qr_scan"}, "fusion_lat": 0.0}, {"is_disabled": 0, "lat": 38.876889166666665, "bike_id": "cb1ca583d9695a6a1d1863ff940985a3", "fusion_lon": 0.0, "is_reserved": 0, "type": "electric_scooter", "name": "cb1ca583d9695a6a1d1863ff940985a3", "lon": -77.0176235, "rental_uris": {"android": "https://dc.lft.to/lastmile_qr_scan", "ios": "https://dc.lft.to/lastmile_qr_scan"}, "fusion_lat": 0.0}, {"is_disabled": 0, "lat": 38.9063185, "bike_id": "688d0a668fa025668f31c2f7992b5f6f", "fusion_lon": 0.0, "is_reserved": 0, "type": "electric_scooter", "name": "688d0a668fa025668f31c2f7992b5f6f", "lon": -77.04873616666667, "rental_uris": {"android": "https://dc.lft.to/lastmile_qr_scan", "ios": "https://dc.lft.to/lastmile_qr_scan"}, "fusion_lat": 0.0}, {"is_disabled": 0, "lat": 38.91824583333333, "bike_id": "47a7c5df21e069dab6f4692cb458a780", "fusion_lon": 0.0, "is_reserved": 0, "type": "electric_scooter", "name": "47a7c5df21e069dab6f4692cb458a780", "lon": -77.05881333333333, "rental_uris": {"android": "https://dc.lft.to/lastmile_qr_scan", "ios": "https://dc.lft.to/lastmile_qr_scan"}, "fusion_lat": 0.0}, {"is_disabled": 0, "lat": 38.9960495, "bike_id": "6292a4a63f3f44ecf62e1d0e4c3305ea", "fusion_lon": 0.0, "is_reserved": 0, "type": "electric_bike", "name": "6292a4a63f3f44ecf62e1d0e4c3305ea", "lon": -77.07797833333333, "rental_uris": {"android": "https://dc.lft.to/lastmile_qr_scan", "ios": "https://dc.lft.to/lastmile_qr_scan"}, "fusion_lat": 0.0}, {"is_disabled": 0, "lat": 38.89313683333334, "bike_id": "854b71b32ba10cb1193d5cdd476c6e35", "fusion_lon": 0.0, "is_reserved": 0, "type": "electric_scooter", "name": "854b71b32ba10cb1193d5cdd476c6e35", "lon": -77.01201716666667, "rental_uris": {"android": "https://dc.lft.to/lastmile_qr_scan", "ios": "https://dc.lft.to/lastmile_qr_scan"}, "fusion_lat": 0.0}, {"is_disabled": 0, "lat": 38.93201716666667, "bike_id": "83f8482e4bda4e9faa48ed6e81e967af", "fusion_lon": 0.0, "is_reserved": 0, "type": "electric_scooter", "name": "83f8482e4bda4e9faa48ed6e81e967af", "lon": -77.03861766666667, "rental_uris": {"android": "https://dc.lft.to/lastmile_qr_scan", "ios": "https://dc.lft.to/lastmile_qr_scan"}, "fusion_lat": 0.0}, {"is_disabled": 0, "lat": 38.8999035, "bike_id": "eaf4a3513e1ae2711a73ab36d138c4c9", "fusion_lon": 0.0, "is_reserved": 0, "type": "electric_scooter", "name": "eaf4a3513e1ae2711a73ab36d138c4c9", "lon": -77.02930133333334, "rental_uris": {"android": "https://dc.lft.to/lastmile_qr_scan", "ios": "https://dc.lft.to/lastmile_qr_scan"}, "fusion_lat": 0.0}, {"is_disabled": 0, "lat": 38.918086333333335, "bike_id": "a1a6a37965e97ecbfec28418717b6333", "fusion_lon": 0.0, "is_reserved": 0, "type": "electric_scooter", "name": "a1a6a37965e97ecbfec28418717b6333", "lon": -77.009294, "rental_uris": {"android": "https://dc.lft.to/lastmile_qr_scan", "ios": "https://dc.lft.to/lastmile_qr_scan"}, "fusion_lat": 0.0}, {"is_disabled": 0, "lat": 38.92131116666667, "bike_id": "78eb9c89c912a393a09273aa6cf95892", "fusion_lon": 0.0, "is_reserved": 0, "type": "electric_scooter", "name": "78eb9c89c912a393a09273aa6cf95892", "lon": -77.044409, "rental_uris": {"android": "https://dc.lft.to/lastmile_qr_scan", "ios": "https://dc.lft.to/lastmile_qr_scan"}, "fusion_lat": 0.0}, {"is_disabled": 0, "lat": 38.917773333333336, "bike_id": "4233c0c645e44d2cb81b5f2a8ad6accb", "fusion_lon": 0.0, "is_reserved": 0, "type": "electric_scooter", "name": "4233c0c645e44d2cb81b5f2a8ad6accb", "lon": -77.04108183333334, "rental_uris": {"android": "https://dc.lft.to/lastmile_qr_scan", "ios": "https://dc.lft.to/lastmile_qr_scan"}, "fusion_lat": 0.0}, {"is_disabled": 0, "lat": 38.884946666666664, "bike_id": "761917f96e8f0cc79a6dab851838c85f", "fusion_lon": 0.0, "is_reserved": 0, "type": "electric_scooter", "name": "761917f96e8f0cc79a6dab851838c85f", "lon": -77.007285, "rental_uris": {"android": "https://dc.lft.to/lastmile_qr_scan", "ios": "https://dc.lft.to/lastmile_qr_scan"}, "fusion_lat": 0.0}, {"is_disabled": 0, "lat": 38.86218083333333, "bike_id": "d3d87899b28216a2086c21cb6080f891", "fusion_lon": 0.0, "is_reserved": 0, "type": "electric_scooter", "name": "d3d87899b28216a2086c21cb6080f891", "lon": -76.99554266666667, "rental_uris": {"android": "https://dc.lft.to/lastmile_qr_scan", "ios": "https://dc.lft.to/lastmile_qr_scan"}, "fusion_lat": 0.0}, {"is_disabled": 0, "lat": 38.9159465, "bike_id": "e9723c7e2248fd83c6f6850638b1c83b", "fusion_lon": 0.0, "is_reserved": 0, "type": "electric_scooter", "name": "e9723c7e2248fd83c6f6850638b1c83b", "lon": -77.011358, "rental_uris": {"android": "https://dc.lft.to/lastmile_qr_scan", "ios": "https://dc.lft.to/lastmile_qr_scan"}, "fusion_lat": 0.0}, {"is_disabled": 0, "lat": 38.910654666666666, "bike_id": "4a0129e4e5fbaa71b56219b84af41485", "fusion_lon": 0.0, "is_reserved": 0, "type": "electric_scooter", "name": "4a0129e4e5fbaa71b56219b84af41485", "lon": -76.99780833333334, "rental_uris": {"android": "https://dc.lft.to/lastmile_qr_scan", "ios": "https://dc.lft.to/lastmile_qr_scan"}, "fusion_lat": 0.0}, {"is_disabled": 0, "lat": 38.903656166666664, "bike_id": "7231ba8f9fafd85328a19f361f4fd104", "fusion_lon": 0.0, "is_reserved": 0, "type": "electric_scooter", "name": "7231ba8f9fafd85328a19f361f4fd104", "lon": -77.03653633333333, "rental_uris": {"android": "https://dc.lft.to/lastmile_qr_scan", "ios": "https://dc.lft.to/lastmile_qr_scan"}, "fusion_lat": 0.0}, {"is_disabled": 0, "lat": 38.8901535, "bike_id": "839063267942b1ec3c9d72d1e9a62cff", "fusion_lon": 0.0, "is_reserved": 0, "type": "electric_scooter", "name": "839063267942b1ec3c9d72d1e9a62cff", "lon": -76.93735483333333, "rental_uris": {"android": "https://dc.lft.to/lastmile_qr_scan", "ios": "https://dc.lft.to/lastmile_qr_scan"}, "fusion_lat": 0.0}, {"is_disabled": 0, "lat": 38.92019483333333, "bike_id": "872ebe4811df62c6ce4ca603f211b32e", "fusion_lon": 0.0, "is_reserved": 0, "type": "electric_bike", "name": "872ebe4811df62c6ce4ca603f211b32e", "lon": -77.03139683333333, "rental_uris": {"android": "https://dc.lft.to/lastmile_qr_scan", "ios": "https://dc.lft.to/lastmile_qr_scan"}, "fusion_lat": 0.0}, {"is_disabled": 0, "lat": 38.91706533333333, "bike_id": "10474d8dff3d15c63151df0c972efb84", "fusion_lon": 0.0, "is_reserved": 0, "type": "electric_scooter", "name": "10474d8dff3d15c63151df0c972efb84", "lon": -77.0345515, "rental_uris": {"android": "https://dc.lft.to/lastmile_qr_scan", "ios": "https://dc.lft.to/lastmile_qr_scan"}, "fusion_lat": 0.0}, {"is_disabled": 0, "lat": 38.875863333333335, "bike_id": "c67527164eca5db59d7307e8dc4af164", "fusion_lon": 0.0, "is_reserved": 0, "type": "electric_scooter", "name": "c67527164eca5db59d7307e8dc4af164", "lon": -77.01989366666666, "rental_uris": {"android": "https://dc.lft.to/lastmile_qr_scan", "ios": "https://dc.lft.to/lastmile_qr_scan"}, "fusion_lat": 0.0}, {"is_disabled": 0, "lat": 38.886118833333335, "bike_id": "e793086706f6f78415259e55fe705e11", "fusion_lon": 0.0, "is_reserved": 0, "type": "electric_scooter", "name": "e793086706f6f78415259e55fe705e11", "lon": -76.98743916666666, "rental_uris": {"android": "https://dc.lft.to/lastmile_qr_scan", "ios": "https://dc.lft.to/lastmile_qr_scan"}, "fusion_lat": 0.0}, {"is_disabled": 0, "lat": 38.92243416666667, "bike_id": "851a89a72a2aa2db1b7095747792da88", "fusion_lon": 0.0, "is_reserved": 0, "type": "electric_scooter", "name": "851a89a72a2aa2db1b7095747792da88", "lon": -77.03905116666667, "rental_uris": {"android": "https://dc.lft.to/lastmile_qr_scan", "ios": "https://dc.lft.to/lastmile_qr_scan"}, "fusion_lat": 0.0}, {"is_disabled": 0, "lat": 38.9217145, "bike_id": "d1da8a7e07d7e17eae2334f4c6f2fd24", "fusion_lon": 0.0, "is_reserved": 0, "type": "electric_scooter", "name": "d1da8a7e07d7e17eae2334f4c6f2fd24", "lon": -77.03825933333333, "rental_uris": {"android": "https://dc.lft.to/lastmile_qr_scan", "ios": "https://dc.lft.to/lastmile_qr_scan"}, "fusion_lat": 0.0}, {"is_disabled": 0, "lat": 38.90781833333333, "bike_id": "fe7c24bc80ebebb17c6a2e677be5a122", "fusion_lon": 0.0, "is_reserved": 0, "type": "electric_scooter", "name": "fe7c24bc80ebebb17c6a2e677be5a122", "lon": -77.0466685, "rental_uris": {"android": "https://dc.lft.to/lastmile_qr_scan", "ios": "https://dc.lft.to/lastmile_qr_scan"}, "fusion_lat": 0.0}, {"is_disabled": 0, "lat": 38.90565466666666, "bike_id": "3f14db6b4bd1aa3bbce299af20b86668", "fusion_lon": 0.0, "is_reserved": 0, "type": "electric_scooter", "name": "3f14db6b4bd1aa3bbce299af20b86668", "lon": -77.04471, "rental_uris": {"android": "https://dc.lft.to/lastmile_qr_scan", "ios": "https://dc.lft.to/lastmile_qr_scan"}, "fusion_lat": 0.0}, {"is_disabled": 0, "lat": 38.9371165, "bike_id": "52dfee7042ba5d36d01b2e020c1b835c", "fusion_lon": 0.0, "is_reserved": 0, "type": "electric_scooter", "name": "52dfee7042ba5d36d01b2e020c1b835c", "lon": -77.02432633333333, "rental_uris": {"android": "https://dc.lft.to/lastmile_qr_scan", "ios": "https://dc.lft.to/lastmile_qr_scan"}, "fusion_lat": 0.0}, {"is_disabled": 0, "lat": 38.915718, "bike_id": "1e7a393cb258571bf8ef045292463780", "fusion_lon": 0.0, "is_reserved": 0, "type": "electric_scooter", "name": "1e7a393cb258571bf8ef045292463780", "lon": -77.01989783333333, "rental_uris": {"android": "https://dc.lft.to/lastmile_qr_scan", "ios": "https://dc.lft.to/lastmile_qr_scan"}, "fusion_lat": 0.0}, {"is_disabled": 0, "lat": 38.902401833333336, "bike_id": "ebf9651b32bd692188a1a512843cef6a", "fusion_lon": 0.0, "is_reserved": 0, "type": "electric_scooter", "name": "ebf9651b32bd692188a1a512843cef6a", "lon": -77.002015, "rental_uris": {"android": "https://dc.lft.to/lastmile_qr_scan", "ios": "https://dc.lft.to/lastmile_qr_scan"}, "fusion_lat": 0.0}, {"is_disabled": 0, "lat": 38.86660883333333, "bike_id": "7b1c81ac534cc3f4d35ac980e1f9f5b9", "fusion_lon": 0.0, "is_reserved": 0, "type": "electric_scooter", "name": "7b1c81ac534cc3f4d35ac980e1f9f5b9", "lon": -76.98887266666667, "rental_uris": {"android": "https://dc.lft.to/lastmile_qr_scan", "ios": "https://dc.lft.to/lastmile_qr_scan"}, "fusion_lat": 0.0}, {"is_disabled": 0, "lat": 38.923242, "bike_id": "c87b56439c89d329644c0bd78cfcc483", "fusion_lon": 0.0, "is_reserved": 0, "type": "electric_bike", "name": "c87b56439c89d329644c0bd78cfcc483", "lon": -76.99907966666666, "rental_uris": {"android": "https://dc.lft.to/lastmile_qr_scan", "ios": "https://dc.lft.to/lastmile_qr_scan"}, "fusion_lat": 0.0}, {"is_disabled": 0, "lat": 38.8924075, "bike_id": "f01816c093471b87a4237bd6a3456aef", "fusion_lon": 0.0, "is_reserved": 0, "type": "electric_scooter", "name": "f01816c093471b87a4237bd6a3456aef", "lon": -77.01358916666666, "rental_uris": {"android": "https://dc.lft.to/lastmile_qr_scan", "ios": "https://dc.lft.to/lastmile_qr_scan"}, "fusion_lat": 0.0}, {"is_disabled": 0, "lat": 38.896242, "bike_id": "a247595a587c5d7a4d08238523e8ca19", "fusion_lon": 0.0, "is_reserved": 0, "type": "electric_scooter", "name": "a247595a587c5d7a4d08238523e8ca19", "lon": -77.02932433333334, "rental_uris": {"android": "https://dc.lft.to/lastmile_qr_scan", "ios": "https://dc.lft.to/lastmile_qr_scan"}, "fusion_lat": 0.0}, {"is_disabled": 0, "lat": 38.90686866666667, "bike_id": "9e45c1f18a8a5ee54adc6a75adbd7e1d", "fusion_lon": 0.0, "is_reserved": 0, "type": "electric_scooter", "name": "9e45c1f18a8a5ee54adc6a75adbd7e1d", "lon": -77.06104183333333, "rental_uris": {"android": "https://dc.lft.to/lastmile_qr_scan", "ios": "https://dc.lft.to/lastmile_qr_scan"}, "fusion_lat": 0.0}, {"is_disabled": 0, "lat": 38.90525733333333, "bike_id": "ba333611daeba20bfc7a8aaa328ba3dc", "fusion_lon": 0.0, "is_reserved": 0, "type": "electric_scooter", "name": "ba333611daeba20bfc7a8aaa328ba3dc", "lon": -77.06247066666667, "rental_uris": {"android": "https://dc.lft.to/lastmile_qr_scan", "ios": "https://dc.lft.to/lastmile_qr_scan"}, "fusion_lat": 0.0}, {"is_disabled": 0, "lat": 38.886257666666666, "bike_id": "5ea8fab31d2a80d598a39d2ec0d581b9", "fusion_lon": 0.0, "is_reserved": 0, "type": "electric_scooter", "name": "5ea8fab31d2a80d598a39d2ec0d581b9", "lon": -76.99606816666666, "rental_uris": {"android": "https://dc.lft.to/lastmile_qr_scan", "ios": "https://dc.lft.to/lastmile_qr_scan"}, "fusion_lat": 0.0}, {"is_disabled": 0, "lat": 38.9210035, "bike_id": "6053d5d6657d924dfb3c4282597ce9c9", "fusion_lon": 0.0, "is_reserved": 0, "type": "electric_bike", "name": "6053d5d6657d924dfb3c4282597ce9c9", "lon": -77.03168833333334, "rental_uris": {"android": "https://dc.lft.to/lastmile_qr_scan", "ios": "https://dc.lft.to/lastmile_qr_scan"}, "fusion_lat": 0.0}, {"is_disabled": 0, "lat": 38.936106, "bike_id": "5a4ddda7bbbfbd5970e90bea9a308467", "fusion_lon": 0.0, "is_reserved": 0, "type": "electric_scooter", "name": "5a4ddda7bbbfbd5970e90bea9a308467", "lon": -77.031725, "rental_uris": {"android": "https://dc.lft.to/lastmile_qr_scan", "ios": "https://dc.lft.to/lastmile_qr_scan"}, "fusion_lat": 0.0}, {"is_disabled": 0, "lat": 38.915367833333335, "bike_id": "ee36a5e9b097f129d47816fc04974c8c", "fusion_lon": 0.0, "is_reserved": 0, "type": "electric_scooter", "name": "ee36a5e9b097f129d47816fc04974c8c", "lon": -77.03183983333334, "rental_uris": {"android": "https://dc.lft.to/lastmile_qr_scan", "ios": "https://dc.lft.to/lastmile_qr_scan"}, "fusion_lat": 0.0}, {"is_disabled": 0, "lat": 38.912234833333336, "bike_id": "7c9ca5289480417d06a2553ab7a9db10", "fusion_lon": 0.0, "is_reserved": 0, "type": "electric_scooter", "name": "7c9ca5289480417d06a2553ab7a9db10", "lon": -77.07609216666667, "rental_uris": {"android": "https://dc.lft.to/lastmile_qr_scan", "ios": "https://dc.lft.to/lastmile_qr_scan"}, "fusion_lat": 0.0}, {"is_disabled": 0, "lat": 38.898908666666664, "bike_id": "517260ac86a4646cd62bd89ace5fe505", "fusion_lon": 0.0, "is_reserved": 0, "type": "electric_scooter", "name": "517260ac86a4646cd62bd89ace5fe505", "lon": -77.03283416666666, "rental_uris": {"android": "https://dc.lft.to/lastmile_qr_scan", "ios": "https://dc.lft.to/lastmile_qr_scan"}, "fusion_lat": 0.0}, {"is_disabled": 0, "lat": 38.8637095, "bike_id": "75c8f3d5bf61a78d6ffb5cb651f7a97d", "fusion_lon": 0.0, "is_reserved": 0, "type": "electric_bike", "name": "75c8f3d5bf61a78d6ffb5cb651f7a97d", "lon": -76.97008833333334, "rental_uris": {"android": "https://dc.lft.to/lastmile_qr_scan", "ios": "https://dc.lft.to/lastmile_qr_scan"}, "fusion_lat": 0.0}, {"is_disabled": 0, "lat": 38.920784, "bike_id": "e7c662b50fc704d466cea26b2c57bcbc", "fusion_lon": 0.0, "is_reserved": 0, "type": "electric_scooter", "name": "e7c662b50fc704d466cea26b2c57bcbc", "lon": -77.02371283333333, "rental_uris": {"android": "https://dc.lft.to/lastmile_qr_scan", "ios": "https://dc.lft.to/lastmile_qr_scan"}, "fusion_lat": 0.0}, {"is_disabled": 0, "lat": 38.914152666666666, "bike_id": "b5f3c187e2532b0f30090790d1a4f812", "fusion_lon": 0.0, "is_reserved": 0, "type": "electric_scooter", "name": "b5f3c187e2532b0f30090790d1a4f812", "lon": -77.01880766666666, "rental_uris": {"android": "https://dc.lft.to/lastmile_qr_scan", "ios": "https://dc.lft.to/lastmile_qr_scan"}, "fusion_lat": 0.0}, {"is_disabled": 0, "lat": 38.905645, "bike_id": "bf982a90a7826e71f401631ec1ddf7d6", "fusion_lon": 0.0, "is_reserved": 0, "type": "electric_scooter", "name": "bf982a90a7826e71f401631ec1ddf7d6", "lon": -77.019707, "rental_uris": {"android": "https://dc.lft.to/lastmile_qr_scan", "ios": "https://dc.lft.to/lastmile_qr_scan"}, "fusion_lat": 0.0}, {"is_disabled": 0, "lat": 38.88836083333333, "bike_id": "4d41099ebc71e5330a272a501279e8ba", "fusion_lon": 0.0, "is_reserved": 0, "type": "electric_scooter", "name": "4d41099ebc71e5330a272a501279e8ba", "lon": -76.91753433333334, "rental_uris": {"android": "https://dc.lft.to/lastmile_qr_scan", "ios": "https://dc.lft.to/lastmile_qr_scan"}, "fusion_lat": 0.0}, {"is_disabled": 0, "lat": 38.938851666666665, "bike_id": "a9e61eccc6503da2400e69f602aef94b", "fusion_lon": 0.0, "is_reserved": 0, "type": "electric_bike", "name": "a9e61eccc6503da2400e69f602aef94b", "lon": -77.0778605, "rental_uris": {"android": "https://dc.lft.to/lastmile_qr_scan", "ios": "https://dc.lft.to/lastmile_qr_scan"}, "fusion_lat": 0.0}, {"is_disabled": 0, "lat": 38.90341166666666, "bike_id": "aa3d10d3aaf3292607e82200d66ae0e1", "fusion_lon": 0.0, "is_reserved": 0, "type": "electric_scooter", "name": "aa3d10d3aaf3292607e82200d66ae0e1", "lon": -77.046441, "rental_uris": {"android": "https://dc.lft.to/lastmile_qr_scan", "ios": "https://dc.lft.to/lastmile_qr_scan"}, "fusion_lat": 0.0}, {"is_disabled": 0, "lat": 38.928740166666664, "bike_id": "4b7744b55b8d895311428c46b85b1deb", "fusion_lon": 0.0, "is_reserved": 0, "type": "electric_scooter", "name": "4b7744b55b8d895311428c46b85b1deb", "lon": -77.01374483333333, "rental_uris": {"android": "https://dc.lft.to/lastmile_qr_scan", "ios": "https://dc.lft.to/lastmile_qr_scan"}, "fusion_lat": 0.0}, {"is_disabled": 0, "lat": 38.96317483333333, "bike_id": "c51b3d886e23ab8db063e755c5e8fcfe", "fusion_lon": 0.0, "is_reserved": 0, "type": "electric_scooter", "name": "c51b3d886e23ab8db063e755c5e8fcfe", "lon": -77.07478566666667, "rental_uris": {"android": "https://dc.lft.to/lastmile_qr_scan", "ios": "https://dc.lft.to/lastmile_qr_scan"}, "fusion_lat": 0.0}, {"is_disabled": 0, "lat": 38.812465833333334, "bike_id": "e40a2e29bdf72d99f509a24b4b2f4dc5", "fusion_lon": 0.0, "is_reserved": 0, "type": "electric_bike", "name": "e40a2e29bdf72d99f509a24b4b2f4dc5", "lon": -77.117677, "rental_uris": {"android": "https://dc.lft.to/lastmile_qr_scan", "ios": "https://dc.lft.to/lastmile_qr_scan"}, "fusion_lat": 0.0}, {"is_disabled": 0, "lat": 38.9161615, "bike_id": "12c7ec25f189601cbd4db71771cd89b9", "fusion_lon": 0.0, "is_reserved": 0, "type": "electric_scooter", "name": "12c7ec25f189601cbd4db71771cd89b9", "lon": -77.05594266666667, "rental_uris": {"android": "https://dc.lft.to/lastmile_qr_scan", "ios": "https://dc.lft.to/lastmile_qr_scan"}, "fusion_lat": 0.0}, {"is_disabled": 0, "lat": 38.90531883333333, "bike_id": "24cd2115cbc9b9add8e4dbd2d82b2fad", "fusion_lon": 0.0, "is_reserved": 0, "type": "electric_scooter", "name": "24cd2115cbc9b9add8e4dbd2d82b2fad", "lon": -77.061377, "rental_uris": {"android": "https://dc.lft.to/lastmile_qr_scan", "ios": "https://dc.lft.to/lastmile_qr_scan"}, "fusion_lat": 0.0}, {"is_disabled": 0, "lat": 38.88432433333333, "bike_id": "6f9a9392911b159bb7fa2e879e04bef9", "fusion_lon": 0.0, "is_reserved": 0, "type": "electric_scooter", "name": "6f9a9392911b159bb7fa2e879e04bef9", "lon": -76.99471733333333, "rental_uris": {"android": "https://dc.lft.to/lastmile_qr_scan", "ios": "https://dc.lft.to/lastmile_qr_scan"}, "fusion_lat": 0.0}, {"is_disabled": 0, "lat": 38.9270855, "bike_id": "930a1d0d45207fab6a9144e4c1370fdd", "fusion_lon": 0.0, "is_reserved": 0, "type": "electric_scooter", "name": "930a1d0d45207fab6a9144e4c1370fdd", "lon": -77.02332783333334, "rental_uris": {"android": "https://dc.lft.to/lastmile_qr_scan", "ios": "https://dc.lft.to/lastmile_qr_scan"}, "fusion_lat": 0.0}, {"is_disabled": 0, "lat": 38.880395666666665, "bike_id": "3db120027dad3f28ae063bb1fbec42a2", "fusion_lon": 0.0, "is_reserved": 0, "type": "electric_scooter", "name": "3db120027dad3f28ae063bb1fbec42a2", "lon": -77.005567, "rental_uris": {"android": "https://dc.lft.to/lastmile_qr_scan", "ios": "https://dc.lft.to/lastmile_qr_scan"}, "fusion_lat": 0.0}, {"is_disabled": 0, "lat": 38.9023645, "bike_id": "88fa11d1d4fb858c4cbf7a1f1c3e4d10", "fusion_lon": 0.0, "is_reserved": 0, "type": "electric_scooter", "name": "88fa11d1d4fb858c4cbf7a1f1c3e4d10", "lon": -77.04503716666666, "rental_uris": {"android": "https://dc.lft.to/lastmile_qr_scan", "ios": "https://dc.lft.to/lastmile_qr_scan"}, "fusion_lat": 0.0}, {"is_disabled": 0, "lat": 38.9052505, "bike_id": "47a8871fcdc36b2cc06cabdcadb4c265", "fusion_lon": 0.0, "is_reserved": 0, "type": "electric_scooter", "name": "47a8871fcdc36b2cc06cabdcadb4c265", "lon": -77.05163433333334, "rental_uris": {"android": "https://dc.lft.to/lastmile_qr_scan", "ios": "https://dc.lft.to/lastmile_qr_scan"}, "fusion_lat": 0.0}, {"is_disabled": 0, "lat": 38.9153685, "bike_id": "664af6034d26dbd06aa30559d998f236", "fusion_lon": 0.0, "is_reserved": 0, "type": "electric_scooter", "name": "664af6034d26dbd06aa30559d998f236", "lon": -77.03181116666667, "rental_uris": {"android": "https://dc.lft.to/lastmile_qr_scan", "ios": "https://dc.lft.to/lastmile_qr_scan"}, "fusion_lat": 0.0}, {"is_disabled": 0, "lat": 38.87583683333333, "bike_id": "89663361a92a164d7e80a75a9c3b3ea3", "fusion_lon": 0.0, "is_reserved": 0, "type": "electric_scooter", "name": "89663361a92a164d7e80a75a9c3b3ea3", "lon": -77.0008585, "rental_uris": {"android": "https://dc.lft.to/lastmile_qr_scan", "ios": "https://dc.lft.to/lastmile_qr_scan"}, "fusion_lat": 0.0}, {"is_disabled": 0, "lat": 38.91488733333333, "bike_id": "507b61c35e5bca80af278465ef024084", "fusion_lon": 0.0, "is_reserved": 0, "type": "electric_scooter", "name": "507b61c35e5bca80af278465ef024084", "lon": -77.04154266666667, "rental_uris": {"android": "https://dc.lft.to/lastmile_qr_scan", "ios": "https://dc.lft.to/lastmile_qr_scan"}, "fusion_lat": 0.0}, {"is_disabled": 0, "lat": 38.90367166666667, "bike_id": "5d061d0d92b170a4b793418399d72bb3", "fusion_lon": 0.0, "is_reserved": 0, "type": "electric_scooter", "name": "5d061d0d92b170a4b793418399d72bb3", "lon": -77.01870166666667, "rental_uris": {"android": "https://dc.lft.to/lastmile_qr_scan", "ios": "https://dc.lft.to/lastmile_qr_scan"}, "fusion_lat": 0.0}, {"is_disabled": 0, "lat": 38.90236016666667, "bike_id": "9d7fb06476f614db815932473bc2c9b1", "fusion_lon": 0.0, "is_reserved": 0, "type": "electric_scooter", "name": "9d7fb06476f614db815932473bc2c9b1", "lon": -77.02686916666667, "rental_uris": {"android": "https://dc.lft.to/lastmile_qr_scan", "ios": "https://dc.lft.to/lastmile_qr_scan"}, "fusion_lat": 0.0}, {"is_disabled": 0, "lat": 38.940924833333334, "bike_id": "63ad1846938995c8aac045959c6a7fcc", "fusion_lon": 0.0, "is_reserved": 0, "type": "electric_scooter", "name": "63ad1846938995c8aac045959c6a7fcc", "lon": -77.02730633333333, "rental_uris": {"android": "https://dc.lft.to/lastmile_qr_scan", "ios": "https://dc.lft.to/lastmile_qr_scan"}, "fusion_lat": 0.0}, {"is_disabled": 0, "lat": 38.9455435, "bike_id": "b4958208441b14c638eed5647ad5e6d0", "fusion_lon": 0.0, "is_reserved": 0, "type": "electric_bike", "name": "b4958208441b14c638eed5647ad5e6d0", "lon": -76.89534566666667, "rental_uris": {"android": "https://dc.lft.to/lastmile_qr_scan", "ios": "https://dc.lft.to/lastmile_qr_scan"}, "fusion_lat": 0.0}, {"is_disabled": 0, "lat": 38.864090833333336, "bike_id": "085cd032b4bdeb95619a7773ef96414e", "fusion_lon": 0.0, "is_reserved": 0, "type": "electric_bike", "name": "085cd032b4bdeb95619a7773ef96414e", "lon": -76.97448533333333, "rental_uris": {"android": "https://dc.lft.to/lastmile_qr_scan", "ios": "https://dc.lft.to/lastmile_qr_scan"}, "fusion_lat": 0.0}, {"is_disabled": 0, "lat": 38.911148, "bike_id": "4208c61c273986d43a1813402a6c652b", "fusion_lon": 0.0, "is_reserved": 0, "type": "electric_scooter", "name": "4208c61c273986d43a1813402a6c652b", "lon": -77.02236416666666, "rental_uris": {"android": "https://dc.lft.to/lastmile_qr_scan", "ios": "https://dc.lft.to/lastmile_qr_scan"}, "fusion_lat": 0.0}, {"is_disabled": 0, "lat": 38.95652416666667, "bike_id": "7c302a8203379657f51114586cbf6854", "fusion_lon": 0.0, "is_reserved": 0, "type": "electric_scooter", "name": "7c302a8203379657f51114586cbf6854", "lon": -77.01964883333333, "rental_uris": {"android": "https://dc.lft.to/lastmile_qr_scan", "ios": "https://dc.lft.to/lastmile_qr_scan"}, "fusion_lat": 0.0}, {"is_disabled": 0, "lat": 38.919048, "bike_id": "46bcd250c602360dee584efc77d44c89", "fusion_lon": 0.0, "is_reserved": 0, "type": "electric_scooter", "name": "46bcd250c602360dee584efc77d44c89", "lon": -77.03179716666666, "rental_uris": {"android": "https://dc.lft.to/lastmile_qr_scan", "ios": "https://dc.lft.to/lastmile_qr_scan"},