{"data": {"bikes": [{"type": "electric_scooter", "is_reserved": 0, "is_disabled": 0, "fusion_lat": 0.0, "name": "01d27d01cd4636ae10c37718b72c00db", "rental_uris": {"android": "https://dc.lft.to/lastmile_qr_scan", "ios": "https://dc.lft.to/lastmile_qr_scan"}, "fusion_lon": 0.0, "lat": 38.892205833333335, "lon": -77.02442266666667, "bike_id": "01d27d01cd4636ae10c37718b72c00db"}, {"type": "electric_scooter", "is_reserved": 0, "is_disabled": 0, "fusion_lat": 0.0, "name": "829222726510a70aec025d580c78f091", "rental_uris": {"android": "https://dc.lft.to/lastmile_qr_scan", "ios": "https://dc.lft.to/lastmile_qr_scan"}, "fusion_lon": 0.0, "lat": 38.943082833333335, "lon": -77.06170316666666, "bike_id": "829222726510a70aec025d580c78f091"}, {"type": "electric_scooter", "is_reserved": 0, "is_disabled": 0, "fusion_lat": 0.0, "name": "5a0366f942699ebf4399caf101393c94", "rental_uris": {"android": "https://dc.lft.to/lastmile_qr_scan", "ios": "https://dc.lft.to/lastmile_qr_scan"}, "fusion_lon": 0.0, "lat": 38.904847333333336, "lon": -77.06015733333334, "bike_id": "5a0366f942699ebf4399caf101393c94"}, {"type": "electric_bike", "is_reserved": 0, "is_disabled": 0, "fusion_lat": 0.0, "name": "94c354459f6a9bf5c1208612e29badd9", "rental_uris": {"android": "https://dc.lft.to/lastmile_qr_scan", "ios": "https://dc.lft.to/lastmile_qr_scan"}, "fusion_lon": 0.0, "lat": 38.942052333333336, "lon": -77.01827266666666, "bike_id": "94c354459f6a9bf5c1208612e29badd9"}, {"type": "electric_scooter", "is_reserved": 0, "is_disabled": 0, "fusion_lat": 0.0, "name": "bcf7545c47cf6d0fdc1754208c94106f", "rental_uris": {"android": "https://dc.lft.to/lastmile_qr_scan", "ios": "https://dc.lft.to/lastmile_qr_scan"}, "fusion_lon": 0.0, "lat": 38.8977045, "lon": -77.043568, "bike_id": "bcf7545c47cf6d0fdc1754208c94106f"}, {"type": "electric_scooter", "is_reserved": 0, "is_disabled": 0, "fusion_lat": 0.0, "name": "d45d889e10a642349a649107c8334fce", "rental_uris": {"android": "https://dc.lft.to/lastmile_qr_scan", "ios": "https://dc.lft.to/lastmile_qr_scan"}, "fusion_lon": 0.0, "lat": 38.900298166666666, "lon": -77.00219283333334, "bike_id": "d45d889e10a642349a649107c8334fce"}, {"type": "electric_scooter", "is_reserved": 0, "is_disabled": 0, "fusion_lat": 0.0, "name": "d21da30b95d0e5df45788dd680e492bf", "rental_uris": {"android": "https://dc.lft.to/lastmile_qr_scan", "ios": "https://dc.lft.to/lastmile_qr_scan"}, "fusion_lon": 0.0, "lat": 38.8580755, "lon": -76.98653266666666, "bike_id": "d21da30b95d0e5df45788dd680e492bf"}, {"type": "electric_scooter", "is_reserved": 0, "is_disabled": 0, "fusion_lat": 0.0, "name": "3f8ffd1cfb1240f14e77d10deec816d5", "rental_uris": {"android": "https://dc.lft.to/lastmile_qr_scan", "ios": "https://dc.lft.to/lastmile_qr_scan"}, "fusion_lon": 0.0, "lat": 38.895439333333336, "lon": -77.03205883333334, "bike_id": "3f8ffd1cfb1240f14e77d10deec816d5"}, {"type": "electric_scooter", "is_reserved": 0, "is_disabled": 0, "fusion_lat": 0.0, "name": "a8d10f451fbba9c736395dd55e0f210a", "rental_uris": {"android": "https://dc.lft.to/lastmile_qr_scan", "ios": "https://dc.lft.to/lastmile_qr_scan"}, "fusion_lon": 0.0, "lat": 38.94979766666667, "lon": -77.026972, "bike_id": "a8d10f451fbba9c736395dd55e0f210a"}, {"type": "electric_scooter", "is_reserved": 0, "is_disabled": 0, "fusion_lat": 0.0, "name": "9667a4250453c277415b388b68b2dc15", "rental_uris": {"android": "https://dc.lft.to/lastmile_qr_scan", "ios": "https://dc.lft.to/lastmile_qr_scan"}, "fusion_lon": 0.0, "lat": 38.943961333333334, "lon": -77.02608816666667, "bike_id": "9667a4250453c277415b388b68b2dc15"}, {"type": "electric_scooter", "is_reserved": 0, "is_disabled": 0, "fusion_lat": 0.0, "name": "57bf915bfbf9f687f995c054a2260e10", "rental_uris": {"android": "https://dc.lft.to/lastmile_qr_scan", "ios": "https://dc.lft.to/lastmile_qr_scan"}, "fusion_lon": 0.0, "lat": 38.896209666666664, "lon": -77.029538, "bike_id": "57bf915bfbf9f687f995c054a2260e10"}, {"type": "electric_scooter", "is_reserved": 0, "is_disabled": 0, "fusion_lat": 0.0, "name": "12566d309377a24e04cff194b9525bb3", "rental_uris": {"android": "https://dc.lft.to/lastmile_qr_scan", "ios": "https://dc.lft.to/lastmile_qr_scan"}, "fusion_lon": 0.0, "lat": 38.92881916666666, "lon": -77.01379133333333, "bike_id": "12566d309377a24e04cff194b9525bb3"}, {"type": "electric_scooter", "is_reserved": 0, "is_disabled": 0, "fusion_lat": 0.0, "name": "fdd13d60280ee91419ab340d43d4deda", "rental_uris": {"android": "https://dc.lft.to/lastmile_qr_scan", "ios": "https://dc.lft.to/lastmile_qr_scan"}, "fusion_lon": 0.0, "lat": 38.9236525, "lon": -77.05753583333333, "bike_id": "fdd13d60280ee91419ab340d43d4deda"}, {"type": "electric_bike", "is_reserved": 0, "is_disabled": 0, "fusion_lat": 0.0, "name": "de7bb4ed8435e58f7dbb01021b1bc5ee", "rental_uris": {"android": "https://dc.lft.to/lastmile_qr_scan", "ios": "https://dc.lft.to/lastmile_qr_scan"}, "fusion_lon": 0.0, "lat": 38.932089833333336, "lon": -76.97427416666666, "bike_id": "de7bb4ed8435e58f7dbb01021b1bc5ee"}, {"type": "electric_scooter", "is_reserved": 0, "is_disabled": 0, "fusion_lat": 0.0, "name": "44a86a88d07f60aa0add74de12717643", "rental_uris": {"android": "https://dc.lft.to/lastmile_qr_scan", "ios": "https://dc.lft.to/lastmile_qr_scan"}, "fusion_lon": 0.0, "lat": 38.89786866666667, "lon": -77.02193883333334, "bike_id": "44a86a88d07f60aa0add74de12717643"}, {"type": "electric_scooter", "is_reserved": 0, "is_disabled": 0, "fusion_lat": 0.0, "name": "c481bc6075fe3f09d850f432653e0490", "rental_uris": {"android": "https://dc.lft.to/lastmile_qr_scan", "ios": "https://dc.lft.to/lastmile_qr_scan"}, "fusion_lon": 0.0, "lat": 38.90727, "lon": -77.03173533333333, "bike_id": "c481bc6075fe3f09d850f432653e0490"}, {"type": "electric_scooter", "is_reserved": 0, "is_disabled": 0, "fusion_lat": 0.0, "name": "8a9f045d92ff68f67329c1f50dbaa81a", "rental_uris": {"android": "https://dc.lft.to/lastmile_qr_scan", "ios": "https://dc.lft.to/lastmile_qr_scan"}, "fusion_lon": 0.0, "lat": 38.9031315, "lon": -77.03471133333333, "bike_id": "8a9f045d92ff68f67329c1f50dbaa81a"}, {"type": "electric_scooter", "is_reserved": 0, "is_disabled": 0, "fusion_lat": 0.0, "name": "22c9b258a229d39fcefc9f074900da0f", "rental_uris": {"android": "https://dc.lft.to/lastmile_qr_scan", "ios": "https://dc.lft.to/lastmile_qr_scan"}, "fusion_lon": 0.0, "lat": 38.90971166666667, "lon": -77.03425916666667, "bike_id": "22c9b258a229d39fcefc9f074900da0f"}, {"type": "electric_scooter", "is_reserved": 0, "is_disabled": 0, "fusion_lat": 0.0, "name": "95884a7c6aa07dfdb9b44076955dec2e", "rental_uris": {"android": "https://dc.lft.to/lastmile_qr_scan", "ios": "https://dc.lft.to/lastmile_qr_scan"}, "fusion_lon": 0.0, "lat": 38.872261, "lon": -77.01763166666667, "bike_id": "95884a7c6aa07dfdb9b44076955dec2e"}, {"type": "electric_scooter", "is_reserved": 0, "is_disabled": 0, "fusion_lat": 0.0, "name": "3fa428f5e8e945ee6e5360e62ac7a136", "rental_uris": {"android": "https://dc.lft.to/lastmile_qr_scan", "ios": "https://dc.lft.to/lastmile_qr_scan"}, "fusion_lon": 0.0, "lat": 38.92578616666667, "lon": -77.0576275, "bike_id": "3fa428f5e8e945ee6e5360e62ac7a136"}, {"type": "electric_scooter", "is_reserved": 0, "is_disabled": 0, "fusion_lat": 0.0, "name": "ebf47814d2910877ad559ce212293f8a", "rental_uris": {"android": "https://dc.lft.to/lastmile_qr_scan", "ios": "https://dc.lft.to/lastmile_qr_scan"}, "fusion_lon": 0.0, "lat": 38.8843545, "lon": -77.03042033333334, "bike_id": "ebf47814d2910877ad559ce212293f8a"}, {"type": "electric_scooter", "is_reserved": 0, "is_disabled": 0, "fusion_lat": 0.0, "name": "608eceac94946ae5402e224264c6bd5a", "rental_uris": {"android": "https://dc.lft.to/lastmile_qr_scan", "ios": "https://dc.lft.to/lastmile_qr_scan"}, "fusion_lon": 0.0, "lat": 38.9017655, "lon": -77.00003583333333, "bike_id": "608eceac94946ae5402e224264c6bd5a"}, {"type": "electric_scooter", "is_reserved": 0, "is_disabled": 0, "fusion_lat": 0.0, "name": "33264ba7e8a3349b5ae08bff60715d2e", "rental_uris": {"android": "https://dc.lft.to/lastmile_qr_scan", "ios": "https://dc.lft.to/lastmile_qr_scan"}, "fusion_lon": 0.0, "lat": 38.91691383333333, "lon": -77.02596216666667, "bike_id": "33264ba7e8a3349b5ae08bff60715d2e"}, {"type": "electric_scooter", "is_reserved": 0, "is_disabled": 0, "fusion_lat": 0.0, "name": "19c658fd5a3b51d83c6558b3646f49ef", "rental_uris": {"android": "https://dc.lft.to/lastmile_qr_scan", "ios": "https://dc.lft.to/lastmile_qr_scan"}, "fusion_lon": 0.0, "lat": 38.900726166666665, "lon": -77.04652083333333, "bike_id": "19c658fd5a3b51d83c6558b3646f49ef"}, {"type": "electric_scooter", "is_reserved": 0, "is_disabled": 0, "fusion_lat": 0.0, "name": "d748645ea7940e0918263d1147c59b1d", "rental_uris": {"android": "https://dc.lft.to/lastmile_qr_scan", "ios": "https://dc.lft.to/lastmile_qr_scan"}, "fusion_lon": 0.0, "lat": 38.89684966666667, "lon": -76.9963105, "bike_id": "d748645ea7940e0918263d1147c59b1d"}, {"type": "electric_scooter", "is_reserved": 0, "is_disabled": 0, "fusion_lat": 0.0, "name": "aa94361e7e3e366d138d53da7df82c04", "rental_uris": {"android": "https://dc.lft.to/lastmile_qr_scan", "ios": "https://dc.lft.to/lastmile_qr_scan"}, "fusion_lon": 0.0, "lat": 38.90090266666667, "lon": -77.0393365, "bike_id": "aa94361e7e3e366d138d53da7df82c04"}, {"type": "electric_scooter", "is_reserved": 0, "is_disabled": 0, "fusion_lat": 0.0, "name": "9ef965f3d7dbafa6ce5066f5ae67b7be", "rental_uris": {"android": "https://dc.lft.to/lastmile_qr_scan", "ios": "https://dc.lft.to/lastmile_qr_scan"}, "fusion_lon": 0.0, "lat": 38.89915583333333, "lon": -76.933812, "bike_id": "9ef965f3d7dbafa6ce5066f5ae67b7be"}, {"type": "electric_scooter", "is_reserved": 0, "is_disabled": 0, "fusion_lat": 0.0, "name": "d219c1e051d25ace685a5a3d8b306882", "rental_uris": {"android": "https://dc.lft.to/lastmile_qr_scan", "ios": "https://dc.lft.to/lastmile_qr_scan"}, "fusion_lon": 0.0, "lat": 38.9156335, "lon": -77.0217285, "bike_id": "d219c1e051d25ace685a5a3d8b306882"}, {"type": "electric_scooter", "is_reserved": 0, "is_disabled": 0, "fusion_lat": 0.0, "name": "5325742e99b05d7b2ad457bbad1eae05", "rental_uris": {"android": "https://dc.lft.to/lastmile_qr_scan", "ios": "https://dc.lft.to/lastmile_qr_scan"}, "fusion_lon": 0.0, "lat": 38.89498916666667, "lon": -77.02289083333334, "bike_id": "5325742e99b05d7b2ad457bbad1eae05"}, {"type": "electric_scooter", "is_reserved": 0, "is_disabled": 0, "fusion_lat": 0.0, "name": "865b4e1bd1c04c3559166adbe45770e7", "rental_uris": {"android": "https://dc.lft.to/lastmile_qr_scan", "ios": "https://dc.lft.to/lastmile_qr_scan"}, "fusion_lon": 0.0, "lat": 38.884497833333334, "lon": -76.95096266666667, "bike_id": "865b4e1bd1c04c3559166adbe45770e7"}, {"type": "electric_scooter", "is_reserved": 0, "is_disabled": 0, "fusion_lat": 0.0, "name": "570a22873616ba9a67db909a4e70bd91", "rental_uris": {"android": "https://dc.lft.to/lastmile_qr_scan", "ios": "https://dc.lft.to/lastmile_qr_scan"}, "fusion_lon": 0.0, "lat": 38.92871366666667, "lon": -77.0137525, "bike_id": "570a22873616ba9a67db909a4e70bd91"}, {"type": "electric_scooter", "is_reserved": 0, "is_disabled": 0, "fusion_lat": 0.0, "name": "8a937646fe0cf1e404b9ba9bd362901f", "rental_uris": {"android": "https://dc.lft.to/lastmile_qr_scan", "ios": "https://dc.lft.to/lastmile_qr_scan"}, "fusion_lon": 0.0, "lat": 38.91552433333333, "lon": -77.03027616666667, "bike_id": "8a937646fe0cf1e404b9ba9bd362901f"}, {"type": "electric_bike", "is_reserved": 0, "is_disabled": 0, "fusion_lat": 0.0, "name": "69d6e53ca83a89b44b89207abec76a9a", "rental_uris": {"android": "https://dc.lft.to/lastmile_qr_scan", "ios": "https://dc.lft.to/lastmile_qr_scan"}, "fusion_lon": 0.0, "lat": 38.88429166666667, "lon": -76.95752066666667, "bike_id": "69d6e53ca83a89b44b89207abec76a9a"}, {"type": "electric_scooter", "is_reserved": 0, "is_disabled": 0, "fusion_lat": 0.0, "name": "1a5c8469575495ff79c51ee54a5736ab", "rental_uris": {"android": "https://dc.lft.to/lastmile_qr_scan", "ios": "https://dc.lft.to/lastmile_qr_scan"}, "fusion_lon": 0.0, "lat": 38.9091745, "lon": -76.99269833333334, "bike_id": "1a5c8469575495ff79c51ee54a5736ab"}, {"type": "electric_scooter", "is_reserved": 0, "is_disabled": 0, "fusion_lat": 0.0, "name": "7bd17c5dde65687ed94fff54d1407d1b", "rental_uris": {"android": "https://dc.lft.to/lastmile_qr_scan", "ios": "https://dc.lft.to/lastmile_qr_scan"}, "fusion_lon": 0.0, "lat": 38.91792016666667, "lon": -77.03426116666667, "bike_id": "7bd17c5dde65687ed94fff54d1407d1b"}, {"type": "electric_bike", "is_reserved": 0, "is_disabled": 0, "fusion_lat": 0.0, "name": "aaa20f2d07f70312fc73e8f16c1e73da", "rental_uris": {"android": "https://dc.lft.to/lastmile_qr_scan", "ios": "https://dc.lft.to/lastmile_qr_scan"}, "fusion_lon": 0.0, "lat": 38.84571716666667, "lon": -77.09622333333333, "bike_id": "aaa20f2d07f70312fc73e8f16c1e73da"}, {"type": "electric_scooter", "is_reserved": 0, "is_disabled": 0, "fusion_lat": 0.0, "name": "ec847339e604f1cf9961234fff5734ca", "rental_uris": {"android": "https://dc.lft.to/lastmile_qr_scan", "ios": "https://dc.lft.to/lastmile_qr_scan"}, "fusion_lon": 0.0, "lat": 38.9126665, "lon": -77.03872716666666, "bike_id": "ec847339e604f1cf9961234fff5734ca"}, {"type": "electric_scooter", "is_reserved": 0, "is_disabled": 0, "fusion_lat": 0.0, "name": "7e6bb212630cdc97046e6a8a62005831", "rental_uris": {"android": "https://dc.lft.to/lastmile_qr_scan", "ios": "https://dc.lft.to/lastmile_qr_scan"}, "fusion_lon": 0.0, "lat": 38.90779166666667, "lon": -77.0111115, "bike_id": "7e6bb212630cdc97046e6a8a62005831"}, {"type": "electric_scooter", "is_reserved": 0, "is_disabled": 0, "fusion_lat": 0.0, "name": "2571900c7fb4e3bf30a9d27a70974719", "rental_uris": {"android": "https://dc.lft.to/lastmile_qr_scan", "ios": "https://dc.lft.to/lastmile_qr_scan"}, "fusion_lon": 0.0, "lat": 38.91703316666667, "lon": -77.03334283333334, "bike_id": "2571900c7fb4e3bf30a9d27a70974719"}, {"type": "electric_scooter", "is_reserved": 0, "is_disabled": 0, "fusion_lat": 0.0, "name": "b61399077146e3e34beb863f046865bd", "rental_uris": {"android": "https://dc.lft.to/lastmile_qr_scan", "ios": "https://dc.lft.to/lastmile_qr_scan"}, "fusion_lon": 0.0, "lat": 38.90346066666667, "lon": -77.06569866666666, "bike_id": "b61399077146e3e34beb863f046865bd"}, {"type": "electric_scooter", "is_reserved": 0, "is_disabled": 0, "fusion_lat": 0.0, "name": "a21ecb2c9255fadd3bcd57b275035b51", "rental_uris": {"android": "https://dc.lft.to/lastmile_qr_scan", "ios": "https://dc.lft.to/lastmile_qr_scan"}, "fusion_lon": 0.0, "lat": 38.9172685, "lon": -77.03661016666666, "bike_id": "a21ecb2c9255fadd3bcd57b275035b51"}, {"type": "electric_bike", "is_reserved": 0, "is_disabled": 0, "fusion_lat": 0.0, "name": "7136ee24514f3ee7b4d0c8e22f5cf199", "rental_uris": {"android": "https://dc.lft.to/lastmile_qr_scan", "ios": "https://dc.lft.to/lastmile_qr_scan"}, "fusion_lon": 0.0, "lat": 38.92411166666667, "lon": -77.20811316666666, "bike_id": "7136ee24514f3ee7b4d0c8e22f5cf199"}, {"type": "electric_scooter", "is_reserved": 0, "is_disabled": 0, "fusion_lat": 0.0, "name": "b48de5c0203c2a31a8534639ec960b36", "rental_uris": {"android": "https://dc.lft.to/lastmile_qr_scan", "ios": "https://dc.lft.to/lastmile_qr_scan"}, "fusion_lon": 0.0, "lat": 38.87162933333333, "lon": -77.01351816666667, "bike_id": "b48de5c0203c2a31a8534639ec960b36"}, {"type": "electric_scooter", "is_reserved": 0, "is_disabled": 0, "fusion_lat": 0.0, "name": "c8483578cd93c1063114ec1609350298", "rental_uris": {"android": "https://dc.lft.to/lastmile_qr_scan", "ios": "https://dc.lft.to/lastmile_qr_scan"}, "fusion_lon": 0.0, "lat": 38.89812666666667, "lon": -77.04322, "bike_id": "c8483578cd93c1063114ec1609350298"}, {"type": "electric_scooter", "is_reserved": 0, "is_disabled": 0, "fusion_lat": 0.0, "name": "f8aad83049030ef034557dd3a8bc27da", "rental_uris": {"android": "https://dc.lft.to/lastmile_qr_scan", "ios": "https://dc.lft.to/lastmile_qr_scan"}, "fusion_lon": 0.0, "lat": 38.91727816666667, "lon": -77.036615, "bike_id": "f8aad83049030ef034557dd3a8bc27da"}, {"type": "electric_scooter", "is_reserved": 0, "is_disabled": 0, "fusion_lat": 0.0, "name": "2b68719cfaffc0641cd8ff53bb55a46d", "rental_uris": {"android": "https://dc.lft.to/lastmile_qr_scan", "ios": "https://dc.lft.to/lastmile_qr_scan"}, "fusion_lon": 0.0, "lat": 38.90369316666666, "lon": -77.03864366666667, "bike_id": "2b68719cfaffc0641cd8ff53bb55a46d"}, {"type": "electric_scooter", "is_reserved": 0, "is_disabled": 0, "fusion_lat": 0.0, "name": "b8de632769b1eb6bc50773d72b3dfc60", "rental_uris": {"android": "https://dc.lft.to/lastmile_qr_scan", "ios": "https://dc.lft.to/lastmile_qr_scan"}, "fusion_lon": 0.0, "lat": 38.921788666666664, "lon": -77.04714733333333, "bike_id": "b8de632769b1eb6bc50773d72b3dfc60"}, {"type": "electric_scooter", "is_reserved": 0, "is_disabled": 0, "fusion_lat": 0.0, "name": "5cf273f21fcc1209e9680851cf0b8880", "rental_uris": {"android": "https://dc.lft.to/lastmile_qr_scan", "ios": "https://dc.lft.to/lastmile_qr_scan"}, "fusion_lon": 0.0, "lat": 38.90269633333333, "lon": -77.03860733333333, "bike_id": "5cf273f21fcc1209e9680851cf0b8880"}, {"type": "electric_scooter", "is_reserved": 0, "is_disabled": 0, "fusion_lat": 0.0, "name": "0f308e19290f630b3c3b7145d6333b8f", "rental_uris": {"android": "https://dc.lft.to/lastmile_qr_scan", "ios": "https://dc.lft.to/lastmile_qr_scan"}, "fusion_lon": 0.0, "lat": 38.908114833333336, "lon": -77.03062483333333, "bike_id": "0f308e19290f630b3c3b7145d6333b8f"}, {"type": "electric_scooter", "is_reserved": 0, "is_disabled": 0, "fusion_lat": 0.0, "name": "d794b9d3023cb54083700f72fe484d94", "rental_uris": {"android": "https://dc.lft.to/lastmile_qr_scan", "ios": "https://dc.lft.to/lastmile_qr_scan"}, "fusion_lon": 0.0, "lat": 38.900709, "lon": -77.01303833333333, "bike_id": "d794b9d3023cb54083700f72fe484d94"}, {"type": "electric_scooter", "is_reserved": 0, "is_disabled": 0, "fusion_lat": 0.0, "name": "ed9cb586fd2ecc26973dc508e36d9ed2", "rental_uris": {"android": "https://dc.lft.to/lastmile_qr_scan", "ios": "https://dc.lft.to/lastmile_qr_scan"}, "fusion_lon": 0.0, "lat": 38.953228333333335, "lon": -77.02773566666667, "bike_id": "ed9cb586fd2ecc26973dc508e36d9ed2"}, {"type": "electric_scooter", "is_reserved": 0, "is_disabled": 0, "fusion_lat": 0.0, "name": "4734ef2ad16df7b7d821d81c62bbfc18", "rental_uris": {"android": "https://dc.lft.to/lastmile_qr_scan", "ios": "https://dc.lft.to/lastmile_qr_scan"}, "fusion_lon": 0.0, "lat": 38.91805866666667, "lon": -77.031663, "bike_id": "4734ef2ad16df7b7d821d81c62bbfc18"}, {"type": "electric_scooter", "is_reserved": 0, "is_disabled": 0, "fusion_lat": 0.0, "name": "1252cb699beeebfa0384603851b08f6d", "rental_uris": {"android": "https://dc.lft.to/lastmile_qr_scan", "ios": "https://dc.lft.to/lastmile_qr_scan"}, "fusion_lon": 0.0, "lat": 38.924131333333335, "lon": -77.05616616666667, "bike_id": "1252cb699beeebfa0384603851b08f6d"}, {"type": "electric_scooter", "is_reserved": 0, "is_disabled": 0, "fusion_lat": 0.0, "name": "81a093b2c2d06d91610bacbe5a5ee9c0", "rental_uris": {"android": "https://dc.lft.to/lastmile_qr_scan", "ios": "https://dc.lft.to/lastmile_qr_scan"}, "fusion_lon": 0.0, "lat": 38.91264316666667, "lon": -77.0167875, "bike_id": "81a093b2c2d06d91610bacbe5a5ee9c0"}, {"type": "electric_scooter", "is_reserved": 0, "is_disabled": 0, "fusion_lat": 0.0, "name": "e38fad588ebfee7f59c4f1aea92f2aa6", "rental_uris": {"android": "https://dc.lft.to/lastmile_qr_scan", "ios": "https://dc.lft.to/lastmile_qr_scan"}, "fusion_lon": 0.0, "lat": 38.905366666666666, "lon": -77.005341, "bike_id": "e38fad588ebfee7f59c4f1aea92f2aa6"}, {"type": "electric_scooter", "is_reserved": 0, "is_disabled": 0, "fusion_lat": 0.0, "name": "57082e003dc315dea9f1940b96e9dcdf", "rental_uris": {"android": "https://dc.lft.to/lastmile_qr_scan", "ios": "https://dc.lft.to/lastmile_qr_scan"}, "fusion_lon": 0.0, "lat": 38.8458635, "lon": -76.98161316666666, "bike_id": "57082e003dc315dea9f1940b96e9dcdf"}, {"type": "electric_scooter", "is_reserved": 0, "is_disabled": 0, "fusion_lat": 0.0, "name": "dc0a0ba4d3299d269d20ac4aabd000e0", "rental_uris": {"android": "https://dc.lft.to/lastmile_qr_scan", "ios": "https://dc.lft.to/lastmile_qr_scan"}, "fusion_lon": 0.0, "lat": 38.902569166666666, "lon": -77.02818133333334, "bike_id": "dc0a0ba4d3299d269d20ac4aabd000e0"}, {"type": "electric_scooter", "is_reserved": 0, "is_disabled": 0, "fusion_lat": 0.0, "name": "d2352b770b81b5aec65f4375c1008fbf", "rental_uris": {"android": "https://dc.lft.to/lastmile_qr_scan", "ios": "https://dc.lft.to/lastmile_qr_scan"}, "fusion_lon": 0.0, "lat": 38.9359275, "lon": -77.03803166666667, "bike_id": "d2352b770b81b5aec65f4375c1008fbf"}, {"type": "electric_scooter", "is_reserved": 0, "is_disabled": 0, "fusion_lat": 0.0, "name": "2508370803046b43341b7c735b7c38a5", "rental_uris": {"android": "https://dc.lft.to/lastmile_qr_scan", "ios": "https://dc.lft.to/lastmile_qr_scan"}, "fusion_lon": 0.0, "lat": 38.898278, "lon": -77.03327266666666, "bike_id": "2508370803046b43341b7c735b7c38a5"}, {"type": "electric_scooter", "is_reserved": 0, "is_disabled": 0, "fusion_lat": 0.0, "name": "3b79ddf6cc2a7387ad53f9ad930b2d22", "rental_uris": {"android": "https://dc.lft.to/lastmile_qr_scan", "ios": "https://dc.lft.to/lastmile_qr_scan"}, "fusion_lon": 0.0, "lat": 38.92184666666667, "lon": -76.99467633333333, "bike_id": "3b79ddf6cc2a7387ad53f9ad930b2d22"}, {"type": "electric_scooter", "is_reserved": 0, "is_disabled": 0, "fusion_lat": 0.0, "name": "0eb127284dd4f87e4499002bfcb1f8b0", "rental_uris": {"android": "https://dc.lft.to/lastmile_qr_scan", "ios": "https://dc.lft.to/lastmile_qr_scan"}, "fusion_lon": 0.0, "lat": 38.898991333333335, "lon": -77.0330985, "bike_id": "0eb127284dd4f87e4499002bfcb1f8b0"}, {"type": "electric_scooter", "is_reserved": 0, "is_disabled": 0, "fusion_lat": 0.0, "name": "3ed3db0829869a5c8d0c49ac4a19a263", "rental_uris": {"android": "https://dc.lft.to/lastmile_qr_scan", "ios": "https://dc.lft.to/lastmile_qr_scan"}, "fusion_lon": 0.0, "lat": 38.912588166666666, "lon": -77.04229733333334, "bike_id": "3ed3db0829869a5c8d0c49ac4a19a263"}, {"type": "electric_scooter", "is_reserved": 0, "is_disabled": 0, "fusion_lat": 0.0, "name": "8f65ff55e2cb68e99876ac9b5078e1a7", "rental_uris": {"android": "https://dc.lft.to/lastmile_qr_scan", "ios": "https://dc.lft.to/lastmile_qr_scan"}, "fusion_lon": 0.0, "lat": 38.909721166666664, "lon": -77.04045833333333, "bike_id": "8f65ff55e2cb68e99876ac9b5078e1a7"}, {"type": "electric_scooter", "is_reserved": 0, "is_disabled": 0, "fusion_lat": 0.0, "name": "652b8b449f923ff991ce82edfce3d3b9", "rental_uris": {"android": "https://dc.lft.to/lastmile_qr_scan", "ios": "https://dc.lft.to/lastmile_qr_scan"}, "fusion_lon": 0.0, "lat": 38.8765635, "lon": -77.0006765, "bike_id": "652b8b449f923ff991ce82edfce3d3b9"}, {"type": "electric_bike", "is_reserved": 0, "is_disabled": 0, "fusion_lat": 0.0, "name": "c65ab149eb695ee28a101b6342639df7", "rental_uris": {"android": "https://dc.lft.to/lastmile_qr_scan", "ios": "https://dc.lft.to/lastmile_qr_scan"}, "fusion_lon": 0.0, "lat": 38.893536166666664, "lon": -77.18740516666666, "bike_id": "c65ab149eb695ee28a101b6342639df7"}, {"type": "electric_scooter", "is_reserved": 0, "is_disabled": 0, "fusion_lat": 0.0, "name": "3eab320872377c252bc57ed43c423a65", "rental_uris": {"android": "https://dc.lft.to/lastmile_qr_scan", "ios": "https://dc.lft.to/lastmile_qr_scan"}, "fusion_lon": 0.0, "lat": 38.905644333333335, "lon": -77.05689483333333, "bike_id": "3eab320872377c252bc57ed43c423a65"}, {"type": "electric_scooter", "is_reserved": 0, "is_disabled": 0, "fusion_lat": 0.0, "name": "d61d5ff1603419c25ab28bdd412c6d3d", "rental_uris": {"android": "https://dc.lft.to/lastmile_qr_scan", "ios": "https://dc.lft.to/lastmile_qr_scan"}, "fusion_lon": 0.0, "lat": 38.954004, "lon": -77.02746383333333, "bike_id": "d61d5ff1603419c25ab28bdd412c6d3d"}, {"type": "electric_scooter", "is_reserved": 0, "is_disabled": 0, "fusion_lat": 0.0, "name": "c293e52893b070634a677622f1c4ce33", "rental_uris": {"android": "https://dc.lft.to/lastmile_qr_scan", "ios": "https://dc.lft.to/lastmile_qr_scan"}, "fusion_lon": 0.0, "lat": 38.90370733333334, "lon": -77.03491483333333, "bike_id": "c293e52893b070634a677622f1c4ce33"}, {"type": "electric_scooter", "is_reserved": 0, "is_disabled": 0, "fusion_lat": 0.0, "name": "fc40e6f2e1de177c7b6dda099367affc", "rental_uris": {"android": "https://dc.lft.to/lastmile_qr_scan", "ios": "https://dc.lft.to/lastmile_qr_scan"}, "fusion_lon": 0.0, "lat": 38.876287833333336, "lon": -76.96526716666666, "bike_id": "fc40e6f2e1de177c7b6dda099367affc"}, {"type": "electric_scooter", "is_reserved": 0, "is_disabled": 0, "fusion_lat": 0.0, "name": "ec600b62779dfa5e1aa339bf37135a5d", "rental_uris": {"android": "https://dc.lft.to/lastmile_qr_scan", "ios": "https://dc.lft.to/lastmile_qr_scan"}, "fusion_lon": 0.0, "lat": 38.8904925, "lon": -76.9375645, "bike_id": "ec600b62779dfa5e1aa339bf37135a5d"}, {"type": "electric_scooter", "is_reserved": 0, "is_disabled": 0, "fusion_lat": 0.0, "name": "3a688998227d08d68ef8e3a2ee5134aa", "rental_uris": {"android": "https://dc.lft.to/lastmile_qr_scan", "ios": "https://dc.lft.to/lastmile_qr_scan"}, "fusion_lon": 0.0, "lat": 38.922288, "lon": -77.0241985, "bike_id": "3a688998227d08d68ef8e3a2ee5134aa"}, {"type": "electric_scooter", "is_reserved": 0, "is_disabled": 0, "fusion_lat": 0.0, "name": "7123eb8eedf7a48aedf77c74fd5c1cc0", "rental_uris": {"android": "https://dc.lft.to/lastmile_qr_scan", "ios": "https://dc.lft.to/lastmile_qr_scan"}, "fusion_lon": 0.0, "lat": 38.915520666666666, "lon": -77.03171883333333, "bike_id": "7123eb8eedf7a48aedf77c74fd5c1cc0"}, {"type": "electric_scooter", "is_reserved": 0, "is_disabled": 0, "fusion_lat": 0.0, "name": "13b995a80d4562cd376ac66ac22546b3", "rental_uris": {"android": "https://dc.lft.to/lastmile_qr_scan", "ios": "https://dc.lft.to/lastmile_qr_scan"}, "fusion_lon": 0.0, "lat": 38.8984275, "lon": -77.00749616666667, "bike_id": "13b995a80d4562cd376ac66ac22546b3"}, {"type": "electric_scooter", "is_reserved": 0, "is_disabled": 0, "fusion_lat": 0.0, "name": "44f9a044590dd55368bd4fdec2358b03", "rental_uris": {"android": "https://dc.lft.to/lastmile_qr_scan", "ios": "https://dc.lft.to/lastmile_qr_scan"}, "fusion_lon": 0.0, "lat": 38.9195325, "lon": -77.02719783333333, "bike_id": "44f9a044590dd55368bd4fdec2358b03"}, {"type": "electric_scooter", "is_reserved": 0, "is_disabled": 0, "fusion_lat": 0.0, "name": "b835888cb3d0da63b6a394ee9a865517", "rental_uris": {"android": "https://dc.lft.to/lastmile_qr_scan", "ios": "https://dc.lft.to/lastmile_qr_scan"}, "fusion_lon": 0.0, "lat": 38.95405133333333, "lon": -77.02748, "bike_id": "b835888cb3d0da63b6a394ee9a865517"}, {"type": "electric_bike", "is_reserved": 0, "is_disabled": 0, "fusion_lat": 0.0, "name": "479227dd5514910c610eb0689ed15196", "rental_uris": {"android": "https://dc.lft.to/lastmile_qr_scan", "ios": "https://dc.lft.to/lastmile_qr_scan"}, "fusion_lon": 0.0, "lat": 38.844643833333336, "lon": -76.98751266666666, "bike_id": "479227dd5514910c610eb0689ed15196"}, {"type": "electric_scooter", "is_reserved": 0, "is_disabled": 0, "fusion_lat": 0.0, "name": "3d88b7bc042212bd45d1f6b1d4c644b5", "rental_uris": {"android": "https://dc.lft.to/lastmile_qr_scan", "ios": "https://dc.lft.to/lastmile_qr_scan"}, "fusion_lon": 0.0, "lat": 38.900318666666664, "lon": -76.99862683333333, "bike_id": "3d88b7bc042212bd45d1f6b1d4c644b5"}, {"type": "electric_scooter", "is_reserved": 0, "is_disabled": 0, "fusion_lat": 0.0, "name": "b0852df7e52bb3a58d3b3e2342ee4d9b", "rental_uris": {"android": "https://dc.lft.to/lastmile_qr_scan", "ios": "https://dc.lft.to/lastmile_qr_scan"}, "fusion_lon": 0.0, "lat": 38.913025833333336, "lon": -77.03639166666666, "bike_id": "b0852df7e52bb3a58d3b3e2342ee4d9b"}, {"type": "electric_scooter", "is_reserved": 0, "is_disabled": 0, "fusion_lat": 0.0, "name": "aa855f5ce961e0c7980167070c8c9f25", "rental_uris": {"android": "https://dc.lft.to/lastmile_qr_scan", "ios": "https://dc.lft.to/lastmile_qr_scan"}, "fusion_lon": 0.0, "lat": 38.946328, "lon": -77.0184485, "bike_id": "aa855f5ce961e0c7980167070c8c9f25"}, {"type": "electric_scooter", "is_reserved": 0, "is_disabled": 0, "fusion_lat": 0.0, "name": "9b8b079659cd6b24fe75d0804ededbc3", "rental_uris": {"android": "https://dc.lft.to/lastmile_qr_scan", "ios": "https://dc.lft.to/lastmile_qr_scan"}, "fusion_lon": 0.0, "lat": 38.865243166666666, "lon": -76.99041466666667, "bike_id": "9b8b079659cd6b24fe75d0804ededbc3"}, {"type": "electric_scooter", "is_reserved": 0, "is_disabled": 0, "fusion_lat": 0.0, "name": "f51270b3168db4790f21894c5784f5a4", "rental_uris": {"android": "https://dc.lft.to/lastmile_qr_scan", "ios": "https://dc.lft.to/lastmile_qr_scan"}, "fusion_lon": 0.0, "lat": 38.908337833333334, "lon": -77.0436445, "bike_id": "f51270b3168db4790f21894c5784f5a4"}, {"type": "electric_scooter", "is_reserved": 0, "is_disabled": 0, "fusion_lat": 0.0, "name": "9eaf10f3d94e3c0652a9fc2f842ea292", "rental_uris": {"android": "https://dc.lft.to/lastmile_qr_scan", "ios": "https://dc.lft.to/lastmile_qr_scan"}, "fusion_lon": 0.0, "lat": 38.9154615, "lon": -77.04617883333333, "bike_id": "9eaf10f3d94e3c0652a9fc2f842ea292"}, {"type": "electric_scooter", "is_reserved": 0, "is_disabled": 0, "fusion_lat": 0.0, "name": "51241e6d2df0adf647a58e3804ebc510", "rental_uris": {"android": "https://dc.lft.to/lastmile_qr_scan", "ios": "https://dc.lft.to/lastmile_qr_scan"}, "fusion_lon": 0.0, "lat": 38.86664616666667, "lon": -76.989063, "bike_id": "51241e6d2df0adf647a58e3804ebc510"}, {"type": "electric_bike", "is_reserved": 0, "is_disabled": 0, "fusion_lat": 0.0, "name": "3f60dcf62997cd823d3541e7c0406a33", "rental_uris": {"android": "https://dc.lft.to/lastmile_qr_scan", "ios": "https://dc.lft.to/lastmile_qr_scan"}, "fusion_lon": 0.0, "lat": 38.83810616666667, "lon": -77.0952415, "bike_id": "3f60dcf62997cd823d3541e7c0406a33"}, {"type": "electric_bike", "is_reserved": 0, "is_disabled": 0, "fusion_lat": 0.0, "name": "bb772b1cecd56a4c2146af3eb43b999b", "rental_uris": {"android": "https://dc.lft.to/lastmile_qr_scan", "ios": "https://dc.lft.to/lastmile_qr_scan"}, "fusion_lon": 0.0, "lat": 38.858477666666666, "lon": -77.04938733333333, "bike_id": "bb772b1cecd56a4c2146af3eb43b999b"}, {"type": "electric_scooter", "is_reserved": 0, "is_disabled": 0, "fusion_lat": 0.0, "name": "5c74a61357a97408e8341dad100bf802", "rental_uris": {"android": "https://dc.lft.to/lastmile_qr_scan", "ios": "https://dc.lft.to/lastmile_qr_scan"}, "fusion_lon": 0.0, "lat": 38.902614166666666, "lon": -77.04596316666667, "bike_id": "5c74a61357a97408e8341dad100bf802"}, {"type": "electric_scooter", "is_reserved": 0, "is_disabled": 0, "fusion_lat": 0.0, "name": "84c0f592659e1888c2bc9506f10bb999", "rental_uris": {"android": "https://dc.lft.to/lastmile_qr_scan", "ios": "https://dc.lft.to/lastmile_qr_scan"}, "fusion_lon": 0.0, "lat": 38.94237533333333, "lon": -77.07238183333334, "bike_id": "84c0f592659e1888c2bc9506f10bb999"}, {"type": "electric_scooter", "is_reserved": 0, "is_disabled": 0, "fusion_lat": 0.0, "name": "03cd25e3643d4281d38440fccd639320", "rental_uris": {"android": "https://dc.lft.to/lastmile_qr_scan", "ios": "https://dc.lft.to/lastmile_qr_scan"}, "fusion_lon": 0.0, "lat": 38.930817166666664, "lon": -77.03139033333333, "bike_id": "03cd25e3643d4281d38440fccd639320"}, {"type": "electric_scooter", "is_reserved": 0, "is_disabled": 0, "fusion_lat": 0.0, "name": "91d9150a4dc88e4389e5ffd88f073d1b", "rental_uris": {"android": "https://dc.lft.to/lastmile_qr_scan", "ios": "https://dc.lft.to/lastmile_qr_scan"}, "fusion_lon": 0.0, "lat": 38.893733, "lon": -77.04785833333334, "bike_id": "91d9150a4dc88e4389e5ffd88f073d1b"}, {"type": "electric_bike", "is_reserved": 0, "is_disabled": 0, "fusion_lat": 0.0, "name": "04b203a2f0787b747c61a1c05f86f854", "rental_uris": {"android": "https://dc.lft.to/lastmile_qr_scan", "ios": "https://dc.lft.to/lastmile_qr_scan"}, "fusion_lon": 0.0, "lat": 38.94902316666666, "lon": -76.97235966666666, "bike_id": "04b203a2f0787b747c61a1c05f86f854"}, {"type": "electric_scooter", "is_reserved": 0, "is_disabled": 0, "fusion_lat": 0.0, "name": "0c1148540f1a8eec539caeb89cd67f1d", "rental_uris": {"android": "https://dc.lft.to/lastmile_qr_scan", "ios": "https://dc.lft.to/lastmile_qr_scan"}, "fusion_lon": 0.0, "lat": 38.8982905, "lon": -77.03327116666667, "bike_id": "0c1148540f1a8eec539caeb89cd67f1d"}, {"type": "electric_scooter", "is_reserved": 0, "is_disabled": 0, "fusion_lat": 0.0, "name": "6abf27a3b840312497eb48534de74a0d", "rental_uris": {"android": "https://dc.lft.to/lastmile_qr_scan", "ios": "https://dc.lft.to/lastmile_qr_scan"}, "fusion_lon": 0.0, "lat": 38.8995805, "lon": -77.0213975, "bike_id": "6abf27a3b840312497eb48534de74a0d"}, {"type": "electric_scooter", "is_reserved": 0, "is_disabled": 0, "fusion_lat": 0.0, "name": "1cd46bf13e376fc4901bd86e61e57122", "rental_uris": {"android": "https://dc.lft.to/lastmile_qr_scan", "ios": "https://dc.lft.to/lastmile_qr_scan"}, "fusion_lon": 0.0, "lat": 38.90492483333333, "lon": -77.04339333333333, "bike_id": "1cd46bf13e376fc4901bd86e61e57122"}, {"type": "electric_scooter", "is_reserved": 0, "is_disabled": 0, "fusion_lat": 0.0, "name": "60d93eeee6cdd0d5fe4d4d43e05af134", "rental_uris": {"android": "https://dc.lft.to/lastmile_qr_scan", "ios": "https://dc.lft.to/lastmile_qr_scan"}, "fusion_lon": 0.0, "lat": 38.8851, "lon": -77.02115016666667, "bike_id": "60d93eeee6cdd0d5fe4d4d43e05af134"}, {"type": "electric_scooter", "is_reserved": 0, "is_disabled": 0, "fusion_lat": 0.0, "name": "c02731f169e12c84ab0a1d81742a0f41", "rental_uris": {"android": "https://dc.lft.to/lastmile_qr_scan", "ios": "https://dc.lft.to/lastmile_qr_scan"}, "fusion_lon": 0.0, "lat": 38.91545983333334, "lon": -77.0384645, "bike_id": "c02731f169e12c84ab0a1d81742a0f41"}, {"type": "electric_scooter", "is_reserved": 0, "is_disabled": 0, "fusion_lat": 0.0, "name": "1695b3ef1b6f25e53dbc215c6098beda", "rental_uris": {"android": "https://dc.lft.to/lastmile_qr_scan", "ios": "https://dc.lft.to/lastmile_qr_scan"}, "fusion_lon": 0.0, "lat": 38.89218433333333, "lon": -77.02629833333333, "bike_id": "1695b3ef1b6f25e53dbc215c6098beda"}, {"type": "electric_bike", "is_reserved": 0, "is_disabled": 0, "fusion_lat": 0.0, "name": "312fbd882b3faa30a15df02a895bf9dd", "rental_uris": {"android": "https://dc.lft.to/lastmile_qr_scan", "ios": "https://dc.lft.to/lastmile_qr_scan"}, "fusion_lon": 0.0, "lat": 38.94969966666667, "lon": -77.06667916666666, "bike_id": "312fbd882b3faa30a15df02a895bf9dd"}, {"type": "electric_scooter", "is_reserved": 0, "is_disabled": 0, "fusion_lat": 0.0, "name": "51561cdf6d1aa7f19d8145b2cd74bf91", "rental_uris": {"android": "https://dc.lft.to/lastmile_qr_scan", "ios": "https://dc.lft.to/lastmile_qr_scan"}, "fusion_lon": 0.0, "lat": 38.922174166666665, "lon": -77.03292716666667, "bike_id": "51561cdf6d1aa7f19d8145b2cd74bf91"}, {"type": "electric_bike", "is_reserved": 0, "is_disabled": 0, "fusion_lat": 0.0, "name": "6fd571258cc1e278cb67b10e5578e233", "rental_uris": {"android": "https://dc.lft.to/lastmile_qr_scan", "ios": "https://dc.lft.to/lastmile_qr_scan"}, "fusion_lon": 0.0, "lat": 39.08860883333333, "lon": -77.17846966666667, "bike_id": "6fd571258cc1e278cb67b10e5578e233"}, {"type": "electric_scooter", "is_reserved": 0, "is_disabled": 0, "fusion_lat": 0.0, "name": "bbee9eaf0c39a585fc6b02789caf82f1", "rental_uris": {"android": "https://dc.lft.to/lastmile_qr_scan", "ios": "https://dc.lft.to/lastmile_qr_scan"}, "fusion_lon": 0.0, "lat": 38.90719583333333, "lon": -77.04010633333333, "bike_id": "bbee9eaf0c39a585fc6b02789caf82f1"}, {"type": "electric_bike", "is_reserved": 0, "is_disabled": 0, "fusion_lat": 0.0, "name": "507e8104a0f99897900169a4bca860e7", "rental_uris": {"android": "https://dc.lft.to/lastmile_qr_scan", "ios": "https://dc.lft.to/lastmile_qr_scan"}, "fusion_lon": 0.0, "lat": 38.92859216666667, "lon": -77.22213733333334, "bike_id": "507e8104a0f99897900169a4bca860e7"}, {"type": "electric_scooter", "is_reserved": 0, "is_disabled": 0, "fusion_lat": 0.0, "name": "f7c6e66d5166ebd00972bed3347649fc", "rental_uris": {"android": "https://dc.lft.to/lastmile_qr_scan", "ios": "https://dc.lft.to/lastmile_qr_scan"}, "fusion_lon": 0.0, "lat": 38.928778, "lon": -77.02702916666667, "bike_id": "f7c6e66d5166ebd00972bed3347649fc"}, {"type": "electric_scooter", "is_reserved": 0, "is_disabled": 0, "fusion_lat": 0.0, "name": "ef1ba00959c010b0d6c6808dff52c379", "rental_uris": {"android": "https://dc.lft.to/lastmile_qr_scan", "ios": "https://dc.lft.to/lastmile_qr_scan"}, "fusion_lon": 0.0, "lat": 38.9836485, "lon": -77.026434, "bike_id": "ef1ba00959c010b0d6c6808dff52c379"}, {"type": "electric_bike", "is_reserved": 0, "is_disabled": 0, "fusion_lat": 0.0, "name": "df0664202128612b93b0967424886e70", "rental_uris": {"android": "https://dc.lft.to/lastmile_qr_scan", "ios": "https://dc.lft.to/lastmile_qr_scan"}, "fusion_lon": 0.0, "lat": 38.966124, "lon": -77.03649783333333, "bike_id": "df0664202128612b93b0967424886e70"}, {"type": "electric_scooter", "is_reserved": 0, "is_disabled": 0, "fusion_lat": 0.0, "name": "f3f8184408058f2b556aac52bf084309", "rental_uris": {"android": "https://dc.lft.to/lastmile_qr_scan", "ios": "https://dc.lft.to/lastmile_qr_scan"}, "fusion_lon": 0.0, "lat": 38.896139, "lon": -77.04501, "bike_id": "f3f8184408058f2b556aac52bf084309"}, {"type": "electric_scooter", "is_reserved": 0, "is_disabled": 0, "fusion_lat": 0.0, "name": "1d08ba5e684374b4a5220acc2d010b0c", "rental_uris": {"android": "https://dc.lft.to/lastmile_qr_scan", "ios": "https://dc.lft.to/lastmile_qr_scan"}, "fusion_lon": 0.0, "lat": 38.866218333333336, "lon": -76.9866185, "bike_id": "1d08ba5e684374b4a5220acc2d010b0c"}, {"type": "electric_bike", "is_reserved": 0, "is_disabled": 0, "fusion_lat": 0.0, "name": "0a271f6a0f90b845e460782d9ce19114", "rental_uris": {"android": "https://dc.lft.to/lastmile_qr_scan", "ios": "https://dc.lft.to/lastmile_qr_scan"}, "fusion_lon": 0.0, "lat": 38.84591533333333, "lon": -77.07685116666667, "bike_id": "0a271f6a0f90b845e460782d9ce19114"}, {"type": "electric_scooter", "is_reserved": 0, "is_disabled": 0, "fusion_lat": 0.0, "name": "26c30efdad597ad4d5ca5bd3a0a8e26d", "rental_uris": {"android": "https://dc.lft.to/lastmile_qr_scan", "ios": "https://dc.lft.to/lastmile_qr_scan"}, "fusion_lon": 0.0, "lat": 38.90572133333333, "lon": -77.02211883333334, "bike_id": "26c30efdad597ad4d5ca5bd3a0a8e26d"}, {"type": "electric_scooter", "is_reserved": 0, "is_disabled": 0, "fusion_lat": 0.0, "name": "3ad82f3ee68988ce974f4303990e2680", "rental_uris": {"android": "https://dc.lft.to/lastmile_qr_scan", "ios": "https://dc.lft.to/lastmile_qr_scan"}, "fusion_lon": 0.0, "lat": 38.92340633333333, "lon": -77.05074633333334, "bike_id": "3ad82f3ee68988ce974f4303990e2680"}, {"type": "electric_scooter", "is_reserved": 0, "is_disabled": 0, "fusion_lat": 0.0, "name": "9ec68c1e1aca59fe1470cd4d59868340", "rental_uris": {"android": "https://dc.lft.to/lastmile_qr_scan", "ios": "https://dc.lft.to/lastmile_qr_scan"}, "fusion_lon": 0.0, "lat": 38.93280083333333, "lon": -77.0443935, "bike_id": "9ec68c1e1aca59fe1470cd4d59868340"}, {"type": "electric_scooter", "is_reserved": 0, "is_disabled": 0, "fusion_lat": 0.0, "name": "503ddd1cae54f2d31e37a69e5a6afb93", "rental_uris": {"android": "https://dc.lft.to/lastmile_qr_scan", "ios": "https://dc.lft.to/lastmile_qr_scan"}, "fusion_lon": 0.0, "lat": 38.91406883333333, "lon": -77.00806216666666, "bike_id": "503ddd1cae54f2d31e37a69e5a6afb93"}, {"type": "electric_bike", "is_reserved": 0, "is_disabled": 0, "fusion_lat": 0.0, "name": "8b28fd5bd059dc61a305d814a185a025", "rental_uris": {"android": "https://dc.lft.to/lastmile_qr_scan", "ios": "https://dc.lft.to/lastmile_qr_scan"}, "fusion_lon": 0.0, "lat": 38.85792, "lon": -76.98745233333334, "bike_id": "8b28fd5bd059dc61a305d814a185a025"}, {"type": "electric_scooter", "is_reserved": 0, "is_disabled": 0, "fusion_lat": 0.0, "name": "b8590638b7a82fd81ad0e507f395ef05", "rental_uris": {"android": "https://dc.lft.to/lastmile_qr_scan", "ios": "https://dc.lft.to/lastmile_qr_scan"}, "fusion_lon": 0.0, "lat": 38.88742766666667, "lon": -77.02164466666666, "bike_id": "b8590638b7a82fd81ad0e507f395ef05"}, {"type": "electric_scooter", "is_reserved": 0, "is_disabled": 0, "fusion_lat": 0.0, "name": "0fa3fead705a5f577b4e465f9e487130", "rental_uris": {"android": "https://dc.lft.to/lastmile_qr_scan", "ios": "https://dc.lft.to/lastmile_qr_scan"}, "fusion_lon": 0.0, "lat": 38.89821883333333, "lon": -77.03299383333334, "bike_id": "0fa3fead705a5f577b4e465f9e487130"}, {"type": "electric_scooter", "is_reserved": 0, "is_disabled": 0, "fusion_lat": 0.0, "name": "b3bc0978afcb1ea21a748a53129141ed", "rental_uris": {"android": "https://dc.lft.to/lastmile_qr_scan", "ios": "https://dc.lft.to/lastmile_qr_scan"}, "fusion_lon": 0.0, "lat": 38.9190795, "lon": -77.031142, "bike_id": "b3bc0978afcb1ea21a748a53129141ed"}, {"type": "electric_scooter", "is_reserved": 0, "is_disabled": 0, "fusion_lat": 0.0, "name": "318acbdcdcef5ec628bc7dffb362f923", "rental_uris": {"android": "https://dc.lft.to/lastmile_qr_scan", "ios": "https://dc.lft.to/lastmile_qr_scan"}, "fusion_lon": 0.0, "lat": 38.8839045, "lon": -77.0178305, "bike_id": "318acbdcdcef5ec628bc7dffb362f923"}, {"type": "electric_scooter", "is_reserved": 0, "is_disabled": 0, "fusion_lat": 0.0, "name": "15720b7027e6107e6647fc630b8e8abe", "rental_uris": {"android": "https://dc.lft.to/lastmile_qr_scan", "ios": "https://dc.lft.to/lastmile_qr_scan"}, "fusion_lon": 0.0, "lat": 38.920277166666665, "lon": -77.03142933333334, "bike_id": "15720b7027e6107e6647fc630b8e8abe"}, {"type": "electric_scooter", "is_reserved": 0, "is_disabled": 0, "fusion_lat": 0.0, "name": "3c9e638c417756eb6d02232d066a9452", "rental_uris": {"android": "https://dc.lft.to/lastmile_qr_scan", "ios": "https://dc.lft.to/lastmile_qr_scan"}, "fusion_lon": 0.0, "lat": 38.90333066666667, "lon": -76.97595783333334, "bike_id": "3c9e638c417756eb6d02232d066a9452"}, {"type": "electric_scooter", "is_reserved": 0, "is_disabled": 0, "fusion_lat": 0.0, "name": "7a4ae4c6a329c7aa703847d1c9b5994b", "rental_uris": {"android": "https://dc.lft.to/lastmile_qr_scan", "ios": "https://dc.lft.to/lastmile_qr_scan"}, "fusion_lon": 0.0, "lat": 38.92427216666667, "lon": -77.05217733333333, "bike_id": "7a4ae4c6a329c7aa703847d1c9b5994b"}, {"type": "electric_scooter", "is_reserved": 0, "is_disabled": 0, "fusion_lat": 0.0, "name": "bb31a44bb4467ac432ab684d9cf7ab86", "rental_uris": {"android": "https://dc.lft.to/lastmile_qr_scan", "ios": "https://dc.lft.to/lastmile_qr_scan"}, "fusion_lon": 0.0, "lat": 38.8786845, "lon": -77.00738516666667, "bike_id": "bb31a44bb4467ac432ab684d9cf7ab86"}, {"type": "electric_scooter", "is_reserved": 0, "is_disabled": 0, "fusion_lat": 0.0, "name": "ca85873aa06fab313012638f6d0402de", "rental_uris": {"android": "https://dc.lft.to/lastmile_qr_scan", "ios": "https://dc.lft.to/lastmile_qr_scan"}, "fusion_lon": 0.0, "lat": 38.910583333333335, "lon": -77.04579183333334, "bike_id": "ca85873aa06fab313012638f6d0402de"}, {"type": "electric_scooter", "is_reserved": 0, "is_disabled": 0, "fusion_lat": 0.0, "name": "d41fddffef125ccc7e0072171cb73ba7", "rental_uris": {"android": "https://dc.lft.to/lastmile_qr_scan", "ios": "https://dc.lft.to/lastmile_qr_scan"}, "fusion_lon": 0.0, "lat": 38.925841, "lon": -77.0323215, "bike_id": "d41fddffef125ccc7e0072171cb73ba7"}, {"type": "electric_scooter", "is_reserved": 0, "is_disabled": 0, "fusion_lat": 0.0, "name": "c95a9ded335ed1b21494b441a1c60466", "rental_uris": {"android": "https://dc.lft.to/lastmile_qr_scan", "ios": "https://dc.lft.to/lastmile_qr_scan"}, "fusion_lon": 0.0, "lat": 38.901549, "lon": -77.05002, "bike_id": "c95a9ded335ed1b21494b441a1c60466"}, {"type": "electric_scooter", "is_reserved": 0, "is_disabled": 0, "fusion_lat": 0.0, "name": "cd96479e9dea90448666b4737311c0b9", "rental_uris": {"android": "https://dc.lft.to/lastmile_qr_scan", "ios": "https://dc.lft.to/lastmile_qr_scan"}, "fusion_lon": 0.0, "lat": 38.93002416666667, "lon": -77.04435133333334, "bike_id": "cd96479e9dea90448666b4737311c0b9"}, {"type": "electric_scooter", "is_reserved": 0, "is_disabled": 0, "fusion_lat": 0.0, "name": "5b007cf673ab892681d475b86056068b", "rental_uris": {"android": "https://dc.lft.to/lastmile_qr_scan", "ios": "https://dc.lft.to/lastmile_qr_scan"}, "fusion_lon": 0.0, "lat": 38.908802, "lon": -77.0643175, "bike_id": "5b007cf673ab892681d475b86056068b"}, {"type": "electric_scooter", "is_reserved": 0, "is_disabled": 0, "fusion_lat": 0.0, "name": "71231f0fbf8db90df0832d3bf76d9d51", "rental_uris": {"android": "https://dc.lft.to/lastmile_qr_scan", "ios": "https://dc.lft.to/lastmile_qr_scan"}, "fusion_lon": 0.0, "lat": 38.92561966666667, "lon": -77.03813166666667, "bike_id": "71231f0fbf8db90df0832d3bf76d9d51"}, {"type": "electric_scooter", "is_reserved": 0, "is_disabled": 0, "fusion_lat": 0.0, "name": "bd173c81d58170c073b5b844ce9557ab", "rental_uris": {"android": "https://dc.lft.to/lastmile_qr_scan", "ios": "https://dc.lft.to/lastmile_qr_scan"}, "fusion_lon": 0.0, "lat": 38.90610233333334, "lon": -77.06512966666666, "bike_id": "bd173c81d58170c073b5b844ce9557ab"}, {"type": "electric_bike", "is_reserved": 0, "is_disabled": 0, "fusion_lat": 0.0, "name": "f7e23fe9460706f052cb324892b7c074", "rental_uris": {"android": "https://dc.lft.to/lastmile_qr_scan", "ios": "https://dc.lft.to/lastmile_qr_scan"}, "fusion_lon": 0.0, "lat": 38.92853783333333, "lon": -77.10678833333333, "bike_id": "f7e23fe9460706f052cb324892b7c074"}, {"type": "electric_scooter", "is_reserved": 0, "is_disabled": 0, "fusion_lat": 0.0, "name": "6d6205799bd13e5769cbae71aa7b42a0", "rental_uris": {"android": "https://dc.lft.to/lastmile_qr_scan", "ios": "https://dc.lft.to/lastmile_qr_scan"}, "fusion_lon": 0.0, "lat": 38.925409, "lon": -77.04085383333333, "bike_id": "6d6205799bd13e5769cbae71aa7b42a0"}, {"type": "electric_scooter", "is_reserved": 0, "is_disabled": 0, "fusion_lat": 0.0, "name": "28a36b315b243529430dba59f4b17647", "rental_uris": {"android": "https://dc.lft.to/lastmile_qr_scan", "ios": "https://dc.lft.to/lastmile_qr_scan"}, "fusion_lon": 0.0, "lat": 38.9324125, "lon": -77.03077416666666, "bike_id": "28a36b315b243529430dba59f4b17647"}, {"type": "electric_scooter", "is_reserved": 0, "is_disabled": 0, "fusion_lat": 0.0, "name": "9f08626541093e587c0a8a082184fde6", "rental_uris": {"android": "https://dc.lft.to/lastmile_qr_scan", "ios": "https://dc.lft.to/lastmile_qr_scan"}, "fusion_lon": 0.0, "lat": 38.9246325, "lon": -77.02205133333334, "bike_id": "9f08626541093e587c0a8a082184fde6"}, {"type": "electric_scooter", "is_reserved": 0, "is_disabled": 0, "fusion_lat": 0.0, "name": "f661cbcd87e19af9dc8d7c03bffd3207", "rental_uris": {"android": "https://dc.lft.to/lastmile_qr_scan", "ios": "https://dc.lft.to/lastmile_qr_scan"}, "fusion_lon": 0.0, "lat": 38.91961716666667, "lon": -77.04152416666666, "bike_id": "f661cbcd87e19af9dc8d7c03bffd3207"}, {"type": "electric_bike", "is_reserved": 0, "is_disabled": 0, "fusion_lat": 0.0, "name": "a7ccb515ff6b9aeaa01ba777b8b94ac9", "rental_uris": {"android": "https://dc.lft.to/lastmile_qr_scan", "ios": "https://dc.lft.to/lastmile_qr_scan"}, "fusion_lon": 0.0, "lat": 38.807417666666666, "lon": -77.09424783333333, "bike_id": "a7ccb515ff6b9aeaa01ba777b8b94ac9"}, {"type": "electric_scooter", "is_reserved": 0, "is_disabled": 0, "fusion_lat": 0.0, "name": "5ee52394892028e0c9fcd0dd80067e11", "rental_uris": {"android": "https://dc.lft.to/lastmile_qr_scan", "ios": "https://dc.lft.to/lastmile_qr_scan"}, "fusion_lon": 0.0, "lat": 38.89924083333333, "lon": -77.03236183333334, "bike_id": "5ee52394892028e0c9fcd0dd80067e11"}, {"type": "electric_scooter", "is_reserved": 0, "is_disabled": 0, "fusion_lat": 0.0, "name": "66ef5306d619dcd73f843a1a46dbb931", "rental_uris": {"android": "https://dc.lft.to/lastmile_qr_scan", "ios": "https://dc.lft.to/lastmile_qr_scan"}, "fusion_lon": 0.0, "lat": 38.9375645, "lon": -77.031388, "bike_id": "66ef5306d619dcd73f843a1a46dbb931"}, {"type": "electric_scooter", "is_reserved": 0, "is_disabled": 0, "fusion_lat": 0.0, "name": "e0605e10c53c8a893e5c1488c6e56bc0", "rental_uris": {"android": "https://dc.lft.to/lastmile_qr_scan", "ios": "https://dc.lft.to/lastmile_qr_scan"}, "fusion_lon": 0.0, "lat": 38.9482795, "lon": -77.024232, "bike_id": "e0605e10c53c8a893e5c1488c6e56bc0"}, {"type": "electric_scooter", "is_reserved": 0, "is_disabled": 0, "fusion_lat": 0.0, "name": "b21e9011e5473395f776cb73cfa8ae45", "rental_uris": {"android": "https://dc.lft.to/lastmile_qr_scan", "ios": "https://dc.lft.to/lastmile_qr_scan"}, "fusion_lon": 0.0, "lat": 38.90273283333333, "lon": -77.0346325, "bike_id": "b21e9011e5473395f776cb73cfa8ae45"}, {"type": "electric_scooter", "is_reserved": 0, "is_disabled": 0, "fusion_lat": 0.0, "name": "5c08a29354042c01b67dabc2b0e96046", "rental_uris": {"android": "https://dc.lft.to/lastmile_qr_scan", "ios": "https://dc.lft.to/lastmile_qr_scan"}, "fusion_lon": 0.0, "lat": 38.90297483333333, "lon": -77.0317185, "bike_id": "5c08a29354042c01b67dabc2b0e96046"}, {"type": "electric_scooter", "is_reserved": 0, "is_disabled": 0, "fusion_lat": 0.0, "name": "5b7c7b381601f7e672faea53d1e328a9", "rental_uris": {"android": "https://dc.lft.to/lastmile_qr_scan", "ios": "https://dc.lft.to/lastmile_qr_scan"}, "fusion_lon": 0.0, "lat": 38.93825233333333, "lon": -77.06176566666667, "bike_id": "5b7c7b381601f7e672faea53d1e328a9"}, {"type": "electric_scooter", "is_reserved": 0, "is_disabled": 0, "fusion_lat": 0.0, "name": "7363942893750d66f72bacd6c320dffc", "rental_uris": {"android": "https://dc.lft.to/lastmile_qr_scan", "ios": "https://dc.lft.to/lastmile_qr_scan"}, "fusion_lon": 0.0, "lat": 38.900701833333336, "lon": -77.04584616666666, "bike_id": "7363942893750d66f72bacd6c320dffc"}, {"type": "electric_scooter", "is_reserved": 0, "is_disabled": 0, "fusion_lat": 0.0, "name": "aaf84a4cd36e61dd393cdc28778d6081", "rental_uris": {"android": "https://dc.lft.to/lastmile_qr_scan", "ios": "https://dc.lft.to/lastmile_qr_scan"}, "fusion_lon": 0.0, "lat": 38.8983995, "lon": -76.93104066666666, "bike_id": "aaf84a4cd36e61dd393cdc28778d6081"}, {"type": "electric_scooter", "is_reserved": 0, "is_disabled": 0, "fusion_lat": 0.0, "name": "75b4afacd9e92800357ce1ce7938ed1d", "rental_uris": {"android": "https://dc.lft.to/lastmile_qr_scan", "ios": "https://dc.lft.to/lastmile_qr_scan"}, "fusion_lon": 0.0, "lat": 38.93094966666666, "lon": -77.02513983333333, "bike_id": "75b4afacd9e92800357ce1ce7938ed1d"}, {"type": "electric_scooter", "is_reserved": 0, "is_disabled": 0, "fusion_lat": 0.0, "name": "947f85a5c187b06cbf48acf891d7bff5", "rental_uris": {"android": "https://dc.lft.to/lastmile_qr_scan", "ios": "https://dc.lft.to/lastmile_qr_scan"}, "fusion_lon": 0.0, "lat": 38.92712483333333, "lon": -77.02322316666667, "bike_id": "947f85a5c187b06cbf48acf891d7bff5"}, {"type": "electric_scooter", "is_reserved": 0, "is_disabled": 0, "fusion_lat": 0.0, "name": "68fd2dbb3d1ce062feb2a811de7a2bc0", "rental_uris": {"android": "https://dc.lft.to/lastmile_qr_scan", "ios": "https://dc.lft.to/lastmile_qr_scan"}, "fusion_lon": 0.0, "lat": 38.925256833333336, "lon": -77.04122233333334, "bike_id": "68fd2dbb3d1ce062feb2a811de7a2bc0"}, {"type": "electric_scooter", "is_reserved": 0, "is_disabled": 0, "fusion_lat": 0.0, "name": "7dfe01c1da2b10c18312c02d113e68d4", "rental_uris": {"android": "https://dc.lft.to/lastmile_qr_scan", "ios": "https://dc.lft.to/lastmile_qr_scan"}, "fusion_lon": 0.0, "lat": 38.9373675, "lon": -77.03255833333333, "bike_id": "7dfe01c1da2b10c18312c02d113e68d4"}, {"type": "electric_scooter", "is_reserved": 0, "is_disabled": 0, "fusion_lat": 0.0, "name": "2b543f3edc6dabc4d94b5d303614370d", "rental_uris": {"android": "https://dc.lft.to/lastmile_qr_scan", "ios": "https://dc.lft.to/lastmile_qr_scan"}, "fusion_lon": 0.0, "lat": 38.90375783333333, "lon": -77.04149166666667, "bike_id": "2b543f3edc6dabc4d94b5d303614370d"}, {"type": "electric_bike", "is_reserved": 0, "is_disabled": 0, "fusion_lat": 0.0, "name": "4e4f5994c4ae6ae42ccd3980dad042bf", "rental_uris": {"android": "https://dc.lft.to/lastmile_qr_scan", "ios": "https://dc.lft.to/lastmile_qr_scan"}, "fusion_lon": 0.0, "lat": 38.966053, "lon": -76.983294, "bike_id": "4e4f5994c4ae6ae42ccd3980dad042bf"}, {"type": "electric_scooter", "is_reserved": 0, "is_disabled": 0, "fusion_lat": 0.0, "name": "01717b0a74ff0b81ed4a7f419c757985", "rental_uris": {"android": "https://dc.lft.to/lastmile_qr_scan", "ios": "https://dc.lft.to/lastmile_qr_scan"}, "fusion_lon": 0.0, "lat": 38.891987666666665, "lon": -77.03109333333333, "bike_id": "01717b0a74ff0b81ed4a7f419c757985"}, {"type": "electric_scooter", "is_reserved": 0, "is_disabled": 0, "fusion_lat": 0.0, "name": "00353551bf11fc0f769d90e416a8526c", "rental_uris": {"android": "https://dc.lft.to/lastmile_qr_scan", "ios": "https://dc.lft.to/lastmile_qr_scan"}, "fusion_lon": 0.0, "lat": 38.903502, "lon": -77.021196, "bike_id": "00353551bf11fc0f769d90e416a8526c"}, {"type": "electric_scooter", "is_reserved": 0, "is_disabled": 0, "fusion_lat": 0.0, "name": "05140a42e40d12d426fd58d4b87b624c", "rental_uris": {"android": "https://dc.lft.to/lastmile_qr_scan", "ios": "https://dc.lft.to/lastmile_qr_scan"}, "fusion_lon": 0.0, "lat": 38.91675816666667, "lon": -77.02403983333333, "bike_id": "05140a42e40d12d426fd58d4b87b624c"}, {"type": "electric_scooter", "is_reserved": 0, "is_disabled": 0, "fusion_lat": 0.0, "name": "c067d739dfd7de3b411ac2b82a9f56b6", "rental_uris": {"android": "https://dc.lft.to/lastmile_qr_scan", "ios": "https://dc.lft.to/lastmile_qr_scan"}, "fusion_lon": 0.0, "lat": 38.887226, "lon": -77.01377, "bike_id": "c067d739dfd7de3b411ac2b82a9f56b6"}, {"type": "electric_scooter", "is_reserved": 0, "is_disabled": 0, "fusion_lat": 0.0, "name": "9a4ca1a809c701292f2fea933593f74a", "rental_uris": {"android": "https://dc.lft.to/lastmile_qr_scan", "ios": "https://dc.lft.to/lastmile_qr_scan"}, "fusion_lon": 0.0, "lat": 38.91404433333334, "lon": -77.0205075, "bike_id": "9a4ca1a809c701292f2fea933593f74a"}, {"type": "electric_scooter", "is_reserved": 0, "is_disabled": 0, "fusion_lat": 0.0, "name": "151573e60e363ae448396b657ea09419", "rental_uris": {"android": "https://dc.lft.to/lastmile_qr_scan", "ios": "https://dc.lft.to/lastmile_qr_scan"}, "fusion_lon": 0.0, "lat": 38.897603833333335, "lon": -77.026887, "bike_id": "151573e60e363ae448396b657ea09419"}, {"type": "electric_scooter", "is_reserved": 0, "is_disabled": 0, "fusion_lat": 0.0, "name": "445fcc46a9d2b130937e5200fd435853", "rental_uris": {"android": "https://dc.lft.to/lastmile_qr_scan", "ios": "https://dc.lft.to/lastmile_qr_scan"}, "fusion_lon": 0.0, "lat": 38.889259, "lon": -76.97376983333334, "bike_id": "445fcc46a9d2b130937e5200fd435853"}, {"type": "electric_bike", "is_reserved": 0, "is_disabled": 0, "fusion_lat": 0.0, "name": "c1b25579355d6786064f1507da211d9e", "rental_uris": {"android": "https://dc.lft.to/lastmile_qr_scan", "ios": "https://dc.lft.to/lastmile_qr_scan"}, "fusion_lon": 0.0, "lat": 38.936796333333334, "lon": -77.02981933333334, "bike_id": "c1b25579355d6786064f1507da211d9e"}, {"type": "electric_bike", "is_reserved": 0, "is_disabled": 0, "fusion_lat": 0.0, "name": "cd8e8a9bec13a82eb8f56f4df275d28a", "rental_uris": {"android": "https://dc.lft.to/lastmile_qr_scan", "ios": "https://dc.lft.to/lastmile_qr_scan"}, "fusion_lon": 0.0, "lat": 38.96701983333333, "lon": -77.102194, "bike_id": "cd8e8a9bec13a82eb8f56f4df275d28a"}, {"type": "electric_scooter", "is_reserved": 0, "is_disabled": 0, "fusion_lat": 0.0, "name": "e8196d472cb8c70c81fd76e0e06cb1ff", "rental_uris": {"android": "https://dc.lft.to/lastmile_qr_scan", "ios": "https://dc.lft.to/lastmile_qr_scan"}, "fusion_lon": 0.0, "lat": 38.918230666666666, "lon": -77.04180766666667, "bike_id": "e8196d472cb8c70c81fd76e0e06cb1ff"}, {"type": "electric_scooter", "is_reserved": 0, "is_disabled": 0, "fusion_lat": 0.0, "name": "8a44dc985207271aafa81401d7fbbb69", "rental_uris": {"android": "https://dc.lft.to/lastmile_qr_scan", "ios": "https://dc.lft.to/lastmile_qr_scan"}, "fusion_lon": 0.0, "lat": 38.919768166666664, "lon": -77.04165633333334, "bike_id": "8a44dc985207271aafa81401d7fbbb69"}, {"type": "electric_scooter", "is_reserved": 0, "is_disabled": 0, "fusion_lat": 0.0, "name": "62c36ce1565350c76aa52379b6547614", "rental_uris": {"android": "https://dc.lft.to/lastmile_qr_scan", "ios": "https://dc.lft.to/lastmile_qr_scan"}, "fusion_lon": 0.0, "lat": 38.92112216666666, "lon": -77.04208133333333, "bike_id": "62c36ce1565350c76aa52379b6547614"}, {"type": "electric_scooter", "is_reserved": 0, "is_disabled": 0, "fusion_lat": 0.0, "name": "9e508337a15ea50dea2658b6797e038b", "rental_uris": {"android": "https://dc.lft.to/lastmile_qr_scan", "ios": "https://dc.lft.to/lastmile_qr_scan"}, "fusion_lon": 0.0, "lat": 38.903664166666665, "lon": -77.04184466666666, "bike_id": "9e508337a15ea50dea2658b6797e038b"}, {"type": "electric_bike", "is_reserved": 0, "is_disabled": 0, "fusion_lat": 0.0, "name": "472abd17997d4224c614be7fdd5de00b", "rental_uris": {"android": "https://dc.lft.to/lastmile_qr_scan", "ios": "https://dc.lft.to/lastmile_qr_scan"}, "fusion_lon": 0.0, "lat": 38.9323585, "lon": -76.97422583333334, "bike_id": "472abd17997d4224c614be7fdd5de00b"}, {"type": "electric_scooter", "is_reserved": 0, "is_disabled": 0, "fusion_lat": 0.0, "name": "1102ff1328015f0d5c0c06963aaaf589", "rental_uris": {"android": "https://dc.lft.to/lastmile_qr_scan", "ios": "https://dc.lft.to/lastmile_qr_scan"}, "fusion_lon": 0.0, "lat": 38.910127333333335, "lon": -77.08898383333333, "bike_id": "1102ff1328015f0d5c0c06963aaaf589"}, {"type": "electric_scooter", "is_reserved": 0, "is_disabled": 0, "fusion_lat": 0.0, "name": "99e704c0e6bc1f4fe93f89d5473c2021", "rental_uris": {"android": "https://dc.lft.to/lastmile_qr_scan", "ios": "https://dc.lft.to/lastmile_qr_scan"}, "fusion_lon": 0.0, "lat": 38.89194216666667, "lon": -77.02452533333333, "bike_id": "99e704c0e6bc1f4fe93f89d5473c2021"}, {"type": "electric_scooter", "is_reserved": 0, "is_disabled": 0, "fusion_lat": 0.0, "name": "660f44a99710749ea2e20b0318f6e3ca", "rental_uris": {"android": "https://dc.lft.to/lastmile_qr_scan", "ios": "https://dc.lft.to/lastmile_qr_scan"}, "fusion_lon": 0.0, "lat": 38.8962145, "lon": -76.9812145, "bike_id": "660f44a99710749ea2e20b0318f6e3ca"}, {"type": "electric_scooter", "is_reserved": 0, "is_disabled": 0, "fusion_lat": 0.0, "name": "622c9c434a2fea74a876ea0a8bc0028c", "rental_uris": {"android": "https://dc.lft.to/lastmile_qr_scan", "ios": "https://dc.lft.to/lastmile_qr_scan"}, "fusion_lon": 0.0, "lat": 38.865707666666665, "lon": -76.98954633333334, "bike_id": "622c9c434a2fea74a876ea0a8bc0028c"}, {"type": "electric_scooter", "is_reserved": 0, "is_disabled": 0, "fusion_lat": 0.0, "name": "d5bcb630cf04f95558518677315708b5", "rental_uris": {"android": "https://dc.lft.to/lastmile_qr_scan", "ios": "https://dc.lft.to/lastmile_qr_scan"}, "fusion_lon": 0.0, "lat": 38.91676666666667, "lon": -77.02297266666666, "bike_id": "d5bcb630cf04f95558518677315708b5"}, {"type": "electric_scooter", "is_reserved": 0, "is_disabled": 0, "fusion_lat": 0.0, "name": "c53a74824b8eaae312b59cac5a62a850", "rental_uris": {"android": "https://dc.lft.to/lastmile_qr_scan", "ios": "https://dc.lft.to/lastmile_qr_scan"}, "fusion_lon": 0.0, "lat": 38.89992, "lon": -76.99855233333334, "bike_id": "c53a74824b8eaae312b59cac5a62a850"}, {"type": "electric_scooter", "is_reserved": 0, "is_disabled": 0, "fusion_lat": 0.0, "name": "7924d34b2f0d47a9863c199bc724397a", "rental_uris": {"android": "https://dc.lft.to/lastmile_qr_scan", "ios": "https://dc.lft.to/lastmile_qr_scan"}, "fusion_lon": 0.0, "lat": 38.887103333333336, "lon": -77.02831783333333, "bike_id": "7924d34b2f0d47a9863c199bc724397a"}, {"type": "electric_scooter", "is_reserved": 0, "is_disabled": 0, "fusion_lat": 0.0, "name": "abcb7dd82f4526bca346b0fa2fdba500", "rental_uris": {"android": "https://dc.lft.to/lastmile_qr_scan", "ios": "https://dc.lft.to/lastmile_qr_scan"}, "fusion_lon": 0.0, "lat": 38.91375133333333, "lon": -77.00456216666667, "bike_id": "abcb7dd82f4526bca346b0fa2fdba500"}, {"type": "electric_bike", "is_reserved": 0, "is_disabled": 0, "fusion_lat": 0.0, "name": "f89adee43df00830a061dda1824b1e95", "rental_uris": {"android": "https://dc.lft.to/lastmile_qr_scan", "ios": "https://dc.lft.to/lastmile_qr_scan"}, "fusion_lon": 0.0, "lat": 38.8723085, "lon": -77.011765, "bike_id": "f89adee43df00830a061dda1824b1e95"}, {"type": "electric_scooter", "is_reserved": 0, "is_disabled": 0, "fusion_lat": 0.0, "name": "07480cb0e878ebedee45d0f546c389fc", "rental_uris": {"android": "https://dc.lft.to/lastmile_qr_scan", "ios": "https://dc.lft.to/lastmile_qr_scan"}, "fusion_lon": 0.0, "lat": 38.89706116666667, "lon": -77.0066145, "bike_id": "07480cb0e878ebedee45d0f546c389fc"}, {"type": "electric_scooter", "is_reserved": 0, "is_disabled": 0, "fusion_lat": 0.0, "name": "c65b4c76dbd0dcb1ee6f827ad2367a3b", "rental_uris": {"android": "https://dc.lft.to/lastmile_qr_scan", "ios": "https://dc.lft.to/lastmile_qr_scan"}, "fusion_lon": 0.0, "lat": 38.95100133333333, "lon": -77.0233725, "bike_id": "c65b4c76dbd0dcb1ee6f827ad2367a3b"}, {"type": "electric_scooter", "is_reserved": 0, "is_disabled": 0, "fusion_lat": 0.0, "name": "aae1ec7392ebe998f31d88f21ed132ce", "rental_uris": {"android": "https://dc.lft.to/lastmile_qr_scan", "ios": "https://dc.lft.to/lastmile_qr_scan"}, "fusion_lon": 0.0, "lat": 38.921496166666664, "lon": -77.03883433333333, "bike_id": "aae1ec7392ebe998f31d88f21ed132ce"}, {"type": "electric_scooter", "is_reserved": 0, "is_disabled": 0, "fusion_lat": 0.0, "name": "602d6c07a3524fee2fd5c76c22c743c2", "rental_uris": {"android": "https://dc.lft.to/lastmile_qr_scan", "ios": "https://dc.lft.to/lastmile_qr_scan"}, "fusion_lon": 0.0, "lat": 38.91468916666667, "lon": -77.02387866666666, "bike_id": "602d6c07a3524fee2fd5c76c22c743c2"}, {"type": "electric_scooter", "is_reserved": 0, "is_disabled": 0, "fusion_lat": 0.0, "name": "a7950add176e68636d9fe13bc80cfb87", "rental_uris": {"android": "https://dc.lft.to/lastmile_qr_scan", "ios": "https://dc.lft.to/lastmile_qr_scan"}, "fusion_lon": 0.0, "lat": 38.923518666666666, "lon": -77.02446366666666, "bike_id": "a7950add176e68636d9fe13bc80cfb87"}, {"type": "electric_scooter", "is_reserved": 0, "is_disabled": 0, "fusion_lat": 0.0, "name": "868784fa11be41cdaff4b2ad9f2fe9d6", "rental_uris": {"android": "https://dc.lft.to/lastmile_qr_scan", "ios": "https://dc.lft.to/lastmile_qr_scan"}, "fusion_lon": 0.0, "lat": 38.909453666666664, "lon": -77.046567, "bike_id": "868784fa11be41cdaff4b2ad9f2fe9d6"}, {"type": "electric_scooter", "is_reserved": 0, "is_disabled": 0, "fusion_lat": 0.0, "name": "fdbcb2437cfaa97fef2374ead4973052", "rental_uris": {"android": "https://dc.lft.to/lastmile_qr_scan", "ios": "https://dc.lft.to/lastmile_qr_scan"}, "fusion_lon": 0.0, "lat": 38.866619166666666, "lon": -76.989091, "bike_id": "fdbcb2437cfaa97fef2374ead4973052"}, {"type": "electric_scooter", "is_reserved": 0, "is_disabled": 0, "fusion_lat": 0.0, "name": "98e76886a7ea2c08ab1937e3eb0051ba", "rental_uris": {"android": "https://dc.lft.to/lastmile_qr_scan", "ios": "https://dc.lft.to/lastmile_qr_scan"}, "fusion_lon": 0.0, "lat": 38.9459305, "lon": -77.02979216666667, "bike_id": "98e76886a7ea2c08ab1937e3eb0051ba"}, {"type": "electric_scooter", "is_reserved": 0, "is_disabled": 0, "fusion_lat": 0.0, "name": "7fc2a7baed11aacae2bbcdc1d4f84375", "rental_uris": {"android": "https://dc.lft.to/lastmile_qr_scan", "ios": "https://dc.lft.to/lastmile_qr_scan"}, "fusion_lon": 0.0, "lat": 38.8897365, "lon": -76.93736866666667, "bike_id": "7fc2a7baed11aacae2bbcdc1d4f84375"}, {"type": "electric_scooter", "is_reserved": 0, "is_disabled": 0, "fusion_lat": 0.0, "name": "846f17067e9d38450ffb696dfba8817e", "rental_uris": {"android": "https://dc.lft.to/lastmile_qr_scan", "ios": "https://dc.lft.to/lastmile_qr_scan"}, "fusion_lon": 0.0, "lat": 38.9163285, "lon": -77.01371066666667, "bike_id": "846f17067e9d38450ffb696dfba8817e"}, {"type": "electric_bike", "is_reserved": 0, "is_disabled": 0, "fusion_lat": 0.0, "name": "209b5c27a7a093eff2455ce71dc5e428", "rental_uris": {"android": "https://dc.lft.to/lastmile_qr_scan", "ios": "https://dc.lft.to/lastmile_qr_scan"}, "fusion_lon": 0.0, "lat": 38.9649615, "lon": -77.06490766666667, "bike_id": "209b5c27a7a093eff2455ce71dc5e428"}, {"type": "electric_scooter", "is_reserved": 0, "is_disabled": 0, "fusion_lat": 0.0, "name": "3fbf6e77ff6ab258c0dccd8c611109a6", "rental_uris": {"android": "https://dc.lft.to/lastmile_qr_scan", "ios": "https://dc.lft.to/lastmile_qr_scan"}, "fusion_lon": 0.0, "lat": 38.874608, "lon": -77.004975, "bike_id": "3fbf6e77ff6ab258c0dccd8c611109a6"}, {"type": "electric_scooter", "is_reserved": 0, "is_disabled": 0, "fusion_lat": 0.0, "name": "fe6d36b9f5a0e056a69ce8a6d59b2fd1", "rental_uris": {"android": "https://dc.lft.to/lastmile_qr_scan", "ios": "https://dc.lft.to/lastmile_qr_scan"}, "fusion_lon": 0.0, "lat": 38.884328, "lon": -76.957589, "bike_id": "fe6d36b9f5a0e056a69ce8a6d59b2fd1"}, {"type": "electric_scooter", "is_reserved": 0, "is_disabled": 0, "fusion_lat": 0.0, "name": "5771bcaaeb81577c0e1c8b066e68884a", "rental_uris": {"android": "https://dc.lft.to/lastmile_qr_scan", "ios": "https://dc.lft.to/lastmile_qr_scan"}, "fusion_lon": 0.0, "lat": 38.904378333333334, "lon": -77.04031966666666, "bike_id": "5771bcaaeb81577c0e1c8b066e68884a"}, {"type": "electric_scooter", "is_reserved": 0, "is_disabled": 0, "fusion_lat": 0.0, "name": "294608d2a5a3382811b810065b67ee5a", "rental_uris": {"android": "https://dc.lft.to/lastmile_qr_scan", "ios": "https://dc.lft.to/lastmile_qr_scan"}, "fusion_lon": 0.0, "lat": 38.909645833333336, "lon": -77.03818333333334, "bike_id": "294608d2a5a3382811b810065b67ee5a"}, {"type": "electric_scooter", "is_reserved": 0, "is_disabled": 0, "fusion_lat": 0.0, "name": "102842293d9acd8ca9dbcf7d5676be69", "rental_uris": {"android": "https://dc.lft.to/lastmile_qr_scan", "ios": "https://dc.lft.to/lastmile_qr_scan"}, "fusion_lon": 0.0, "lat": 38.896278333333335, "lon": -77.039565, "bike_id": "102842293d9acd8ca9dbcf7d5676be69"}, {"type": "electric_scooter", "is_reserved": 0, "is_disabled": 0, "fusion_lat": 0.0, "name": "87eabafc08fe649066c8873f6c8c79cc", "rental_uris": {"android": "https://dc.lft.to/lastmile_qr_scan", "ios": "https://dc.lft.to/lastmile_qr_scan"}, "fusion_lon": 0.0, "lat": 38.924159333333336, "lon": -77.05059933333334, "bike_id": "87eabafc08fe649066c8873f6c8c79cc"}, {"type": "electric_scooter", "is_reserved": 0, "is_disabled": 0, "fusion_lat": 0.0, "name": "a41674599ed5c97d9a6334a5fda3779f", "rental_uris": {"android": "https://dc.lft.to/lastmile_qr_scan", "ios": "https://dc.lft.to/lastmile_qr_scan"}, "fusion_lon": 0.0, "lat": 38.90384983333333, "lon": -77.04378916666667, "bike_id": "a41674599ed5c97d9a6334a5fda3779f"}, {"type": "electric_scooter", "is_reserved": 0, "is_disabled": 0, "fusion_lat": 0.0, "name": "b749b9e4acaa842a1e1b939a188a94b4", "rental_uris": {"android": "https://dc.lft.to/lastmile_qr_scan", "ios": "https://dc.lft.to/lastmile_qr_scan"}, "fusion_lon": 0.0, "lat": 38.898347333333334, "lon": -76.9463275, "bike_id": "b749b9e4acaa842a1e1b939a188a94b4"}, {"type": "electric_scooter", "is_reserved": 0, "is_disabled": 0, "fusion_lat": 0.0, "name": "50e92eabce4adf81b053e44467187030", "rental_uris": {"android": "https://dc.lft.to/lastmile_qr_scan", "ios": "https://dc.lft.to/lastmile_qr_scan"}, "fusion_lon": 0.0, "lat": 38.91116066666667, "lon": -77.03205283333334, "bike_id": "50e92eabce4adf81b053e44467187030"}, {"type": "electric_bike", "is_reserved": 0, "is_disabled": 0, "fusion_lat": 0.0, "name": "6f365eebcbb16eb90f193e4b4597e26a", "rental_uris": {"android": "https://dc.lft.to/lastmile_qr_scan", "ios": "https://dc.lft.to/lastmile_qr_scan"}, "fusion_lon": 0.0, "lat": 38.91160583333333, "lon": -77.00264216666666, "bike_id": "6f365eebcbb16eb90f193e4b4597e26a"}, {"type": "electric_scooter", "is_reserved": 0, "is_disabled": 0, "fusion_lat": 0.0, "name": "d5ed2c01bda6760a5a87e76f836aa548", "rental_uris": {"android": "https://dc.lft.to/lastmile_qr_scan", "ios": "https://dc.lft.to/lastmile_qr_scan"}, "fusion_lon": 0.0, "lat": 38.926062333333334, "lon": -77.0368275, "bike_id": "d5ed2c01bda6760a5a87e76f836aa548"}, {"type": "electric_scooter", "is_reserved": 0, "is_disabled": 0, "fusion_lat": 0.0, "name": "99bdc3d35fae633c243d664333fc28bc", "rental_uris": {"android": "https://dc.lft.to/lastmile_qr_scan", "ios": "https://dc.lft.to/lastmile_qr_scan"}, "fusion_lon": 0.0, "lat": 38.92323116666667, "lon": -77.03791633333333, "bike_id": "99bdc3d35fae633c243d664333fc28bc"}, {"type": "electric_bike", "is_reserved": 0, "is_disabled": 0, "fusion_lat": 0.0, "name": "ec0f83754a9d3364c588958bea0a497c", "rental_uris": {"android": "https://dc.lft.to/lastmile_qr_scan", "ios": "https://dc.lft.to/lastmile_qr_scan"}, "fusion_lon": 0.0, "lat": 39.03043133333333, "lon": -77.09472866666667, "bike_id": "ec0f83754a9d3364c588958bea0a497c"}, {"type": "electric_bike", "is_reserved": 0, "is_disabled": 0, "fusion_lat": 0.0, "name": "96dd4e48c3ed3657bc2be293cb027c44", "rental_uris": {"android": "https://dc.lft.to/lastmile_qr_scan", "ios": "https://dc.lft.to/lastmile_qr_scan"}, "fusion_lon": 0.0, "lat": 38.96496666666667, "lon": -76.93850683333334, "bike_id": "96dd4e48c3ed3657bc2be293cb027c44"}, {"type": "electric_scooter", "is_reserved": 0, "is_disabled": 0, "fusion_lat": 0.0, "name": "6cf6ccbc3b125b2dd9b9470e126f8715", "rental_uris": {"android": "https://dc.lft.to/lastmile_qr_scan", "ios": "https://dc.lft.to/lastmile_qr_scan"}, "fusion_lon": 0.0, "lat": 38.930869666666666, "lon": -76.9672365, "bike_id": "6cf6ccbc3b125b2dd9b9470e126f8715"}, {"type": "electric_scooter", "is_reserved": 0, "is_disabled": 0, "fusion_lat": 0.0, "name": "4105f1f6f2f59cebc2298249e8521c8c", "rental_uris": {"android": "https://dc.lft.to/lastmile_qr_scan", "ios": "https://dc.lft.to/lastmile_qr_scan"}, "fusion_lon": 0.0, "lat": 38.90768216666667, "lon": -77.0692165, "bike_id": "4105f1f6f2f59cebc2298249e8521c8c"}, {"type": "electric_scooter", "is_reserved": 0, "is_disabled": 0, "fusion_lat": 0.0, "name": "7c511b613b5a58045dd8c29b122e3075", "rental_uris": {"android": "https://dc.lft.to/lastmile_qr_scan", "ios": "https://dc.lft.to/lastmile_qr_scan"}, "fusion_lon": 0.0, "lat": 38.936178, "lon": -77.03213616666666, "bike_id": "7c511b613b5a58045dd8c29b122e3075"}, {"type": "electric_bike", "is_reserved": 0, "is_disabled": 0, "fusion_lat": 0.0, "name": "261babb0009a88729425e6b7eee7c1dc", "rental_uris": {"android": "https://dc.lft.to/lastmile_qr_scan", "ios": "https://dc.lft.to/lastmile_qr_scan"}, "fusion_lon": 0.0, "lat": 39.02430533333333, "lon": -77.13102383333333, "bike_id": "261babb0009a88729425e6b7eee7c1dc"}, {"type": "electric_scooter", "is_reserved": 0, "is_disabled": 0, "fusion_lat": 0.0, "name": "c8a276dbb3b0c5f17b324a5a8d03b500", "rental_uris": {"android": "https://dc.lft.to/lastmile_qr_scan", "ios": "https://dc.lft.to/lastmile_qr_scan"}, "fusion_lon": 0.0, "lat": 38.921873, "lon": -77.01819916666666, "bike_id": "c8a276dbb3b0c5f17b324a5a8d03b500"}, {"type": "electric_scooter", "is_reserved": 0, "is_disabled": 0, "fusion_lat": 0.0, "name": "4d5799403d6a305908e2cb21bb663085", "rental_uris": {"android": "https://dc.lft.to/lastmile_qr_scan", "ios": "https://dc.lft.to/lastmile_qr_scan"}, "fusion_lon": 0.0, "lat": 38.9025485, "lon": -77.04866733333333, "bike_id": "4d5799403d6a305908e2cb21bb663085"}, {"type": "electric_scooter", "is_reserved": 0, "is_disabled": 0, "fusion_lat": 0.0, "name": "b50674399007b02b032c3377f8b31fef", "rental_uris": {"android": "https://dc.lft.to/lastmile_qr_scan", "ios": "https://dc.lft.to/lastmile_qr_scan"}, "fusion_lon": 0.0, "lat": 38.91076483333333, "lon": -77.04120066666667, "bike_id": "b50674399007b02b032c3377f8b31fef"}, {"type": "electric_scooter", "is_reserved": 0, "is_disabled": 0, "fusion_lat": 0.0, "name": "735dfba2ee21526157a3a50b8a1cd59a", "rental_uris": {"android": "https://dc.lft.to/lastmile_qr_scan", "ios": "https://dc.lft.to/lastmile_qr_scan"}, "fusion_lon": 0.0, "lat": 38.91823983333333, "lon": -77.03843216666667, "bike_id": "735dfba2ee21526157a3a50b8a1cd59a"}, {"type": "electric_scooter", "is_reserved": 0, "is_disabled": 0, "fusion_lat": 0.0, "name": "e7606fb81636c7022aec54c6b32790ca", "rental_uris": {"android": "https://dc.lft.to/lastmile_qr_scan", "ios": "https://dc.lft.to/lastmile_qr_scan"}, "fusion_lon": 0.0, "lat": 38.885824666666664, "lon": -77.012256, "bike_id": "e7606fb81636c7022aec54c6b32790ca"}, {"type": "electric_scooter", "is_reserved": 0, "is_disabled": 0, "fusion_lat": 0.0, "name": "9a586ae9da2a7e344dfdaeee6fcff3cb", "rental_uris": {"android": "https://dc.lft.to/lastmile_qr_scan", "ios": "https://dc.lft.to/lastmile_qr_scan"}, "fusion_lon": 0.0, "lat": 38.928244666666664, "lon": -77.02255466666666, "bike_id": "9a586ae9da2a7e344dfdaeee6fcff3cb"}, {"type": "electric_scooter", "is_reserved": 0, "is_disabled": 0, "fusion_lat": 0.0, "name": "9d19a7fd8ac26c9baa5f0768a9e56bde", "rental_uris": {"android": "https://dc.lft.to/lastmile_qr_scan", "ios": "https://dc.lft.to/lastmile_qr_scan"}, "fusion_lon": 0.0, "lat": 38.915442166666665, "lon": -77.03848516666666, "bike_id": "9d19a7fd8ac26c9baa5f0768a9e56bde"}, {"type": "electric_scooter", "is_reserved": 0, "is_disabled": 0, "fusion_lat": 0.0, "name": "00158d742f16733b5fa8576829a3cd4d", "rental_uris": {"android": "https://dc.lft.to/lastmile_qr_scan", "ios": "https://dc.lft.to/lastmile_qr_scan"}, "fusion_lon": 0.0, "lat": 38.900151, "lon": -76.99793149999999, "bike_id": "00158d742f16733b5fa8576829a3cd4d"}, {"type": "electric_bike", "is_reserved": 0, "is_disabled": 0, "fusion_lat": 0.0, "name": "85678738edab76d96c4fd4c09c867e3d", "rental_uris": {"android": "https://dc.lft.to/lastmile_qr_scan", "ios": "https://dc.lft.to/lastmile_qr_scan"}, "fusion_lon": 0.0, "lat": 38.985980833333336, "lon": -77.03755733333334, "bike_id": "85678738edab76d96c4fd4c09c867e3d"}, {"type": "electric_scooter", "is_reserved": 0, "is_disabled": 0, "fusion_lat": 0.0, "name": "4bdbe46497722c393f75a3bbdc3ba7c8", "rental_uris": {"android": "https://dc.lft.to/lastmile_qr_scan", "ios": "https://dc.lft.to/lastmile_qr_scan"}, "fusion_lon": 0.0, "lat": 38.8935245, "lon": -77.00332083333333, "bike_id": "4bdbe46497722c393f75a3bbdc3ba7c8"}, {"type": "electric_scooter", "is_reserved": 0, "is_disabled": 0, "fusion_lat": 0.0, "name": "1948aa7e4c6214d35f5872adf806e36d", "rental_uris": {"android": "https://dc.lft.to/lastmile_qr_scan", "ios": "https://dc.lft.to/lastmile_qr_scan"}, "fusion_lon": 0.0, "lat": 38.900431833333336, "lon": -77.048199, "bike_id": "1948aa7e4c6214d35f5872adf806e36d"}, {"type": "electric_scooter", "is_reserved": 0, "is_disabled": 0, "fusion_lat": 0.0, "name": "3461af788eb345c575c7d8d449455d89", "rental_uris": {"android": "https://dc.lft.to/lastmile_qr_scan", "ios": "https://dc.lft.to/lastmile_qr_scan"}, "fusion_lon": 0.0, "lat": 38.89219666666666, "lon": -77.02138933333333, "bike_id": "3461af788eb345c575c7d8d449455d89"}, {"type": "electric_bike", "is_reserved": 0, "is_disabled": 0, "fusion_lat": 0.0, "name": "295690f8ec61dc64c7194595b5326e07", "rental_uris": {"android": "https://dc.lft.to/lastmile_qr_scan", "ios": "https://dc.lft.to/lastmile_qr_scan"}, "fusion_lon": 0.0, "lat": 38.852176, "lon": -77.12958383333333, "bike_id": "295690f8ec61dc64c7194595b5326e07"}, {"type": "electric_scooter", "is_reserved": 0, "is_disabled": 0, "fusion_lat": 0.0, "name": "764224e192176795e574f558342e5afe", "rental_uris": {"android": "https://dc.lft.to/lastmile_qr_scan", "ios": "https://dc.lft.to/lastmile_qr_scan"}, "fusion_lon": 0.0, "lat": 38.915685, "lon": -77.037665, "bike_id": "764224e192176795e574f558342e5afe"}, {"type": "electric_bike", "is_reserved": 0, "is_disabled": 0, "fusion_lat": 0.0, "name": "a46ec8f6b9cdaee6c65f348dc17c73b6", "rental_uris": {"android": "https://dc.lft.to/lastmile_qr_scan", "ios": "https://dc.lft.to/lastmile_qr_scan"}, "fusion_lon": 0.0, "lat": 38.865899, "lon": -76.932281, "bike_id": "a46ec8f6b9cdaee6c65f348dc17c73b6"}, {"type": "electric_scooter", "is_reserved": 0, "is_disabled": 0, "fusion_lat": 0.0, "name": "8464b9dd46fc51761d120fb42ffe4ed0", "rental_uris": {"android": "https://dc.lft.to/lastmile_qr_scan", "ios": "https://dc.lft.to/lastmile_qr_scan"}, "fusion_lon": 0.0, "lat": 38.923433833333334, "lon": -77.01902616666666, "bike_id": "8464b9dd46fc51761d120fb42ffe4ed0"}, {"type": "electric_scooter", "is_reserved": 0, "is_disabled": 0, "fusion_lat": 0.0, "name": "7cc589f20a310fe3bea7500c67c97758", "rental_uris": {"android": "https://dc.lft.to/lastmile_qr_scan", "ios": "https://dc.lft.to/lastmile_qr_scan"}, "fusion_lon": 0.0, "lat": 38.91112366666667, "lon": -77.044953, "bike_id": "7cc589f20a310fe3bea7500c67c97758"}, {"type": "electric_scooter", "is_reserved": 0, "is_disabled": 0, "fusion_lat": 0.0, "name": "531b55aa9c1c0ffac4f8df124a8ef227", "rental_uris": {"android": "https://dc.lft.to/lastmile_qr_scan", "ios": "https://dc.lft.to/lastmile_qr_scan"}, "fusion_lon": 0.0, "lat": 38.91703716666667, "lon": -77.03483766666666, "bike_id": "531b55aa9c1c0ffac4f8df124a8ef227"}, {"type": "electric_scooter", "is_reserved": 0, "is_disabled": 0, "fusion_lat": 0.0, "name": "e4b49f766c33a660ffbd235daa003632", "rental_uris": {"android": "https://dc.lft.to/lastmile_qr_scan", "ios": "https://dc.lft.to/lastmile_qr_scan"}, "fusion_lon": 0.0, "lat": 38.91029733333333, "lon": -77.034442, "bike_id": "e4b49f766c33a660ffbd235daa003632"}, {"type": "electric_scooter", "is_reserved": 0, "is_disabled": 0, "fusion_lat": 0.0, "name": "392ec2e08680e86f6c45f8f809f47027", "rental_uris": {"android": "https://dc.lft.to/lastmile_qr_scan", "ios": "https://dc.lft.to/lastmile_qr_scan"}, "fusion_lon": 0.0, "lat": 38.921406833333336, "lon": -77.01793483333333, "bike_id": "392ec2e08680e86f6c45f8f809f47027"}, {"type": "electric_scooter", "is_reserved": 0, "is_disabled": 0, "fusion_lat": 0.0, "name": "e1e4a07b592eb080a7f397e497398eb2", "rental_uris": {"android": "https://dc.lft.to/lastmile_qr_scan", "ios": "https://dc.lft.to/lastmile_qr_scan"}, "fusion_lon": 0.0, "lat": 38.90837066666667, "lon": -77.03191466666667, "bike_id": "e1e4a07b592eb080a7f397e497398eb2"}, {"type": "electric_bike", "is_reserved": 0, "is_disabled": 0, "fusion_lat": 0.0, "name": "ee69863c4d7ad8ad8518beff44b4a933", "rental_uris": {"android": "https://dc.lft.to/lastmile_qr_scan", "ios": "https://dc.lft.to/lastmile_qr_scan"}, "fusion_lon": 0.0, "lat": 38.98462516666667, "lon": -76.95528033333333, "bike_id": "ee69863c4d7ad8ad8518beff44b4a933"}, {"type": "electric_scooter", "is_reserved": 0, "is_disabled": 0, "fusion_lat": 0.0, "name": "331b1d8854b3d576cbf8a06d9c42f814", "rental_uris": {"android": "https://dc.lft.to/lastmile_qr_scan", "ios": "https://dc.lft.to/lastmile_qr_scan"}, "fusion_lon": 0.0, "lat": 38.938848666666665, "lon": -77.03283466666667, "bike_id": "331b1d8854b3d576cbf8a06d9c42f814"}, {"type": "electric_scooter", "is_reserved": 0, "is_disabled": 0, "fusion_lat": 0.0, "name": "2a98045e362d468917c90467ac3442ce", "rental_uris": {"android": "https://dc.lft.to/lastmile_qr_scan", "ios": "https://dc.lft.to/lastmile_qr_scan"}, "fusion_lon": 0.0, "lat": 38.900361333333336, "lon": -77.0075215, "bike_id": "2a98045e362d468917c90467ac3442ce"}, {"type": "electric_scooter", "is_reserved": 0, "is_disabled": 0, "fusion_lat": 0.0, "name": "6782b9840085a5b7744981a8ce5f302e", "rental_uris": {"android": "https://dc.lft.to/lastmile_qr_scan", "ios": "https://dc.lft.to/lastmile_qr_scan"}, "fusion_lon": 0.0, "lat": 38.92171333333334, "lon": -77.05137166666667, "bike_id": "6782b9840085a5b7744981a8ce5f302e"}, {"type": "electric_scooter", "is_reserved": 0, "is_disabled": 0, "fusion_lat": 0.0, "name": "854b315066f37c341a875abb65682a80", "rental_uris": {"android": "https://dc.lft.to/lastmile_qr_scan", "ios": "https://dc.lft.to/lastmile_qr_scan"}, "fusion_lon": 0.0, "lat": 38.8941025, "lon": -76.956732, "bike_id": "854b315066f37c341a875abb65682a80"}, {"type": "electric_scooter", "is_reserved": 0, "is_disabled": 0, "fusion_lat": 0.0, "name": "e8647202208788479befc5fff59f6f16", "rental_uris": {"android": "https://dc.lft.to/lastmile_qr_scan", "ios": "https://dc.lft.to/lastmile_qr_scan"}, "fusion_lon": 0.0, "lat": 38.90285016666667, "lon": -77.04278866666667, "bike_id": "e8647202208788479befc5fff59f6f16"}, {"type": "electric_scooter", "is_reserved": 0, "is_disabled": 0, "fusion_lat": 0.0, "name": "8de3d464200ef73f6fc1bb49f08ebe19", "rental_uris": {"android": "https://dc.lft.to/lastmile_qr_scan", "ios": "https://dc.lft.to/lastmile_qr_scan"}, "fusion_lon": 0.0, "lat": 38.930923666666665, "lon": -77.03775016666667, "bike_id": "8de3d464200ef73f6fc1bb49f08ebe19"}, {"type": "electric_bike", "is_reserved": 0, "is_disabled": 0, "fusion_lat": 0.0, "name": "2b9b17fc4e4d4dc74d540a7fe52c477d", "rental_uris": {"android": "https://dc.lft.to/lastmile_qr_scan", "ios": "https://dc.lft.to/lastmile_qr_scan"}, "fusion_lon": 0.0, "lat": 38.87963666666667, "lon": -77.01011516666667, "bike_id": "2b9b17fc4e4d4dc74d540a7fe52c477d"}, {"type": "electric_scooter", "is_reserved": 0, "is_disabled": 0, "fusion_lat": 0.0, "name": "eef4d7d3daa2a7a55dce918d7b0d627e", "rental_uris": {"android": "https://dc.lft.to/lastmile_qr_scan", "ios": "https://dc.lft.to/lastmile_qr_scan"}, "fusion_lon": 0.0, "lat": 38.86287333333333, "lon": -76.992324, "bike_id": "eef4d7d3daa2a7a55dce918d7b0d627e"}, {"type": "electric_scooter", "is_reserved": 0, "is_disabled": 0, "fusion_lat": 0.0, "name": "8faf99b6d5364d0d5fcf0f566b280204", "rental_uris": {"android": "https://dc.lft.to/lastmile_qr_scan", "ios": "https://dc.lft.to/lastmile_qr_scan"}, "fusion_lon": 0.0, "lat": 38.9258065, "lon": -77.03988633333333, "bike_id": "8faf99b6d5364d0d5fcf0f566b280204"}, {"type": "electric_bike", "is_reserved": 0, "is_disabled": 0, "fusion_lat": 0.0, "name": "65237be97bcec9e9f6564f4375b72a43", "rental_uris": {"android": "https://dc.lft.to/lastmile_qr_scan", "ios": "https://dc.lft.to/lastmile_qr_scan"}, "fusion_lon": 0.0, "lat": 39.09438266666667, "lon": -77.13457883333334, "bike_id": "65237be97bcec9e9f6564f4375b72a43"}, {"type": "electric_scooter", "is_reserved": 0, "is_disabled": 0, "fusion_lat": 0.0, "name": "2aca22bab870dfb83db67f978b863a73", "rental_uris": {"android": "https://dc.lft.to/lastmile_qr_scan", "ios": "https://dc.lft.to/lastmile_qr_scan"}, "fusion_lon": 0.0, "lat": 38.887061833333334, "lon": -77.013753, "bike_id": "2aca22bab870dfb83db67f978b863a73"}, {"type": "electric_scooter", "is_reserved": 0, "is_disabled": 0, "fusion_lat": 0.0, "name": "4c347f3baf96069e66e6b6752bf88d5c", "rental_uris": {"android": "https://dc.lft.to/lastmile_qr_scan", "ios": "https://dc.lft.to/lastmile_qr_scan"}, "fusion_lon": 0.0, "lat": 38.899370166666664, "lon": -77.03982583333334, "bike_id": "4c347f3baf96069e66e6b6752bf88d5c"}, {"type": "electric_scooter", "is_reserved": 0, "is_disabled": 0, "fusion_lat": 0.0, "name": "8bfc5b79a03405db67603d1cfb268cdd", "rental_uris": {"android": "https://dc.lft.to/lastmile_qr_scan", "ios": "https://dc.lft.to/lastmile_qr_scan"}, "fusion_lon": 0.0, "lat": 38.89844566666667, "lon": -76.9447985, "bike_id": "8bfc5b79a03405db67603d1cfb268cdd"}, {"type": "electric_bike", "is_reserved": 0, "is_disabled": 0, "fusion_lat": 0.0, "name": "5fb09fe4bbb8b0d963cbeb3dc6a9869c", "rental_uris": {"android": "https://dc.lft.to/lastmile_qr_scan", "ios": "https://dc.lft.to/lastmile_qr_scan"}, "fusion_lon": 0.0, "lat": 38.90065333333333, "lon": -77.0500435, "bike_id": "5fb09fe4bbb8b0d963cbeb3dc6a9869c"}, {"type": "electric_bike", "is_reserved": 0, "is_disabled": 0, "fusion_lat": 0.0, "name": "22d9dd1136ce07df4e5e5f7c83a84adb", "rental_uris": {"android": "https://dc.lft.to/lastmile_qr_scan", "ios": "https://dc.lft.to/lastmile_qr_scan"}, "fusion_lon": 0.0, "lat": 38.9036945, "lon": -77.067587, "bike_id": "22d9dd1136ce07df4e5e5f7c83a84adb"}, {"type": "electric_bike", "is_reserved": 0, "is_disabled": 0, "fusion_lat": 0.0, "name": "76cf90acab0ff93631c0816289f3de3f", "rental_uris": {"android": "https://dc.lft.to/lastmile_qr_scan", "ios": "https://dc.lft.to/lastmile_qr_scan"}, "fusion_lon": 0.0, "lat": 38.876678, "lon": -77.01435683333334, "bike_id": "76cf90acab0ff93631c0816289f3de3f"}, {"type": "electric_scooter", "is_reserved": 0, "is_disabled": 0, "fusion_lat": 0.0, "name": "f53ea0c5acfeb690a16616acfd5861f4", "rental_uris": {"android": "https://dc.lft.to/lastmile_qr_scan", "ios": "https://dc.lft.to/lastmile_qr_scan"}, "fusion_lon": 0.0, "lat": 38.924303333333334, "lon": -77.04245983333334, "bike_id": "f53ea0c5acfeb690a16616acfd5861f4"}, {"type": "electric_scooter", "is_reserved": 0, "is_disabled": 0, "fusion_lat": 0.0, "name": "c9088c409efcb32a5d86bf035d23f4f9", "rental_uris": {"android": "https://dc.lft.to/lastmile_qr_scan", "ios": "https://dc.lft.to/lastmile_qr_scan"}, "fusion_lon": 0.0, "lat": 38.941643166666665, "lon": -77.0253365, "bike_id": "c9088c409efcb32a5d86bf035d23f4f9"}, {"type": "electric_scooter", "is_reserved": 0, "is_disabled": 0, "fusion_lat": 0.0, "name": "c1ca7bed62c68e2a3da46acee6b3d953", "rental_uris": {"android": "https://dc.lft.to/lastmile_qr_scan", "ios": "https://dc.lft.to/lastmile_qr_scan"}, "fusion_lon": 0.0, "lat": 38.92080883333333, "lon": -77.02400016666667, "bike_id": "c1ca7bed62c68e2a3da46acee6b3d953"}, {"type": "electric_scooter", "is_reserved": 0, "is_disabled": 0, "fusion_lat": 0.0, "name": "f941a38d1ed96842fcf72d6060068b41", "rental_uris": {"android": "https://dc.lft.to/lastmile_qr_scan", "ios": "https://dc.lft.to/lastmile_qr_scan"}, "fusion_lon": 0.0, "lat": 38.92868516666667, "lon": -77.03428933333333, "bike_id": "f941a38d1ed96842fcf72d6060068b41"}, {"type": "electric_scooter", "is_reserved": 0, "is_disabled": 0, "fusion_lat": 0.0, "name": "ea1177f9de3e29b2eaac167bb096f9a1", "rental_uris": {"android": "https://dc.lft.to/lastmile_qr_scan", "ios": "https://dc.lft.to/lastmile_qr_scan"}, "fusion_lon": 0.0, "lat": 38.899164166666665, "lon": -77.00359166666667, "bike_id": "ea1177f9de3e29b2eaac167bb096f9a1"}, {"type": "electric_bike", "is_reserved": 0, "is_disabled": 0, "fusion_lat": 0.0, "name": "172eddd6bb454b72281e5729f1c34465", "rental_uris": {"android": "https://dc.lft.to/lastmile_qr_scan", "ios": "https://dc.lft.to/lastmile_qr_scan"}, "fusion_lon": 0.0, "lat": 38.891849666666666, "lon": -77.122623, "bike_id": "172eddd6bb454b72281e5729f1c34465"}, {"type": "electric_scooter", "is_reserved": 0, "is_disabled": 0, "fusion_lat": 0.0, "name": "f153103614b5cca28427010b56d4ebd2", "rental_uris": {"android": "https://dc.lft.to/lastmile_qr_scan", "ios": "https://dc.lft.to/lastmile_qr_scan"}, "fusion_lon": 0.0, "lat": 38.937048, "lon": -77.02417983333333, "bike_id": "f153103614b5cca28427010b56d4ebd2"}, {"type": "electric_scooter", "is_reserved": 0, "is_disabled": 0, "fusion_lat": 0.0, "name": "018489c09bb3284ab8221322e60b081a", "rental_uris": {"android": "https://dc.lft.to/lastmile_qr_scan", "ios": "https://dc.lft.to/lastmile_qr_scan"}, "fusion_lon": 0.0, "lat": 38.89371333333333, "lon": -77.04794016666666, "bike_id": "018489c09bb3284ab8221322e60b081a"}, {"type": "electric_scooter", "is_reserved": 0, "is_disabled": 0, "fusion_lat": 0.0, "name": "d25dafead79d9dd9669b5d5717bb1e4f", "rental_uris": {"android": "https://dc.lft.to/lastmile_qr_scan", "ios": "https://dc.lft.to/lastmile_qr_scan"}, "fusion_lon": 0.0, "lat": 38.91015566666667, "lon": -77.05469183333334, "bike_id": "d25dafead79d9dd9669b5d5717bb1e4f"}, {"type": "electric_scooter", "is_reserved": 0, "is_disabled": 0, "fusion_lat": 0.0, "name": "be23e61765129afa52fb9ac6591dd83e", "rental_uris": {"android": "https://dc.lft.to/lastmile_qr_scan", "ios": "https://dc.lft.to/lastmile_qr_scan"}, "fusion_lon": 0.0, "lat": 38.89062066666666, "lon": -76.94332883333334, "bike_id": "be23e61765129afa52fb9ac6591dd83e"}, {"type": "electric_scooter", "is_reserved": 0, "is_disabled": 0, "fusion_lat": 0.0, "name": "6a44fe5daaf819822922df3805963635", "rental_uris": {"android": "https://dc.lft.to/lastmile_qr_scan", "ios": "https://dc.lft.to/lastmile_qr_scan"}, "fusion_lon": 0.0, "lat": 38.907782, "lon": -77.03827666666666, "bike_id": "6a44fe5daaf819822922df3805963635"}, {"type": "electric_scooter", "is_reserved": 0, "is_disabled": 0, "fusion_lat": 0.0, "name": "53eb202755b9c3474742f4b267797f53", "rental_uris": {"android": "https://dc.lft.to/lastmile_qr_scan", "ios": "https://dc.lft.to/lastmile_qr_scan"}, "fusion_lon": 0.0, "lat": 38.91841083333333, "lon": -77.03198033333334, "bike_id": "53eb202755b9c3474742f4b267797f53"}, {"type": "electric_scooter", "is_reserved": 0, "is_disabled": 0, "fusion_lat": 0.0, "name": "5ba26e8c9fe1b4fa2bb2bc575edbd56e", "rental_uris": {"android": "https://dc.lft.to/lastmile_qr_scan", "ios": "https://dc.lft.to/lastmile_qr_scan"}, "fusion_lon": 0.0, "lat": 38.92451033333333, "lon": -77.02162233333334, "bike_id": "5ba26e8c9fe1b4fa2bb2bc575edbd56e"}, {"type": "electric_scooter", "is_reserved": 0, "is_disabled": 0, "fusion_lat": 0.0, "name": "e30b08e7656025b42c603bbdb6e12d36", "rental_uris": {"android": "https://dc.lft.to/lastmile_qr_scan", "ios": "https://dc.lft.to/lastmile_qr_scan"}, "fusion_lon": 0.0, "lat": 38.85809016666666, "lon": -76.986534, "bike_id": "e30b08e7656025b42c603bbdb6e12d36"}, {"type": "electric_bike", "is_reserved": 0, "is_disabled": 0, "fusion_lat": 0.0, "name": "d7caf694edc5e5321631bb36c91efb05", "rental_uris": {"android": "https://dc.lft.to/lastmile_qr_scan", "ios": "https://dc.lft.to/lastmile_qr_scan"}, "fusion_lon": 0.0, "lat": 38.86608833333333, "lon": -76.9457325, "bike_id": "d7caf694edc5e5321631bb36c91efb05"}, {"type": "electric_bike", "is_reserved": 0, "is_disabled": 0, "fusion_lat": 0.0, "name": "66cf6bb2c615e351cd99c4ecfa1e8431", "rental_uris": {"android": "https://dc.lft.to/lastmile_qr_scan", "ios": "https://dc.lft.to/lastmile_qr_scan"}, "fusion_lon": 0.0, "lat": 38.924699, "lon": -77.2084275, "bike_id": "66cf6bb2c615e351cd99c4ecfa1e8431"}, {"type": "electric_scooter", "is_reserved": 0, "is_disabled": 0, "fusion_lat": 0.0, "name": "2c0e550d13efdfc831201d23c9c304a2", "rental_uris": {"android": "https://dc.lft.to/lastmile_qr_scan", "ios": "https://dc.lft.to/lastmile_qr_scan"}, "fusion_lon": 0.0, "lat": 38.9100095, "lon": -77.03457916666666, "bike_id": "2c0e550d13efdfc831201d23c9c304a2"}, {"type": "electric_scooter", "is_reserved": 0, "is_disabled": 0, "fusion_lat": 0.0, "name": "6e74e3daff15c28fd743791df1075da6", "rental_uris": {"android": "https://dc.lft.to/lastmile_qr_scan", "ios": "https://dc.lft.to/lastmile_qr_scan"}, "fusion_lon": 0.0, "lat": 38.9050725, "lon": -77.06383766666667, "bike_id": "6e74e3daff15c28fd743791df1075da6"}, {"type": "electric_scooter", "is_reserved": 0, "is_disabled": 0, "fusion_lat": 0.0, "name": "b8c0b2947f0cf030330fa20193d0cfea", "rental_uris": {"android": "https://dc.lft.to/lastmile_qr_scan", "ios": "https://dc.lft.to/lastmile_qr_scan"}, "fusion_lon": 0.0, "lat": 38.896271, "lon": -77.04489816666667, "bike_id": "b8c0b2947f0cf030330fa20193d0cfea"}, {"type": "electric_scooter", "is_reserved": 0, "is_disabled": 0, "fusion_lat": 0.0, "name": "e4088a4f84ed3615855bb1d9a0d74f9b", "rental_uris": {"android": "https://dc.lft.to/lastmile_qr_scan", "ios": "https://dc.lft.to/lastmile_qr_scan"}, "fusion_lon": 0.0, "lat": 38.907822333333336, "lon": -77.03859983333334, "bike_id": "e4088a4f84ed3615855bb1d9a0d74f9b"}, {"type": "electric_scooter", "is_reserved": 0, "is_disabled": 0, "fusion_lat": 0.0, "name": "4ae7b3f33320292ede137dc515874735", "rental_uris": {"android": "https://dc.lft.to/lastmile_qr_scan", "ios": "https://dc.lft.to/lastmile_qr_scan"}, "fusion_lon": 0.0, "lat": 38.9195045, "lon": -77.01782666666666, "bike_id": "4ae7b3f33320292ede137dc515874735"}, {"type": "electric_scooter", "is_reserved": 0, "is_disabled": 0, "fusion_lat": 0.0, "name": "ea3bf28fcb92cbc22d92bcb70f19afca", "rental_uris": {"android": "https://dc.lft.to/lastmile_qr_scan", "ios": "https://dc.lft.to/lastmile_qr_scan"}, "fusion_lon": 0.0, "lat": 38.9155285, "lon": -77.009562, "bike_id": "ea3bf28fcb92cbc22d92bcb70f19afca"}, {"type": "electric_scooter", "is_reserved": 0, "is_disabled": 0, "fusion_lat": 0.0, "name": "673ecb306482732c78f274aef38df0d9", "rental_uris": {"android": "https://dc.lft.to/lastmile_qr_scan", "ios": "https://dc.lft.to/lastmile_qr_scan"}, "fusion_lon": 0.0, "lat": 38.898323833333336, "lon": -76.94638, "bike_id": "673ecb306482732c78f274aef38df0d9"}, {"type": "electric_scooter", "is_reserved": 0, "is_disabled": 0, "fusion_lat": 0.0, "name": "0999358d40eb568cbd0b9fc982521383", "rental_uris": {"android": "https://dc.lft.to/lastmile_qr_scan", "ios": "https://dc.lft.to/lastmile_qr_scan"}, "fusion_lon": 0.0, "lat": 38.9170125, "lon": -77.03105766666667, "bike_id": "0999358d40eb568cbd0b9fc982521383"}, {"type": "electric_scooter", "is_reserved": 0, "is_disabled": 0, "fusion_lat": 0.0, "name": "ff31173d09a337a79514969192f24410", "rental_uris": {"android": "https://dc.lft.to/lastmile_qr_scan", "ios": "https://dc.lft.to/lastmile_qr_scan"}, "fusion_lon": 0.0, "lat": 38.9056455, "lon": -77.045709, "bike_id": "ff31173d09a337a79514969192f24410"}, {"type": "electric_scooter", "is_reserved": 0, "is_disabled": 0, "fusion_lat": 0.0, "name": "572292840823f0952c2374e5297b1fba", "rental_uris": {"android": "https://dc.lft.to/lastmile_qr_scan", "ios": "https://dc.lft.to/lastmile_qr_scan"}, "fusion_lon": 0.0, "lat": 38.90372416666666, "lon": -77.04018616666667, "bike_id": "572292840823f0952c2374e5297b1fba"}, {"type": "electric_scooter", "is_reserved": 0, "is_disabled": 0, "fusion_lat": 0.0, "name": "2e8a0a66b4d576546ca7caf3c9ad6eaa", "rental_uris": {"android": "https://dc.lft.to/lastmile_qr_scan", "ios": "https://dc.lft.to/lastmile_qr_scan"}, "fusion_lon": 0.0, "lat": 38.91739916666667, "lon": -77.02805166666667, "bike_id": "2e8a0a66b4d576546ca7caf3c9ad6eaa"}, {"type": "electric_scooter", "is_reserved": 0, "is_disabled": 0, "fusion_lat": 0.0, "name": "46ed1ab4172b3f398b8d8446bb8c4aa7", "rental_uris": {"android": "https://dc.lft.to/lastmile_qr_scan", "ios": "https://dc.lft.to/lastmile_qr_scan"}, "fusion_lon": 0.0, "lat": 38.9173365, "lon": -77.041806, "bike_id": "46ed1ab4172b3f398b8d8446bb8c4aa7"}, {"type": "electric_scooter", "is_reserved": 0, "is_disabled": 0, "fusion_lat": 0.0, "name": "bd7a2def855f9d759a55c59ff7d0eae4", "rental_uris": {"android": "https://dc.lft.to/lastmile_qr_scan", "ios": "https://dc.lft.to/lastmile_qr_scan"}, "fusion_lon": 0.0, "lat": 38.91826283333333, "lon": -77.03650516666667, "bike_id": "bd7a2def855f9d759a55c59ff7d0eae4"}, {"type": "electric_scooter", "is_reserved": 0, "is_disabled": 0, "fusion_lat": 0.0, "name": "e96af387b5f0ec8912650dbee37bab50", "rental_uris": {"android": "https://dc.lft.to/lastmile_qr_scan", "ios": "https://dc.lft.to/lastmile_qr_scan"}, "fusion_lon": 0.0, "lat": 38.90423366666667, "lon": -77.048628, "bike_id": "e96af387b5f0ec8912650dbee37bab50"}, {"type": "electric_scooter", "is_reserved": 0, "is_disabled": 0, "fusion_lat": 0.0, "name": "45527295bbe99d93077a766f1a99e202", "rental_uris": {"android": "https://dc.lft.to/lastmile_qr_scan", "ios": "https://dc.lft.to/lastmile_qr_scan"}, "fusion_lon": 0.0, "lat": 38.91214466666667, "lon": -77.07593466666667, "bike_id": "45527295bbe99d93077a766f1a99e202"}, {"type": "electric_scooter", "is_reserved": 0, "is_disabled": 0, "fusion_lat": 0.0, "name": "f1d12a6b3049f7eb2cafcad63cc691d0", "rental_uris": {"android": "https://dc.lft.to/lastmile_qr_scan", "ios": "https://dc.lft.to/lastmile_qr_scan"}, "fusion_lon": 0.0, "lat": 38.91920666666667, "lon": -77.03423366666667, "bike_id": "f1d12a6b3049f7eb2cafcad63cc691d0"}, {"type": "electric_bike", "is_reserved": 0, "is_disabled": 0, "fusion_lat": 0.0, "name": "da51446589e0d5a5893c3f0bb4098272", "rental_uris": {"android": "https://dc.lft.to/lastmile_qr_scan", "ios": "https://dc.lft.to/lastmile_qr_scan"}, "fusion_lon": 0.0, "lat": 39.05194866666667, "lon": -77.10921383333333, "bike_id": "da51446589e0d5a5893c3f0bb4098272"}, {"type": "electric_bike", "is_reserved": 0, "is_disabled": 0, "fusion_lat": 0.0, "name": "957a38e187f596054cbafa9614a941c8", "rental_uris": {"android": "https://dc.lft.to/lastmile_qr_scan", "ios": "https://dc.lft.to/lastmile_qr_scan"}, "fusion_lon": 0.0, "lat": 38.97324316666667, "lon": -77.02150116666667, "bike_id": "957a38e187f596054cbafa9614a941c8"}, {"type": "electric_scooter", "is_reserved": 0, "is_disabled": 0, "fusion_lat": 0.0, "name": "7785c7ba8b55eadb04b1b98328e61b5d", "rental_uris": {"android": "https://dc.lft.to/lastmile_qr_scan", "ios": "https://dc.lft.to/lastmile_qr_scan"}, "fusion_lon": 0.0, "lat": 38.95744666666667, "lon": -77.020669, "bike_id": "7785c7ba8b55eadb04b1b98328e61b5d"}, {"type": "electric_scooter", "is_reserved": 0, "is_disabled": 0, "fusion_lat": 0.0, "name": "5b66db28d5f69a58abaa024216b84473", "rental_uris": {"android": "https://dc.lft.to/lastmile_qr_scan", "ios": "https://dc.lft.to/lastmile_qr_scan"}, "fusion_lon": 0.0, "lat": 38.893702833333336, "lon": -76.949992, "bike_id": "5b66db28d5f69a58abaa024216b84473"}, {"type": "electric_bike", "is_reserved": 0, "is_disabled": 0, "fusion_lat": 0.0, "name": "49f201126fc023d540eab3cf45044861", "rental_uris": {"android": "https://dc.lft.to/lastmile_qr_scan", "ios": "https://dc.lft.to/lastmile_qr_scan"}, "fusion_lon": 0.0, "lat": 38.8830735, "lon": -77.03152183333333, "bike_id": "49f201126fc023d540eab3cf45044861"}, {"type": "electric_bike", "is_reserved": 0, "is_disabled": 0, "fusion_lat": 0.0, "name": "050df1f68f6f1c02795fb224c1b2e5a5", "rental_uris": {"android": "https://dc.lft.to/lastmile_qr_scan", "ios": "https://dc.lft.to/lastmile_qr_scan"}, "fusion_lon": 0.0, "lat": 38.958894666666666, "lon": -76.92484866666666, "bike_id": "050df1f68f6f1c02795fb224c1b2e5a5"}, {"type": "electric_scooter", "is_reserved": 0, "is_disabled": 0, "fusion_lat": 0.0, "name": "fef646eca2d0d59d90c37e0ca16b4320", "rental_uris": {"android": "https://dc.lft.to/lastmile_qr_scan", "ios": "https://dc.lft.to/lastmile_qr_scan"}, "fusion_lon": 0.0, "lat": 38.905635833333335, "lon": -77.005732, "bike_id": "fef646eca2d0d59d90c37e0ca16b4320"}, {"type": "electric_scooter", "is_reserved": 0, "is_disabled": 0, "fusion_lat": 0.0, "name": "a8cdcb195652197a1b8d16e753762e27", "rental_uris": {"android": "https://dc.lft.to/lastmile_qr_scan", "ios": "https://dc.lft.to/lastmile_qr_scan"}, "fusion_lon": 0.0, "lat": 38.925472166666665, "lon": -76.981293, "bike_id": "a8cdcb195652197a1b8d16e753762e27"}, {"type": "electric_scooter", "is_reserved": 0, "is_disabled": 0, "fusion_lat": 0.0, "name": "37a70a1359a753e78d6fdad1debaa0b9", "rental_uris": {"android": "https://dc.lft.to/lastmile_qr_scan", "ios": "https://dc.lft.to/lastmile_qr_scan"}, "fusion_lon": 0.0, "lat": 38.900027333333334, "lon": -76.99924866666667, "bike_id": "37a70a1359a753e78d6fdad1debaa0b9"}, {"type": "electric_scooter", "is_reserved": 0, "is_disabled": 0, "fusion_lat": 0.0, "name": "1224e0021bb0559d7d96a4f365e10d93", "rental_uris": {"android": "https://dc.lft.to/lastmile_qr_scan", "ios": "https://dc.lft.to/lastmile_qr_scan"}, "fusion_lon": 0.0, "lat": 38.903248833333336, "lon": -77.03841583333333, "bike_id": "1224e0021bb0559d7d96a4f365e10d93"}, {"type": "electric_scooter", "is_reserved": 0, "is_disabled": 0, "fusion_lat": 0.0, "name": "1368fb277eebf74b9107ec7b4f4f5aba", "rental_uris": {"android": "https://dc.lft.to/lastmile_qr_scan", "ios": "https://dc.lft.to/lastmile_qr_scan"}, "fusion_lon": 0.0, "lat": 38.94981583333333, "lon": -77.02699133333333, "bike_id": "1368fb277eebf74b9107ec7b4f4f5aba"}, {"type": "electric_scooter", "is_reserved": 0, "is_disabled": 0, "fusion_lat": 0.0, "name": "59e1ff85370afda9aced2e853e91bfe0", "rental_uris": {"android": "https://dc.lft.to/lastmile_qr_scan", "ios": "https://dc.lft.to/lastmile_qr_scan"}, "fusion_lon": 0.0, "lat": 38.9287105, "lon": -77.03287133333333, "bike_id": "59e1ff85370afda9aced2e853e91bfe0"}, {"type": "electric_bike", "is_reserved": 0, "is_disabled": 0, "fusion_lat": 0.0, "name": "2d592ae3fa357a2b697cb04f463b3a7b", "rental_uris": {"android": "https://dc.lft.to/lastmile_qr_scan", "ios": "https://dc.lft.to/lastmile_qr_scan"}, "fusion_lon": 0.0, "lat": 38.8287115, "lon": -77.1121955, "bike_id": "2d592ae3fa357a2b697cb04f463b3a7b"},