{"data": {"bikes": [{"lon": -77.01803833333334, "is_disabled": 0, "lat": 38.9213155, "fusion_lat": 0.0, "is_reserved": 0, "rental_uris": {"ios": "https://dc.lft.to/lastmile_qr_scan", "android": "https://dc.lft.to/lastmile_qr_scan"}, "fusion_lon": 0.0, "type": "electric_scooter", "bike_id": "2018d967b9c585f01d014dfe57a318ed", "name": "2018d967b9c585f01d014dfe57a318ed"}, {"lon": -76.99511816666667, "is_disabled": 0, "lat": 38.90636466666667, "fusion_lat": 0.0, "is_reserved": 0, "rental_uris": {"ios": "https://dc.lft.to/lastmile_qr_scan", "android": "https://dc.lft.to/lastmile_qr_scan"}, "fusion_lon": 0.0, "type": "electric_scooter", "bike_id": "08c840ac18743eb0b123c584f714f362", "name": "08c840ac18743eb0b123c584f714f362"}, {"lon": -77.0210005, "is_disabled": 0, "lat": 38.9215215, "fusion_lat": 0.0, "is_reserved": 0, "rental_uris": {"ios": "https://dc.lft.to/lastmile_qr_scan", "android": "https://dc.lft.to/lastmile_qr_scan"}, "fusion_lon": 0.0, "type": "electric_scooter", "bike_id": "f87ae39e92f84f59cc04e2f4ea061cbc", "name": "f87ae39e92f84f59cc04e2f4ea061cbc"}, {"lon": -77.0194405, "is_disabled": 0, "lat": 38.9046445, "fusion_lat": 0.0, "is_reserved": 0, "rental_uris": {"ios": "https://dc.lft.to/lastmile_qr_scan", "android": "https://dc.lft.to/lastmile_qr_scan"}, "fusion_lon": 0.0, "type": "electric_scooter", "bike_id": "049e02c21afea58f315cc7c83257a033", "name": "049e02c21afea58f315cc7c83257a033"}, {"lon": -77.01773833333333, "is_disabled": 0, "lat": 38.887072, "fusion_lat": 0.0, "is_reserved": 0, "rental_uris": {"ios": "https://dc.lft.to/lastmile_qr_scan", "android": "https://dc.lft.to/lastmile_qr_scan"}, "fusion_lon": 0.0, "type": "electric_scooter", "bike_id": "e195c975cb3fc1639ce8572a9c760031", "name": "e195c975cb3fc1639ce8572a9c760031"}, {"lon": -76.99062366666666, "is_disabled": 0, "lat": 38.863713, "fusion_lat": 0.0, "is_reserved": 0, "rental_uris": {"ios": "https://dc.lft.to/lastmile_qr_scan", "android": "https://dc.lft.to/lastmile_qr_scan"}, "fusion_lon": 0.0, "type": "electric_scooter", "bike_id": "69d54061ef342374edd7b32c42dced5b", "name": "69d54061ef342374edd7b32c42dced5b"}, {"lon": -77.005751, "is_disabled": 0, "lat": 38.8853965, "fusion_lat": 0.0, "is_reserved": 0, "rental_uris": {"ios": "https://dc.lft.to/lastmile_qr_scan", "android": "https://dc.lft.to/lastmile_qr_scan"}, "fusion_lon": 0.0, "type": "electric_scooter", "bike_id": "08e8a1d8075d14c045572cdff84a5001", "name": "08e8a1d8075d14c045572cdff84a5001"}, {"lon": -77.004745, "is_disabled": 0, "lat": 38.8958035, "fusion_lat": 0.0, "is_reserved": 0, "rental_uris": {"ios": "https://dc.lft.to/lastmile_qr_scan", "android": "https://dc.lft.to/lastmile_qr_scan"}, "fusion_lon": 0.0, "type": "electric_scooter", "bike_id": "b61256f579a8c7683e5599977d9f93a8", "name": "b61256f579a8c7683e5599977d9f93a8"}, {"lon": -77.03171766666667, "is_disabled": 0, "lat": 38.91553716666667, "fusion_lat": 0.0, "is_reserved": 0, "rental_uris": {"ios": "https://dc.lft.to/lastmile_qr_scan", "android": "https://dc.lft.to/lastmile_qr_scan"}, "fusion_lon": 0.0, "type": "electric_scooter", "bike_id": "7fa4c40ecad1eacf6c4c103162f02c43", "name": "7fa4c40ecad1eacf6c4c103162f02c43"}, {"lon": -77.0363395, "is_disabled": 0, "lat": 38.930550833333335, "fusion_lat": 0.0, "is_reserved": 0, "rental_uris": {"ios": "https://dc.lft.to/lastmile_qr_scan", "android": "https://dc.lft.to/lastmile_qr_scan"}, "fusion_lon": 0.0, "type": "electric_scooter", "bike_id": "81de68d238d11a1a8552d9dbe7e98d52", "name": "81de68d238d11a1a8552d9dbe7e98d52"}, {"lon": -77.01994466666666, "is_disabled": 0, "lat": 38.880299666666666, "fusion_lat": 0.0, "is_reserved": 0, "rental_uris": {"ios": "https://dc.lft.to/lastmile_qr_scan", "android": "https://dc.lft.to/lastmile_qr_scan"}, "fusion_lon": 0.0, "type": "electric_scooter", "bike_id": "2af21f8dcbf9b5e82e053c8a806af586", "name": "2af21f8dcbf9b5e82e053c8a806af586"}, {"lon": -77.02953516666666, "is_disabled": 0, "lat": 38.91774633333333, "fusion_lat": 0.0, "is_reserved": 0, "rental_uris": {"ios": "https://dc.lft.to/lastmile_qr_scan", "android": "https://dc.lft.to/lastmile_qr_scan"}, "fusion_lon": 0.0, "type": "electric_scooter", "bike_id": "6a537b6e940ec877dbfb2cea41ca3507", "name": "6a537b6e940ec877dbfb2cea41ca3507"}, {"lon": -77.019871, "is_disabled": 0, "lat": 38.9142, "fusion_lat": 0.0, "is_reserved": 0, "rental_uris": {"ios": "https://dc.lft.to/lastmile_qr_scan", "android": "https://dc.lft.to/lastmile_qr_scan"}, "fusion_lon": 0.0, "type": "electric_scooter", "bike_id": "66862c5c45932d2daf0acba379b8beca", "name": "66862c5c45932d2daf0acba379b8beca"}, {"lon": -77.02997983333333, "is_disabled": 0, "lat": 38.90269983333334, "fusion_lat": 0.0, "is_reserved": 0, "rental_uris": {"ios": "https://dc.lft.to/lastmile_qr_scan", "android": "https://dc.lft.to/lastmile_qr_scan"}, "fusion_lon": 0.0, "type": "electric_scooter", "bike_id": "920fd77a3379d3a8cc0cf80ab7be027a", "name": "920fd77a3379d3a8cc0cf80ab7be027a"}, {"lon": -77.02114266666666, "is_disabled": 0, "lat": 38.914130666666665, "fusion_lat": 0.0, "is_reserved": 0, "rental_uris": {"ios": "https://dc.lft.to/lastmile_qr_scan", "android": "https://dc.lft.to/lastmile_qr_scan"}, "fusion_lon": 0.0, "type": "electric_scooter", "bike_id": "5d9e333ef0db9ed499759aa71d0c215b", "name": "5d9e333ef0db9ed499759aa71d0c215b"}, {"lon": -77.0336885, "is_disabled": 0, "lat": 38.932302, "fusion_lat": 0.0, "is_reserved": 0, "rental_uris": {"ios": "https://dc.lft.to/lastmile_qr_scan", "android": "https://dc.lft.to/lastmile_qr_scan"}, "fusion_lon": 0.0, "type": "electric_scooter", "bike_id": "097c4339268ae98e1b19eed4b4023e84", "name": "097c4339268ae98e1b19eed4b4023e84"}, {"lon": -77.048877, "is_disabled": 0, "lat": 38.90307383333333, "fusion_lat": 0.0, "is_reserved": 0, "rental_uris": {"ios": "https://dc.lft.to/lastmile_qr_scan", "android": "https://dc.lft.to/lastmile_qr_scan"}, "fusion_lon": 0.0, "type": "electric_scooter", "bike_id": "2137d20f45ef6ab1b3fda60d67a529fb", "name": "2137d20f45ef6ab1b3fda60d67a529fb"}, {"lon": -76.99825833333334, "is_disabled": 0, "lat": 38.88527783333333, "fusion_lat": 0.0, "is_reserved": 0, "rental_uris": {"ios": "https://dc.lft.to/lastmile_qr_scan", "android": "https://dc.lft.to/lastmile_qr_scan"}, "fusion_lon": 0.0, "type": "electric_scooter", "bike_id": "5d9ff32c7e4ee7e14bc6734e2beb6c38", "name": "5d9ff32c7e4ee7e14bc6734e2beb6c38"}, {"lon": -77.03841516666667, "is_disabled": 0, "lat": 38.902748833333334, "fusion_lat": 0.0, "is_reserved": 0, "rental_uris": {"ios": "https://dc.lft.to/lastmile_qr_scan", "android": "https://dc.lft.to/lastmile_qr_scan"}, "fusion_lon": 0.0, "type": "electric_scooter", "bike_id": "5681bd0447fb73a0cc575ff13ec6ad75", "name": "5681bd0447fb73a0cc575ff13ec6ad75"}, {"lon": -77.000761, "is_disabled": 0, "lat": 38.87387483333333, "fusion_lat": 0.0, "is_reserved": 0, "rental_uris": {"ios": "https://dc.lft.to/lastmile_qr_scan", "android": "https://dc.lft.to/lastmile_qr_scan"}, "fusion_lon": 0.0, "type": "electric_scooter", "bike_id": "251bc5fff0b2156a5c9522c9f6f8af19", "name": "251bc5fff0b2156a5c9522c9f6f8af19"}, {"lon": -77.05505033333333, "is_disabled": 0, "lat": 38.92831866666667, "fusion_lat": 0.0, "is_reserved": 0, "rental_uris": {"ios": "https://dc.lft.to/lastmile_qr_scan", "android": "https://dc.lft.to/lastmile_qr_scan"}, "fusion_lon": 0.0, "type": "electric_scooter", "bike_id": "df46e74b4cb76324ba7826afcae40053", "name": "df46e74b4cb76324ba7826afcae40053"}, {"lon": -77.03216333333333, "is_disabled": 0, "lat": 38.95789333333333, "fusion_lat": 0.0, "is_reserved": 0, "rental_uris": {"ios": "https://dc.lft.to/lastmile_qr_scan", "android": "https://dc.lft.to/lastmile_qr_scan"}, "fusion_lon": 0.0, "type": "electric_scooter", "bike_id": "2535e227e2c5cd63c41912c00f5e468d", "name": "2535e227e2c5cd63c41912c00f5e468d"}, {"lon": -77.064714, "is_disabled": 0, "lat": 38.97383, "fusion_lat": 0.0, "is_reserved": 0, "rental_uris": {"ios": "https://dc.lft.to/lastmile_qr_scan", "android": "https://dc.lft.to/lastmile_qr_scan"}, "fusion_lon": 0.0, "type": "electric_bike", "bike_id": "b26536d0e6a8d74e7531a16f09a13dd7", "name": "b26536d0e6a8d74e7531a16f09a13dd7"}, {"lon": -77.02325983333333, "is_disabled": 0, "lat": 38.894709166666665, "fusion_lat": 0.0, "is_reserved": 0, "rental_uris": {"ios": "https://dc.lft.to/lastmile_qr_scan", "android": "https://dc.lft.to/lastmile_qr_scan"}, "fusion_lon": 0.0, "type": "electric_bike", "bike_id": "4043c93b75454d70db15930c16da8c89", "name": "4043c93b75454d70db15930c16da8c89"}, {"lon": -77.02798883333334, "is_disabled": 0, "lat": 38.9010885, "fusion_lat": 0.0, "is_reserved": 0, "rental_uris": {"ios": "https://dc.lft.to/lastmile_qr_scan", "android": "https://dc.lft.to/lastmile_qr_scan"}, "fusion_lon": 0.0, "type": "electric_scooter", "bike_id": "13c011b071e31a828ccab7b4b0f40335", "name": "13c011b071e31a828ccab7b4b0f40335"}, {"lon": -77.02315816666666, "is_disabled": 0, "lat": 38.91627866666666, "fusion_lat": 0.0, "is_reserved": 0, "rental_uris": {"ios": "https://dc.lft.to/lastmile_qr_scan", "android": "https://dc.lft.to/lastmile_qr_scan"}, "fusion_lon": 0.0, "type": "electric_scooter", "bike_id": "70a15a0210138595fe5a5177e7f06ba0", "name": "70a15a0210138595fe5a5177e7f06ba0"}, {"lon": -77.01596733333334, "is_disabled": 0, "lat": 38.899279, "fusion_lat": 0.0, "is_reserved": 0, "rental_uris": {"ios": "https://dc.lft.to/lastmile_qr_scan", "android": "https://dc.lft.to/lastmile_qr_scan"}, "fusion_lon": 0.0, "type": "electric_scooter", "bike_id": "1f663afd323e6b6500ceb0fa132155d0", "name": "1f663afd323e6b6500ceb0fa132155d0"}, {"lon": -77.031931, "is_disabled": 0, "lat": 38.91637, "fusion_lat": 0.0, "is_reserved": 0, "rental_uris": {"ios": "https://dc.lft.to/lastmile_qr_scan", "android": "https://dc.lft.to/lastmile_qr_scan"}, "fusion_lon": 0.0, "type": "electric_scooter", "bike_id": "a6c3a5ed4cf4e5857d2d04207fb53b5c", "name": "a6c3a5ed4cf4e5857d2d04207fb53b5c"}, {"lon": -77.02499716666667, "is_disabled": 0, "lat": 38.884515666666665, "fusion_lat": 0.0, "is_reserved": 0, "rental_uris": {"ios": "https://dc.lft.to/lastmile_qr_scan", "android": "https://dc.lft.to/lastmile_qr_scan"}, "fusion_lon": 0.0, "type": "electric_scooter", "bike_id": "191ce1f588a3188ab2c4a36bc0d8a163", "name": "191ce1f588a3188ab2c4a36bc0d8a163"}, {"lon": -77.02890583333334, "is_disabled": 0, "lat": 38.91706, "fusion_lat": 0.0, "is_reserved": 0, "rental_uris": {"ios": "https://dc.lft.to/lastmile_qr_scan", "android": "https://dc.lft.to/lastmile_qr_scan"}, "fusion_lon": 0.0, "type": "electric_scooter", "bike_id": "5b425a222ebbe4f51e73359880741a82", "name": "5b425a222ebbe4f51e73359880741a82"}, {"lon": -76.94637116666667, "is_disabled": 0, "lat": 38.8986125, "fusion_lat": 0.0, "is_reserved": 0, "rental_uris": {"ios": "https://dc.lft.to/lastmile_qr_scan", "android": "https://dc.lft.to/lastmile_qr_scan"}, "fusion_lon": 0.0, "type": "electric_scooter", "bike_id": "569dbdfefc4ccd6a35ebc31f5927a984", "name": "569dbdfefc4ccd6a35ebc31f5927a984"}, {"lon": -77.024632, "is_disabled": 0, "lat": 38.8973075, "fusion_lat": 0.0, "is_reserved": 0, "rental_uris": {"ios": "https://dc.lft.to/lastmile_qr_scan", "android": "https://dc.lft.to/lastmile_qr_scan"}, "fusion_lon": 0.0, "type": "electric_scooter", "bike_id": "17e1372111cd0afeeac9db5ef82b9b6a", "name": "17e1372111cd0afeeac9db5ef82b9b6a"}, {"lon": -76.995027, "is_disabled": 0, "lat": 38.86245666666667, "fusion_lat": 0.0, "is_reserved": 0, "rental_uris": {"ios": "https://dc.lft.to/lastmile_qr_scan", "android": "https://dc.lft.to/lastmile_qr_scan"}, "fusion_lon": 0.0, "type": "electric_scooter", "bike_id": "a85b9c1c6e9bcb52523e1fd638440550", "name": "a85b9c1c6e9bcb52523e1fd638440550"}, {"lon": -77.02385766666667, "is_disabled": 0, "lat": 38.91273433333333, "fusion_lat": 0.0, "is_reserved": 0, "rental_uris": {"ios": "https://dc.lft.to/lastmile_qr_scan", "android": "https://dc.lft.to/lastmile_qr_scan"}, "fusion_lon": 0.0, "type": "electric_scooter", "bike_id": "c666ac3696d51cef3ca223aa3397d4e5", "name": "c666ac3696d51cef3ca223aa3397d4e5"}, {"lon": -77.04999233333334, "is_disabled": 0, "lat": 38.907191833333336, "fusion_lat": 0.0, "is_reserved": 0, "rental_uris": {"ios": "https://dc.lft.to/lastmile_qr_scan", "android": "https://dc.lft.to/lastmile_qr_scan"}, "fusion_lon": 0.0, "type": "electric_scooter", "bike_id": "0b239a2ea9914923a53afe108f14c5d2", "name": "0b239a2ea9914923a53afe108f14c5d2"}, {"lon": -77.00066933333333, "is_disabled": 0, "lat": 38.87380816666666, "fusion_lat": 0.0, "is_reserved": 0, "rental_uris": {"ios": "https://dc.lft.to/lastmile_qr_scan", "android": "https://dc.lft.to/lastmile_qr_scan"}, "fusion_lon": 0.0, "type": "electric_scooter", "bike_id": "26ce5e28ae99f4d58a34885aff740a27", "name": "26ce5e28ae99f4d58a34885aff740a27"}, {"lon": -77.04676966666666, "is_disabled": 0, "lat": 38.89500566666667, "fusion_lat": 0.0, "is_reserved": 0, "rental_uris": {"ios": "https://dc.lft.to/lastmile_qr_scan", "android": "https://dc.lft.to/lastmile_qr_scan"}, "fusion_lon": 0.0, "type": "electric_scooter", "bike_id": "fe56aa4211739facd43a66d582a2dfb0", "name": "fe56aa4211739facd43a66d582a2dfb0"}, {"lon": -76.9509535, "is_disabled": 0, "lat": 38.88446, "fusion_lat": 0.0, "is_reserved": 0, "rental_uris": {"ios": "https://dc.lft.to/lastmile_qr_scan", "android": "https://dc.lft.to/lastmile_qr_scan"}, "fusion_lon": 0.0, "type": "electric_scooter", "bike_id": "c2760c03e3dfa810d3f08e6f34b412b1", "name": "c2760c03e3dfa810d3f08e6f34b412b1"}, {"lon": -77.03174216666666, "is_disabled": 0, "lat": 38.91556466666667, "fusion_lat": 0.0, "is_reserved": 0, "rental_uris": {"ios": "https://dc.lft.to/lastmile_qr_scan", "android": "https://dc.lft.to/lastmile_qr_scan"}, "fusion_lon": 0.0, "type": "electric_scooter", "bike_id": "8598fbb2ed257b55c14d3cfda5fe86a4", "name": "8598fbb2ed257b55c14d3cfda5fe86a4"}, {"lon": -77.03328983333333, "is_disabled": 0, "lat": 38.892204166666666, "fusion_lat": 0.0, "is_reserved": 0, "rental_uris": {"ios": "https://dc.lft.to/lastmile_qr_scan", "android": "https://dc.lft.to/lastmile_qr_scan"}, "fusion_lon": 0.0, "type": "electric_scooter", "bike_id": "948384862f15fa43909c4bf43a642cd1", "name": "948384862f15fa43909c4bf43a642cd1"}, {"lon": -77.03349116666666, "is_disabled": 0, "lat": 38.93583183333333, "fusion_lat": 0.0, "is_reserved": 0, "rental_uris": {"ios": "https://dc.lft.to/lastmile_qr_scan", "android": "https://dc.lft.to/lastmile_qr_scan"}, "fusion_lon": 0.0, "type": "electric_scooter", "bike_id": "e8cc3d272fd817cdccd483e018b952ef", "name": "e8cc3d272fd817cdccd483e018b952ef"}, {"lon": -76.99904616666667, "is_disabled": 0, "lat": 38.9321095, "fusion_lat": 0.0, "is_reserved": 0, "rental_uris": {"ios": "https://dc.lft.to/lastmile_qr_scan", "android": "https://dc.lft.to/lastmile_qr_scan"}, "fusion_lon": 0.0, "type": "electric_scooter", "bike_id": "80adba2f660db0ca67aed95ecd383030", "name": "80adba2f660db0ca67aed95ecd383030"}, {"lon": -77.04670616666667, "is_disabled": 0, "lat": 38.895546, "fusion_lat": 0.0, "is_reserved": 0, "rental_uris": {"ios": "https://dc.lft.to/lastmile_qr_scan", "android": "https://dc.lft.to/lastmile_qr_scan"}, "fusion_lon": 0.0, "type": "electric_scooter", "bike_id": "c739e58a1c7bc5ff6126622ff7c1c3f1", "name": "c739e58a1c7bc5ff6126622ff7c1c3f1"}, {"lon": -77.032741, "is_disabled": 0, "lat": 38.9199685, "fusion_lat": 0.0, "is_reserved": 0, "rental_uris": {"ios": "https://dc.lft.to/lastmile_qr_scan", "android": "https://dc.lft.to/lastmile_qr_scan"}, "fusion_lon": 0.0, "type": "electric_scooter", "bike_id": "4e22654d69c5a0871da3b3f6b3d8c208", "name": "4e22654d69c5a0871da3b3f6b3d8c208"}, {"lon": -77.04505366666666, "is_disabled": 0, "lat": 38.899573333333336, "fusion_lat": 0.0, "is_reserved": 0, "rental_uris": {"ios": "https://dc.lft.to/lastmile_qr_scan", "android": "https://dc.lft.to/lastmile_qr_scan"}, "fusion_lon": 0.0, "type": "electric_scooter", "bike_id": "4f4045700808a8f23bc73e03fe153e4f", "name": "4f4045700808a8f23bc73e03fe153e4f"}, {"lon": -77.05339683333334, "is_disabled": 0, "lat": 39.040780833333336, "fusion_lat": 0.0, "is_reserved": 0, "rental_uris": {"ios": "https://dc.lft.to/lastmile_qr_scan", "android": "https://dc.lft.to/lastmile_qr_scan"}, "fusion_lon": 0.0, "type": "electric_bike", "bike_id": "130d13eee9eb279b7a93ac499e8bc415", "name": "130d13eee9eb279b7a93ac499e8bc415"}, {"lon": -76.99807483333333, "is_disabled": 0, "lat": 38.935002833333336, "fusion_lat": 0.0, "is_reserved": 0, "rental_uris": {"ios": "https://dc.lft.to/lastmile_qr_scan", "android": "https://dc.lft.to/lastmile_qr_scan"}, "fusion_lon": 0.0, "type": "electric_bike", "bike_id": "bf0aabf7c2783170a12202c43020b0a8", "name": "bf0aabf7c2783170a12202c43020b0a8"}, {"lon": -77.0246615, "is_disabled": 0, "lat": 38.93856383333333, "fusion_lat": 0.0, "is_reserved": 0, "rental_uris": {"ios": "https://dc.lft.to/lastmile_qr_scan", "android": "https://dc.lft.to/lastmile_qr_scan"}, "fusion_lon": 0.0, "type": "electric_scooter", "bike_id": "e5b2b33c422c4494955fad279f89d34a", "name": "e5b2b33c422c4494955fad279f89d34a"}, {"lon": -77.01488183333333, "is_disabled": 0, "lat": 38.892177833333335, "fusion_lat": 0.0, "is_reserved": 0, "rental_uris": {"ios": "https://dc.lft.to/lastmile_qr_scan", "android": "https://dc.lft.to/lastmile_qr_scan"}, "fusion_lon": 0.0, "type": "electric_scooter", "bike_id": "ec73014eea3d11409af653e84f0f0083", "name": "ec73014eea3d11409af653e84f0f0083"}, {"lon": -77.03809866666667, "is_disabled": 0, "lat": 38.90226, "fusion_lat": 0.0, "is_reserved": 0, "rental_uris": {"ios": "https://dc.lft.to/lastmile_qr_scan", "android": "https://dc.lft.to/lastmile_qr_scan"}, "fusion_lon": 0.0, "type": "electric_scooter", "bike_id": "97c4d0f372f0ec1098e62481dfb9c134", "name": "97c4d0f372f0ec1098e62481dfb9c134"}, {"lon": -77.03259933333334, "is_disabled": 0, "lat": 38.92963666666667, "fusion_lat": 0.0, "is_reserved": 0, "rental_uris": {"ios": "https://dc.lft.to/lastmile_qr_scan", "android": "https://dc.lft.to/lastmile_qr_scan"}, "fusion_lon": 0.0, "type": "electric_scooter", "bike_id": "fb93af894b69744a2d0c1ca2cc92faf6", "name": "fb93af894b69744a2d0c1ca2cc92faf6"}, {"lon": -77.03259233333333, "is_disabled": 0, "lat": 38.901309166666664, "fusion_lat": 0.0, "is_reserved": 0, "rental_uris": {"ios": "https://dc.lft.to/lastmile_qr_scan", "android": "https://dc.lft.to/lastmile_qr_scan"}, "fusion_lon": 0.0, "type": "electric_scooter", "bike_id": "deefac81fc28c3b7389efc28876372fe", "name": "deefac81fc28c3b7389efc28876372fe"}, {"lon": -77.03172033333334, "is_disabled": 0, "lat": 38.9141885, "fusion_lat": 0.0, "is_reserved": 0, "rental_uris": {"ios": "https://dc.lft.to/lastmile_qr_scan", "android": "https://dc.lft.to/lastmile_qr_scan"}, "fusion_lon": 0.0, "type": "electric_scooter", "bike_id": "1aa2f52aeab0f3743c16b45ab8bb19af", "name": "1aa2f52aeab0f3743c16b45ab8bb19af"}, {"lon": -77.08536016666666, "is_disabled": 0, "lat": 38.916023833333334, "fusion_lat": 0.0, "is_reserved": 0, "rental_uris": {"ios": "https://dc.lft.to/lastmile_qr_scan", "android": "https://dc.lft.to/lastmile_qr_scan"}, "fusion_lon": 0.0, "type": "electric_scooter", "bike_id": "4441827ce7cc7b25c05fcfd3d296739b", "name": "4441827ce7cc7b25c05fcfd3d296739b"}, {"lon": -77.0196665, "is_disabled": 0, "lat": 38.9525015, "fusion_lat": 0.0, "is_reserved": 0, "rental_uris": {"ios": "https://dc.lft.to/lastmile_qr_scan", "android": "https://dc.lft.to/lastmile_qr_scan"}, "fusion_lon": 0.0, "type": "electric_scooter", "bike_id": "ab903900b3525fa52168aa0de1f19fe3", "name": "ab903900b3525fa52168aa0de1f19fe3"}, {"lon": -76.97054983333334, "is_disabled": 0, "lat": 38.98458133333333, "fusion_lat": 0.0, "is_reserved": 0, "rental_uris": {"ios": "https://dc.lft.to/lastmile_qr_scan", "android": "https://dc.lft.to/lastmile_qr_scan"}, "fusion_lon": 0.0, "type": "electric_bike", "bike_id": "92615ad80e500664e4de534f29b14161", "name": "92615ad80e500664e4de534f29b14161"}, {"lon": -77.01977716666667, "is_disabled": 0, "lat": 38.89747066666666, "fusion_lat": 0.0, "is_reserved": 0, "rental_uris": {"ios": "https://dc.lft.to/lastmile_qr_scan", "android": "https://dc.lft.to/lastmile_qr_scan"}, "fusion_lon": 0.0, "type": "electric_scooter", "bike_id": "45c1da1c42d4ac7c80d3bed02a6be8bf", "name": "45c1da1c42d4ac7c80d3bed02a6be8bf"}, {"lon": -77.03663716666667, "is_disabled": 0, "lat": 38.9100495, "fusion_lat": 0.0, "is_reserved": 0, "rental_uris": {"ios": "https://dc.lft.to/lastmile_qr_scan", "android": "https://dc.lft.to/lastmile_qr_scan"}, "fusion_lon": 0.0, "type": "electric_scooter", "bike_id": "15c2194539a9f09d8cb15c14303c4ac5", "name": "15c2194539a9f09d8cb15c14303c4ac5"}, {"lon": -77.020115, "is_disabled": 0, "lat": 38.924588, "fusion_lat": 0.0, "is_reserved": 0, "rental_uris": {"ios": "https://dc.lft.to/lastmile_qr_scan", "android": "https://dc.lft.to/lastmile_qr_scan"}, "fusion_lon": 0.0, "type": "electric_scooter", "bike_id": "88688e192245095bf36674319c7796da", "name": "88688e192245095bf36674319c7796da"}, {"lon": -77.03511066666667, "is_disabled": 0, "lat": 38.93108333333333, "fusion_lat": 0.0, "is_reserved": 0, "rental_uris": {"ios": "https://dc.lft.to/lastmile_qr_scan", "android": "https://dc.lft.to/lastmile_qr_scan"}, "fusion_lon": 0.0, "type": "electric_scooter", "bike_id": "40b707d8adafbdb326f9b164f9f4817e", "name": "40b707d8adafbdb326f9b164f9f4817e"}, {"lon": -77.03588116666667, "is_disabled": 0, "lat": 38.90376116666667, "fusion_lat": 0.0, "is_reserved": 0, "rental_uris": {"ios": "https://dc.lft.to/lastmile_qr_scan", "android": "https://dc.lft.to/lastmile_qr_scan"}, "fusion_lon": 0.0, "type": "electric_scooter", "bike_id": "48eb46d6307603e4f4b97a9de0db4cad", "name": "48eb46d6307603e4f4b97a9de0db4cad"}, {"lon": -77.044926, "is_disabled": 0, "lat": 38.896197666666666, "fusion_lat": 0.0, "is_reserved": 0, "rental_uris": {"ios": "https://dc.lft.to/lastmile_qr_scan", "android": "https://dc.lft.to/lastmile_qr_scan"}, "fusion_lon": 0.0, "type": "electric_scooter", "bike_id": "ed537965905604b147bbbd1a149df066", "name": "ed537965905604b147bbbd1a149df066"}, {"lon": -77.03170366666667, "is_disabled": 0, "lat": 38.91415533333333, "fusion_lat": 0.0, "is_reserved": 0, "rental_uris": {"ios": "https://dc.lft.to/lastmile_qr_scan", "android": "https://dc.lft.to/lastmile_qr_scan"}, "fusion_lon": 0.0, "type": "electric_scooter", "bike_id": "39dd7ead6140b2e53e71bb5a7af2f3b9", "name": "39dd7ead6140b2e53e71bb5a7af2f3b9"}, {"lon": -77.03901966666666, "is_disabled": 0, "lat": 38.90653233333333, "fusion_lat": 0.0, "is_reserved": 0, "rental_uris": {"ios": "https://dc.lft.to/lastmile_qr_scan", "android": "https://dc.lft.to/lastmile_qr_scan"}, "fusion_lon": 0.0, "type": "electric_scooter", "bike_id": "1e12dea5fc0cc7611aa806d4fea2c170", "name": "1e12dea5fc0cc7611aa806d4fea2c170"}, {"lon": -77.03973333333333, "is_disabled": 0, "lat": 38.906008166666666, "fusion_lat": 0.0, "is_reserved": 0, "rental_uris": {"ios": "https://dc.lft.to/lastmile_qr_scan", "android": "https://dc.lft.to/lastmile_qr_scan"}, "fusion_lon": 0.0, "type": "electric_scooter", "bike_id": "d852c3ba0c28cd7c5f17281e158ab4f1", "name": "d852c3ba0c28cd7c5f17281e158ab4f1"}, {"lon": -77.0753605, "is_disabled": 0, "lat": 38.908798, "fusion_lat": 0.0, "is_reserved": 0, "rental_uris": {"ios": "https://dc.lft.to/lastmile_qr_scan", "android": "https://dc.lft.to/lastmile_qr_scan"}, "fusion_lon": 0.0, "type": "electric_scooter", "bike_id": "42f7cbf0a17519e968335393503b1afa", "name": "42f7cbf0a17519e968335393503b1afa"}, {"lon": -77.02842433333333, "is_disabled": 0, "lat": 38.9425875, "fusion_lat": 0.0, "is_reserved": 0, "rental_uris": {"ios": "https://dc.lft.to/lastmile_qr_scan", "android": "https://dc.lft.to/lastmile_qr_scan"}, "fusion_lon": 0.0, "type": "electric_scooter", "bike_id": "5293cf524e83fc34b71919a490ceae5d", "name": "5293cf524e83fc34b71919a490ceae5d"}, {"lon": -77.04229166666667, "is_disabled": 0, "lat": 38.91100616666667, "fusion_lat": 0.0, "is_reserved": 0, "rental_uris": {"ios": "https://dc.lft.to/lastmile_qr_scan", "android": "https://dc.lft.to/lastmile_qr_scan"}, "fusion_lon": 0.0, "type": "electric_scooter", "bike_id": "c701e0901099f8b7dae3cdbf54394646", "name": "c701e0901099f8b7dae3cdbf54394646"}, {"lon": -77.02942266666666, "is_disabled": 0, "lat": 38.8963275, "fusion_lat": 0.0, "is_reserved": 0, "rental_uris": {"ios": "https://dc.lft.to/lastmile_qr_scan", "android": "https://dc.lft.to/lastmile_qr_scan"}, "fusion_lon": 0.0, "type": "electric_scooter", "bike_id": "267353cc2f6ed0a06b6f2fef889541eb", "name": "267353cc2f6ed0a06b6f2fef889541eb"}, {"lon": -77.01193366666666, "is_disabled": 0, "lat": 38.89797566666667, "fusion_lat": 0.0, "is_reserved": 0, "rental_uris": {"ios": "https://dc.lft.to/lastmile_qr_scan", "android": "https://dc.lft.to/lastmile_qr_scan"}, "fusion_lon": 0.0, "type": "electric_scooter", "bike_id": "6faa678ece7400f7260e6ad4b978c560", "name": "6faa678ece7400f7260e6ad4b978c560"}, {"lon": -77.05031266666667, "is_disabled": 0, "lat": 38.923615166666664, "fusion_lat": 0.0, "is_reserved": 0, "rental_uris": {"ios": "https://dc.lft.to/lastmile_qr_scan", "android": "https://dc.lft.to/lastmile_qr_scan"}, "fusion_lon": 0.0, "type": "electric_scooter", "bike_id": "985a6846aa1ab3a62fdf9455d1fd3af6", "name": "985a6846aa1ab3a62fdf9455d1fd3af6"}, {"lon": -77.0315565, "is_disabled": 0, "lat": 38.897209333333336, "fusion_lat": 0.0, "is_reserved": 0, "rental_uris": {"ios": "https://dc.lft.to/lastmile_qr_scan", "android": "https://dc.lft.to/lastmile_qr_scan"}, "fusion_lon": 0.0, "type": "electric_scooter", "bike_id": "62e8cb84568fbbfff4aaec11b077ea48", "name": "62e8cb84568fbbfff4aaec11b077ea48"}, {"lon": -76.9900955, "is_disabled": 0, "lat": 38.86506933333333, "fusion_lat": 0.0, "is_reserved": 0, "rental_uris": {"ios": "https://dc.lft.to/lastmile_qr_scan", "android": "https://dc.lft.to/lastmile_qr_scan"}, "fusion_lon": 0.0, "type": "electric_scooter", "bike_id": "e1321f264aa463b0c98567757d5ebd1d", "name": "e1321f264aa463b0c98567757d5ebd1d"}, {"lon": -77.03220016666667, "is_disabled": 0, "lat": 38.892198, "fusion_lat": 0.0, "is_reserved": 0, "rental_uris": {"ios": "https://dc.lft.to/lastmile_qr_scan", "android": "https://dc.lft.to/lastmile_qr_scan"}, "fusion_lon": 0.0, "type": "electric_scooter", "bike_id": "9eccb69ed4f11578ff07970065ca1ec5", "name": "9eccb69ed4f11578ff07970065ca1ec5"}, {"lon": -77.00581066666666, "is_disabled": 0, "lat": 38.90519166666667, "fusion_lat": 0.0, "is_reserved": 0, "rental_uris": {"ios": "https://dc.lft.to/lastmile_qr_scan", "android": "https://dc.lft.to/lastmile_qr_scan"}, "fusion_lon": 0.0, "type": "electric_scooter", "bike_id": "c53370482193dd7ffdafbb3fbe8a9027", "name": "c53370482193dd7ffdafbb3fbe8a9027"}, {"lon": -77.02818416666666, "is_disabled": 0, "lat": 38.9088865, "fusion_lat": 0.0, "is_reserved": 0, "rental_uris": {"ios": "https://dc.lft.to/lastmile_qr_scan", "android": "https://dc.lft.to/lastmile_qr_scan"}, "fusion_lon": 0.0, "type": "electric_scooter", "bike_id": "f0c13f0864e43e28ad7f5a81f669168e", "name": "f0c13f0864e43e28ad7f5a81f669168e"}, {"lon": -77.030156, "is_disabled": 0, "lat": 38.934846666666665, "fusion_lat": 0.0, "is_reserved": 0, "rental_uris": {"ios": "https://dc.lft.to/lastmile_qr_scan", "android": "https://dc.lft.to/lastmile_qr_scan"}, "fusion_lon": 0.0, "type": "electric_scooter", "bike_id": "f288e34c0ea798d20f741e6d2eac1e54", "name": "f288e34c0ea798d20f741e6d2eac1e54"}, {"lon": -77.03144566666667, "is_disabled": 0, "lat": 38.911186, "fusion_lat": 0.0, "is_reserved": 0, "rental_uris": {"ios": "https://dc.lft.to/lastmile_qr_scan", "android": "https://dc.lft.to/lastmile_qr_scan"}, "fusion_lon": 0.0, "type": "electric_scooter", "bike_id": "477368a83793d8b2e731a65c09c2e44b", "name": "477368a83793d8b2e731a65c09c2e44b"}, {"lon": -77.05613183333334, "is_disabled": 0, "lat": 38.93176233333333, "fusion_lat": 0.0, "is_reserved": 0, "rental_uris": {"ios": "https://dc.lft.to/lastmile_qr_scan", "android": "https://dc.lft.to/lastmile_qr_scan"}, "fusion_lon": 0.0, "type": "electric_scooter", "bike_id": "352165ae8d124765a234e063155f4908", "name": "352165ae8d124765a234e063155f4908"}, {"lon": -77.03323416666667, "is_disabled": 0, "lat": 38.89886516666667, "fusion_lat": 0.0, "is_reserved": 0, "rental_uris": {"ios": "https://dc.lft.to/lastmile_qr_scan", "android": "https://dc.lft.to/lastmile_qr_scan"}, "fusion_lon": 0.0, "type": "electric_scooter", "bike_id": "2806ae49e44b80b94a35cc7d7c8bc0ef", "name": "2806ae49e44b80b94a35cc7d7c8bc0ef"}, {"lon": -77.04486216666666, "is_disabled": 0, "lat": 38.91179, "fusion_lat": 0.0, "is_reserved": 0, "rental_uris": {"ios": "https://dc.lft.to/lastmile_qr_scan", "android": "https://dc.lft.to/lastmile_qr_scan"}, "fusion_lon": 0.0, "type": "electric_scooter", "bike_id": "8f23f30985f7bca624e62e9c2989306e", "name": "8f23f30985f7bca624e62e9c2989306e"}, {"lon": -76.99722833333334, "is_disabled": 0, "lat": 38.9102085, "fusion_lat": 0.0, "is_reserved": 0, "rental_uris": {"ios": "https://dc.lft.to/lastmile_qr_scan", "android": "https://dc.lft.to/lastmile_qr_scan"}, "fusion_lon": 0.0, "type": "electric_scooter", "bike_id": "523b98325cc16f08c6a81c036a251ab0", "name": "523b98325cc16f08c6a81c036a251ab0"}, {"lon": -77.04230033333333, "is_disabled": 0, "lat": 38.920589, "fusion_lat": 0.0, "is_reserved": 0, "rental_uris": {"ios": "https://dc.lft.to/lastmile_qr_scan", "android": "https://dc.lft.to/lastmile_qr_scan"}, "fusion_lon": 0.0, "type": "electric_scooter", "bike_id": "3d5403b47fb3f4b35e20f6e0ed06091d", "name": "3d5403b47fb3f4b35e20f6e0ed06091d"}, {"lon": -77.02217266666666, "is_disabled": 0, "lat": 38.9246685, "fusion_lat": 0.0, "is_reserved": 0, "rental_uris": {"ios": "https://dc.lft.to/lastmile_qr_scan", "android": "https://dc.lft.to/lastmile_qr_scan"}, "fusion_lon": 0.0, "type": "electric_scooter", "bike_id": "a3a47cd4e2e085fdf9af9f74faff29fb", "name": "a3a47cd4e2e085fdf9af9f74faff29fb"}, {"lon": -77.06397716666666, "is_disabled": 0, "lat": 38.94413016666667, "fusion_lat": 0.0, "is_reserved": 0, "rental_uris": {"ios": "https://dc.lft.to/lastmile_qr_scan", "android": "https://dc.lft.to/lastmile_qr_scan"}, "fusion_lon": 0.0, "type": "electric_scooter", "bike_id": "f2cc54c6ae554c55ecd1c68e82e5e29e", "name": "f2cc54c6ae554c55ecd1c68e82e5e29e"}, {"lon": -77.02285466666666, "is_disabled": 0, "lat": 38.89498366666667, "fusion_lat": 0.0, "is_reserved": 0, "rental_uris": {"ios": "https://dc.lft.to/lastmile_qr_scan", "android": "https://dc.lft.to/lastmile_qr_scan"}, "fusion_lon": 0.0, "type": "electric_scooter", "bike_id": "558f62e4fd512ea7d1cc82787c0d83ef", "name": "558f62e4fd512ea7d1cc82787c0d83ef"}, {"lon": -77.00385433333334, "is_disabled": 0, "lat": 38.89543966666667, "fusion_lat": 0.0, "is_reserved": 0, "rental_uris": {"ios": "https://dc.lft.to/lastmile_qr_scan", "android": "https://dc.lft.to/lastmile_qr_scan"}, "fusion_lon": 0.0, "type": "electric_scooter", "bike_id": "fc00380110a877cf92be983a51de7f30", "name": "fc00380110a877cf92be983a51de7f30"}, {"lon": -76.982499, "is_disabled": 0, "lat": 38.89541766666667, "fusion_lat": 0.0, "is_reserved": 0, "rental_uris": {"ios": "https://dc.lft.to/lastmile_qr_scan", "android": "https://dc.lft.to/lastmile_qr_scan"}, "fusion_lon": 0.0, "type": "electric_scooter", "bike_id": "fb490a333b55e411b03cf71022fb9e23", "name": "fb490a333b55e411b03cf71022fb9e23"}, {"lon": -77.01192666666667, "is_disabled": 0, "lat": 38.9169505, "fusion_lat": 0.0, "is_reserved": 0, "rental_uris": {"ios": "https://dc.lft.to/lastmile_qr_scan", "android": "https://dc.lft.to/lastmile_qr_scan"}, "fusion_lon": 0.0, "type": "electric_scooter", "bike_id": "229565684e406fd97f95bade6e4e85a1", "name": "229565684e406fd97f95bade6e4e85a1"}, {"lon": -77.02974783333333, "is_disabled": 0, "lat": 38.9023075, "fusion_lat": 0.0, "is_reserved": 0, "rental_uris": {"ios": "https://dc.lft.to/lastmile_qr_scan", "android": "https://dc.lft.to/lastmile_qr_scan"}, "fusion_lon": 0.0, "type": "electric_scooter", "bike_id": "1712a4e25f8062c210b8eed61ae817a0", "name": "1712a4e25f8062c210b8eed61ae817a0"}, {"lon": -77.02618866666667, "is_disabled": 0, "lat": 38.904763833333334, "fusion_lat": 0.0, "is_reserved": 0, "rental_uris": {"ios": "https://dc.lft.to/lastmile_qr_scan", "android": "https://dc.lft.to/lastmile_qr_scan"}, "fusion_lon": 0.0, "type": "electric_scooter", "bike_id": "212020746a532fba701e58753d55aa01", "name": "212020746a532fba701e58753d55aa01"}, {"lon": -77.027118, "is_disabled": 0, "lat": 38.900718833333336, "fusion_lat": 0.0, "is_reserved": 0, "rental_uris": {"ios": "https://dc.lft.to/lastmile_qr_scan", "android": "https://dc.lft.to/lastmile_qr_scan"}, "fusion_lon": 0.0, "type": "electric_scooter", "bike_id": "6d6143d620e117dd9577738895729fbb", "name": "6d6143d620e117dd9577738895729fbb"}, {"lon": -77.0195305, "is_disabled": 0, "lat": 38.92365733333333, "fusion_lat": 0.0, "is_reserved": 0, "rental_uris": {"ios": "https://dc.lft.to/lastmile_qr_scan", "android": "https://dc.lft.to/lastmile_qr_scan"}, "fusion_lon": 0.0, "type": "electric_scooter", "bike_id": "7d43a72d4e2086839543475f3e014cfe", "name": "7d43a72d4e2086839543475f3e014cfe"}, {"lon": -77.02459983333334, "is_disabled": 0, "lat": 38.9171035, "fusion_lat": 0.0, "is_reserved": 0, "rental_uris": {"ios": "https://dc.lft.to/lastmile_qr_scan", "android": "https://dc.lft.to/lastmile_qr_scan"}, "fusion_lon": 0.0, "type": "electric_scooter", "bike_id": "1db1a0bb76ed4e6c346a4689310072a2", "name": "1db1a0bb76ed4e6c346a4689310072a2"}, {"lon": -77.01942733333334, "is_disabled": 0, "lat": 38.92251316666667, "fusion_lat": 0.0, "is_reserved": 0, "rental_uris": {"ios": "https://dc.lft.to/lastmile_qr_scan", "android": "https://dc.lft.to/lastmile_qr_scan"}, "fusion_lon": 0.0, "type": "electric_scooter", "bike_id": "a9aa9ab252d5ab3e244367e5ce32fbfb", "name": "a9aa9ab252d5ab3e244367e5ce32fbfb"}, {"lon": -77.00044866666667, "is_disabled": 0, "lat": 38.87385366666667, "fusion_lat": 0.0, "is_reserved": 0, "rental_uris": {"ios": "https://dc.lft.to/lastmile_qr_scan", "android": "https://dc.lft.to/lastmile_qr_scan"}, "fusion_lon": 0.0, "type": "electric_scooter", "bike_id": "7677676b03aeeb8f5b671e0f0dceb08e", "name": "7677676b03aeeb8f5b671e0f0dceb08e"}, {"lon": -77.02229066666666, "is_disabled": 0, "lat": 38.911005833333334, "fusion_lat": 0.0, "is_reserved": 0, "rental_uris": {"ios": "https://dc.lft.to/lastmile_qr_scan", "android": "https://dc.lft.to/lastmile_qr_scan"}, "fusion_lon": 0.0, "type": "electric_scooter", "bike_id": "e23dda2f64237e3152cbf485b3b8121b", "name": "e23dda2f64237e3152cbf485b3b8121b"}, {"lon": -77.020661, "is_disabled": 0, "lat": 38.903421, "fusion_lat": 0.0, "is_reserved": 0, "rental_uris": {"ios": "https://dc.lft.to/lastmile_qr_scan", "android": "https://dc.lft.to/lastmile_qr_scan"}, "fusion_lon": 0.0, "type": "electric_scooter", "bike_id": "bcda3bd144c87e83bbfeef5c1fe0f13d", "name": "bcda3bd144c87e83bbfeef5c1fe0f13d"}, {"lon": -77.018599, "is_disabled": 0, "lat": 38.902522833333336, "fusion_lat": 0.0, "is_reserved": 0, "rental_uris": {"ios": "https://dc.lft.to/lastmile_qr_scan", "android": "https://dc.lft.to/lastmile_qr_scan"}, "fusion_lon": 0.0, "type": "electric_scooter", "bike_id": "556a06e8430d7968b889368823f644d0", "name": "556a06e8430d7968b889368823f644d0"}, {"lon": -77.00568583333333, "is_disabled": 0, "lat": 38.9058455, "fusion_lat": 0.0, "is_reserved": 0, "rental_uris": {"ios": "https://dc.lft.to/lastmile_qr_scan", "android": "https://dc.lft.to/lastmile_qr_scan"}, "fusion_lon": 0.0, "type": "electric_scooter", "bike_id": "0ad159bc0876b1482c2a90431122a521", "name": "0ad159bc0876b1482c2a90431122a521"}, {"lon": -77.01851266666667, "is_disabled": 0, "lat": 38.973718166666664, "fusion_lat": 0.0, "is_reserved": 0, "rental_uris": {"ios": "https://dc.lft.to/lastmile_qr_scan", "android": "https://dc.lft.to/lastmile_qr_scan"}, "fusion_lon": 0.0, "type": "electric_scooter", "bike_id": "636631d27266bb726ce4f0278e7cee91", "name": "636631d27266bb726ce4f0278e7cee91"}, {"lon": -77.03363983333334, "is_disabled": 0, "lat": 38.9205725, "fusion_lat": 0.0, "is_reserved": 0, "rental_uris": {"ios": "https://dc.lft.to/lastmile_qr_scan", "android": "https://dc.lft.to/lastmile_qr_scan"}, "fusion_lon": 0.0, "type": "electric_scooter", "bike_id": "703bb896602f6f8ca081980609c09940", "name": "703bb896602f6f8ca081980609c09940"}, {"lon": -76.92655866666666, "is_disabled": 0, "lat": 38.901691166666666, "fusion_lat": 0.0, "is_reserved": 0, "rental_uris": {"ios": "https://dc.lft.to/lastmile_qr_scan", "android": "https://dc.lft.to/lastmile_qr_scan"}, "fusion_lon": 0.0, "type": "electric_scooter", "bike_id": "59d0f6e90a8b1ee0e6d6ed6726a50652", "name": "59d0f6e90a8b1ee0e6d6ed6726a50652"}, {"lon": -77.0278735, "is_disabled": 0, "lat": 38.899287666666666, "fusion_lat": 0.0, "is_reserved": 0, "rental_uris": {"ios": "https://dc.lft.to/lastmile_qr_scan", "android": "https://dc.lft.to/lastmile_qr_scan"}, "fusion_lon": 0.0, "type": "electric_scooter", "bike_id": "0ef7a5312d83ddf6a9199673301db910", "name": "0ef7a5312d83ddf6a9199673301db910"}, {"lon": -77.03502833333333, "is_disabled": 0, "lat": 38.92149583333333, "fusion_lat": 0.0, "is_reserved": 0, "rental_uris": {"ios": "https://dc.lft.to/lastmile_qr_scan", "android": "https://dc.lft.to/lastmile_qr_scan"}, "fusion_lon": 0.0, "type": "electric_scooter", "bike_id": "3f42c8b2957b1d1fe490d484e0c9b209", "name": "3f42c8b2957b1d1fe490d484e0c9b209"}, {"lon": -77.03205183333333, "is_disabled": 0, "lat": 38.884678, "fusion_lat": 0.0, "is_reserved": 0, "rental_uris": {"ios": "https://dc.lft.to/lastmile_qr_scan", "android": "https://dc.lft.to/lastmile_qr_scan"}, "fusion_lon": 0.0, "type": "electric_scooter", "bike_id": "c64c442088449e3e5aea209bbd556827", "name": "c64c442088449e3e5aea209bbd556827"}, {"lon": -77.02230266666666, "is_disabled": 0, "lat": 38.88023883333334, "fusion_lat": 0.0, "is_reserved": 0, "rental_uris": {"ios": "https://dc.lft.to/lastmile_qr_scan", "android": "https://dc.lft.to/lastmile_qr_scan"}, "fusion_lon": 0.0, "type": "electric_scooter", "bike_id": "289b22194ade6b273d133fe27515eb96", "name": "289b22194ade6b273d133fe27515eb96"}, {"lon": -77.049885, "is_disabled": 0, "lat": 38.89835216666667, "fusion_lat": 0.0, "is_reserved": 0, "rental_uris": {"ios": "https://dc.lft.to/lastmile_qr_scan", "android": "https://dc.lft.to/lastmile_qr_scan"}, "fusion_lon": 0.0, "type": "electric_scooter", "bike_id": "aa87697f448d4291110681d1e8a53bfa", "name": "aa87697f448d4291110681d1e8a53bfa"}, {"lon": -77.0125685, "is_disabled": 0, "lat": 38.908467, "fusion_lat": 0.0, "is_reserved": 0, "rental_uris": {"ios": "https://dc.lft.to/lastmile_qr_scan", "android": "https://dc.lft.to/lastmile_qr_scan"}, "fusion_lon": 0.0, "type": "electric_scooter", "bike_id": "fd48d42613e38c2d3c700bbbbb6fcd29", "name": "fd48d42613e38c2d3c700bbbbb6fcd29"}, {"lon": -77.02481383333334, "is_disabled": 0, "lat": 38.93876683333333, "fusion_lat": 0.0, "is_reserved": 0, "rental_uris": {"ios": "https://dc.lft.to/lastmile_qr_scan", "android": "https://dc.lft.to/lastmile_qr_scan"}, "fusion_lon": 0.0, "type": "electric_scooter", "bike_id": "28cecd2a6c913c9be56f90576e1599b2", "name": "28cecd2a6c913c9be56f90576e1599b2"}, {"lon": -77.032866, "is_disabled": 0, "lat": 38.90959633333333, "fusion_lat": 0.0, "is_reserved": 0, "rental_uris": {"ios": "https://dc.lft.to/lastmile_qr_scan", "android": "https://dc.lft.to/lastmile_qr_scan"}, "fusion_lon": 0.0, "type": "electric_scooter", "bike_id": "30630455a25cc05fa62808b5bd39d046", "name": "30630455a25cc05fa62808b5bd39d046"}, {"lon": -77.019641, "is_disabled": 0, "lat": 38.924200666666664, "fusion_lat": 0.0, "is_reserved": 0, "rental_uris": {"ios": "https://dc.lft.to/lastmile_qr_scan", "android": "https://dc.lft.to/lastmile_qr_scan"}, "fusion_lon": 0.0, "type": "electric_scooter", "bike_id": "541eafc50ffbc345bd4f67397bd356cb", "name": "541eafc50ffbc345bd4f67397bd356cb"}, {"lon": -76.97629216666667, "is_disabled": 0, "lat": 38.901551166666664, "fusion_lat": 0.0, "is_reserved": 0, "rental_uris": {"ios": "https://dc.lft.to/lastmile_qr_scan", "android": "https://dc.lft.to/lastmile_qr_scan"}, "fusion_lon": 0.0, "type": "electric_scooter", "bike_id": "6094d5b8b7385c9508ba5e99ffee0271", "name": "6094d5b8b7385c9508ba5e99ffee0271"}, {"lon": -77.04404383333333, "is_disabled": 0, "lat": 38.9111665, "fusion_lat": 0.0, "is_reserved": 0, "rental_uris": {"ios": "https://dc.lft.to/lastmile_qr_scan", "android": "https://dc.lft.to/lastmile_qr_scan"}, "fusion_lon": 0.0, "type": "electric_scooter", "bike_id": "d85e58e485fa732f95cc69db485ca415", "name": "d85e58e485fa732f95cc69db485ca415"}, {"lon": -77.007265, "is_disabled": 0, "lat": 38.884922, "fusion_lat": 0.0, "is_reserved": 0, "rental_uris": {"ios": "https://dc.lft.to/lastmile_qr_scan", "android": "https://dc.lft.to/lastmile_qr_scan"}, "fusion_lon": 0.0, "type": "electric_scooter", "bike_id": "1921827b3ebc9d94a6a966ad8f08b22c", "name": "1921827b3ebc9d94a6a966ad8f08b22c"}, {"lon": -76.969045, "is_disabled": 0, "lat": 38.872967333333335, "fusion_lat": 0.0, "is_reserved": 0, "rental_uris": {"ios": "https://dc.lft.to/lastmile_qr_scan", "android": "https://dc.lft.to/lastmile_qr_scan"}, "fusion_lon": 0.0, "type": "electric_scooter", "bike_id": "999b25ca89281e80009bcc9425ff5d84", "name": "999b25ca89281e80009bcc9425ff5d84"}, {"lon": -77.04654233333333, "is_disabled": 0, "lat": 38.898277666666665, "fusion_lat": 0.0, "is_reserved": 0, "rental_uris": {"ios": "https://dc.lft.to/lastmile_qr_scan", "android": "https://dc.lft.to/lastmile_qr_scan"}, "fusion_lon": 0.0, "type": "electric_scooter", "bike_id": "cc6c196ce131e0c45483b67ef9709818", "name": "cc6c196ce131e0c45483b67ef9709818"}, {"lon": -77.04108383333333, "is_disabled": 0, "lat": 38.908732, "fusion_lat": 0.0, "is_reserved": 0, "rental_uris": {"ios": "https://dc.lft.to/lastmile_qr_scan", "android": "https://dc.lft.to/lastmile_qr_scan"}, "fusion_lon": 0.0, "type": "electric_scooter", "bike_id": "f4c31ff4c6c6a034b36dcb8de01b2d5d", "name": "f4c31ff4c6c6a034b36dcb8de01b2d5d"}, {"lon": -77.0449385, "is_disabled": 0, "lat": 38.89821883333333, "fusion_lat": 0.0, "is_reserved": 0, "rental_uris": {"ios": "https://dc.lft.to/lastmile_qr_scan", "android": "https://dc.lft.to/lastmile_qr_scan"}, "fusion_lon": 0.0, "type": "electric_scooter", "bike_id": "d36a57ee162501737d33be67b87ade81", "name": "d36a57ee162501737d33be67b87ade81"}, {"lon": -77.02284233333333, "is_disabled": 0, "lat": 38.89511233333333, "fusion_lat": 0.0, "is_reserved": 0, "rental_uris": {"ios": "https://dc.lft.to/lastmile_qr_scan", "android": "https://dc.lft.to/lastmile_qr_scan"}, "fusion_lon": 0.0, "type": "electric_scooter", "bike_id": "987ee6ed5bdedb45d5a9f44967ef97e7", "name": "987ee6ed5bdedb45d5a9f44967ef97e7"}, {"lon": -77.04206066666667, "is_disabled": 0, "lat": 38.9203675, "fusion_lat": 0.0, "is_reserved": 0, "rental_uris": {"ios": "https://dc.lft.to/lastmile_qr_scan", "android": "https://dc.lft.to/lastmile_qr_scan"}, "fusion_lon": 0.0, "type": "electric_scooter", "bike_id": "2c873912a41845b74e18df6d05bc82fb", "name": "2c873912a41845b74e18df6d05bc82fb"}, {"lon": -77.0616435, "is_disabled": 0, "lat": 38.905285666666664, "fusion_lat": 0.0, "is_reserved": 0, "rental_uris": {"ios": "https://dc.lft.to/lastmile_qr_scan", "android": "https://dc.lft.to/lastmile_qr_scan"}, "fusion_lon": 0.0, "type": "electric_scooter", "bike_id": "d93376f89eaaf14aa96052ce0cfb98e3", "name": "d93376f89eaaf14aa96052ce0cfb98e3"}, {"lon": -76.97972116666666, "is_disabled": 0, "lat": 38.953693666666666, "fusion_lat": 0.0, "is_reserved": 0, "rental_uris": {"ios": "https://dc.lft.to/lastmile_qr_scan", "android": "https://dc.lft.to/lastmile_qr_scan"}, "fusion_lon": 0.0, "type": "electric_bike", "bike_id": "ae4fd3c878c91fec86295b7e5ff5f1bc", "name": "ae4fd3c878c91fec86295b7e5ff5f1bc"}, {"lon": -77.01761566666667, "is_disabled": 0, "lat": 38.877054, "fusion_lat": 0.0, "is_reserved": 0, "rental_uris": {"ios": "https://dc.lft.to/lastmile_qr_scan", "android": "https://dc.lft.to/lastmile_qr_scan"}, "fusion_lon": 0.0, "type": "electric_scooter", "bike_id": "811cb0f169fa5548f4d91edf586639a6", "name": "811cb0f169fa5548f4d91edf586639a6"}, {"lon": -77.02105766666666, "is_disabled": 0, "lat": 38.921730333333336, "fusion_lat": 0.0, "is_reserved": 0, "rental_uris": {"ios": "https://dc.lft.to/lastmile_qr_scan", "android": "https://dc.lft.to/lastmile_qr_scan"}, "fusion_lon": 0.0, "type": "electric_scooter", "bike_id": "31de20ed30e1aced1ba2ea126f985628", "name": "31de20ed30e1aced1ba2ea126f985628"}, {"lon": -77.04065733333333, "is_disabled": 0, "lat": 38.919315, "fusion_lat": 0.0, "is_reserved": 0, "rental_uris": {"ios": "https://dc.lft.to/lastmile_qr_scan", "android": "https://dc.lft.to/lastmile_qr_scan"}, "fusion_lon": 0.0, "type": "electric_scooter", "bike_id": "e6145a6c7794c65e1fac39e9170f5d17", "name": "e6145a6c7794c65e1fac39e9170f5d17"}, {"lon": -77.03212683333334, "is_disabled": 0, "lat": 38.91902916666667, "fusion_lat": 0.0, "is_reserved": 0, "rental_uris": {"ios": "https://dc.lft.to/lastmile_qr_scan", "android": "https://dc.lft.to/lastmile_qr_scan"}, "fusion_lon": 0.0, "type": "electric_scooter", "bike_id": "5f3403b14c56da94d88fb9d19bf85763", "name": "5f3403b14c56da94d88fb9d19bf85763"}, {"lon": -77.07059216666667, "is_disabled": 0, "lat": 38.9010575, "fusion_lat": 0.0, "is_reserved": 0, "rental_uris": {"ios": "https://dc.lft.to/lastmile_qr_scan", "android": "https://dc.lft.to/lastmile_qr_scan"}, "fusion_lon": 0.0, "type": "electric_scooter", "bike_id": "2c1145f7f4fba3f813f643e4c1bbd7b7", "name": "2c1145f7f4fba3f813f643e4c1bbd7b7"}, {"lon": -77.03370483333333, "is_disabled": 0, "lat": 38.90299916666667, "fusion_lat": 0.0, "is_reserved": 0, "rental_uris": {"ios": "https://dc.lft.to/lastmile_qr_scan", "android": "https://dc.lft.to/lastmile_qr_scan"}, "fusion_lon": 0.0, "type": "electric_scooter", "bike_id": "30c99aa16ffab8ef4028b45395a23607", "name": "30c99aa16ffab8ef4028b45395a23607"}, {"lon": -77.03634183333334, "is_disabled": 0, "lat": 38.9269835, "fusion_lat": 0.0, "is_reserved": 0, "rental_uris": {"ios": "https://dc.lft.to/lastmile_qr_scan", "android": "https://dc.lft.to/lastmile_qr_scan"}, "fusion_lon": 0.0, "type": "electric_scooter", "bike_id": "2f393b061037c6809174ec40a74b0cd3", "name": "2f393b061037c6809174ec40a74b0cd3"}, {"lon": -76.94637066666667, "is_disabled": 0, "lat": 38.89858, "fusion_lat": 0.0, "is_reserved": 0, "rental_uris": {"ios": "https://dc.lft.to/lastmile_qr_scan", "android": "https://dc.lft.to/lastmile_qr_scan"}, "fusion_lon": 0.0, "type": "electric_scooter", "bike_id": "677262e651091d1c0ba00a551d3c8168", "name": "677262e651091d1c0ba00a551d3c8168"}, {"lon": -77.03905933333333, "is_disabled": 0, "lat": 38.923636333333334, "fusion_lat": 0.0, "is_reserved": 0, "rental_uris": {"ios": "https://dc.lft.to/lastmile_qr_scan", "android": "https://dc.lft.to/lastmile_qr_scan"}, "fusion_lon": 0.0, "type": "electric_scooter", "bike_id": "83b0b7d0ab7354a34727917a353ee14e", "name": "83b0b7d0ab7354a34727917a353ee14e"}, {"lon": -77.05026466666666, "is_disabled": 0, "lat": 38.89247016666667, "fusion_lat": 0.0, "is_reserved": 0, "rental_uris": {"ios": "https://dc.lft.to/lastmile_qr_scan", "android": "https://dc.lft.to/lastmile_qr_scan"}, "fusion_lon": 0.0, "type": "electric_scooter", "bike_id": "7f7ea21a8abd9413dd8fdbbaa7547f08", "name": "7f7ea21a8abd9413dd8fdbbaa7547f08"}, {"lon": -77.02000133333334, "is_disabled": 0, "lat": 38.895470833333334, "fusion_lat": 0.0, "is_reserved": 0, "rental_uris": {"ios": "https://dc.lft.to/lastmile_qr_scan", "android": "https://dc.lft.to/lastmile_qr_scan"}, "fusion_lon": 0.0, "type": "electric_scooter", "bike_id": "303c4b73e26768100d1002d038fc83ac", "name": "303c4b73e26768100d1002d038fc83ac"}, {"lon": -77.044832, "is_disabled": 0, "lat": 38.8951805, "fusion_lat": 0.0, "is_reserved": 0, "rental_uris": {"ios": "https://dc.lft.to/lastmile_qr_scan", "android": "https://dc.lft.to/lastmile_qr_scan"}, "fusion_lon": 0.0, "type": "electric_scooter", "bike_id": "ad37e23c22143b8a075f620282742903", "name": "ad37e23c22143b8a075f620282742903"}, {"lon": -77.0398335, "is_disabled": 0, "lat": 38.892239333333336, "fusion_lat": 0.0, "is_reserved": 0, "rental_uris": {"ios": "https://dc.lft.to/lastmile_qr_scan", "android": "https://dc.lft.to/lastmile_qr_scan"}, "fusion_lon": 0.0, "type": "electric_scooter", "bike_id": "cd1a37138e484b036bfe19507d2706ab", "name": "cd1a37138e484b036bfe19507d2706ab"}, {"lon": -77.00337916666666, "is_disabled": 0, "lat": 38.893553, "fusion_lat": 0.0, "is_reserved": 0, "rental_uris": {"ios": "https://dc.lft.to/lastmile_qr_scan", "android": "https://dc.lft.to/lastmile_qr_scan"}, "fusion_lon": 0.0, "type": "electric_scooter", "bike_id": "9f0bdba94ddc897b02f0b0fb54476b7c", "name": "9f0bdba94ddc897b02f0b0fb54476b7c"}, {"lon": -77.0436925, "is_disabled": 0, "lat": 38.892191, "fusion_lat": 0.0, "is_reserved": 0, "rental_uris": {"ios": "https://dc.lft.to/lastmile_qr_scan", "android": "https://dc.lft.to/lastmile_qr_scan"}, "fusion_lon": 0.0, "type": "electric_scooter", "bike_id": "b30486c718742738b37c0aa546ea228e", "name": "b30486c718742738b37c0aa546ea228e"}, {"lon": -77.02196216666667, "is_disabled": 0, "lat": 38.950090833333334, "fusion_lat": 0.0, "is_reserved": 0, "rental_uris": {"ios": "https://dc.lft.to/lastmile_qr_scan", "android": "https://dc.lft.to/lastmile_qr_scan"}, "fusion_lon": 0.0, "type": "electric_scooter", "bike_id": "9c54465d1f2c3d6826738f34f65aa69a", "name": "9c54465d1f2c3d6826738f34f65aa69a"}, {"lon": -76.97908133333334, "is_disabled": 0, "lat": 38.904247166666664, "fusion_lat": 0.0, "is_reserved": 0, "rental_uris": {"ios": "https://dc.lft.to/lastmile_qr_scan", "android": "https://dc.lft.to/lastmile_qr_scan"}, "fusion_lon": 0.0, "type": "electric_scooter", "bike_id": "94d4cf767380bf9190ff8328fc04d01f", "name": "94d4cf767380bf9190ff8328fc04d01f"}, {"lon": -77.22926283333334, "is_disabled": 0, "lat": 38.9319285, "fusion_lat": 0.0, "is_reserved": 0, "rental_uris": {"ios": "https://dc.lft.to/lastmile_qr_scan", "android": "https://dc.lft.to/lastmile_qr_scan"}, "fusion_lon": 0.0, "type": "electric_bike", "bike_id": "9f9a87d49ea7b459724287a0c3864347", "name": "9f9a87d49ea7b459724287a0c3864347"}, {"lon": -77.02683216666667, "is_disabled": 0, "lat": 38.95505433333334, "fusion_lat": 0.0, "is_reserved": 0, "rental_uris": {"ios": "https://dc.lft.to/lastmile_qr_scan", "android": "https://dc.lft.to/lastmile_qr_scan"}, "fusion_lon": 0.0, "type": "electric_scooter", "bike_id": "daef671692e7670e43a8525587223984", "name": "daef671692e7670e43a8525587223984"}, {"lon": -77.02727683333333, "is_disabled": 0, "lat": 38.89841333333333, "fusion_lat": 0.0, "is_reserved": 0, "rental_uris": {"ios": "https://dc.lft.to/lastmile_qr_scan", "android": "https://dc.lft.to/lastmile_qr_scan"}, "fusion_lon": 0.0, "type": "electric_scooter", "bike_id": "6e51ff0efbfdb70c670cb47b764fa168", "name": "6e51ff0efbfdb70c670cb47b764fa168"}, {"lon": -76.99009266666667, "is_disabled": 0, "lat": 38.8650365, "fusion_lat": 0.0, "is_reserved": 0, "rental_uris": {"ios": "https://dc.lft.to/lastmile_qr_scan", "android": "https://dc.lft.to/lastmile_qr_scan"}, "fusion_lon": 0.0, "type": "electric_scooter", "bike_id": "7036fd2cfc57dadb0d495545fa3c2cef", "name": "7036fd2cfc57dadb0d495545fa3c2cef"}, {"lon": -77.02024833333333, "is_disabled": 0, "lat": 38.92157483333333, "fusion_lat": 0.0, "is_reserved": 0, "rental_uris": {"ios": "https://dc.lft.to/lastmile_qr_scan", "android": "https://dc.lft.to/lastmile_qr_scan"}, "fusion_lon": 0.0, "type": "electric_scooter", "bike_id": "fb9048f72bb5612ded6a752ce8716aba", "name": "fb9048f72bb5612ded6a752ce8716aba"}, {"lon": -77.04485366666667, "is_disabled": 0, "lat": 38.90020616666666, "fusion_lat": 0.0, "is_reserved": 0, "rental_uris": {"ios": "https://dc.lft.to/lastmile_qr_scan", "android": "https://dc.lft.to/lastmile_qr_scan"}, "fusion_lon": 0.0, "type": "electric_scooter", "bike_id": "3d769e1c66fa15f01f737adb98cc2d2c", "name": "3d769e1c66fa15f01f737adb98cc2d2c"}, {"lon": -77.02611516666667, "is_disabled": 0, "lat": 38.9141555, "fusion_lat": 0.0, "is_reserved": 0, "rental_uris": {"ios": "https://dc.lft.to/lastmile_qr_scan", "android": "https://dc.lft.to/lastmile_qr_scan"}, "fusion_lon": 0.0, "type": "electric_scooter", "bike_id": "571a228c18b0fee5f5d4cc4290a9ec5e", "name": "571a228c18b0fee5f5d4cc4290a9ec5e"}, {"lon": -77.01636183333333, "is_disabled": 0, "lat": 38.900389, "fusion_lat": 0.0, "is_reserved": 0, "rental_uris": {"ios": "https://dc.lft.to/lastmile_qr_scan", "android": "https://dc.lft.to/lastmile_qr_scan"}, "fusion_lon": 0.0, "type": "electric_scooter", "bike_id": "397178a43742a001183e109f9063c116", "name": "397178a43742a001183e109f9063c116"}, {"lon": -77.03635266666667, "is_disabled": 0, "lat": 38.93056416666667, "fusion_lat": 0.0, "is_reserved": 0, "rental_uris": {"ios": "https://dc.lft.to/lastmile_qr_scan", "android": "https://dc.lft.to/lastmile_qr_scan"}, "fusion_lon": 0.0, "type": "electric_scooter", "bike_id": "8fb7e0c533a16821bb3d61e68e5ae4af", "name": "8fb7e0c533a16821bb3d61e68e5ae4af"}, {"lon": -77.08306966666666, "is_disabled": 0, "lat": 38.85434516666667, "fusion_lat": 0.0, "is_reserved": 0, "rental_uris": {"ios": "https://dc.lft.to/lastmile_qr_scan", "android": "https://dc.lft.to/lastmile_qr_scan"}, "fusion_lon": 0.0, "type": "electric_bike", "bike_id": "eef1afec519bfb0e05646e2e615cf0b1", "name": "eef1afec519bfb0e05646e2e615cf0b1"}, {"lon": -77.0168105, "is_disabled": 0, "lat": 38.92040633333333, "fusion_lat": 0.0, "is_reserved": 0, "rental_uris": {"ios": "https://dc.lft.to/lastmile_qr_scan", "android": "https://dc.lft.to/lastmile_qr_scan"}, "fusion_lon": 0.0, "type": "electric_scooter", "bike_id": "0dc02c1fd92cff795e697b8c932b03a6", "name": "0dc02c1fd92cff795e697b8c932b03a6"}, {"lon": -77.01653833333333, "is_disabled": 0, "lat": 38.88128733333333, "fusion_lat": 0.0, "is_reserved": 0, "rental_uris": {"ios": "https://dc.lft.to/lastmile_qr_scan", "android": "https://dc.lft.to/lastmile_qr_scan"}, "fusion_lon": 0.0, "type": "electric_scooter", "bike_id": "d82763a20c995986bbfe1637ac770e18", "name": "d82763a20c995986bbfe1637ac770e18"}, {"lon": -77.0376955, "is_disabled": 0, "lat": 38.9255805, "fusion_lat": 0.0, "is_reserved": 0, "rental_uris": {"ios": "https://dc.lft.to/lastmile_qr_scan", "android": "https://dc.lft.to/lastmile_qr_scan"}, "fusion_lon": 0.0, "type": "electric_scooter", "bike_id": "8bdb048a4230df64db45ef1fe89e3d88", "name": "8bdb048a4230df64db45ef1fe89e3d88"}, {"lon": -76.99072866666667, "is_disabled": 0, "lat": 38.9367435, "fusion_lat": 0.0, "is_reserved": 0, "rental_uris": {"ios": "https://dc.lft.to/lastmile_qr_scan", "android": "https://dc.lft.to/lastmile_qr_scan"}, "fusion_lon": 0.0, "type": "electric_bike", "bike_id": "8a03cf2fd23ce053a861e9ba8a83de26", "name": "8a03cf2fd23ce053a861e9ba8a83de26"}, {"lon": -77.03370433333333, "is_disabled": 0, "lat": 38.902892333333334, "fusion_lat": 0.0, "is_reserved": 0, "rental_uris": {"ios": "https://dc.lft.to/lastmile_qr_scan", "android": "https://dc.lft.to/lastmile_qr_scan"}, "fusion_lon": 0.0, "type": "electric_scooter", "bike_id": "38be739938b545495d9802c505b3a18a", "name": "38be739938b545495d9802c505b3a18a"}, {"lon": -77.02155066666667, "is_disabled": 0, "lat": 38.9259915, "fusion_lat": 0.0, "is_reserved": 0, "rental_uris": {"ios": "https://dc.lft.to/lastmile_qr_scan", "android": "https://dc.lft.to/lastmile_qr_scan"}, "fusion_lon": 0.0, "type": "electric_scooter", "bike_id": "1c308f48c04b94643c8758945a1a5949", "name": "1c308f48c04b94643c8758945a1a5949"}, {"lon": -77.044839, "is_disabled": 0, "lat": 38.8990235, "fusion_lat": 0.0, "is_reserved": 0, "rental_uris": {"ios": "https://dc.lft.to/lastmile_qr_scan", "android": "https://dc.lft.to/lastmile_qr_scan"}, "fusion_lon": 0.0, "type": "electric_scooter", "bike_id": "52ed0a452d12272cb22924f3cc21bf60", "name": "52ed0a452d12272cb22924f3cc21bf60"}, {"lon": -77.02305366666667, "is_disabled": 0, "lat": 38.917089833333335, "fusion_lat": 0.0, "is_reserved": 0, "rental_uris": {"ios": "https://dc.lft.to/lastmile_qr_scan", "android": "https://dc.lft.to/lastmile_qr_scan"}, "fusion_lon": 0.0, "type": "electric_scooter", "bike_id": "31bfac8621d9fb681eef8ad2ee1e383f", "name": "31bfac8621d9fb681eef8ad2ee1e383f"}, {"lon": -77.03730566666667, "is_disabled": 0, "lat": 38.926556166666664, "fusion_lat": 0.0, "is_reserved": 0, "rental_uris": {"ios": "https://dc.lft.to/lastmile_qr_scan", "android": "https://dc.lft.to/lastmile_qr_scan"}, "fusion_lon": 0.0, "type": "electric_scooter", "bike_id": "aa250a6cf7354f3431ff6a6dec6fa589", "name": "aa250a6cf7354f3431ff6a6dec6fa589"}, {"lon": -77.0300255, "is_disabled": 0, "lat": 38.9012355, "fusion_lat": 0.0, "is_reserved": 0, "rental_uris": {"ios": "https://dc.lft.to/lastmile_qr_scan", "android": "https://dc.lft.to/lastmile_qr_scan"}, "fusion_lon": 0.0, "type": "electric_scooter", "bike_id": "8bb81663dae6cb0efbbe7b1567f3715b", "name": "8bb81663dae6cb0efbbe7b1567f3715b"}, {"lon": -77.03819716666666, "is_disabled": 0, "lat": 38.9068355, "fusion_lat": 0.0, "is_reserved": 0, "rental_uris": {"ios": "https://dc.lft.to/lastmile_qr_scan", "android": "https://dc.lft.to/lastmile_qr_scan"}, "fusion_lon": 0.0, "type": "electric_scooter", "bike_id": "aafe22d03c63be308cbf781f712165dd", "name": "aafe22d03c63be308cbf781f712165dd"}, {"lon": -77.04668066666666, "is_disabled": 0, "lat": 38.902934333333334, "fusion_lat": 0.0, "is_reserved": 0, "rental_uris": {"ios": "https://dc.lft.to/lastmile_qr_scan", "android": "https://dc.lft.to/lastmile_qr_scan"}, "fusion_lon": 0.0, "type": "electric_scooter", "bike_id": "53e24bf5d08df1f64dd324283747452d", "name": "53e24bf5d08df1f64dd324283747452d"}, {"lon": -77.03265983333333, "is_disabled": 0, "lat": 38.93435916666667, "fusion_lat": 0.0, "is_reserved": 0, "rental_uris": {"ios": "https://dc.lft.to/lastmile_qr_scan", "android": "https://dc.lft.to/lastmile_qr_scan"}, "fusion_lon": 0.0, "type": "electric_scooter", "bike_id": "ca9342b562c9e452ec77b659333860f1", "name": "ca9342b562c9e452ec77b659333860f1"}, {"lon": -77.02365483333334, "is_disabled": 0, "lat": 38.87922983333333, "fusion_lat": 0.0, "is_reserved": 0, "rental_uris": {"ios": "https://dc.lft.to/lastmile_qr_scan", "android": "https://dc.lft.to/lastmile_qr_scan"}, "fusion_lon": 0.0, "type": "electric_scooter", "bike_id": "cbd5d8017b25c433c5c08816cf6263de", "name": "cbd5d8017b25c433c5c08816cf6263de"}, {"lon": -77.03640166666666, "is_disabled": 0, "lat": 38.91746966666667, "fusion_lat": 0.0, "is_reserved": 0, "rental_uris": {"ios": "https://dc.lft.to/lastmile_qr_scan", "android": "https://dc.lft.to/lastmile_qr_scan"}, "fusion_lon": 0.0, "type": "electric_scooter", "bike_id": "3f78055fdb8d2be8a362cc6b5895c934", "name": "3f78055fdb8d2be8a362cc6b5895c934"}, {"lon": -77.0327975, "is_disabled": 0, "lat": 38.898862666666666, "fusion_lat": 0.0, "is_reserved": 0, "rental_uris": {"ios": "https://dc.lft.to/lastmile_qr_scan", "android": "https://dc.lft.to/lastmile_qr_scan"}, "fusion_lon": 0.0, "type": "electric_scooter", "bike_id": "9fc3ec76cf948119fcd1df9bc4f16820", "name": "9fc3ec76cf948119fcd1df9bc4f16820"}, {"lon": -77.03167166666667, "is_disabled": 0, "lat": 38.8999435, "fusion_lat": 0.0, "is_reserved": 0, "rental_uris": {"ios": "https://dc.lft.to/lastmile_qr_scan", "android": "https://dc.lft.to/lastmile_qr_scan"}, "fusion_lon": 0.0, "type": "electric_scooter", "bike_id": "7ef65a99ada0d20e3a46a5e7e155f475", "name": "7ef65a99ada0d20e3a46a5e7e155f475"}, {"lon": -77.05254016666666, "is_disabled": 0, "lat": 38.923741666666665, "fusion_lat": 0.0, "is_reserved": 0, "rental_uris": {"ios": "https://dc.lft.to/lastmile_qr_scan", "android": "https://dc.lft.to/lastmile_qr_scan"}, "fusion_lon": 0.0, "type": "electric_scooter", "bike_id": "0f02e819f074c2d46e83e3fe71473cd5", "name": "0f02e819f074c2d46e83e3fe71473cd5"}, {"lon": -77.0283775, "is_disabled": 0, "lat": 38.886555333333334, "fusion_lat": 0.0, "is_reserved": 0, "rental_uris": {"ios": "https://dc.lft.to/lastmile_qr_scan", "android": "https://dc.lft.to/lastmile_qr_scan"}, "fusion_lon": 0.0, "type": "electric_scooter", "bike_id": "db09982d036b1c0c4e0092714280780e", "name": "db09982d036b1c0c4e0092714280780e"}, {"lon": -77.02156283333333, "is_disabled": 0, "lat": 38.924577166666666, "fusion_lat": 0.0, "is_reserved": 0, "rental_uris": {"ios": "https://dc.lft.to/lastmile_qr_scan", "android": "https://dc.lft.to/lastmile_qr_scan"}, "fusion_lon": 0.0, "type": "electric_scooter", "bike_id": "4df5d2bce9085f6ca4ec6742ab196c8e", "name": "4df5d2bce9085f6ca4ec6742ab196c8e"}, {"lon": -77.05110583333334, "is_disabled": 0, "lat": 38.89834883333333, "fusion_lat": 0.0, "is_reserved": 0, "rental_uris": {"ios": "https://dc.lft.to/lastmile_qr_scan", "android": "https://dc.lft.to/lastmile_qr_scan"}, "fusion_lon": 0.0, "type": "electric_scooter", "bike_id": "3e83769f54854d7b5ec69f0a57947f02", "name": "3e83769f54854d7b5ec69f0a57947f02"}, {"lon": -77.03168116666667, "is_disabled": 0, "lat": 38.920402833333334, "fusion_lat": 0.0, "is_reserved": 0, "rental_uris": {"ios": "https://dc.lft.to/lastmile_qr_scan", "android": "https://dc.lft.to/lastmile_qr_scan"}, "fusion_lon": 0.0, "type": "electric_scooter", "bike_id": "051128c49442e4ff9cf348e1f76409ce", "name": "051128c49442e4ff9cf348e1f76409ce"}, {"lon": -77.02279266666666, "is_disabled": 0, "lat": 38.9156315, "fusion_lat": 0.0, "is_reserved": 0, "rental_uris": {"ios": "https://dc.lft.to/lastmile_qr_scan", "android": "https://dc.lft.to/lastmile_qr_scan"}, "fusion_lon": 0.0, "type": "electric_scooter", "bike_id": "ce4dd5cadfd131a8669ead7f02f41593", "name": "ce4dd5cadfd131a8669ead7f02f41593"}, {"lon": -77.03831983333333, "is_disabled": 0, "lat": 38.902333166666665, "fusion_lat": 0.0, "is_reserved": 0, "rental_uris": {"ios": "https://dc.lft.to/lastmile_qr_scan", "android": "https://dc.lft.to/lastmile_qr_scan"}, "fusion_lon": 0.0, "type": "electric_scooter", "bike_id": "ea82c1d489cbcd9bfc1177a9a1ac41cc", "name": "ea82c1d489cbcd9bfc1177a9a1ac41cc"}, {"lon": -77.01947033333333, "is_disabled": 0, "lat": 38.92248383333333, "fusion_lat": 0.0, "is_reserved": 0, "rental_uris": {"ios": "https://dc.lft.to/lastmile_qr_scan", "android": "https://dc.lft.to/lastmile_qr_scan"}, "fusion_lon": 0.0, "type": "electric_scooter", "bike_id": "0d93182c909f422df7c1b8fe90986bd8", "name": "0d93182c909f422df7c1b8fe90986bd8"}, {"lon": -77.02833433333333, "is_disabled": 0, "lat": 38.922375333333335, "fusion_lat": 0.0, "is_reserved": 0, "rental_uris": {"ios": "https://dc.lft.to/lastmile_qr_scan", "android": "https://dc.lft.to/lastmile_qr_scan"}, "fusion_lon": 0.0, "type": "electric_scooter", "bike_id": "15c4a0661da1708e74d13b12dab82a5b", "name": "15c4a0661da1708e74d13b12dab82a5b"}, {"lon": -77.01853733333333, "is_disabled": 0, "lat": 38.921382333333334, "fusion_lat": 0.0, "is_reserved": 0, "rental_uris": {"ios": "https://dc.lft.to/lastmile_qr_scan", "android": "https://dc.lft.to/lastmile_qr_scan"}, "fusion_lon": 0.0, "type": "electric_scooter", "bike_id": "a8ebc6701d4b4b9010cc4b85f56ababb", "name": "a8ebc6701d4b4b9010cc4b85f56ababb"}, {"lon": -77.03298416666667, "is_disabled": 0, "lat": 38.9245625, "fusion_lat": 0.0, "is_reserved": 0, "rental_uris": {"ios": "https://dc.lft.to/lastmile_qr_scan", "android": "https://dc.lft.to/lastmile_qr_scan"}, "fusion_lon": 0.0, "type": "electric_scooter", "bike_id": "e200ea4d5d555e2f1bdba25f04571077", "name": "e200ea4d5d555e2f1bdba25f04571077"}, {"lon": -77.04360016666666, "is_disabled": 0, "lat": 38.901476833333334, "fusion_lat": 0.0, "is_reserved": 0, "rental_uris": {"ios": "https://dc.lft.to/lastmile_qr_scan", "android": "https://dc.lft.to/lastmile_qr_scan"}, "fusion_lon": 0.0, "type": "electric_scooter", "bike_id": "44c51aa09f8d30e58d6883b6d9bb3f82", "name": "44c51aa09f8d30e58d6883b6d9bb3f82"}, {"lon": -77.01542, "is_disabled": 0, "lat": 38.93006616666667, "fusion_lat": 0.0, "is_reserved": 0, "rental_uris": {"ios": "https://dc.lft.to/lastmile_qr_scan", "android": "https://dc.lft.to/lastmile_qr_scan"}, "fusion_lon": 0.0, "type": "electric_scooter", "bike_id": "f82df69a793bab1c0810cfa0ca8305c0", "name": "f82df69a793bab1c0810cfa0ca8305c0"}, {"lon": -77.04836966666667, "is_disabled": 0, "lat": 38.91842483333333, "fusion_lat": 0.0, "is_reserved": 0, "rental_uris": {"ios": "https://dc.lft.to/lastmile_qr_scan", "android": "https://dc.lft.to/lastmile_qr_scan"}, "fusion_lon": 0.0, "type": "electric_scooter", "bike_id": "a97371fa90d23756564067149471472c", "name": "a97371fa90d23756564067149471472c"}, {"lon": -77.03954283333333, "is_disabled": 0, "lat": 38.926075, "fusion_lat": 0.0, "is_reserved": 0, "rental_uris": {"ios": "https://dc.lft.to/lastmile_qr_scan", "android": "https://dc.lft.to/lastmile_qr_scan"}, "fusion_lon": 0.0, "type": "electric_scooter", "bike_id": "2239bc61d5d3640beee61524825df0ba", "name": "2239bc61d5d3640beee61524825df0ba"}, {"lon": -77.08627483333333, "is_disabled": 0, "lat": 38.80973183333333, "fusion_lat": 0.0, "is_reserved": 0, "rental_uris": {"ios": "https://dc.lft.to/lastmile_qr_scan", "android": "https://dc.lft.to/lastmile_qr_scan"}, "fusion_lon": 0.0, "type": "electric_bike", "bike_id": "6da0bb0aeffa1c14696ab3e11916f390", "name": "6da0bb0aeffa1c14696ab3e11916f390"}, {"lon": -77.05001916666667, "is_disabled": 0, "lat": 38.892299, "fusion_lat": 0.0, "is_reserved": 0, "rental_uris": {"ios": "https://dc.lft.to/lastmile_qr_scan", "android": "https://dc.lft.to/lastmile_qr_scan"}, "fusion_lon": 0.0, "type": "electric_scooter", "bike_id": "5d220e787fc8f70f475141091650bb4c", "name": "5d220e787fc8f70f475141091650bb4c"}, {"lon": -77.02220733333333, "is_disabled": 0, "lat": 38.892200833333334, "fusion_lat": 0.0, "is_reserved": 0, "rental_uris": {"ios": "https://dc.lft.to/lastmile_qr_scan", "android": "https://dc.lft.to/lastmile_qr_scan"}, "fusion_lon": 0.0, "type": "electric_scooter", "bike_id": "3f3110d6927818f943af61429fdeb961", "name": "3f3110d6927818f943af61429fdeb961"}, {"lon": -76.99501433333333, "is_disabled": 0, "lat": 38.862101, "fusion_lat": 0.0, "is_reserved": 0, "rental_uris": {"ios": "https://dc.lft.to/lastmile_qr_scan", "android": "https://dc.lft.to/lastmile_qr_scan"}, "fusion_lon": 0.0, "type": "electric_scooter", "bike_id": "dd0600c4a1ef16d399feaa8b997f343b", "name": "dd0600c4a1ef16d399feaa8b997f343b"}, {"lon": -76.9637535, "is_disabled": 0, "lat": 38.94894516666667, "fusion_lat": 0.0, "is_reserved": 0, "rental_uris": {"ios": "https://dc.lft.to/lastmile_qr_scan", "android": "https://dc.lft.to/lastmile_qr_scan"}, "fusion_lon": 0.0, "type": "electric_bike", "bike_id": "6bf6886e54c465e18399729f72c5f1b7", "name": "6bf6886e54c465e18399729f72c5f1b7"}, {"lon": -76.98698283333333, "is_disabled": 0, "lat": 38.867232333333334, "fusion_lat": 0.0, "is_reserved": 0, "rental_uris": {"ios": "https://dc.lft.to/lastmile_qr_scan", "android": "https://dc.lft.to/lastmile_qr_scan"}, "fusion_lon": 0.0, "type": "electric_scooter", "bike_id": "7b2ab0ead3d9f23772e677e2781cb10f", "name": "7b2ab0ead3d9f23772e677e2781cb10f"}, {"lon": -77.02351783333333, "is_disabled": 0, "lat": 38.89600883333333, "fusion_lat": 0.0, "is_reserved": 0, "rental_uris": {"ios": "https://dc.lft.to/lastmile_qr_scan", "android": "https://dc.lft.to/lastmile_qr_scan"}, "fusion_lon": 0.0, "type": "electric_scooter", "bike_id": "c48ff9931bbf03d2527a51fbb12d851b", "name": "c48ff9931bbf03d2527a51fbb12d851b"}, {"lon": -77.0393915, "is_disabled": 0, "lat": 38.89896516666667, "fusion_lat": 0.0, "is_reserved": 0, "rental_uris": {"ios": "https://dc.lft.to/lastmile_qr_scan", "android": "https://dc.lft.to/lastmile_qr_scan"}, "fusion_lon": 0.0, "type": "electric_scooter", "bike_id": "be8ab77424f7dd190c23a57c2c305993", "name": "be8ab77424f7dd190c23a57c2c305993"}, {"lon": -77.003378, "is_disabled": 0, "lat": 38.8772845, "fusion_lat": 0.0, "is_reserved": 0, "rental_uris": {"ios": "https://dc.lft.to/lastmile_qr_scan", "android": "https://dc.lft.to/lastmile_qr_scan"}, "fusion_lon": 0.0, "type": "electric_scooter", "bike_id": "0a373dfbca6b53e96a406c84577cc9ea", "name": "0a373dfbca6b53e96a406c84577cc9ea"}, {"lon": -77.024883, "is_disabled": 0, "lat": 38.94183916666667, "fusion_lat": 0.0, "is_reserved": 0, "rental_uris": {"ios": "https://dc.lft.to/lastmile_qr_scan", "android": "https://dc.lft.to/lastmile_qr_scan"}, "fusion_lon": 0.0, "type": "electric_scooter", "bike_id": "7721a3bc7d88be5e640458a1f01a9dbd", "name": "7721a3bc7d88be5e640458a1f01a9dbd"}, {"lon": -77.00911716666667, "is_disabled": 0, "lat": 38.89545866666667, "fusion_lat": 0.0, "is_reserved": 0, "rental_uris": {"ios": "https://dc.lft.to/lastmile_qr_scan", "android": "https://dc.lft.to/lastmile_qr_scan"}, "fusion_lon": 0.0, "type": "electric_scooter", "bike_id": "e6aa41805cff78b00a37c29f9f94453c", "name": "e6aa41805cff78b00a37c29f9f94453c"}, {"lon": -77.05513033333334, "is_disabled": 0, "lat": 38.92832333333333, "fusion_lat": 0.0, "is_reserved": 0, "rental_uris": {"ios": "https://dc.lft.to/lastmile_qr_scan", "android": "https://dc.lft.to/lastmile_qr_scan"}, "fusion_lon": 0.0, "type": "electric_scooter", "bike_id": "3de387634b13188dabb9f5920910630d", "name": "3de387634b13188dabb9f5920910630d"}, {"lon": -77.02386416666667, "is_disabled": 0, "lat": 38.896162333333336, "fusion_lat": 0.0, "is_reserved": 0, "rental_uris": {"ios": "https://dc.lft.to/lastmile_qr_scan", "android": "https://dc.lft.to/lastmile_qr_scan"}, "fusion_lon": 0.0, "type": "electric_scooter", "bike_id": "3d539fb3c410c114d884ad905b1bd125", "name": "3d539fb3c410c114d884ad905b1bd125"}, {"lon": -76.98679366666667, "is_disabled": 0, "lat": 38.912855, "fusion_lat": 0.0, "is_reserved": 0, "rental_uris": {"ios": "https://dc.lft.to/lastmile_qr_scan", "android": "https://dc.lft.to/lastmile_qr_scan"}, "fusion_lon": 0.0, "type": "electric_scooter", "bike_id": "32cfce460bfeefc15c84c5bcfdc73db4", "name": "32cfce460bfeefc15c84c5bcfdc73db4"}, {"lon": -77.0384985, "is_disabled": 0, "lat": 38.905060666666664, "fusion_lat": 0.0, "is_reserved": 0, "rental_uris": {"ios": "https://dc.lft.to/lastmile_qr_scan", "android": "https://dc.lft.to/lastmile_qr_scan"}, "fusion_lon": 0.0, "type": "electric_scooter", "bike_id": "bc76de8bd3e3e4788cabc077cd99bc1b", "name": "bc76de8bd3e3e4788cabc077cd99bc1b"}, {"lon": -76.98187416666667, "is_disabled": 0, "lat": 38.862029166666666, "fusion_lat": 0.0, "is_reserved": 0, "rental_uris": {"ios": "https://dc.lft.to/lastmile_qr_scan", "android": "https://dc.lft.to/lastmile_qr_scan"}, "fusion_lon": 0.0, "type": "electric_scooter", "bike_id": "3eae5275747356acad26ed5b80f0a52e", "name": "3eae5275747356acad26ed5b80f0a52e"}, {"lon": -77.0417745, "is_disabled": 0, "lat": 38.9189825, "fusion_lat": 0.0, "is_reserved": 0, "rental_uris": {"ios": "https://dc.lft.to/lastmile_qr_scan", "android": "https://dc.lft.to/lastmile_qr_scan"}, "fusion_lon": 0.0, "type": "electric_scooter", "bike_id": "65bd91d3de7e0345acedd8304f5d008c", "name": "65bd91d3de7e0345acedd8304f5d008c"}, {"lon": -77.02006516666667, "is_disabled": 0, "lat": 38.9140425, "fusion_lat": 0.0, "is_reserved": 0, "rental_uris": {"ios": "https://dc.lft.to/lastmile_qr_scan", "android": "https://dc.lft.to/lastmile_qr_scan"}, "fusion_lon": 0.0, "type": "electric_scooter", "bike_id": "33e2af20d5d41b554a04aa393f6b5df9", "name": "33e2af20d5d41b554a04aa393f6b5df9"}, {"lon": -76.94891383333334, "is_disabled": 0, "lat": 38.895318833333334, "fusion_lat": 0.0, "is_reserved": 0, "rental_uris": {"ios": "https://dc.lft.to/lastmile_qr_scan", "android": "https://dc.lft.to/lastmile_qr_scan"}, "fusion_lon": 0.0, "type": "electric_scooter", "bike_id": "9cae24603bdb672a2003561f767562ab", "name": "9cae24603bdb672a2003561f767562ab"}, {"lon": -77.0318915, "is_disabled": 0, "lat": 38.89237983333334, "fusion_lat": 0.0, "is_reserved": 0, "rental_uris": {"ios": "https://dc.lft.to/lastmile_qr_scan", "android": "https://dc.lft.to/lastmile_qr_scan"}, "fusion_lon": 0.0, "type": "electric_scooter", "bike_id": "ce3ed36450a651ff816b6fa7dc681261", "name": "ce3ed36450a651ff816b6fa7dc681261"}, {"lon": -77.03208, "is_disabled": 0, "lat": 38.892285666666666, "fusion_lat": 0.0, "is_reserved": 0, "rental_uris": {"ios": "https://dc.lft.to/lastmile_qr_scan", "android": "https://dc.lft.to/lastmile_qr_scan"}, "fusion_lon": 0.0, "type": "electric_scooter", "bike_id": "0573b9c0149e2314763ab6280a32a339", "name": "0573b9c0149e2314763ab6280a32a339"}, {"lon": -77.04005833333333, "is_disabled": 0, "lat": 38.9342585, "fusion_lat": 0.0, "is_reserved": 0, "rental_uris": {"ios": "https://dc.lft.to/lastmile_qr_scan", "android": "https://dc.lft.to/lastmile_qr_scan"}, "fusion_lon": 0.0, "type": "electric_scooter", "bike_id": "a367134cdda6b7b275f5beafac76794f", "name": "a367134cdda6b7b275f5beafac76794f"}, {"lon": -76.99484283333334, "is_disabled": 0, "lat": 38.89182666666667, "fusion_lat": 0.0, "is_reserved": 0, "rental_uris": {"ios": "https://dc.lft.to/lastmile_qr_scan", "android": "https://dc.lft.to/lastmile_qr_scan"}, "fusion_lon": 0.0, "type": "electric_scooter", "bike_id": "214a5d8bee6335ea543777294104a615", "name": "214a5d8bee6335ea543777294104a615"}, {"lon": -77.05256683333333, "is_disabled": 0, "lat": 38.927816666666665, "fusion_lat": 0.0, "is_reserved": 0, "rental_uris": {"ios": "https://dc.lft.to/lastmile_qr_scan", "android": "https://dc.lft.to/lastmile_qr_scan"}, "fusion_lon": 0.0, "type": "electric_scooter", "bike_id": "f17c6ae90cf7b87ee07df18a86978034", "name": "f17c6ae90cf7b87ee07df18a86978034"}, {"lon": -77.07162083333333, "is_disabled": 0, "lat": 38.907763833333334, "fusion_lat": 0.0, "is_reserved": 0, "rental_uris": {"ios": "https://dc.lft.to/lastmile_qr_scan", "android": "https://dc.lft.to/lastmile_qr_scan"}, "fusion_lon": 0.0, "type": "electric_scooter", "bike_id": "48702bf85b8f5e01c02edd6d11d268bd", "name": "48702bf85b8f5e01c02edd6d11d268bd"}, {"lon": -76.991368, "is_disabled": 0, "lat": 38.908577333333334, "fusion_lat": 0.0, "is_reserved": 0, "rental_uris": {"ios": "https://dc.lft.to/lastmile_qr_scan", "android": "https://dc.lft.to/lastmile_qr_scan"}, "fusion_lon": 0.0, "type": "electric_bike", "bike_id": "ae0fc07b5cf35fcfe22991d40c1fef28", "name": "ae0fc07b5cf35fcfe22991d40c1fef28"}, {"lon": -77.0236725, "is_disabled": 0, "lat": 38.9178325, "fusion_lat": 0.0, "is_reserved": 0, "rental_uris": {"ios": "https://dc.lft.to/lastmile_qr_scan", "android": "https://dc.lft.to/lastmile_qr_scan"}, "fusion_lon": 0.0, "type": "electric_scooter", "bike_id": "3754a1b47e0d76b2d0e8761db681d244", "name": "3754a1b47e0d76b2d0e8761db681d244"}, {"lon": -77.0211095, "is_disabled": 0, "lat": 38.91418, "fusion_lat": 0.0, "is_reserved": 0, "rental_uris": {"ios": "https://dc.lft.to/lastmile_qr_scan", "android": "https://dc.lft.to/lastmile_qr_scan"}, "fusion_lon": 0.0, "type": "electric_scooter", "bike_id": "8c51603d476c4b5d8a074c080f65aeb9", "name": "8c51603d476c4b5d8a074c080f65aeb9"}, {"lon": -77.04525466666666, "is_disabled": 0, "lat": 38.903851333333336, "fusion_lat": 0.0, "is_reserved": 0, "rental_uris": {"ios": "https://dc.lft.to/lastmile_qr_scan", "android": "https://dc.lft.to/lastmile_qr_scan"}, "fusion_lon": 0.0, "type": "electric_scooter", "bike_id": "1726a85db7d1e88a1d68d368ddfdb83b", "name": "1726a85db7d1e88a1d68d368ddfdb83b"}, {"lon": -77.0395015, "is_disabled": 0, "lat": 38.90246416666667, "fusion_lat": 0.0, "is_reserved": 0, "rental_uris": {"ios": "https://dc.lft.to/lastmile_qr_scan", "android": "https://dc.lft.to/lastmile_qr_scan"}, "fusion_lon": 0.0, "type": "electric_scooter", "bike_id": "a1719decf5aef54042e21a39d3f2027d", "name": "a1719decf5aef54042e21a39d3f2027d"}, {"lon": -77.01862316666667, "is_disabled": 0, "lat": 38.94921683333333, "fusion_lat": 0.0, "is_reserved": 0, "rental_uris": {"ios": "https://dc.lft.to/lastmile_qr_scan", "android": "https://dc.lft.to/lastmile_qr_scan"}, "fusion_lon": 0.0, "type": "electric_scooter", "bike_id": "27561d40e045b013b92c2b7080e6c18b", "name": "27561d40e045b013b92c2b7080e6c18b"}, {"lon": -77.039692, "is_disabled": 0, "lat": 38.89428016666667, "fusion_lat": 0.0, "is_reserved": 0, "rental_uris": {"ios": "https://dc.lft.to/lastmile_qr_scan", "android": "https://dc.lft.to/lastmile_qr_scan"}, "fusion_lon": 0.0, "type": "electric_scooter", "bike_id": "6383cc1e2ee533e937c38b12acb903db", "name": "6383cc1e2ee533e937c38b12acb903db"}, {"lon": -77.03276916666667, "is_disabled": 0, "lat": 38.92634983333333, "fusion_lat": 0.0, "is_reserved": 0, "rental_uris": {"ios": "https://dc.lft.to/lastmile_qr_scan", "android": "https://dc.lft.to/lastmile_qr_scan"}, "fusion_lon": 0.0, "type": "electric_scooter", "bike_id": "4c1f77b41b2aeaba6722edecb5def175", "name": "4c1f77b41b2aeaba6722edecb5def175"}, {"lon": -77.02224733333334, "is_disabled": 0, "lat": 38.8972595, "fusion_lat": 0.0, "is_reserved": 0, "rental_uris": {"ios": "https://dc.lft.to/lastmile_qr_scan", "android": "https://dc.lft.to/lastmile_qr_scan"}, "fusion_lon": 0.0, "type": "electric_scooter", "bike_id": "9fba49e7c586d537b28d3d12fb66a040", "name": "9fba49e7c586d537b28d3d12fb66a040"}, {"lon": -77.04088166666666, "is_disabled": 0, "lat": 38.90551466666667, "fusion_lat": 0.0, "is_reserved": 0, "rental_uris": {"ios": "https://dc.lft.to/lastmile_qr_scan", "android": "https://dc.lft.to/lastmile_qr_scan"}, "fusion_lon": 0.0, "type": "electric_scooter", "bike_id": "90f6d67e39d7671154d271c4df824b71", "name": "90f6d67e39d7671154d271c4df824b71"}, {"lon": -77.0497265, "is_disabled": 0, "lat": 38.90084216666666, "fusion_lat": 0.0, "is_reserved": 0, "rental_uris": {"ios": "https://dc.lft.to/lastmile_qr_scan", "android": "https://dc.lft.to/lastmile_qr_scan"}, "fusion_lon": 0.0, "type": "electric_scooter", "bike_id": "4079c3c52c794d6597de363c02b8ad64", "name": "4079c3c52c794d6597de363c02b8ad64"}, {"lon": -77.00602283333333, "is_disabled": 0, "lat": 38.89810166666667, "fusion_lat": 0.0, "is_reserved": 0, "rental_uris": {"ios": "https://dc.lft.to/lastmile_qr_scan", "android": "https://dc.lft.to/lastmile_qr_scan"}, "fusion_lon": 0.0, "type": "electric_bike", "bike_id": "11685ad884316666471c01957ae5de75", "name": "11685ad884316666471c01957ae5de75"}, {"lon": -76.93338333333334, "is_disabled": 0, "lat": 38.90865383333333, "fusion_lat": 0.0, "is_reserved": 0, "rental_uris": {"ios": "https://dc.lft.to/lastmile_qr_scan", "android": "https://dc.lft.to/lastmile_qr_scan"}, "fusion_lon": 0.0, "type": "electric_scooter", "bike_id": "663a318062f32d9e98bcb0427fc83a8e", "name": "663a318062f32d9e98bcb0427fc83a8e"}, {"lon": -77.021823, "is_disabled": 0, "lat": 38.90680483333333, "fusion_lat": 0.0, "is_reserved": 0, "rental_uris": {"ios": "https://dc.lft.to/lastmile_qr_scan", "android": "https://dc.lft.to/lastmile_qr_scan"}, "fusion_lon": 0.0, "type": "electric_scooter", "bike_id": "59b838ff30027507a44a2f18b3d7fe52", "name": "59b838ff30027507a44a2f18b3d7fe52"}, {"lon": -77.03126283333333, "is_disabled": 0, "lat": 38.9309045, "fusion_lat": 0.0, "is_reserved": 0, "rental_uris": {"ios": "https://dc.lft.to/lastmile_qr_scan", "android": "https://dc.lft.to/lastmile_qr_scan"}, "fusion_lon": 0.0, "type": "electric_scooter", "bike_id": "ce42b526f8bd76a8f8d894aa41b0cfe6", "name": "ce42b526f8bd76a8f8d894aa41b0cfe6"}, {"lon": -77.02001466666667, "is_disabled": 0, "lat": 38.930807, "fusion_lat": 0.0, "is_reserved": 0, "rental_uris": {"ios": "https://dc.lft.to/lastmile_qr_scan", "android": "https://dc.lft.to/lastmile_qr_scan"}, "fusion_lon": 0.0, "type": "electric_scooter", "bike_id": "5f2d8dd9ab5c005556bbe42874a0f3fc", "name": "5f2d8dd9ab5c005556bbe42874a0f3fc"}, {"lon": -77.035987, "is_disabled": 0, "lat": 38.928050166666665, "fusion_lat": 0.0, "is_reserved": 0, "rental_uris": {"ios": "https://dc.lft.to/lastmile_qr_scan", "android": "https://dc.lft.to/lastmile_qr_scan"}, "fusion_lon": 0.0, "type": "electric_scooter", "bike_id": "895a8bcfe0b470bddc0671a516fb9c3e", "name": "895a8bcfe0b470bddc0671a516fb9c3e"}, {"lon": -77.04092316666667, "is_disabled": 0, "lat": 38.92515783333333, "fusion_lat": 0.0, "is_reserved": 0, "rental_uris": {"ios": "https://dc.lft.to/lastmile_qr_scan", "android": "https://dc.lft.to/lastmile_qr_scan"}, "fusion_lon": 0.0, "type": "electric_scooter", "bike_id": "b5f845a78f5fda0609316e68a4ada571", "name": "b5f845a78f5fda0609316e68a4ada571"}, {"lon": -77.02310716666666, "is_disabled": 0, "lat": 38.928907333333335, "fusion_lat": 0.0, "is_reserved": 0, "rental_uris": {"ios": "https://dc.lft.to/lastmile_qr_scan", "android": "https://dc.lft.to/lastmile_qr_scan"}, "fusion_lon": 0.0, "type": "electric_scooter", "bike_id": "5a04e505e970537a14eca0dc63283f39", "name": "5a04e505e970537a14eca0dc63283f39"}, {"lon": -77.03166883333333, "is_disabled": 0, "lat": 38.89780433333333, "fusion_lat": 0.0, "is_reserved": 0, "rental_uris": {"ios": "https://dc.lft.to/lastmile_qr_scan", "android": "https://dc.lft.to/lastmile_qr_scan"}, "fusion_lon": 0.0, "type": "electric_scooter", "bike_id": "61e16cd102b131ec0615f64cd67ce1f1", "name": "61e16cd102b131ec0615f64cd67ce1f1"}, {"lon": -77.06392166666667, "is_disabled": 0, "lat": 38.94417983333334, "fusion_lat": 0.0, "is_reserved": 0, "rental_uris": {"ios": "https://dc.lft.to/lastmile_qr_scan", "android": "https://dc.lft.to/lastmile_qr_scan"}, "fusion_lon": 0.0, "type": "electric_scooter", "bike_id": "ad0736e8ea2b206e085cc772d272500d", "name": "ad0736e8ea2b206e085cc772d272500d"}, {"lon": -77.0322025, "is_disabled": 0, "lat": 38.91710166666667, "fusion_lat": 0.0, "is_reserved": 0, "rental_uris": {"ios": "https://dc.lft.to/lastmile_qr_scan", "android": "https://dc.lft.to/lastmile_qr_scan"}, "fusion_lon": 0.0, "type": "electric_scooter", "bike_id": "25c6ae2951d92e3cb74181fd0db75a05", "name": "25c6ae2951d92e3cb74181fd0db75a05"}, {"lon": -76.94730933333334, "is_disabled": 0, "lat": 38.89733716666667, "fusion_lat": 0.0, "is_reserved": 0, "rental_uris": {"ios": "https://dc.lft.to/lastmile_qr_scan", "android": "https://dc.lft.to/lastmile_qr_scan"}, "fusion_lon": 0.0, "type": "electric_scooter", "bike_id": "e3eeb2277c9f85590f1bd7d233d97f6e", "name": "e3eeb2277c9f85590f1bd7d233d97f6e"}, {"lon": -77.01899883333333, "is_disabled": 0, "lat": 38.90232683333333, "fusion_lat": 0.0, "is_reserved": 0, "rental_uris": {"ios": "https://dc.lft.to/lastmile_qr_scan", "android": "https://dc.lft.to/lastmile_qr_scan"}, "fusion_lon": 0.0, "type": "electric_scooter", "bike_id": "9b3594c3319aafdfa7ef9a20a3762a25", "name": "9b3594c3319aafdfa7ef9a20a3762a25"}, {"lon": -77.046876, "is_disabled": 0, "lat": 38.89221, "fusion_lat": 0.0, "is_reserved": 0, "rental_uris": {"ios": "https://dc.lft.to/lastmile_qr_scan", "android": "https://dc.lft.to/lastmile_qr_scan"}, "fusion_lon": 0.0, "type": "electric_scooter", "bike_id": "f471cca59b0bd1036fc28f0088cb7a85", "name": "f471cca59b0bd1036fc28f0088cb7a85"}, {"lon": -77.00141583333334, "is_disabled": 0, "lat": 38.897426333333335, "fusion_lat": 0.0, "is_reserved": 0, "rental_uris": {"ios": "https://dc.lft.to/lastmile_qr_scan", "android": "https://dc.lft.to/lastmile_qr_scan"}, "fusion_lon": 0.0, "type": "electric_scooter", "bike_id": "084c4545d2b491ba4b05871273bd4487", "name": "084c4545d2b491ba4b05871273bd4487"}, {"lon": -77.028375, "is_disabled": 0, "lat": 38.886224166666665, "fusion_lat": 0.0, "is_reserved": 0, "rental_uris": {"ios": "https://dc.lft.to/lastmile_qr_scan", "android": "https://dc.lft.to/lastmile_qr_scan"}, "fusion_lon": 0.0, "type": "electric_scooter", "bike_id": "478c184f4ba1d51ff23495e314e95d79", "name": "478c184f4ba1d51ff23495e314e95d79"}, {"lon": -77.033508, "is_disabled": 0, "lat": 38.89240566666667, "fusion_lat": 0.0, "is_reserved": 0, "rental_uris": {"ios": "https://dc.lft.to/lastmile_qr_scan", "android": "https://dc.lft.to/lastmile_qr_scan"}, "fusion_lon": 0.0, "type": "electric_scooter", "bike_id": "221ffea9c0ea472352cf9179600f55d9", "name": "221ffea9c0ea472352cf9179600f55d9"}, {"lon": -77.0222735, "is_disabled": 0, "lat": 38.9126755, "fusion_lat": 0.0, "is_reserved": 0, "rental_uris": {"ios": "https://dc.lft.to/lastmile_qr_scan", "android": "https://dc.lft.to/lastmile_qr_scan"}, "fusion_lon": 0.0, "type": "electric_scooter", "bike_id": "e8d706c47a36cbd8fb428c413012e696", "name": "e8d706c47a36cbd8fb428c413012e696"}, {"lon": -77.00899833333334, "is_disabled": 0, "lat": 38.90066183333333, "fusion_lat": 0.0, "is_reserved": 0, "rental_uris": {"ios": "https://dc.lft.to/lastmile_qr_scan", "android": "https://dc.lft.to/lastmile_qr_scan"}, "fusion_lon": 0.0, "type": "electric_scooter", "bike_id": "9cf9b7187489338748ec4cb7bb89ec98", "name": "9cf9b7187489338748ec4cb7bb89ec98"}, {"lon": -77.031973, "is_disabled": 0, "lat": 38.89967766666667, "fusion_lat": 0.0, "is_reserved": 0, "rental_uris": {"ios": "https://dc.lft.to/lastmile_qr_scan", "android": "https://dc.lft.to/lastmile_qr_scan"}, "fusion_lon": 0.0, "type": "electric_scooter", "bike_id": "f6a0b6461268bed14f34012a7cc66ffe", "name": "f6a0b6461268bed14f34012a7cc66ffe"}, {"lon": -77.03175933333333, "is_disabled": 0, "lat": 38.915894333333334, "fusion_lat": 0.0, "is_reserved": 0, "rental_uris": {"ios": "https://dc.lft.to/lastmile_qr_scan", "android": "https://dc.lft.to/lastmile_qr_scan"}, "fusion_lon": 0.0, "type": "electric_scooter", "bike_id": "89f9e7adf4ccbbf790657594f8e4ac77", "name": "89f9e7adf4ccbbf790657594f8e4ac77"}, {"lon": -77.0402285, "is_disabled": 0, "lat": 38.9170865, "fusion_lat": 0.0, "is_reserved": 0, "rental_uris": {"ios": "https://dc.lft.to/lastmile_qr_scan", "android": "https://dc.lft.to/lastmile_qr_scan"}, "fusion_lon": 0.0, "type": "electric_scooter", "bike_id": "fc3eade70b4223f6eb9ece1dbb909b48", "name": "fc3eade70b4223f6eb9ece1dbb909b48"}, {"lon": -77.04296316666667, "is_disabled": 0, "lat": 38.92335283333333, "fusion_lat": 0.0, "is_reserved": 0, "rental_uris": {"ios": "https://dc.lft.to/lastmile_qr_scan", "android": "https://dc.lft.to/lastmile_qr_scan"}, "fusion_lon": 0.0, "type": "electric_scooter", "bike_id": "78e8cf3af57f38442a24acd5eea2d884", "name": "78e8cf3af57f38442a24acd5eea2d884"}, {"lon": -76.92045933333333, "is_disabled": 0, "lat": 38.897361, "fusion_lat": 0.0, "is_reserved": 0, "rental_uris": {"ios": "https://dc.lft.to/lastmile_qr_scan", "android": "https://dc.lft.to/lastmile_qr_scan"}, "fusion_lon": 0.0, "type": "electric_bike", "bike_id": "5f853ecfe515776ecad78b85847d7aad", "name": "5f853ecfe515776ecad78b85847d7aad"}, {"lon": -77.021138, "is_disabled": 0, "lat": 38.9173585, "fusion_lat": 0.0, "is_reserved": 0, "rental_uris": {"ios": "https://dc.lft.to/lastmile_qr_scan", "android": "https://dc.lft.to/lastmile_qr_scan"}, "fusion_lon": 0.0, "type": "electric_scooter", "bike_id": "3ee8c9a7925f2b62673a847f934bebb3", "name": "3ee8c9a7925f2b62673a847f934bebb3"}, {"lon": -77.0277325, "is_disabled": 0, "lat": 38.89618016666667, "fusion_lat": 0.0, "is_reserved": 0, "rental_uris": {"ios": "https://dc.lft.to/lastmile_qr_scan", "android": "https://dc.lft.to/lastmile_qr_scan"}, "fusion_lon": 0.0, "type": "electric_scooter", "bike_id": "5ed8baa0710170cd6c2465a0a137f908", "name": "5ed8baa0710170cd6c2465a0a137f908"}, {"lon": -77.005578, "is_disabled": 0, "lat": 38.87468916666667, "fusion_lat": 0.0, "is_reserved": 0, "rental_uris": {"ios": "https://dc.lft.to/lastmile_qr_scan", "android": "https://dc.lft.to/lastmile_qr_scan"}, "fusion_lon": 0.0, "type": "electric_scooter", "bike_id": "01314702138028661a190d33b4b7e103", "name": "01314702138028661a190d33b4b7e103"}, {"lon": -77.03514966666667, "is_disabled": 0, "lat": 38.921703, "fusion_lat": 0.0, "is_reserved": 0, "rental_uris": {"ios": "https://dc.lft.to/lastmile_qr_scan", "android": "https://dc.lft.to/lastmile_qr_scan"}, "fusion_lon": 0.0, "type": "electric_scooter", "bike_id": "6bb19b5eb6d4985d06da1c1aefd5da44", "name": "6bb19b5eb6d4985d06da1c1aefd5da44"}, {"lon": -77.04110533333333, "is_disabled": 0, "lat": 38.90584033333333, "fusion_lat": 0.0, "is_reserved": 0, "rental_uris": {"ios": "https://dc.lft.to/lastmile_qr_scan", "android": "https://dc.lft.to/lastmile_qr_scan"}, "fusion_lon": 0.0, "type": "electric_scooter", "bike_id": "0523a6b76f000eeb5af6053e423c9378", "name": "0523a6b76f000eeb5af6053e423c9378"}, {"lon": -77.01732016666666, "is_disabled": 0, "lat": 38.887429833333336, "fusion_lat": 0.0, "is_reserved": 0, "rental_uris": {"ios": "https://dc.lft.to/lastmile_qr_scan", "android": "https://dc.lft.to/lastmile_qr_scan"}, "fusion_lon": 0.0, "type": "electric_scooter", "bike_id": "10da6de284a6a7be395b6a5c14f1d7ae", "name": "10da6de284a6a7be395b6a5c14f1d7ae"}, {"lon": -77.03235316666667, "is_disabled": 0, "lat": 38.90136483333333, "fusion_lat": 0.0, "is_reserved": 0, "rental_uris": {"ios": "https://dc.lft.to/lastmile_qr_scan", "android": "https://dc.lft.to/lastmile_qr_scan"}, "fusion_lon": 0.0, "type": "electric_scooter", "bike_id": "748d86c03dafb62fc783b52e3f64df38", "name": "748d86c03dafb62fc783b52e3f64df38"}, {"lon": -77.04209866666666, "is_disabled": 0, "lat": 38.92069633333333, "fusion_lat": 0.0, "is_reserved": 0, "rental_uris": {"ios": "https://dc.lft.to/lastmile_qr_scan", "android": "https://dc.lft.to/lastmile_qr_scan"}, "fusion_lon": 0.0, "type": "electric_scooter", "bike_id": "572545d6d2ebc1dd33c7f9d3b74d5013", "name": "572545d6d2ebc1dd33c7f9d3b74d5013"}, {"lon": -77.01772916666667, "is_disabled": 0, "lat": 38.8871165, "fusion_lat": 0.0, "is_reserved": 0, "rental_uris": {"ios": "https://dc.lft.to/lastmile_qr_scan", "android": "https://dc.lft.to/lastmile_qr_scan"}, "fusion_lon": 0.0, "type": "electric_scooter", "bike_id": "ed99686d944d25b9f6b0ee45e974ebed", "name": "ed99686d944d25b9f6b0ee45e974ebed"}, {"lon": -77.0366615, "is_disabled": 0, "lat": 38.922575, "fusion_lat": 0.0, "is_reserved": 0, "rental_uris": {"ios": "https://dc.lft.to/lastmile_qr_scan", "android": "https://dc.lft.to/lastmile_qr_scan"}, "fusion_lon": 0.0, "type": "electric_scooter", "bike_id": "33915af1d295c663aecb4a09946f59d2", "name": "33915af1d295c663aecb4a09946f59d2"}, {"lon": -77.08862316666666, "is_disabled": 0, "lat": 38.916371833333336, "fusion_lat": 0.0, "is_reserved": 0, "rental_uris": {"ios": "https://dc.lft.to/lastmile_qr_scan", "android": "https://dc.lft.to/lastmile_qr_scan"}, "fusion_lon": 0.0, "type": "electric_scooter", "bike_id": "ce35f9b9cbf693500c55213ae25fe6f3", "name": "ce35f9b9cbf693500c55213ae25fe6f3"}, {"lon": -77.02508133333333, "is_disabled": 0, "lat": 38.9193265, "fusion_lat": 0.0, "is_reserved": 0, "rental_uris": {"ios": "https://dc.lft.to/lastmile_qr_scan", "android": "https://dc.lft.to/lastmile_qr_scan"}, "fusion_lon": 0.0, "type": "electric_scooter", "bike_id": "6fc1e5320198396da785fad8f25f8412", "name": "6fc1e5320198396da785fad8f25f8412"}, {"lon": -77.07247216666667, "is_disabled": 0, "lat": 38.939502, "fusion_lat": 0.0, "is_reserved": 0, "rental_uris": {"ios": "https://dc.lft.to/lastmile_qr_scan", "android": "https://dc.lft.to/lastmile_qr_scan"}, "fusion_lon": 0.0, "type": "electric_scooter", "bike_id": "ee3549229747c87694bff94b2876cc04", "name": "ee3549229747c87694bff94b2876cc04"}, {"lon": -77.03333083333334, "is_disabled": 0, "lat": 38.91699783333333, "fusion_lat": 0.0, "is_reserved": 0, "rental_uris": {"ios": "https://dc.lft.to/lastmile_qr_scan", "android": "https://dc.lft.to/lastmile_qr_scan"}, "fusion_lon": 0.0, "type": "electric_scooter", "bike_id": "3802764c02260a6576a7c792da680bce", "name": "3802764c02260a6576a7c792da680bce"}, {"lon": -77.01767816666667, "is_disabled": 0, "lat": 38.9027075, "fusion_lat": 0.0, "is_reserved": 0, "rental_uris": {"ios": "https://dc.lft.to/lastmile_qr_scan", "android": "https://dc.lft.to/lastmile_qr_scan"}, "fusion_lon": 0.0, "type": "electric_scooter", "bike_id": "65e70a4557264be22a6de0d1085e5b56", "name": "65e70a4557264be22a6de0d1085e5b56"}, {"lon": -77.05054216666667, "is_disabled": 0, "lat": 38.905302, "fusion_lat": 0.0, "is_reserved": 0, "rental_uris": {"ios": "https://dc.lft.to/lastmile_qr_scan", "android": "https://dc.lft.to/lastmile_qr_scan"}, "fusion_lon": 0.0, "type": "electric_scooter", "bike_id": "c904b2d91b0bbf2f9ab28d88b2112d78", "name": "c904b2d91b0bbf2f9ab28d88b2112d78"}, {"lon": -77.0071645, "is_disabled": 0, "lat": 38.884910833333336, "fusion_lat": 0.0, "is_reserved": 0, "rental_uris": {"ios": "https://dc.lft.to/lastmile_qr_scan", "android": "https://dc.lft.to/lastmile_qr_scan"}, "fusion_lon": 0.0, "type": "electric_scooter", "bike_id": "309228382ccbbc55b9321290280e4b0d", "name": "309228382ccbbc55b9321290280e4b0d"}, {"lon": -77.039301, "is_disabled": 0, "lat": 38.898571, "fusion_lat": 0.0, "is_reserved": 0, "rental_uris": {"ios": "https://dc.lft.to/lastmile_qr_scan", "android": "https://dc.lft.to/lastmile_qr_scan"}, "fusion_lon": 0.0, "type": "electric_scooter", "bike_id": "cb25fef5f07f02edd945c1ed97ebeccf", "name": "cb25fef5f07f02edd945c1ed97ebeccf"}, {"lon": -77.01846916666666, "is_disabled": 0, "lat": 38.90968383333333, "fusion_lat": 0.0, "is_reserved": 0, "rental_uris": {"ios": "https://dc.lft.to/lastmile_qr_scan", "android": "https://dc.lft.to/lastmile_qr_scan"}, "fusion_lon": 0.0, "type": "electric_scooter", "bike_id": "b40bf6ac4c33d9df52a3b5f3a1417b45", "name": "b40bf6ac4c33d9df52a3b5f3a1417b45"}, {"lon": -77.01155666666666, "is_disabled": 0, "lat": 38.89636433333333, "fusion_lat": 0.0, "is_reserved": 0, "rental_uris": {"ios": "https://dc.lft.to/lastmile_qr_scan", "android": "https://dc.lft.to/lastmile_qr_scan"}, "fusion_lon": 0.0, "type": "electric_scooter", "bike_id": "55a659af075ab7afb254fe48846c7de4", "name": "55a659af075ab7afb254fe48846c7de4"}, {"lon": -76.98880266666667, "is_disabled": 0, "lat": 38.8665685, "fusion_lat": 0.0, "is_reserved": 0, "rental_uris": {"ios": "https://dc.lft.to/lastmile_qr_scan", "android": "https://dc.lft.to/lastmile_qr_scan"}, "fusion_lon": 0.0, "type": "electric_scooter", "bike_id": "6ade7cffd0f098d4b6bc7492d1c93d6d", "name": "6ade7cffd0f098d4b6bc7492d1c93d6d"}, {"lon": -77.04279166666667, "is_disabled": 0, "lat": 38.9140415, "fusion_lat": 0.0, "is_reserved": 0, "rental_uris": {"ios": "https://dc.lft.to/lastmile_qr_scan", "android": "https://dc.lft.to/lastmile_qr_scan"}, "fusion_lon": 0.0, "type": "electric_scooter", "bike_id": "6a6dabddb4defc5627e11592c41ec8e2", "name": "6a6dabddb4defc5627e11592c41ec8e2"}, {"lon": -77.03858266666667, "is_disabled": 0, "lat": 38.90713933333333, "fusion_lat": 0.0, "is_reserved": 0, "rental_uris": {"ios": "https://dc.lft.to/lastmile_qr_scan", "android": "https://dc.lft.to/lastmile_qr_scan"}, "fusion_lon": 0.0, "type": "electric_scooter", "bike_id": "2e98686c72b9f27599e780173041e16f", "name": "2e98686c72b9f27599e780173041e16f"}, {"lon": -77.03790416666666, "is_disabled": 0, "lat": 38.93022083333334, "fusion_lat": 0.0, "is_reserved": 0, "rental_uris": {"ios": "https://dc.lft.to/lastmile_qr_scan", "android": "https://dc.lft.to/lastmile_qr_scan"}, "fusion_lon": 0.0, "type": "electric_scooter", "bike_id": "90c2e8655226692487d672acfe6885c1", "name": "90c2e8655226692487d672acfe6885c1"}, {"lon": -77.04116183333333, "is_disabled": 0, "lat": 38.910390666666665, "fusion_lat": 0.0, "is_reserved": 0, "rental_uris": {"ios": "https://dc.lft.to/lastmile_qr_scan", "android": "https://dc.lft.to/lastmile_qr_scan"}, "fusion_lon": 0.0, "type": "electric_scooter", "bike_id": "760eba06c1153ded358791b2584269e9", "name": "760eba06c1153ded358791b2584269e9"}, {"lon": -76.98182583333333, "is_disabled": 0, "lat": 38.869594666666664, "fusion_lat": 0.0, "is_reserved": 0, "rental_uris": {"ios": "https://dc.lft.to/lastmile_qr_scan", "android": "https://dc.lft.to/lastmile_qr_scan"}, "fusion_lon": 0.0, "type": "electric_scooter", "bike_id": "d7abe0326c6cda75853e28e578a06697", "name": "d7abe0326c6cda75853e28e578a06697"}, {"lon": -77.0308775, "is_disabled": 0, "lat": 38.91719033333333, "fusion_lat": 0.0, "is_reserved": 0, "rental_uris": {"ios": "https://dc.lft.to/lastmile_qr_scan", "android": "https://dc.lft.to/lastmile_qr_scan"}, "fusion_lon": 0.0, "type": "electric_scooter", "bike_id": "53332eb76647e9de1899fd9007447e53", "name": "53332eb76647e9de1899fd9007447e53"}, {"lon": -77.033484, "is_disabled": 0, "lat": 38.89849516666666, "fusion_lat": 0.0, "is_reserved": 0, "rental_uris": {"ios": "https://dc.lft.to/lastmile_qr_scan", "android": "https://dc.lft.to/lastmile_qr_scan"}, "fusion_lon": 0.0, "type": "electric_scooter", "bike_id": "92a3867a0a94ad3810c088b7732b185e", "name": "92a3867a0a94ad3810c088b7732b185e"}, {"lon": -77.03931, "is_disabled": 0, "lat": 38.926208833333334, "fusion_lat": 0.0, "is_reserved": 0, "rental_uris": {"ios": "https://dc.lft.to/lastmile_qr_scan", "android": "https://dc.lft.to/lastmile_qr_scan"}, "fusion_lon": 0.0, "type": "electric_scooter", "bike_id": "ab98459922f95d602414fbb74bc73510", "name": "ab98459922f95d602414fbb74bc73510"}, {"lon": -76.97838016666667, "is_disabled": 0, "lat": 38.898478, "fusion_lat": 0.0, "is_reserved": 0, "rental_uris": {"ios": "https://dc.lft.to/lastmile_qr_scan", "android": "https://dc.lft.to/lastmile_qr_scan"}, "fusion_lon": 0.0, "type": "electric_scooter", "bike_id": "4b96fef6d6adb97c9209e1bb43971ef5", "name": "4b96fef6d6adb97c9209e1bb43971ef5"}, {"lon": -77.22889766666667, "is_disabled": 0, "lat": 38.90957316666667, "fusion_lat": 0.0, "is_reserved": 0, "rental_uris": {"ios": "https://dc.lft.to/lastmile_qr_scan", "android": "https://dc.lft.to/lastmile_qr_scan"}, "fusion_lon": 0.0, "type": "electric_bike", "bike_id": "1e86721b7b4fc586ff08fef8975a573f", "name": "1e86721b7b4fc586ff08fef8975a573f"}, {"lon": -77.04816033333333, "is_disabled": 0, "lat": 38.909629, "fusion_lat": 0.0, "is_reserved": 0, "rental_uris": {"ios": "https://dc.lft.to/lastmile_qr_scan", "android": "https://dc.lft.to/lastmile_qr_scan"}, "fusion_lon": 0.0, "type": "electric_scooter", "bike_id": "06182ddda418d8d42eddd1b6313f4bce", "name": "06182ddda418d8d42eddd1b6313f4bce"}, {"lon": -76.99260433333333, "is_disabled": 0, "lat": 38.8927135, "fusion_lat": 0.0, "is_reserved": 0, "rental_uris": {"ios": "https://dc.lft.to/lastmile_qr_scan", "android": "https://dc.lft.to/lastmile_qr_scan"}, "fusion_lon": 0.0, "type": "electric_scooter", "bike_id": "6598cb01ae671bc706ee088cd1b357d2", "name": "6598cb01ae671bc706ee088cd1b357d2"}, {"lon": -77.03210783333333, "is_disabled": 0, "lat": 38.8923265, "fusion_lat": 0.0, "is_reserved": 0, "rental_uris": {"ios": "https://dc.lft.to/lastmile_qr_scan", "android": "https://dc.lft.to/lastmile_qr_scan"}, "fusion_lon": 0.0, "type": "electric_scooter", "bike_id": "61f11ae0fd211b37ee2c3165ea8bb9a7", "name": "61f11ae0fd211b37ee2c3165ea8bb9a7"}, {"lon": -77.003433, "is_disabled": 0, "lat": 38.89533216666667, "fusion_lat": 0.0, "is_reserved": 0, "rental_uris": {"ios": "https://dc.lft.to/lastmile_qr_scan", "android": "https://dc.lft.to/lastmile_qr_scan"}, "fusion_lon": 0.0, "type": "electric_scooter", "bike_id": "1b191bce36b8822edd3fdfbdfff652e8", "name": "1b191bce36b8822edd3fdfbdfff652e8"}, {"lon": -77.02509116666667, "is_disabled": 0, "lat": 38.92059533333333, "fusion_lat": 0.0, "is_reserved": 0, "rental_uris": {"ios": "https://dc.lft.to/lastmile_qr_scan", "android": "https://dc.lft.to/lastmile_qr_scan"}, "fusion_lon": 0.0, "type": "electric_scooter", "bike_id": "5f939b444de0c86cdc6692ee59fdb859", "name": "5f939b444de0c86cdc6692ee59fdb859"}, {"lon": -76.99189266666667, "is_disabled": 0, "lat": 38.85833983333333, "fusion_lat": 0.0, "is_reserved": 0, "rental_uris": {"ios": "https://dc.lft.to/lastmile_qr_scan", "android": "https://dc.lft.to/lastmile_qr_scan"}, "fusion_lon": 0.0, "type": "electric_scooter", "bike_id": "47f890d818d5ff6e5af17a4845ad141e", "name": "47f890d818d5ff6e5af17a4845ad141e"}, {"lon": -77.0150045, "is_disabled": 0, "lat": 38.926860833333336, "fusion_lat": 0.0, "is_reserved": 0, "rental_uris": {"ios": "https://dc.lft.to/lastmile_qr_scan", "android": "https://dc.lft.to/lastmile_qr_scan"}, "fusion_lon": 0.0, "type": "electric_scooter", "bike_id": "9f46676c3121b7aad9a1c54273cab611", "name": "9f46676c3121b7aad9a1c54273cab611"}, {"lon": -77.02456033333333, "is_disabled": 0, "lat": 38.9171275, "fusion_lat": 0.0, "is_reserved": 0, "rental_uris": {"ios": "https://dc.lft.to/lastmile_qr_scan", "android": "https://dc.lft.to/lastmile_qr_scan"}, "fusion_lon": 0.0, "type": "electric_scooter", "bike_id": "ac8a3a74ba22daca4494b02059bc2afc", "name": "ac8a3a74ba22daca4494b02059bc2afc"}, {"lon": -77.0329855, "is_disabled": 0, "lat": 38.923423, "fusion_lat": 0.0, "is_reserved": 0, "rental_uris": {"ios": "https://dc.lft.to/lastmile_qr_scan", "android": "https://dc.lft.to/lastmile_qr_scan"}, "fusion_lon": 0.0, "type": "electric_scooter", "bike_id": "e49a0f56cb3f737255e839c7f0a098dc", "name": "e49a0f56cb3f737255e839c7f0a098dc"},