{"data": {"bikes": [{"bike_id": "64772da3a1094b75ae07b2f24602d86a", "type": "electric_scooter", "is_disabled": 0, "lat": 38.88428416666667, "rental_uris": {"ios": "https://dc.lft.to/lastmile_qr_scan", "android": "https://dc.lft.to/lastmile_qr_scan"}, "is_reserved": 0, "fusion_lon": 0.0, "fusion_lat": 0.0, "lon": -76.95753733333333, "name": "64772da3a1094b75ae07b2f24602d86a"}, {"bike_id": "bfa45286831bfcafd0da1bb32cff25fa", "type": "electric_scooter", "is_disabled": 0, "lat": 38.9055275, "rental_uris": {"ios": "https://dc.lft.to/lastmile_qr_scan", "android": "https://dc.lft.to/lastmile_qr_scan"}, "is_reserved": 0, "fusion_lon": 0.0, "fusion_lat": 0.0, "lon": -76.99621233333333, "name": "bfa45286831bfcafd0da1bb32cff25fa"}, {"bike_id": "99e7f32a7107c546a1d039b54e079bae", "type": "electric_bike", "is_disabled": 0, "lat": 38.80443983333333, "rental_uris": {"ios": "https://dc.lft.to/lastmile_qr_scan", "android": "https://dc.lft.to/lastmile_qr_scan"}, "is_reserved": 0, "fusion_lon": 0.0, "fusion_lat": 0.0, "lon": -77.05386433333334, "name": "99e7f32a7107c546a1d039b54e079bae"}, {"bike_id": "b2219617f717a0c7fe38f5612f5ff6ab", "type": "electric_bike", "is_disabled": 0, "lat": 38.95528216666666, "rental_uris": {"ios": "https://dc.lft.to/lastmile_qr_scan", "android": "https://dc.lft.to/lastmile_qr_scan"}, "is_reserved": 0, "fusion_lon": 0.0, "fusion_lat": 0.0, "lon": -76.96822216666666, "name": "b2219617f717a0c7fe38f5612f5ff6ab"}, {"bike_id": "745c83a61b70a4b29e1468e54dffe571", "type": "electric_bike", "is_disabled": 0, "lat": 38.95641033333333, "rental_uris": {"ios": "https://dc.lft.to/lastmile_qr_scan", "android": "https://dc.lft.to/lastmile_qr_scan"}, "is_reserved": 0, "fusion_lon": 0.0, "fusion_lat": 0.0, "lon": -77.01166133333334, "name": "745c83a61b70a4b29e1468e54dffe571"}, {"bike_id": "035748d0b20b64a4d42da4bc7a56ecc4", "type": "electric_scooter", "is_disabled": 0, "lat": 38.916388166666664, "rental_uris": {"ios": "https://dc.lft.to/lastmile_qr_scan", "android": "https://dc.lft.to/lastmile_qr_scan"}, "is_reserved": 0, "fusion_lon": 0.0, "fusion_lat": 0.0, "lon": -77.04665383333334, "name": "035748d0b20b64a4d42da4bc7a56ecc4"}, {"bike_id": "cc422190d12f7a197d862751b204d008", "type": "electric_bike", "is_disabled": 0, "lat": 38.83930133333333, "rental_uris": {"ios": "https://dc.lft.to/lastmile_qr_scan", "android": "https://dc.lft.to/lastmile_qr_scan"}, "is_reserved": 0, "fusion_lon": 0.0, "fusion_lat": 0.0, "lon": -77.07902533333333, "name": "cc422190d12f7a197d862751b204d008"}, {"bike_id": "8ffe8717685c7757e824b70141677dd8", "type": "electric_scooter", "is_disabled": 0, "lat": 38.918645166666664, "rental_uris": {"ios": "https://dc.lft.to/lastmile_qr_scan", "android": "https://dc.lft.to/lastmile_qr_scan"}, "is_reserved": 0, "fusion_lon": 0.0, "fusion_lat": 0.0, "lon": -77.023011, "name": "8ffe8717685c7757e824b70141677dd8"}, {"bike_id": "0f8a056fbe562910aa136b9a6b1f0031", "type": "electric_scooter", "is_disabled": 0, "lat": 38.919777833333335, "rental_uris": {"ios": "https://dc.lft.to/lastmile_qr_scan", "android": "https://dc.lft.to/lastmile_qr_scan"}, "is_reserved": 0, "fusion_lon": 0.0, "fusion_lat": 0.0, "lon": -77.01206766666667, "name": "0f8a056fbe562910aa136b9a6b1f0031"}, {"bike_id": "d1e088ceaf36e8e70a1c0761d7a5a373", "type": "electric_scooter", "is_disabled": 0, "lat": 38.876877, "rental_uris": {"ios": "https://dc.lft.to/lastmile_qr_scan", "android": "https://dc.lft.to/lastmile_qr_scan"}, "is_reserved": 0, "fusion_lon": 0.0, "fusion_lat": 0.0, "lon": -77.017537, "name": "d1e088ceaf36e8e70a1c0761d7a5a373"}, {"bike_id": "29ed9a11da89e8cafc773fb48f1b7fb3", "type": "electric_scooter", "is_disabled": 0, "lat": 38.8953, "rental_uris": {"ios": "https://dc.lft.to/lastmile_qr_scan", "android": "https://dc.lft.to/lastmile_qr_scan"}, "is_reserved": 0, "fusion_lon": 0.0, "fusion_lat": 0.0, "lon": -77.011154, "name": "29ed9a11da89e8cafc773fb48f1b7fb3"}, {"bike_id": "b5bef7e43c3979ad38016c38e1973132", "type": "electric_scooter", "is_disabled": 0, "lat": 38.905186, "rental_uris": {"ios": "https://dc.lft.to/lastmile_qr_scan", "android": "https://dc.lft.to/lastmile_qr_scan"}, "is_reserved": 0, "fusion_lon": 0.0, "fusion_lat": 0.0, "lon": -77.05006366666667, "name": "b5bef7e43c3979ad38016c38e1973132"}, {"bike_id": "e6d7ea79712bffe62d53e57fee4fe537", "type": "electric_scooter", "is_disabled": 0, "lat": 38.919694666666665, "rental_uris": {"ios": "https://dc.lft.to/lastmile_qr_scan", "android": "https://dc.lft.to/lastmile_qr_scan"}, "is_reserved": 0, "fusion_lon": 0.0, "fusion_lat": 0.0, "lon": -77.04205383333333, "name": "e6d7ea79712bffe62d53e57fee4fe537"}, {"bike_id": "12cf1f3bf6faf5957f8d18360e75b1bc", "type": "electric_scooter", "is_disabled": 0, "lat": 38.90905016666667, "rental_uris": {"ios": "https://dc.lft.to/lastmile_qr_scan", "android": "https://dc.lft.to/lastmile_qr_scan"}, "is_reserved": 0, "fusion_lon": 0.0, "fusion_lat": 0.0, "lon": -77.02703416666667, "name": "12cf1f3bf6faf5957f8d18360e75b1bc"}, {"bike_id": "79d16626a4d01f27a8b53c9243efc74e", "type": "electric_scooter", "is_disabled": 0, "lat": 38.91186233333333, "rental_uris": {"ios": "https://dc.lft.to/lastmile_qr_scan", "android": "https://dc.lft.to/lastmile_qr_scan"}, "is_reserved": 0, "fusion_lon": 0.0, "fusion_lat": 0.0, "lon": -77.03966766666667, "name": "79d16626a4d01f27a8b53c9243efc74e"}, {"bike_id": "c3c31bcd154968349d34b3127655133c", "type": "electric_bike", "is_disabled": 0, "lat": 38.8115885, "rental_uris": {"ios": "https://dc.lft.to/lastmile_qr_scan", "android": "https://dc.lft.to/lastmile_qr_scan"}, "is_reserved": 0, "fusion_lon": 0.0, "fusion_lat": 0.0, "lon": -77.06957516666667, "name": "c3c31bcd154968349d34b3127655133c"}, {"bike_id": "413534af939f7830d0c03754f98eda4d", "type": "electric_scooter", "is_disabled": 0, "lat": 38.933896, "rental_uris": {"ios": "https://dc.lft.to/lastmile_qr_scan", "android": "https://dc.lft.to/lastmile_qr_scan"}, "is_reserved": 0, "fusion_lon": 0.0, "fusion_lat": 0.0, "lon": -77.03217883333333, "name": "413534af939f7830d0c03754f98eda4d"}, {"bike_id": "5adba86638d96efb82713852d6ac4d00", "type": "electric_scooter", "is_disabled": 0, "lat": 38.91746416666667, "rental_uris": {"ios": "https://dc.lft.to/lastmile_qr_scan", "android": "https://dc.lft.to/lastmile_qr_scan"}, "is_reserved": 0, "fusion_lon": 0.0, "fusion_lat": 0.0, "lon": -77.01710783333333, "name": "5adba86638d96efb82713852d6ac4d00"}, {"bike_id": "448181d4cdb5e7f0946ab7edff176cd9", "type": "electric_scooter", "is_disabled": 0, "lat": 38.92542233333333, "rental_uris": {"ios": "https://dc.lft.to/lastmile_qr_scan", "android": "https://dc.lft.to/lastmile_qr_scan"}, "is_reserved": 0, "fusion_lon": 0.0, "fusion_lat": 0.0, "lon": -77.03856483333334, "name": "448181d4cdb5e7f0946ab7edff176cd9"}, {"bike_id": "fdeab2c529c941beecee42a1bfe55477", "type": "electric_scooter", "is_disabled": 0, "lat": 38.89244516666667, "rental_uris": {"ios": "https://dc.lft.to/lastmile_qr_scan", "android": "https://dc.lft.to/lastmile_qr_scan"}, "is_reserved": 0, "fusion_lon": 0.0, "fusion_lat": 0.0, "lon": -77.0502645, "name": "fdeab2c529c941beecee42a1bfe55477"}, {"bike_id": "636dbb5e03b7383a2b3e49512d4b3657", "type": "electric_scooter", "is_disabled": 0, "lat": 38.91182666666667, "rental_uris": {"ios": "https://dc.lft.to/lastmile_qr_scan", "android": "https://dc.lft.to/lastmile_qr_scan"}, "is_reserved": 0, "fusion_lon": 0.0, "fusion_lat": 0.0, "lon": -77.040351, "name": "636dbb5e03b7383a2b3e49512d4b3657"}, {"bike_id": "60f28500f48550a57c62ac2e4622a12e", "type": "electric_scooter", "is_disabled": 0, "lat": 38.91268266666667, "rental_uris": {"ios": "https://dc.lft.to/lastmile_qr_scan", "android": "https://dc.lft.to/lastmile_qr_scan"}, "is_reserved": 0, "fusion_lon": 0.0, "fusion_lat": 0.0, "lon": -77.03874816666666, "name": "60f28500f48550a57c62ac2e4622a12e"}, {"bike_id": "3aff6f6284d3163f1cd3c1813b71082c", "type": "electric_scooter", "is_disabled": 0, "lat": 38.90867683333333, "rental_uris": {"ios": "https://dc.lft.to/lastmile_qr_scan", "android": "https://dc.lft.to/lastmile_qr_scan"}, "is_reserved": 0, "fusion_lon": 0.0, "fusion_lat": 0.0, "lon": -77.08587383333334, "name": "3aff6f6284d3163f1cd3c1813b71082c"}, {"bike_id": "54925e5ec235d31ad23da9958855bc5e", "type": "electric_scooter", "is_disabled": 0, "lat": 38.914888166666664, "rental_uris": {"ios": "https://dc.lft.to/lastmile_qr_scan", "android": "https://dc.lft.to/lastmile_qr_scan"}, "is_reserved": 0, "fusion_lon": 0.0, "fusion_lat": 0.0, "lon": -77.03762883333333, "name": "54925e5ec235d31ad23da9958855bc5e"}, {"bike_id": "8047d12778a3ec2f8d389f1d9a8dd400", "type": "electric_bike", "is_disabled": 0, "lat": 38.8747905, "rental_uris": {"ios": "https://dc.lft.to/lastmile_qr_scan", "android": "https://dc.lft.to/lastmile_qr_scan"}, "is_reserved": 0, "fusion_lon": 0.0, "fusion_lat": 0.0, "lon": -76.96528633333334, "name": "8047d12778a3ec2f8d389f1d9a8dd400"}, {"bike_id": "981baa60cb2780e30c85f27a623b17e6", "type": "electric_scooter", "is_disabled": 0, "lat": 38.913217333333336, "rental_uris": {"ios": "https://dc.lft.to/lastmile_qr_scan", "android": "https://dc.lft.to/lastmile_qr_scan"}, "is_reserved": 0, "fusion_lon": 0.0, "fusion_lat": 0.0, "lon": -77.0318, "name": "981baa60cb2780e30c85f27a623b17e6"}, {"bike_id": "40d903a185cea28866e2eb1ccc335794", "type": "electric_scooter", "is_disabled": 0, "lat": 38.894756, "rental_uris": {"ios": "https://dc.lft.to/lastmile_qr_scan", "android": "https://dc.lft.to/lastmile_qr_scan"}, "is_reserved": 0, "fusion_lon": 0.0, "fusion_lat": 0.0, "lon": -76.9486035, "name": "40d903a185cea28866e2eb1ccc335794"}, {"bike_id": "393651c839c9d0f3e53bc2f4d5399cd1", "type": "electric_scooter", "is_disabled": 0, "lat": 38.8921955, "rental_uris": {"ios": "https://dc.lft.to/lastmile_qr_scan", "android": "https://dc.lft.to/lastmile_qr_scan"}, "is_reserved": 0, "fusion_lon": 0.0, "fusion_lat": 0.0, "lon": -77.03159683333334, "name": "393651c839c9d0f3e53bc2f4d5399cd1"}, {"bike_id": "6ec183f8bd7314734f9d520fe34ff9a2", "type": "electric_scooter", "is_disabled": 0, "lat": 38.907593166666665, "rental_uris": {"ios": "https://dc.lft.to/lastmile_qr_scan", "android": "https://dc.lft.to/lastmile_qr_scan"}, "is_reserved": 0, "fusion_lon": 0.0, "fusion_lat": 0.0, "lon": -77.01692266666667, "name": "6ec183f8bd7314734f9d520fe34ff9a2"}, {"bike_id": "c504b3b7d55dd1e789c9764f55ef7e9f", "type": "electric_scooter", "is_disabled": 0, "lat": 38.901981666666664, "rental_uris": {"ios": "https://dc.lft.to/lastmile_qr_scan", "android": "https://dc.lft.to/lastmile_qr_scan"}, "is_reserved": 0, "fusion_lon": 0.0, "fusion_lat": 0.0, "lon": -76.9822455, "name": "c504b3b7d55dd1e789c9764f55ef7e9f"}, {"bike_id": "2279b44b351d45bd66a694d3cf2df8af", "type": "electric_scooter", "is_disabled": 0, "lat": 38.91689566666667, "rental_uris": {"ios": "https://dc.lft.to/lastmile_qr_scan", "android": "https://dc.lft.to/lastmile_qr_scan"}, "is_reserved": 0, "fusion_lon": 0.0, "fusion_lat": 0.0, "lon": -77.03760366666667, "name": "2279b44b351d45bd66a694d3cf2df8af"}, {"bike_id": "837a6c96071be66c811875211e1495e8", "type": "electric_scooter", "is_disabled": 0, "lat": 38.905189666666665, "rental_uris": {"ios": "https://dc.lft.to/lastmile_qr_scan", "android": "https://dc.lft.to/lastmile_qr_scan"}, "is_reserved": 0, "fusion_lon": 0.0, "fusion_lat": 0.0, "lon": -77.01726016666667, "name": "837a6c96071be66c811875211e1495e8"}, {"bike_id": "88f0b59498ab40ddeb3bd81a501a84dd", "type": "electric_scooter", "is_disabled": 0, "lat": 38.898415166666666, "rental_uris": {"ios": "https://dc.lft.to/lastmile_qr_scan", "android": "https://dc.lft.to/lastmile_qr_scan"}, "is_reserved": 0, "fusion_lon": 0.0, "fusion_lat": 0.0, "lon": -76.9462635, "name": "88f0b59498ab40ddeb3bd81a501a84dd"}, {"bike_id": "0d5063d9dcc6032ce8d94646b8058e6b", "type": "electric_scooter", "is_disabled": 0, "lat": 38.93730133333333, "rental_uris": {"ios": "https://dc.lft.to/lastmile_qr_scan", "android": "https://dc.lft.to/lastmile_qr_scan"}, "is_reserved": 0, "fusion_lon": 0.0, "fusion_lat": 0.0, "lon": -77.02007016666667, "name": "0d5063d9dcc6032ce8d94646b8058e6b"}, {"bike_id": "0663b66ba6954c1f32c35272a70b4b6d", "type": "electric_scooter", "is_disabled": 0, "lat": 38.933392, "rental_uris": {"ios": "https://dc.lft.to/lastmile_qr_scan", "android": "https://dc.lft.to/lastmile_qr_scan"}, "is_reserved": 0, "fusion_lon": 0.0, "fusion_lat": 0.0, "lon": -77.03305133333333, "name": "0663b66ba6954c1f32c35272a70b4b6d"}, {"bike_id": "9fb3e58ae29cec22dd143f4095451ef3", "type": "electric_scooter", "is_disabled": 0, "lat": 38.91557366666667, "rental_uris": {"ios": "https://dc.lft.to/lastmile_qr_scan", "android": "https://dc.lft.to/lastmile_qr_scan"}, "is_reserved": 0, "fusion_lon": 0.0, "fusion_lat": 0.0, "lon": -77.03119016666666, "name": "9fb3e58ae29cec22dd143f4095451ef3"}, {"bike_id": "aebdb415ed44bb47a9dc05f8bba1d0d8", "type": "electric_bike", "is_disabled": 0, "lat": 38.8960985, "rental_uris": {"ios": "https://dc.lft.to/lastmile_qr_scan", "android": "https://dc.lft.to/lastmile_qr_scan"}, "is_reserved": 0, "fusion_lon": 0.0, "fusion_lat": 0.0, "lon": -76.90735066666667, "name": "aebdb415ed44bb47a9dc05f8bba1d0d8"}, {"bike_id": "2b9d3120e5682454253a9072b3c7fe32", "type": "electric_scooter", "is_disabled": 0, "lat": 38.9040005, "rental_uris": {"ios": "https://dc.lft.to/lastmile_qr_scan", "android": "https://dc.lft.to/lastmile_qr_scan"}, "is_reserved": 0, "fusion_lon": 0.0, "fusion_lat": 0.0, "lon": -77.02433816666667, "name": "2b9d3120e5682454253a9072b3c7fe32"}, {"bike_id": "48d997db04f25ae4aed27ca125d824aa", "type": "electric_scooter", "is_disabled": 0, "lat": 38.924166166666666, "rental_uris": {"ios": "https://dc.lft.to/lastmile_qr_scan", "android": "https://dc.lft.to/lastmile_qr_scan"}, "is_reserved": 0, "fusion_lon": 0.0, "fusion_lat": 0.0, "lon": -77.02012233333333, "name": "48d997db04f25ae4aed27ca125d824aa"}, {"bike_id": "fe746fd62ce730203315b80c734459d9", "type": "electric_scooter", "is_disabled": 0, "lat": 38.904085333333335, "rental_uris": {"ios": "https://dc.lft.to/lastmile_qr_scan", "android": "https://dc.lft.to/lastmile_qr_scan"}, "is_reserved": 0, "fusion_lon": 0.0, "fusion_lat": 0.0, "lon": -76.9732965, "name": "fe746fd62ce730203315b80c734459d9"}, {"bike_id": "013b38cc2d49d9659f89790b5414159d", "type": "electric_scooter", "is_disabled": 0, "lat": 38.89611633333333, "rental_uris": {"ios": "https://dc.lft.to/lastmile_qr_scan", "android": "https://dc.lft.to/lastmile_qr_scan"}, "is_reserved": 0, "fusion_lon": 0.0, "fusion_lat": 0.0, "lon": -77.02205883333333, "name": "013b38cc2d49d9659f89790b5414159d"}, {"bike_id": "56cae45b516e5a6fd7359c5db8919cf5", "type": "electric_scooter", "is_disabled": 0, "lat": 38.91771, "rental_uris": {"ios": "https://dc.lft.to/lastmile_qr_scan", "android": "https://dc.lft.to/lastmile_qr_scan"}, "is_reserved": 0, "fusion_lon": 0.0, "fusion_lat": 0.0, "lon": -77.03184216666666, "name": "56cae45b516e5a6fd7359c5db8919cf5"}, {"bike_id": "5c05a5c7f14870be4d365915b94c7abf", "type": "electric_scooter", "is_disabled": 0, "lat": 38.9160385, "rental_uris": {"ios": "https://dc.lft.to/lastmile_qr_scan", "android": "https://dc.lft.to/lastmile_qr_scan"}, "is_reserved": 0, "fusion_lon": 0.0, "fusion_lat": 0.0, "lon": -77.02288566666667, "name": "5c05a5c7f14870be4d365915b94c7abf"}, {"bike_id": "aab098823a4e5981f7abc96f251063d6", "type": "electric_scooter", "is_disabled": 0, "lat": 38.90139166666667, "rental_uris": {"ios": "https://dc.lft.to/lastmile_qr_scan", "android": "https://dc.lft.to/lastmile_qr_scan"}, "is_reserved": 0, "fusion_lon": 0.0, "fusion_lat": 0.0, "lon": -77.03871933333333, "name": "aab098823a4e5981f7abc96f251063d6"}, {"bike_id": "7373ad5d3bd9cc9f93121713ae613c93", "type": "electric_scooter", "is_disabled": 0, "lat": 38.928480666666665, "rental_uris": {"ios": "https://dc.lft.to/lastmile_qr_scan", "android": "https://dc.lft.to/lastmile_qr_scan"}, "is_reserved": 0, "fusion_lon": 0.0, "fusion_lat": 0.0, "lon": -77.0361355, "name": "7373ad5d3bd9cc9f93121713ae613c93"}, {"bike_id": "487d76438175e96397a182d18922cc20", "type": "electric_scooter", "is_disabled": 0, "lat": 38.916906, "rental_uris": {"ios": "https://dc.lft.to/lastmile_qr_scan", "android": "https://dc.lft.to/lastmile_qr_scan"}, "is_reserved": 0, "fusion_lon": 0.0, "fusion_lat": 0.0, "lon": -77.02177933333333, "name": "487d76438175e96397a182d18922cc20"}, {"bike_id": "b47313547222ac1b6016b5a91c912b48", "type": "electric_scooter", "is_disabled": 0, "lat": 38.91528, "rental_uris": {"ios": "https://dc.lft.to/lastmile_qr_scan", "android": "https://dc.lft.to/lastmile_qr_scan"}, "is_reserved": 0, "fusion_lon": 0.0, "fusion_lat": 0.0, "lon": -77.01995116666667, "name": "b47313547222ac1b6016b5a91c912b48"}, {"bike_id": "49543e5eeba16c55939171a0838846f1", "type": "electric_scooter", "is_disabled": 0, "lat": 38.91133833333333, "rental_uris": {"ios": "https://dc.lft.to/lastmile_qr_scan", "android": "https://dc.lft.to/lastmile_qr_scan"}, "is_reserved": 0, "fusion_lon": 0.0, "fusion_lat": 0.0, "lon": -77.03208033333334, "name": "49543e5eeba16c55939171a0838846f1"}, {"bike_id": "10e544ca20b7a121465ef7cc89414a3f", "type": "electric_scooter", "is_disabled": 0, "lat": 38.888768666666664, "rental_uris": {"ios": "https://dc.lft.to/lastmile_qr_scan", "android": "https://dc.lft.to/lastmile_qr_scan"}, "is_reserved": 0, "fusion_lon": 0.0, "fusion_lat": 0.0, "lon": -76.99036316666667, "name": "10e544ca20b7a121465ef7cc89414a3f"}, {"bike_id": "f00c4d206fde397b5232bd4e2dd2277c", "type": "electric_scooter", "is_disabled": 0, "lat": 38.920267833333334, "rental_uris": {"ios": "https://dc.lft.to/lastmile_qr_scan", "android": "https://dc.lft.to/lastmile_qr_scan"}, "is_reserved": 0, "fusion_lon": 0.0, "fusion_lat": 0.0, "lon": -77.04199933333334, "name": "f00c4d206fde397b5232bd4e2dd2277c"}, {"bike_id": "6f91531d278cf245b035f2a5046f1911", "type": "electric_scooter", "is_disabled": 0, "lat": 38.89803216666667, "rental_uris": {"ios": "https://dc.lft.to/lastmile_qr_scan", "android": "https://dc.lft.to/lastmile_qr_scan"}, "is_reserved": 0, "fusion_lon": 0.0, "fusion_lat": 0.0, "lon": -77.02481766666666, "name": "6f91531d278cf245b035f2a5046f1911"}, {"bike_id": "4b111c45518d68620c35df935b7766d3", "type": "electric_scooter", "is_disabled": 0, "lat": 38.91906433333333, "rental_uris": {"ios": "https://dc.lft.to/lastmile_qr_scan", "android": "https://dc.lft.to/lastmile_qr_scan"}, "is_reserved": 0, "fusion_lon": 0.0, "fusion_lat": 0.0, "lon": -77.01354566666667, "name": "4b111c45518d68620c35df935b7766d3"}, {"bike_id": "e95456587c9b56c8a5e4e99ee99ce998", "type": "electric_scooter", "is_disabled": 0, "lat": 38.93099816666667, "rental_uris": {"ios": "https://dc.lft.to/lastmile_qr_scan", "android": "https://dc.lft.to/lastmile_qr_scan"}, "is_reserved": 0, "fusion_lon": 0.0, "fusion_lat": 0.0, "lon": -77.03468416666666, "name": "e95456587c9b56c8a5e4e99ee99ce998"}, {"bike_id": "8fc03439abccf9e4312d29e5003f9016", "type": "electric_scooter", "is_disabled": 0, "lat": 38.85965483333333, "rental_uris": {"ios": "https://dc.lft.to/lastmile_qr_scan", "android": "https://dc.lft.to/lastmile_qr_scan"}, "is_reserved": 0, "fusion_lon": 0.0, "fusion_lat": 0.0, "lon": -76.9916005, "name": "8fc03439abccf9e4312d29e5003f9016"}, {"bike_id": "f4bb4f685b7f650ee30f41fcb35982e6", "type": "electric_scooter", "is_disabled": 0, "lat": 38.892380833333334, "rental_uris": {"ios": "https://dc.lft.to/lastmile_qr_scan", "android": "https://dc.lft.to/lastmile_qr_scan"}, "is_reserved": 0, "fusion_lon": 0.0, "fusion_lat": 0.0, "lon": -76.94096166666667, "name": "f4bb4f685b7f650ee30f41fcb35982e6"}, {"bike_id": "3634dbbdc403ad9da49425315ae3d45f", "type": "electric_scooter", "is_disabled": 0, "lat": 38.95652616666667, "rental_uris": {"ios": "https://dc.lft.to/lastmile_qr_scan", "android": "https://dc.lft.to/lastmile_qr_scan"}, "is_reserved": 0, "fusion_lon": 0.0, "fusion_lat": 0.0, "lon": -77.01965466666667, "name": "3634dbbdc403ad9da49425315ae3d45f"}, {"bike_id": "fcd1e57726192f34887b20793320c242", "type": "electric_scooter", "is_disabled": 0, "lat": 38.903938333333336, "rental_uris": {"ios": "https://dc.lft.to/lastmile_qr_scan", "android": "https://dc.lft.to/lastmile_qr_scan"}, "is_reserved": 0, "fusion_lon": 0.0, "fusion_lat": 0.0, "lon": -77.02951416666667, "name": "fcd1e57726192f34887b20793320c242"}, {"bike_id": "2d136aa0e8670a92f8f80053dbae3462", "type": "electric_scooter", "is_disabled": 0, "lat": 38.932668, "rental_uris": {"ios": "https://dc.lft.to/lastmile_qr_scan", "android": "https://dc.lft.to/lastmile_qr_scan"}, "is_reserved": 0, "fusion_lon": 0.0, "fusion_lat": 0.0, "lon": -77.03497416666667, "name": "2d136aa0e8670a92f8f80053dbae3462"}, {"bike_id": "9e86edf157af3b164255fb048523e17c", "type": "electric_scooter", "is_disabled": 0, "lat": 38.94711266666667, "rental_uris": {"ios": "https://dc.lft.to/lastmile_qr_scan", "android": "https://dc.lft.to/lastmile_qr_scan"}, "is_reserved": 0, "fusion_lon": 0.0, "fusion_lat": 0.0, "lon": -77.033279, "name": "9e86edf157af3b164255fb048523e17c"}, {"bike_id": "0fbcdccfe4eab4fdc6fd3b878ffd0514", "type": "electric_scooter", "is_disabled": 0, "lat": 38.8826875, "rental_uris": {"ios": "https://dc.lft.to/lastmile_qr_scan", "android": "https://dc.lft.to/lastmile_qr_scan"}, "is_reserved": 0, "fusion_lon": 0.0, "fusion_lat": 0.0, "lon": -76.990147, "name": "0fbcdccfe4eab4fdc6fd3b878ffd0514"}, {"bike_id": "cf7e0d34290f633bde8a205263dd99a6", "type": "electric_scooter", "is_disabled": 0, "lat": 38.916372833333334, "rental_uris": {"ios": "https://dc.lft.to/lastmile_qr_scan", "android": "https://dc.lft.to/lastmile_qr_scan"}, "is_reserved": 0, "fusion_lon": 0.0, "fusion_lat": 0.0, "lon": -77.00046383333333, "name": "cf7e0d34290f633bde8a205263dd99a6"}, {"bike_id": "3882b3fa7773d27dae00b1c30a81a92c", "type": "electric_scooter", "is_disabled": 0, "lat": 38.90954416666667, "rental_uris": {"ios": "https://dc.lft.to/lastmile_qr_scan", "android": "https://dc.lft.to/lastmile_qr_scan"}, "is_reserved": 0, "fusion_lon": 0.0, "fusion_lat": 0.0, "lon": -77.04861533333333, "name": "3882b3fa7773d27dae00b1c30a81a92c"}, {"bike_id": "12700f51f58a5f5171f654572bfd3610", "type": "electric_scooter", "is_disabled": 0, "lat": 38.8841265, "rental_uris": {"ios": "https://dc.lft.to/lastmile_qr_scan", "android": "https://dc.lft.to/lastmile_qr_scan"}, "is_reserved": 0, "fusion_lon": 0.0, "fusion_lat": 0.0, "lon": -77.0006365, "name": "12700f51f58a5f5171f654572bfd3610"}, {"bike_id": "4dbdc08498cc5281a9fa71d632348f95", "type": "electric_scooter", "is_disabled": 0, "lat": 38.892277666666665, "rental_uris": {"ios": "https://dc.lft.to/lastmile_qr_scan", "android": "https://dc.lft.to/lastmile_qr_scan"}, "is_reserved": 0, "fusion_lon": 0.0, "fusion_lat": 0.0, "lon": -77.04955566666666, "name": "4dbdc08498cc5281a9fa71d632348f95"}, {"bike_id": "158791f36c235018d4b9978d2f40216f", "type": "electric_scooter", "is_disabled": 0, "lat": 38.95650083333334, "rental_uris": {"ios": "https://dc.lft.to/lastmile_qr_scan", "android": "https://dc.lft.to/lastmile_qr_scan"}, "is_reserved": 0, "fusion_lon": 0.0, "fusion_lat": 0.0, "lon": -77.02396466666667, "name": "158791f36c235018d4b9978d2f40216f"}, {"bike_id": "8062c70b30abdc53bddef5fccbfc4f47", "type": "electric_scooter", "is_disabled": 0, "lat": 38.89595416666667, "rental_uris": {"ios": "https://dc.lft.to/lastmile_qr_scan", "android": "https://dc.lft.to/lastmile_qr_scan"}, "is_reserved": 0, "fusion_lon": 0.0, "fusion_lat": 0.0, "lon": -77.04434833333333, "name": "8062c70b30abdc53bddef5fccbfc4f47"}, {"bike_id": "c17c86bdbdd705582003e5fe81efd4cf", "type": "electric_scooter", "is_disabled": 0, "lat": 38.86440483333333, "rental_uris": {"ios": "https://dc.lft.to/lastmile_qr_scan", "android": "https://dc.lft.to/lastmile_qr_scan"}, "is_reserved": 0, "fusion_lon": 0.0, "fusion_lat": 0.0, "lon": -76.9800315, "name": "c17c86bdbdd705582003e5fe81efd4cf"}, {"bike_id": "2fff061842aadff33f8cf64fe74d41bf", "type": "electric_scooter", "is_disabled": 0, "lat": 38.874429666666664, "rental_uris": {"ios": "https://dc.lft.to/lastmile_qr_scan", "android": "https://dc.lft.to/lastmile_qr_scan"}, "is_reserved": 0, "fusion_lon": 0.0, "fusion_lat": 0.0, "lon": -77.00049116666666, "name": "2fff061842aadff33f8cf64fe74d41bf"}, {"bike_id": "687adca34b39cd94a727ba241225fad6", "type": "electric_scooter", "is_disabled": 0, "lat": 38.90570683333333, "rental_uris": {"ios": "https://dc.lft.to/lastmile_qr_scan", "android": "https://dc.lft.to/lastmile_qr_scan"}, "is_reserved": 0, "fusion_lon": 0.0, "fusion_lat": 0.0, "lon": -77.03433816666667, "name": "687adca34b39cd94a727ba241225fad6"}, {"bike_id": "d502f2af3bbff04263ac367709439095", "type": "electric_scooter", "is_disabled": 0, "lat": 38.916691, "rental_uris": {"ios": "https://dc.lft.to/lastmile_qr_scan", "android": "https://dc.lft.to/lastmile_qr_scan"}, "is_reserved": 0, "fusion_lon": 0.0, "fusion_lat": 0.0, "lon": -77.02528216666667, "name": "d502f2af3bbff04263ac367709439095"}, {"bike_id": "b01a3cba631dd5e0e6bfa9effb0da055", "type": "electric_scooter", "is_disabled": 0, "lat": 38.89287316666667, "rental_uris": {"ios": "https://dc.lft.to/lastmile_qr_scan", "android": "https://dc.lft.to/lastmile_qr_scan"}, "is_reserved": 0, "fusion_lon": 0.0, "fusion_lat": 0.0, "lon": -77.04874316666667, "name": "b01a3cba631dd5e0e6bfa9effb0da055"}, {"bike_id": "b0796f14f5236f76f0f6041f05e27dd1", "type": "electric_scooter", "is_disabled": 0, "lat": 38.9290715, "rental_uris": {"ios": "https://dc.lft.to/lastmile_qr_scan", "android": "https://dc.lft.to/lastmile_qr_scan"}, "is_reserved": 0, "fusion_lon": 0.0, "fusion_lat": 0.0, "lon": -77.037461, "name": "b0796f14f5236f76f0f6041f05e27dd1"}, {"bike_id": "f1f7eeb164637cabda5e4128904106ca", "type": "electric_scooter", "is_disabled": 0, "lat": 38.887142833333336, "rental_uris": {"ios": "https://dc.lft.to/lastmile_qr_scan", "android": "https://dc.lft.to/lastmile_qr_scan"}, "is_reserved": 0, "fusion_lon": 0.0, "fusion_lat": 0.0, "lon": -76.99628883333334, "name": "f1f7eeb164637cabda5e4128904106ca"}, {"bike_id": "9965774c507b69686dc729a07bcfe737", "type": "electric_scooter", "is_disabled": 0, "lat": 38.90397933333333, "rental_uris": {"ios": "https://dc.lft.to/lastmile_qr_scan", "android": "https://dc.lft.to/lastmile_qr_scan"}, "is_reserved": 0, "fusion_lon": 0.0, "fusion_lat": 0.0, "lon": -76.99009183333334, "name": "9965774c507b69686dc729a07bcfe737"}, {"bike_id": "c1f78955f61857b17e94dc3ee9875e42", "type": "electric_scooter", "is_disabled": 0, "lat": 38.906407333333334, "rental_uris": {"ios": "https://dc.lft.to/lastmile_qr_scan", "android": "https://dc.lft.to/lastmile_qr_scan"}, "is_reserved": 0, "fusion_lon": 0.0, "fusion_lat": 0.0, "lon": -77.01820883333333, "name": "c1f78955f61857b17e94dc3ee9875e42"}, {"bike_id": "de6646729861acf9e000967b90169b4b", "type": "electric_scooter", "is_disabled": 0, "lat": 38.91403716666667, "rental_uris": {"ios": "https://dc.lft.to/lastmile_qr_scan", "android": "https://dc.lft.to/lastmile_qr_scan"}, "is_reserved": 0, "fusion_lon": 0.0, "fusion_lat": 0.0, "lon": -77.03220266666666, "name": "de6646729861acf9e000967b90169b4b"}, {"bike_id": "7c1dab2af50c43ceb1f1faa8c783014f", "type": "electric_scooter", "is_disabled": 0, "lat": 38.89256983333333, "rental_uris": {"ios": "https://dc.lft.to/lastmile_qr_scan", "android": "https://dc.lft.to/lastmile_qr_scan"}, "is_reserved": 0, "fusion_lon": 0.0, "fusion_lat": 0.0, "lon": -76.92574333333333, "name": "7c1dab2af50c43ceb1f1faa8c783014f"}, {"bike_id": "8a2ced3dfac6bf290d192b0bf6444575", "type": "electric_scooter", "is_disabled": 0, "lat": 38.91487566666667, "rental_uris": {"ios": "https://dc.lft.to/lastmile_qr_scan", "android": "https://dc.lft.to/lastmile_qr_scan"}, "is_reserved": 0, "fusion_lon": 0.0, "fusion_lat": 0.0, "lon": -77.02580833333333, "name": "8a2ced3dfac6bf290d192b0bf6444575"}, {"bike_id": "289b39098c72b56b7f94892ed09dbd3e", "type": "electric_scooter", "is_disabled": 0, "lat": 38.9035915, "rental_uris": {"ios": "https://dc.lft.to/lastmile_qr_scan", "android": "https://dc.lft.to/lastmile_qr_scan"}, "is_reserved": 0, "fusion_lon": 0.0, "fusion_lat": 0.0, "lon": -77.04261633333333, "name": "289b39098c72b56b7f94892ed09dbd3e"}, {"bike_id": "936e4800e4edb439b33073eb5c527593", "type": "electric_scooter", "is_disabled": 0, "lat": 38.911749, "rental_uris": {"ios": "https://dc.lft.to/lastmile_qr_scan", "android": "https://dc.lft.to/lastmile_qr_scan"}, "is_reserved": 0, "fusion_lon": 0.0, "fusion_lat": 0.0, "lon": -77.016958, "name": "936e4800e4edb439b33073eb5c527593"}, {"bike_id": "a611c9818e0264278c77dd63e0bac8fb", "type": "electric_scooter", "is_disabled": 0, "lat": 38.825850333333335, "rental_uris": {"ios": "https://dc.lft.to/lastmile_qr_scan", "android": "https://dc.lft.to/lastmile_qr_scan"}, "is_reserved": 0, "fusion_lon": 0.0, "fusion_lat": 0.0, "lon": -77.00745933333333, "name": "a611c9818e0264278c77dd63e0bac8fb"}, {"bike_id": "36ba6d79cc26e2d383fa2894af4a84ed", "type": "electric_bike", "is_disabled": 0, "lat": 38.85770933333333, "rental_uris": {"ios": "https://dc.lft.to/lastmile_qr_scan", "android": "https://dc.lft.to/lastmile_qr_scan"}, "is_reserved": 0, "fusion_lon": 0.0, "fusion_lat": 0.0, "lon": -76.98765283333333, "name": "36ba6d79cc26e2d383fa2894af4a84ed"}, {"bike_id": "85ebf2b34f2e052c9e3ba61b7cf58d60", "type": "electric_scooter", "is_disabled": 0, "lat": 38.912579666666666, "rental_uris": {"ios": "https://dc.lft.to/lastmile_qr_scan", "android": "https://dc.lft.to/lastmile_qr_scan"}, "is_reserved": 0, "fusion_lon": 0.0, "fusion_lat": 0.0, "lon": -77.0471555, "name": "85ebf2b34f2e052c9e3ba61b7cf58d60"}, {"bike_id": "6a4a9d38961cd1cff08010ec0fbf453f", "type": "electric_scooter", "is_disabled": 0, "lat": 38.916928666666664, "rental_uris": {"ios": "https://dc.lft.to/lastmile_qr_scan", "android": "https://dc.lft.to/lastmile_qr_scan"}, "is_reserved": 0, "fusion_lon": 0.0, "fusion_lat": 0.0, "lon": -77.03164316666667, "name": "6a4a9d38961cd1cff08010ec0fbf453f"}, {"bike_id": "e4e987d0bcfa3d360ac6dc667f4847b3", "type": "electric_scooter", "is_disabled": 0, "lat": 38.905631, "rental_uris": {"ios": "https://dc.lft.to/lastmile_qr_scan", "android": "https://dc.lft.to/lastmile_qr_scan"}, "is_reserved": 0, "fusion_lon": 0.0, "fusion_lat": 0.0, "lon": -77.06520233333333, "name": "e4e987d0bcfa3d360ac6dc667f4847b3"}, {"bike_id": "ad2def1b3bdd99e5493eaa5a248b8476", "type": "electric_scooter", "is_disabled": 0, "lat": 38.91169933333333, "rental_uris": {"ios": "https://dc.lft.to/lastmile_qr_scan", "android": "https://dc.lft.to/lastmile_qr_scan"}, "is_reserved": 0, "fusion_lon": 0.0, "fusion_lat": 0.0, "lon": -77.0318255, "name": "ad2def1b3bdd99e5493eaa5a248b8476"}, {"bike_id": "c409abe82b9463ecca2d1339f918197d", "type": "electric_scooter", "is_disabled": 0, "lat": 38.910527333333334, "rental_uris": {"ios": "https://dc.lft.to/lastmile_qr_scan", "android": "https://dc.lft.to/lastmile_qr_scan"}, "is_reserved": 0, "fusion_lon": 0.0, "fusion_lat": 0.0, "lon": -77.02179833333334, "name": "c409abe82b9463ecca2d1339f918197d"}, {"bike_id": "efa061b2e45f4f9fe804fe3a03bb2ea6", "type": "electric_bike", "is_disabled": 0, "lat": 38.92067383333333, "rental_uris": {"ios": "https://dc.lft.to/lastmile_qr_scan", "android": "https://dc.lft.to/lastmile_qr_scan"}, "is_reserved": 0, "fusion_lon": 0.0, "fusion_lat": 0.0, "lon": -76.89071083333333, "name": "efa061b2e45f4f9fe804fe3a03bb2ea6"}, {"bike_id": "3c32fcdde1f1e3ffcc50866c059b19ef", "type": "electric_scooter", "is_disabled": 0, "lat": 38.925205, "rental_uris": {"ios": "https://dc.lft.to/lastmile_qr_scan", "android": "https://dc.lft.to/lastmile_qr_scan"}, "is_reserved": 0, "fusion_lon": 0.0, "fusion_lat": 0.0, "lon": -77.0411375, "name": "3c32fcdde1f1e3ffcc50866c059b19ef"}, {"bike_id": "bf5641779df08db8f098ab2a3f2ff610", "type": "electric_scooter", "is_disabled": 0, "lat": 38.915441333333334, "rental_uris": {"ios": "https://dc.lft.to/lastmile_qr_scan", "android": "https://dc.lft.to/lastmile_qr_scan"}, "is_reserved": 0, "fusion_lon": 0.0, "fusion_lat": 0.0, "lon": -77.036362, "name": "bf5641779df08db8f098ab2a3f2ff610"}, {"bike_id": "7f094dd5591c915a049780ad61fb37c4", "type": "electric_scooter", "is_disabled": 0, "lat": 38.91281433333333, "rental_uris": {"ios": "https://dc.lft.to/lastmile_qr_scan", "android": "https://dc.lft.to/lastmile_qr_scan"}, "is_reserved": 0, "fusion_lon": 0.0, "fusion_lat": 0.0, "lon": -77.061135, "name": "7f094dd5591c915a049780ad61fb37c4"}, {"bike_id": "7f45450b7a2c9d14d8f1854cd54bb175", "type": "electric_scooter", "is_disabled": 0, "lat": 38.91701916666667, "rental_uris": {"ios": "https://dc.lft.to/lastmile_qr_scan", "android": "https://dc.lft.to/lastmile_qr_scan"}, "is_reserved": 0, "fusion_lon": 0.0, "fusion_lat": 0.0, "lon": -77.04188516666666, "name": "7f45450b7a2c9d14d8f1854cd54bb175"}, {"bike_id": "9642502c73ed0434dd3f8c646e5af68c", "type": "electric_scooter", "is_disabled": 0, "lat": 38.923377, "rental_uris": {"ios": "https://dc.lft.to/lastmile_qr_scan", "android": "https://dc.lft.to/lastmile_qr_scan"}, "is_reserved": 0, "fusion_lon": 0.0, "fusion_lat": 0.0, "lon": -77.034817, "name": "9642502c73ed0434dd3f8c646e5af68c"}, {"bike_id": "6d0626a046e10c3e7a8b478322a38d86", "type": "electric_scooter", "is_disabled": 0, "lat": 38.8974315, "rental_uris": {"ios": "https://dc.lft.to/lastmile_qr_scan", "android": "https://dc.lft.to/lastmile_qr_scan"}, "is_reserved": 0, "fusion_lon": 0.0, "fusion_lat": 0.0, "lon": -76.94184316666667, "name": "6d0626a046e10c3e7a8b478322a38d86"}, {"bike_id": "5f4fd8ca214d726b5df51d9424cb55de", "type": "electric_scooter", "is_disabled": 0, "lat": 38.93027883333333, "rental_uris": {"ios": "https://dc.lft.to/lastmile_qr_scan", "android": "https://dc.lft.to/lastmile_qr_scan"}, "is_reserved": 0, "fusion_lon": 0.0, "fusion_lat": 0.0, "lon": -77.0234825, "name": "5f4fd8ca214d726b5df51d9424cb55de"}, {"bike_id": "19d7a429506959959e72032036896cd9", "type": "electric_scooter", "is_disabled": 0, "lat": 38.90474866666667, "rental_uris": {"ios": "https://dc.lft.to/lastmile_qr_scan", "android": "https://dc.lft.to/lastmile_qr_scan"}, "is_reserved": 0, "fusion_lon": 0.0, "fusion_lat": 0.0, "lon": -77.061178, "name": "19d7a429506959959e72032036896cd9"}, {"bike_id": "8ebc6216b9f0fbed398000d1460a3138", "type": "electric_scooter", "is_disabled": 0, "lat": 38.881322, "rental_uris": {"ios": "https://dc.lft.to/lastmile_qr_scan", "android": "https://dc.lft.to/lastmile_qr_scan"}, "is_reserved": 0, "fusion_lon": 0.0, "fusion_lat": 0.0, "lon": -77.00075233333334, "name": "8ebc6216b9f0fbed398000d1460a3138"}, {"bike_id": "ab7e0206d21fdb7fc67605e675c42d55", "type": "electric_scooter", "is_disabled": 0, "lat": 38.898429, "rental_uris": {"ios": "https://dc.lft.to/lastmile_qr_scan", "android": "https://dc.lft.to/lastmile_qr_scan"}, "is_reserved": 0, "fusion_lon": 0.0, "fusion_lat": 0.0, "lon": -76.94631533333333, "name": "ab7e0206d21fdb7fc67605e675c42d55"}, {"bike_id": "6230262c14b4c1f9ebf927c6f477bc2d", "type": "electric_bike", "is_disabled": 0, "lat": 38.796011666666665, "rental_uris": {"ios": "https://dc.lft.to/lastmile_qr_scan", "android": "https://dc.lft.to/lastmile_qr_scan"}, "is_reserved": 0, "fusion_lon": 0.0, "fusion_lat": 0.0, "lon": -76.99736916666667, "name": "6230262c14b4c1f9ebf927c6f477bc2d"}, {"bike_id": "7958d51a0d4eaa3f269a65183dc5c20e", "type": "electric_scooter", "is_disabled": 0, "lat": 38.90392033333333, "rental_uris": {"ios": "https://dc.lft.to/lastmile_qr_scan", "android": "https://dc.lft.to/lastmile_qr_scan"}, "is_reserved": 0, "fusion_lon": 0.0, "fusion_lat": 0.0, "lon": -77.025012, "name": "7958d51a0d4eaa3f269a65183dc5c20e"}, {"bike_id": "9dd1f5b28d910d8f3ef58065c7d8b72a", "type": "electric_scooter", "is_disabled": 0, "lat": 38.92386316666666, "rental_uris": {"ios": "https://dc.lft.to/lastmile_qr_scan", "android": "https://dc.lft.to/lastmile_qr_scan"}, "is_reserved": 0, "fusion_lon": 0.0, "fusion_lat": 0.0, "lon": -77.04450033333333, "name": "9dd1f5b28d910d8f3ef58065c7d8b72a"}, {"bike_id": "fe6379d7b513b47007432dc4bcbc32c0", "type": "electric_scooter", "is_disabled": 0, "lat": 38.895343833333335, "rental_uris": {"ios": "https://dc.lft.to/lastmile_qr_scan", "android": "https://dc.lft.to/lastmile_qr_scan"}, "is_reserved": 0, "fusion_lon": 0.0, "fusion_lat": 0.0, "lon": -77.01118466666667, "name": "fe6379d7b513b47007432dc4bcbc32c0"}, {"bike_id": "06fc4e6e2a1046a8efe383dba08ad849", "type": "electric_scooter", "is_disabled": 0, "lat": 38.92328466666667, "rental_uris": {"ios": "https://dc.lft.to/lastmile_qr_scan", "android": "https://dc.lft.to/lastmile_qr_scan"}, "is_reserved": 0, "fusion_lon": 0.0, "fusion_lat": 0.0, "lon": -77.0541685, "name": "06fc4e6e2a1046a8efe383dba08ad849"}, {"bike_id": "6c11660c73086ec228955d99d4733865", "type": "electric_bike", "is_disabled": 0, "lat": 38.81508933333333, "rental_uris": {"ios": "https://dc.lft.to/lastmile_qr_scan", "android": "https://dc.lft.to/lastmile_qr_scan"}, "is_reserved": 0, "fusion_lon": 0.0, "fusion_lat": 0.0, "lon": -77.12650983333333, "name": "6c11660c73086ec228955d99d4733865"}, {"bike_id": "72a1284221a707a778e9c83c1b635438", "type": "electric_scooter", "is_disabled": 0, "lat": 38.924511, "rental_uris": {"ios": "https://dc.lft.to/lastmile_qr_scan", "android": "https://dc.lft.to/lastmile_qr_scan"}, "is_reserved": 0, "fusion_lon": 0.0, "fusion_lat": 0.0, "lon": -77.0333995, "name": "72a1284221a707a778e9c83c1b635438"}, {"bike_id": "560959f4cc22e056106f448d9e0e0f10", "type": "electric_scooter", "is_disabled": 0, "lat": 38.914198, "rental_uris": {"ios": "https://dc.lft.to/lastmile_qr_scan", "android": "https://dc.lft.to/lastmile_qr_scan"}, "is_reserved": 0, "fusion_lon": 0.0, "fusion_lat": 0.0, "lon": -77.01801283333333, "name": "560959f4cc22e056106f448d9e0e0f10"}, {"bike_id": "7981240758579d6bd75ace9acf253dbc", "type": "electric_scooter", "is_disabled": 0, "lat": 38.90273283333333, "rental_uris": {"ios": "https://dc.lft.to/lastmile_qr_scan", "android": "https://dc.lft.to/lastmile_qr_scan"}, "is_reserved": 0, "fusion_lon": 0.0, "fusion_lat": 0.0, "lon": -77.05785666666667, "name": "7981240758579d6bd75ace9acf253dbc"}, {"bike_id": "f1fb6adc37eb9c7e03038bc8893f10b9", "type": "electric_scooter", "is_disabled": 0, "lat": 38.89973666666667, "rental_uris": {"ios": "https://dc.lft.to/lastmile_qr_scan", "android": "https://dc.lft.to/lastmile_qr_scan"}, "is_reserved": 0, "fusion_lon": 0.0, "fusion_lat": 0.0, "lon": -77.05012683333334, "name": "f1fb6adc37eb9c7e03038bc8893f10b9"}, {"bike_id": "513746b5ae4050f7261e45d241041fbc", "type": "electric_scooter", "is_disabled": 0, "lat": 38.90975983333333, "rental_uris": {"ios": "https://dc.lft.to/lastmile_qr_scan", "android": "https://dc.lft.to/lastmile_qr_scan"}, "is_reserved": 0, "fusion_lon": 0.0, "fusion_lat": 0.0, "lon": -77.02693316666667, "name": "513746b5ae4050f7261e45d241041fbc"}, {"bike_id": "9f7dbada0a44cb31843829a032f62f79", "type": "electric_scooter", "is_disabled": 0, "lat": 38.892394, "rental_uris": {"ios": "https://dc.lft.to/lastmile_qr_scan", "android": "https://dc.lft.to/lastmile_qr_scan"}, "is_reserved": 0, "fusion_lon": 0.0, "fusion_lat": 0.0, "lon": -77.03956616666666, "name": "9f7dbada0a44cb31843829a032f62f79"}, {"bike_id": "ce4849d490236a038e1cf213b886b8fe", "type": "electric_bike", "is_disabled": 0, "lat": 38.86150666666666, "rental_uris": {"ios": "https://dc.lft.to/lastmile_qr_scan", "android": "https://dc.lft.to/lastmile_qr_scan"}, "is_reserved": 0, "fusion_lon": 0.0, "fusion_lat": 0.0, "lon": -77.0913925, "name": "ce4849d490236a038e1cf213b886b8fe"}, {"bike_id": "5d92f4ae598de60d0aaeac4ae708da77", "type": "electric_scooter", "is_disabled": 0, "lat": 38.870667166666664, "rental_uris": {"ios": "https://dc.lft.to/lastmile_qr_scan", "android": "https://dc.lft.to/lastmile_qr_scan"}, "is_reserved": 0, "fusion_lon": 0.0, "fusion_lat": 0.0, "lon": -76.98129283333333, "name": "5d92f4ae598de60d0aaeac4ae708da77"}, {"bike_id": "1116e1a71553f604cac5316f8b58e8da", "type": "electric_scooter", "is_disabled": 0, "lat": 38.9083955, "rental_uris": {"ios": "https://dc.lft.to/lastmile_qr_scan", "android": "https://dc.lft.to/lastmile_qr_scan"}, "is_reserved": 0, "fusion_lon": 0.0, "fusion_lat": 0.0, "lon": -77.02693283333333, "name": "1116e1a71553f604cac5316f8b58e8da"}, {"bike_id": "404ff7222c66c661ef3539c9b1b30f0e", "type": "electric_scooter", "is_disabled": 0, "lat": 38.8899705, "rental_uris": {"ios": "https://dc.lft.to/lastmile_qr_scan", "android": "https://dc.lft.to/lastmile_qr_scan"}, "is_reserved": 0, "fusion_lon": 0.0, "fusion_lat": 0.0, "lon": -77.00208766666667, "name": "404ff7222c66c661ef3539c9b1b30f0e"}, {"bike_id": "4713ed2e29c58bfb68da8b9c9984a7d1", "type": "electric_bike", "is_disabled": 0, "lat": 38.909892166666666, "rental_uris": {"ios": "https://dc.lft.to/lastmile_qr_scan", "android": "https://dc.lft.to/lastmile_qr_scan"}, "is_reserved": 0, "fusion_lon": 0.0, "fusion_lat": 0.0, "lon": -77.03843516666667, "name": "4713ed2e29c58bfb68da8b9c9984a7d1"}, {"bike_id": "da68de3ab60650155494e5d98ad2f196", "type": "electric_scooter", "is_disabled": 0, "lat": 38.898421666666664, "rental_uris": {"ios": "https://dc.lft.to/lastmile_qr_scan", "android": "https://dc.lft.to/lastmile_qr_scan"}, "is_reserved": 0, "fusion_lon": 0.0, "fusion_lat": 0.0, "lon": -76.946312, "name": "da68de3ab60650155494e5d98ad2f196"}, {"bike_id": "7446e52e91dd6e9485d04fa5134bf900", "type": "electric_scooter", "is_disabled": 0, "lat": 38.936274, "rental_uris": {"ios": "https://dc.lft.to/lastmile_qr_scan", "android": "https://dc.lft.to/lastmile_qr_scan"}, "is_reserved": 0, "fusion_lon": 0.0, "fusion_lat": 0.0, "lon": -77.0245645, "name": "7446e52e91dd6e9485d04fa5134bf900"}, {"bike_id": "8705b9268396a5a0fe10772a598a23b2", "type": "electric_bike", "is_disabled": 0, "lat": 38.9296745, "rental_uris": {"ios": "https://dc.lft.to/lastmile_qr_scan", "android": "https://dc.lft.to/lastmile_qr_scan"}, "is_reserved": 0, "fusion_lon": 0.0, "fusion_lat": 0.0, "lon": -77.1856585, "name": "8705b9268396a5a0fe10772a598a23b2"}, {"bike_id": "4d2dd56d28c81ca70069e66d503dad91", "type": "electric_scooter", "is_disabled": 0, "lat": 38.9324465, "rental_uris": {"ios": "https://dc.lft.to/lastmile_qr_scan", "android": "https://dc.lft.to/lastmile_qr_scan"}, "is_reserved": 0, "fusion_lon": 0.0, "fusion_lat": 0.0, "lon": -77.01998866666666, "name": "4d2dd56d28c81ca70069e66d503dad91"}, {"bike_id": "ffcd6eefffbcadf3691cf571604a8fc9", "type": "electric_scooter", "is_disabled": 0, "lat": 38.92103933333333, "rental_uris": {"ios": "https://dc.lft.to/lastmile_qr_scan", "android": "https://dc.lft.to/lastmile_qr_scan"}, "is_reserved": 0, "fusion_lon": 0.0, "fusion_lat": 0.0, "lon": -77.04205366666666, "name": "ffcd6eefffbcadf3691cf571604a8fc9"}, {"bike_id": "86f29cd0f22c397376148c734f28c88c", "type": "electric_scooter", "is_disabled": 0, "lat": 38.912605666666664, "rental_uris": {"ios": "https://dc.lft.to/lastmile_qr_scan", "android": "https://dc.lft.to/lastmile_qr_scan"}, "is_reserved": 0, "fusion_lon": 0.0, "fusion_lat": 0.0, "lon": -77.0314295, "name": "86f29cd0f22c397376148c734f28c88c"}, {"bike_id": "9183264765c131bbc5323ef99e369c05", "type": "electric_scooter", "is_disabled": 0, "lat": 38.91934333333333, "rental_uris": {"ios": "https://dc.lft.to/lastmile_qr_scan", "android": "https://dc.lft.to/lastmile_qr_scan"}, "is_reserved": 0, "fusion_lon": 0.0, "fusion_lat": 0.0, "lon": -77.04174116666667, "name": "9183264765c131bbc5323ef99e369c05"}, {"bike_id": "422c06c417496d84b559c721dea7a676", "type": "electric_scooter", "is_disabled": 0, "lat": 38.931848333333335, "rental_uris": {"ios": "https://dc.lft.to/lastmile_qr_scan", "android": "https://dc.lft.to/lastmile_qr_scan"}, "is_reserved": 0, "fusion_lon": 0.0, "fusion_lat": 0.0, "lon": -77.020203, "name": "422c06c417496d84b559c721dea7a676"}, {"bike_id": "3dc5eb43d6722d3034e3bb9f24b49a9f", "type": "electric_scooter", "is_disabled": 0, "lat": 38.92339233333333, "rental_uris": {"ios": "https://dc.lft.to/lastmile_qr_scan", "android": "https://dc.lft.to/lastmile_qr_scan"}, "is_reserved": 0, "fusion_lon": 0.0, "fusion_lat": 0.0, "lon": -77.05250333333333, "name": "3dc5eb43d6722d3034e3bb9f24b49a9f"}, {"bike_id": "c7ccca623e6c7b03df4410cc030d5cbc", "type": "electric_scooter", "is_disabled": 0, "lat": 38.901367666666665, "rental_uris": {"ios": "https://dc.lft.to/lastmile_qr_scan", "android": "https://dc.lft.to/lastmile_qr_scan"}, "is_reserved": 0, "fusion_lon": 0.0, "fusion_lat": 0.0, "lon": -77.016229, "name": "c7ccca623e6c7b03df4410cc030d5cbc"}, {"bike_id": "f3a8a9c8a59b1be200ff94c1b4ac25c6", "type": "electric_scooter", "is_disabled": 0, "lat": 38.93135516666667, "rental_uris": {"ios": "https://dc.lft.to/lastmile_qr_scan", "android": "https://dc.lft.to/lastmile_qr_scan"}, "is_reserved": 0, "fusion_lon": 0.0, "fusion_lat": 0.0, "lon": -77.03571666666667, "name": "f3a8a9c8a59b1be200ff94c1b4ac25c6"}, {"bike_id": "b93d0ea68e8b8d30aa45a1b5decb1042", "type": "electric_scooter", "is_disabled": 0, "lat": 38.917936, "rental_uris": {"ios": "https://dc.lft.to/lastmile_qr_scan", "android": "https://dc.lft.to/lastmile_qr_scan"}, "is_reserved": 0, "fusion_lon": 0.0, "fusion_lat": 0.0, "lon": -77.03434416666667, "name": "b93d0ea68e8b8d30aa45a1b5decb1042"}, {"bike_id": "61f6f3c4df99dd109d6d7a2a0a1286cc", "type": "electric_scooter", "is_disabled": 0, "lat": 38.900463, "rental_uris": {"ios": "https://dc.lft.to/lastmile_qr_scan", "android": "https://dc.lft.to/lastmile_qr_scan"}, "is_reserved": 0, "fusion_lon": 0.0, "fusion_lat": 0.0, "lon": -76.99500933333333, "name": "61f6f3c4df99dd109d6d7a2a0a1286cc"}, {"bike_id": "7b558e24fb6545972f4f40dd2479da13", "type": "electric_scooter", "is_disabled": 0, "lat": 38.9099265, "rental_uris": {"ios": "https://dc.lft.to/lastmile_qr_scan", "android": "https://dc.lft.to/lastmile_qr_scan"}, "is_reserved": 0, "fusion_lon": 0.0, "fusion_lat": 0.0, "lon": -77.04006633333333, "name": "7b558e24fb6545972f4f40dd2479da13"}, {"bike_id": "cbce8bbb02c1deb8789e69e2cfd8b277", "type": "electric_scooter", "is_disabled": 0, "lat": 38.923276333333334, "rental_uris": {"ios": "https://dc.lft.to/lastmile_qr_scan", "android": "https://dc.lft.to/lastmile_qr_scan"}, "is_reserved": 0, "fusion_lon": 0.0, "fusion_lat": 0.0, "lon": -77.0296325, "name": "cbce8bbb02c1deb8789e69e2cfd8b277"}, {"bike_id": "f61ff9c6a19d87c041a741452bbef2df", "type": "electric_scooter", "is_disabled": 0, "lat": 38.91563516666667, "rental_uris": {"ios": "https://dc.lft.to/lastmile_qr_scan", "android": "https://dc.lft.to/lastmile_qr_scan"}, "is_reserved": 0, "fusion_lon": 0.0, "fusion_lat": 0.0, "lon": -77.02712633333333, "name": "f61ff9c6a19d87c041a741452bbef2df"}, {"bike_id": "76308f683e3334ea0d51428e0b99ce8a", "type": "electric_bike", "is_disabled": 0, "lat": 38.87298633333333, "rental_uris": {"ios": "https://dc.lft.to/lastmile_qr_scan", "android": "https://dc.lft.to/lastmile_qr_scan"}, "is_reserved": 0, "fusion_lon": 0.0, "fusion_lat": 0.0, "lon": -77.13925566666667, "name": "76308f683e3334ea0d51428e0b99ce8a"}, {"bike_id": "923716e34f956ed44f7add9cf61cc1d6", "type": "electric_scooter", "is_disabled": 0, "lat": 38.906651833333335, "rental_uris": {"ios": "https://dc.lft.to/lastmile_qr_scan", "android": "https://dc.lft.to/lastmile_qr_scan"}, "is_reserved": 0, "fusion_lon": 0.0, "fusion_lat": 0.0, "lon": -77.02698066666666, "name": "923716e34f956ed44f7add9cf61cc1d6"}, {"bike_id": "eed562751e1d869b11f1c26cca3e7b9f", "type": "electric_scooter", "is_disabled": 0, "lat": 38.8959895, "rental_uris": {"ios": "https://dc.lft.to/lastmile_qr_scan", "android": "https://dc.lft.to/lastmile_qr_scan"}, "is_reserved": 0, "fusion_lon": 0.0, "fusion_lat": 0.0, "lon": -77.044821, "name": "eed562751e1d869b11f1c26cca3e7b9f"}, {"bike_id": "d5ac692d1f1d19338a30b5a438a856f5", "type": "electric_scooter", "is_disabled": 0, "lat": 38.91691733333333, "rental_uris": {"ios": "https://dc.lft.to/lastmile_qr_scan", "android": "https://dc.lft.to/lastmile_qr_scan"}, "is_reserved": 0, "fusion_lon": 0.0, "fusion_lat": 0.0, "lon": -77.03162366666666, "name": "d5ac692d1f1d19338a30b5a438a856f5"}, {"bike_id": "6d71a3e94fdaf0e7fe3b31bda178ea99", "type": "electric_scooter", "is_disabled": 0, "lat": 38.92426233333333, "rental_uris": {"ios": "https://dc.lft.to/lastmile_qr_scan", "android": "https://dc.lft.to/lastmile_qr_scan"}, "is_reserved": 0, "fusion_lon": 0.0, "fusion_lat": 0.0, "lon": -77.04247683333334, "name": "6d71a3e94fdaf0e7fe3b31bda178ea99"}, {"bike_id": "1bd1be600b6101075127720c3001a965", "type": "electric_scooter", "is_disabled": 0, "lat": 38.900342333333334, "rental_uris": {"ios": "https://dc.lft.to/lastmile_qr_scan", "android": "https://dc.lft.to/lastmile_qr_scan"}, "is_reserved": 0, "fusion_lon": 0.0, "fusion_lat": 0.0, "lon": -77.00182933333333, "name": "1bd1be600b6101075127720c3001a965"}, {"bike_id": "9d9cfaee8fdacb6f2262b1809b74afbb", "type": "electric_scooter", "is_disabled": 0, "lat": 38.911396833333335, "rental_uris": {"ios": "https://dc.lft.to/lastmile_qr_scan", "android": "https://dc.lft.to/lastmile_qr_scan"}, "is_reserved": 0, "fusion_lon": 0.0, "fusion_lat": 0.0, "lon": -76.99008216666667, "name": "9d9cfaee8fdacb6f2262b1809b74afbb"}, {"bike_id": "483a299e977ec27e4d8ebb6be7523bd3", "type": "electric_bike", "is_disabled": 0, "lat": 38.9314265, "rental_uris": {"ios": "https://dc.lft.to/lastmile_qr_scan", "android": "https://dc.lft.to/lastmile_qr_scan"}, "is_reserved": 0, "fusion_lon": 0.0, "fusion_lat": 0.0, "lon": -77.00073683333333, "name": "483a299e977ec27e4d8ebb6be7523bd3"}, {"bike_id": "25d48e14bd4e87cbba02fe1aa0e8981c", "type": "electric_scooter", "is_disabled": 0, "lat": 38.9108785, "rental_uris": {"ios": "https://dc.lft.to/lastmile_qr_scan", "android": "https://dc.lft.to/lastmile_qr_scan"}, "is_reserved": 0, "fusion_lon": 0.0, "fusion_lat": 0.0, "lon": -77.02405983333334, "name": "25d48e14bd4e87cbba02fe1aa0e8981c"}, {"bike_id": "9133fc57971962ea7c03b140d54b4d44", "type": "electric_scooter", "is_disabled": 0, "lat": 38.902819666666666, "rental_uris": {"ios": "https://dc.lft.to/lastmile_qr_scan", "android": "https://dc.lft.to/lastmile_qr_scan"}, "is_reserved": 0, "fusion_lon": 0.0, "fusion_lat": 0.0, "lon": -77.01752083333334, "name": "9133fc57971962ea7c03b140d54b4d44"}, {"bike_id": "5f0fe15cdefff358f3fd30ced845d0c2", "type": "electric_scooter", "is_disabled": 0, "lat": 38.91699916666666, "rental_uris": {"ios": "https://dc.lft.to/lastmile_qr_scan", "android": "https://dc.lft.to/lastmile_qr_scan"}, "is_reserved": 0, "fusion_lon": 0.0, "fusion_lat": 0.0, "lon": -77.04606533333333, "name": "5f0fe15cdefff358f3fd30ced845d0c2"}, {"bike_id": "04b1e51d6cb945d5ccf6060eecdee0ee", "type": "electric_bike", "is_disabled": 0, "lat": 39.03990983333333, "rental_uris": {"ios": "https://dc.lft.to/lastmile_qr_scan", "android": "https://dc.lft.to/lastmile_qr_scan"}, "is_reserved": 0, "fusion_lon": 0.0, "fusion_lat": 0.0, "lon": -76.999254, "name": "04b1e51d6cb945d5ccf6060eecdee0ee"}, {"bike_id": "c27b34ef6b6dcd7b054e9d2d5b94cae1", "type": "electric_scooter", "is_disabled": 0, "lat": 38.922183, "rental_uris": {"ios": "https://dc.lft.to/lastmile_qr_scan", "android": "https://dc.lft.to/lastmile_qr_scan"}, "is_reserved": 0, "fusion_lon": 0.0, "fusion_lat": 0.0, "lon": -77.03457616666667, "name": "c27b34ef6b6dcd7b054e9d2d5b94cae1"}, {"bike_id": "6f69bc63b77733258f52dc625b71caa8", "type": "electric_scooter", "is_disabled": 0, "lat": 38.93223666666667, "rental_uris": {"ios": "https://dc.lft.to/lastmile_qr_scan", "android": "https://dc.lft.to/lastmile_qr_scan"}, "is_reserved": 0, "fusion_lon": 0.0, "fusion_lat": 0.0, "lon": -76.99525216666666, "name": "6f69bc63b77733258f52dc625b71caa8"}, {"bike_id": "7f7ba052a9275b0df356f97fb08caecd", "type": "electric_scooter", "is_disabled": 0, "lat": 38.907083, "rental_uris": {"ios": "https://dc.lft.to/lastmile_qr_scan", "android": "https://dc.lft.to/lastmile_qr_scan"}, "is_reserved": 0, "fusion_lon": 0.0, "fusion_lat": 0.0, "lon": -77.02386316666667, "name": "7f7ba052a9275b0df356f97fb08caecd"}, {"bike_id": "77868c0026d0013b1d862bb89daa9b93", "type": "electric_scooter", "is_disabled": 0, "lat": 38.907407666666664, "rental_uris": {"ios": "https://dc.lft.to/lastmile_qr_scan", "android": "https://dc.lft.to/lastmile_qr_scan"}, "is_reserved": 0, "fusion_lon": 0.0, "fusion_lat": 0.0, "lon": -77.04232766666667, "name": "77868c0026d0013b1d862bb89daa9b93"}, {"bike_id": "8253f0ee04a8fd1b56f3df01b4ef75eb", "type": "electric_scooter", "is_disabled": 0, "lat": 38.916825333333335, "rental_uris": {"ios": "https://dc.lft.to/lastmile_qr_scan", "android": "https://dc.lft.to/lastmile_qr_scan"}, "is_reserved": 0, "fusion_lon": 0.0, "fusion_lat": 0.0, "lon": -77.02854883333333, "name": "8253f0ee04a8fd1b56f3df01b4ef75eb"}, {"bike_id": "6182b68ea63983020a26f5d787857e70", "type": "electric_scooter", "is_disabled": 0, "lat": 38.92973416666667, "rental_uris": {"ios": "https://dc.lft.to/lastmile_qr_scan", "android": "https://dc.lft.to/lastmile_qr_scan"}, "is_reserved": 0, "fusion_lon": 0.0, "fusion_lat": 0.0, "lon": -77.0318225, "name": "6182b68ea63983020a26f5d787857e70"}, {"bike_id": "6ee73d4baa00705b4cc1bacbf24e6437", "type": "electric_scooter", "is_disabled": 0, "lat": 38.9223935, "rental_uris": {"ios": "https://dc.lft.to/lastmile_qr_scan", "android": "https://dc.lft.to/lastmile_qr_scan"}, "is_reserved": 0, "fusion_lon": 0.0, "fusion_lat": 0.0, "lon": -77.03661166666667, "name": "6ee73d4baa00705b4cc1bacbf24e6437"}, {"bike_id": "7ca6e54276f5ee71c5134ca26cfaf68a", "type": "electric_scooter", "is_disabled": 0, "lat": 38.9006795, "rental_uris": {"ios": "https://dc.lft.to/lastmile_qr_scan", "android": "https://dc.lft.to/lastmile_qr_scan"}, "is_reserved": 0, "fusion_lon": 0.0, "fusion_lat": 0.0, "lon": -77.03635083333333, "name": "7ca6e54276f5ee71c5134ca26cfaf68a"}, {"bike_id": "a7a672078955a996f5c0b1e59ed90b8b", "type": "electric_scooter", "is_disabled": 0, "lat": 38.90915916666667, "rental_uris": {"ios": "https://dc.lft.to/lastmile_qr_scan", "android": "https://dc.lft.to/lastmile_qr_scan"}, "is_reserved": 0, "fusion_lon": 0.0, "fusion_lat": 0.0, "lon": -76.99961816666666, "name": "a7a672078955a996f5c0b1e59ed90b8b"}, {"bike_id": "59115a9699985fad490f09961e802a48", "type": "electric_scooter", "is_disabled": 0, "lat": 38.8922355, "rental_uris": {"ios": "https://dc.lft.to/lastmile_qr_scan", "android": "https://dc.lft.to/lastmile_qr_scan"}, "is_reserved": 0, "fusion_lon": 0.0, "fusion_lat": 0.0, "lon": -77.03165583333333, "name": "59115a9699985fad490f09961e802a48"}, {"bike_id": "b581430463e1160121cd80bcc15ebdc0", "type": "electric_scooter", "is_disabled": 0, "lat": 38.892931833333336, "rental_uris": {"ios": "https://dc.lft.to/lastmile_qr_scan", "android": "https://dc.lft.to/lastmile_qr_scan"}, "is_reserved": 0, "fusion_lon": 0.0, "fusion_lat": 0.0, "lon": -77.04873683333334, "name": "b581430463e1160121cd80bcc15ebdc0"}, {"bike_id": "98b9958ae08da3eabedfcb5ccb8d37bf", "type": "electric_scooter", "is_disabled": 0, "lat": 38.883830833333334, "rental_uris": {"ios": "https://dc.lft.to/lastmile_qr_scan", "android": "https://dc.lft.to/lastmile_qr_scan"}, "is_reserved": 0, "fusion_lon": 0.0, "fusion_lat": 0.0, "lon": -77.017722, "name": "98b9958ae08da3eabedfcb5ccb8d37bf"}, {"bike_id": "9b86a870729157e2e0239d762870a8ca", "type": "electric_scooter", "is_disabled": 0, "lat": 38.917070833333334, "rental_uris": {"ios": "https://dc.lft.to/lastmile_qr_scan", "android": "https://dc.lft.to/lastmile_qr_scan"}, "is_reserved": 0, "fusion_lon": 0.0, "fusion_lat": 0.0, "lon": -77.0957785, "name": "9b86a870729157e2e0239d762870a8ca"}, {"bike_id": "b86cbae8f4a2f590fe7a70226c0b0fa2", "type": "electric_scooter", "is_disabled": 0, "lat": 38.9077975, "rental_uris": {"ios": "https://dc.lft.to/lastmile_qr_scan", "android": "https://dc.lft.to/lastmile_qr_scan"}, "is_reserved": 0, "fusion_lon": 0.0, "fusion_lat": 0.0, "lon": -77.07247783333334, "name": "b86cbae8f4a2f590fe7a70226c0b0fa2"}, {"bike_id": "a52791e9efae27579668191bb420f95c", "type": "electric_scooter", "is_disabled": 0, "lat": 38.927701666666664, "rental_uris": {"ios": "https://dc.lft.to/lastmile_qr_scan", "android": "https://dc.lft.to/lastmile_qr_scan"}, "is_reserved": 0, "fusion_lon": 0.0, "fusion_lat": 0.0, "lon": -76.987551, "name": "a52791e9efae27579668191bb420f95c"}, {"bike_id": "c6ce1386788d10c9266d5eb9e4908f77", "type": "electric_scooter", "is_disabled": 0, "lat": 38.8650095, "rental_uris": {"ios": "https://dc.lft.to/lastmile_qr_scan", "android": "https://dc.lft.to/lastmile_qr_scan"}, "is_reserved": 0, "fusion_lon": 0.0, "fusion_lat": 0.0, "lon": -76.98999733333333, "name": "c6ce1386788d10c9266d5eb9e4908f77"}, {"bike_id": "1f83544d70caeb1f7ffe055024da95a1", "type": "electric_scooter", "is_disabled": 0, "lat": 38.924216, "rental_uris": {"ios": "https://dc.lft.to/lastmile_qr_scan", "android": "https://dc.lft.to/lastmile_qr_scan"}, "is_reserved": 0, "fusion_lon": 0.0, "fusion_lat": 0.0, "lon": -77.04458816666667, "name": "1f83544d70caeb1f7ffe055024da95a1"}, {"bike_id": "f61de8f9aa8ccbdc8a33e2d0e46669bf", "type": "electric_scooter", "is_disabled": 0, "lat": 38.90230566666666, "rental_uris": {"ios": "https://dc.lft.to/lastmile_qr_scan", "android": "https://dc.lft.to/lastmile_qr_scan"}, "is_reserved": 0, "fusion_lon": 0.0, "fusion_lat": 0.0, "lon": -77.059081, "name": "f61de8f9aa8ccbdc8a33e2d0e46669bf"}, {"bike_id": "541d79689bcc074cfee872007b05489d", "type": "electric_scooter", "is_disabled": 0, "lat": 38.90411233333333, "rental_uris": {"ios": "https://dc.lft.to/lastmile_qr_scan", "android": "https://dc.lft.to/lastmile_qr_scan"}, "is_reserved": 0, "fusion_lon": 0.0, "fusion_lat": 0.0, "lon": -77.0499255, "name": "541d79689bcc074cfee872007b05489d"}, {"bike_id": "5821c26b7ae7668da1cbfcf47d81ffd9", "type": "electric_scooter", "is_disabled": 0, "lat": 38.86683083333333, "rental_uris": {"ios": "https://dc.lft.to/lastmile_qr_scan", "android": "https://dc.lft.to/lastmile_qr_scan"}, "is_reserved": 0, "fusion_lon": 0.0, "fusion_lat": 0.0, "lon": -76.98574766666667, "name": "5821c26b7ae7668da1cbfcf47d81ffd9"}, {"bike_id": "33c76ea65ea3e013fa625e0328120cec", "type": "electric_scooter", "is_disabled": 0, "lat": 38.92315966666666, "rental_uris": {"ios": "https://dc.lft.to/lastmile_qr_scan", "android": "https://dc.lft.to/lastmile_qr_scan"}, "is_reserved": 0, "fusion_lon": 0.0, "fusion_lat": 0.0, "lon": -77.0212545, "name": "33c76ea65ea3e013fa625e0328120cec"}, {"bike_id": "758cf101811c6ef5a9cd22a90007e579", "type": "electric_scooter", "is_disabled": 0, "lat": 38.8982685, "rental_uris": {"ios": "https://dc.lft.to/lastmile_qr_scan", "android": "https://dc.lft.to/lastmile_qr_scan"}, "is_reserved": 0, "fusion_lon": 0.0, "fusion_lat": 0.0, "lon": -76.9194725, "name": "758cf101811c6ef5a9cd22a90007e579"}, {"bike_id": "627ae738d70ea9ef672369a4ed575e94", "type": "electric_scooter", "is_disabled": 0, "lat": 38.957307, "rental_uris": {"ios": "https://dc.lft.to/lastmile_qr_scan", "android": "https://dc.lft.to/lastmile_qr_scan"}, "is_reserved": 0, "fusion_lon": 0.0, "fusion_lat": 0.0, "lon": -77.02402366666666, "name": "627ae738d70ea9ef672369a4ed575e94"}, {"bike_id": "94a25d726c3868368186b0da6cdd4617", "type": "electric_scooter", "is_disabled": 0, "lat": 38.94286133333333, "rental_uris": {"ios": "https://dc.lft.to/lastmile_qr_scan", "android": "https://dc.lft.to/lastmile_qr_scan"}, "is_reserved": 0, "fusion_lon": 0.0, "fusion_lat": 0.0, "lon": -77.03618716666666, "name": "94a25d726c3868368186b0da6cdd4617"}, {"bike_id": "5d0297ecd38f4d068ded274ac5af262b", "type": "electric_scooter", "is_disabled": 0, "lat": 38.899994666666665, "rental_uris": {"ios": "https://dc.lft.to/lastmile_qr_scan", "android": "https://dc.lft.to/lastmile_qr_scan"}, "is_reserved": 0, "fusion_lon": 0.0, "fusion_lat": 0.0, "lon": -77.02338, "name": "5d0297ecd38f4d068ded274ac5af262b"}, {"bike_id": "6cac15cb91c973aa73aad494b2eba626", "type": "electric_scooter", "is_disabled": 0, "lat": 38.92968783333333, "rental_uris": {"ios": "https://dc.lft.to/lastmile_qr_scan", "android": "https://dc.lft.to/lastmile_qr_scan"}, "is_reserved": 0, "fusion_lon": 0.0, "fusion_lat": 0.0, "lon": -77.02789933333334, "name": "6cac15cb91c973aa73aad494b2eba626"}, {"bike_id": "92ddb2cf7beb04d019407bd569e25a54", "type": "electric_scooter", "is_disabled": 0, "lat": 38.9116635, "rental_uris": {"ios": "https://dc.lft.to/lastmile_qr_scan", "android": "https://dc.lft.to/lastmile_qr_scan"}, "is_reserved": 0, "fusion_lon": 0.0, "fusion_lat": 0.0, "lon": -77.00442233333334, "name": "92ddb2cf7beb04d019407bd569e25a54"}, {"bike_id": "c97f0889d5932dbf0ac478117fd685d3", "type": "electric_scooter", "is_disabled": 0, "lat": 38.951149666666666, "rental_uris": {"ios": "https://dc.lft.to/lastmile_qr_scan", "android": "https://dc.lft.to/lastmile_qr_scan"}, "is_reserved": 0, "fusion_lon": 0.0, "fusion_lat": 0.0, "lon": -77.0143395, "name": "c97f0889d5932dbf0ac478117fd685d3"}, {"bike_id": "107d2e941e1975159cea732389842b8f", "type": "electric_scooter", "is_disabled": 0, "lat": 38.866680333333335, "rental_uris": {"ios": "https://dc.lft.to/lastmile_qr_scan", "android": "https://dc.lft.to/lastmile_qr_scan"}, "is_reserved": 0, "fusion_lon": 0.0, "fusion_lat": 0.0, "lon": -76.985383, "name": "107d2e941e1975159cea732389842b8f"}, {"bike_id": "5738a3abbddd2a4ac0f46ff38e80e1cb", "type": "electric_bike", "is_disabled": 0, "lat": 38.848409333333336, "rental_uris": {"ios": "https://dc.lft.to/lastmile_qr_scan", "android": "https://dc.lft.to/lastmile_qr_scan"}, "is_reserved": 0, "fusion_lon": 0.0, "fusion_lat": 0.0, "lon": -77.07906183333333, "name": "5738a3abbddd2a4ac0f46ff38e80e1cb"}, {"bike_id": "65fb357dfac0749f7dcc321562fc4807", "type": "electric_scooter", "is_disabled": 0, "lat": 38.89879966666667, "rental_uris": {"ios": "https://dc.lft.to/lastmile_qr_scan", "android": "https://dc.lft.to/lastmile_qr_scan"}, "is_reserved": 0, "fusion_lon": 0.0, "fusion_lat": 0.0, "lon": -76.93175133333334, "name": "65fb357dfac0749f7dcc321562fc4807"}, {"bike_id": "094f2c3078400e64425e2e099cf7f25f", "type": "electric_bike", "is_disabled": 0, "lat": 38.91111466666667, "rental_uris": {"ios": "https://dc.lft.to/lastmile_qr_scan", "android": "https://dc.lft.to/lastmile_qr_scan"}, "is_reserved": 0, "fusion_lon": 0.0, "fusion_lat": 0.0, "lon": -77.038341, "name": "094f2c3078400e64425e2e099cf7f25f"}, {"bike_id": "bf6f77ac2bceab30cedd4254c329e024", "type": "electric_scooter", "is_disabled": 0, "lat": 38.88179433333333, "rental_uris": {"ios": "https://dc.lft.to/lastmile_qr_scan", "android": "https://dc.lft.to/lastmile_qr_scan"}, "is_reserved": 0, "fusion_lon": 0.0, "fusion_lat": 0.0, "lon": -77.02086716666666, "name": "bf6f77ac2bceab30cedd4254c329e024"}, {"bike_id": "5b2c38b4f9169629034a386a6869e0b9", "type": "electric_scooter", "is_disabled": 0, "lat": 38.902778833333336, "rental_uris": {"ios": "https://dc.lft.to/lastmile_qr_scan", "android": "https://dc.lft.to/lastmile_qr_scan"}, "is_reserved": 0, "fusion_lon": 0.0, "fusion_lat": 0.0, "lon": -77.017554, "name": "5b2c38b4f9169629034a386a6869e0b9"}, {"bike_id": "2dbfdd709e1aa4ef44a314bb0239e17c", "type": "electric_scooter", "is_disabled": 0, "lat": 38.915541, "rental_uris": {"ios": "https://dc.lft.to/lastmile_qr_scan", "android": "https://dc.lft.to/lastmile_qr_scan"}, "is_reserved": 0, "fusion_lon": 0.0, "fusion_lat": 0.0, "lon": -77.0241515, "name": "2dbfdd709e1aa4ef44a314bb0239e17c"}, {"bike_id": "6460e73c40c3663537e9e0d29af4a70a", "type": "electric_scooter", "is_disabled": 0, "lat": 38.906509166666666, "rental_uris": {"ios": "https://dc.lft.to/lastmile_qr_scan", "android": "https://dc.lft.to/lastmile_qr_scan"}, "is_reserved": 0, "fusion_lon": 0.0, "fusion_lat": 0.0, "lon": -77.01414383333334, "name": "6460e73c40c3663537e9e0d29af4a70a"}, {"bike_id": "aef6fb9f00b1cf88e76d92449f22fea4", "type": "electric_bike", "is_disabled": 0, "lat": 38.942605666666665, "rental_uris": {"ios": "https://dc.lft.to/lastmile_qr_scan", "android": "https://dc.lft.to/lastmile_qr_scan"}, "is_reserved": 0, "fusion_lon": 0.0, "fusion_lat": 0.0, "lon": -76.99068966666667, "name": "aef6fb9f00b1cf88e76d92449f22fea4"}, {"bike_id": "d02d5c0b6df654722e28e95b35ef5b05", "type": "electric_scooter", "is_disabled": 0, "lat": 38.93334183333333, "rental_uris": {"ios": "https://dc.lft.to/lastmile_qr_scan", "android": "https://dc.lft.to/lastmile_qr_scan"}, "is_reserved": 0, "fusion_lon": 0.0, "fusion_lat": 0.0, "lon": -77.0398495, "name": "d02d5c0b6df654722e28e95b35ef5b05"}, {"bike_id": "4a3c0a813ecb14c7b2270a8a6e46de38", "type": "electric_bike", "is_disabled": 0, "lat": 38.91298283333333, "rental_uris": {"ios": "https://dc.lft.to/lastmile_qr_scan", "android": "https://dc.lft.to/lastmile_qr_scan"}, "is_reserved": 0, "fusion_lon": 0.0, "fusion_lat": 0.0, "lon": -77.006384, "name": "4a3c0a813ecb14c7b2270a8a6e46de38"}, {"bike_id": "6137d9948bd070dbf52a267a68d6baca", "type": "electric_scooter", "is_disabled": 0, "lat": 38.912638666666666, "rental_uris": {"ios": "https://dc.lft.to/lastmile_qr_scan", "android": "https://dc.lft.to/lastmile_qr_scan"}, "is_reserved": 0, "fusion_lon": 0.0, "fusion_lat": 0.0, "lon": -77.03142916666667, "name": "6137d9948bd070dbf52a267a68d6baca"}, {"bike_id": "688cf114c1d36fc9c090a1a42ba446f9", "type": "electric_scooter", "is_disabled": 0, "lat": 38.9428935, "rental_uris": {"ios": "https://dc.lft.to/lastmile_qr_scan", "android": "https://dc.lft.to/lastmile_qr_scan"}, "is_reserved": 0, "fusion_lon": 0.0, "fusion_lat": 0.0, "lon": -77.0216665, "name": "688cf114c1d36fc9c090a1a42ba446f9"}, {"bike_id": "c487a4353a2efa45397995d1a544aa02", "type": "electric_scooter", "is_disabled": 0, "lat": 38.89742016666667, "rental_uris": {"ios": "https://dc.lft.to/lastmile_qr_scan", "android": "https://dc.lft.to/lastmile_qr_scan"}, "is_reserved": 0, "fusion_lon": 0.0, "fusion_lat": 0.0, "lon": -77.02452966666667, "name": "c487a4353a2efa45397995d1a544aa02"}, {"bike_id": "72aa6399538a27aca40a9f7c477124ae", "type": "electric_scooter", "is_disabled": 0, "lat": 38.91899566666667, "rental_uris": {"ios": "https://dc.lft.to/lastmile_qr_scan", "android": "https://dc.lft.to/lastmile_qr_scan"}, "is_reserved": 0, "fusion_lon": 0.0, "fusion_lat": 0.0, "lon": -77.01687016666666, "name": "72aa6399538a27aca40a9f7c477124ae"}, {"bike_id": "eeedf020ef9f3d046bdc32a9f82d66d6", "type": "electric_scooter", "is_disabled": 0, "lat": 38.92229283333333, "rental_uris": {"ios": "https://dc.lft.to/lastmile_qr_scan", "android": "https://dc.lft.to/lastmile_qr_scan"}, "is_reserved": 0, "fusion_lon": 0.0, "fusion_lat": 0.0, "lon": -77.04265283333334, "name": "eeedf020ef9f3d046bdc32a9f82d66d6"}, {"bike_id": "e56efaa5e1360e4475e7574d403afe4a", "type": "electric_scooter", "is_disabled": 0, "lat": 38.9118465, "rental_uris": {"ios": "https://dc.lft.to/lastmile_qr_scan", "android": "https://dc.lft.to/lastmile_qr_scan"}, "is_reserved": 0, "fusion_lon": 0.0, "fusion_lat": 0.0, "lon": -77.03203066666667, "name": "e56efaa5e1360e4475e7574d403afe4a"}, {"bike_id": "8a598946d0d6931246a28bc528ac3645", "type": "electric_scooter", "is_disabled": 0, "lat": 38.89285266666667, "rental_uris": {"ios": "https://dc.lft.to/lastmile_qr_scan", "android": "https://dc.lft.to/lastmile_qr_scan"}, "is_reserved": 0, "fusion_lon": 0.0, "fusion_lat": 0.0, "lon": -77.04485233333334, "name": "8a598946d0d6931246a28bc528ac3645"}, {"bike_id": "1fc8e2d3db60c4310e17cce6f9bfc3d0", "type": "electric_scooter", "is_disabled": 0, "lat": 38.91482766666667, "rental_uris": {"ios": "https://dc.lft.to/lastmile_qr_scan", "android": "https://dc.lft.to/lastmile_qr_scan"}, "is_reserved": 0, "fusion_lon": 0.0, "fusion_lat": 0.0, "lon": -77.02176983333334, "name": "1fc8e2d3db60c4310e17cce6f9bfc3d0"}, {"bike_id": "6b21cebe9c5fb01b0d5540be9f9f48e2", "type": "electric_scooter", "is_disabled": 0, "lat": 38.91047716666667, "rental_uris": {"ios": "https://dc.lft.to/lastmile_qr_scan", "android": "https://dc.lft.to/lastmile_qr_scan"}, "is_reserved": 0, "fusion_lon": 0.0, "fusion_lat": 0.0, "lon": -77.03835366666667, "name": "6b21cebe9c5fb01b0d5540be9f9f48e2"}, {"bike_id": "dcb67f472de45105f970595e22537384", "type": "electric_scooter", "is_disabled": 0, "lat": 38.922279, "rental_uris": {"ios": "https://dc.lft.to/lastmile_qr_scan", "android": "https://dc.lft.to/lastmile_qr_scan"}, "is_reserved": 0, "fusion_lon": 0.0, "fusion_lat": 0.0, "lon": -77.038816, "name": "dcb67f472de45105f970595e22537384"}, {"bike_id": "7aebc9e47689d6a3051e733362b3def2", "type": "electric_scooter", "is_disabled": 0, "lat": 38.937637333333335, "rental_uris": {"ios": "https://dc.lft.to/lastmile_qr_scan", "android": "https://dc.lft.to/lastmile_qr_scan"}, "is_reserved": 0, "fusion_lon": 0.0, "fusion_lat": 0.0, "lon": -76.99146516666667, "name": "7aebc9e47689d6a3051e733362b3def2"}, {"bike_id": "e5fd4d72410637f28f24056818563f8c", "type": "electric_scooter", "is_disabled": 0, "lat": 38.86682966666667, "rental_uris": {"ios": "https://dc.lft.to/lastmile_qr_scan", "android": "https://dc.lft.to/lastmile_qr_scan"}, "is_reserved": 0, "fusion_lon": 0.0, "fusion_lat": 0.0, "lon": -76.98575533333333, "name": "e5fd4d72410637f28f24056818563f8c"}, {"bike_id": "46663a8f1325077c536673424c41b380", "type": "electric_scooter", "is_disabled": 0, "lat": 38.90025516666667, "rental_uris": {"ios": "https://dc.lft.to/lastmile_qr_scan", "android": "https://dc.lft.to/lastmile_qr_scan"}, "is_reserved": 0, "fusion_lon": 0.0, "fusion_lat": 0.0, "lon": -77.000283, "name": "46663a8f1325077c536673424c41b380"}, {"bike_id": "d902db4e381a0c904168bfadde2a5668", "type": "electric_scooter", "is_disabled": 0, "lat": 38.9214445, "rental_uris": {"ios": "https://dc.lft.to/lastmile_qr_scan", "android": "https://dc.lft.to/lastmile_qr_scan"}, "is_reserved": 0, "fusion_lon": 0.0, "fusion_lat": 0.0, "lon": -77.03389266666667, "name": "d902db4e381a0c904168bfadde2a5668"}, {"bike_id": "39042ae1eac4b7cc99abc4401cf7e227", "type": "electric_scooter", "is_disabled": 0, "lat": 38.866839, "rental_uris": {"ios": "https://dc.lft.to/lastmile_qr_scan", "android": "https://dc.lft.to/lastmile_qr_scan"}, "is_reserved": 0, "fusion_lon": 0.0, "fusion_lat": 0.0, "lon": -76.9858105, "name": "39042ae1eac4b7cc99abc4401cf7e227"}, {"bike_id": "0d3aaf2cbf9a2b4cd9a87f9cfd59b0e8", "type": "electric_scooter", "is_disabled": 0, "lat": 38.91693333333333, "rental_uris": {"ios": "https://dc.lft.to/lastmile_qr_scan", "android": "https://dc.lft.to/lastmile_qr_scan"}, "is_reserved": 0, "fusion_lon": 0.0, "fusion_lat": 0.0, "lon": -77.04082233333334, "name": "0d3aaf2cbf9a2b4cd9a87f9cfd59b0e8"}, {"bike_id": "cab3af7f6a1ba07298840e4aa8f9a818", "type": "electric_scooter", "is_disabled": 0, "lat": 38.921297333333335, "rental_uris": {"ios": "https://dc.lft.to/lastmile_qr_scan", "android": "https://dc.lft.to/lastmile_qr_scan"}, "is_reserved": 0, "fusion_lon": 0.0, "fusion_lat": 0.0, "lon": -77.0180015, "name": "cab3af7f6a1ba07298840e4aa8f9a818"}, {"bike_id": "affb2aa81dfd6fc80c99181e90a1e5e3", "type": "electric_bike", "is_disabled": 0, "lat": 38.948931333333334, "rental_uris": {"ios": "https://dc.lft.to/lastmile_qr_scan", "android": "https://dc.lft.to/lastmile_qr_scan"}, "is_reserved": 0, "fusion_lon": 0.0, "fusion_lat": 0.0, "lon": -76.96366233333333, "name": "affb2aa81dfd6fc80c99181e90a1e5e3"}, {"bike_id": "1b913ddc7f287d84f7905909fe119cad", "type": "electric_scooter", "is_disabled": 0, "lat": 38.93339116666667, "rental_uris": {"ios": "https://dc.lft.to/lastmile_qr_scan", "android": "https://dc.lft.to/lastmile_qr_scan"}, "is_reserved": 0, "fusion_lon": 0.0, "fusion_lat": 0.0, "lon": -77.06199933333333, "name": "1b913ddc7f287d84f7905909fe119cad"}, {"bike_id": "aa01c313f78395db0ff3c4041b5578e9", "type": "electric_scooter", "is_disabled": 0, "lat": 38.91780133333334, "rental_uris": {"ios": "https://dc.lft.to/lastmile_qr_scan", "android": "https://dc.lft.to/lastmile_qr_scan"}, "is_reserved": 0, "fusion_lon": 0.0, "fusion_lat": 0.0, "lon": -77.045515, "name": "aa01c313f78395db0ff3c4041b5578e9"}, {"bike_id": "6d0ade90a4eb08b56f86d0d692d762ee", "type": "electric_scooter", "is_disabled": 0, "lat": 38.9226675, "rental_uris": {"ios": "https://dc.lft.to/lastmile_qr_scan", "android": "https://dc.lft.to/lastmile_qr_scan"}, "is_reserved": 0, "fusion_lon": 0.0, "fusion_lat": 0.0, "lon": -77.03677533333334, "name": "6d0ade90a4eb08b56f86d0d692d762ee"}, {"bike_id": "249f7155fd57223e7b90a216fe76865c", "type": "electric_scooter", "is_disabled": 0, "lat": 38.8995815, "rental_uris": {"ios": "https://dc.lft.to/lastmile_qr_scan", "android": "https://dc.lft.to/lastmile_qr_scan"}, "is_reserved": 0, "fusion_lon": 0.0, "fusion_lat": 0.0, "lon": -77.01638316666667, "name": "249f7155fd57223e7b90a216fe76865c"}, {"bike_id": "07bd5f0b8c0d3605effa9152086f74ad", "type": "electric_scooter", "is_disabled": 0, "lat": 38.92248, "rental_uris": {"ios": "https://dc.lft.to/lastmile_qr_scan", "android": "https://dc.lft.to/lastmile_qr_scan"}, "is_reserved": 0, "fusion_lon": 0.0, "fusion_lat": 0.0, "lon": -77.03083583333333, "name": "07bd5f0b8c0d3605effa9152086f74ad"}, {"bike_id": "ae77ff26c0918bf8a4e021683366e29c", "type": "electric_scooter", "is_disabled": 0, "lat": 38.91917216666667, "rental_uris": {"ios": "https://dc.lft.to/lastmile_qr_scan", "android": "https://dc.lft.to/lastmile_qr_scan"}, "is_reserved": 0, "fusion_lon": 0.0, "fusion_lat": 0.0, "lon": -77.03107366666667, "name": "ae77ff26c0918bf8a4e021683366e29c"}, {"bike_id": "dfd0db0b2b550c7ef71b9ea77e217408", "type": "electric_scooter", "is_disabled": 0, "lat": 38.957899166666664, "rental_uris": {"ios": "https://dc.lft.to/lastmile_qr_scan", "android": "https://dc.lft.to/lastmile_qr_scan"}, "is_reserved": 0, "fusion_lon": 0.0, "fusion_lat": 0.0, "lon": -77.03213616666666, "name": "dfd0db0b2b550c7ef71b9ea77e217408"}, {"bike_id": "fab641d97c8b63511527369df7ecceb0", "type": "electric_scooter", "is_disabled": 0, "lat": 38.923441833333335, "rental_uris": {"ios": "https://dc.lft.to/lastmile_qr_scan", "android": "https://dc.lft.to/lastmile_qr_scan"}, "is_reserved": 0, "fusion_lon": 0.0, "fusion_lat": 0.0, "lon": -77.05116366666667, "name": "fab641d97c8b63511527369df7ecceb0"}, {"bike_id": "d2ca5f5d0ba4c62ff28da4ab9767b00f", "type": "electric_scooter", "is_disabled": 0, "lat": 38.9238065, "rental_uris": {"ios": "https://dc.lft.to/lastmile_qr_scan", "android": "https://dc.lft.to/lastmile_qr_scan"}, "is_reserved": 0, "fusion_lon": 0.0, "fusion_lat": 0.0, "lon": -77.0298375, "name": "d2ca5f5d0ba4c62ff28da4ab9767b00f"}, {"bike_id": "c56a515c42a9323067d1d809a02dcb60", "type": "electric_scooter", "is_disabled": 0, "lat": 38.910315833333335, "rental_uris": {"ios": "https://dc.lft.to/lastmile_qr_scan", "android": "https://dc.lft.to/lastmile_qr_scan"}, "is_reserved": 0, "fusion_lon": 0.0, "fusion_lat": 0.0, "lon": -77.03800233333334, "name": "c56a515c42a9323067d1d809a02dcb60"}, {"bike_id": "e7afb716c398bb782fcd8473902167c1", "type": "electric_scooter", "is_disabled": 0, "lat": 38.923306, "rental_uris": {"ios": "https://dc.lft.to/lastmile_qr_scan", "android": "https://dc.lft.to/lastmile_qr_scan"}, "is_reserved": 0, "fusion_lon": 0.0, "fusion_lat": 0.0, "lon": -77.03785, "name": "e7afb716c398bb782fcd8473902167c1"}, {"bike_id": "166dc4e30883b74b878f6cfac8e18bdf", "type": "electric_scooter", "is_disabled": 0, "lat": 38.91812216666667, "rental_uris": {"ios": "https://dc.lft.to/lastmile_qr_scan", "android": "https://dc.lft.to/lastmile_qr_scan"}, "is_reserved": 0, "fusion_lon": 0.0, "fusion_lat": 0.0, "lon": -77.01209933333334, "name": "166dc4e30883b74b878f6cfac8e18bdf"}, {"bike_id": "baa9b77117d2349c84a3756e93eb492c", "type": "electric_scooter", "is_disabled": 0, "lat": 38.9208005, "rental_uris": {"ios": "https://dc.lft.to/lastmile_qr_scan", "android": "https://dc.lft.to/lastmile_qr_scan"}, "is_reserved": 0, "fusion_lon": 0.0, "fusion_lat": 0.0, "lon": -77.02342516666667, "name": "baa9b77117d2349c84a3756e93eb492c"}, {"bike_id": "caff19eb72c4a1af836f18210b2c1876", "type": "electric_scooter", "is_disabled": 0, "lat": 38.923262, "rental_uris": {"ios": "https://dc.lft.to/lastmile_qr_scan", "android": "https://dc.lft.to/lastmile_qr_scan"}, "is_reserved": 0, "fusion_lon": 0.0, "fusion_lat": 0.0, "lon": -77.053691, "name": "caff19eb72c4a1af836f18210b2c1876"}, {"bike_id": "4cc8a3cef9ac76b98286a09ff96fdfdb", "type": "electric_scooter", "is_disabled": 0, "lat": 38.90117033333333, "rental_uris": {"ios": "https://dc.lft.to/lastmile_qr_scan", "android": "https://dc.lft.to/lastmile_qr_scan"}, "is_reserved": 0, "fusion_lon": 0.0, "fusion_lat": 0.0, "lon": -76.92952016666666, "name": "4cc8a3cef9ac76b98286a09ff96fdfdb"}, {"bike_id": "c937559e270cc76caf12b1a0a58fb898", "type": "electric_scooter", "is_disabled": 0, "lat": 38.885366833333336, "rental_uris": {"ios": "https://dc.lft.to/lastmile_qr_scan", "android": "https://dc.lft.to/lastmile_qr_scan"}, "is_reserved": 0, "fusion_lon": 0.0, "fusion_lat": 0.0, "lon": -76.99821383333334, "name": "c937559e270cc76caf12b1a0a58fb898"}, {"bike_id": "eeef7e8c978a863d09b97da83febdbfe", "type": "electric_bike", "is_disabled": 0, "lat": 38.974004, "rental_uris": {"ios": "https://dc.lft.to/lastmile_qr_scan", "android": "https://dc.lft.to/lastmile_qr_scan"}, "is_reserved": 0, "fusion_lon": 0.0, "fusion_lat": 0.0, "lon": -77.06455366666667, "name": "eeef7e8c978a863d09b97da83febdbfe"}, {"bike_id": "3a2d9e33126f3a68c65e4454319529b1", "type": "electric_scooter", "is_disabled": 0, "lat": 38.87239666666667, "rental_uris": {"ios": "https://dc.lft.to/lastmile_qr_scan", "android": "https://dc.lft.to/lastmile_qr_scan"}, "is_reserved": 0, "fusion_lon": 0.0, "fusion_lat": 0.0, "lon": -76.977236, "name": "3a2d9e33126f3a68c65e4454319529b1"}, {"bike_id": "52839ae372f83be90b9c800168452455", "type": "electric_scooter", "is_disabled": 0, "lat": 38.93658933333333, "rental_uris": {"ios": "https://dc.lft.to/lastmile_qr_scan", "android": "https://dc.lft.to/lastmile_qr_scan"}, "is_reserved": 0, "fusion_lon": 0.0, "fusion_lat": 0.0, "lon": -77.0549555, "name": "52839ae372f83be90b9c800168452455"}, {"bike_id": "7fded3164cae66633fa5c4a12fa91aef", "type": "electric_scooter", "is_disabled": 0, "lat": 38.915524166666664, "rental_uris": {"ios": "https://dc.lft.to/lastmile_qr_scan", "android": "https://dc.lft.to/lastmile_qr_scan"}, "is_reserved": 0, "fusion_lon": 0.0, "fusion_lat": 0.0, "lon": -77.020476, "name": "7fded3164cae66633fa5c4a12fa91aef"}, {"bike_id": "8799bdefe67bf561da506c4d91932da6", "type": "electric_scooter", "is_disabled": 0, "lat": 38.920412, "rental_uris": {"ios": "https://dc.lft.to/lastmile_qr_scan", "android": "https://dc.lft.to/lastmile_qr_scan"}, "is_reserved": 0, "fusion_lon": 0.0, "fusion_lat": 0.0, "lon": -77.03478366666667, "name": "8799bdefe67bf561da506c4d91932da6"}, {"bike_id": "d9ee93b1bae1705509e44e46da5063fd", "type": "electric_scooter", "is_disabled": 0, "lat": 38.892286, "rental_uris": {"ios": "https://dc.lft.to/lastmile_qr_scan", "android": "https://dc.lft.to/lastmile_qr_scan"}, "is_reserved": 0, "fusion_lon": 0.0, "fusion_lat": 0.0, "lon": -77.05000166666666, "name": "d9ee93b1bae1705509e44e46da5063fd"}, {"bike_id": "b83b3146ed60871cb3c042d1e1fed4a4", "type": "electric_scooter", "is_disabled": 0, "lat": 38.85893933333333, "rental_uris": {"ios": "https://dc.lft.to/lastmile_qr_scan", "android": "https://dc.lft.to/lastmile_qr_scan"}, "is_reserved": 0, "fusion_lon": 0.0, "fusion_lat": 0.0, "lon": -76.99729166666667, "name": "b83b3146ed60871cb3c042d1e1fed4a4"}, {"bike_id": "e9a99cbdd23c5ee533c98b052bb287d1", "type": "electric_scooter", "is_disabled": 0, "lat": 38.87728283333333, "rental_uris": {"ios": "https://dc.lft.to/lastmile_qr_scan", "android": "https://dc.lft.to/lastmile_qr_scan"}, "is_reserved": 0, "fusion_lon": 0.0, "fusion_lat": 0.0, "lon": -77.004247, "name": "e9a99cbdd23c5ee533c98b052bb287d1"}, {"bike_id": "6c22a3c2a7f185468339b87823667324", "type": "electric_scooter", "is_disabled": 0, "lat": 38.937704833333335, "rental_uris": {"ios": "https://dc.lft.to/lastmile_qr_scan", "android": "https://dc.lft.to/lastmile_qr_scan"}, "is_reserved": 0, "fusion_lon": 0.0, "fusion_lat": 0.0, "lon": -77.01967, "name": "6c22a3c2a7f185468339b87823667324"}, {"bike_id": "8b99f1c5e3eb1635f9ab600c19ed78c4", "type": "electric_scooter", "is_disabled": 0, "lat": 38.878102, "rental_uris": {"ios": "https://dc.lft.to/lastmile_qr_scan", "android": "https://dc.lft.to/lastmile_qr_scan"}, "is_reserved": 0, "fusion_lon": 0.0, "fusion_lat": 0.0, "lon": -76.9716975, "name": "8b99f1c5e3eb1635f9ab600c19ed78c4"}, {"bike_id": "4280ee34d808aef093f5ac95ee21fa43", "type": "electric_scooter", "is_disabled": 0, "lat": 38.892388833333335, "rental_uris": {"ios": "https://dc.lft.to/lastmile_qr_scan", "android": "https://dc.lft.to/lastmile_qr_scan"}, "is_reserved": 0, "fusion_lon": 0.0, "fusion_lat": 0.0, "lon": -77.0449745, "name": "4280ee34d808aef093f5ac95ee21fa43"}, {"bike_id": "d7eb2c319c742254c1b94094f1db941c", "type": "electric_bike", "is_disabled": 0, "lat": 38.99093083333333, "rental_uris": {"ios": "https://dc.lft.to/lastmile_qr_scan", "android": "https://dc.lft.to/lastmile_qr_scan"}, "is_reserved": 0, "fusion_lon": 0.0, "fusion_lat": 0.0, "lon": -76.99363183333334, "name": "d7eb2c319c742254c1b94094f1db941c"}, {"bike_id": "d892cb641baceace3fede5f2e906ac7d", "type": "electric_scooter", "is_disabled": 0, "lat": 38.899862666666664, "rental_uris": {"ios": "https://dc.lft.to/lastmile_qr_scan", "android": "https://dc.lft.to/lastmile_qr_scan"}, "is_reserved": 0, "fusion_lon": 0.0, "fusion_lat": 0.0, "lon": -76.95000233333333, "name": "d892cb641baceace3fede5f2e906ac7d"}, {"bike_id": "97a66919443db4b14ee1179fbfc34fe4", "type": "electric_scooter", "is_disabled": 0, "lat": 38.911039333333335, "rental_uris": {"ios": "https://dc.lft.to/lastmile_qr_scan", "android": "https://dc.lft.to/lastmile_qr_scan"}, "is_reserved": 0, "fusion_lon": 0.0, "fusion_lat": 0.0, "lon": -77.00214883333334, "name": "97a66919443db4b14ee1179fbfc34fe4"}, {"bike_id": "49d1897ff795655b1e92345a97bebba3", "type": "electric_scooter", "is_disabled": 0, "lat": 38.88309733333333, "rental_uris": {"ios": "https://dc.lft.to/lastmile_qr_scan", "android": "https://dc.lft.to/lastmile_qr_scan"}, "is_reserved": 0, "fusion_lon": 0.0, "fusion_lat": 0.0, "lon": -77.00342716666667, "name": "49d1897ff795655b1e92345a97bebba3"}, {"bike_id": "c5462499d1c8b000c2e2e23356c580d0", "type": "electric_scooter", "is_disabled": 0, "lat": 38.92560066666667, "rental_uris": {"ios": "https://dc.lft.to/lastmile_qr_scan", "android": "https://dc.lft.to/lastmile_qr_scan"}, "is_reserved": 0, "fusion_lon": 0.0, "fusion_lat": 0.0, "lon": -77.03765433333334, "name": "c5462499d1c8b000c2e2e23356c580d0"}, {"bike_id": "dbaf92cad8ee21f2f4b2bb268f4db519", "type": "electric_scooter", "is_disabled": 0, "lat": 38.9155955, "rental_uris": {"ios": "https://dc.lft.to/lastmile_qr_scan", "android": "https://dc.lft.to/lastmile_qr_scan"}, "is_reserved": 0, "fusion_lon": 0.0, "fusion_lat": 0.0, "lon": -77.03134833333333, "name": "dbaf92cad8ee21f2f4b2bb268f4db519"}, {"bike_id": "b4fcd6aa607294eef78b85383745e47d", "type": "electric_scooter", "is_disabled": 0, "lat": 38.89070666666667, "rental_uris": {"ios": "https://dc.lft.to/lastmile_qr_scan", "android": "https://dc.lft.to/lastmile_qr_scan"}, "is_reserved": 0, "fusion_lon": 0.0, "fusion_lat": 0.0, "lon": -76.988256, "name": "b4fcd6aa607294eef78b85383745e47d"}, {"bike_id": "be64daa0cde89d03ca2257966548bafa", "type": "electric_scooter", "is_disabled": 0, "lat": 38.907819333333336, "rental_uris": {"ios": "https://dc.lft.to/lastmile_qr_scan", "android": "https://dc.lft.to/lastmile_qr_scan"}, "is_reserved": 0, "fusion_lon": 0.0, "fusion_lat": 0.0, "lon": -77.041597, "name": "be64daa0cde89d03ca2257966548bafa"}, {"bike_id": "150a0f188cc94f1590249ec808860b63", "type": "electric_bike", "is_disabled": 0, "lat": 38.881096, "rental_uris": {"ios": "https://dc.lft.to/lastmile_qr_scan", "android": "https://dc.lft.to/lastmile_qr_scan"}, "is_reserved": 0, "fusion_lon": 0.0, "fusion_lat": 0.0, "lon": -77.01675883333333, "name": "150a0f188cc94f1590249ec808860b63"}, {"bike_id": "7c543ee2a406b5dd5af774c2f9b91596", "type": "electric_scooter", "is_disabled": 0, "lat": 38.94289716666667, "rental_uris": {"ios": "https://dc.lft.to/lastmile_qr_scan", "android": "https://dc.lft.to/lastmile_qr_scan"}, "is_reserved": 0, "fusion_lon": 0.0, "fusion_lat": 0.0, "lon": -77.0216285, "name": "7c543ee2a406b5dd5af774c2f9b91596"}, {"bike_id": "89dfb596df6cb0cc4ea805264963fad6", "type": "electric_scooter", "is_disabled": 0, "lat": 38.919138, "rental_uris": {"ios": "https://dc.lft.to/lastmile_qr_scan", "android": "https://dc.lft.to/lastmile_qr_scan"}, "is_reserved": 0, "fusion_lon": 0.0, "fusion_lat": 0.0, "lon": -77.04156716666667, "name": "89dfb596df6cb0cc4ea805264963fad6"}, {"bike_id": "8295f042b48ac9f94cb39f89bb47fbee", "type": "electric_scooter", "is_disabled": 0, "lat": 38.89488766666667, "rental_uris": {"ios": "https://dc.lft.to/lastmile_qr_scan", "android": "https://dc.lft.to/lastmile_qr_scan"}, "is_reserved": 0, "fusion_lon": 0.0, "fusion_lat": 0.0, "lon": -77.01097783333333, "name": "8295f042b48ac9f94cb39f89bb47fbee"}, {"bike_id": "dc2c1f1578fb3b42f4d5affcefe9f25d", "type": "electric_scooter", "is_disabled": 0, "lat": 38.92302016666667, "rental_uris": {"ios": "https://dc.lft.to/lastmile_qr_scan", "android": "https://dc.lft.to/lastmile_qr_scan"}, "is_reserved": 0, "fusion_lon": 0.0, "fusion_lat": 0.0, "lon": -77.04453533333333, "name": "dc2c1f1578fb3b42f4d5affcefe9f25d"}, {"bike_id": "b6aae4814afebdadeb68cbe3d23ff015", "type": "electric_scooter", "is_disabled": 0, "lat": 38.916707333333335, "rental_uris": {"ios": "https://dc.lft.to/lastmile_qr_scan", "android": "https://dc.lft.to/lastmile_qr_scan"}, "is_reserved": 0, "fusion_lon": 0.0, "fusion_lat": 0.0, "lon": -77.0238605, "name": "b6aae4814afebdadeb68cbe3d23ff015"}, {"bike_id": "1d5528a404ec512c8b87b92d3ffa9e67", "type": "electric_scooter", "is_disabled": 0, "lat": 38.912428166666665, "rental_uris": {"ios": "https://dc.lft.to/lastmile_qr_scan", "android": "https://dc.lft.to/lastmile_qr_scan"}, "is_reserved": 0, "fusion_lon": 0.0, "fusion_lat": 0.0, "lon": -77.02221183333333, "name": "1d5528a404ec512c8b87b92d3ffa9e67"}, {"bike_id": "fb3fb5015eb0f83eb7387e83582fb19a", "type": "electric_scooter", "is_disabled": 0, "lat": 38.887169, "rental_uris": {"ios": "https://dc.lft.to/lastmile_qr_scan", "android": "https://dc.lft.to/lastmile_qr_scan"}, "is_reserved": 0, "fusion_lon": 0.0, "fusion_lat": 0.0, "lon": -76.9962875, "name": "fb3fb5015eb0f83eb7387e83582fb19a"}, {"bike_id": "3c4ed3b1ce7d74d3219108c9d633ce94", "type": "electric_scooter", "is_disabled": 0, "lat": 38.9119135, "rental_uris": {"ios": "https://dc.lft.to/lastmile_qr_scan", "android": "https://dc.lft.to/lastmile_qr_scan"}, "is_reserved": 0, "fusion_lon": 0.0, "fusion_lat": 0.0, "lon": -77.01892366666667, "name": "3c4ed3b1ce7d74d3219108c9d633ce94"}, {"bike_id": "80308124d6b33ddb59f384e77e9162a0", "type": "electric_scooter", "is_disabled": 0, "lat": 38.910353666666666, "rental_uris": {"ios": "https://dc.lft.to/lastmile_qr_scan", "android": "https://dc.lft.to/lastmile_qr_scan"}, "is_reserved": 0, "fusion_lon": 0.0, "fusion_lat": 0.0, "lon": -77.038014, "name": "80308124d6b33ddb59f384e77e9162a0"}, {"bike_id": "ce53b4e24f4d3928e79849d3e957e2f5", "type": "electric_scooter", "is_disabled": 0, "lat": 38.9156905, "rental_uris": {"ios": "https://dc.lft.to/lastmile_qr_scan", "android": "https://dc.lft.to/lastmile_qr_scan"}, "is_reserved": 0, "fusion_lon": 0.0, "fusion_lat": 0.0, "lon": -77.01953283333333, "name": "ce53b4e24f4d3928e79849d3e957e2f5"}, {"bike_id": "63dc4e464c447829fb770bd48b73a349", "type": "electric_scooter", "is_disabled": 0, "lat": 38.90005466666667, "rental_uris": {"ios": "https://dc.lft.to/lastmile_qr_scan", "android": "https://dc.lft.to/lastmile_qr_scan"}, "is_reserved": 0, "fusion_lon": 0.0, "fusion_lat": 0.0, "lon": -77.0103095, "name": "63dc4e464c447829fb770bd48b73a349"}, {"bike_id": "decd238e177339625fb2f79aad5edffe", "type": "electric_scooter", "is_disabled": 0, "lat": 38.875235, "rental_uris": {"ios": "https://dc.lft.to/lastmile_qr_scan", "android": "https://dc.lft.to/lastmile_qr_scan"}, "is_reserved": 0, "fusion_lon": 0.0, "fusion_lat": 0.0, "lon": -77.0005815, "name": "decd238e177339625fb2f79aad5edffe"}, {"bike_id": "307bf584b249f4f83f7297126c688ea0", "type": "electric_bike", "is_disabled": 0, "lat": 38.94706166666667, "rental_uris": {"ios": "https://dc.lft.to/lastmile_qr_scan", "android": "https://dc.lft.to/lastmile_qr_scan"}, "is_reserved": 0, "fusion_lon": 0.0, "fusion_lat": 0.0, "lon": -77.067003, "name": "307bf584b249f4f83f7297126c688ea0"}, {"bike_id": "05718a3b4890bbf38bb0db1206af93a7", "type": "electric_scooter", "is_disabled": 0, "lat": 38.912176, "rental_uris": {"ios": "https://dc.lft.to/lastmile_qr_scan", "android": "https://dc.lft.to/lastmile_qr_scan"}, "is_reserved": 0, "fusion_lon": 0.0, "fusion_lat": 0.0, "lon": -77.027121, "name": "05718a3b4890bbf38bb0db1206af93a7"}, {"bike_id": "6a55391aa4f2256c79e3cb3711c17bc8", "type": "electric_bike", "is_disabled": 0, "lat": 38.859353666666664, "rental_uris": {"ios": "https://dc.lft.to/lastmile_qr_scan", "android": "https://dc.lft.to/lastmile_qr_scan"}, "is_reserved": 0, "fusion_lon": 0.0, "fusion_lat": 0.0, "lon": -77.11829983333334, "name": "6a55391aa4f2256c79e3cb3711c17bc8"}, {"bike_id": "d62ad3d406bb0e9ccaadd06bc2ced45c", "type": "electric_bike", "is_disabled": 0, "lat": 38.82365033333333, "rental_uris": {"ios": "https://dc.lft.to/lastmile_qr_scan", "android": "https://dc.lft.to/lastmile_qr_scan"}, "is_reserved": 0, "fusion_lon": 0.0, "fusion_lat": 0.0, "lon": -77.00216533333334, "name": "d62ad3d406bb0e9ccaadd06bc2ced45c"}, {"bike_id": "f9a17714887214b577de927e0e0a91cb", "type": "electric_scooter", "is_disabled": 0, "lat": 38.876871666666666, "rental_uris": {"ios": "https://dc.lft.to/lastmile_qr_scan", "android": "https://dc.lft.to/lastmile_qr_scan"}, "is_reserved": 0, "fusion_lon": 0.0, "fusion_lat": 0.0, "lon": -77.01750833333334, "name": "f9a17714887214b577de927e0e0a91cb"}, {"bike_id": "72f2576d45e62802c5d9746a002300d6", "type": "electric_scooter", "is_disabled": 0, "lat": 38.9237355, "rental_uris": {"ios": "https://dc.lft.to/lastmile_qr_scan", "android": "https://dc.lft.to/lastmile_qr_scan"}, "is_reserved": 0, "fusion_lon": 0.0, "fusion_lat": 0.0, "lon": -77.05028616666667, "name": "72f2576d45e62802c5d9746a002300d6"}, {"bike_id": "d23ceb4191a38986d597b097d66a5000", "type": "electric_scooter", "is_disabled": 0, "lat": 38.92968533333333, "rental_uris": {"ios": "https://dc.lft.to/lastmile_qr_scan", "android": "https://dc.lft.to/lastmile_qr_scan"}, "is_reserved": 0, "fusion_lon": 0.0, "fusion_lat": 0.0, "lon": -77.02789883333334, "name": "d23ceb4191a38986d597b097d66a5000"}, {"bike_id": "71ab0317e822e8f399c056f2821fbfe2", "type": "electric_scooter", "is_disabled": 0, "lat": 38.913158333333335, "rental_uris": {"ios": "https://dc.lft.to/lastmile_qr_scan", "android": "https://dc.lft.to/lastmile_qr_scan"}, "is_reserved": 0, "fusion_lon": 0.0, "fusion_lat": 0.0, "lon": -77.03853933333333, "name": "71ab0317e822e8f399c056f2821fbfe2"}, {"bike_id": "908355898b562d361a0444a9565969b0", "type": "electric_scooter", "is_disabled": 0, "lat": 38.91563083333333, "rental_uris": {"ios": "https://dc.lft.to/lastmile_qr_scan", "android": "https://dc.lft.to/lastmile_qr_scan"}, "is_reserved": 0, "fusion_lon": 0.0, "fusion_lat": 0.0, "lon": -77.044114, "name": "908355898b562d361a0444a9565969b0"}, {"bike_id": "89cceb0c4531282ed8ff0aa5bf3f67b4", "type": "electric_scooter", "is_disabled": 0, "lat": 38.915525, "rental_uris": {"ios": "https://dc.lft.to/lastmile_qr_scan", "android": "https://dc.lft.to/lastmile_qr_scan"}, "is_reserved": 0, "fusion_lon": 0.0, "fusion_lat": 0.0, "lon": -77.02417133333333, "name": "89cceb0c4531282ed8ff0aa5bf3f67b4"}, {"bike_id": "60f5ebbbcc894b7f7b661c3360bf1b4f", "type": "electric_bike", "is_disabled": 0, "lat": 38.800244166666666, "rental_uris": {"ios": "https://dc.lft.to/lastmile_qr_scan", "android": "https://dc.lft.to/lastmile_qr_scan"}, "is_reserved": 0, "fusion_lon": 0.0, "fusion_lat": 0.0, "lon": -77.06332033333334, "name": "60f5ebbbcc894b7f7b661c3360bf1b4f"}, {"bike_id": "bbad835df23e354772f74c6e7204c69d", "type": "electric_scooter", "is_disabled": 0, "lat": 38.923582333333336, "rental_uris": {"ios": "https://dc.lft.to/lastmile_qr_scan", "android": "https://dc.lft.to/lastmile_qr_scan"}, "is_reserved": 0, "fusion_lon": 0.0, "fusion_lat": 0.0, "lon": -77.05127583333334, "name": "bbad835df23e354772f74c6e7204c69d"}, {"bike_id": "2cc7dcb2436cbbdccc58e33e939370ff", "type": "electric_scooter", "is_disabled": 0, "lat": 38.91913183333333, "rental_uris": {"ios": "https://dc.lft.to/lastmile_qr_scan", "android": "https://dc.lft.to/lastmile_qr_scan"}, "is_reserved": 0, "fusion_lon": 0.0, "fusion_lat": 0.0, "lon": -77.02431366666667, "name": "2cc7dcb2436cbbdccc58e33e939370ff"}, {"bike_id": "54d39a47febd5d910b0dc0c48143aa25", "type": "electric_scooter", "is_disabled": 0, "lat": 38.933582, "rental_uris": {"ios": "https://dc.lft.to/lastmile_qr_scan", "android": "https://dc.lft.to/lastmile_qr_scan"}, "is_reserved": 0, "fusion_lon": 0.0, "fusion_lat": 0.0, "lon": -77.04113083333333, "name": "54d39a47febd5d910b0dc0c48143aa25"}, {"bike_id": "f0630022ee842819c6d354b796dcd1ea", "type": "electric_scooter", "is_disabled": 0, "lat": 38.92025666666667, "rental_uris": {"ios": "https://dc.lft.to/lastmile_qr_scan", "android": "https://dc.lft.to/lastmile_qr_scan"}, "is_reserved": 0, "fusion_lon": 0.0, "fusion_lat": 0.0, "lon": -77.04193883333333, "name": "f0630022ee842819c6d354b796dcd1ea"}, {"bike_id": "339988fb277032f9ca189cb982642444", "type": "electric_scooter", "is_disabled": 0, "lat": 38.92329516666667, "rental_uris": {"ios": "https://dc.lft.to/lastmile_qr_scan", "android": "https://dc.lft.to/lastmile_qr_scan"}, "is_reserved": 0, "fusion_lon": 0.0, "fusion_lat": 0.0, "lon": -77.05742683333334, "name": "339988fb277032f9ca189cb982642444"}, {"bike_id": "fedb95eb658d432ab88fdb3b96bfc72e", "type": "electric_bike", "is_disabled": 0, "lat": 38.948304666666665, "rental_uris": {"ios": "https://dc.lft.to/lastmile_qr_scan", "android": "https://dc.lft.to/lastmile_qr_scan"}, "is_reserved": 0, "fusion_lon": 0.0, "fusion_lat": 0.0, "lon": -77.03898433333333, "name": "fedb95eb658d432ab88fdb3b96bfc72e"}, {"bike_id": "ccf41bc05d0f6580f8fa773f996ebb90", "type": "electric_scooter", "is_disabled": 0, "lat": 38.916094666666666, "rental_uris": {"ios": "https://dc.lft.to/lastmile_qr_scan", "android": "https://dc.lft.to/lastmile_qr_scan"}, "is_reserved": 0, "fusion_lon": 0.0, "fusion_lat": 0.0, "lon": -77.03388583333333, "name": "ccf41bc05d0f6580f8fa773f996ebb90"}, {"bike_id": "43ec68c65f7c0a10f027402d881bf900", "type": "electric_scooter", "is_disabled": 0, "lat": 38.91061033333333, "rental_uris": {"ios": "https://dc.lft.to/lastmile_qr_scan", "android": "https://dc.lft.to/lastmile_qr_scan"}, "is_reserved": 0, "fusion_lon": 0.0, "fusion_lat": 0.0, "lon": -77.04102266666666, "name": "43ec68c65f7c0a10f027402d881bf900"}, {"bike_id": "ab7f6696c0dc9be6c6964652401c2429", "type": "electric_scooter", "is_disabled": 0, "lat": 38.93185283333333, "rental_uris": {"ios": "https://dc.lft.to/lastmile_qr_scan", "android": "https://dc.lft.to/lastmile_qr_scan"}, "is_reserved": 0, "fusion_lon": 0.0, "fusion_lat": 0.0, "lon": -77.02677016666667, "name": "ab7f6696c0dc9be6c6964652401c2429"}, {"bike_id": "26144e81d8136f9f755bebb27035f1c8", "type": "electric_scooter", "is_disabled": 0, "lat": 38.865035666666664, "rental_uris": {"ios": "https://dc.lft.to/lastmile_qr_scan", "android": "https://dc.lft.to/lastmile_qr_scan"}, "is_reserved": 0, "fusion_lon": 0.0, "fusion_lat": 0.0, "lon": -76.990019, "name": "26144e81d8136f9f755bebb27035f1c8"}, {"bike_id": "104ad2bd04f8001e5b3dac777eb8cf93", "type": "electric_scooter", "is_disabled": 0, "lat": 38.928761, "rental_uris": {"ios": "https://dc.lft.to/lastmile_qr_scan", "android": "https://dc.lft.to/lastmile_qr_scan"}, "is_reserved": 0, "fusion_lon": 0.0, "fusion_lat": 0.0, "lon": -77.01836233333333, "name": "104ad2bd04f8001e5b3dac777eb8cf93"}, {"bike_id": "59d3fbb27d8455a7e5730cd5d3c7e3a0", "type": "electric_scooter", "is_disabled": 0, "lat": 38.91562, "rental_uris": {"ios": "https://dc.lft.to/lastmile_qr_scan", "android": "https://dc.lft.to/lastmile_qr_scan"}, "is_reserved": 0, "fusion_lon": 0.0, "fusion_lat": 0.0, "lon": -77.03317883333334, "name": "59d3fbb27d8455a7e5730cd5d3c7e3a0"}, {"bike_id": "0622f4a679f799235ea9ed08089a44e0", "type": "electric_scooter", "is_disabled": 0, "lat": 38.90576933333333, "rental_uris": {"ios": "https://dc.lft.to/lastmile_qr_scan", "android": "https://dc.lft.to/lastmile_qr_scan"}, "is_reserved": 0, "fusion_lon": 0.0, "fusion_lat": 0.0, "lon": -77.0220335, "name": "0622f4a679f799235ea9ed08089a44e0"}, {"bike_id": "9f0ef8b22a62dc42487702daef806ef0", "type": "electric_scooter", "is_disabled": 0, "lat": 38.92391216666667, "rental_uris": {"ios": "https://dc.lft.to/lastmile_qr_scan", "android": "https://dc.lft.to/lastmile_qr_scan"}, "is_reserved": 0, "fusion_lon": 0.0, "fusion_lat": 0.0, "lon": -77.04466716666667, "name": "9f0ef8b22a62dc42487702daef806ef0"}, {"bike_id": "fde45e15ffcf17ad815363b0aca64418", "type": "electric_scooter", "is_disabled": 0, "lat": 38.90168416666667, "rental_uris": {"ios": "https://dc.lft.to/lastmile_qr_scan", "android": "https://dc.lft.to/lastmile_qr_scan"}, "is_reserved": 0, "fusion_lon": 0.0, "fusion_lat": 0.0, "lon": -76.92655133333334, "name": "fde45e15ffcf17ad815363b0aca64418"}, {"bike_id": "712a08548e975a57565ffca1acb4ffdd", "type": "electric_scooter", "is_disabled": 0, "lat": 38.906688, "rental_uris": {"ios": "https://dc.lft.to/lastmile_qr_scan", "android": "https://dc.lft.to/lastmile_qr_scan"}, "is_reserved": 0, "fusion_lon": 0.0, "fusion_lat": 0.0, "lon": -77.02705766666666, "name": "712a08548e975a57565ffca1acb4ffdd"}, {"bike_id": "f59fd2a2288fa72915b679dee71bcb68", "type": "electric_scooter", "is_disabled": 0, "lat": 38.9052005, "rental_uris": {"ios": "https://dc.lft.to/lastmile_qr_scan", "android": "https://dc.lft.to/lastmile_qr_scan"}, "is_reserved": 0, "fusion_lon": 0.0, "fusion_lat": 0.0, "lon": -77.0599245, "name": "f59fd2a2288fa72915b679dee71bcb68"}, {"bike_id": "5726eaedac84c463b39b120aa83f5ea2", "type": "electric_scooter", "is_disabled": 0, "lat": 38.916152, "rental_uris": {"ios": "https://dc.lft.to/lastmile_qr_scan", "android": "https://dc.lft.to/lastmile_qr_scan"}, "is_reserved": 0, "fusion_lon": 0.0, "fusion_lat": 0.0, "lon": -77.02314133333333, "name": "5726eaedac84c463b39b120aa83f5ea2"}, {"bike_id": "f789b55c13ce7b861fbcc546287ae6cb", "type": "electric_scooter", "is_disabled": 0, "lat": 38.915244, "rental_uris": {"ios": "https://dc.lft.to/lastmile_qr_scan", "android": "https://dc.lft.to/lastmile_qr_scan"}, "is_reserved": 0, "fusion_lon": 0.0, "fusion_lat": 0.0, "lon": -77.01974333333334, "name": "f789b55c13ce7b861fbcc546287ae6cb"}, {"bike_id": "42125873c7e6b97b71ba32eef1a34965", "type": "electric_scooter", "is_disabled": 0, "lat": 38.9307395, "rental_uris": {"ios": "https://dc.lft.to/lastmile_qr_scan", "android": "https://dc.lft.to/lastmile_qr_scan"}, "is_reserved": 0, "fusion_lon": 0.0, "fusion_lat": 0.0, "lon": -77.02143916666667, "name": "42125873c7e6b97b71ba32eef1a34965"}, {"bike_id": "769b924897dced018dd2180346b3c4cb", "type": "electric_scooter", "is_disabled": 0, "lat": 38.9008035, "rental_uris": {"ios": "https://dc.lft.to/lastmile_qr_scan", "android": "https://dc.lft.to/lastmile_qr_scan"}, "is_reserved": 0, "fusion_lon": 0.0, "fusion_lat": 0.0, "lon": -77.01821233333334, "name": "769b924897dced018dd2180346b3c4cb"}, {"bike_id": "daac7fb9aa5810eeb4cf36a7e528fc02", "type": "electric_scooter", "is_disabled": 0, "lat": 38.89483233333333, "rental_uris": {"ios": "https://dc.lft.to/lastmile_qr_scan", "android": "https://dc.lft.to/lastmile_qr_scan"}, "is_reserved": 0, "fusion_lon": 0.0, "fusion_lat": 0.0, "lon": -77.02188483333333, "name": "daac7fb9aa5810eeb4cf36a7e528fc02"}, {"bike_id": "59a9caa5bb92bca996c8bc09756fb5b6", "type": "electric_scooter", "is_disabled": 0, "lat": 38.921586833333336, "rental_uris": {"ios": "https://dc.lft.to/lastmile_qr_scan", "android": "https://dc.lft.to/lastmile_qr_scan"}, "is_reserved": 0, "fusion_lon": 0.0, "fusion_lat": 0.0, "lon": -77.03381966666667, "name": "59a9caa5bb92bca996c8bc09756fb5b6"},