{"data": {"bikes": [{"rental_uris": {"ios": "https://dc.lft.to/lastmile_qr_scan", "android": "https://dc.lft.to/lastmile_qr_scan"}, "lon": -77.08537966666667, "type": "electric_bike", "fusion_lat": 0.0, "lat": 38.856199333333336, "name": "32aa55034e0c15250889ea4b26f42c80", "fusion_lon": 0.0, "bike_id": "32aa55034e0c15250889ea4b26f42c80", "is_disabled": 0, "is_reserved": 0}, {"rental_uris": {"ios": "https://dc.lft.to/lastmile_qr_scan", "android": "https://dc.lft.to/lastmile_qr_scan"}, "lon": -77.02978083333333, "type": "electric_scooter", "fusion_lat": 0.0, "lat": 38.962298833333335, "name": "934c86302f0e68902e48bb042d5d9ead", "fusion_lon": 0.0, "bike_id": "934c86302f0e68902e48bb042d5d9ead", "is_disabled": 0, "is_reserved": 0}, {"rental_uris": {"ios": "https://dc.lft.to/lastmile_qr_scan", "android": "https://dc.lft.to/lastmile_qr_scan"}, "lon": -76.988869, "type": "electric_scooter", "fusion_lat": 0.0, "lat": 38.86659216666666, "name": "a7e059a81af173e37a689f2a6d246f67", "fusion_lon": 0.0, "bike_id": "a7e059a81af173e37a689f2a6d246f67", "is_disabled": 0, "is_reserved": 0}, {"rental_uris": {"ios": "https://dc.lft.to/lastmile_qr_scan", "android": "https://dc.lft.to/lastmile_qr_scan"}, "lon": -77.0416725, "type": "electric_scooter", "fusion_lat": 0.0, "lat": 38.91418516666667, "name": "690b9927368c74846449f90d49dbe2c8", "fusion_lon": 0.0, "bike_id": "690b9927368c74846449f90d49dbe2c8", "is_disabled": 0, "is_reserved": 0}, {"rental_uris": {"ios": "https://dc.lft.to/lastmile_qr_scan", "android": "https://dc.lft.to/lastmile_qr_scan"}, "lon": -77.01162366666667, "type": "electric_scooter", "fusion_lat": 0.0, "lat": 38.90023583333333, "name": "a3ed2f1c4e0e2fe8106d82ee77edfc70", "fusion_lon": 0.0, "bike_id": "a3ed2f1c4e0e2fe8106d82ee77edfc70", "is_disabled": 0, "is_reserved": 0}, {"rental_uris": {"ios": "https://dc.lft.to/lastmile_qr_scan", "android": "https://dc.lft.to/lastmile_qr_scan"}, "lon": -77.02223966666666, "type": "electric_scooter", "fusion_lat": 0.0, "lat": 38.89220733333333, "name": "693ad4614a4599190ad8c2130b2a277c", "fusion_lon": 0.0, "bike_id": "693ad4614a4599190ad8c2130b2a277c", "is_disabled": 0, "is_reserved": 0}, {"rental_uris": {"ios": "https://dc.lft.to/lastmile_qr_scan", "android": "https://dc.lft.to/lastmile_qr_scan"}, "lon": -77.03837116666666, "type": "electric_scooter", "fusion_lat": 0.0, "lat": 38.908310666666665, "name": "9a3b44b7e8b16e28f57313a7f56cbd14", "fusion_lon": 0.0, "bike_id": "9a3b44b7e8b16e28f57313a7f56cbd14", "is_disabled": 0, "is_reserved": 0}, {"rental_uris": {"ios": "https://dc.lft.to/lastmile_qr_scan", "android": "https://dc.lft.to/lastmile_qr_scan"}, "lon": -77.03301433333333, "type": "electric_scooter", "fusion_lat": 0.0, "lat": 38.92878316666667, "name": "d512105ac17eb54e59d8862de2883422", "fusion_lon": 0.0, "bike_id": "d512105ac17eb54e59d8862de2883422", "is_disabled": 0, "is_reserved": 0}, {"rental_uris": {"ios": "https://dc.lft.to/lastmile_qr_scan", "android": "https://dc.lft.to/lastmile_qr_scan"}, "lon": -77.07234866666667, "type": "electric_scooter", "fusion_lat": 0.0, "lat": 38.933904166666665, "name": "b010755c1a636d1803bb56807bfdddd7", "fusion_lon": 0.0, "bike_id": "b010755c1a636d1803bb56807bfdddd7", "is_disabled": 0, "is_reserved": 0}, {"rental_uris": {"ios": "https://dc.lft.to/lastmile_qr_scan", "android": "https://dc.lft.to/lastmile_qr_scan"}, "lon": -76.93098166666667, "type": "electric_scooter", "fusion_lat": 0.0, "lat": 38.90141033333333, "name": "bc44a6290dba2905a7f46b83cb863a86", "fusion_lon": 0.0, "bike_id": "bc44a6290dba2905a7f46b83cb863a86", "is_disabled": 0, "is_reserved": 0}, {"rental_uris": {"ios": "https://dc.lft.to/lastmile_qr_scan", "android": "https://dc.lft.to/lastmile_qr_scan"}, "lon": -77.05351183333333, "type": "electric_scooter", "fusion_lat": 0.0, "lat": 38.902619, "name": "9c709e0bbf422a97a1c88fe59140aaa0", "fusion_lon": 0.0, "bike_id": "9c709e0bbf422a97a1c88fe59140aaa0", "is_disabled": 0, "is_reserved": 0}, {"rental_uris": {"ios": "https://dc.lft.to/lastmile_qr_scan", "android": "https://dc.lft.to/lastmile_qr_scan"}, "lon": -77.0220255, "type": "electric_scooter", "fusion_lat": 0.0, "lat": 38.914252833333336, "name": "1598a0502af3552890fad9e1a48bd30a", "fusion_lon": 0.0, "bike_id": "1598a0502af3552890fad9e1a48bd30a", "is_disabled": 0, "is_reserved": 0}, {"rental_uris": {"ios": "https://dc.lft.to/lastmile_qr_scan", "android": "https://dc.lft.to/lastmile_qr_scan"}, "lon": -76.98558, "type": "electric_scooter", "fusion_lat": 0.0, "lat": 38.8976715, "name": "7d2e29e86db8360152aed9b181ab9ab8", "fusion_lon": 0.0, "bike_id": "7d2e29e86db8360152aed9b181ab9ab8", "is_disabled": 0, "is_reserved": 0}, {"rental_uris": {"ios": "https://dc.lft.to/lastmile_qr_scan", "android": "https://dc.lft.to/lastmile_qr_scan"}, "lon": -76.980019, "type": "electric_bike", "fusion_lat": 0.0, "lat": 38.86282683333334, "name": "8a487b065f121f876e0a6e196dc4efce", "fusion_lon": 0.0, "bike_id": "8a487b065f121f876e0a6e196dc4efce", "is_disabled": 0, "is_reserved": 0}, {"rental_uris": {"ios": "https://dc.lft.to/lastmile_qr_scan", "android": "https://dc.lft.to/lastmile_qr_scan"}, "lon": -77.03285916666667, "type": "electric_scooter", "fusion_lat": 0.0, "lat": 38.92352316666667, "name": "6269e1b95dc4b2eaf88ab1d96ea220d6", "fusion_lon": 0.0, "bike_id": "6269e1b95dc4b2eaf88ab1d96ea220d6", "is_disabled": 0, "is_reserved": 0}, {"rental_uris": {"ios": "https://dc.lft.to/lastmile_qr_scan", "android": "https://dc.lft.to/lastmile_qr_scan"}, "lon": -76.9463265, "type": "electric_scooter", "fusion_lat": 0.0, "lat": 38.89830366666666, "name": "83db651382f763a1255eb5741774821c", "fusion_lon": 0.0, "bike_id": "83db651382f763a1255eb5741774821c", "is_disabled": 0, "is_reserved": 0}, {"rental_uris": {"ios": "https://dc.lft.to/lastmile_qr_scan", "android": "https://dc.lft.to/lastmile_qr_scan"}, "lon": -77.10453283333334, "type": "electric_bike", "fusion_lat": 0.0, "lat": 38.89635783333333, "name": "95c6f5a350b55d1ec0d455e4d09fa63b", "fusion_lon": 0.0, "bike_id": "95c6f5a350b55d1ec0d455e4d09fa63b", "is_disabled": 0, "is_reserved": 0}, {"rental_uris": {"ios": "https://dc.lft.to/lastmile_qr_scan", "android": "https://dc.lft.to/lastmile_qr_scan"}, "lon": -77.00108416666667, "type": "electric_scooter", "fusion_lat": 0.0, "lat": 38.90856266666667, "name": "2d9887beb03f240cde4279abdec21fc9", "fusion_lon": 0.0, "bike_id": "2d9887beb03f240cde4279abdec21fc9", "is_disabled": 0, "is_reserved": 0}, {"rental_uris": {"ios": "https://dc.lft.to/lastmile_qr_scan", "android": "https://dc.lft.to/lastmile_qr_scan"}, "lon": -77.02180466666667, "type": "electric_scooter", "fusion_lat": 0.0, "lat": 38.910504833333334, "name": "6e5b8fef07c80ebdca63a4636830125c", "fusion_lon": 0.0, "bike_id": "6e5b8fef07c80ebdca63a4636830125c", "is_disabled": 0, "is_reserved": 0}, {"rental_uris": {"ios": "https://dc.lft.to/lastmile_qr_scan", "android": "https://dc.lft.to/lastmile_qr_scan"}, "lon": -77.02601616666666, "type": "electric_scooter", "fusion_lat": 0.0, "lat": 38.92027483333333, "name": "4f89e7069b1a016a034e8f391ff80595", "fusion_lon": 0.0, "bike_id": "4f89e7069b1a016a034e8f391ff80595", "is_disabled": 0, "is_reserved": 0}, {"rental_uris": {"ios": "https://dc.lft.to/lastmile_qr_scan", "android": "https://dc.lft.to/lastmile_qr_scan"}, "lon": -77.0270675, "type": "electric_scooter", "fusion_lat": 0.0, "lat": 38.950005833333336, "name": "af9c40080efd60e299e739de28698786", "fusion_lon": 0.0, "bike_id": "af9c40080efd60e299e739de28698786", "is_disabled": 0, "is_reserved": 0}, {"rental_uris": {"ios": "https://dc.lft.to/lastmile_qr_scan", "android": "https://dc.lft.to/lastmile_qr_scan"}, "lon": -77.03178316666667, "type": "electric_scooter", "fusion_lat": 0.0, "lat": 38.91591316666667, "name": "894604c7902bcab30045a8b547ae06cb", "fusion_lon": 0.0, "bike_id": "894604c7902bcab30045a8b547ae06cb", "is_disabled": 0, "is_reserved": 0}, {"rental_uris": {"ios": "https://dc.lft.to/lastmile_qr_scan", "android": "https://dc.lft.to/lastmile_qr_scan"}, "lon": -77.025883, "type": "electric_scooter", "fusion_lat": 0.0, "lat": 38.92992433333333, "name": "31f124f8209f66283d2c14ad06a4e9c3", "fusion_lon": 0.0, "bike_id": "31f124f8209f66283d2c14ad06a4e9c3", "is_disabled": 0, "is_reserved": 0}, {"rental_uris": {"ios": "https://dc.lft.to/lastmile_qr_scan", "android": "https://dc.lft.to/lastmile_qr_scan"}, "lon": -77.0454895, "type": "electric_scooter", "fusion_lat": 0.0, "lat": 38.934027, "name": "48a424aefd377c2bb3505381de7b93b0", "fusion_lon": 0.0, "bike_id": "48a424aefd377c2bb3505381de7b93b0", "is_disabled": 0, "is_reserved": 0}, {"rental_uris": {"ios": "https://dc.lft.to/lastmile_qr_scan", "android": "https://dc.lft.to/lastmile_qr_scan"}, "lon": -77.02311933333333, "type": "electric_scooter", "fusion_lat": 0.0, "lat": 38.917903, "name": "8aa953f5295e4fd880a5c70bb223caa8", "fusion_lon": 0.0, "bike_id": "8aa953f5295e4fd880a5c70bb223caa8", "is_disabled": 0, "is_reserved": 0}, {"rental_uris": {"ios": "https://dc.lft.to/lastmile_qr_scan", "android": "https://dc.lft.to/lastmile_qr_scan"}, "lon": -77.0660125, "type": "electric_scooter", "fusion_lat": 0.0, "lat": 38.90579733333333, "name": "5d1816d58c06d14e051d133687e59b58", "fusion_lon": 0.0, "bike_id": "5d1816d58c06d14e051d133687e59b58", "is_disabled": 0, "is_reserved": 0}, {"rental_uris": {"ios": "https://dc.lft.to/lastmile_qr_scan", "android": "https://dc.lft.to/lastmile_qr_scan"}, "lon": -77.129606, "type": "electric_bike", "fusion_lat": 0.0, "lat": 38.852208833333336, "name": "399f44f175a1025df1c4dc75558a19c1", "fusion_lon": 0.0, "bike_id": "399f44f175a1025df1c4dc75558a19c1", "is_disabled": 0, "is_reserved": 0}, {"rental_uris": {"ios": "https://dc.lft.to/lastmile_qr_scan", "android": "https://dc.lft.to/lastmile_qr_scan"}, "lon": -77.05474716666667, "type": "electric_scooter", "fusion_lat": 0.0, "lat": 38.893899, "name": "bc5dccf5f1b1ab68f4493ab34f12ee40", "fusion_lon": 0.0, "bike_id": "bc5dccf5f1b1ab68f4493ab34f12ee40", "is_disabled": 0, "is_reserved": 0}, {"rental_uris": {"ios": "https://dc.lft.to/lastmile_qr_scan", "android": "https://dc.lft.to/lastmile_qr_scan"}, "lon": -76.98372816666667, "type": "electric_scooter", "fusion_lat": 0.0, "lat": 38.89540366666667, "name": "929324dcd9538aa8313e35796c4f73bd", "fusion_lon": 0.0, "bike_id": "929324dcd9538aa8313e35796c4f73bd", "is_disabled": 0, "is_reserved": 0}, {"rental_uris": {"ios": "https://dc.lft.to/lastmile_qr_scan", "android": "https://dc.lft.to/lastmile_qr_scan"}, "lon": -76.9598955, "type": "electric_scooter", "fusion_lat": 0.0, "lat": 38.880405, "name": "8a359c037edf83e64e59313dfa5a16c9", "fusion_lon": 0.0, "bike_id": "8a359c037edf83e64e59313dfa5a16c9", "is_disabled": 0, "is_reserved": 0}, {"rental_uris": {"ios": "https://dc.lft.to/lastmile_qr_scan", "android": "https://dc.lft.to/lastmile_qr_scan"}, "lon": -77.02608866666667, "type": "electric_bike", "fusion_lat": 0.0, "lat": 38.96263883333334, "name": "662235914b10902edd55babf7727aa79", "fusion_lon": 0.0, "bike_id": "662235914b10902edd55babf7727aa79", "is_disabled": 0, "is_reserved": 0}, {"rental_uris": {"ios": "https://dc.lft.to/lastmile_qr_scan", "android": "https://dc.lft.to/lastmile_qr_scan"}, "lon": -77.03043433333333, "type": "electric_scooter", "fusion_lat": 0.0, "lat": 38.91711566666667, "name": "f27035aabf55814b120d10ebff0df5e4", "fusion_lon": 0.0, "bike_id": "f27035aabf55814b120d10ebff0df5e4", "is_disabled": 0, "is_reserved": 0}, {"rental_uris": {"ios": "https://dc.lft.to/lastmile_qr_scan", "android": "https://dc.lft.to/lastmile_qr_scan"}, "lon": -76.99689916666667, "type": "electric_scooter", "fusion_lat": 0.0, "lat": 38.900848833333335, "name": "1e8a395b880cfe90a13c727b4fc49f63", "fusion_lon": 0.0, "bike_id": "1e8a395b880cfe90a13c727b4fc49f63", "is_disabled": 0, "is_reserved": 0}, {"rental_uris": {"ios": "https://dc.lft.to/lastmile_qr_scan", "android": "https://dc.lft.to/lastmile_qr_scan"}, "lon": -77.00202966666667, "type": "electric_scooter", "fusion_lat": 0.0, "lat": 38.89990683333333, "name": "e017c71e3b1fb7455318b26077ce9723", "fusion_lon": 0.0, "bike_id": "e017c71e3b1fb7455318b26077ce9723", "is_disabled": 0, "is_reserved": 0}, {"rental_uris": {"ios": "https://dc.lft.to/lastmile_qr_scan", "android": "https://dc.lft.to/lastmile_qr_scan"}, "lon": -76.932272, "type": "electric_bike", "fusion_lat": 0.0, "lat": 38.86595166666667, "name": "551ed218f7f83d31abbe0025209019b6", "fusion_lon": 0.0, "bike_id": "551ed218f7f83d31abbe0025209019b6", "is_disabled": 0, "is_reserved": 0}, {"rental_uris": {"ios": "https://dc.lft.to/lastmile_qr_scan", "android": "https://dc.lft.to/lastmile_qr_scan"}, "lon": -76.94751583333333, "type": "electric_scooter", "fusion_lat": 0.0, "lat": 38.9005035, "name": "06f4dc236c12436360e2d2748192f6df", "fusion_lon": 0.0, "bike_id": "06f4dc236c12436360e2d2748192f6df", "is_disabled": 0, "is_reserved": 0}, {"rental_uris": {"ios": "https://dc.lft.to/lastmile_qr_scan", "android": "https://dc.lft.to/lastmile_qr_scan"}, "lon": -76.972901, "type": "electric_scooter", "fusion_lat": 0.0, "lat": 38.9033815, "name": "227868d40a7312cee2fd637a6ad07e04", "fusion_lon": 0.0, "bike_id": "227868d40a7312cee2fd637a6ad07e04", "is_disabled": 0, "is_reserved": 0}, {"rental_uris": {"ios": "https://dc.lft.to/lastmile_qr_scan", "android": "https://dc.lft.to/lastmile_qr_scan"}, "lon": -77.02115733333333, "type": "electric_scooter", "fusion_lat": 0.0, "lat": 38.93703083333333, "name": "8cc0e8df9a7263094cacc0389bb9f5e3", "fusion_lon": 0.0, "bike_id": "8cc0e8df9a7263094cacc0389bb9f5e3", "is_disabled": 0, "is_reserved": 0}, {"rental_uris": {"ios": "https://dc.lft.to/lastmile_qr_scan", "android": "https://dc.lft.to/lastmile_qr_scan"}, "lon": -77.06542583333334, "type": "electric_scooter", "fusion_lat": 0.0, "lat": 38.90485283333334, "name": "868b2b9ce24b400a7100c78decd0e05c", "fusion_lon": 0.0, "bike_id": "868b2b9ce24b400a7100c78decd0e05c", "is_disabled": 0, "is_reserved": 0}, {"rental_uris": {"ios": "https://dc.lft.to/lastmile_qr_scan", "android": "https://dc.lft.to/lastmile_qr_scan"}, "lon": -76.9587755, "type": "electric_scooter", "fusion_lat": 0.0, "lat": 38.858471333333334, "name": "5b7c7f482411836f289f796b879c697f", "fusion_lon": 0.0, "bike_id": "5b7c7f482411836f289f796b879c697f", "is_disabled": 0, "is_reserved": 0}, {"rental_uris": {"ios": "https://dc.lft.to/lastmile_qr_scan", "android": "https://dc.lft.to/lastmile_qr_scan"}, "lon": -76.9967985, "type": "electric_scooter", "fusion_lat": 0.0, "lat": 38.88685566666667, "name": "6529d905f1578ef2ca1b5cc97a714cc6", "fusion_lon": 0.0, "bike_id": "6529d905f1578ef2ca1b5cc97a714cc6", "is_disabled": 0, "is_reserved": 0}, {"rental_uris": {"ios": "https://dc.lft.to/lastmile_qr_scan", "android": "https://dc.lft.to/lastmile_qr_scan"}, "lon": -77.0433725, "type": "electric_scooter", "fusion_lat": 0.0, "lat": 38.927894, "name": "3a11b92a0f34fd4771a76ea71b97efa1", "fusion_lon": 0.0, "bike_id": "3a11b92a0f34fd4771a76ea71b97efa1", "is_disabled": 0, "is_reserved": 0}, {"rental_uris": {"ios": "https://dc.lft.to/lastmile_qr_scan", "android": "https://dc.lft.to/lastmile_qr_scan"}, "lon": -76.95758566666666, "type": "electric_scooter", "fusion_lat": 0.0, "lat": 38.88681966666667, "name": "46b38b2c8d746e4878e9cff654aa1850", "fusion_lon": 0.0, "bike_id": "46b38b2c8d746e4878e9cff654aa1850", "is_disabled": 0, "is_reserved": 0}, {"rental_uris": {"ios": "https://dc.lft.to/lastmile_qr_scan", "android": "https://dc.lft.to/lastmile_qr_scan"}, "lon": -77.00730133333333, "type": "electric_scooter", "fusion_lat": 0.0, "lat": 38.8961725, "name": "1bc9a446d24737bfdd6de3e99c0a435c", "fusion_lon": 0.0, "bike_id": "1bc9a446d24737bfdd6de3e99c0a435c", "is_disabled": 0, "is_reserved": 0}, {"rental_uris": {"ios": "https://dc.lft.to/lastmile_qr_scan", "android": "https://dc.lft.to/lastmile_qr_scan"}, "lon": -77.0291645, "type": "electric_scooter", "fusion_lat": 0.0, "lat": 38.885782166666665, "name": "9f95861441647cb7c7e19aa62204bcf3", "fusion_lon": 0.0, "bike_id": "9f95861441647cb7c7e19aa62204bcf3", "is_disabled": 0, "is_reserved": 0}, {"rental_uris": {"ios": "https://dc.lft.to/lastmile_qr_scan", "android": "https://dc.lft.to/lastmile_qr_scan"}, "lon": -77.007766, "type": "electric_scooter", "fusion_lat": 0.0, "lat": 38.906451833333335, "name": "e2261469fcf3e0958244705ee2f316dc", "fusion_lon": 0.0, "bike_id": "e2261469fcf3e0958244705ee2f316dc", "is_disabled": 0, "is_reserved": 0}, {"rental_uris": {"ios": "https://dc.lft.to/lastmile_qr_scan", "android": "https://dc.lft.to/lastmile_qr_scan"}, "lon": -77.0137295, "type": "electric_scooter", "fusion_lat": 0.0, "lat": 38.86367666666666, "name": "594e4c27012530b93f50d6f35cc86c63", "fusion_lon": 0.0, "bike_id": "594e4c27012530b93f50d6f35cc86c63", "is_disabled": 0, "is_reserved": 0}, {"rental_uris": {"ios": "https://dc.lft.to/lastmile_qr_scan", "android": "https://dc.lft.to/lastmile_qr_scan"}, "lon": -77.06952516666666, "type": "electric_scooter", "fusion_lat": 0.0, "lat": 38.90513833333333, "name": "37e898320f5eac8a8b4d10f9d367e755", "fusion_lon": 0.0, "bike_id": "37e898320f5eac8a8b4d10f9d367e755", "is_disabled": 0, "is_reserved": 0}, {"rental_uris": {"ios": "https://dc.lft.to/lastmile_qr_scan", "android": "https://dc.lft.to/lastmile_qr_scan"}, "lon": -77.07159766666666, "type": "electric_scooter", "fusion_lat": 0.0, "lat": 38.91453333333333, "name": "16b0866b3d4383add6fb97f520cce5a3", "fusion_lon": 0.0, "bike_id": "16b0866b3d4383add6fb97f520cce5a3", "is_disabled": 0, "is_reserved": 0}, {"rental_uris": {"ios": "https://dc.lft.to/lastmile_qr_scan", "android": "https://dc.lft.to/lastmile_qr_scan"}, "lon": -77.027162, "type": "electric_scooter", "fusion_lat": 0.0, "lat": 38.93460483333333, "name": "db44d9603cd6d526a53ccbe0d81cd9ff", "fusion_lon": 0.0, "bike_id": "db44d9603cd6d526a53ccbe0d81cd9ff", "is_disabled": 0, "is_reserved": 0}, {"rental_uris": {"ios": "https://dc.lft.to/lastmile_qr_scan", "android": "https://dc.lft.to/lastmile_qr_scan"}, "lon": -77.03239183333334, "type": "electric_scooter", "fusion_lat": 0.0, "lat": 38.927621333333335, "name": "9e06410cbb4e08db8be546399763966a", "fusion_lon": 0.0, "bike_id": "9e06410cbb4e08db8be546399763966a", "is_disabled": 0, "is_reserved": 0}, {"rental_uris": {"ios": "https://dc.lft.to/lastmile_qr_scan", "android": "https://dc.lft.to/lastmile_qr_scan"}, "lon": -77.02322, "type": "electric_scooter", "fusion_lat": 0.0, "lat": 38.937827666666664, "name": "1a01bb7de225cb4ac1cc789b57b18aaa", "fusion_lon": 0.0, "bike_id": "1a01bb7de225cb4ac1cc789b57b18aaa", "is_disabled": 0, "is_reserved": 0}, {"rental_uris": {"ios": "https://dc.lft.to/lastmile_qr_scan", "android": "https://dc.lft.to/lastmile_qr_scan"}, "lon": -77.0365395, "type": "electric_scooter", "fusion_lat": 0.0, "lat": 38.902714833333334, "name": "29e6a8c6d25b13226603b0bf50ef2c9f", "fusion_lon": 0.0, "bike_id": "29e6a8c6d25b13226603b0bf50ef2c9f", "is_disabled": 0, "is_reserved": 0}, {"rental_uris": {"ios": "https://dc.lft.to/lastmile_qr_scan", "android": "https://dc.lft.to/lastmile_qr_scan"}, "lon": -77.0334485, "type": "electric_scooter", "fusion_lat": 0.0, "lat": 38.8990035, "name": "5833dce6372f4c1581b7fc4d4ecf7cfc", "fusion_lon": 0.0, "bike_id": "5833dce6372f4c1581b7fc4d4ecf7cfc", "is_disabled": 0, "is_reserved": 0}, {"rental_uris": {"ios": "https://dc.lft.to/lastmile_qr_scan", "android": "https://dc.lft.to/lastmile_qr_scan"}, "lon": -77.04337516666666, "type": "electric_scooter", "fusion_lat": 0.0, "lat": 38.896381166666664, "name": "da5b496498383b4e78265a292b4873bf", "fusion_lon": 0.0, "bike_id": "da5b496498383b4e78265a292b4873bf", "is_disabled": 0, "is_reserved": 0}, {"rental_uris": {"ios": "https://dc.lft.to/lastmile_qr_scan", "android": "https://dc.lft.to/lastmile_qr_scan"}, "lon": -77.03262033333333, "type": "electric_scooter", "fusion_lat": 0.0, "lat": 38.92546933333333, "name": "7b041bcc029a987b6bef091b0422541d", "fusion_lon": 0.0, "bike_id": "7b041bcc029a987b6bef091b0422541d", "is_disabled": 0, "is_reserved": 0}, {"rental_uris": {"ios": "https://dc.lft.to/lastmile_qr_scan", "android": "https://dc.lft.to/lastmile_qr_scan"}, "lon": -77.05822383333333, "type": "electric_scooter", "fusion_lat": 0.0, "lat": 38.93419683333333, "name": "30b4501711582735ad24f5a4be93169c", "fusion_lon": 0.0, "bike_id": "30b4501711582735ad24f5a4be93169c", "is_disabled": 0, "is_reserved": 0}, {"rental_uris": {"ios": "https://dc.lft.to/lastmile_qr_scan", "android": "https://dc.lft.to/lastmile_qr_scan"}, "lon": -77.0427615, "type": "electric_scooter", "fusion_lat": 0.0, "lat": 38.908736833333336, "name": "3f0e735e45f413a2af194f6cf615ba3f", "fusion_lon": 0.0, "bike_id": "3f0e735e45f413a2af194f6cf615ba3f", "is_disabled": 0, "is_reserved": 0}, {"rental_uris": {"ios": "https://dc.lft.to/lastmile_qr_scan", "android": "https://dc.lft.to/lastmile_qr_scan"}, "lon": -77.0559255, "type": "electric_scooter", "fusion_lat": 0.0, "lat": 38.927815833333334, "name": "2c0746a1934a9f86318613b451b3c665", "fusion_lon": 0.0, "bike_id": "2c0746a1934a9f86318613b451b3c665", "is_disabled": 0, "is_reserved": 0}, {"rental_uris": {"ios": "https://dc.lft.to/lastmile_qr_scan", "android": "https://dc.lft.to/lastmile_qr_scan"}, "lon": -77.06382316666667, "type": "electric_bike", "fusion_lat": 0.0, "lat": 38.905085, "name": "397125e48adce0be2719bff31b9c28c0", "fusion_lon": 0.0, "bike_id": "397125e48adce0be2719bff31b9c28c0", "is_disabled": 0, "is_reserved": 0}, {"rental_uris": {"ios": "https://dc.lft.to/lastmile_qr_scan", "android": "https://dc.lft.to/lastmile_qr_scan"}, "lon": -77.03563533333333, "type": "electric_scooter", "fusion_lat": 0.0, "lat": 38.918132666666665, "name": "1bf119bbdbe29fb0a42876f3bac8faa8", "fusion_lon": 0.0, "bike_id": "1bf119bbdbe29fb0a42876f3bac8faa8", "is_disabled": 0, "is_reserved": 0}, {"rental_uris": {"ios": "https://dc.lft.to/lastmile_qr_scan", "android": "https://dc.lft.to/lastmile_qr_scan"}, "lon": -77.03338166666667, "type": "electric_scooter", "fusion_lat": 0.0, "lat": 38.91917133333333, "name": "455d432dc87517fec6bb2f6fa3eb2052", "fusion_lon": 0.0, "bike_id": "455d432dc87517fec6bb2f6fa3eb2052", "is_disabled": 0, "is_reserved": 0}, {"rental_uris": {"ios": "https://dc.lft.to/lastmile_qr_scan", "android": "https://dc.lft.to/lastmile_qr_scan"}, "lon": -77.02130183333334, "type": "electric_scooter", "fusion_lat": 0.0, "lat": 38.91550633333333, "name": "0daa7625824d98dc66ad781f40b0ab73", "fusion_lon": 0.0, "bike_id": "0daa7625824d98dc66ad781f40b0ab73", "is_disabled": 0, "is_reserved": 0}, {"rental_uris": {"ios": "https://dc.lft.to/lastmile_qr_scan", "android": "https://dc.lft.to/lastmile_qr_scan"}, "lon": -77.01726683333334, "type": "electric_scooter", "fusion_lat": 0.0, "lat": 38.903868833333334, "name": "195655579cfa17fb5520f31a767d9bf8", "fusion_lon": 0.0, "bike_id": "195655579cfa17fb5520f31a767d9bf8", "is_disabled": 0, "is_reserved": 0}, {"rental_uris": {"ios": "https://dc.lft.to/lastmile_qr_scan", "android": "https://dc.lft.to/lastmile_qr_scan"}, "lon": -76.95817433333333, "type": "electric_scooter", "fusion_lat": 0.0, "lat": 38.8905545, "name": "f040b97bfeb315f4485c228b4d0630d6", "fusion_lon": 0.0, "bike_id": "f040b97bfeb315f4485c228b4d0630d6", "is_disabled": 0, "is_reserved": 0}, {"rental_uris": {"ios": "https://dc.lft.to/lastmile_qr_scan", "android": "https://dc.lft.to/lastmile_qr_scan"}, "lon": -77.04114616666666, "type": "electric_scooter", "fusion_lat": 0.0, "lat": 38.92142716666667, "name": "d1c3d0b5e4f4deec6b1a6daf03de8f2d", "fusion_lon": 0.0, "bike_id": "d1c3d0b5e4f4deec6b1a6daf03de8f2d", "is_disabled": 0, "is_reserved": 0}, {"rental_uris": {"ios": "https://dc.lft.to/lastmile_qr_scan", "android": "https://dc.lft.to/lastmile_qr_scan"}, "lon": -77.0449895, "type": "electric_scooter", "fusion_lat": 0.0, "lat": 38.91284316666667, "name": "d73cabe815299ec91ab3d16ce0d918b5", "fusion_lon": 0.0, "bike_id": "d73cabe815299ec91ab3d16ce0d918b5", "is_disabled": 0, "is_reserved": 0}, {"rental_uris": {"ios": "https://dc.lft.to/lastmile_qr_scan", "android": "https://dc.lft.to/lastmile_qr_scan"}, "lon": -77.0952295, "type": "electric_bike", "fusion_lat": 0.0, "lat": 38.838114, "name": "0a4244f6235aec6a4068d08f9be93610", "fusion_lon": 0.0, "bike_id": "0a4244f6235aec6a4068d08f9be93610", "is_disabled": 0, "is_reserved": 0}, {"rental_uris": {"ios": "https://dc.lft.to/lastmile_qr_scan", "android": "https://dc.lft.to/lastmile_qr_scan"}, "lon": -76.98617583333333, "type": "electric_scooter", "fusion_lat": 0.0, "lat": 38.86815033333333, "name": "624531f708d6928861186e0389c51f5e", "fusion_lon": 0.0, "bike_id": "624531f708d6928861186e0389c51f5e", "is_disabled": 0, "is_reserved": 0}, {"rental_uris": {"ios": "https://dc.lft.to/lastmile_qr_scan", "android": "https://dc.lft.to/lastmile_qr_scan"}, "lon": -77.05391683333333, "type": "electric_scooter", "fusion_lat": 0.0, "lat": 38.90245566666667, "name": "ee2eaac9faf495b2b152308024d1ac7a", "fusion_lon": 0.0, "bike_id": "ee2eaac9faf495b2b152308024d1ac7a", "is_disabled": 0, "is_reserved": 0}, {"rental_uris": {"ios": "https://dc.lft.to/lastmile_qr_scan", "android": "https://dc.lft.to/lastmile_qr_scan"}, "lon": -76.9927905, "type": "electric_scooter", "fusion_lat": 0.0, "lat": 38.921353, "name": "7fdb2bb95cce38232c098cdd388c2e7e", "fusion_lon": 0.0, "bike_id": "7fdb2bb95cce38232c098cdd388c2e7e", "is_disabled": 0, "is_reserved": 0}, {"rental_uris": {"ios": "https://dc.lft.to/lastmile_qr_scan", "android": "https://dc.lft.to/lastmile_qr_scan"}, "lon": -76.997767, "type": "electric_scooter", "fusion_lat": 0.0, "lat": 38.844227833333335, "name": "915308213d6884119bd36613bd314b54", "fusion_lon": 0.0, "bike_id": "915308213d6884119bd36613bd314b54", "is_disabled": 0, "is_reserved": 0}, {"rental_uris": {"ios": "https://dc.lft.to/lastmile_qr_scan", "android": "https://dc.lft.to/lastmile_qr_scan"}, "lon": -77.06402033333333, "type": "electric_bike", "fusion_lat": 0.0, "lat": 38.843468666666666, "name": "c7eecf5cdc055ad1bd00298bdcfdcc49", "fusion_lon": 0.0, "bike_id": "c7eecf5cdc055ad1bd00298bdcfdcc49", "is_disabled": 0, "is_reserved": 0}, {"rental_uris": {"ios": "https://dc.lft.to/lastmile_qr_scan", "android": "https://dc.lft.to/lastmile_qr_scan"}, "lon": -77.01763666666666, "type": "electric_scooter", "fusion_lat": 0.0, "lat": 38.9056805, "name": "b589196abcc58535378946ea6b6351bc", "fusion_lon": 0.0, "bike_id": "b589196abcc58535378946ea6b6351bc", "is_disabled": 0, "is_reserved": 0}, {"rental_uris": {"ios": "https://dc.lft.to/lastmile_qr_scan", "android": "https://dc.lft.to/lastmile_qr_scan"}, "lon": -77.0150995, "type": "electric_scooter", "fusion_lat": 0.0, "lat": 38.90149, "name": "a6fbf4fd80c31fba34f471c3e1c6cdc7", "fusion_lon": 0.0, "bike_id": "a6fbf4fd80c31fba34f471c3e1c6cdc7", "is_disabled": 0, "is_reserved": 0}, {"rental_uris": {"ios": "https://dc.lft.to/lastmile_qr_scan", "android": "https://dc.lft.to/lastmile_qr_scan"}, "lon": -77.02638416666667, "type": "electric_scooter", "fusion_lat": 0.0, "lat": 38.896039333333334, "name": "b9f663e763e04222db837e2952602565", "fusion_lon": 0.0, "bike_id": "b9f663e763e04222db837e2952602565", "is_disabled": 0, "is_reserved": 0}, {"rental_uris": {"ios": "https://dc.lft.to/lastmile_qr_scan", "android": "https://dc.lft.to/lastmile_qr_scan"}, "lon": -76.97208066666667, "type": "electric_scooter", "fusion_lat": 0.0, "lat": 38.854982166666666, "name": "96e322c209341bd30511a9208dbcc572", "fusion_lon": 0.0, "bike_id": "96e322c209341bd30511a9208dbcc572", "is_disabled": 0, "is_reserved": 0}, {"rental_uris": {"ios": "https://dc.lft.to/lastmile_qr_scan", "android": "https://dc.lft.to/lastmile_qr_scan"}, "lon": -76.9462715, "type": "electric_bike", "fusion_lat": 0.0, "lat": 38.94621033333333, "name": "a8045c55f46ada2e13e3b2ec1a9a1f3c", "fusion_lon": 0.0, "bike_id": "a8045c55f46ada2e13e3b2ec1a9a1f3c", "is_disabled": 0, "is_reserved": 0}, {"rental_uris": {"ios": "https://dc.lft.to/lastmile_qr_scan", "android": "https://dc.lft.to/lastmile_qr_scan"}, "lon": -77.03833383333334, "type": "electric_scooter", "fusion_lat": 0.0, "lat": 38.90484683333333, "name": "6de6519b686a29149250b2a9d346fc1f", "fusion_lon": 0.0, "bike_id": "6de6519b686a29149250b2a9d346fc1f", "is_disabled": 0, "is_reserved": 0}, {"rental_uris": {"ios": "https://dc.lft.to/lastmile_qr_scan", "android": "https://dc.lft.to/lastmile_qr_scan"}, "lon": -77.02745116666667, "type": "electric_scooter", "fusion_lat": 0.0, "lat": 38.92895716666666, "name": "512143ba5b9887b597b8950c25d2875b", "fusion_lon": 0.0, "bike_id": "512143ba5b9887b597b8950c25d2875b", "is_disabled": 0, "is_reserved": 0}, {"rental_uris": {"ios": "https://dc.lft.to/lastmile_qr_scan", "android": "https://dc.lft.to/lastmile_qr_scan"}, "lon": -77.04328033333333, "type": "electric_scooter", "fusion_lat": 0.0, "lat": 38.895854, "name": "a4aca1829ee3c5edf0f45cc052053425", "fusion_lon": 0.0, "bike_id": "a4aca1829ee3c5edf0f45cc052053425", "is_disabled": 0, "is_reserved": 0}, {"rental_uris": {"ios": "https://dc.lft.to/lastmile_qr_scan", "android": "https://dc.lft.to/lastmile_qr_scan"}, "lon": -77.03219866666667, "type": "electric_scooter", "fusion_lat": 0.0, "lat": 38.90753316666667, "name": "d84bc482c44d45ffc24c233745a807de", "fusion_lon": 0.0, "bike_id": "d84bc482c44d45ffc24c233745a807de", "is_disabled": 0, "is_reserved": 0}, {"rental_uris": {"ios": "https://dc.lft.to/lastmile_qr_scan", "android": "https://dc.lft.to/lastmile_qr_scan"}, "lon": -77.02833416666667, "type": "electric_scooter", "fusion_lat": 0.0, "lat": 38.88760083333333, "name": "8edfedf73bb1fba8522cb71d629ee454", "fusion_lon": 0.0, "bike_id": "8edfedf73bb1fba8522cb71d629ee454", "is_disabled": 0, "is_reserved": 0}, {"rental_uris": {"ios": "https://dc.lft.to/lastmile_qr_scan", "android": "https://dc.lft.to/lastmile_qr_scan"}, "lon": -77.03837483333334, "type": "electric_scooter", "fusion_lat": 0.0, "lat": 38.926460166666665, "name": "30f539d451f611464f15ab04065c0f81", "fusion_lon": 0.0, "bike_id": "30f539d451f611464f15ab04065c0f81", "is_disabled": 0, "is_reserved": 0}, {"rental_uris": {"ios": "https://dc.lft.to/lastmile_qr_scan", "android": "https://dc.lft.to/lastmile_qr_scan"}, "lon": -77.04670266666666, "type": "electric_scooter", "fusion_lat": 0.0, "lat": 38.9037785, "name": "9cd6be0429f67429506d752106c76cae", "fusion_lon": 0.0, "bike_id": "9cd6be0429f67429506d752106c76cae", "is_disabled": 0, "is_reserved": 0}, {"rental_uris": {"ios": "https://dc.lft.to/lastmile_qr_scan", "android": "https://dc.lft.to/lastmile_qr_scan"}, "lon": -77.04484966666666, "type": "electric_scooter", "fusion_lat": 0.0, "lat": 38.91870483333334, "name": "1652bbe22542b5f815c088688b01cd32", "fusion_lon": 0.0, "bike_id": "1652bbe22542b5f815c088688b01cd32", "is_disabled": 0, "is_reserved": 0}, {"rental_uris": {"ios": "https://dc.lft.to/lastmile_qr_scan", "android": "https://dc.lft.to/lastmile_qr_scan"}, "lon": -76.998937, "type": "electric_scooter", "fusion_lat": 0.0, "lat": 38.907533666666666, "name": "3fd6676e8da36ca528d92c6da8735f7d", "fusion_lon": 0.0, "bike_id": "3fd6676e8da36ca528d92c6da8735f7d", "is_disabled": 0, "is_reserved": 0}, {"rental_uris": {"ios": "https://dc.lft.to/lastmile_qr_scan", "android": "https://dc.lft.to/lastmile_qr_scan"}, "lon": -77.00711783333334, "type": "electric_scooter", "fusion_lat": 0.0, "lat": 38.8849145, "name": "9ede9d064fb4acf86dfc4b2d41d7e1b0", "fusion_lon": 0.0, "bike_id": "9ede9d064fb4acf86dfc4b2d41d7e1b0", "is_disabled": 0, "is_reserved": 0}, {"rental_uris": {"ios": "https://dc.lft.to/lastmile_qr_scan", "android": "https://dc.lft.to/lastmile_qr_scan"}, "lon": -77.03364933333333, "type": "electric_scooter", "fusion_lat": 0.0, "lat": 38.887561833333336, "name": "00d8077c02899ef0965fa7be2f31e242", "fusion_lon": 0.0, "bike_id": "00d8077c02899ef0965fa7be2f31e242", "is_disabled": 0, "is_reserved": 0}, {"rental_uris": {"ios": "https://dc.lft.to/lastmile_qr_scan", "android": "https://dc.lft.to/lastmile_qr_scan"}, "lon": -77.0295555, "type": "electric_scooter", "fusion_lat": 0.0, "lat": 38.88741616666667, "name": "4ab407767ef91d9938a2ec4f272d4ba1", "fusion_lon": 0.0, "bike_id": "4ab407767ef91d9938a2ec4f272d4ba1", "is_disabled": 0, "is_reserved": 0}, {"rental_uris": {"ios": "https://dc.lft.to/lastmile_qr_scan", "android": "https://dc.lft.to/lastmile_qr_scan"}, "lon": -77.043642, "type": "electric_scooter", "fusion_lat": 0.0, "lat": 38.9333805, "name": "cab27fe9b034e3a07963c73fb12b0d36", "fusion_lon": 0.0, "bike_id": "cab27fe9b034e3a07963c73fb12b0d36", "is_disabled": 0, "is_reserved": 0}, {"rental_uris": {"ios": "https://dc.lft.to/lastmile_qr_scan", "android": "https://dc.lft.to/lastmile_qr_scan"}, "lon": -77.05472083333333, "type": "electric_scooter", "fusion_lat": 0.0, "lat": 38.896690166666666, "name": "c4ee647f3cad6720793297c56fae31ed", "fusion_lon": 0.0, "bike_id": "c4ee647f3cad6720793297c56fae31ed", "is_disabled": 0, "is_reserved": 0}, {"rental_uris": {"ios": "https://dc.lft.to/lastmile_qr_scan", "android": "https://dc.lft.to/lastmile_qr_scan"}, "lon": -76.98545416666667, "type": "electric_scooter", "fusion_lat": 0.0, "lat": 38.9042125, "name": "7d9079345bd58c76c52921c1859f7f64", "fusion_lon": 0.0, "bike_id": "7d9079345bd58c76c52921c1859f7f64", "is_disabled": 0, "is_reserved": 0}, {"rental_uris": {"ios": "https://dc.lft.to/lastmile_qr_scan", "android": "https://dc.lft.to/lastmile_qr_scan"}, "lon": -76.93924316666667, "type": "electric_scooter", "fusion_lat": 0.0, "lat": 38.892914833333336, "name": "c71f3fa316db008080d765c079cc1cb3", "fusion_lon": 0.0, "bike_id": "c71f3fa316db008080d765c079cc1cb3", "is_disabled": 0, "is_reserved": 0}, {"rental_uris": {"ios": "https://dc.lft.to/lastmile_qr_scan", "android": "https://dc.lft.to/lastmile_qr_scan"}, "lon": -77.01435216666667, "type": "electric_scooter", "fusion_lat": 0.0, "lat": 38.90643633333333, "name": "485dc504a074894685afdb0186a5b1e3", "fusion_lon": 0.0, "bike_id": "485dc504a074894685afdb0186a5b1e3", "is_disabled": 0, "is_reserved": 0}, {"rental_uris": {"ios": "https://dc.lft.to/lastmile_qr_scan", "android": "https://dc.lft.to/lastmile_qr_scan"}, "lon": -76.98074183333334, "type": "electric_scooter", "fusion_lat": 0.0, "lat": 38.90177583333333, "name": "8d98562bc5ab95d4ac0dabcb9e707295", "fusion_lon": 0.0, "bike_id": "8d98562bc5ab95d4ac0dabcb9e707295", "is_disabled": 0, "is_reserved": 0}, {"rental_uris": {"ios": "https://dc.lft.to/lastmile_qr_scan", "android": "https://dc.lft.to/lastmile_qr_scan"}, "lon": -77.0165015, "type": "electric_bike", "fusion_lat": 0.0, "lat": 38.881129, "name": "ab5d07ecd0d27d02874a3d60e0d06f98", "fusion_lon": 0.0, "bike_id": "ab5d07ecd0d27d02874a3d60e0d06f98", "is_disabled": 0, "is_reserved": 0}, {"rental_uris": {"ios": "https://dc.lft.to/lastmile_qr_scan", "android": "https://dc.lft.to/lastmile_qr_scan"}, "lon": -76.94617016666666, "type": "electric_bike", "fusion_lat": 0.0, "lat": 38.832373, "name": "3cc77d97cf25074c6a0cbc4d67af8219", "fusion_lon": 0.0, "bike_id": "3cc77d97cf25074c6a0cbc4d67af8219", "is_disabled": 0, "is_reserved": 0}, {"rental_uris": {"ios": "https://dc.lft.to/lastmile_qr_scan", "android": "https://dc.lft.to/lastmile_qr_scan"}, "lon": -77.0411115, "type": "electric_scooter", "fusion_lat": 0.0, "lat": 38.924392833333336, "name": "a09fbd96994a26075401f74d3b9318f5", "fusion_lon": 0.0, "bike_id": "a09fbd96994a26075401f74d3b9318f5", "is_disabled": 0, "is_reserved": 0}, {"rental_uris": {"ios": "https://dc.lft.to/lastmile_qr_scan", "android": "https://dc.lft.to/lastmile_qr_scan"}, "lon": -77.04005183333334, "type": "electric_scooter", "fusion_lat": 0.0, "lat": 38.910000333333336, "name": "5e02d5ee48d944f3729005b54d8d28aa", "fusion_lon": 0.0, "bike_id": "5e02d5ee48d944f3729005b54d8d28aa", "is_disabled": 0, "is_reserved": 0}, {"rental_uris": {"ios": "https://dc.lft.to/lastmile_qr_scan", "android": "https://dc.lft.to/lastmile_qr_scan"}, "lon": -77.047723, "type": "electric_scooter", "fusion_lat": 0.0, "lat": 38.908565, "name": "4ad865773817fca79c8aa837050bb46b", "fusion_lon": 0.0, "bike_id": "4ad865773817fca79c8aa837050bb46b", "is_disabled": 0, "is_reserved": 0}, {"rental_uris": {"ios": "https://dc.lft.to/lastmile_qr_scan", "android": "https://dc.lft.to/lastmile_qr_scan"}, "lon": -76.9740445, "type": "electric_scooter", "fusion_lat": 0.0, "lat": 38.901584666666665, "name": "e364f410349f10d124652259ba15c5e4", "fusion_lon": 0.0, "bike_id": "e364f410349f10d124652259ba15c5e4", "is_disabled": 0, "is_reserved": 0}, {"rental_uris": {"ios": "https://dc.lft.to/lastmile_qr_scan", "android": "https://dc.lft.to/lastmile_qr_scan"}, "lon": -76.93715616666667, "type": "electric_scooter", "fusion_lat": 0.0, "lat": 38.89586516666667, "name": "96a704054d4709588ef21bee300561c1", "fusion_lon": 0.0, "bike_id": "96a704054d4709588ef21bee300561c1", "is_disabled": 0, "is_reserved": 0}, {"rental_uris": {"ios": "https://dc.lft.to/lastmile_qr_scan", "android": "https://dc.lft.to/lastmile_qr_scan"}, "lon": -77.00252233333333, "type": "electric_scooter", "fusion_lat": 0.0, "lat": 38.911846833333335, "name": "c354d20daae17edc1cefcaf0adf95e3d", "fusion_lon": 0.0, "bike_id": "c354d20daae17edc1cefcaf0adf95e3d", "is_disabled": 0, "is_reserved": 0}, {"rental_uris": {"ios": "https://dc.lft.to/lastmile_qr_scan", "android": "https://dc.lft.to/lastmile_qr_scan"}, "lon": -77.034248, "type": "electric_scooter", "fusion_lat": 0.0, "lat": 38.93538933333333, "name": "a10ad0d1dce1c321630b02c6717ffc45", "fusion_lon": 0.0, "bike_id": "a10ad0d1dce1c321630b02c6717ffc45", "is_disabled": 0, "is_reserved": 0}, {"rental_uris": {"ios": "https://dc.lft.to/lastmile_qr_scan", "android": "https://dc.lft.to/lastmile_qr_scan"}, "lon": -77.04173633333333, "type": "electric_scooter", "fusion_lat": 0.0, "lat": 38.91773116666667, "name": "5ccccd419f0f658971e2c2221a49ab8e", "fusion_lon": 0.0, "bike_id": "5ccccd419f0f658971e2c2221a49ab8e", "is_disabled": 0, "is_reserved": 0}, {"rental_uris": {"ios": "https://dc.lft.to/lastmile_qr_scan", "android": "https://dc.lft.to/lastmile_qr_scan"}, "lon": -77.056341, "type": "electric_bike", "fusion_lat": 0.0, "lat": 38.924145833333334, "name": "92d8ecbe1832079671d92710c13696a4", "fusion_lon": 0.0, "bike_id": "92d8ecbe1832079671d92710c13696a4", "is_disabled": 0, "is_reserved": 0}, {"rental_uris": {"ios": "https://dc.lft.to/lastmile_qr_scan", "android": "https://dc.lft.to/lastmile_qr_scan"}, "lon": -77.03838116666667, "type": "electric_scooter", "fusion_lat": 0.0, "lat": 38.911167666666664, "name": "3d4fd89570a25563bbacef61c417b0a8", "fusion_lon": 0.0, "bike_id": "3d4fd89570a25563bbacef61c417b0a8", "is_disabled": 0, "is_reserved": 0}, {"rental_uris": {"ios": "https://dc.lft.to/lastmile_qr_scan", "android": "https://dc.lft.to/lastmile_qr_scan"}, "lon": -77.0293325, "type": "electric_scooter", "fusion_lat": 0.0, "lat": 38.905062, "name": "35057de4123b16315c1f6731af15d794", "fusion_lon": 0.0, "bike_id": "35057de4123b16315c1f6731af15d794", "is_disabled": 0, "is_reserved": 0}, {"rental_uris": {"ios": "https://dc.lft.to/lastmile_qr_scan", "android": "https://dc.lft.to/lastmile_qr_scan"}, "lon": -76.9848745, "type": "electric_scooter", "fusion_lat": 0.0, "lat": 38.90784516666667, "name": "3b9b2dadc46a6fd0eecb6cd6bfe7add6", "fusion_lon": 0.0, "bike_id": "3b9b2dadc46a6fd0eecb6cd6bfe7add6", "is_disabled": 0, "is_reserved": 0}, {"rental_uris": {"ios": "https://dc.lft.to/lastmile_qr_scan", "android": "https://dc.lft.to/lastmile_qr_scan"}, "lon": -76.97491866666667, "type": "electric_bike", "fusion_lat": 0.0, "lat": 38.920050833333335, "name": "2a150ffb8c94a8e41d2aa2d5785a66e4", "fusion_lon": 0.0, "bike_id": "2a150ffb8c94a8e41d2aa2d5785a66e4", "is_disabled": 0, "is_reserved": 0}, {"rental_uris": {"ios": "https://dc.lft.to/lastmile_qr_scan", "android": "https://dc.lft.to/lastmile_qr_scan"}, "lon": -77.02715416666666, "type": "electric_scooter", "fusion_lat": 0.0, "lat": 38.92466016666667, "name": "f0b1fecd65c9e1a586d2de1835446e7a", "fusion_lon": 0.0, "bike_id": "f0b1fecd65c9e1a586d2de1835446e7a", "is_disabled": 0, "is_reserved": 0}, {"rental_uris": {"ios": "https://dc.lft.to/lastmile_qr_scan", "android": "https://dc.lft.to/lastmile_qr_scan"}, "lon": -77.06006216666667, "type": "electric_scooter", "fusion_lat": 0.0, "lat": 38.91263466666667, "name": "f1ab04589fd1776cf28f02082a8964d2", "fusion_lon": 0.0, "bike_id": "f1ab04589fd1776cf28f02082a8964d2", "is_disabled": 0, "is_reserved": 0}, {"rental_uris": {"ios": "https://dc.lft.to/lastmile_qr_scan", "android": "https://dc.lft.to/lastmile_qr_scan"}, "lon": -76.9870395, "type": "electric_scooter", "fusion_lat": 0.0, "lat": 38.862640999999996, "name": "65f93f28974442b57f83f9dc061cb80b", "fusion_lon": 0.0, "bike_id": "65f93f28974442b57f83f9dc061cb80b", "is_disabled": 0, "is_reserved": 0}, {"rental_uris": {"ios": "https://dc.lft.to/lastmile_qr_scan", "android": "https://dc.lft.to/lastmile_qr_scan"}, "lon": -76.94178, "type": "electric_scooter", "fusion_lat": 0.0, "lat": 38.882197833333336, "name": "1d41110e0888a8ef6d2e1a64c5b99e22", "fusion_lon": 0.0, "bike_id": "1d41110e0888a8ef6d2e1a64c5b99e22", "is_disabled": 0, "is_reserved": 0}, {"rental_uris": {"ios": "https://dc.lft.to/lastmile_qr_scan", "android": "https://dc.lft.to/lastmile_qr_scan"}, "lon": -77.054694, "type": "electric_scooter", "fusion_lat": 0.0, "lat": 38.9209225, "name": "86189635c6df8a05c7131fc6b24b7331", "fusion_lon": 0.0, "bike_id": "86189635c6df8a05c7131fc6b24b7331", "is_disabled": 0, "is_reserved": 0}, {"rental_uris": {"ios": "https://dc.lft.to/lastmile_qr_scan", "android": "https://dc.lft.to/lastmile_qr_scan"}, "lon": -77.036197, "type": "electric_scooter", "fusion_lat": 0.0, "lat": 38.93259166666667, "name": "32c10dd74a510222fd41cb1804c71695", "fusion_lon": 0.0, "bike_id": "32c10dd74a510222fd41cb1804c71695", "is_disabled": 0, "is_reserved": 0}, {"rental_uris": {"ios": "https://dc.lft.to/lastmile_qr_scan", "android": "https://dc.lft.to/lastmile_qr_scan"}, "lon": -77.03225483333334, "type": "electric_scooter", "fusion_lat": 0.0, "lat": 38.915517666666666, "name": "8dcb5a6152199c5f2a8de42e6caebeb5", "fusion_lon": 0.0, "bike_id": "8dcb5a6152199c5f2a8de42e6caebeb5", "is_disabled": 0, "is_reserved": 0}, {"rental_uris": {"ios": "https://dc.lft.to/lastmile_qr_scan", "android": "https://dc.lft.to/lastmile_qr_scan"}, "lon": -77.02712733333334, "type": "electric_scooter", "fusion_lat": 0.0, "lat": 38.92463716666666, "name": "4fe137778d9f7153426a1ff1c47b6d13", "fusion_lon": 0.0, "bike_id": "4fe137778d9f7153426a1ff1c47b6d13", "is_disabled": 0, "is_reserved": 0}, {"rental_uris": {"ios": "https://dc.lft.to/lastmile_qr_scan", "android": "https://dc.lft.to/lastmile_qr_scan"}, "lon": -76.95522783333334, "type": "electric_scooter", "fusion_lat": 0.0, "lat": 38.887788, "name": "ef3c7fa7200dd0fbc584e9ff04619ef7", "fusion_lon": 0.0, "bike_id": "ef3c7fa7200dd0fbc584e9ff04619ef7", "is_disabled": 0, "is_reserved": 0}, {"rental_uris": {"ios": "https://dc.lft.to/lastmile_qr_scan", "android": "https://dc.lft.to/lastmile_qr_scan"}, "lon": -77.037497, "type": "electric_scooter", "fusion_lat": 0.0, "lat": 38.9290265, "name": "8ff57e70619dda4b6d84d2eb362d3de9", "fusion_lon": 0.0, "bike_id": "8ff57e70619dda4b6d84d2eb362d3de9", "is_disabled": 0, "is_reserved": 0}, {"rental_uris": {"ios": "https://dc.lft.to/lastmile_qr_scan", "android": "https://dc.lft.to/lastmile_qr_scan"}, "lon": -77.01209933333334, "type": "electric_scooter", "fusion_lat": 0.0, "lat": 38.921228166666666, "name": "1fea5c0956ac9ca3a33a3a6a20a1f8d7", "fusion_lon": 0.0, "bike_id": "1fea5c0956ac9ca3a33a3a6a20a1f8d7", "is_disabled": 0, "is_reserved": 0}, {"rental_uris": {"ios": "https://dc.lft.to/lastmile_qr_scan", "android": "https://dc.lft.to/lastmile_qr_scan"}, "lon": -77.0319005, "type": "electric_scooter", "fusion_lat": 0.0, "lat": 38.914902166666664, "name": "6308aa2a909d0c8fafb47d44a4dfc4ea", "fusion_lon": 0.0, "bike_id": "6308aa2a909d0c8fafb47d44a4dfc4ea", "is_disabled": 0, "is_reserved": 0}, {"rental_uris": {"ios": "https://dc.lft.to/lastmile_qr_scan", "android": "https://dc.lft.to/lastmile_qr_scan"}, "lon": -77.05741166666667, "type": "electric_scooter", "fusion_lat": 0.0, "lat": 38.9339805, "name": "e92bcc4347803acb69ff375b53b471d4", "fusion_lon": 0.0, "bike_id": "e92bcc4347803acb69ff375b53b471d4", "is_disabled": 0, "is_reserved": 0}, {"rental_uris": {"ios": "https://dc.lft.to/lastmile_qr_scan", "android": "https://dc.lft.to/lastmile_qr_scan"}, "lon": -77.032065, "type": "electric_scooter", "fusion_lat": 0.0, "lat": 38.8857675, "name": "ade5e72328121d9b00b256d70f1885ff", "fusion_lon": 0.0, "bike_id": "ade5e72328121d9b00b256d70f1885ff", "is_disabled": 0, "is_reserved": 0}, {"rental_uris": {"ios": "https://dc.lft.to/lastmile_qr_scan", "android": "https://dc.lft.to/lastmile_qr_scan"}, "lon": -77.01113016666666, "type": "electric_scooter", "fusion_lat": 0.0, "lat": 38.9116385, "name": "5c6149c7f9e4b83b33ccd0a28109db81", "fusion_lon": 0.0, "bike_id": "5c6149c7f9e4b83b33ccd0a28109db81", "is_disabled": 0, "is_reserved": 0}, {"rental_uris": {"ios": "https://dc.lft.to/lastmile_qr_scan", "android": "https://dc.lft.to/lastmile_qr_scan"}, "lon": -77.0178355, "type": "electric_scooter", "fusion_lat": 0.0, "lat": 38.90405033333333, "name": "44e89d39702cb846751e7a3d525edc1e", "fusion_lon": 0.0, "bike_id": "44e89d39702cb846751e7a3d525edc1e", "is_disabled": 0, "is_reserved": 0}, {"rental_uris": {"ios": "https://dc.lft.to/lastmile_qr_scan", "android": "https://dc.lft.to/lastmile_qr_scan"}, "lon": -77.11524066666666, "type": "electric_bike", "fusion_lat": 0.0, "lat": 38.85494416666667, "name": "3258ed408c49a28780a26862e8faed7f", "fusion_lon": 0.0, "bike_id": "3258ed408c49a28780a26862e8faed7f", "is_disabled": 0, "is_reserved": 0}, {"rental_uris": {"ios": "https://dc.lft.to/lastmile_qr_scan", "android": "https://dc.lft.to/lastmile_qr_scan"}, "lon": -76.992511, "type": "electric_scooter", "fusion_lat": 0.0, "lat": 38.9197105, "name": "2681f091283b4809e6e7ff6bf4ea14b6", "fusion_lon": 0.0, "bike_id": "2681f091283b4809e6e7ff6bf4ea14b6", "is_disabled": 0, "is_reserved": 0}, {"rental_uris": {"ios": "https://dc.lft.to/lastmile_qr_scan", "android": "https://dc.lft.to/lastmile_qr_scan"}, "lon": -77.02386416666667, "type": "electric_scooter", "fusion_lat": 0.0, "lat": 38.93784933333333, "name": "ed3ded5292365ce55f07acf4945c2253", "fusion_lon": 0.0, "bike_id": "ed3ded5292365ce55f07acf4945c2253", "is_disabled": 0, "is_reserved": 0}, {"rental_uris": {"ios": "https://dc.lft.to/lastmile_qr_scan", "android": "https://dc.lft.to/lastmile_qr_scan"}, "lon": -77.04813983333334, "type": "electric_scooter", "fusion_lat": 0.0, "lat": 38.9203005, "name": "cb8e276f0d38a9bfed369e6bac6be494", "fusion_lon": 0.0, "bike_id": "cb8e276f0d38a9bfed369e6bac6be494", "is_disabled": 0, "is_reserved": 0}, {"rental_uris": {"ios": "https://dc.lft.to/lastmile_qr_scan", "android": "https://dc.lft.to/lastmile_qr_scan"}, "lon": -76.99668333333334, "type": "electric_scooter", "fusion_lat": 0.0, "lat": 38.90038916666666, "name": "f6c53272a87c920a40deb149784f4fa7", "fusion_lon": 0.0, "bike_id": "f6c53272a87c920a40deb149784f4fa7", "is_disabled": 0, "is_reserved": 0}, {"rental_uris": {"ios": "https://dc.lft.to/lastmile_qr_scan", "android": "https://dc.lft.to/lastmile_qr_scan"}, "lon": -76.9858325, "type": "electric_scooter", "fusion_lat": 0.0, "lat": 38.89918266666667, "name": "59acab307324357ebb439547f37feab2", "fusion_lon": 0.0, "bike_id": "59acab307324357ebb439547f37feab2", "is_disabled": 0, "is_reserved": 0}, {"rental_uris": {"ios": "https://dc.lft.to/lastmile_qr_scan", "android": "https://dc.lft.to/lastmile_qr_scan"}, "lon": -76.99816833333334, "type": "electric_bike", "fusion_lat": 0.0, "lat": 38.84435233333333, "name": "9268c126500d0ac6baba2a3615a75c72", "fusion_lon": 0.0, "bike_id": "9268c126500d0ac6baba2a3615a75c72", "is_disabled": 0, "is_reserved": 0}, {"rental_uris": {"ios": "https://dc.lft.to/lastmile_qr_scan", "android": "https://dc.lft.to/lastmile_qr_scan"}, "lon": -77.031986, "type": "electric_scooter", "fusion_lat": 0.0, "lat": 38.915343166666666, "name": "77442bf3a133db2d0b27cf31934fe939", "fusion_lon": 0.0, "bike_id": "77442bf3a133db2d0b27cf31934fe939", "is_disabled": 0, "is_reserved": 0}, {"rental_uris": {"ios": "https://dc.lft.to/lastmile_qr_scan", "android": "https://dc.lft.to/lastmile_qr_scan"}, "lon": -77.029852, "type": "electric_scooter", "fusion_lat": 0.0, "lat": 38.90734283333333, "name": "05dd7bd72e1f2481b91add7ee633d7f9", "fusion_lon": 0.0, "bike_id": "05dd7bd72e1f2481b91add7ee633d7f9", "is_disabled": 0, "is_reserved": 0}, {"rental_uris": {"ios": "https://dc.lft.to/lastmile_qr_scan", "android": "https://dc.lft.to/lastmile_qr_scan"}, "lon": -77.02330616666667, "type": "electric_scooter", "fusion_lat": 0.0, "lat": 38.930465833333336, "name": "1bdaa53a5b7b8cdb3fab5d82f0a77896", "fusion_lon": 0.0, "bike_id": "1bdaa53a5b7b8cdb3fab5d82f0a77896", "is_disabled": 0, "is_reserved": 0}, {"rental_uris": {"ios": "https://dc.lft.to/lastmile_qr_scan", "android": "https://dc.lft.to/lastmile_qr_scan"}, "lon": -77.00070033333333, "type": "electric_scooter", "fusion_lat": 0.0, "lat": 38.92555933333333, "name": "74bf9d6051b0b87891a735a689e8d099", "fusion_lon": 0.0, "bike_id": "74bf9d6051b0b87891a735a689e8d099", "is_disabled": 0, "is_reserved": 0}, {"rental_uris": {"ios": "https://dc.lft.to/lastmile_qr_scan", "android": "https://dc.lft.to/lastmile_qr_scan"}, "lon": -77.0400915, "type": "electric_scooter", "fusion_lat": 0.0, "lat": 38.932523833333335, "name": "6b813fab3cf59b095b263628af75b62c", "fusion_lon": 0.0, "bike_id": "6b813fab3cf59b095b263628af75b62c", "is_disabled": 0, "is_reserved": 0}, {"rental_uris": {"ios": "https://dc.lft.to/lastmile_qr_scan", "android": "https://dc.lft.to/lastmile_qr_scan"}, "lon": -77.03729166666666, "type": "electric_scooter", "fusion_lat": 0.0, "lat": 38.910402, "name": "cd4d9db7dc7db3e8d613f3e6b4b321b2", "fusion_lon": 0.0, "bike_id": "cd4d9db7dc7db3e8d613f3e6b4b321b2", "is_disabled": 0, "is_reserved": 0}, {"rental_uris": {"ios": "https://dc.lft.to/lastmile_qr_scan", "android": "https://dc.lft.to/lastmile_qr_scan"}, "lon": -77.00582833333333, "type": "electric_scooter", "fusion_lat": 0.0, "lat": 38.905516, "name": "703b7e7d19a3d3d8d00c871b72447d69", "fusion_lon": 0.0, "bike_id": "703b7e7d19a3d3d8d00c871b72447d69", "is_disabled": 0, "is_reserved": 0}, {"rental_uris": {"ios": "https://dc.lft.to/lastmile_qr_scan", "android": "https://dc.lft.to/lastmile_qr_scan"}, "lon": -76.976653, "type": "electric_bike", "fusion_lat": 0.0, "lat": 38.96624416666667, "name": "800974f4b700e20b58de34bef0e98d9b", "fusion_lon": 0.0, "bike_id": "800974f4b700e20b58de34bef0e98d9b", "is_disabled": 0, "is_reserved": 0}, {"rental_uris": {"ios": "https://dc.lft.to/lastmile_qr_scan", "android": "https://dc.lft.to/lastmile_qr_scan"}, "lon": -77.080592, "type": "electric_scooter", "fusion_lat": 0.0, "lat": 38.95909866666667, "name": "e463eb25a178cd4157809e30de9fbedd", "fusion_lon": 0.0, "bike_id": "e463eb25a178cd4157809e30de9fbedd", "is_disabled": 0, "is_reserved": 0}, {"rental_uris": {"ios": "https://dc.lft.to/lastmile_qr_scan", "android": "https://dc.lft.to/lastmile_qr_scan"}, "lon": -77.017833, "type": "electric_scooter", "fusion_lat": 0.0, "lat": 38.908243, "name": "d9b10a91e2ce4f9fec12dddf464f6f73", "fusion_lon": 0.0, "bike_id": "d9b10a91e2ce4f9fec12dddf464f6f73", "is_disabled": 0, "is_reserved": 0}, {"rental_uris": {"ios": "https://dc.lft.to/lastmile_qr_scan", "android": "https://dc.lft.to/lastmile_qr_scan"}, "lon": -77.01097483333334, "type": "electric_scooter", "fusion_lat": 0.0, "lat": 38.895413166666664, "name": "0564ce90483ddaf78db8c5fc62611c73", "fusion_lon": 0.0, "bike_id": "0564ce90483ddaf78db8c5fc62611c73", "is_disabled": 0, "is_reserved": 0}, {"rental_uris": {"ios": "https://dc.lft.to/lastmile_qr_scan", "android": "https://dc.lft.to/lastmile_qr_scan"}, "lon": -77.0321095, "type": "electric_scooter", "fusion_lat": 0.0, "lat": 38.93753916666667, "name": "b9d1a6181ba2a4a456e441b30ae7eff8", "fusion_lon": 0.0, "bike_id": "b9d1a6181ba2a4a456e441b30ae7eff8", "is_disabled": 0, "is_reserved": 0}, {"rental_uris": {"ios": "https://dc.lft.to/lastmile_qr_scan", "android": "https://dc.lft.to/lastmile_qr_scan"}, "lon": -77.01998866666666, "type": "electric_scooter", "fusion_lat": 0.0, "lat": 38.90555583333333, "name": "2d70df0a94a0eaf845480c8a45f3104f", "fusion_lon": 0.0, "bike_id": "2d70df0a94a0eaf845480c8a45f3104f", "is_disabled": 0, "is_reserved": 0}, {"rental_uris": {"ios": "https://dc.lft.to/lastmile_qr_scan", "android": "https://dc.lft.to/lastmile_qr_scan"}, "lon": -76.9465365, "type": "electric_scooter", "fusion_lat": 0.0, "lat": 38.89824816666667, "name": "3fea6e91a6b6b9f883954df559757e84", "fusion_lon": 0.0, "bike_id": "3fea6e91a6b6b9f883954df559757e84", "is_disabled": 0, "is_reserved": 0}, {"rental_uris": {"ios": "https://dc.lft.to/lastmile_qr_scan", "android": "https://dc.lft.to/lastmile_qr_scan"}, "lon": -77.034057, "type": "electric_scooter", "fusion_lat": 0.0, "lat": 38.923250333333336, "name": "218a3658eb51202ee2e7834ca781db9f", "fusion_lon": 0.0, "bike_id": "218a3658eb51202ee2e7834ca781db9f", "is_disabled": 0, "is_reserved": 0}, {"rental_uris": {"ios": "https://dc.lft.to/lastmile_qr_scan", "android": "https://dc.lft.to/lastmile_qr_scan"}, "lon": -77.0337405, "type": "electric_scooter", "fusion_lat": 0.0, "lat": 38.906150333333336, "name": "93c1b13978079c6524d689dd82ca4ed3", "fusion_lon": 0.0, "bike_id": "93c1b13978079c6524d689dd82ca4ed3", "is_disabled": 0, "is_reserved": 0}, {"rental_uris": {"ios": "https://dc.lft.to/lastmile_qr_scan", "android": "https://dc.lft.to/lastmile_qr_scan"}, "lon": -77.07941116666667, "type": "electric_bike", "fusion_lat": 0.0, "lat": 38.89366483333333, "name": "24082772db54c281f7232866a5d0f092", "fusion_lon": 0.0, "bike_id": "24082772db54c281f7232866a5d0f092", "is_disabled": 0, "is_reserved": 0}, {"rental_uris": {"ios": "https://dc.lft.to/lastmile_qr_scan", "android": "https://dc.lft.to/lastmile_qr_scan"}, "lon": -77.04454783333334, "type": "electric_scooter", "fusion_lat": 0.0, "lat": 38.91879816666667, "name": "396d7332676c2b6815d04cdb42ca00b8", "fusion_lon": 0.0, "bike_id": "396d7332676c2b6815d04cdb42ca00b8", "is_disabled": 0, "is_reserved": 0}, {"rental_uris": {"ios": "https://dc.lft.to/lastmile_qr_scan", "android": "https://dc.lft.to/lastmile_qr_scan"}, "lon": -77.034425, "type": "electric_scooter", "fusion_lat": 0.0, "lat": 38.907212333333334, "name": "fd59b4a78d7344206c9d533601c35111", "fusion_lon": 0.0, "bike_id": "fd59b4a78d7344206c9d533601c35111", "is_disabled": 0, "is_reserved": 0}, {"rental_uris": {"ios": "https://dc.lft.to/lastmile_qr_scan", "android": "https://dc.lft.to/lastmile_qr_scan"}, "lon": -77.02710566666667, "type": "electric_scooter", "fusion_lat": 0.0, "lat": 38.89927933333333, "name": "418a006680d9a14f67341209214de7c6", "fusion_lon": 0.0, "bike_id": "418a006680d9a14f67341209214de7c6", "is_disabled": 0, "is_reserved": 0}, {"rental_uris": {"ios": "https://dc.lft.to/lastmile_qr_scan", "android": "https://dc.lft.to/lastmile_qr_scan"}, "lon": -77.04704133333334, "type": "electric_scooter", "fusion_lat": 0.0, "lat": 38.91787766666667, "name": "e7af30adc51a13aa1643453fada8920d", "fusion_lon": 0.0, "bike_id": "e7af30adc51a13aa1643453fada8920d", "is_disabled": 0, "is_reserved": 0}, {"rental_uris": {"ios": "https://dc.lft.to/lastmile_qr_scan", "android": "https://dc.lft.to/lastmile_qr_scan"}, "lon": -77.027032, "type": "electric_scooter", "fusion_lat": 0.0, "lat": 38.91576283333333, "name": "ab77f37d71b717ff30c8a62b324ee15d", "fusion_lon": 0.0, "bike_id": "ab77f37d71b717ff30c8a62b324ee15d", "is_disabled": 0, "is_reserved": 0}, {"rental_uris": {"ios": "https://dc.lft.to/lastmile_qr_scan", "android": "https://dc.lft.to/lastmile_qr_scan"}, "lon": -77.002225, "type": "electric_bike", "fusion_lat": 0.0, "lat": 38.8237825, "name": "152d49e2083a558ff64b4bef449382c7", "fusion_lon": 0.0, "bike_id": "152d49e2083a558ff64b4bef449382c7", "is_disabled": 0, "is_reserved": 0}, {"rental_uris": {"ios": "https://dc.lft.to/lastmile_qr_scan", "android": "https://dc.lft.to/lastmile_qr_scan"}, "lon": -77.0635275, "type": "electric_scooter", "fusion_lat": 0.0, "lat": 38.944469833333336, "name": "c82b2af0babca3904039a65de7359479", "fusion_lon": 0.0, "bike_id": "c82b2af0babca3904039a65de7359479", "is_disabled": 0, "is_reserved": 0}, {"rental_uris": {"ios": "https://dc.lft.to/lastmile_qr_scan", "android": "https://dc.lft.to/lastmile_qr_scan"}, "lon": -77.04035416666666, "type": "electric_scooter", "fusion_lat": 0.0, "lat": 38.92473783333333, "name": "fdc3f8baab13a85745da2d0f97dc702a", "fusion_lon": 0.0, "bike_id": "fdc3f8baab13a85745da2d0f97dc702a", "is_disabled": 0, "is_reserved": 0}, {"rental_uris": {"ios": "https://dc.lft.to/lastmile_qr_scan", "android": "https://dc.lft.to/lastmile_qr_scan"}, "lon": -77.03182183333334, "type": "electric_scooter", "fusion_lat": 0.0, "lat": 38.929477166666665, "name": "72edf30b9f239e9d379c6508da2eb6ea", "fusion_lon": 0.0, "bike_id": "72edf30b9f239e9d379c6508da2eb6ea", "is_disabled": 0, "is_reserved": 0}, {"rental_uris": {"ios": "https://dc.lft.to/lastmile_qr_scan", "android": "https://dc.lft.to/lastmile_qr_scan"}, "lon": -77.110637, "type": "electric_bike", "fusion_lat": 0.0, "lat": 38.870767666666666, "name": "c38077a94fdfdf816c57bcb297830142", "fusion_lon": 0.0, "bike_id": "c38077a94fdfdf816c57bcb297830142", "is_disabled": 0, "is_reserved": 0}, {"rental_uris": {"ios": "https://dc.lft.to/lastmile_qr_scan", "android": "https://dc.lft.to/lastmile_qr_scan"}, "lon": -77.03150666666667, "type": "electric_scooter", "fusion_lat": 0.0, "lat": 38.9155965, "name": "600e375a86be6d27edbae0bb99499800", "fusion_lon": 0.0, "bike_id": "600e375a86be6d27edbae0bb99499800", "is_disabled": 0, "is_reserved": 0}, {"rental_uris": {"ios": "https://dc.lft.to/lastmile_qr_scan", "android": "https://dc.lft.to/lastmile_qr_scan"}, "lon": -77.02375283333333, "type": "electric_scooter", "fusion_lat": 0.0, "lat": 38.936918, "name": "158543334049b3f48719a9f6fa0e4b70", "fusion_lon": 0.0, "bike_id": "158543334049b3f48719a9f6fa0e4b70", "is_disabled": 0, "is_reserved": 0}, {"rental_uris": {"ios": "https://dc.lft.to/lastmile_qr_scan", "android": "https://dc.lft.to/lastmile_qr_scan"}, "lon": -77.03306566666667, "type": "electric_scooter", "fusion_lat": 0.0, "lat": 38.9286715, "name": "f5e383ae228014d6f4809001a7512e61", "fusion_lon": 0.0, "bike_id": "f5e383ae228014d6f4809001a7512e61", "is_disabled": 0, "is_reserved": 0}, {"rental_uris": {"ios": "https://dc.lft.to/lastmile_qr_scan", "android": "https://dc.lft.to/lastmile_qr_scan"}, "lon": -77.00737316666667, "type": "electric_scooter", "fusion_lat": 0.0, "lat": 38.916238166666666, "name": "7da234573e4fbf83122edad759cce3cf", "fusion_lon": 0.0, "bike_id": "7da234573e4fbf83122edad759cce3cf", "is_disabled": 0, "is_reserved": 0}, {"rental_uris": {"ios": "https://dc.lft.to/lastmile_qr_scan", "android": "https://dc.lft.to/lastmile_qr_scan"}, "lon": -76.989977, "type": "electric_scooter", "fusion_lat": 0.0, "lat": 38.865024166666664, "name": "6fc4e8967694fbbf0ec048812a93c66a", "fusion_lon": 0.0, "bike_id": "6fc4e8967694fbbf0ec048812a93c66a", "is_disabled": 0, "is_reserved": 0}, {"rental_uris": {"ios": "https://dc.lft.to/lastmile_qr_scan", "android": "https://dc.lft.to/lastmile_qr_scan"}, "lon": -77.08198833333333, "type": "electric_scooter", "fusion_lat": 0.0, "lat": 38.933343, "name": "acbe3bc818660f8607789f2015d7d397", "fusion_lon": 0.0, "bike_id": "acbe3bc818660f8607789f2015d7d397", "is_disabled": 0, "is_reserved": 0}, {"rental_uris": {"ios": "https://dc.lft.to/lastmile_qr_scan", "android": "https://dc.lft.to/lastmile_qr_scan"}, "lon": -77.08255283333334, "type": "electric_scooter", "fusion_lat": 0.0, "lat": 38.935876666666665, "name": "ea4614247ebceed2dc338d3342ccd9b0", "fusion_lon": 0.0, "bike_id": "ea4614247ebceed2dc338d3342ccd9b0", "is_disabled": 0, "is_reserved": 0}, {"rental_uris": {"ios": "https://dc.lft.to/lastmile_qr_scan", "android": "https://dc.lft.to/lastmile_qr_scan"}, "lon": -77.0298515, "type": "electric_scooter", "fusion_lat": 0.0, "lat": 38.9073355, "name": "d9da9f764eb2a2ce4f6c9774a3ac24b4", "fusion_lon": 0.0, "bike_id": "d9da9f764eb2a2ce4f6c9774a3ac24b4", "is_disabled": 0, "is_reserved": 0}, {"rental_uris": {"ios": "https://dc.lft.to/lastmile_qr_scan", "android": "https://dc.lft.to/lastmile_qr_scan"}, "lon": -76.98022133333333, "type": "electric_scooter", "fusion_lat": 0.0, "lat": 38.887723666666666, "name": "a246d479e0b74c73ed352414d9d61035", "fusion_lon": 0.0, "bike_id": "a246d479e0b74c73ed352414d9d61035", "is_disabled": 0, "is_reserved": 0}, {"rental_uris": {"ios": "https://dc.lft.to/lastmile_qr_scan", "android": "https://dc.lft.to/lastmile_qr_scan"}, "lon": -76.99247866666667, "type": "electric_bike", "fusion_lat": 0.0, "lat": 38.925449666666665, "name": "512e47304cba1731b8a05ecc4db9df6e", "fusion_lon": 0.0, "bike_id": "512e47304cba1731b8a05ecc4db9df6e", "is_disabled": 0, "is_reserved": 0}, {"rental_uris": {"ios": "https://dc.lft.to/lastmile_qr_scan", "android": "https://dc.lft.to/lastmile_qr_scan"}, "lon": -77.01746466666667, "type": "electric_scooter", "fusion_lat": 0.0, "lat": 38.87704516666667, "name": "098e34efa5a1d08df799b80644af57a2", "fusion_lon": 0.0, "bike_id": "098e34efa5a1d08df799b80644af57a2", "is_disabled": 0, "is_reserved": 0}, {"rental_uris": {"ios": "https://dc.lft.to/lastmile_qr_scan", "android": "https://dc.lft.to/lastmile_qr_scan"}, "lon": -77.00697283333334, "type": "electric_scooter", "fusion_lat": 0.0, "lat": 38.90569633333333, "name": "6de8e0ece0e34358569ba7c0bd7f3740", "fusion_lon": 0.0, "bike_id": "6de8e0ece0e34358569ba7c0bd7f3740", "is_disabled": 0, "is_reserved": 0}, {"rental_uris": {"ios": "https://dc.lft.to/lastmile_qr_scan", "android": "https://dc.lft.to/lastmile_qr_scan"}, "lon": -76.9727195, "type": "electric_bike", "fusion_lat": 0.0, "lat": 38.919740833333336, "name": "92576287b40b1d5500ea38db92c572e8", "fusion_lon": 0.0, "bike_id": "92576287b40b1d5500ea38db92c572e8", "is_disabled": 0, "is_reserved": 0}, {"rental_uris": {"ios": "https://dc.lft.to/lastmile_qr_scan", "android": "https://dc.lft.to/lastmile_qr_scan"}, "lon": -77.02221816666666, "type": "electric_bike", "fusion_lat": 0.0, "lat": 38.9569045, "name": "d37dd77f70153ab29acf825b702e1319", "fusion_lon": 0.0, "bike_id": "d37dd77f70153ab29acf825b702e1319", "is_disabled": 0, "is_reserved": 0}, {"rental_uris": {"ios": "https://dc.lft.to/lastmile_qr_scan", "android": "https://dc.lft.to/lastmile_qr_scan"}, "lon": -76.9800195, "type": "electric_bike", "fusion_lat": 0.0, "lat": 38.900136333333336, "name": "f4794635abb2eb76d3e7d486a508a7cb", "fusion_lon": 0.0, "bike_id": "f4794635abb2eb76d3e7d486a508a7cb", "is_disabled": 0, "is_reserved": 0}, {"rental_uris": {"ios": "https://dc.lft.to/lastmile_qr_scan", "android": "https://dc.lft.to/lastmile_qr_scan"}, "lon": -77.0378015, "type": "electric_scooter", "fusion_lat": 0.0, "lat": 38.93021383333333, "name": "df89a78c7203dbb14212e934b1600e8e", "fusion_lon": 0.0, "bike_id": "df89a78c7203dbb14212e934b1600e8e", "is_disabled": 0, "is_reserved": 0}, {"rental_uris": {"ios": "https://dc.lft.to/lastmile_qr_scan", "android": "https://dc.lft.to/lastmile_qr_scan"}, "lon": -77.0428795, "type": "electric_scooter", "fusion_lat": 0.0, "lat": 38.895335333333335, "name": "956d0b27ed411dce2b6dc38febfb84cb", "fusion_lon": 0.0, "bike_id": "956d0b27ed411dce2b6dc38febfb84cb", "is_disabled": 0, "is_reserved": 0}, {"rental_uris": {"ios": "https://dc.lft.to/lastmile_qr_scan", "android": "https://dc.lft.to/lastmile_qr_scan"}, "lon": -76.93175016666666, "type": "electric_scooter", "fusion_lat": 0.0, "lat": 38.89882983333333, "name": "66460f19b27913d4c31dd8143aaa4862", "fusion_lon": 0.0, "bike_id": "66460f19b27913d4c31dd8143aaa4862", "is_disabled": 0, "is_reserved": 0}, {"rental_uris": {"ios": "https://dc.lft.to/lastmile_qr_scan", "android": "https://dc.lft.to/lastmile_qr_scan"}, "lon": -76.95188666666667, "type": "electric_bike", "fusion_lat": 0.0, "lat": 38.906862, "name": "10df658ca1588440590561ceb3b0b1e9", "fusion_lon": 0.0, "bike_id": "10df658ca1588440590561ceb3b0b1e9", "is_disabled": 0, "is_reserved": 0}, {"rental_uris": {"ios": "https://dc.lft.to/lastmile_qr_scan", "android": "https://dc.lft.to/lastmile_qr_scan"}, "lon": -77.03281583333333, "type": "electric_scooter", "fusion_lat": 0.0, "lat": 38.938802833333334, "name": "e12eb8a67fc53a8c1766d00480ef0d51", "fusion_lon": 0.0, "bike_id": "e12eb8a67fc53a8c1766d00480ef0d51", "is_disabled": 0, "is_reserved": 0}, {"rental_uris": {"ios": "https://dc.lft.to/lastmile_qr_scan", "android": "https://dc.lft.to/lastmile_qr_scan"}, "lon": -77.01111133333333, "type": "electric_scooter", "fusion_lat": 0.0, "lat": 38.90358033333333, "name": "3f2deb258f1d7f5ad6b583c0002d9759", "fusion_lon": 0.0, "bike_id": "3f2deb258f1d7f5ad6b583c0002d9759", "is_disabled": 0, "is_reserved": 0}, {"rental_uris": {"ios": "https://dc.lft.to/lastmile_qr_scan", "android": "https://dc.lft.to/lastmile_qr_scan"}, "lon": -77.03668966666666, "type": "electric_scooter", "fusion_lat": 0.0, "lat": 38.918712, "name": "ffa4beabda64bf817e9da10d3640d6de", "fusion_lon": 0.0, "bike_id": "ffa4beabda64bf817e9da10d3640d6de", "is_disabled": 0, "is_reserved": 0}, {"rental_uris": {"ios": "https://dc.lft.to/lastmile_qr_scan", "android": "https://dc.lft.to/lastmile_qr_scan"}, "lon": -77.04411066666667, "type": "electric_scooter", "fusion_lat": 0.0, "lat": 38.9130965, "name": "e9552e7d285ddb3322541a3d83d6b704", "fusion_lon": 0.0, "bike_id": "e9552e7d285ddb3322541a3d83d6b704", "is_disabled": 0, "is_reserved": 0}, {"rental_uris": {"ios": "https://dc.lft.to/lastmile_qr_scan", "android": "https://dc.lft.to/lastmile_qr_scan"}, "lon": -77.02975, "type": "electric_scooter", "fusion_lat": 0.0, "lat": 38.923146833333334, "name": "ef79fc3628faec3a2346e6262811a46f", "fusion_lon": 0.0, "bike_id": "ef79fc3628faec3a2346e6262811a46f", "is_disabled": 0, "is_reserved": 0}, {"rental_uris": {"ios": "https://dc.lft.to/lastmile_qr_scan", "android": "https://dc.lft.to/lastmile_qr_scan"}, "lon": -77.01317166666666, "type": "electric_scooter", "fusion_lat": 0.0, "lat": 38.89741033333333, "name": "5add146a05560cbd251549133f7c65ba", "fusion_lon": 0.0, "bike_id": "5add146a05560cbd251549133f7c65ba", "is_disabled": 0, "is_reserved": 0}, {"rental_uris": {"ios": "https://dc.lft.to/lastmile_qr_scan", "android": "https://dc.lft.to/lastmile_qr_scan"}, "lon": -77.02467366666667, "type": "electric_scooter", "fusion_lat": 0.0, "lat": 38.936318666666665, "name": "bf040261860c7f9caf78b26708971954", "fusion_lon": 0.0, "bike_id": "bf040261860c7f9caf78b26708971954", "is_disabled": 0, "is_reserved": 0}, {"rental_uris": {"ios": "https://dc.lft.to/lastmile_qr_scan", "android": "https://dc.lft.to/lastmile_qr_scan"}, "lon": -77.024987, "type": "electric_scooter", "fusion_lat": 0.0, "lat": 38.917116166666666, "name": "096d54235706abbd739f9b6048d5b1a4", "fusion_lon": 0.0, "bike_id": "096d54235706abbd739f9b6048d5b1a4", "is_disabled": 0, "is_reserved": 0}, {"rental_uris": {"ios": "https://dc.lft.to/lastmile_qr_scan", "android": "https://dc.lft.to/lastmile_qr_scan"}, "lon": -77.0384485, "type": "electric_scooter", "fusion_lat": 0.0, "lat": 38.90929233333333, "name": "3cdad9337389e8c060c25de303bb48d1", "fusion_lon": 0.0, "bike_id": "3cdad9337389e8c060c25de303bb48d1", "is_disabled": 0, "is_reserved": 0}, {"rental_uris": {"ios": "https://dc.lft.to/lastmile_qr_scan", "android": "https://dc.lft.to/lastmile_qr_scan"}, "lon": -76.95900466666667, "type": "electric_scooter", "fusion_lat": 0.0, "lat": 38.926900333333336, "name": "99d25caa845183ed484b23de09f50bb0", "fusion_lon": 0.0, "bike_id": "99d25caa845183ed484b23de09f50bb0", "is_disabled": 0, "is_reserved": 0}, {"rental_uris": {"ios": "https://dc.lft.to/lastmile_qr_scan", "android": "https://dc.lft.to/lastmile_qr_scan"}, "lon": -77.05262833333333, "type": "electric_scooter", "fusion_lat": 0.0, "lat": 38.9343205, "name": "2032e43a057967fb460aec1029a63cc7", "fusion_lon": 0.0, "bike_id": "2032e43a057967fb460aec1029a63cc7", "is_disabled": 0, "is_reserved": 0}, {"rental_uris": {"ios": "https://dc.lft.to/lastmile_qr_scan", "android": "https://dc.lft.to/lastmile_qr_scan"}, "lon": -77.01374266666667, "type": "electric_scooter", "fusion_lat": 0.0, "lat": 38.8865695, "name": "fc60798416c179ff4cdefc0d0a6fbcf1", "fusion_lon": 0.0, "bike_id": "fc60798416c179ff4cdefc0d0a6fbcf1", "is_disabled": 0, "is_reserved": 0}, {"rental_uris": {"ios": "https://dc.lft.to/lastmile_qr_scan", "android": "https://dc.lft.to/lastmile_qr_scan"}, "lon": -77.0330955, "type": "electric_scooter", "fusion_lat": 0.0, "lat": 38.9083165, "name": "b9cbf7a48ef445d63d5f618d817ebc98", "fusion_lon": 0.0, "bike_id": "b9cbf7a48ef445d63d5f618d817ebc98", "is_disabled": 0, "is_reserved": 0}, {"rental_uris": {"ios": "https://dc.lft.to/lastmile_qr_scan", "android": "https://dc.lft.to/lastmile_qr_scan"}, "lon": -77.020194, "type": "electric_scooter", "fusion_lat": 0.0, "lat": 38.91653216666667, "name": "a5b207e61519b01993a55c7286e78952", "fusion_lon": 0.0, "bike_id": "a5b207e61519b01993a55c7286e78952", "is_disabled": 0, "is_reserved": 0}, {"rental_uris": {"ios": "https://dc.lft.to/lastmile_qr_scan", "android": "https://dc.lft.to/lastmile_qr_scan"}, "lon": -76.9826415, "type": "electric_scooter", "fusion_lat": 0.0, "lat": 38.863517, "name": "6e553a593cdeec2f02c1c51b033f34bb", "fusion_lon": 0.0, "bike_id": "6e553a593cdeec2f02c1c51b033f34bb", "is_disabled": 0, "is_reserved": 0}, {"rental_uris": {"ios": "https://dc.lft.to/lastmile_qr_scan", "android": "https://dc.lft.to/lastmile_qr_scan"}, "lon": -77.04412116666667, "type": "electric_scooter", "fusion_lat": 0.0, "lat": 38.90579266666667, "name": "b85888e4eaae4fae4f8e6a042d633c36", "fusion_lon": 0.0, "bike_id": "b85888e4eaae4fae4f8e6a042d633c36", "is_disabled": 0, "is_reserved": 0}, {"rental_uris": {"ios": "https://dc.lft.to/lastmile_qr_scan", "android": "https://dc.lft.to/lastmile_qr_scan"}, "lon": -77.0110275, "type": "electric_scooter", "fusion_lat": 0.0, "lat": 38.9001065, "name": "0edc60317b14740d64e8171d1eec73cc", "fusion_lon": 0.0, "bike_id": "0edc60317b14740d64e8171d1eec73cc", "is_disabled": 0, "is_reserved": 0}, {"rental_uris": {"ios": "https://dc.lft.to/lastmile_qr_scan", "android": "https://dc.lft.to/lastmile_qr_scan"}, "lon": -77.05436533333334, "type": "electric_scooter", "fusion_lat": 0.0, "lat": 38.89606066666666, "name": "309372bef5ff20902a240f108819d83b", "fusion_lon": 0.0, "bike_id": "309372bef5ff20902a240f108819d83b", "is_disabled": 0, "is_reserved": 0}, {"rental_uris": {"ios": "https://dc.lft.to/lastmile_qr_scan", "android": "https://dc.lft.to/lastmile_qr_scan"}, "lon": -77.03865333333333, "type": "electric_scooter", "fusion_lat": 0.0, "lat": 38.915631166666664, "name": "5d3b45e26da27520e10208cc71e5421b", "fusion_lon": 0.0, "bike_id": "5d3b45e26da27520e10208cc71e5421b", "is_disabled": 0, "is_reserved": 0}, {"rental_uris": {"ios": "https://dc.lft.to/lastmile_qr_scan", "android": "https://dc.lft.to/lastmile_qr_scan"}, "lon": -77.04794283333334, "type": "electric_scooter", "fusion_lat": 0.0, "lat": 38.8937555, "name": "fea9cc2fa0b885b670d1d02c81319c7e", "fusion_lon": 0.0, "bike_id": "fea9cc2fa0b885b670d1d02c81319c7e", "is_disabled": 0, "is_reserved": 0}, {"rental_uris": {"ios": "https://dc.lft.to/lastmile_qr_scan", "android": "https://dc.lft.to/lastmile_qr_scan"}, "lon": -77.01649466666667, "type": "electric_scooter", "fusion_lat": 0.0, "lat": 38.953292833333336, "name": "ed334806a5fcfac0362836712ee4e2f4", "fusion_lon": 0.0, "bike_id": "ed334806a5fcfac0362836712ee4e2f4", "is_disabled": 0, "is_reserved": 0}, {"rental_uris": {"ios": "https://dc.lft.to/lastmile_qr_scan", "android": "https://dc.lft.to/lastmile_qr_scan"}, "lon": -77.03478866666667, "type": "electric_scooter", "fusion_lat": 0.0, "lat": 38.91987433333333, "name": "007841003a3b97bc1a99e682509b029a", "fusion_lon": 0.0, "bike_id": "007841003a3b97bc1a99e682509b029a", "is_disabled": 0, "is_reserved": 0}, {"rental_uris": {"ios": "https://dc.lft.to/lastmile_qr_scan", "android": "https://dc.lft.to/lastmile_qr_scan"}, "lon": -77.04007066666667, "type": "electric_scooter", "fusion_lat": 0.0, "lat": 38.932520333333336, "name": "b62a042acab90f3492d2b5575de05f59", "fusion_lon": 0.0, "bike_id": "b62a042acab90f3492d2b5575de05f59", "is_disabled": 0, "is_reserved": 0}, {"rental_uris": {"ios": "https://dc.lft.to/lastmile_qr_scan", "android": "https://dc.lft.to/lastmile_qr_scan"}, "lon": -76.9937715, "type": "electric_scooter", "fusion_lat": 0.0, "lat": 38.897461166666666, "name": "8db41f86722205db20f7aae88d2d5a17", "fusion_lon": 0.0, "bike_id": "8db41f86722205db20f7aae88d2d5a17", "is_disabled": 0, "is_reserved": 0}, {"rental_uris": {"ios": "https://dc.lft.to/lastmile_qr_scan", "android": "https://dc.lft.to/lastmile_qr_scan"}, "lon": -77.025636, "type": "electric_scooter", "fusion_lat": 0.0, "lat": 38.9085415, "name": "115a83213b8023bab94e6dea2b5463fc", "fusion_lon": 0.0, "bike_id": "115a83213b8023bab94e6dea2b5463fc", "is_disabled": 0, "is_reserved": 0}, {"rental_uris": {"ios": "https://dc.lft.to/lastmile_qr_scan", "android": "https://dc.lft.to/lastmile_qr_scan"}, "lon": -77.03647366666667, "type": "electric_scooter", "fusion_lat": 0.0, "lat": 38.92116866666667, "name": "27dd2d3c092f80c624b9b953ef25b154", "fusion_lon": 0.0, "bike_id": "27dd2d3c092f80c624b9b953ef25b154", "is_disabled": 0, "is_reserved": 0}, {"rental_uris": {"ios": "https://dc.lft.to/lastmile_qr_scan", "android": "https://dc.lft.to/lastmile_qr_scan"}, "lon": -77.07094716666667, "type": "electric_scooter", "fusion_lat": 0.0, "lat": 38.93364366666667, "name": "f0d1a057a20270785dcdc25442436cf4", "fusion_lon": 0.0, "bike_id": "f0d1a057a20270785dcdc25442436cf4", "is_disabled": 0, "is_reserved": 0}, {"rental_uris": {"ios": "https://dc.lft.to/lastmile_qr_scan", "android": "https://dc.lft.to/lastmile_qr_scan"}, "lon": -76.98210266666666, "type": "electric_scooter", "fusion_lat": 0.0, "lat": 38.89090016666667, "name": "40647c364d759dd3ffdc101b32927b92", "fusion_lon": 0.0, "bike_id": "40647c364d759dd3ffdc101b32927b92", "is_disabled": 0, "is_reserved": 0}, {"rental_uris": {"ios": "https://dc.lft.to/lastmile_qr_scan", "android": "https://dc.lft.to/lastmile_qr_scan"}, "lon": -76.996146, "type": "electric_scooter", "fusion_lat": 0.0, "lat": 38.897467, "name": "d5cab23ae9f7f5569583418848b6467e", "fusion_lon": 0.0, "bike_id": "d5cab23ae9f7f5569583418848b6467e", "is_disabled": 0, "is_reserved": 0}, {"rental_uris": {"ios": "https://dc.lft.to/lastmile_qr_scan", "android": "https://dc.lft.to/lastmile_qr_scan"}, "lon": -77.05504833333333, "type": "electric_scooter", "fusion_lat": 0.0, "lat": 38.929758, "name": "4cdec66f2093f97a2862fe9355f9633d", "fusion_lon": 0.0, "bike_id": "4cdec66f2093f97a2862fe9355f9633d", "is_disabled": 0, "is_reserved": 0}, {"rental_uris": {"ios": "https://dc.lft.to/lastmile_qr_scan", "android": "https://dc.lft.to/lastmile_qr_scan"}, "lon": -76.9323565, "type": "electric_bike", "fusion_lat": 0.0, "lat": 38.882758333333335, "name": "ed05b39c5d96dfdcea0bb8a32f7a2fbf", "fusion_lon": 0.0, "bike_id": "ed05b39c5d96dfdcea0bb8a32f7a2fbf", "is_disabled": 0, "is_reserved": 0}, {"rental_uris": {"ios": "https://dc.lft.to/lastmile_qr_scan", "android": "https://dc.lft.to/lastmile_qr_scan"}, "lon": -77.02785633333333, "type": "electric_scooter", "fusion_lat": 0.0, "lat": 38.961367, "name": "c5d255f27d649e92893597fd6f169596", "fusion_lon": 0.0, "bike_id": "c5d255f27d649e92893597fd6f169596", "is_disabled": 0, "is_reserved": 0}, {"rental_uris": {"ios": "https://dc.lft.to/lastmile_qr_scan", "android": "https://dc.lft.to/lastmile_qr_scan"}, "lon": -77.03650966666666, "type": "electric_scooter", "fusion_lat": 0.0, "lat": 38.90332, "name": "4c5d7e650a012e499d22e64ede0652fb", "fusion_lon": 0.0, "bike_id": "4c5d7e650a012e499d22e64ede0652fb", "is_disabled": 0, "is_reserved": 0}, {"rental_uris": {"ios": "https://dc.lft.to/lastmile_qr_scan", "android": "https://dc.lft.to/lastmile_qr_scan"}, "lon": -77.03206083333333, "type": "electric_scooter", "fusion_lat": 0.0, "lat": 38.920673, "name": "3c594f7279fac0aae3d9d4c4ac0cc455", "fusion_lon": 0.0, "bike_id": "3c594f7279fac0aae3d9d4c4ac0cc455", "is_disabled": 0, "is_reserved": 0}, {"rental_uris": {"ios": "https://dc.lft.to/lastmile_qr_scan", "android": "https://dc.lft.to/lastmile_qr_scan"}, "lon": -77.0395245, "type": "electric_scooter", "fusion_lat": 0.0, "lat": 38.926077166666666, "name": "fa5a5a50fb82153bcca0e788d0422ea6", "fusion_lon": 0.0, "bike_id": "fa5a5a50fb82153bcca0e788d0422ea6", "is_disabled": 0, "is_reserved": 0}, {"rental_uris": {"ios": "https://dc.lft.to/lastmile_qr_scan", "android": "https://dc.lft.to/lastmile_qr_scan"}, "lon": -77.041816, "type": "electric_scooter", "fusion_lat": 0.0, "lat": 38.9220015, "name": "db989fd801d847c10cca13db3966c7c3", "fusion_lon": 0.0, "bike_id": "db989fd801d847c10cca13db3966c7c3", "is_disabled": 0, "is_reserved": 0}, {"rental_uris": {"ios": "https://dc.lft.to/lastmile_qr_scan", "android": "https://dc.lft.to/lastmile_qr_scan"}, "lon": -77.053115, "type": "electric_scooter", "fusion_lat": 0.0, "lat": 38.90167366666667, "name": "ed09341a18c3c0cb3b2c05811abc9953", "fusion_lon": 0.0, "bike_id": "ed09341a18c3c0cb3b2c05811abc9953", "is_disabled": 0, "is_reserved": 0}, {"rental_uris": {"ios": "https://dc.lft.to/lastmile_qr_scan", "android": "https://dc.lft.to/lastmile_qr_scan"}, "lon": -77.02752783333334, "type": "electric_scooter", "fusion_lat": 0.0, "lat": 38.971477166666666, "name": "799a03749220b173fe8f6362b383e000", "fusion_lon": 0.0, "bike_id": "799a03749220b173fe8f6362b383e000", "is_disabled": 0, "is_reserved": 0}, {"rental_uris": {"ios": "https://dc.lft.to/lastmile_qr_scan", "android": "https://dc.lft.to/lastmile_qr_scan"}, "lon": -77.05050616666666, "type": "electric_scooter", "fusion_lat": 0.0, "lat": 38.92369, "name": "a037fb32461cc562628433c945e1a2b0", "fusion_lon": 0.0, "bike_id": "a037fb32461cc562628433c945e1a2b0", "is_disabled": 0, "is_reserved": 0}, {"rental_uris": {"ios": "https://dc.lft.to/lastmile_qr_scan", "android": "https://dc.lft.to/lastmile_qr_scan"}, "lon": -77.026884, "type": "electric_scooter", "fusion_lat": 0.0, "lat": 38.901591, "name": "fc0d35d9eb6f034484b39c7468100469", "fusion_lon": 0.0, "bike_id": "fc0d35d9eb6f034484b39c7468100469", "is_disabled": 0, "is_reserved": 0}, {"rental_uris": {"ios": "https://dc.lft.to/lastmile_qr_scan", "android": "https://dc.lft.to/lastmile_qr_scan"}, "lon": -77.0389865, "type": "electric_scooter", "fusion_lat": 0.0, "lat": 38.93423166666667, "name": "2d2eed9f48aba54d0a64c31933f11839", "fusion_lon": 0.0, "bike_id": "2d2eed9f48aba54d0a64c31933f11839", "is_disabled": 0, "is_reserved": 0}, {"rental_uris": {"ios": "https://dc.lft.to/lastmile_qr_scan", "android": "https://dc.lft.to/lastmile_qr_scan"}, "lon": -77.03450933333333, "type": "electric_scooter", "fusion_lat": 0.0, "lat": 38.918211, "name": "7f7f829d4c671b5d3ff7541e227ea301", "fusion_lon": 0.0, "bike_id": "7f7f829d4c671b5d3ff7541e227ea301", "is_disabled": 0, "is_reserved": 0}, {"rental_uris": {"ios": "https://dc.lft.to/lastmile_qr_scan", "android": "https://dc.lft.to/lastmile_qr_scan"}, "lon": -77.04052116666666, "type": "electric_scooter", "fusion_lat": 0.0, "lat": 38.9271285, "name": "432365b7814d2296a222594418381535", "fusion_lon": 0.0, "bike_id": "432365b7814d2296a222594418381535", "is_disabled": 0, "is_reserved": 0}, {"rental_uris": {"ios": "https://dc.lft.to/lastmile_qr_scan", "android": "https://dc.lft.to/lastmile_qr_scan"}, "lon": -77.0238425, "type": "electric_scooter", "fusion_lat": 0.0, "lat": 38.9198825, "name": "35dacfd4c2ff3bd818b945ee4f728520", "fusion_lon": 0.0, "bike_id": "35dacfd4c2ff3bd818b945ee4f728520", "is_disabled": 0, "is_reserved": 0}, {"rental_uris": {"ios": "https://dc.lft.to/lastmile_qr_scan", "android": "https://dc.lft.to/lastmile_qr_scan"}, "lon": -77.09747083333333, "type": "electric_bike", "fusion_lat": 0.0, "lat": 38.858532833333335, "name": "cc3cc17a28fd21987ac5dff48871b313", "fusion_lon": 0.0, "bike_id": "cc3cc17a28fd21987ac5dff48871b313", "is_disabled": 0, "is_reserved": 0}, {"rental_uris": {"ios": "https://dc.lft.to/lastmile_qr_scan", "android": "https://dc.lft.to/lastmile_qr_scan"}, "lon": -77.03462283333333, "type": "electric_scooter", "fusion_lat": 0.0, "lat": 38.91445733333333, "name": "ee131a15d9b6637bd52e69a53ff6584d", "fusion_lon": 0.0, "bike_id": "ee131a15d9b6637bd52e69a53ff6584d", "is_disabled": 0, "is_reserved": 0}, {"rental_uris": {"ios": "https://dc.lft.to/lastmile_qr_scan", "android": "https://dc.lft.to/lastmile_qr_scan"}, "lon": -77.0455955, "type": "electric_scooter", "fusion_lat": 0.0, "lat": 38.90861016666667, "name": "0d5e5e5ce9ff06a2aeac68194c390980", "fusion_lon": 0.0, "bike_id": "0d5e5e5ce9ff06a2aeac68194c390980", "is_disabled": 0, "is_reserved": 0}, {"rental_uris": {"ios": "https://dc.lft.to/lastmile_qr_scan", "android": "https://dc.lft.to/lastmile_qr_scan"}, "lon": -77.00587283333333, "type": "electric_scooter", "fusion_lat": 0.0, "lat": 38.90560983333334, "name": "178a1edb384025c27c3724451d8a52ba", "fusion_lon": 0.0, "bike_id": "178a1edb384025c27c3724451d8a52ba", "is_disabled": 0, "is_reserved": 0}, {"rental_uris": {"ios": "https://dc.lft.to/lastmile_qr_scan", "android": "https://dc.lft.to/lastmile_qr_scan"}, "lon": -77.09871683333333, "type": "electric_bike", "fusion_lat": 0.0, "lat": 38.8537175, "name": "2b66b9f3b189d964aa536ba7011048ac", "fusion_lon": 0.0, "bike_id": "2b66b9f3b189d964aa536ba7011048ac", "is_disabled": 0, "is_reserved": 0}, {"rental_uris": {"ios": "https://dc.lft.to/lastmile_qr_scan", "android": "https://dc.lft.to/lastmile_qr_scan"}, "lon": -77.03676266666666, "type": "electric_scooter", "fusion_lat": 0.0, "lat": 38.91820383333334, "name": "7f8c2d618d591aaffa42ee680e65623b", "fusion_lon": 0.0, "bike_id": "7f8c2d618d591aaffa42ee680e65623b", "is_disabled": 0, "is_reserved": 0}, {"rental_uris": {"ios": "https://dc.lft.to/lastmile_qr_scan", "android": "https://dc.lft.to/lastmile_qr_scan"}, "lon": -77.06952033333333, "type": "electric_scooter", "fusion_lat": 0.0, "lat": 38.90506283333333, "name": "261d0588b8b9587000007a3a3945ec68", "fusion_lon": 0.0, "bike_id": "261d0588b8b9587000007a3a3945ec68", "is_disabled": 0, "is_reserved": 0}, {"rental_uris": {"ios": "https://dc.lft.to/lastmile_qr_scan", "android": "https://dc.lft.to/lastmile_qr_scan"}, "lon": -77.03387233333333, "type": "electric_scooter", "fusion_lat": 0.0, "lat": 38.938454, "name": "d487c3925784bdf7119de785ab0cd80a", "fusion_lon": 0.0, "bike_id": "d487c3925784bdf7119de785ab0cd80a", "is_disabled": 0, "is_reserved": 0}, {"rental_uris": {"ios": "https://dc.lft.to/lastmile_qr_scan", "android": "https://dc.lft.to/lastmile_qr_scan"}, "lon": -77.02316783333333, "type": "electric_scooter", "fusion_lat": 0.0, "lat": 38.91792866666667, "name": "b0227990b54e23b5269ae93cfd1f7577", "fusion_lon": 0.0, "bike_id": "b0227990b54e23b5269ae93cfd1f7577", "is_disabled": 0, "is_reserved": 0}, {"rental_uris": {"ios": "https://dc.lft.to/lastmile_qr_scan", "android": "https://dc.lft.to/lastmile_qr_scan"}, "lon": -77.01934416666667, "type": "electric_scooter", "fusion_lat": 0.0, "lat": 38.949255666666666, "name": "185f0a8a07b5328fcf932f6439acf921", "fusion_lon": 0.0, "bike_id": "185f0a8a07b5328fcf932f6439acf921", "is_disabled": 0, "is_reserved": 0}, {"rental_uris": {"ios": "https://dc.lft.to/lastmile_qr_scan", "android": "https://dc.lft.to/lastmile_qr_scan"}, "lon": -77.03119183333334, "type": "electric_scooter", "fusion_lat": 0.0, "lat": 38.91403866666667, "name": "65080c96e8e6cda14dcbe61879508992", "fusion_lon": 0.0, "bike_id": "65080c96e8e6cda14dcbe61879508992", "is_disabled": 0, "is_reserved": 0}, {"rental_uris": {"ios": "https://dc.lft.to/lastmile_qr_scan", "android": "https://dc.lft.to/lastmile_qr_scan"}, "lon": -77.073269, "type": "electric_scooter", "fusion_lat": 0.0, "lat": 38.924914, "name": "7ee13eba36805421c82d9523fbbbfe3e", "fusion_lon": 0.0, "bike_id": "7ee13eba36805421c82d9523fbbbfe3e", "is_disabled": 0, "is_reserved": 0}, {"rental_uris": {"ios": "https://dc.lft.to/lastmile_qr_scan", "android": "https://dc.lft.to/lastmile_qr_scan"}, "lon": -77.075653, "type": "electric_scooter", "fusion_lat": 0.0, "lat": 38.91427383333333, "name": "3754d466f2519d394569516113645264", "fusion_lon": 0.0, "bike_id": "3754d466f2519d394569516113645264", "is_disabled": 0, "is_reserved": 0}, {"rental_uris": {"ios": "https://dc.lft.to/lastmile_qr_scan", "android": "https://dc.lft.to/lastmile_qr_scan"}, "lon": -77.04491266666666, "type": "electric_scooter", "fusion_lat": 0.0, "lat": 38.9109815, "name": "3557661c434fdaaf006a6126eea959a3", "fusion_lon": 0.0, "bike_id": "3557661c434fdaaf006a6126eea959a3", "is_disabled": 0, "is_reserved": 0}, {"rental_uris": {"ios": "https://dc.lft.to/lastmile_qr_scan", "android": "https://dc.lft.to/lastmile_qr_scan"}, "lon": -77.028024, "type": "electric_scooter", "fusion_lat": 0.0, "lat": 38.896345833333335, "name": "8fbddc9809277a488fda3311282f7854", "fusion_lon": 0.0, "bike_id": "8fbddc9809277a488fda3311282f7854", "is_disabled": 0, "is_reserved": 0}, {"rental_uris": {"ios": "https://dc.lft.to/lastmile_qr_scan", "android": "https://dc.lft.to/lastmile_qr_scan"}, "lon": -77.03659466666667, "type": "electric_scooter", "fusion_lat": 0.0, "lat": 38.929385, "name": "9a8e84f173a1a8c61f613a7bf98f5ecc", "fusion_lon": 0.0, "bike_id": "9a8e84f173a1a8c61f613a7bf98f5ecc", "is_disabled": 0, "is_reserved": 0}, {"rental_uris": {"ios": "https://dc.lft.to/lastmile_qr_scan", "android": "https://dc.lft.to/lastmile_qr_scan"}, "lon": -77.03831283333334, "type": "electric_scooter", "fusion_lat": 0.0, "lat": 38.911196333333336, "name": "1854e79205021c2c7cb5de5c59a2eaea", "fusion_lon": 0.0, "bike_id": "1854e79205021c2c7cb5de5c59a2eaea", "is_disabled": 0, "is_reserved": 0}, {"rental_uris": {"ios": "https://dc.lft.to/lastmile_qr_scan", "android": "https://dc.lft.to/lastmile_qr_scan"}, "lon": -77.02726433333333, "type": "electric_scooter", "fusion_lat": 0.0, "lat": 38.91689983333333, "name": "d02468b2fe98339dce9c3055be319e3d", "fusion_lon": 0.0, "bike_id": "d02468b2fe98339dce9c3055be319e3d", "is_disabled": 0, "is_reserved": 0}, {"rental_uris": {"ios": "https://dc.lft.to/lastmile_qr_scan", "android": "https://dc.lft.to/lastmile_qr_scan"}, "lon": -77.076816, "type": "electric_bike", "fusion_lat": 0.0, "lat": 38.831913666666665, "name": "a1c1f75210facb5a16bf726bd0114b33", "fusion_lon": 0.0, "bike_id": "a1c1f75210facb5a16bf726bd0114b33", "is_disabled": 0, "is_reserved": 0}, {"rental_uris": {"ios": "https://dc.lft.to/lastmile_qr_scan", "android": "https://dc.lft.to/lastmile_qr_scan"}, "lon": -77.04750416666667, "type": "electric_scooter", "fusion_lat": 0.0, "lat": 38.9023145, "name": "9c4e97f5273c4909738f51ea90bdc4e9", "fusion_lon": 0.0, "bike_id": "9c4e97f5273c4909738f51ea90bdc4e9", "is_disabled": 0, "is_reserved": 0}, {"rental_uris": {"ios": "https://dc.lft.to/lastmile_qr_scan", "android": "https://dc.lft.to/lastmile_qr_scan"}, "lon": -77.031872, "type": "electric_scooter", "fusion_lat": 0.0, "lat": 38.91931133333333, "name": "fb427d4f711de1c347f0fea787a890ff", "fusion_lon": 0.0, "bike_id": "fb427d4f711de1c347f0fea787a890ff", "is_disabled": 0, "is_reserved": 0}, {"rental_uris": {"ios": "https://dc.lft.to/lastmile_qr_scan", "android": "https://dc.lft.to/lastmile_qr_scan"}, "lon": -77.02961266666667, "type": "electric_scooter", "fusion_lat": 0.0, "lat": 38.884382, "name": "c7414010b7436e6fb18892d713c2e11b", "fusion_lon": 0.0, "bike_id": "c7414010b7436e6fb18892d713c2e11b", "is_disabled": 0, "is_reserved": 0}, {"rental_uris": {"ios": "https://dc.lft.to/lastmile_qr_scan", "android": "https://dc.lft.to/lastmile_qr_scan"}, "lon": -77.03733266666667, "type": "electric_scooter", "fusion_lat": 0.0, "lat": 38.93357683333333, "name": "28166269c76bdd62da9390c8897c8080", "fusion_lon": 0.0, "bike_id": "28166269c76bdd62da9390c8897c8080", "is_disabled": 0, "is_reserved": 0}, {"rental_uris": {"ios": "https://dc.lft.to/lastmile_qr_scan", "android": "https://dc.lft.to/lastmile_qr_scan"}, "lon": -76.9780975, "type": "electric_scooter", "fusion_lat": 0.0, "lat": 38.90675566666667, "name": "f9da0eeeb2178b9ace3a3d2677ec7577", "fusion_lon": 0.0, "bike_id": "f9da0eeeb2178b9ace3a3d2677ec7577", "is_disabled": 0, "is_reserved": 0}, {"rental_uris": {"ios": "https://dc.lft.to/lastmile_qr_scan", "android": "https://dc.lft.to/lastmile_qr_scan"}, "lon": -77.03224933333334, "type": "electric_scooter", "fusion_lat": 0.0, "lat": 38.925844, "name": "56ba876270f236a426b7afeabc8d600a", "fusion_lon": 0.0, "bike_id": "56ba876270f236a426b7afeabc8d600a", "is_disabled": 0, "is_reserved": 0}, {"rental_uris": {"ios": "https://dc.lft.to/lastmile_qr_scan", "android": "https://dc.lft.to/lastmile_qr_scan"}, "lon": -77.02948533333333, "type": "electric_scooter", "fusion_lat": 0.0, "lat": 38.90725833333333, "name": "457dc067003577a3ba11108e7b2a4aa5", "fusion_lon": 0.0, "bike_id": "457dc067003577a3ba11108e7b2a4aa5", "is_disabled": 0, "is_reserved": 0}, {"rental_uris": {"ios": "https://dc.lft.to/lastmile_qr_scan", "android": "https://dc.lft.to/lastmile_qr_scan"}, "lon": -77.03646916666666, "type": "electric_scooter", "fusion_lat": 0.0, "lat": 38.91735716666667, "name": "49910b5a5101a2e5adaf71531eba5cd0", "fusion_lon": 0.0, "bike_id": "49910b5a5101a2e5adaf71531eba5cd0", "is_disabled": 0, "is_reserved": 0}, {"rental_uris": {"ios": "https://dc.lft.to/lastmile_qr_scan", "android": "https://dc.lft.to/lastmile_qr_scan"}, "lon": -77.11199083333334, "type": "electric_bike", "fusion_lat": 0.0, "lat": 38.81302266666667, "name": "d53495c5cd34b036754a23479fb9adc6", "fusion_lon": 0.0, "bike_id": "d53495c5cd34b036754a23479fb9adc6", "is_disabled": 0, "is_reserved": 0}, {"rental_uris": {"ios": "https://dc.lft.to/lastmile_qr_scan", "android": "https://dc.lft.to/lastmile_qr_scan"}, "lon": -77.033202, "type": "electric_scooter", "fusion_lat": 0.0, "lat": 38.92051133333333, "name": "2fac314a78a9d1ed25a1241d34460c6c", "fusion_lon": 0.0, "bike_id": "2fac314a78a9d1ed25a1241d34460c6c", "is_disabled": 0, "is_reserved": 0}, {"rental_uris": {"ios": "https://dc.lft.to/lastmile_qr_scan", "android": "https://dc.lft.to/lastmile_qr_scan"}, "lon": -76.9354865, "type": "electric_bike", "fusion_lat": 0.0, "lat": 38.955535, "name": "8ba84b2a54dc15cb447b67ba92e4b3cd", "fusion_lon": 0.0, "bike_id": "8ba84b2a54dc15cb447b67ba92e4b3cd", "is_disabled": 0, "is_reserved": 0}, {"rental_uris": {"ios": "https://dc.lft.to/lastmile_qr_scan", "android": "https://dc.lft.to/lastmile_qr_scan"}, "lon": -77.04329133333333, "type": "electric_scooter", "fusion_lat": 0.0, "lat": 38.914872333333335, "name": "6b18c9811dd313ce83486a95c6a055f5", "fusion_lon": 0.0, "bike_id": "6b18c9811dd313ce83486a95c6a055f5", "is_disabled": 0, "is_reserved": 0}, {"rental_uris": {"ios": "https://dc.lft.to/lastmile_qr_scan", "android": "https://dc.lft.to/lastmile_qr_scan"}, "lon": -77.04382383333333, "type": "electric_scooter", "fusion_lat": 0.0, "lat": 38.920721666666665, "name": "ef8f4c2de458b0aabaf99097359b3b1b", "fusion_lon": 0.0, "bike_id": "ef8f4c2de458b0aabaf99097359b3b1b", "is_disabled": 0, "is_reserved": 0}, {"rental_uris": {"ios": "https://dc.lft.to/lastmile_qr_scan", "android": "https://dc.lft.to/lastmile_qr_scan"}, "lon": -77.1225755, "type": "electric_bike", "fusion_lat": 0.0, "lat": 38.89189533333333, "name": "a72d9f8d81f2da893d6729d31274aed0", "fusion_lon": 0.0, "bike_id": "a72d9f8d81f2da893d6729d31274aed0", "is_disabled": 0, "is_reserved": 0}, {"rental_uris": {"ios": "https://dc.lft.to/lastmile_qr_scan", "android": "https://dc.lft.to/lastmile_qr_scan"}, "lon": -77.04821066666666, "type": "electric_scooter", "fusion_lat": 0.0, "lat": 38.896099, "name": "f8dcce3c70e689a3c87f5353c32a25c3", "fusion_lon": 0.0, "bike_id": "f8dcce3c70e689a3c87f5353c32a25c3", "is_disabled": 0, "is_reserved": 0}, {"rental_uris": {"ios": "https://dc.lft.to/lastmile_qr_scan", "android": "https://dc.lft.to/lastmile_qr_scan"}, "lon": -77.04330783333333, "type": "electric_scooter", "fusion_lat": 0.0, "lat": 38.89585116666667, "name": "f7cddb31c29a40a8590d384ced8ebfdf", "fusion_lon": 0.0, "bike_id": "f7cddb31c29a40a8590d384ced8ebfdf", "is_disabled": 0, "is_reserved": 0}, {"rental_uris": {"ios": "https://dc.lft.to/lastmile_qr_scan", "android": "https://dc.lft.to/lastmile_qr_scan"}, "lon": -77.10681266666667, "type": "electric_bike", "fusion_lat": 0.0, "lat": 38.93583866666667, "name": "4a4217f478194888e55114275b0c12fd", "fusion_lon": 0.0, "bike_id": "4a4217f478194888e55114275b0c12fd", "is_disabled": 0, "is_reserved": 0}, {"rental_uris": {"ios": "https://dc.lft.to/lastmile_qr_scan", "android": "https://dc.lft.to/lastmile_qr_scan"}, "lon": -77.032033, "type": "electric_scooter", "fusion_lat": 0.0, "lat": 38.919208166666664, "name": "8b086d0ca33f25d31a9d388df0b715a9", "fusion_lon": 0.0, "bike_id": "8b086d0ca33f25d31a9d388df0b715a9", "is_disabled": 0, "is_reserved": 0}, {"rental_uris": {"ios": "https://dc.lft.to/lastmile_qr_scan", "android": "https://dc.lft.to/lastmile_qr_scan"}, "lon": -77.03263783333334, "type": "electric_scooter", "fusion_lat": 0.0, "lat": 38.9254085, "name": "bc498c45c963b66c5f3071a6524fb0de", "fusion_lon": 0.0, "bike_id": "bc498c45c963b66c5f3071a6524fb0de", "is_disabled": 0, "is_reserved": 0}, {"rental_uris": {"ios": "https://dc.lft.to/lastmile_qr_scan", "android": "https://dc.lft.to/lastmile_qr_scan"}, "lon": -77.04666216666666, "type": "electric_scooter", "fusion_lat": 0.0, "lat": 38.914776, "name": "cf0a42bb5732dda5c183ecabaeb75496", "fusion_lon": 0.0, "bike_id": "cf0a42bb5732dda5c183ecabaeb75496", "is_disabled": 0, "is_reserved": 0}, {"rental_uris": {"ios": "https://dc.lft.to/lastmile_qr_scan", "android": "https://dc.lft.to/lastmile_qr_scan"}, "lon": -77.03463, "type": "electric_scooter", "fusion_lat": 0.0, "lat": 38.91689233333334, "name": "9fbd2baf021fa2c2af46e83aa76ba6ea", "fusion_lon": 0.0, "bike_id": "9fbd2baf021fa2c2af46e83aa76ba6ea", "is_disabled": 0, "is_reserved": 0}, {"rental_uris": {"ios": "https://dc.lft.to/lastmile_qr_scan", "android": "https://dc.lft.to/lastmile_qr_scan"}, "lon": -77.0918825, "type": "electric_scooter", "fusion_lat": 0.0, "lat": 38.91365366666667, "name": "397d97495fd1219c95d5fe672a12ce27", "fusion_lon": 0.0, "bike_id": "397d97495fd1219c95d5fe672a12ce27", "is_disabled": 0, "is_reserved": 0}, {"rental_uris": {"ios": "https://dc.lft.to/lastmile_qr_scan", "android": "https://dc.lft.to/lastmile_qr_scan"}, "lon": -76.9487735, "type": "electric_scooter", "fusion_lat": 0.0, "lat": 38.894999, "name": "f307405fc8f59fb67e4629b4ddfaaa62", "fusion_lon": 0.0, "bike_id": "f307405fc8f59fb67e4629b4ddfaaa62", "is_disabled": 0, "is_reserved": 0}, {"rental_uris": {"ios": "https://dc.lft.to/lastmile_qr_scan", "android": "https://dc.lft.to/lastmile_qr_scan"}, "lon": -77.04260683333334, "type": "electric_scooter", "fusion_lat": 0.0, "lat": 38.902497833333335, "name": "cb8b8bd59f7290f49583091531284143", "fusion_lon": 0.0, "bike_id": "cb8b8bd59f7290f49583091531284143", "is_disabled": 0, "is_reserved": 0}, {"rental_uris": {"ios": "https://dc.lft.to/lastmile_qr_scan", "android": "https://dc.lft.to/lastmile_qr_scan"}, "lon": -77.0292795, "type": "electric_scooter", "fusion_lat": 0.0, "lat": 38.905036333333335, "name": "af572b634a3df3673ea675b00cc1f383", "fusion_lon": 0.0, "bike_id": "af572b634a3df3673ea675b00cc1f383", "is_disabled": 0, "is_reserved": 0}, {"rental_uris": {"ios": "https://dc.lft.to/lastmile_qr_scan", "android": "https://dc.lft.to/lastmile_qr_scan"}, "lon": -77.006555, "type": "electric_scooter", "fusion_lat": 0.0, "lat": 38.944641833333336, "name": "f8ea6ae3b2e59b4b412d8ec562a0c2f6", "fusion_lon": 0.0, "bike_id": "f8ea6ae3b2e59b4b412d8ec562a0c2f6", "is_disabled": 0, "is_reserved": 0}, {"rental_uris": {"ios": "https://dc.lft.to/lastmile_qr_scan", "android": "https://dc.lft.to/lastmile_qr_scan"}, "lon": -77.0385565, "type": "electric_scooter", "fusion_lat": 0.0, "lat": 38.90776483333333, "name": "0dd63ef0124ccc22cc22fc56e1dafeed", "fusion_lon": 0.0, "bike_id": "0dd63ef0124ccc22cc22fc56e1dafeed", "is_disabled": 0, "is_reserved": 0}, {"rental_uris": {"ios": "https://dc.lft.to/lastmile_qr_scan", "android": "https://dc.lft.to/lastmile_qr_scan"}, "lon": -76.98655366666667, "type": "electric_scooter", "fusion_lat": 0.0, "lat": 38.85805333333333, "name": "53caf54d1ef18c0e8be116620db4fee4", "fusion_lon": 0.0, "bike_id": "53caf54d1ef18c0e8be116620db4fee4", "is_disabled": 0, "is_reserved": 0}, {"rental_uris": {"ios": "https://dc.lft.to/lastmile_qr_scan", "android": "https://dc.lft.to/lastmile_qr_scan"}, "lon": -77.003589, "type": "electric_scooter", "fusion_lat": 0.0, "lat": 38.8976905, "name": "7aaa247591db33a82c612fc53d72e6a1", "fusion_lon": 0.0, "bike_id": "7aaa247591db33a82c612fc53d72e6a1", "is_disabled": 0, "is_reserved": 0}, {"rental_uris": {"ios": "https://dc.lft.to/lastmile_qr_scan", "android": "https://dc.lft.to/lastmile_qr_scan"}, "lon": -77.022269, "type": "electric_scooter", "fusion_lat": 0.0, "lat": 38.91423116666667, "name": "023a1a3b847c0a946205bdee752e4556", "fusion_lon": 0.0, "bike_id": "023a1a3b847c0a946205bdee752e4556", "is_disabled": 0, "is_reserved": 0}, {"rental_uris": {"ios": "https://dc.lft.to/lastmile_qr_scan", "android": "https://dc.lft.to/lastmile_qr_scan"}, "lon": -77.07322883333333, "type": "electric_scooter", "fusion_lat": 0.0, "lat": 38.92518716666667, "name": "971e128e0c2f582ed38086a63970b0bf", "fusion_lon": 0.0, "bike_id": "971e128e0c2f582ed38086a63970b0bf", "is_disabled": 0, "is_reserved": 0}, {"rental_uris": {"ios": "https://dc.lft.to/lastmile_qr_scan", "android": "https://dc.lft.to/lastmile_qr_scan"}, "lon": -76.98570816666667, "type": "electric_scooter", "fusion_lat": 0.0, "lat": 38.89885533333333, "name": "98ad6a9b68f254b635f7ab5e4012e53c", "fusion_lon": 0.0, "bike_id": "98ad6a9b68f254b635f7ab5e4012e53c", "is_disabled": 0, "is_reserved": 0}, {"rental_uris": {"ios": "https://dc.lft.to/lastmile_qr_scan", "android": "https://dc.lft.to/lastmile_qr_scan"}, "lon": -76.985616, "type": "electric_scooter", "fusion_lat": 0.0, "lat": 38.85591383333333, "name": "c4512c1bb7b5754e0bbc00557a3af7a0", "fusion_lon": 0.0, "bike_id": "c4512c1bb7b5754e0bbc00557a3af7a0", "is_disabled": 0, "is_reserved": 0}, {"rental_uris": {"ios": "https://dc.lft.to/lastmile_qr_scan", "android": "https://dc.lft.to/lastmile_qr_scan"}, "lon": -77.0233165, "type": "electric_scooter", "fusion_lat": 0.0, "lat": 38.93048683333333, "name": "46862098a73d9022c8aa1b9d0b0bb616", "fusion_lon": 0.0, "bike_id": "46862098a73d9022c8aa1b9d0b0bb616", "is_disabled": 0, "is_reserved": 0}, {"rental_uris": {"ios": "https://dc.lft.to/lastmile_qr_scan", "android": "https://dc.lft.to/lastmile_qr_scan"}, "lon": -77.0241525, "type": "electric_scooter", "fusion_lat": 0.0, "lat": 38.91820233333333, "name": "88ab269cdddf68075eee8a7abdcf79a7", "fusion_lon": 0.0, "bike_id": "88ab269cdddf68075eee8a7abdcf79a7", "is_disabled": 0, "is_reserved": 0}, {"rental_uris": {"ios": "https://dc.lft.to/lastmile_qr_scan", "android": "https://dc.lft.to/lastmile_qr_scan"}, "lon": -76.9465435, "type": "electric_scooter", "fusion_lat": 0.0, "lat": 38.898256, "name": "819aea5f125aedcc40c780d75aca2fba", "fusion_lon": 0.0, "bike_id": "819aea5f125aedcc40c780d75aca2fba", "is_disabled": 0, "is_reserved": 0}, {"rental_uris": {"ios": "https://dc.lft.to/lastmile_qr_scan", "android": "https://dc.lft.to/lastmile_qr_scan"}, "lon": -77.03121883333333, "type": "electric_scooter", "fusion_lat": 0.0, "lat": 38.9630505, "name": "e1cda8f44ea5165e727434ec5eb55554", "fusion_lon": 0.0, "bike_id": "e1cda8f44ea5165e727434ec5eb55554", "is_disabled": 0, "is_reserved": 0}, {"rental_uris": {"ios": "https://dc.lft.to/lastmile_qr_scan", "android": "https://dc.lft.to/lastmile_qr_scan"}, "lon": -76.980045, "type": "electric_scooter", "fusion_lat": 0.0, "lat": 38.853180333333334, "name": "9360a633766a1e2ad27f5d17fe508017", "fusion_lon": 0.0, "bike_id": "9360a633766a1e2ad27f5d17fe508017", "is_disabled": 0, "is_reserved": 0}, {"rental_uris": {"ios": "https://dc.lft.to/lastmile_qr_scan", "android": "https://dc.lft.to/lastmile_qr_scan"}, "lon": -77.10029416666667, "type": "electric_bike", "fusion_lat": 0.0, "lat": 38.99061433333333, "name": "78bb57c72b5ffb98e095edb51a0b7715", "fusion_lon": 0.0, "bike_id": "78bb57c72b5ffb98e095edb51a0b7715", "is_disabled": 0, "is_reserved": 0}, {"rental_uris": {"ios": "https://dc.lft.to/lastmile_qr_scan", "android": "https://dc.lft.to/lastmile_qr_scan"},