{"data": {"bikes": [{"lon": -77.1122135, "lat": 38.8286785, "name": "f683fb715427504d68f1323780d3d1e2", "fusion_lat": 0.0, "fusion_lon": 0.0, "rental_uris": {"android": "https://dc.lft.to/lastmile_qr_scan", "ios": "https://dc.lft.to/lastmile_qr_scan"}, "is_reserved": 0, "is_disabled": 0, "type": "electric_bike", "bike_id": "f683fb715427504d68f1323780d3d1e2"}, {"lon": -77.03326866666667, "lat": 38.89821233333333, "name": "c311c89e44d92b6f60bc3076b173bbe0", "fusion_lat": 0.0, "fusion_lon": 0.0, "rental_uris": {"android": "https://dc.lft.to/lastmile_qr_scan", "ios": "https://dc.lft.to/lastmile_qr_scan"}, "is_reserved": 0, "is_disabled": 0, "type": "electric_scooter", "bike_id": "c311c89e44d92b6f60bc3076b173bbe0"}, {"lon": -76.93160066666667, "lat": 38.89882383333333, "name": "82658f16f188f179a3f91de42bd2e834", "fusion_lat": 0.0, "fusion_lon": 0.0, "rental_uris": {"android": "https://dc.lft.to/lastmile_qr_scan", "ios": "https://dc.lft.to/lastmile_qr_scan"}, "is_reserved": 0, "is_disabled": 0, "type": "electric_scooter", "bike_id": "82658f16f188f179a3f91de42bd2e834"}, {"lon": -77.00218966666667, "lat": 38.9003125, "name": "f223d72f8c99ded85532b81adb1f4e85", "fusion_lat": 0.0, "fusion_lon": 0.0, "rental_uris": {"android": "https://dc.lft.to/lastmile_qr_scan", "ios": "https://dc.lft.to/lastmile_qr_scan"}, "is_reserved": 0, "is_disabled": 0, "type": "electric_scooter", "bike_id": "f223d72f8c99ded85532b81adb1f4e85"}, {"lon": -77.02694683333333, "lat": 38.90697733333333, "name": "ec9d31920858c4236ba171f87dfbf79a", "fusion_lat": 0.0, "fusion_lon": 0.0, "rental_uris": {"android": "https://dc.lft.to/lastmile_qr_scan", "ios": "https://dc.lft.to/lastmile_qr_scan"}, "is_reserved": 0, "is_disabled": 0, "type": "electric_scooter", "bike_id": "ec9d31920858c4236ba171f87dfbf79a"}, {"lon": -76.87496366666667, "lat": 38.990897833333335, "name": "05c075b83ea3820a419ad7d5f10fb9ce", "fusion_lat": 0.0, "fusion_lon": 0.0, "rental_uris": {"android": "https://dc.lft.to/lastmile_qr_scan", "ios": "https://dc.lft.to/lastmile_qr_scan"}, "is_reserved": 0, "is_disabled": 0, "type": "electric_bike", "bike_id": "05c075b83ea3820a419ad7d5f10fb9ce"}, {"lon": -77.03133283333334, "lat": 38.915608666666664, "name": "844ccb73b477057830ef876e3aa51816", "fusion_lat": 0.0, "fusion_lon": 0.0, "rental_uris": {"android": "https://dc.lft.to/lastmile_qr_scan", "ios": "https://dc.lft.to/lastmile_qr_scan"}, "is_reserved": 0, "is_disabled": 0, "type": "electric_scooter", "bike_id": "844ccb73b477057830ef876e3aa51816"}, {"lon": -76.9962625, "lat": 38.880313, "name": "6c2b95e498c451f1f363e2e195b961d9", "fusion_lat": 0.0, "fusion_lon": 0.0, "rental_uris": {"android": "https://dc.lft.to/lastmile_qr_scan", "ios": "https://dc.lft.to/lastmile_qr_scan"}, "is_reserved": 0, "is_disabled": 0, "type": "electric_scooter", "bike_id": "6c2b95e498c451f1f363e2e195b961d9"}, {"lon": -77.05231866666666, "lat": 38.924695666666665, "name": "0fdec7ae17b78c3a7dcaa2395a7bf945", "fusion_lat": 0.0, "fusion_lon": 0.0, "rental_uris": {"android": "https://dc.lft.to/lastmile_qr_scan", "ios": "https://dc.lft.to/lastmile_qr_scan"}, "is_reserved": 0, "is_disabled": 0, "type": "electric_scooter", "bike_id": "0fdec7ae17b78c3a7dcaa2395a7bf945"}, {"lon": -77.06990866666666, "lat": 38.952667166666664, "name": "34a4179c22a7600971e226e7e2596577", "fusion_lat": 0.0, "fusion_lon": 0.0, "rental_uris": {"android": "https://dc.lft.to/lastmile_qr_scan", "ios": "https://dc.lft.to/lastmile_qr_scan"}, "is_reserved": 0, "is_disabled": 0, "type": "electric_bike", "bike_id": "34a4179c22a7600971e226e7e2596577"}, {"lon": -77.02693733333334, "lat": 38.909450166666666, "name": "f7416a5e408fdbbf219fe5eb79beb88d", "fusion_lat": 0.0, "fusion_lon": 0.0, "rental_uris": {"android": "https://dc.lft.to/lastmile_qr_scan", "ios": "https://dc.lft.to/lastmile_qr_scan"}, "is_reserved": 0, "is_disabled": 0, "type": "electric_scooter", "bike_id": "f7416a5e408fdbbf219fe5eb79beb88d"}, {"lon": -76.96527266666666, "lat": 38.876243, "name": "772534b57b8904a55ccccf2a1132335e", "fusion_lat": 0.0, "fusion_lon": 0.0, "rental_uris": {"android": "https://dc.lft.to/lastmile_qr_scan", "ios": "https://dc.lft.to/lastmile_qr_scan"}, "is_reserved": 0, "is_disabled": 0, "type": "electric_scooter", "bike_id": "772534b57b8904a55ccccf2a1132335e"}, {"lon": -77.02719533333334, "lat": 38.892265333333334, "name": "25681a9ba3a680e0ca65fad625dd4e34", "fusion_lat": 0.0, "fusion_lon": 0.0, "rental_uris": {"android": "https://dc.lft.to/lastmile_qr_scan", "ios": "https://dc.lft.to/lastmile_qr_scan"}, "is_reserved": 0, "is_disabled": 0, "type": "electric_scooter", "bike_id": "25681a9ba3a680e0ca65fad625dd4e34"}, {"lon": -77.06626116666666, "lat": 38.947399, "name": "5d687f08dfcd5a7ee9cfdfb455b3c92c", "fusion_lat": 0.0, "fusion_lon": 0.0, "rental_uris": {"android": "https://dc.lft.to/lastmile_qr_scan", "ios": "https://dc.lft.to/lastmile_qr_scan"}, "is_reserved": 0, "is_disabled": 0, "type": "electric_bike", "bike_id": "5d687f08dfcd5a7ee9cfdfb455b3c92c"}, {"lon": -77.011131, "lat": 38.90358, "name": "9f5f61e90a01606e19773e1ce5d71eb7", "fusion_lat": 0.0, "fusion_lon": 0.0, "rental_uris": {"android": "https://dc.lft.to/lastmile_qr_scan", "ios": "https://dc.lft.to/lastmile_qr_scan"}, "is_reserved": 0, "is_disabled": 0, "type": "electric_scooter", "bike_id": "9f5f61e90a01606e19773e1ce5d71eb7"}, {"lon": -77.02818983333333, "lat": 38.91596233333333, "name": "49bc6c89a225fff56c398d2a5af02dfa", "fusion_lat": 0.0, "fusion_lon": 0.0, "rental_uris": {"android": "https://dc.lft.to/lastmile_qr_scan", "ios": "https://dc.lft.to/lastmile_qr_scan"}, "is_reserved": 0, "is_disabled": 0, "type": "electric_scooter", "bike_id": "49bc6c89a225fff56c398d2a5af02dfa"}, {"lon": -77.02231466666667, "lat": 38.91266983333333, "name": "a5e605b8746971b8a83485a59eb63e02", "fusion_lat": 0.0, "fusion_lon": 0.0, "rental_uris": {"android": "https://dc.lft.to/lastmile_qr_scan", "ios": "https://dc.lft.to/lastmile_qr_scan"}, "is_reserved": 0, "is_disabled": 0, "type": "electric_scooter", "bike_id": "a5e605b8746971b8a83485a59eb63e02"}, {"lon": -77.02233433333333, "lat": 38.886327333333334, "name": "98a47dd709062592cee1c4671999c083", "fusion_lat": 0.0, "fusion_lon": 0.0, "rental_uris": {"android": "https://dc.lft.to/lastmile_qr_scan", "ios": "https://dc.lft.to/lastmile_qr_scan"}, "is_reserved": 0, "is_disabled": 0, "type": "electric_bike", "bike_id": "98a47dd709062592cee1c4671999c083"}, {"lon": -76.99036033333333, "lat": 38.85868833333333, "name": "2fe78414f2a3bf4885f554d40c3f1e53", "fusion_lat": 0.0, "fusion_lon": 0.0, "rental_uris": {"android": "https://dc.lft.to/lastmile_qr_scan", "ios": "https://dc.lft.to/lastmile_qr_scan"}, "is_reserved": 0, "is_disabled": 0, "type": "electric_scooter", "bike_id": "2fe78414f2a3bf4885f554d40c3f1e53"}, {"lon": -77.03203766666667, "lat": 38.9003675, "name": "7b499ba0e6bf3f7de1cb978e50fad308", "fusion_lat": 0.0, "fusion_lon": 0.0, "rental_uris": {"android": "https://dc.lft.to/lastmile_qr_scan", "ios": "https://dc.lft.to/lastmile_qr_scan"}, "is_reserved": 0, "is_disabled": 0, "type": "electric_scooter", "bike_id": "7b499ba0e6bf3f7de1cb978e50fad308"}, {"lon": -76.96507116666666, "lat": 38.8764665, "name": "876dc8935e282a8844715038eb6871ac", "fusion_lat": 0.0, "fusion_lon": 0.0, "rental_uris": {"android": "https://dc.lft.to/lastmile_qr_scan", "ios": "https://dc.lft.to/lastmile_qr_scan"}, "is_reserved": 0, "is_disabled": 0, "type": "electric_scooter", "bike_id": "876dc8935e282a8844715038eb6871ac"}, {"lon": -77.10926116666667, "lat": 39.0519855, "name": "4f0a20ea76fffd0f5c16a1ebe8cdc7c7", "fusion_lat": 0.0, "fusion_lon": 0.0, "rental_uris": {"android": "https://dc.lft.to/lastmile_qr_scan", "ios": "https://dc.lft.to/lastmile_qr_scan"}, "is_reserved": 0, "is_disabled": 0, "type": "electric_bike", "bike_id": "4f0a20ea76fffd0f5c16a1ebe8cdc7c7"}, {"lon": -77.02399633333333, "lat": 38.887395, "name": "6f96f2fa52249bb0f71cd7c3fef845f4", "fusion_lat": 0.0, "fusion_lon": 0.0, "rental_uris": {"android": "https://dc.lft.to/lastmile_qr_scan", "ios": "https://dc.lft.to/lastmile_qr_scan"}, "is_reserved": 0, "is_disabled": 0, "type": "electric_scooter", "bike_id": "6f96f2fa52249bb0f71cd7c3fef845f4"}, {"lon": -77.01819883333333, "lat": 38.908099, "name": "d94b7a3b605991d3027707e4d60b763c", "fusion_lat": 0.0, "fusion_lon": 0.0, "rental_uris": {"android": "https://dc.lft.to/lastmile_qr_scan", "ios": "https://dc.lft.to/lastmile_qr_scan"}, "is_reserved": 0, "is_disabled": 0, "type": "electric_scooter", "bike_id": "d94b7a3b605991d3027707e4d60b763c"}, {"lon": -77.04389833333333, "lat": 38.92273383333333, "name": "675b36e2543f96aef72396a08153c96a", "fusion_lat": 0.0, "fusion_lon": 0.0, "rental_uris": {"android": "https://dc.lft.to/lastmile_qr_scan", "ios": "https://dc.lft.to/lastmile_qr_scan"}, "is_reserved": 0, "is_disabled": 0, "type": "electric_scooter", "bike_id": "675b36e2543f96aef72396a08153c96a"}, {"lon": -77.02800433333333, "lat": 38.89826583333333, "name": "4d10e367d65e6004f70f775f9f0b4ded", "fusion_lat": 0.0, "fusion_lon": 0.0, "rental_uris": {"android": "https://dc.lft.to/lastmile_qr_scan", "ios": "https://dc.lft.to/lastmile_qr_scan"}, "is_reserved": 0, "is_disabled": 0, "type": "electric_scooter", "bike_id": "4d10e367d65e6004f70f775f9f0b4ded"}, {"lon": -77.010737, "lat": 38.871036333333336, "name": "08b93bc3883b12a00fde92fcbf851206", "fusion_lat": 0.0, "fusion_lon": 0.0, "rental_uris": {"android": "https://dc.lft.to/lastmile_qr_scan", "ios": "https://dc.lft.to/lastmile_qr_scan"}, "is_reserved": 0, "is_disabled": 0, "type": "electric_scooter", "bike_id": "08b93bc3883b12a00fde92fcbf851206"}, {"lon": -76.97185266666666, "lat": 38.91264066666667, "name": "72ea7a7eb48c42ed6bc1be65f65865b7", "fusion_lat": 0.0, "fusion_lon": 0.0, "rental_uris": {"android": "https://dc.lft.to/lastmile_qr_scan", "ios": "https://dc.lft.to/lastmile_qr_scan"}, "is_reserved": 0, "is_disabled": 0, "type": "electric_scooter", "bike_id": "72ea7a7eb48c42ed6bc1be65f65865b7"}, {"lon": -77.0326525, "lat": 38.934092166666666, "name": "d36162cf3847902963b8fda728aca492", "fusion_lat": 0.0, "fusion_lon": 0.0, "rental_uris": {"android": "https://dc.lft.to/lastmile_qr_scan", "ios": "https://dc.lft.to/lastmile_qr_scan"}, "is_reserved": 0, "is_disabled": 0, "type": "electric_scooter", "bike_id": "d36162cf3847902963b8fda728aca492"}, {"lon": -77.04662616666667, "lat": 38.893319, "name": "d535047cfc5168c87c4c6b28d62d3a9e", "fusion_lat": 0.0, "fusion_lon": 0.0, "rental_uris": {"android": "https://dc.lft.to/lastmile_qr_scan", "ios": "https://dc.lft.to/lastmile_qr_scan"}, "is_reserved": 0, "is_disabled": 0, "type": "electric_scooter", "bike_id": "d535047cfc5168c87c4c6b28d62d3a9e"}, {"lon": -76.93174966666666, "lat": 38.898831, "name": "e968f980659f3cd45f842b0fa4326eb4", "fusion_lat": 0.0, "fusion_lon": 0.0, "rental_uris": {"android": "https://dc.lft.to/lastmile_qr_scan", "ios": "https://dc.lft.to/lastmile_qr_scan"}, "is_reserved": 0, "is_disabled": 0, "type": "electric_scooter", "bike_id": "e968f980659f3cd45f842b0fa4326eb4"}, {"lon": -77.03254616666666, "lat": 38.904098, "name": "493720feaf506f5e1273fef1eee46fea", "fusion_lat": 0.0, "fusion_lon": 0.0, "rental_uris": {"android": "https://dc.lft.to/lastmile_qr_scan", "ios": "https://dc.lft.to/lastmile_qr_scan"}, "is_reserved": 0, "is_disabled": 0, "type": "electric_scooter", "bike_id": "493720feaf506f5e1273fef1eee46fea"}, {"lon": -77.01912733333333, "lat": 38.902476, "name": "ff9ed32f95553f910d4dcc423861693c", "fusion_lat": 0.0, "fusion_lon": 0.0, "rental_uris": {"android": "https://dc.lft.to/lastmile_qr_scan", "ios": "https://dc.lft.to/lastmile_qr_scan"}, "is_reserved": 0, "is_disabled": 0, "type": "electric_scooter", "bike_id": "ff9ed32f95553f910d4dcc423861693c"}, {"lon": -77.061193, "lat": 38.901983666666666, "name": "209807bc87946a2e49047451fcebd3d4", "fusion_lat": 0.0, "fusion_lon": 0.0, "rental_uris": {"android": "https://dc.lft.to/lastmile_qr_scan", "ios": "https://dc.lft.to/lastmile_qr_scan"}, "is_reserved": 0, "is_disabled": 0, "type": "electric_scooter", "bike_id": "209807bc87946a2e49047451fcebd3d4"}, {"lon": -77.00212483333334, "lat": 38.902217, "name": "11cad1f4a65967e363abfba617df5a65", "fusion_lat": 0.0, "fusion_lon": 0.0, "rental_uris": {"android": "https://dc.lft.to/lastmile_qr_scan", "ios": "https://dc.lft.to/lastmile_qr_scan"}, "is_reserved": 0, "is_disabled": 0, "type": "electric_scooter", "bike_id": "11cad1f4a65967e363abfba617df5a65"}, {"lon": -76.99503166666666, "lat": 38.8797355, "name": "fd09c8f401276e1f6445a2afa2f89d36", "fusion_lat": 0.0, "fusion_lon": 0.0, "rental_uris": {"android": "https://dc.lft.to/lastmile_qr_scan", "ios": "https://dc.lft.to/lastmile_qr_scan"}, "is_reserved": 0, "is_disabled": 0, "type": "electric_scooter", "bike_id": "fd09c8f401276e1f6445a2afa2f89d36"}, {"lon": -77.03167266666667, "lat": 38.88625483333333, "name": "42bb87a7adf036b584bb9df6f46ea0b8", "fusion_lat": 0.0, "fusion_lon": 0.0, "rental_uris": {"android": "https://dc.lft.to/lastmile_qr_scan", "ios": "https://dc.lft.to/lastmile_qr_scan"}, "is_reserved": 0, "is_disabled": 0, "type": "electric_scooter", "bike_id": "42bb87a7adf036b584bb9df6f46ea0b8"}, {"lon": -77.03322666666666, "lat": 38.89871816666667, "name": "bce0d99ba6dce3115425989ecd032acf", "fusion_lat": 0.0, "fusion_lon": 0.0, "rental_uris": {"android": "https://dc.lft.to/lastmile_qr_scan", "ios": "https://dc.lft.to/lastmile_qr_scan"}, "is_reserved": 0, "is_disabled": 0, "type": "electric_scooter", "bike_id": "bce0d99ba6dce3115425989ecd032acf"}, {"lon": -77.04374083333333, "lat": 38.89222433333333, "name": "9b4233de797cb06a74ca2b7a018b44ba", "fusion_lat": 0.0, "fusion_lon": 0.0, "rental_uris": {"android": "https://dc.lft.to/lastmile_qr_scan", "ios": "https://dc.lft.to/lastmile_qr_scan"}, "is_reserved": 0, "is_disabled": 0, "type": "electric_scooter", "bike_id": "9b4233de797cb06a74ca2b7a018b44ba"}, {"lon": -77.044019, "lat": 38.929526333333335, "name": "04a33c0bdba4cc0fdd721a94b2545a38", "fusion_lat": 0.0, "fusion_lon": 0.0, "rental_uris": {"android": "https://dc.lft.to/lastmile_qr_scan", "ios": "https://dc.lft.to/lastmile_qr_scan"}, "is_reserved": 0, "is_disabled": 0, "type": "electric_scooter", "bike_id": "04a33c0bdba4cc0fdd721a94b2545a38"}, {"lon": -77.03827383333334, "lat": 38.92061283333334, "name": "5c9442c3b7d38c548f7271f9a89bd462", "fusion_lat": 0.0, "fusion_lon": 0.0, "rental_uris": {"android": "https://dc.lft.to/lastmile_qr_scan", "ios": "https://dc.lft.to/lastmile_qr_scan"}, "is_reserved": 0, "is_disabled": 0, "type": "electric_scooter", "bike_id": "5c9442c3b7d38c548f7271f9a89bd462"}, {"lon": -77.02808816666666, "lat": 38.89421216666667, "name": "5826e56d7cfcddd151f32a079c45eb39", "fusion_lat": 0.0, "fusion_lon": 0.0, "rental_uris": {"android": "https://dc.lft.to/lastmile_qr_scan", "ios": "https://dc.lft.to/lastmile_qr_scan"}, "is_reserved": 0, "is_disabled": 0, "type": "electric_scooter", "bike_id": "5826e56d7cfcddd151f32a079c45eb39"}, {"lon": -77.055822, "lat": 38.92784066666667, "name": "3d820492ab5076ea6930d269395f0ec6", "fusion_lat": 0.0, "fusion_lon": 0.0, "rental_uris": {"android": "https://dc.lft.to/lastmile_qr_scan", "ios": "https://dc.lft.to/lastmile_qr_scan"}, "is_reserved": 0, "is_disabled": 0, "type": "electric_scooter", "bike_id": "3d820492ab5076ea6930d269395f0ec6"}, {"lon": -77.038692, "lat": 38.90275166666667, "name": "66771ef86d319dda1c26462a3dd158b6", "fusion_lat": 0.0, "fusion_lon": 0.0, "rental_uris": {"android": "https://dc.lft.to/lastmile_qr_scan", "ios": "https://dc.lft.to/lastmile_qr_scan"}, "is_reserved": 0, "is_disabled": 0, "type": "electric_scooter", "bike_id": "66771ef86d319dda1c26462a3dd158b6"}, {"lon": -77.09521416666666, "lat": 38.8381205, "name": "db8348abf31d47eef25a4f62c1b4f31a", "fusion_lat": 0.0, "fusion_lon": 0.0, "rental_uris": {"android": "https://dc.lft.to/lastmile_qr_scan", "ios": "https://dc.lft.to/lastmile_qr_scan"}, "is_reserved": 0, "is_disabled": 0, "type": "electric_bike", "bike_id": "db8348abf31d47eef25a4f62c1b4f31a"}, {"lon": -76.95816383333333, "lat": 38.89055483333333, "name": "b117e3e60b5c3f2e16cd8ff2f7107a49", "fusion_lat": 0.0, "fusion_lon": 0.0, "rental_uris": {"android": "https://dc.lft.to/lastmile_qr_scan", "ios": "https://dc.lft.to/lastmile_qr_scan"}, "is_reserved": 0, "is_disabled": 0, "type": "electric_scooter", "bike_id": "b117e3e60b5c3f2e16cd8ff2f7107a49"}, {"lon": -77.0272995, "lat": 38.9169705, "name": "991b446372d6bcc9608843ce94f2c63f", "fusion_lat": 0.0, "fusion_lon": 0.0, "rental_uris": {"android": "https://dc.lft.to/lastmile_qr_scan", "ios": "https://dc.lft.to/lastmile_qr_scan"}, "is_reserved": 0, "is_disabled": 0, "type": "electric_scooter", "bike_id": "991b446372d6bcc9608843ce94f2c63f"}, {"lon": -77.04684116666667, "lat": 38.92099, "name": "cc1c039db5b87dd21ec6ff0508b836b8", "fusion_lat": 0.0, "fusion_lon": 0.0, "rental_uris": {"android": "https://dc.lft.to/lastmile_qr_scan", "ios": "https://dc.lft.to/lastmile_qr_scan"}, "is_reserved": 0, "is_disabled": 0, "type": "electric_scooter", "bike_id": "cc1c039db5b87dd21ec6ff0508b836b8"}, {"lon": -77.0356365, "lat": 38.9181315, "name": "6e5fd80c513f934e62c6bf0a7a8272b3", "fusion_lat": 0.0, "fusion_lon": 0.0, "rental_uris": {"android": "https://dc.lft.to/lastmile_qr_scan", "ios": "https://dc.lft.to/lastmile_qr_scan"}, "is_reserved": 0, "is_disabled": 0, "type": "electric_scooter", "bike_id": "6e5fd80c513f934e62c6bf0a7a8272b3"}, {"lon": -77.03350833333333, "lat": 38.885017, "name": "c5f4e322d0b8e1f7d032bf584b3aca56", "fusion_lat": 0.0, "fusion_lon": 0.0, "rental_uris": {"android": "https://dc.lft.to/lastmile_qr_scan", "ios": "https://dc.lft.to/lastmile_qr_scan"}, "is_reserved": 0, "is_disabled": 0, "type": "electric_scooter", "bike_id": "c5f4e322d0b8e1f7d032bf584b3aca56"}, {"lon": -77.01021833333333, "lat": 38.918058333333335, "name": "dc23fd345260d971c921402fdc0de89d", "fusion_lat": 0.0, "fusion_lon": 0.0, "rental_uris": {"android": "https://dc.lft.to/lastmile_qr_scan", "ios": "https://dc.lft.to/lastmile_qr_scan"}, "is_reserved": 0, "is_disabled": 0, "type": "electric_scooter", "bike_id": "dc23fd345260d971c921402fdc0de89d"}, {"lon": -77.02912033333334, "lat": 38.900409333333336, "name": "4e77fcaf191bfbba3c67f6cff2118c88", "fusion_lat": 0.0, "fusion_lon": 0.0, "rental_uris": {"android": "https://dc.lft.to/lastmile_qr_scan", "ios": "https://dc.lft.to/lastmile_qr_scan"}, "is_reserved": 0, "is_disabled": 0, "type": "electric_scooter", "bike_id": "4e77fcaf191bfbba3c67f6cff2118c88"}, {"lon": -76.98994316666666, "lat": 38.9038815, "name": "7108fc6dad1622432abd4e508f88f54a", "fusion_lat": 0.0, "fusion_lon": 0.0, "rental_uris": {"android": "https://dc.lft.to/lastmile_qr_scan", "ios": "https://dc.lft.to/lastmile_qr_scan"}, "is_reserved": 0, "is_disabled": 0, "type": "electric_scooter", "bike_id": "7108fc6dad1622432abd4e508f88f54a"}, {"lon": -76.98444666666667, "lat": 38.89959783333333, "name": "2665ed4c58eb30498290ee793b445103", "fusion_lat": 0.0, "fusion_lon": 0.0, "rental_uris": {"android": "https://dc.lft.to/lastmile_qr_scan", "ios": "https://dc.lft.to/lastmile_qr_scan"}, "is_reserved": 0, "is_disabled": 0, "type": "electric_scooter", "bike_id": "2665ed4c58eb30498290ee793b445103"}, {"lon": -77.04162516666666, "lat": 38.91905216666667, "name": "86e684bc2fac1b6e96f9c0373dc8a7fe", "fusion_lat": 0.0, "fusion_lon": 0.0, "rental_uris": {"android": "https://dc.lft.to/lastmile_qr_scan", "ios": "https://dc.lft.to/lastmile_qr_scan"}, "is_reserved": 0, "is_disabled": 0, "type": "electric_scooter", "bike_id": "86e684bc2fac1b6e96f9c0373dc8a7fe"}, {"lon": -77.038556, "lat": 38.932019833333335, "name": "532ee09adfdd08931ede6e21feeb8105", "fusion_lat": 0.0, "fusion_lon": 0.0, "rental_uris": {"android": "https://dc.lft.to/lastmile_qr_scan", "ios": "https://dc.lft.to/lastmile_qr_scan"}, "is_reserved": 0, "is_disabled": 0, "type": "electric_scooter", "bike_id": "532ee09adfdd08931ede6e21feeb8105"}, {"lon": -77.03346916666666, "lat": 38.899495, "name": "9f024b4a3bbb4343785b3de96f8af889", "fusion_lat": 0.0, "fusion_lon": 0.0, "rental_uris": {"android": "https://dc.lft.to/lastmile_qr_scan", "ios": "https://dc.lft.to/lastmile_qr_scan"}, "is_reserved": 0, "is_disabled": 0, "type": "electric_scooter", "bike_id": "9f024b4a3bbb4343785b3de96f8af889"}, {"lon": -77.047213, "lat": 38.91873066666667, "name": "264767f766037d2bfcc26061ec8ea6c3", "fusion_lat": 0.0, "fusion_lon": 0.0, "rental_uris": {"android": "https://dc.lft.to/lastmile_qr_scan", "ios": "https://dc.lft.to/lastmile_qr_scan"}, "is_reserved": 0, "is_disabled": 0, "type": "electric_scooter", "bike_id": "264767f766037d2bfcc26061ec8ea6c3"}, {"lon": -77.1050755, "lat": 38.92849833333333, "name": "d7a6525bc73329064a4377ab7d10fe66", "fusion_lat": 0.0, "fusion_lon": 0.0, "rental_uris": {"android": "https://dc.lft.to/lastmile_qr_scan", "ios": "https://dc.lft.to/lastmile_qr_scan"}, "is_reserved": 0, "is_disabled": 0, "type": "electric_bike", "bike_id": "d7a6525bc73329064a4377ab7d10fe66"}, {"lon": -77.02761183333334, "lat": 38.94290866666667, "name": "33422553669c8014ba3bbecfe675a2d3", "fusion_lat": 0.0, "fusion_lon": 0.0, "rental_uris": {"android": "https://dc.lft.to/lastmile_qr_scan", "ios": "https://dc.lft.to/lastmile_qr_scan"}, "is_reserved": 0, "is_disabled": 0, "type": "electric_scooter", "bike_id": "33422553669c8014ba3bbecfe675a2d3"}, {"lon": -77.04326983333333, "lat": 38.9072755, "name": "0de178825de725c5bf78f8fe2aeea2c5", "fusion_lat": 0.0, "fusion_lon": 0.0, "rental_uris": {"android": "https://dc.lft.to/lastmile_qr_scan", "ios": "https://dc.lft.to/lastmile_qr_scan"}, "is_reserved": 0, "is_disabled": 0, "type": "electric_scooter", "bike_id": "0de178825de725c5bf78f8fe2aeea2c5"}, {"lon": -77.089439, "lat": 38.8410435, "name": "73eed70140005a81b730e3f508e407a8", "fusion_lat": 0.0, "fusion_lon": 0.0, "rental_uris": {"android": "https://dc.lft.to/lastmile_qr_scan", "ios": "https://dc.lft.to/lastmile_qr_scan"}, "is_reserved": 0, "is_disabled": 0, "type": "electric_bike", "bike_id": "73eed70140005a81b730e3f508e407a8"}, {"lon": -76.984139, "lat": 38.85976683333333, "name": "9eac9d8e53befbd6bd66971f1c5f6393", "fusion_lat": 0.0, "fusion_lon": 0.0, "rental_uris": {"android": "https://dc.lft.to/lastmile_qr_scan", "ios": "https://dc.lft.to/lastmile_qr_scan"}, "is_reserved": 0, "is_disabled": 0, "type": "electric_scooter", "bike_id": "9eac9d8e53befbd6bd66971f1c5f6393"}, {"lon": -77.05525333333334, "lat": 38.89933333333333, "name": "4ed78098cc9fb141a7856af7d4c66112", "fusion_lat": 0.0, "fusion_lon": 0.0, "rental_uris": {"android": "https://dc.lft.to/lastmile_qr_scan", "ios": "https://dc.lft.to/lastmile_qr_scan"}, "is_reserved": 0, "is_disabled": 0, "type": "electric_scooter", "bike_id": "4ed78098cc9fb141a7856af7d4c66112"}, {"lon": -77.02214083333334, "lat": 38.88769416666667, "name": "332345975005b22d1f2ae02f820d4db3", "fusion_lat": 0.0, "fusion_lon": 0.0, "rental_uris": {"android": "https://dc.lft.to/lastmile_qr_scan", "ios": "https://dc.lft.to/lastmile_qr_scan"}, "is_reserved": 0, "is_disabled": 0, "type": "electric_scooter", "bike_id": "332345975005b22d1f2ae02f820d4db3"}, {"lon": -77.11048633333333, "lat": 38.870141833333335, "name": "14bc007fb2b61251631411efc56affcd", "fusion_lat": 0.0, "fusion_lon": 0.0, "rental_uris": {"android": "https://dc.lft.to/lastmile_qr_scan", "ios": "https://dc.lft.to/lastmile_qr_scan"}, "is_reserved": 0, "is_disabled": 0, "type": "electric_bike", "bike_id": "14bc007fb2b61251631411efc56affcd"}, {"lon": -77.011977, "lat": 38.90028, "name": "64562f65479c3866c9da5539ae98905f", "fusion_lat": 0.0, "fusion_lon": 0.0, "rental_uris": {"android": "https://dc.lft.to/lastmile_qr_scan", "ios": "https://dc.lft.to/lastmile_qr_scan"}, "is_reserved": 0, "is_disabled": 0, "type": "electric_scooter", "bike_id": "64562f65479c3866c9da5539ae98905f"}, {"lon": -76.99599166666667, "lat": 38.88860783333333, "name": "2ef54bb31a8aca60fe7fd327e7850333", "fusion_lat": 0.0, "fusion_lon": 0.0, "rental_uris": {"android": "https://dc.lft.to/lastmile_qr_scan", "ios": "https://dc.lft.to/lastmile_qr_scan"}, "is_reserved": 0, "is_disabled": 0, "type": "electric_scooter", "bike_id": "2ef54bb31a8aca60fe7fd327e7850333"}, {"lon": -77.01390666666667, "lat": 38.90057016666667, "name": "a2af3527a8e3b42f83b0f4877d564153", "fusion_lat": 0.0, "fusion_lon": 0.0, "rental_uris": {"android": "https://dc.lft.to/lastmile_qr_scan", "ios": "https://dc.lft.to/lastmile_qr_scan"}, "is_reserved": 0, "is_disabled": 0, "type": "electric_bike", "bike_id": "a2af3527a8e3b42f83b0f4877d564153"}, {"lon": -77.02694683333333, "lat": 38.906997833333335, "name": "63d56a859eda69d21a6dcbc755900572", "fusion_lat": 0.0, "fusion_lon": 0.0, "rental_uris": {"android": "https://dc.lft.to/lastmile_qr_scan", "ios": "https://dc.lft.to/lastmile_qr_scan"}, "is_reserved": 0, "is_disabled": 0, "type": "electric_scooter", "bike_id": "63d56a859eda69d21a6dcbc755900572"}, {"lon": -77.03089133333333, "lat": 38.9004435, "name": "985a3620dd5a366d5f0fa4e638474173", "fusion_lat": 0.0, "fusion_lon": 0.0, "rental_uris": {"android": "https://dc.lft.to/lastmile_qr_scan", "ios": "https://dc.lft.to/lastmile_qr_scan"}, "is_reserved": 0, "is_disabled": 0, "type": "electric_scooter", "bike_id": "985a3620dd5a366d5f0fa4e638474173"}, {"lon": -77.04514666666667, "lat": 38.907866, "name": "b8b165a1ba30e9b3bcd130eb3a978675", "fusion_lat": 0.0, "fusion_lon": 0.0, "rental_uris": {"android": "https://dc.lft.to/lastmile_qr_scan", "ios": "https://dc.lft.to/lastmile_qr_scan"}, "is_reserved": 0, "is_disabled": 0, "type": "electric_scooter", "bike_id": "b8b165a1ba30e9b3bcd130eb3a978675"}, {"lon": -77.03894116666666, "lat": 38.917075833333335, "name": "690a3696003cfec80fbcac8807b3ccb2", "fusion_lat": 0.0, "fusion_lon": 0.0, "rental_uris": {"android": "https://dc.lft.to/lastmile_qr_scan", "ios": "https://dc.lft.to/lastmile_qr_scan"}, "is_reserved": 0, "is_disabled": 0, "type": "electric_scooter", "bike_id": "690a3696003cfec80fbcac8807b3ccb2"}, {"lon": -77.04742583333334, "lat": 38.905170166666664, "name": "ee62401783fffe27e0c1850352816922", "fusion_lat": 0.0, "fusion_lon": 0.0, "rental_uris": {"android": "https://dc.lft.to/lastmile_qr_scan", "ios": "https://dc.lft.to/lastmile_qr_scan"}, "is_reserved": 0, "is_disabled": 0, "type": "electric_scooter", "bike_id": "ee62401783fffe27e0c1850352816922"}, {"lon": -77.00564083333333, "lat": 38.907093, "name": "e41b04ad8a037d95de3133726a479d8c", "fusion_lat": 0.0, "fusion_lon": 0.0, "rental_uris": {"android": "https://dc.lft.to/lastmile_qr_scan", "ios": "https://dc.lft.to/lastmile_qr_scan"}, "is_reserved": 0, "is_disabled": 0, "type": "electric_scooter", "bike_id": "e41b04ad8a037d95de3133726a479d8c"}, {"lon": -77.02140666666666, "lat": 38.92485283333333, "name": "b50016037e2040026a62757cefd381c7", "fusion_lat": 0.0, "fusion_lon": 0.0, "rental_uris": {"android": "https://dc.lft.to/lastmile_qr_scan", "ios": "https://dc.lft.to/lastmile_qr_scan"}, "is_reserved": 0, "is_disabled": 0, "type": "electric_scooter", "bike_id": "b50016037e2040026a62757cefd381c7"}, {"lon": -77.10028433333333, "lat": 38.99063116666667, "name": "bcc1f6ec4dcde321aae697055640b596", "fusion_lat": 0.0, "fusion_lon": 0.0, "rental_uris": {"android": "https://dc.lft.to/lastmile_qr_scan", "ios": "https://dc.lft.to/lastmile_qr_scan"}, "is_reserved": 0, "is_disabled": 0, "type": "electric_bike", "bike_id": "bcc1f6ec4dcde321aae697055640b596"}, {"lon": -76.97000216666666, "lat": 38.89761566666667, "name": "3afd2d05eb71c09faa3135ccdc46a9d9", "fusion_lat": 0.0, "fusion_lon": 0.0, "rental_uris": {"android": "https://dc.lft.to/lastmile_qr_scan", "ios": "https://dc.lft.to/lastmile_qr_scan"}, "is_reserved": 0, "is_disabled": 0, "type": "electric_scooter", "bike_id": "3afd2d05eb71c09faa3135ccdc46a9d9"}, {"lon": -77.04093433333334, "lat": 38.9125745, "name": "15ee3d5c275c1d5b5a2649400e66bb1a", "fusion_lat": 0.0, "fusion_lon": 0.0, "rental_uris": {"android": "https://dc.lft.to/lastmile_qr_scan", "ios": "https://dc.lft.to/lastmile_qr_scan"}, "is_reserved": 0, "is_disabled": 0, "type": "electric_scooter", "bike_id": "15ee3d5c275c1d5b5a2649400e66bb1a"}, {"lon": -77.03430833333333, "lat": 38.91925616666666, "name": "c82c534f4e42ce8c420c140c53e11b33", "fusion_lat": 0.0, "fusion_lon": 0.0, "rental_uris": {"android": "https://dc.lft.to/lastmile_qr_scan", "ios": "https://dc.lft.to/lastmile_qr_scan"}, "is_reserved": 0, "is_disabled": 0, "type": "electric_scooter", "bike_id": "c82c534f4e42ce8c420c140c53e11b33"}, {"lon": -77.04902066666666, "lat": 38.874923333333335, "name": "25b1fe637e85438709eaaf2267c5adb1", "fusion_lat": 0.0, "fusion_lon": 0.0, "rental_uris": {"android": "https://dc.lft.to/lastmile_qr_scan", "ios": "https://dc.lft.to/lastmile_qr_scan"}, "is_reserved": 0, "is_disabled": 0, "type": "electric_bike", "bike_id": "25b1fe637e85438709eaaf2267c5adb1"}, {"lon": -77.02481266666666, "lat": 38.938728166666664, "name": "5293fe60d4f91e73d631c51a4afac7cc", "fusion_lat": 0.0, "fusion_lon": 0.0, "rental_uris": {"android": "https://dc.lft.to/lastmile_qr_scan", "ios": "https://dc.lft.to/lastmile_qr_scan"}, "is_reserved": 0, "is_disabled": 0, "type": "electric_scooter", "bike_id": "5293fe60d4f91e73d631c51a4afac7cc"}, {"lon": -77.03548416666666, "lat": 38.92326683333334, "name": "c51a6f2643d795b4c73701c3bc0df764", "fusion_lat": 0.0, "fusion_lon": 0.0, "rental_uris": {"android": "https://dc.lft.to/lastmile_qr_scan", "ios": "https://dc.lft.to/lastmile_qr_scan"}, "is_reserved": 0, "is_disabled": 0, "type": "electric_scooter", "bike_id": "c51a6f2643d795b4c73701c3bc0df764"}, {"lon": -76.94652366666666, "lat": 38.8982615, "name": "0105e85208b4166115202eb4287806ff", "fusion_lat": 0.0, "fusion_lon": 0.0, "rental_uris": {"android": "https://dc.lft.to/lastmile_qr_scan", "ios": "https://dc.lft.to/lastmile_qr_scan"}, "is_reserved": 0, "is_disabled": 0, "type": "electric_scooter", "bike_id": "0105e85208b4166115202eb4287806ff"}, {"lon": -77.0500395, "lat": 38.90132366666667, "name": "f347872345980d7daf20cf7e2c356a6b", "fusion_lat": 0.0, "fusion_lon": 0.0, "rental_uris": {"android": "https://dc.lft.to/lastmile_qr_scan", "ios": "https://dc.lft.to/lastmile_qr_scan"}, "is_reserved": 0, "is_disabled": 0, "type": "electric_scooter", "bike_id": "f347872345980d7daf20cf7e2c356a6b"}, {"lon": -77.03704983333333, "lat": 38.927719333333336, "name": "29c2771a34a58f3c1d9e6a44d3b167b9", "fusion_lat": 0.0, "fusion_lon": 0.0, "rental_uris": {"android": "https://dc.lft.to/lastmile_qr_scan", "ios": "https://dc.lft.to/lastmile_qr_scan"}, "is_reserved": 0, "is_disabled": 0, "type": "electric_scooter", "bike_id": "29c2771a34a58f3c1d9e6a44d3b167b9"}, {"lon": -76.98572316666667, "lat": 38.89877666666667, "name": "a45511e711949d2a9668379956b4223a", "fusion_lat": 0.0, "fusion_lon": 0.0, "rental_uris": {"android": "https://dc.lft.to/lastmile_qr_scan", "ios": "https://dc.lft.to/lastmile_qr_scan"}, "is_reserved": 0, "is_disabled": 0, "type": "electric_scooter", "bike_id": "a45511e711949d2a9668379956b4223a"}, {"lon": -77.010012, "lat": 38.90691233333333, "name": "900d31112fbe74d6d4cd28f05664e0c1", "fusion_lat": 0.0, "fusion_lon": 0.0, "rental_uris": {"android": "https://dc.lft.to/lastmile_qr_scan", "ios": "https://dc.lft.to/lastmile_qr_scan"}, "is_reserved": 0, "is_disabled": 0, "type": "electric_scooter", "bike_id": "900d31112fbe74d6d4cd28f05664e0c1"}, {"lon": -77.00014683333333, "lat": 38.8736985, "name": "db794df453abeb8ea5f1d976141b4000", "fusion_lat": 0.0, "fusion_lon": 0.0, "rental_uris": {"android": "https://dc.lft.to/lastmile_qr_scan", "ios": "https://dc.lft.to/lastmile_qr_scan"}, "is_reserved": 0, "is_disabled": 0, "type": "electric_scooter", "bike_id": "db794df453abeb8ea5f1d976141b4000"}, {"lon": -77.02423866666666, "lat": 38.89216566666666, "name": "0d620c1ba518e6fb8ac43e912a967c24", "fusion_lat": 0.0, "fusion_lon": 0.0, "rental_uris": {"android": "https://dc.lft.to/lastmile_qr_scan", "ios": "https://dc.lft.to/lastmile_qr_scan"}, "is_reserved": 0, "is_disabled": 0, "type": "electric_scooter", "bike_id": "0d620c1ba518e6fb8ac43e912a967c24"}, {"lon": -77.03282566666667, "lat": 38.93756483333333, "name": "8c52ddd10b43f72fc2e3fa03d2a616e3", "fusion_lat": 0.0, "fusion_lon": 0.0, "rental_uris": {"android": "https://dc.lft.to/lastmile_qr_scan", "ios": "https://dc.lft.to/lastmile_qr_scan"}, "is_reserved": 0, "is_disabled": 0, "type": "electric_scooter", "bike_id": "8c52ddd10b43f72fc2e3fa03d2a616e3"}, {"lon": -77.018135, "lat": 38.91190733333333, "name": "67e16f3956ec1e0a36fc5bd57d1d6cc5", "fusion_lat": 0.0, "fusion_lon": 0.0, "rental_uris": {"android": "https://dc.lft.to/lastmile_qr_scan", "ios": "https://dc.lft.to/lastmile_qr_scan"}, "is_reserved": 0, "is_disabled": 0, "type": "electric_scooter", "bike_id": "67e16f3956ec1e0a36fc5bd57d1d6cc5"}, {"lon": -77.04433816666666, "lat": 38.932751833333334, "name": "5c7e80b8d13b02b895a9bfcda2cfbe06", "fusion_lat": 0.0, "fusion_lon": 0.0, "rental_uris": {"android": "https://dc.lft.to/lastmile_qr_scan", "ios": "https://dc.lft.to/lastmile_qr_scan"}, "is_reserved": 0, "is_disabled": 0, "type": "electric_scooter", "bike_id": "5c7e80b8d13b02b895a9bfcda2cfbe06"}, {"lon": -77.04187083333333, "lat": 38.92046783333333, "name": "3a7f4f9e898040f6ed39d093d397c331", "fusion_lat": 0.0, "fusion_lon": 0.0, "rental_uris": {"android": "https://dc.lft.to/lastmile_qr_scan", "ios": "https://dc.lft.to/lastmile_qr_scan"}, "is_reserved": 0, "is_disabled": 0, "type": "electric_scooter", "bike_id": "3a7f4f9e898040f6ed39d093d397c331"}, {"lon": -77.0320135, "lat": 38.89353333333333, "name": "0821b339d49befe4a615679ed85ae1ab", "fusion_lat": 0.0, "fusion_lon": 0.0, "rental_uris": {"android": "https://dc.lft.to/lastmile_qr_scan", "ios": "https://dc.lft.to/lastmile_qr_scan"}, "is_reserved": 0, "is_disabled": 0, "type": "electric_scooter", "bike_id": "0821b339d49befe4a615679ed85ae1ab"}, {"lon": -77.025912, "lat": 38.920325, "name": "afdca8d817b6cb07375196fe70820fb9", "fusion_lat": 0.0, "fusion_lon": 0.0, "rental_uris": {"android": "https://dc.lft.to/lastmile_qr_scan", "ios": "https://dc.lft.to/lastmile_qr_scan"}, "is_reserved": 0, "is_disabled": 0, "type": "electric_scooter", "bike_id": "afdca8d817b6cb07375196fe70820fb9"}, {"lon": -76.97030966666667, "lat": 38.90310516666667, "name": "7c83266e261c57cd6cb94e5e5d6ed510", "fusion_lat": 0.0, "fusion_lon": 0.0, "rental_uris": {"android": "https://dc.lft.to/lastmile_qr_scan", "ios": "https://dc.lft.to/lastmile_qr_scan"}, "is_reserved": 0, "is_disabled": 0, "type": "electric_scooter", "bike_id": "7c83266e261c57cd6cb94e5e5d6ed510"}, {"lon": -77.0398835, "lat": 38.802931, "name": "ecb73dee1dd5350c056bf18a8611dd85", "fusion_lat": 0.0, "fusion_lon": 0.0, "rental_uris": {"android": "https://dc.lft.to/lastmile_qr_scan", "ios": "https://dc.lft.to/lastmile_qr_scan"}, "is_reserved": 0, "is_disabled": 0, "type": "electric_bike", "bike_id": "ecb73dee1dd5350c056bf18a8611dd85"}, {"lon": -77.02712566666666, "lat": 38.90116666666667, "name": "dd7819df438acb8789879c88b6731606", "fusion_lat": 0.0, "fusion_lon": 0.0, "rental_uris": {"android": "https://dc.lft.to/lastmile_qr_scan", "ios": "https://dc.lft.to/lastmile_qr_scan"}, "is_reserved": 0, "is_disabled": 0, "type": "electric_scooter", "bike_id": "dd7819df438acb8789879c88b6731606"}, {"lon": -77.02708266666667, "lat": 38.90670983333333, "name": "01194b9885c1b94f26861f635d905c93", "fusion_lat": 0.0, "fusion_lon": 0.0, "rental_uris": {"android": "https://dc.lft.to/lastmile_qr_scan", "ios": "https://dc.lft.to/lastmile_qr_scan"}, "is_reserved": 0, "is_disabled": 0, "type": "electric_scooter", "bike_id": "01194b9885c1b94f26861f635d905c93"}, {"lon": -77.03245166666666, "lat": 38.93452516666667, "name": "05cd95d2b69cda1a96e34c63802462f0", "fusion_lat": 0.0, "fusion_lon": 0.0, "rental_uris": {"android": "https://dc.lft.to/lastmile_qr_scan", "ios": "https://dc.lft.to/lastmile_qr_scan"}, "is_reserved": 0, "is_disabled": 0, "type": "electric_scooter", "bike_id": "05cd95d2b69cda1a96e34c63802462f0"}, {"lon": -77.02572983333333, "lat": 38.88744666666667, "name": "ab8a6c366b4e82d5c2dfdfd10ea02658", "fusion_lat": 0.0, "fusion_lon": 0.0, "rental_uris": {"android": "https://dc.lft.to/lastmile_qr_scan", "ios": "https://dc.lft.to/lastmile_qr_scan"}, "is_reserved": 0, "is_disabled": 0, "type": "electric_scooter", "bike_id": "ab8a6c366b4e82d5c2dfdfd10ea02658"}, {"lon": -77.03267616666666, "lat": 38.929328, "name": "4d11795a2ead853bd9f3aa54d45ef266", "fusion_lat": 0.0, "fusion_lon": 0.0, "rental_uris": {"android": "https://dc.lft.to/lastmile_qr_scan", "ios": "https://dc.lft.to/lastmile_qr_scan"}, "is_reserved": 0, "is_disabled": 0, "type": "electric_scooter", "bike_id": "4d11795a2ead853bd9f3aa54d45ef266"}, {"lon": -76.99512966666667, "lat": 38.844711, "name": "b1dbf42ee02ac55953dfb7b83c36fe18", "fusion_lat": 0.0, "fusion_lon": 0.0, "rental_uris": {"android": "https://dc.lft.to/lastmile_qr_scan", "ios": "https://dc.lft.to/lastmile_qr_scan"}, "is_reserved": 0, "is_disabled": 0, "type": "electric_scooter", "bike_id": "b1dbf42ee02ac55953dfb7b83c36fe18"}, {"lon": -76.99902916666667, "lat": 38.90951466666667, "name": "0f67317b6ae71977bb753b03993c52d5", "fusion_lat": 0.0, "fusion_lon": 0.0, "rental_uris": {"android": "https://dc.lft.to/lastmile_qr_scan", "ios": "https://dc.lft.to/lastmile_qr_scan"}, "is_reserved": 0, "is_disabled": 0, "type": "electric_scooter", "bike_id": "0f67317b6ae71977bb753b03993c52d5"}, {"lon": -77.01186766666666, "lat": 38.90026433333333, "name": "db9be949ab4d36b68a123e945830cf86", "fusion_lat": 0.0, "fusion_lon": 0.0, "rental_uris": {"android": "https://dc.lft.to/lastmile_qr_scan", "ios": "https://dc.lft.to/lastmile_qr_scan"}, "is_reserved": 0, "is_disabled": 0, "type": "electric_scooter", "bike_id": "db9be949ab4d36b68a123e945830cf86"}, {"lon": -76.98231033333333, "lat": 38.86681566666667, "name": "a26333efb17dba89c54251f99d1004b3", "fusion_lat": 0.0, "fusion_lon": 0.0, "rental_uris": {"android": "https://dc.lft.to/lastmile_qr_scan", "ios": "https://dc.lft.to/lastmile_qr_scan"}, "is_reserved": 0, "is_disabled": 0, "type": "electric_bike", "bike_id": "a26333efb17dba89c54251f99d1004b3"}, {"lon": -77.02391016666667, "lat": 38.9085465, "name": "5d2dc33391433d81181c7d9706c12159", "fusion_lat": 0.0, "fusion_lon": 0.0, "rental_uris": {"android": "https://dc.lft.to/lastmile_qr_scan", "ios": "https://dc.lft.to/lastmile_qr_scan"}, "is_reserved": 0, "is_disabled": 0, "type": "electric_scooter", "bike_id": "5d2dc33391433d81181c7d9706c12159"}, {"lon": -77.0281435, "lat": 38.90930216666667, "name": "355fe1d62eab5a683fffc9d9056ef33d", "fusion_lat": 0.0, "fusion_lon": 0.0, "rental_uris": {"android": "https://dc.lft.to/lastmile_qr_scan", "ios": "https://dc.lft.to/lastmile_qr_scan"}, "is_reserved": 0, "is_disabled": 0, "type": "electric_scooter", "bike_id": "355fe1d62eab5a683fffc9d9056ef33d"}, {"lon": -77.02745416666667, "lat": 38.966306, "name": "15b72456272b67514b86b58563af6fc6", "fusion_lat": 0.0, "fusion_lon": 0.0, "rental_uris": {"android": "https://dc.lft.to/lastmile_qr_scan", "ios": "https://dc.lft.to/lastmile_qr_scan"}, "is_reserved": 0, "is_disabled": 0, "type": "electric_scooter", "bike_id": "15b72456272b67514b86b58563af6fc6"}, {"lon": -77.0318005, "lat": 38.919223333333335, "name": "f7b84a57dc132444adceef06534fc727", "fusion_lat": 0.0, "fusion_lon": 0.0, "rental_uris": {"android": "https://dc.lft.to/lastmile_qr_scan", "ios": "https://dc.lft.to/lastmile_qr_scan"}, "is_reserved": 0, "is_disabled": 0, "type": "electric_scooter", "bike_id": "f7b84a57dc132444adceef06534fc727"}, {"lon": -76.99014666666666, "lat": 38.86113133333333, "name": "b9e959d6e31b406ec5ad9cf2a41b24df", "fusion_lat": 0.0, "fusion_lon": 0.0, "rental_uris": {"android": "https://dc.lft.to/lastmile_qr_scan", "ios": "https://dc.lft.to/lastmile_qr_scan"}, "is_reserved": 0, "is_disabled": 0, "type": "electric_scooter", "bike_id": "b9e959d6e31b406ec5ad9cf2a41b24df"}, {"lon": -77.03639483333333, "lat": 38.924096666666664, "name": "8913308c0df7c52f2050baca95d71f55", "fusion_lat": 0.0, "fusion_lon": 0.0, "rental_uris": {"android": "https://dc.lft.to/lastmile_qr_scan", "ios": "https://dc.lft.to/lastmile_qr_scan"}, "is_reserved": 0, "is_disabled": 0, "type": "electric_scooter", "bike_id": "8913308c0df7c52f2050baca95d71f55"}, {"lon": -77.02170416666667, "lat": 38.88745216666667, "name": "9c8e5f5aed36c0049493ccbd9621c0e5", "fusion_lat": 0.0, "fusion_lon": 0.0, "rental_uris": {"android": "https://dc.lft.to/lastmile_qr_scan", "ios": "https://dc.lft.to/lastmile_qr_scan"}, "is_reserved": 0, "is_disabled": 0, "type": "electric_scooter", "bike_id": "9c8e5f5aed36c0049493ccbd9621c0e5"}, {"lon": -76.94891566666666, "lat": 38.895255166666665, "name": "85fd9eb957d0ff3e5aef77b51a902cd3", "fusion_lat": 0.0, "fusion_lon": 0.0, "rental_uris": {"android": "https://dc.lft.to/lastmile_qr_scan", "ios": "https://dc.lft.to/lastmile_qr_scan"}, "is_reserved": 0, "is_disabled": 0, "type": "electric_scooter", "bike_id": "85fd9eb957d0ff3e5aef77b51a902cd3"}, {"lon": -76.99630383333333, "lat": 38.84623666666667, "name": "179b8a89954ca6d5fff651539031b871", "fusion_lat": 0.0, "fusion_lon": 0.0, "rental_uris": {"android": "https://dc.lft.to/lastmile_qr_scan", "ios": "https://dc.lft.to/lastmile_qr_scan"}, "is_reserved": 0, "is_disabled": 0, "type": "electric_scooter", "bike_id": "179b8a89954ca6d5fff651539031b871"}, {"lon": -76.99867583333334, "lat": 38.900185, "name": "a95aaf4ba93b69174f715ab042e44953", "fusion_lat": 0.0, "fusion_lon": 0.0, "rental_uris": {"android": "https://dc.lft.to/lastmile_qr_scan", "ios": "https://dc.lft.to/lastmile_qr_scan"}, "is_reserved": 0, "is_disabled": 0, "type": "electric_scooter", "bike_id": "a95aaf4ba93b69174f715ab042e44953"}, {"lon": -77.0256285, "lat": 38.9385555, "name": "f126d4004dce8328c10231720fbbf367", "fusion_lat": 0.0, "fusion_lon": 0.0, "rental_uris": {"android": "https://dc.lft.to/lastmile_qr_scan", "ios": "https://dc.lft.to/lastmile_qr_scan"}, "is_reserved": 0, "is_disabled": 0, "type": "electric_scooter", "bike_id": "f126d4004dce8328c10231720fbbf367"}, {"lon": -77.04163216666667, "lat": 38.91906766666666, "name": "2203738c85e4c69f1365acd1d22f66da", "fusion_lat": 0.0, "fusion_lon": 0.0, "rental_uris": {"android": "https://dc.lft.to/lastmile_qr_scan", "ios": "https://dc.lft.to/lastmile_qr_scan"}, "is_reserved": 0, "is_disabled": 0, "type": "electric_scooter", "bike_id": "2203738c85e4c69f1365acd1d22f66da"}, {"lon": -77.00050066666667, "lat": 38.90364983333333, "name": "1e152fe867d5316c44c605aa138daa72", "fusion_lat": 0.0, "fusion_lon": 0.0, "rental_uris": {"android": "https://dc.lft.to/lastmile_qr_scan", "ios": "https://dc.lft.to/lastmile_qr_scan"}, "is_reserved": 0, "is_disabled": 0, "type": "electric_scooter", "bike_id": "1e152fe867d5316c44c605aa138daa72"}, {"lon": -77.02150283333333, "lat": 38.894049333333335, "name": "41be8bf97b80a936794794b466658ebc", "fusion_lat": 0.0, "fusion_lon": 0.0, "rental_uris": {"android": "https://dc.lft.to/lastmile_qr_scan", "ios": "https://dc.lft.to/lastmile_qr_scan"}, "is_reserved": 0, "is_disabled": 0, "type": "electric_scooter", "bike_id": "41be8bf97b80a936794794b466658ebc"}, {"lon": -77.0248105, "lat": 38.938797, "name": "6f821b8a771fcb7cd4db80060b806b6b", "fusion_lat": 0.0, "fusion_lon": 0.0, "rental_uris": {"android": "https://dc.lft.to/lastmile_qr_scan", "ios": "https://dc.lft.to/lastmile_qr_scan"}, "is_reserved": 0, "is_disabled": 0, "type": "electric_scooter", "bike_id": "6f821b8a771fcb7cd4db80060b806b6b"}, {"lon": -77.028112, "lat": 38.88179433333333, "name": "023fefcaf913fa337ee1931c75c52454", "fusion_lat": 0.0, "fusion_lon": 0.0, "rental_uris": {"android": "https://dc.lft.to/lastmile_qr_scan", "ios": "https://dc.lft.to/lastmile_qr_scan"}, "is_reserved": 0, "is_disabled": 0, "type": "electric_scooter", "bike_id": "023fefcaf913fa337ee1931c75c52454"}, {"lon": -77.03455316666667, "lat": 38.905711, "name": "ae8451c2fcde1097f5ab47ee43b8f308", "fusion_lat": 0.0, "fusion_lon": 0.0, "rental_uris": {"android": "https://dc.lft.to/lastmile_qr_scan", "ios": "https://dc.lft.to/lastmile_qr_scan"}, "is_reserved": 0, "is_disabled": 0, "type": "electric_scooter", "bike_id": "ae8451c2fcde1097f5ab47ee43b8f308"}, {"lon": -77.03408333333333, "lat": 38.922763833333335, "name": "b0f620b323d537365fb3f40bc7e1296d", "fusion_lat": 0.0, "fusion_lon": 0.0, "rental_uris": {"android": "https://dc.lft.to/lastmile_qr_scan", "ios": "https://dc.lft.to/lastmile_qr_scan"}, "is_reserved": 0, "is_disabled": 0, "type": "electric_scooter", "bike_id": "b0f620b323d537365fb3f40bc7e1296d"}, {"lon": -77.0461365, "lat": 38.92227666666667, "name": "6f4859650f35473b134503a8c924112c", "fusion_lat": 0.0, "fusion_lon": 0.0, "rental_uris": {"android": "https://dc.lft.to/lastmile_qr_scan", "ios": "https://dc.lft.to/lastmile_qr_scan"}, "is_reserved": 0, "is_disabled": 0, "type": "electric_scooter", "bike_id": "6f4859650f35473b134503a8c924112c"}, {"lon": -76.99159366666666, "lat": 38.895483666666664, "name": "6ab418f58b4c07b52d040e152898e9f8", "fusion_lat": 0.0, "fusion_lon": 0.0, "rental_uris": {"android": "https://dc.lft.to/lastmile_qr_scan", "ios": "https://dc.lft.to/lastmile_qr_scan"}, "is_reserved": 0, "is_disabled": 0, "type": "electric_scooter", "bike_id": "6ab418f58b4c07b52d040e152898e9f8"}, {"lon": -77.06760933333334, "lat": 38.903758333333336, "name": "ad6fdb88feb522d7d7cac7db2ec002c3", "fusion_lat": 0.0, "fusion_lon": 0.0, "rental_uris": {"android": "https://dc.lft.to/lastmile_qr_scan", "ios": "https://dc.lft.to/lastmile_qr_scan"}, "is_reserved": 0, "is_disabled": 0, "type": "electric_scooter", "bike_id": "ad6fdb88feb522d7d7cac7db2ec002c3"}, {"lon": -77.02023166666666, "lat": 38.924404, "name": "a7205be34a2e3245336b02869ad29cc4", "fusion_lat": 0.0, "fusion_lon": 0.0, "rental_uris": {"android": "https://dc.lft.to/lastmile_qr_scan", "ios": "https://dc.lft.to/lastmile_qr_scan"}, "is_reserved": 0, "is_disabled": 0, "type": "electric_scooter", "bike_id": "a7205be34a2e3245336b02869ad29cc4"}, {"lon": -77.0585125, "lat": 38.93425166666667, "name": "41193a74f1875d43d33a335a330070e1", "fusion_lat": 0.0, "fusion_lon": 0.0, "rental_uris": {"android": "https://dc.lft.to/lastmile_qr_scan", "ios": "https://dc.lft.to/lastmile_qr_scan"}, "is_reserved": 0, "is_disabled": 0, "type": "electric_scooter", "bike_id": "41193a74f1875d43d33a335a330070e1"}, {"lon": -77.03444566666667, "lat": 38.908146, "name": "af519f6c50c7ea9dcd1fb085a4c94195", "fusion_lat": 0.0, "fusion_lon": 0.0, "rental_uris": {"android": "https://dc.lft.to/lastmile_qr_scan", "ios": "https://dc.lft.to/lastmile_qr_scan"}, "is_reserved": 0, "is_disabled": 0, "type": "electric_scooter", "bike_id": "af519f6c50c7ea9dcd1fb085a4c94195"}, {"lon": -77.0304355, "lat": 38.88433583333333, "name": "46065d952bc376e4dbd30c1830111893", "fusion_lat": 0.0, "fusion_lon": 0.0, "rental_uris": {"android": "https://dc.lft.to/lastmile_qr_scan", "ios": "https://dc.lft.to/lastmile_qr_scan"}, "is_reserved": 0, "is_disabled": 0, "type": "electric_scooter", "bike_id": "46065d952bc376e4dbd30c1830111893"}, {"lon": -77.03203883333333, "lat": 38.91235566666667, "name": "2a55f96fb4e1329815487cf1e240cdd5", "fusion_lat": 0.0, "fusion_lon": 0.0, "rental_uris": {"android": "https://dc.lft.to/lastmile_qr_scan", "ios": "https://dc.lft.to/lastmile_qr_scan"}, "is_reserved": 0, "is_disabled": 0, "type": "electric_scooter", "bike_id": "2a55f96fb4e1329815487cf1e240cdd5"}, {"lon": -77.0385255, "lat": 38.91544716666667, "name": "022478c0a8e5454d7fffd60176abd543", "fusion_lat": 0.0, "fusion_lon": 0.0, "rental_uris": {"android": "https://dc.lft.to/lastmile_qr_scan", "ios": "https://dc.lft.to/lastmile_qr_scan"}, "is_reserved": 0, "is_disabled": 0, "type": "electric_scooter", "bike_id": "022478c0a8e5454d7fffd60176abd543"}, {"lon": -77.02204283333333, "lat": 38.905426, "name": "c245148dc11747bd797c8d4c8e6b107f", "fusion_lat": 0.0, "fusion_lon": 0.0, "rental_uris": {"android": "https://dc.lft.to/lastmile_qr_scan", "ios": "https://dc.lft.to/lastmile_qr_scan"}, "is_reserved": 0, "is_disabled": 0, "type": "electric_scooter", "bike_id": "c245148dc11747bd797c8d4c8e6b107f"}, {"lon": -76.94719033333334, "lat": 38.89734133333333, "name": "da3c07b883ef7bfd4645ab33ea076d4c", "fusion_lat": 0.0, "fusion_lon": 0.0, "rental_uris": {"android": "https://dc.lft.to/lastmile_qr_scan", "ios": "https://dc.lft.to/lastmile_qr_scan"}, "is_reserved": 0, "is_disabled": 0, "type": "electric_scooter", "bike_id": "da3c07b883ef7bfd4645ab33ea076d4c"}, {"lon": -76.987119, "lat": 38.86256016666667, "name": "0ac4e8d211df4fd3990db7ac714b9449", "fusion_lat": 0.0, "fusion_lon": 0.0, "rental_uris": {"android": "https://dc.lft.to/lastmile_qr_scan", "ios": "https://dc.lft.to/lastmile_qr_scan"}, "is_reserved": 0, "is_disabled": 0, "type": "electric_scooter", "bike_id": "0ac4e8d211df4fd3990db7ac714b9449"}, {"lon": -77.04061483333334, "lat": 38.91765433333333, "name": "fe4922d389e0f254fa99a941b51f1a8b", "fusion_lat": 0.0, "fusion_lon": 0.0, "rental_uris": {"android": "https://dc.lft.to/lastmile_qr_scan", "ios": "https://dc.lft.to/lastmile_qr_scan"}, "is_reserved": 0, "is_disabled": 0, "type": "electric_scooter", "bike_id": "fe4922d389e0f254fa99a941b51f1a8b"}, {"lon": -77.01403183333333, "lat": 38.928318833333336, "name": "4a65fbcd5f2ea521966b793ed020b34a", "fusion_lat": 0.0, "fusion_lon": 0.0, "rental_uris": {"android": "https://dc.lft.to/lastmile_qr_scan", "ios": "https://dc.lft.to/lastmile_qr_scan"}, "is_reserved": 0, "is_disabled": 0, "type": "electric_scooter", "bike_id": "4a65fbcd5f2ea521966b793ed020b34a"}, {"lon": -77.020509, "lat": 38.903134333333334, "name": "b3f7eeecd0f803396942bd7e2783737e", "fusion_lat": 0.0, "fusion_lon": 0.0, "rental_uris": {"android": "https://dc.lft.to/lastmile_qr_scan", "ios": "https://dc.lft.to/lastmile_qr_scan"}, "is_reserved": 0, "is_disabled": 0, "type": "electric_scooter", "bike_id": "b3f7eeecd0f803396942bd7e2783737e"}, {"lon": -77.02350483333333, "lat": 38.92276233333333, "name": "8fee41ee3e20aa6e3cbf5d4abc19ad58", "fusion_lat": 0.0, "fusion_lon": 0.0, "rental_uris": {"android": "https://dc.lft.to/lastmile_qr_scan", "ios": "https://dc.lft.to/lastmile_qr_scan"}, "is_reserved": 0, "is_disabled": 0, "type": "electric_scooter", "bike_id": "8fee41ee3e20aa6e3cbf5d4abc19ad58"}, {"lon": -77.02009966666667, "lat": 38.924237166666664, "name": "649f6ca6a270614baaea33bfafe3be12", "fusion_lat": 0.0, "fusion_lon": 0.0, "rental_uris": {"android": "https://dc.lft.to/lastmile_qr_scan", "ios": "https://dc.lft.to/lastmile_qr_scan"}, "is_reserved": 0, "is_disabled": 0, "type": "electric_scooter", "bike_id": "649f6ca6a270614baaea33bfafe3be12"}, {"lon": -77.01843033333333, "lat": 38.94992333333333, "name": "e889173d70080da7a2452c31963ea2f6", "fusion_lat": 0.0, "fusion_lon": 0.0, "rental_uris": {"android": "https://dc.lft.to/lastmile_qr_scan", "ios": "https://dc.lft.to/lastmile_qr_scan"}, "is_reserved": 0, "is_disabled": 0, "type": "electric_scooter", "bike_id": "e889173d70080da7a2452c31963ea2f6"}, {"lon": -77.00207333333333, "lat": 38.90217333333333, "name": "8f383b082f8777fc124c8b3ac519d479", "fusion_lat": 0.0, "fusion_lon": 0.0, "rental_uris": {"android": "https://dc.lft.to/lastmile_qr_scan", "ios": "https://dc.lft.to/lastmile_qr_scan"}, "is_reserved": 0, "is_disabled": 0, "type": "electric_scooter", "bike_id": "8f383b082f8777fc124c8b3ac519d479"}, {"lon": -77.00733016666666, "lat": 38.95518383333334, "name": "fa99a0ea70b881dadef7d73d6cc1726a", "fusion_lat": 0.0, "fusion_lon": 0.0, "rental_uris": {"android": "https://dc.lft.to/lastmile_qr_scan", "ios": "https://dc.lft.to/lastmile_qr_scan"}, "is_reserved": 0, "is_disabled": 0, "type": "electric_scooter", "bike_id": "fa99a0ea70b881dadef7d73d6cc1726a"}, {"lon": -77.031793, "lat": 38.91915183333333, "name": "0d251455871eada13542b2c574cdcff8", "fusion_lat": 0.0, "fusion_lon": 0.0, "rental_uris": {"android": "https://dc.lft.to/lastmile_qr_scan", "ios": "https://dc.lft.to/lastmile_qr_scan"}, "is_reserved": 0, "is_disabled": 0, "type": "electric_scooter", "bike_id": "0d251455871eada13542b2c574cdcff8"}, {"lon": -77.03298866666667, "lat": 38.93032866666667, "name": "d339742bd0fb77f41fe783591dddd268", "fusion_lat": 0.0, "fusion_lon": 0.0, "rental_uris": {"android": "https://dc.lft.to/lastmile_qr_scan", "ios": "https://dc.lft.to/lastmile_qr_scan"}, "is_reserved": 0, "is_disabled": 0, "type": "electric_scooter", "bike_id": "d339742bd0fb77f41fe783591dddd268"}, {"lon": -77.02500833333333, "lat": 38.9396955, "name": "01f94b7d0649853caa96838fcb30de49", "fusion_lat": 0.0, "fusion_lon": 0.0, "rental_uris": {"android": "https://dc.lft.to/lastmile_qr_scan", "ios": "https://dc.lft.to/lastmile_qr_scan"}, "is_reserved": 0, "is_disabled": 0, "type": "electric_scooter", "bike_id": "01f94b7d0649853caa96838fcb30de49"}, {"lon": -77.03204516666666, "lat": 38.91985283333333, "name": "4d670f6b22cad983737d67a82f76cebe", "fusion_lat": 0.0, "fusion_lon": 0.0, "rental_uris": {"android": "https://dc.lft.to/lastmile_qr_scan", "ios": "https://dc.lft.to/lastmile_qr_scan"}, "is_reserved": 0, "is_disabled": 0, "type": "electric_scooter", "bike_id": "4d670f6b22cad983737d67a82f76cebe"}, {"lon": -77.06780383333333, "lat": 38.952131666666666, "name": "529979ae61c00d0fcc159018ff42d473", "fusion_lat": 0.0, "fusion_lon": 0.0, "rental_uris": {"android": "https://dc.lft.to/lastmile_qr_scan", "ios": "https://dc.lft.to/lastmile_qr_scan"}, "is_reserved": 0, "is_disabled": 0, "type": "electric_scooter", "bike_id": "529979ae61c00d0fcc159018ff42d473"}, {"lon": -77.02821316666666, "lat": 38.92871016666667, "name": "8091165d9c342a47cf6bc2ed62840c1c", "fusion_lat": 0.0, "fusion_lon": 0.0, "rental_uris": {"android": "https://dc.lft.to/lastmile_qr_scan", "ios": "https://dc.lft.to/lastmile_qr_scan"}, "is_reserved": 0, "is_disabled": 0, "type": "electric_scooter", "bike_id": "8091165d9c342a47cf6bc2ed62840c1c"}, {"lon": -77.00533716666666, "lat": 38.874687, "name": "e698e6cd2d7b3861a2606cb7853d685d", "fusion_lat": 0.0, "fusion_lon": 0.0, "rental_uris": {"android": "https://dc.lft.to/lastmile_qr_scan", "ios": "https://dc.lft.to/lastmile_qr_scan"}, "is_reserved": 0, "is_disabled": 0, "type": "electric_scooter", "bike_id": "e698e6cd2d7b3861a2606cb7853d685d"}, {"lon": -77.02517016666667, "lat": 38.92632866666667, "name": "52691b38e38b9dd0ac4e34c1bf3937f3", "fusion_lat": 0.0, "fusion_lon": 0.0, "rental_uris": {"android": "https://dc.lft.to/lastmile_qr_scan", "ios": "https://dc.lft.to/lastmile_qr_scan"}, "is_reserved": 0, "is_disabled": 0, "type": "electric_scooter", "bike_id": "52691b38e38b9dd0ac4e34c1bf3937f3"}, {"lon": -77.0296265, "lat": 38.95422283333333, "name": "ac005c18cd8fb12c88a98ea96815daac", "fusion_lat": 0.0, "fusion_lon": 0.0, "rental_uris": {"android": "https://dc.lft.to/lastmile_qr_scan", "ios": "https://dc.lft.to/lastmile_qr_scan"}, "is_reserved": 0, "is_disabled": 0, "type": "electric_scooter", "bike_id": "ac005c18cd8fb12c88a98ea96815daac"}, {"lon": -77.0153795, "lat": 38.8921795, "name": "d0ccd01ab7a97ca4b33417dc8a4f6104", "fusion_lat": 0.0, "fusion_lon": 0.0, "rental_uris": {"android": "https://dc.lft.to/lastmile_qr_scan", "ios": "https://dc.lft.to/lastmile_qr_scan"}, "is_reserved": 0, "is_disabled": 0, "type": "electric_scooter", "bike_id": "d0ccd01ab7a97ca4b33417dc8a4f6104"}, {"lon": -76.93760066666667, "lat": 38.8998475, "name": "e5769cb2e8fccf36ff39aa8c8911ef0e", "fusion_lat": 0.0, "fusion_lon": 0.0, "rental_uris": {"android": "https://dc.lft.to/lastmile_qr_scan", "ios": "https://dc.lft.to/lastmile_qr_scan"}, "is_reserved": 0, "is_disabled": 0, "type": "electric_scooter", "bike_id": "e5769cb2e8fccf36ff39aa8c8911ef0e"}, {"lon": -77.02974433333333, "lat": 38.9048425, "name": "159fa35dbf83d03552ec22f25acd8c8f", "fusion_lat": 0.0, "fusion_lon": 0.0, "rental_uris": {"android": "https://dc.lft.to/lastmile_qr_scan", "ios": "https://dc.lft.to/lastmile_qr_scan"}, "is_reserved": 0, "is_disabled": 0, "type": "electric_scooter", "bike_id": "159fa35dbf83d03552ec22f25acd8c8f"}, {"lon": -76.98608716666666, "lat": 38.906242666666664, "name": "c06522065309665d5b6a8ef10726afd9", "fusion_lat": 0.0, "fusion_lon": 0.0, "rental_uris": {"android": "https://dc.lft.to/lastmile_qr_scan", "ios": "https://dc.lft.to/lastmile_qr_scan"}, "is_reserved": 0, "is_disabled": 0, "type": "electric_bike", "bike_id": "c06522065309665d5b6a8ef10726afd9"}, {"lon": -77.02578766666667, "lat": 38.904238666666664, "name": "15834153bc0764cb476ec1990ed7e8d2", "fusion_lat": 0.0, "fusion_lon": 0.0, "rental_uris": {"android": "https://dc.lft.to/lastmile_qr_scan", "ios": "https://dc.lft.to/lastmile_qr_scan"}, "is_reserved": 0, "is_disabled": 0, "type": "electric_scooter", "bike_id": "15834153bc0764cb476ec1990ed7e8d2"}, {"lon": -77.04730516666666, "lat": 38.911139166666665, "name": "ca567913bb4a997690c04b3789ed8bc8", "fusion_lat": 0.0, "fusion_lon": 0.0, "rental_uris": {"android": "https://dc.lft.to/lastmile_qr_scan", "ios": "https://dc.lft.to/lastmile_qr_scan"}, "is_reserved": 0, "is_disabled": 0, "type": "electric_scooter", "bike_id": "ca567913bb4a997690c04b3789ed8bc8"}, {"lon": -77.0382605, "lat": 38.91266683333333, "name": "2f4c6ab9ba1ed8c868276d7dab48c50d", "fusion_lat": 0.0, "fusion_lon": 0.0, "rental_uris": {"android": "https://dc.lft.to/lastmile_qr_scan", "ios": "https://dc.lft.to/lastmile_qr_scan"}, "is_reserved": 0, "is_disabled": 0, "type": "electric_scooter", "bike_id": "2f4c6ab9ba1ed8c868276d7dab48c50d"}, {"lon": -77.03187516666667, "lat": 38.9305265, "name": "b30d8aac73fcbd60e53a7a4181e66784", "fusion_lat": 0.0, "fusion_lon": 0.0, "rental_uris": {"android": "https://dc.lft.to/lastmile_qr_scan", "ios": "https://dc.lft.to/lastmile_qr_scan"}, "is_reserved": 0, "is_disabled": 0, "type": "electric_scooter", "bike_id": "b30d8aac73fcbd60e53a7a4181e66784"}, {"lon": -77.069563, "lat": 38.9904275, "name": "285d7dab94b65e4a6ed4b3e26ea41b50", "fusion_lat": 0.0, "fusion_lon": 0.0, "rental_uris": {"android": "https://dc.lft.to/lastmile_qr_scan", "ios": "https://dc.lft.to/lastmile_qr_scan"}, "is_reserved": 0, "is_disabled": 0, "type": "electric_bike", "bike_id": "285d7dab94b65e4a6ed4b3e26ea41b50"}, {"lon": -76.93825016666666, "lat": 38.897604666666666, "name": "7390c7d26501d032de3fd564068f993f", "fusion_lat": 0.0, "fusion_lon": 0.0, "rental_uris": {"android": "https://dc.lft.to/lastmile_qr_scan", "ios": "https://dc.lft.to/lastmile_qr_scan"}, "is_reserved": 0, "is_disabled": 0, "type": "electric_scooter", "bike_id": "7390c7d26501d032de3fd564068f993f"}, {"lon": -77.05001433333334, "lat": 38.892290833333334, "name": "e9c57e370e79418406773f6350a39852", "fusion_lat": 0.0, "fusion_lon": 0.0, "rental_uris": {"android": "https://dc.lft.to/lastmile_qr_scan", "ios": "https://dc.lft.to/lastmile_qr_scan"}, "is_reserved": 0, "is_disabled": 0, "type": "electric_scooter", "bike_id": "e9c57e370e79418406773f6350a39852"}, {"lon": -77.08215533333333, "lat": 38.9355605, "name": "2516d20b58dedfc505c48060b522a33f", "fusion_lat": 0.0, "fusion_lon": 0.0, "rental_uris": {"android": "https://dc.lft.to/lastmile_qr_scan", "ios": "https://dc.lft.to/lastmile_qr_scan"}, "is_reserved": 0, "is_disabled": 0, "type": "electric_scooter", "bike_id": "2516d20b58dedfc505c48060b522a33f"}, {"lon": -77.032553, "lat": 38.935262333333334, "name": "a0694c6357c0fb43b4cc713d8b1ffb6d", "fusion_lat": 0.0, "fusion_lon": 0.0, "rental_uris": {"android": "https://dc.lft.to/lastmile_qr_scan", "ios": "https://dc.lft.to/lastmile_qr_scan"}, "is_reserved": 0, "is_disabled": 0, "type": "electric_scooter", "bike_id": "a0694c6357c0fb43b4cc713d8b1ffb6d"}, {"lon": -77.0011575, "lat": 38.894371166666666, "name": "41a0acd4243c0737c9ce76ab747e9c98", "fusion_lat": 0.0, "fusion_lon": 0.0, "rental_uris": {"android": "https://dc.lft.to/lastmile_qr_scan", "ios": "https://dc.lft.to/lastmile_qr_scan"}, "is_reserved": 0, "is_disabled": 0, "type": "electric_scooter", "bike_id": "41a0acd4243c0737c9ce76ab747e9c98"}, {"lon": -77.02832783333334, "lat": 38.924663333333335, "name": "33ad43c7db96a8e308edc09bff682454", "fusion_lat": 0.0, "fusion_lon": 0.0, "rental_uris": {"android": "https://dc.lft.to/lastmile_qr_scan", "ios": "https://dc.lft.to/lastmile_qr_scan"}, "is_reserved": 0, "is_disabled": 0, "type": "electric_scooter", "bike_id": "33ad43c7db96a8e308edc09bff682454"}, {"lon": -77.01762466666666, "lat": 38.90264783333333, "name": "8f2123d8c3949b0b986c40fb182e5680", "fusion_lat": 0.0, "fusion_lon": 0.0, "rental_uris": {"android": "https://dc.lft.to/lastmile_qr_scan", "ios": "https://dc.lft.to/lastmile_qr_scan"}, "is_reserved": 0, "is_disabled": 0, "type": "electric_scooter", "bike_id": "8f2123d8c3949b0b986c40fb182e5680"}, {"lon": -77.03438366666667, "lat": 38.918099833333336, "name": "8d0073788bb3764a0bfe46e558995a4c", "fusion_lat": 0.0, "fusion_lon": 0.0, "rental_uris": {"android": "https://dc.lft.to/lastmile_qr_scan", "ios": "https://dc.lft.to/lastmile_qr_scan"}, "is_reserved": 0, "is_disabled": 0, "type": "electric_scooter", "bike_id": "8d0073788bb3764a0bfe46e558995a4c"}, {"lon": -77.02482766666667, "lat": 38.93878633333333, "name": "6a232e927fd7c9b6405f59005899431f", "fusion_lat": 0.0, "fusion_lon": 0.0, "rental_uris": {"android": "https://dc.lft.to/lastmile_qr_scan", "ios": "https://dc.lft.to/lastmile_qr_scan"}, "is_reserved": 0, "is_disabled": 0, "type": "electric_scooter", "bike_id": "6a232e927fd7c9b6405f59005899431f"}, {"lon": -77.0271785, "lat": 38.89223666666667, "name": "bae4971a83465097ba1275c2331ae8dc", "fusion_lat": 0.0, "fusion_lon": 0.0, "rental_uris": {"android": "https://dc.lft.to/lastmile_qr_scan", "ios": "https://dc.lft.to/lastmile_qr_scan"}, "is_reserved": 0, "is_disabled": 0, "type": "electric_scooter", "bike_id": "bae4971a83465097ba1275c2331ae8dc"}, {"lon": -77.043862, "lat": 38.90148633333333, "name": "d598ba730b9f81b081db69422ad11af8", "fusion_lat": 0.0, "fusion_lon": 0.0, "rental_uris": {"android": "https://dc.lft.to/lastmile_qr_scan", "ios": "https://dc.lft.to/lastmile_qr_scan"}, "is_reserved": 0, "is_disabled": 0, "type": "electric_scooter", "bike_id": "d598ba730b9f81b081db69422ad11af8"}, {"lon": -77.03435483333334, "lat": 38.918063833333335, "name": "58683a7a26c221b98f947a8a0cc1b798", "fusion_lat": 0.0, "fusion_lon": 0.0, "rental_uris": {"android": "https://dc.lft.to/lastmile_qr_scan", "ios": "https://dc.lft.to/lastmile_qr_scan"}, "is_reserved": 0, "is_disabled": 0, "type": "electric_scooter", "bike_id": "58683a7a26c221b98f947a8a0cc1b798"}, {"lon": -77.03198066666667, "lat": 38.89355833333333, "name": "15b158581519956ee1900a6226a8d2a1", "fusion_lat": 0.0, "fusion_lon": 0.0, "rental_uris": {"android": "https://dc.lft.to/lastmile_qr_scan", "ios": "https://dc.lft.to/lastmile_qr_scan"}, "is_reserved": 0, "is_disabled": 0, "type": "electric_scooter", "bike_id": "15b158581519956ee1900a6226a8d2a1"}, {"lon": -77.02383633333334, "lat": 38.911512333333334, "name": "c2cc5fe14f8a2b25f7139dc5060c204c", "fusion_lat": 0.0, "fusion_lon": 0.0, "rental_uris": {"android": "https://dc.lft.to/lastmile_qr_scan", "ios": "https://dc.lft.to/lastmile_qr_scan"}, "is_reserved": 0, "is_disabled": 0, "type": "electric_scooter", "bike_id": "c2cc5fe14f8a2b25f7139dc5060c204c"}, {"lon": -77.026956, "lat": 38.91597216666667, "name": "f3be7969e788c00749f226dbc7321c43", "fusion_lat": 0.0, "fusion_lon": 0.0, "rental_uris": {"android": "https://dc.lft.to/lastmile_qr_scan", "ios": "https://dc.lft.to/lastmile_qr_scan"}, "is_reserved": 0, "is_disabled": 0, "type": "electric_scooter", "bike_id": "f3be7969e788c00749f226dbc7321c43"}, {"lon": -77.0418845, "lat": 38.90132466666667, "name": "02992e744ac232a4119e87eadfede8ef", "fusion_lat": 0.0, "fusion_lon": 0.0, "rental_uris": {"android": "https://dc.lft.to/lastmile_qr_scan", "ios": "https://dc.lft.to/lastmile_qr_scan"}, "is_reserved": 0, "is_disabled": 0, "type": "electric_scooter", "bike_id": "02992e744ac232a4119e87eadfede8ef"}, {"lon": -77.02475716666666, "lat": 38.92651216666667, "name": "be20ed9168ee8be54c36d54fe459f494", "fusion_lat": 0.0, "fusion_lon": 0.0, "rental_uris": {"android": "https://dc.lft.to/lastmile_qr_scan", "ios": "https://dc.lft.to/lastmile_qr_scan"}, "is_reserved": 0, "is_disabled": 0, "type": "electric_scooter", "bike_id": "be20ed9168ee8be54c36d54fe459f494"}, {"lon": -76.9489755, "lat": 38.89525783333333, "name": "57aa24d5570c81b1ea75c35309b9a0cb", "fusion_lat": 0.0, "fusion_lon": 0.0, "rental_uris": {"android": "https://dc.lft.to/lastmile_qr_scan", "ios": "https://dc.lft.to/lastmile_qr_scan"}, "is_reserved": 0, "is_disabled": 0, "type": "electric_scooter", "bike_id": "57aa24d5570c81b1ea75c35309b9a0cb"}, {"lon": -77.0423445, "lat": 38.901284833333335, "name": "e11a3170372e11146020515aa02ddfa2", "fusion_lat": 0.0, "fusion_lon": 0.0, "rental_uris": {"android": "https://dc.lft.to/lastmile_qr_scan", "ios": "https://dc.lft.to/lastmile_qr_scan"}, "is_reserved": 0, "is_disabled": 0, "type": "electric_scooter", "bike_id": "e11a3170372e11146020515aa02ddfa2"}, {"lon": -77.03361866666667, "lat": 38.887585, "name": "4d1655bd034b391b6ec272f51bcbe5f6", "fusion_lat": 0.0, "fusion_lon": 0.0, "rental_uris": {"android": "https://dc.lft.to/lastmile_qr_scan", "ios": "https://dc.lft.to/lastmile_qr_scan"}, "is_reserved": 0, "is_disabled": 0, "type": "electric_scooter", "bike_id": "4d1655bd034b391b6ec272f51bcbe5f6"}, {"lon": -77.02678166666666, "lat": 38.932072, "name": "245cb3b1013f5c53708f0c22ab3d7f2f", "fusion_lat": 0.0, "fusion_lon": 0.0, "rental_uris": {"android": "https://dc.lft.to/lastmile_qr_scan", "ios": "https://dc.lft.to/lastmile_qr_scan"}, "is_reserved": 0, "is_disabled": 0, "type": "electric_scooter", "bike_id": "245cb3b1013f5c53708f0c22ab3d7f2f"}, {"lon": -77.14987116666667, "lat": 39.094593833333334, "name": "37b4577b6181508cc1bf645bf2d5c05e", "fusion_lat": 0.0, "fusion_lon": 0.0, "rental_uris": {"android": "https://dc.lft.to/lastmile_qr_scan", "ios": "https://dc.lft.to/lastmile_qr_scan"}, "is_reserved": 0, "is_disabled": 0, "type": "electric_bike", "bike_id": "37b4577b6181508cc1bf645bf2d5c05e"}, {"lon": -77.00352416666666, "lat": 38.8916045, "name": "9027948568d6c2e279a1edf3ef17b41a", "fusion_lat": 0.0, "fusion_lon": 0.0, "rental_uris": {"android": "https://dc.lft.to/lastmile_qr_scan", "ios": "https://dc.lft.to/lastmile_qr_scan"}, "is_reserved": 0, "is_disabled": 0, "type": "electric_scooter", "bike_id": "9027948568d6c2e279a1edf3ef17b41a"}, {"lon": -77.00650016666667, "lat": 38.90862033333333, "name": "b14f6ce99c7793c559284f0e3a21a2c9", "fusion_lat": 0.0, "fusion_lon": 0.0, "rental_uris": {"android": "https://dc.lft.to/lastmile_qr_scan", "ios": "https://dc.lft.to/lastmile_qr_scan"}, "is_reserved": 0, "is_disabled": 0, "type": "electric_scooter", "bike_id": "b14f6ce99c7793c559284f0e3a21a2c9"}, {"lon": -77.03334783333334, "lat": 38.927344, "name": "134a179af4ac9c4fe0926f80d3caabf1", "fusion_lat": 0.0, "fusion_lon": 0.0, "rental_uris": {"android": "https://dc.lft.to/lastmile_qr_scan", "ios": "https://dc.lft.to/lastmile_qr_scan"}, "is_reserved": 0, "is_disabled": 0, "type": "electric_scooter", "bike_id": "134a179af4ac9c4fe0926f80d3caabf1"}, {"lon": -77.0765525, "lat": 38.910833333333336, "name": "2a4dbbdd098e538599fafd5474850c87", "fusion_lat": 0.0, "fusion_lon": 0.0, "rental_uris": {"android": "https://dc.lft.to/lastmile_qr_scan", "ios": "https://dc.lft.to/lastmile_qr_scan"}, "is_reserved": 0, "is_disabled": 0, "type": "electric_scooter", "bike_id": "2a4dbbdd098e538599fafd5474850c87"}, {"lon": -77.09019733333334, "lat": 38.841237166666666, "name": "8bbb9fbf167a009a93931892625dc626", "fusion_lat": 0.0, "fusion_lon": 0.0, "rental_uris": {"android": "https://dc.lft.to/lastmile_qr_scan", "ios": "https://dc.lft.to/lastmile_qr_scan"}, "is_reserved": 0, "is_disabled": 0, "type": "electric_bike", "bike_id": "8bbb9fbf167a009a93931892625dc626"}, {"lon": -77.06650016666667, "lat": 38.905132, "name": "875c667e1b1ab848322666329a0cfe82", "fusion_lat": 0.0, "fusion_lon": 0.0, "rental_uris": {"android": "https://dc.lft.to/lastmile_qr_scan", "ios": "https://dc.lft.to/lastmile_qr_scan"}, "is_reserved": 0, "is_disabled": 0, "type": "electric_scooter", "bike_id": "875c667e1b1ab848322666329a0cfe82"}, {"lon": -77.03635, "lat": 38.94916883333333, "name": "9649b8089482dc11371e9cec7a61af99", "fusion_lat": 0.0, "fusion_lon": 0.0, "rental_uris": {"android": "https://dc.lft.to/lastmile_qr_scan", "ios": "https://dc.lft.to/lastmile_qr_scan"}, "is_reserved": 0, "is_disabled": 0, "type": "electric_scooter", "bike_id": "9649b8089482dc11371e9cec7a61af99"}, {"lon": -77.19908316666667, "lat": 38.87529, "name": "c666681e7494c6a73088accc6ef7eac6", "fusion_lat": 0.0, "fusion_lon": 0.0, "rental_uris": {"android": "https://dc.lft.to/lastmile_qr_scan", "ios": "https://dc.lft.to/lastmile_qr_scan"}, "is_reserved": 0, "is_disabled": 0, "type": "electric_bike", "bike_id": "c666681e7494c6a73088accc6ef7eac6"}, {"lon": -77.05372583333333, "lat": 38.92334266666667, "name": "e97cac391efb934c7c6480cfab5b0f45", "fusion_lat": 0.0, "fusion_lon": 0.0, "rental_uris": {"android": "https://dc.lft.to/lastmile_qr_scan", "ios": "https://dc.lft.to/lastmile_qr_scan"}, "is_reserved": 0, "is_disabled": 0, "type": "electric_scooter", "bike_id": "e97cac391efb934c7c6480cfab5b0f45"}, {"lon": -77.03392233333334, "lat": 38.9205065, "name": "6337e30cae56d8fb709ffc0f66903c37", "fusion_lat": 0.0, "fusion_lon": 0.0, "rental_uris": {"android": "https://dc.lft.to/lastmile_qr_scan", "ios": "https://dc.lft.to/lastmile_qr_scan"}, "is_reserved": 0, "is_disabled": 0, "type": "electric_scooter", "bike_id": "6337e30cae56d8fb709ffc0f66903c37"}, {"lon": -77.06889916666667, "lat": 38.940232, "name": "bc02669060d099a18f68a3d25a93503a", "fusion_lat": 0.0, "fusion_lon": 0.0, "rental_uris": {"android": "https://dc.lft.to/lastmile_qr_scan", "ios": "https://dc.lft.to/lastmile_qr_scan"}, "is_reserved": 0, "is_disabled": 0, "type": "electric_scooter", "bike_id": "bc02669060d099a18f68a3d25a93503a"}, {"lon": -76.94722016666667, "lat": 38.896657833333336, "name": "1a7926520541db893f12973d95fb0075", "fusion_lat": 0.0, "fusion_lon": 0.0, "rental_uris": {"android": "https://dc.lft.to/lastmile_qr_scan", "ios": "https://dc.lft.to/lastmile_qr_scan"}, "is_reserved": 0, "is_disabled": 0, "type": "electric_scooter", "bike_id": "1a7926520541db893f12973d95fb0075"}, {"lon": -77.01696, "lat": 38.905013333333336, "name": "ab8bc36abaa0a7ac827f936581df3c55", "fusion_lat": 0.0, "fusion_lon": 0.0, "rental_uris": {"android": "https://dc.lft.to/lastmile_qr_scan", "ios": "https://dc.lft.to/lastmile_qr_scan"}, "is_reserved": 0, "is_disabled": 0, "type": "electric_scooter", "bike_id": "ab8bc36abaa0a7ac827f936581df3c55"}, {"lon": -77.1281325, "lat": 38.86528233333333, "name": "19e924f58ae7e3e2b15d4c59f42fc7f4", "fusion_lat": 0.0, "fusion_lon": 0.0, "rental_uris": {"android": "https://dc.lft.to/lastmile_qr_scan", "ios": "https://dc.lft.to/lastmile_qr_scan"}, "is_reserved": 0, "is_disabled": 0, "type": "electric_bike", "bike_id": "19e924f58ae7e3e2b15d4c59f42fc7f4"}, {"lon": -77.039862, "lat": 38.905725833333335, "name": "8039c7a0c41ebb7e2f97b6a53ef47042", "fusion_lat": 0.0, "fusion_lon": 0.0, "rental_uris": {"android": "https://dc.lft.to/lastmile_qr_scan", "ios": "https://dc.lft.to/lastmile_qr_scan"}, "is_reserved": 0, "is_disabled": 0, "type": "electric_scooter", "bike_id": "8039c7a0c41ebb7e2f97b6a53ef47042"}, {"lon": -77.07045316666667, "lat": 38.824428833333336, "name": "f61ff147bf8977966663a6b7a402631b", "fusion_lat": 0.0, "fusion_lon": 0.0, "rental_uris": {"android": "https://dc.lft.to/lastmile_qr_scan", "ios": "https://dc.lft.to/lastmile_qr_scan"}, "is_reserved": 0, "is_disabled": 0, "type": "electric_bike", "bike_id": "f61ff147bf8977966663a6b7a402631b"}, {"lon": -77.06393816666667, "lat": 38.929111166666665, "name": "f5887f48d6b6dc55e9c6ebebe5c774e0", "fusion_lat": 0.0, "fusion_lon": 0.0, "rental_uris": {"android": "https://dc.lft.to/lastmile_qr_scan", "ios": "https://dc.lft.to/lastmile_qr_scan"}, "is_reserved": 0, "is_disabled": 0, "type": "electric_scooter", "bike_id": "f5887f48d6b6dc55e9c6ebebe5c774e0"}, {"lon": -77.129812, "lat": 38.799881666666664, "name": "5321c9e9bc044d1c910a642d2f80e6bd", "fusion_lat": 0.0, "fusion_lon": 0.0, "rental_uris": {"android": "https://dc.lft.to/lastmile_qr_scan", "ios": "https://dc.lft.to/lastmile_qr_scan"}, "is_reserved": 0, "is_disabled": 0, "type": "electric_bike", "bike_id": "5321c9e9bc044d1c910a642d2f80e6bd"}, {"lon": -77.04374416666667, "lat": 38.8922325, "name": "7b2daaac963795b3e542041739444ab5", "fusion_lat": 0.0, "fusion_lon": 0.0, "rental_uris": {"android": "https://dc.lft.to/lastmile_qr_scan", "ios": "https://dc.lft.to/lastmile_qr_scan"}, "is_reserved": 0, "is_disabled": 0, "type": "electric_scooter", "bike_id": "7b2daaac963795b3e542041739444ab5"}, {"lon": -76.948744, "lat": 38.889605333333336, "name": "9f265d8032ddae30e69e04a746516732", "fusion_lat": 0.0, "fusion_lon": 0.0, "rental_uris": {"android": "https://dc.lft.to/lastmile_qr_scan", "ios": "https://dc.lft.to/lastmile_qr_scan"}, "is_reserved": 0, "is_disabled": 0, "type": "electric_bike", "bike_id": "9f265d8032ddae30e69e04a746516732"}, {"lon": -77.05521016666667, "lat": 38.899379833333334, "name": "7f2836cb3029607b9b2ad9d97745844f", "fusion_lat": 0.0, "fusion_lon": 0.0, "rental_uris": {"android": "https://dc.lft.to/lastmile_qr_scan", "ios": "https://dc.lft.to/lastmile_qr_scan"}, "is_reserved": 0, "is_disabled": 0, "type": "electric_scooter", "bike_id": "7f2836cb3029607b9b2ad9d97745844f"}, {"lon": -76.98173783333333, "lat": 38.900378833333335, "name": "021cda004b4bc4dbd97ff5065787b2e0", "fusion_lat": 0.0, "fusion_lon": 0.0, "rental_uris": {"android": "https://dc.lft.to/lastmile_qr_scan", "ios": "https://dc.lft.to/lastmile_qr_scan"}, "is_reserved": 0, "is_disabled": 0, "type": "electric_scooter", "bike_id": "021cda004b4bc4dbd97ff5065787b2e0"}, {"lon": -77.10722583333333, "lat": 38.855371, "name": "e18d0369ec5a9992d079b645d9dbebc3", "fusion_lat": 0.0, "fusion_lon": 0.0, "rental_uris": {"android": "https://dc.lft.to/lastmile_qr_scan", "ios": "https://dc.lft.to/lastmile_qr_scan"}, "is_reserved": 0, "is_disabled": 0, "type": "electric_bike", "bike_id": "e18d0369ec5a9992d079b645d9dbebc3"}, {"lon": -76.98774816666666, "lat": 38.90024116666667, "name": "400a85fca8bc7644f22c1bc526e0a289", "fusion_lat": 0.0, "fusion_lon": 0.0, "rental_uris": {"android": "https://dc.lft.to/lastmile_qr_scan", "ios": "https://dc.lft.to/lastmile_qr_scan"}, "is_reserved": 0, "is_disabled": 0, "type": "electric_scooter", "bike_id": "400a85fca8bc7644f22c1bc526e0a289"}, {"lon": -76.97746433333333, "lat": 38.900103, "name": "3e8e6dbcddd0af55dfc4d27be347226a", "fusion_lat": 0.0, "fusion_lon": 0.0, "rental_uris": {"android": "https://dc.lft.to/lastmile_qr_scan", "ios": "https://dc.lft.to/lastmile_qr_scan"}, "is_reserved": 0, "is_disabled": 0, "type": "electric_scooter", "bike_id": "3e8e6dbcddd0af55dfc4d27be347226a"}, {"lon": -76.87822466666667, "lat": 38.992353666666666, "name": "049007c193ffd351922549e0cd87a731", "fusion_lat": 0.0, "fusion_lon": 0.0, "rental_uris": {"android": "https://dc.lft.to/lastmile_qr_scan", "ios": "https://dc.lft.to/lastmile_qr_scan"}, "is_reserved": 0, "is_disabled": 0, "type": "electric_bike", "bike_id": "049007c193ffd351922549e0cd87a731"}, {"lon": -77.02027066666666, "lat": 38.899392, "name": "de4606d9280e2dda979c555b3be03251", "fusion_lat": 0.0, "fusion_lon": 0.0, "rental_uris": {"android": "https://dc.lft.to/lastmile_qr_scan", "ios": "https://dc.lft.to/lastmile_qr_scan"}, "is_reserved": 0, "is_disabled": 0, "type": "electric_scooter", "bike_id": "de4606d9280e2dda979c555b3be03251"}, {"lon": -76.98227766666666, "lat": 38.92508433333333, "name": "3c4ce5f2e04a9067092a6005c456ee8a", "fusion_lat": 0.0, "fusion_lon": 0.0, "rental_uris": {"android": "https://dc.lft.to/lastmile_qr_scan", "ios": "https://dc.lft.to/lastmile_qr_scan"}, "is_reserved": 0, "is_disabled": 0, "type": "electric_bike", "bike_id": "3c4ce5f2e04a9067092a6005c456ee8a"}, {"lon": -77.03791283333334, "lat": 38.92627, "name": "a8b9c8b89cb30a2f1295efb3c6848275", "fusion_lat": 0.0, "fusion_lon": 0.0, "rental_uris": {"android": "https://dc.lft.to/lastmile_qr_scan", "ios": "https://dc.lft.to/lastmile_qr_scan"}, "is_reserved": 0, "is_disabled": 0, "type": "electric_scooter", "bike_id": "a8b9c8b89cb30a2f1295efb3c6848275"}, {"lon": -76.94286016666666, "lat": 38.95409516666667, "name": "536175f19452c60a1287d1d9746f6d6d", "fusion_lat": 0.0, "fusion_lon": 0.0, "rental_uris": {"android": "https://dc.lft.to/lastmile_qr_scan", "ios": "https://dc.lft.to/lastmile_qr_scan"}, "is_reserved": 0, "is_disabled": 0, "type": "electric_bike", "bike_id": "536175f19452c60a1287d1d9746f6d6d"}, {"lon": -77.02168783333333, "lat": 38.899038166666664, "name": "0af502dda8dfd9a385f37cc0309fa070", "fusion_lat": 0.0, "fusion_lon": 0.0, "rental_uris": {"android": "https://dc.lft.to/lastmile_qr_scan", "ios": "https://dc.lft.to/lastmile_qr_scan"}, "is_reserved": 0, "is_disabled": 0, "type": "electric_scooter", "bike_id": "0af502dda8dfd9a385f37cc0309fa070"}, {"lon": -76.99781466666667, "lat": 38.84425, "name": "d68657c38a9b2a2fc4e9eaba4dcbc453", "fusion_lat": 0.0, "fusion_lon": 0.0, "rental_uris": {"android": "https://dc.lft.to/lastmile_qr_scan", "ios": "https://dc.lft.to/lastmile_qr_scan"}, "is_reserved": 0, "is_disabled": 0, "type": "electric_scooter", "bike_id": "d68657c38a9b2a2fc4e9eaba4dcbc453"}, {"lon": -77.03256633333334, "lat": 38.935253333333335, "name": "04572752891340e469016e13ebfe0e9e", "fusion_lat": 0.0, "fusion_lon": 0.0, "rental_uris": {"android": "https://dc.lft.to/lastmile_qr_scan", "ios": "https://dc.lft.to/lastmile_qr_scan"}, "is_reserved": 0, "is_disabled": 0, "type": "electric_scooter", "bike_id": "04572752891340e469016e13ebfe0e9e"}, {"lon": -77.04665233333333, "lat": 38.91337816666667, "name": "9af2336e6270e2f0491a267b93544b10", "fusion_lat": 0.0, "fusion_lon": 0.0, "rental_uris": {"android": "https://dc.lft.to/lastmile_qr_scan", "ios": "https://dc.lft.to/lastmile_qr_scan"}, "is_reserved": 0, "is_disabled": 0, "type": "electric_scooter", "bike_id": "9af2336e6270e2f0491a267b93544b10"}, {"lon": -77.04149533333333, "lat": 38.90735866666667, "name": "e3ed2af5e80d42f044f314b910496481", "fusion_lat": 0.0, "fusion_lon": 0.0, "rental_uris": {"android": "https://dc.lft.to/lastmile_qr_scan", "ios": "https://dc.lft.to/lastmile_qr_scan"}, "is_reserved": 0, "is_disabled": 0, "type": "electric_scooter", "bike_id": "e3ed2af5e80d42f044f314b910496481"}, {"lon": -77.0216565, "lat": 38.88634733333333, "name": "14d718e09f4cbc2c90e832039b9d15a9", "fusion_lat": 0.0, "fusion_lon": 0.0, "rental_uris": {"android": "https://dc.lft.to/lastmile_qr_scan", "ios": "https://dc.lft.to/lastmile_qr_scan"}, "is_reserved": 0, "is_disabled": 0, "type": "electric_scooter", "bike_id": "14d718e09f4cbc2c90e832039b9d15a9"}, {"lon": -77.04318466666666, "lat": 38.907408, "name": "384628cf93b0ec685f15137d8fcafa72", "fusion_lat": 0.0, "fusion_lon": 0.0, "rental_uris": {"android": "https://dc.lft.to/lastmile_qr_scan", "ios": "https://dc.lft.to/lastmile_qr_scan"}, "is_reserved": 0, "is_disabled": 0, "type": "electric_scooter", "bike_id": "384628cf93b0ec685f15137d8fcafa72"}, {"lon": -77.03349166666666, "lat": 38.89815316666667, "name": "1a3c1d910fe8ab6ef0ea2009a2e890d6", "fusion_lat": 0.0, "fusion_lon": 0.0, "rental_uris": {"android": "https://dc.lft.to/lastmile_qr_scan", "ios": "https://dc.lft.to/lastmile_qr_scan"}, "is_reserved": 0, "is_disabled": 0, "type": "electric_scooter", "bike_id": "1a3c1d910fe8ab6ef0ea2009a2e890d6"}, {"lon": -77.0221055, "lat": 38.90159883333333, "name": "c751dcec410fc6b69fa0b06a4d6b137f", "fusion_lat": 0.0, "fusion_lon": 0.0, "rental_uris": {"android": "https://dc.lft.to/lastmile_qr_scan", "ios": "https://dc.lft.to/lastmile_qr_scan"}, "is_reserved": 0, "is_disabled": 0, "type": "electric_scooter", "bike_id": "c751dcec410fc6b69fa0b06a4d6b137f"}, {"lon": -76.99631033333333, "lat": 38.84619633333333, "name": "d950e10ca07fef8959a9cbf0d5634dd9", "fusion_lat": 0.0, "fusion_lon": 0.0, "rental_uris": {"android": "https://dc.lft.to/lastmile_qr_scan", "ios": "https://dc.lft.to/lastmile_qr_scan"}, "is_reserved": 0, "is_disabled": 0, "type": "electric_scooter", "bike_id": "d950e10ca07fef8959a9cbf0d5634dd9"}, {"lon": -77.130972, "lat": 38.861643, "name": "2434971b3019dfc9641014b71155390b", "fusion_lat": 0.0, "fusion_lon": 0.0, "rental_uris": {"android": "https://dc.lft.to/lastmile_qr_scan", "ios": "https://dc.lft.to/lastmile_qr_scan"}, "is_reserved": 0, "is_disabled": 0, "type": "electric_bike", "bike_id": "2434971b3019dfc9641014b71155390b"}, {"lon": -77.0386285, "lat": 38.90383, "name": "7141997bb79b7ec42e63e476df935a7a", "fusion_lat": 0.0, "fusion_lon": 0.0, "rental_uris": {"android": "https://dc.lft.to/lastmile_qr_scan", "ios": "https://dc.lft.to/lastmile_qr_scan"}, "is_reserved": 0, "is_disabled": 0, "type": "electric_scooter", "bike_id": "7141997bb79b7ec42e63e476df935a7a"}, {"lon": -77.02299666666667, "lat": 38.91837816666666, "name": "079261d41e38fc2eb9c1bb311ffef7e6", "fusion_lat": 0.0, "fusion_lon": 0.0, "rental_uris": {"android": "https://dc.lft.to/lastmile_qr_scan", "ios": "https://dc.lft.to/lastmile_qr_scan"}, "is_reserved": 0, "is_disabled": 0, "type": "electric_scooter", "bike_id": "079261d41e38fc2eb9c1bb311ffef7e6"}, {"lon": -76.983086, "lat": 38.868902166666665, "name": "ff03bb4b6ff813845b367a00b6733b6e", "fusion_lat": 0.0, "fusion_lon": 0.0, "rental_uris": {"android": "https://dc.lft.to/lastmile_qr_scan", "ios": "https://dc.lft.to/lastmile_qr_scan"}, "is_reserved": 0, "is_disabled": 0, "type": "electric_scooter", "bike_id": "ff03bb4b6ff813845b367a00b6733b6e"}, {"lon": -77.04515466666666, "lat": 38.89221383333334, "name": "9cb2ef52156a1d761ad696161c8a86d2", "fusion_lat": 0.0, "fusion_lon": 0.0, "rental_uris": {"android": "https://dc.lft.to/lastmile_qr_scan", "ios": "https://dc.lft.to/lastmile_qr_scan"}, "is_reserved": 0, "is_disabled": 0, "type": "electric_scooter", "bike_id": "9cb2ef52156a1d761ad696161c8a86d2"}, {"lon": -77.0382995, "lat": 38.91118566666667, "name": "1f946f64b289896a56e57447c8f049d3", "fusion_lat": 0.0, "fusion_lon": 0.0, "rental_uris": {"android": "https://dc.lft.to/lastmile_qr_scan", "ios": "https://dc.lft.to/lastmile_qr_scan"}, "is_reserved": 0, "is_disabled": 0, "type": "electric_scooter", "bike_id": "1f946f64b289896a56e57447c8f049d3"}, {"lon": -77.02462433333334, "lat": 38.93864133333334, "name": "a94aee6fee90c4ed7a754484658dc511", "fusion_lat": 0.0, "fusion_lon": 0.0, "rental_uris": {"android": "https://dc.lft.to/lastmile_qr_scan", "ios": "https://dc.lft.to/lastmile_qr_scan"}, "is_reserved": 0, "is_disabled": 0, "type": "electric_scooter", "bike_id": "a94aee6fee90c4ed7a754484658dc511"}, {"lon": -77.03854316666667, "lat": 38.9323445, "name": "4aa854ebfead2b67d069cf3bde1c1d96", "fusion_lat": 0.0, "fusion_lon": 0.0, "rental_uris": {"android": "https://dc.lft.to/lastmile_qr_scan", "ios": "https://dc.lft.to/lastmile_qr_scan"}, "is_reserved": 0, "is_disabled": 0, "type": "electric_scooter", "bike_id": "4aa854ebfead2b67d069cf3bde1c1d96"}, {"lon": -77.02834683333333, "lat": 38.8876725, "name": "8ea0148588a97f291c9e3ae14ee35c5d", "fusion_lat": 0.0, "fusion_lon": 0.0, "rental_uris": {"android": "https://dc.lft.to/lastmile_qr_scan", "ios": "https://dc.lft.to/lastmile_qr_scan"}, "is_reserved": 0, "is_disabled": 0, "type": "electric_scooter", "bike_id": "8ea0148588a97f291c9e3ae14ee35c5d"}, {"lon": -77.03154066666667, "lat": 38.897173333333335, "name": "d876b5231145afe4adc26683ddf1949f", "fusion_lat": 0.0, "fusion_lon": 0.0, "rental_uris": {"android": "https://dc.lft.to/lastmile_qr_scan", "ios": "https://dc.lft.to/lastmile_qr_scan"}, "is_reserved": 0, "is_disabled": 0, "type": "electric_scooter", "bike_id": "d876b5231145afe4adc26683ddf1949f"}, {"lon": -77.00199466666666, "lat": 38.90239416666667, "name": "ac2eb1d96730f8f8c4a98341582ced83", "fusion_lat": 0.0, "fusion_lon": 0.0, "rental_uris": {"android": "https://dc.lft.to/lastmile_qr_scan", "ios": "https://dc.lft.to/lastmile_qr_scan"}, "is_reserved": 0, "is_disabled": 0, "type": "electric_scooter", "bike_id": "ac2eb1d96730f8f8c4a98341582ced83"}, {"lon": -77.062711, "lat": 38.90591633333333, "name": "2240acd64d844d5c4aba581c70201154", "fusion_lat": 0.0, "fusion_lon": 0.0, "rental_uris": {"android": "https://dc.lft.to/lastmile_qr_scan", "ios": "https://dc.lft.to/lastmile_qr_scan"}, "is_reserved": 0, "is_disabled": 0, "type": "electric_scooter", "bike_id": "2240acd64d844d5c4aba581c70201154"}, {"lon": -77.007287, "lat": 38.877112333333336, "name": "5216e8e92ad7ad6bcf8d1319454da213", "fusion_lat": 0.0, "fusion_lon": 0.0, "rental_uris": {"android": "https://dc.lft.to/lastmile_qr_scan", "ios": "https://dc.lft.to/lastmile_qr_scan"}, "is_reserved": 0, "is_disabled": 0, "type": "electric_scooter", "bike_id": "5216e8e92ad7ad6bcf8d1319454da213"}, {"lon": -77.03403033333333, "lat": 38.919162166666666, "name": "745bfd1cede899b85b5099b7aaf7a331", "fusion_lat": 0.0, "fusion_lon": 0.0, "rental_uris": {"android": "https://dc.lft.to/lastmile_qr_scan", "ios": "https://dc.lft.to/lastmile_qr_scan"}, "is_reserved": 0, "is_disabled": 0, "type": "electric_scooter", "bike_id": "745bfd1cede899b85b5099b7aaf7a331"}, {"lon": -76.999157, "lat": 38.909396, "name": "e5b12dbcd47f16371387a6e8ee506458", "fusion_lat": 0.0, "fusion_lon": 0.0, "rental_uris": {"android": "https://dc.lft.to/lastmile_qr_scan", "ios": "https://dc.lft.to/lastmile_qr_scan"}, "is_reserved": 0, "is_disabled": 0, "type": "electric_scooter", "bike_id": "e5b12dbcd47f16371387a6e8ee506458"}, {"lon": -77.03720716666666, "lat": 38.9286125, "name": "153254f68e04a59e333db6d35b879620", "fusion_lat": 0.0, "fusion_lon": 0.0, "rental_uris": {"android": "https://dc.lft.to/lastmile_qr_scan", "ios": "https://dc.lft.to/lastmile_qr_scan"}, "is_reserved": 0, "is_disabled": 0, "type": "electric_scooter", "bike_id": "153254f68e04a59e333db6d35b879620"}, {"lon": -77.03824683333333, "lat": 38.93133383333333, "name": "a1ab0dcc17e7b437c4bab80d6380b924", "fusion_lat": 0.0, "fusion_lon": 0.0, "rental_uris": {"android": "https://dc.lft.to/lastmile_qr_scan", "ios": "https://dc.lft.to/lastmile_qr_scan"}, "is_reserved": 0, "is_disabled": 0, "type": "electric_scooter", "bike_id": "a1ab0dcc17e7b437c4bab80d6380b924"}, {"lon": -76.98037, "lat": 38.88967866666667, "name": "2809f663f4173295635d0a5b7ec02f48", "fusion_lat": 0.0, "fusion_lon": 0.0, "rental_uris": {"android": "https://dc.lft.to/lastmile_qr_scan", "ios": "https://dc.lft.to/lastmile_qr_scan"}, "is_reserved": 0, "is_disabled": 0, "type": "electric_scooter", "bike_id": "2809f663f4173295635d0a5b7ec02f48"}, {"lon": -77.073505, "lat": 38.91103066666667, "name": "aefac68fd3effec8f7cc1adced4fb2da", "fusion_lat": 0.0, "fusion_lon": 0.0, "rental_uris": {"android": "https://dc.lft.to/lastmile_qr_scan", "ios": "https://dc.lft.to/lastmile_qr_scan"}, "is_reserved": 0, "is_disabled": 0, "type": "electric_scooter", "bike_id": "aefac68fd3effec8f7cc1adced4fb2da"}, {"lon": -77.03171116666667, "lat": 38.9190755, "name": "ef764a4737a4d3a460dedab1d85f510f", "fusion_lat": 0.0, "fusion_lon": 0.0, "rental_uris": {"android": "https://dc.lft.to/lastmile_qr_scan", "ios": "https://dc.lft.to/lastmile_qr_scan"}, "is_reserved": 0, "is_disabled": 0, "type": "electric_scooter", "bike_id": "ef764a4737a4d3a460dedab1d85f510f"}, {"lon": -77.02126616666666, "lat": 38.923932, "name": "d5dc06880772ad2e0ec4e9ae551ef01c", "fusion_lat": 0.0, "fusion_lon": 0.0, "rental_uris": {"android": "https://dc.lft.to/lastmile_qr_scan", "ios": "https://dc.lft.to/lastmile_qr_scan"}, "is_reserved": 0, "is_disabled": 0, "type": "electric_scooter", "bike_id": "d5dc06880772ad2e0ec4e9ae551ef01c"}, {"lon": -77.0332645, "lat": 38.89880816666667, "name": "aa46c5ce1faa854af6345acca5994b2f", "fusion_lat": 0.0, "fusion_lon": 0.0, "rental_uris": {"android": "https://dc.lft.to/lastmile_qr_scan", "ios": "https://dc.lft.to/lastmile_qr_scan"}, "is_reserved": 0, "is_disabled": 0, "type": "electric_scooter", "bike_id": "aa46c5ce1faa854af6345acca5994b2f"}, {"lon": -77.00714433333333, "lat": 38.90464133333333, "name": "785cc36de2c5a1525c5445ff74f2c1e4", "fusion_lat": 0.0, "fusion_lon": 0.0, "rental_uris": {"android": "https://dc.lft.to/lastmile_qr_scan", "ios": "https://dc.lft.to/lastmile_qr_scan"}, "is_reserved": 0, "is_disabled": 0, "type": "electric_scooter", "bike_id": "785cc36de2c5a1525c5445ff74f2c1e4"}, {"lon": -77.0218005, "lat": 38.90976583333333, "name": "69104bd6912504ff2e73d170410147fa", "fusion_lat": 0.0, "fusion_lon": 0.0, "rental_uris": {"android": "https://dc.lft.to/lastmile_qr_scan", "ios": "https://dc.lft.to/lastmile_qr_scan"}, "is_reserved": 0, "is_disabled": 0, "type": "electric_scooter", "bike_id": "69104bd6912504ff2e73d170410147fa"}, {"lon": -77.06052033333333, "lat": 38.939121, "name": "5b18391560188acc4a292b4e959e9887", "fusion_lat": 0.0, "fusion_lon": 0.0, "rental_uris": {"android": "https://dc.lft.to/lastmile_qr_scan", "ios": "https://dc.lft.to/lastmile_qr_scan"}, "is_reserved": 0, "is_disabled": 0, "type": "electric_scooter", "bike_id": "5b18391560188acc4a292b4e959e9887"}, {"lon": -77.04520683333334, "lat": 38.903419, "name": "d14b32c3dc1fd427c0a57f364b595d5c", "fusion_lat": 0.0, "fusion_lon": 0.0, "rental_uris": {"android": "https://dc.lft.to/lastmile_qr_scan", "ios": "https://dc.lft.to/lastmile_qr_scan"}, "is_reserved": 0, "is_disabled": 0, "type": "electric_scooter", "bike_id": "d14b32c3dc1fd427c0a57f364b595d5c"}, {"lon": -76.93346366666667, "lat": 38.89908616666666, "name": "f0e767d5c2aa85d3fa0133f5a50c0670", "fusion_lat": 0.0, "fusion_lon": 0.0, "rental_uris": {"android": "https://dc.lft.to/lastmile_qr_scan", "ios": "https://dc.lft.to/lastmile_qr_scan"}, "is_reserved": 0, "is_disabled": 0, "type": "electric_scooter", "bike_id": "f0e767d5c2aa85d3fa0133f5a50c0670"}, {"lon": -77.02830233333333, "lat": 38.892224666666664, "name": "e86ca34fc4eea157cfb061c063761a81", "fusion_lat": 0.0, "fusion_lon": 0.0, "rental_uris": {"android": "https://dc.lft.to/lastmile_qr_scan", "ios": "https://dc.lft.to/lastmile_qr_scan"}, "is_reserved": 0, "is_disabled": 0, "type": "electric_scooter", "bike_id": "e86ca34fc4eea157cfb061c063761a81"}, {"lon": -77.00195633333334, "lat": 38.95246783333333, "name": "bf92451c3354dd248f4d1a5e8490a8ad", "fusion_lat": 0.0, "fusion_lon": 0.0, "rental_uris": {"android": "https://dc.lft.to/lastmile_qr_scan", "ios": "https://dc.lft.to/lastmile_qr_scan"}, "is_reserved": 0, "is_disabled": 0, "type": "electric_scooter", "bike_id": "bf92451c3354dd248f4d1a5e8490a8ad"}, {"lon": -77.03175433333334, "lat": 38.89366316666667, "name": "527420c1b06d8a227713dffd82243601", "fusion_lat": 0.0, "fusion_lon": 0.0, "rental_uris": {"android": "https://dc.lft.to/lastmile_qr_scan", "ios": "https://dc.lft.to/lastmile_qr_scan"}, "is_reserved": 0, "is_disabled": 0, "type": "electric_scooter", "bike_id": "527420c1b06d8a227713dffd82243601"}, {"lon": -77.036999, "lat": 38.92641033333334, "name": "1fb377e6ba7f2ce399c3645177c638ea", "fusion_lat": 0.0, "fusion_lon": 0.0, "rental_uris": {"android": "https://dc.lft.to/lastmile_qr_scan", "ios": "https://dc.lft.to/lastmile_qr_scan"}, "is_reserved": 0, "is_disabled": 0, "type": "electric_scooter", "bike_id": "1fb377e6ba7f2ce399c3645177c638ea"}, {"lon": -77.04119416666667, "lat": 38.91893066666667, "name": "6b3d3a943f279c08a43eec12dbbdcdd6", "fusion_lat": 0.0, "fusion_lon": 0.0, "rental_uris": {"android": "https://dc.lft.to/lastmile_qr_scan", "ios": "https://dc.lft.to/lastmile_qr_scan"}, "is_reserved": 0, "is_disabled": 0, "type": "electric_scooter", "bike_id": "6b3d3a943f279c08a43eec12dbbdcdd6"}, {"lon": -77.0240795, "lat": 38.920050333333336, "name": "bfa30ee9eee35d573aea9551c77b1192", "fusion_lat": 0.0, "fusion_lon": 0.0, "rental_uris": {"android": "https://dc.lft.to/lastmile_qr_scan", "ios": "https://dc.lft.to/lastmile_qr_scan"}, "is_reserved": 0, "is_disabled": 0, "type": "electric_scooter", "bike_id": "bfa30ee9eee35d573aea9551c77b1192"}, {"lon": -77.048347, "lat": 38.900799166666665, "name": "77e3a16a4085b543dadb1caaaba69c23", "fusion_lat": 0.0, "fusion_lon": 0.0, "rental_uris": {"android": "https://dc.lft.to/lastmile_qr_scan", "ios": "https://dc.lft.to/lastmile_qr_scan"}, "is_reserved": 0, "is_disabled": 0, "type": "electric_scooter", "bike_id": "77e3a16a4085b543dadb1caaaba69c23"}, {"lon": -77.00069016666667, "lat": 38.883743333333335, "name": "ca5065632ffdcaf7298a15ba7f92f54f", "fusion_lat": 0.0, "fusion_lon": 0.0, "rental_uris": {"android": "https://dc.lft.to/lastmile_qr_scan", "ios": "https://dc.lft.to/lastmile_qr_scan"}, "is_reserved": 0, "is_disabled": 0, "type": "electric_bike", "bike_id": "ca5065632ffdcaf7298a15ba7f92f54f"}, {"lon": -77.033737, "lat": 38.90391233333333, "name": "df3d20a3e20d2cda07d28ceb5020d72e", "fusion_lat": 0.0, "fusion_lon": 0.0, "rental_uris": {"android": "https://dc.lft.to/lastmile_qr_scan", "ios": "https://dc.lft.to/lastmile_qr_scan"}, "is_reserved": 0, "is_disabled": 0, "type": "electric_scooter", "bike_id": "df3d20a3e20d2cda07d28ceb5020d72e"}, {"lon": -77.03165533333333, "lat": 38.909611166666664, "name": "faf3b378d19ad3e5e8a3f5d3fb3fe5d6", "fusion_lat": 0.0, "fusion_lon": 0.0, "rental_uris": {"android": "https://dc.lft.to/lastmile_qr_scan", "ios": "https://dc.lft.to/lastmile_qr_scan"}, "is_reserved": 0, "is_disabled": 0, "type": "electric_scooter", "bike_id": "faf3b378d19ad3e5e8a3f5d3fb3fe5d6"}, {"lon": -77.03473666666666, "lat": 38.917089833333335, "name": "582609356d11694047b4496b97eb8220", "fusion_lat": 0.0, "fusion_lon": 0.0, "rental_uris": {"android": "https://dc.lft.to/lastmile_qr_scan", "ios": "https://dc.lft.to/lastmile_qr_scan"}, "is_reserved": 0, "is_disabled": 0, "type": "electric_scooter", "bike_id": "582609356d11694047b4496b97eb8220"}, {"lon": -77.06340616666667, "lat": 38.90678283333333, "name": "ee2a7f7b5f34cb163bc2283c11b61a3b", "fusion_lat": 0.0, "fusion_lon": 0.0, "rental_uris": {"android": "https://dc.lft.to/lastmile_qr_scan", "ios": "https://dc.lft.to/lastmile_qr_scan"}, "is_reserved": 0, "is_disabled": 0, "type": "electric_scooter", "bike_id": "ee2a7f7b5f34cb163bc2283c11b61a3b"}, {"lon": -77.03639233333334, "lat": 38.91264283333334, "name": "463180b679616386a0e25ab4a9ae220a", "fusion_lat": 0.0, "fusion_lon": 0.0, "rental_uris": {"android": "https://dc.lft.to/lastmile_qr_scan", "ios": "https://dc.lft.to/lastmile_qr_scan"}, "is_reserved": 0, "is_disabled": 0, "type": "electric_scooter", "bike_id": "463180b679616386a0e25ab4a9ae220a"}, {"lon": -77.00808633333334, "lat": 38.90575366666667, "name": "96fed9b691c87a2b9b361916f8534b6f", "fusion_lat": 0.0, "fusion_lon": 0.0, "rental_uris": {"android": "https://dc.lft.to/lastmile_qr_scan", "ios": "https://dc.lft.to/lastmile_qr_scan"}, "is_reserved": 0, "is_disabled": 0, "type": "electric_scooter", "bike_id": "96fed9b691c87a2b9b361916f8534b6f"}, {"lon": -77.027647, "lat": 38.913434333333335, "name": "f7c5aa77336a66b7ac0c502d4ad31ddd", "fusion_lat": 0.0, "fusion_lon": 0.0, "rental_uris": {"android": "https://dc.lft.to/lastmile_qr_scan", "ios": "https://dc.lft.to/lastmile_qr_scan"}, "is_reserved": 0, "is_disabled": 0, "type": "electric_scooter", "bike_id": "f7c5aa77336a66b7ac0c502d4ad31ddd"}, {"lon": -77.03130533333334, "lat": 38.91930416666667, "name": "725b067efb012fc82c7029d573b8fa3d", "fusion_lat": 0.0, "fusion_lon": 0.0, "rental_uris": {"android": "https://dc.lft.to/lastmile_qr_scan", "ios": "https://dc.lft.to/lastmile_qr_scan"}, "is_reserved": 0, "is_disabled": 0, "type": "electric_scooter", "bike_id": "725b067efb012fc82c7029d573b8fa3d"}, {"lon": -76.98413516666666, "lat": 38.899960166666666, "name": "6e91fc9a838bd0ffe6965f2620caf032", "fusion_lat": 0.0, "fusion_lon": 0.0, "rental_uris": {"android": "https://dc.lft.to/lastmile_qr_scan", "ios": "https://dc.lft.to/lastmile_qr_scan"}, "is_reserved": 0, "is_disabled": 0, "type": "electric_scooter", "bike_id": "6e91fc9a838bd0ffe6965f2620caf032"}, {"lon": -77.002135, "lat": 38.92445516666667, "name": "42a854238a729dbbacd51047d7c03fe5", "fusion_lat": 0.0, "fusion_lon": 0.0, "rental_uris": {"android": "https://dc.lft.to/lastmile_qr_scan", "ios": "https://dc.lft.to/lastmile_qr_scan"}, "is_reserved": 0, "is_disabled": 0, "type": "electric_scooter", "bike_id": "42a854238a729dbbacd51047d7c03fe5"}, {"lon": -77.04699, "lat": 38.92152883333333, "name": "e32d3e99a6ba4af0c4f8acee373de6aa", "fusion_lat": 0.0, "fusion_lon": 0.0, "rental_uris": {"android": "https://dc.lft.to/lastmile_qr_scan", "ios": "https://dc.lft.to/lastmile_qr_scan"}, "is_reserved": 0, "is_disabled": 0, "type": "electric_scooter", "bike_id": "e32d3e99a6ba4af0c4f8acee373de6aa"}, {"lon": -77.0382285, "lat": 38.92062833333333, "name": "f1c8d01f384c407ae6689a2a86740b1b", "fusion_lat": 0.0, "fusion_lon": 0.0, "rental_uris": {"android": "https://dc.lft.to/lastmile_qr_scan", "ios": "https://dc.lft.to/lastmile_qr_scan"}, "is_reserved": 0, "is_disabled": 0, "type": "electric_scooter", "bike_id": "f1c8d01f384c407ae6689a2a86740b1b"}, {"lon": -76.91924233333333, "lat": 38.89075, "name": "52b71dce29d317b0efc8bd92ceb0a0f2", "fusion_lat": 0.0, "fusion_lon": 0.0, "rental_uris": {"android": "https://dc.lft.to/lastmile_qr_scan", "ios": "https://dc.lft.to/lastmile_qr_scan"}, "is_reserved": 0, "is_disabled": 0, "type": "electric_scooter", "bike_id": "52b71dce29d317b0efc8bd92ceb0a0f2"}, {"lon": -77.046951, "lat": 38.92099566666667, "name": "990da1870ea1d76362a96a86cd045353", "fusion_lat": 0.0, "fusion_lon": 0.0, "rental_uris": {"android": "https://dc.lft.to/lastmile_qr_scan", "ios": "https://dc.lft.to/lastmile_qr_scan"}, "is_reserved": 0, "is_disabled": 0, "type": "electric_scooter", "bike_id": "990da1870ea1d76362a96a86cd045353"}, {"lon": -77.0060455, "lat": 38.898011, "name": "6415ae4f40a062c001b2821fa7a7312d", "fusion_lat": 0.0, "fusion_lon": 0.0, "rental_uris": {"android": "https://dc.lft.to/lastmile_qr_scan", "ios": "https://dc.lft.to/lastmile_qr_scan"}, "is_reserved": 0, "is_disabled": 0, "type": "electric_bike", "bike_id": "6415ae4f40a062c001b2821fa7a7312d"}, {"lon": -77.04478816666666, "lat": 38.910817, "name": "3021a384cd967dcb62edcd596a65d644", "fusion_lat": 0.0, "fusion_lon": 0.0, "rental_uris": {"android": "https://dc.lft.to/lastmile_qr_scan", "ios": "https://dc.lft.to/lastmile_qr_scan"}, "is_reserved": 0, "is_disabled": 0, "type": "electric_scooter", "bike_id": "3021a384cd967dcb62edcd596a65d644"}, {"lon": -77.034665, "lat": 38.904776166666664, "name": "5f5f45b89e50205548fa31a9c41ad283", "fusion_lat": 0.0, "fusion_lon": 0.0, "rental_uris": {"android": "https://dc.lft.to/lastmile_qr_scan", "ios": "https://dc.lft.to/lastmile_qr_scan"}, "is_reserved": 0, "is_disabled": 0, "type": "electric_scooter", "bike_id": "5f5f45b89e50205548fa31a9c41ad283"}, {"lon": -77.00280716666667, "lat": 38.91167983333333, "name": "e2a3258111a646578165f8ac5e4c5603", "fusion_lat": 0.0, "fusion_lon": 0.0, "rental_uris": {"android": "https://dc.lft.to/lastmile_qr_scan", "ios": "https://dc.lft.to/lastmile_qr_scan"}, "is_reserved": 0, "is_disabled": 0, "type": "electric_bike", "bike_id": "e2a3258111a646578165f8ac5e4c5603"}, {"lon": -77.04787266666666, "lat": 38.893768333333334, "name": "536cae59aa77a3655583157518f7eaf7", "fusion_lat": 0.0, "fusion_lon": 0.0, "rental_uris": {"android": "https://dc.lft.to/lastmile_qr_scan", "ios": "https://dc.lft.to/lastmile_qr_scan"}, "is_reserved": 0, "is_disabled": 0, "type": "electric_scooter", "bike_id": "536cae59aa77a3655583157518f7eaf7"}, {"lon": -77.04344133333333, "lat": 38.89822766666666, "name": "4b34809dbdd4c403606bf6782f2687a4", "fusion_lat": 0.0, "fusion_lon": 0.0, "rental_uris": {"android": "https://dc.lft.to/lastmile_qr_scan", "ios": "https://dc.lft.to/lastmile_qr_scan"}, "is_reserved": 0, "is_disabled": 0, "type": "electric_scooter", "bike_id": "4b34809dbdd4c403606bf6782f2687a4"}, {"lon": -76.991431, "lat": 38.90019983333333, "name": "ccdc1ba7522f397e5f01a67858ea9371", "fusion_lat": 0.0, "fusion_lon": 0.0, "rental_uris": {"android": "https://dc.lft.to/lastmile_qr_scan", "ios": "https://dc.lft.to/lastmile_qr_scan"}, "is_reserved": 0, "is_disabled": 0, "type": "electric_scooter", "bike_id": "ccdc1ba7522f397e5f01a67858ea9371"}, {"lon": -77.01022466666667, "lat": 38.9213035, "name": "b7608877218069fb3c8f07aa8b014143", "fusion_lat": 0.0, "fusion_lon": 0.0, "rental_uris": {"android": "https://dc.lft.to/lastmile_qr_scan", "ios": "https://dc.lft.to/lastmile_qr_scan"}, "is_reserved": 0, "is_disabled": 0, "type": "electric_scooter", "bike_id": "b7608877218069fb3c8f07aa8b014143"},