{"data": {"bikes": [{"fusion_lat": 0.0, "lon": -76.9855975, "is_reserved": 0, "bike_id": "0970497c9f82e0c817855fd9cd7fe81d", "fusion_lon": 0.0, "rental_uris": {"android": "https://dc.lft.to/lastmile_qr_scan", "ios": "https://dc.lft.to/lastmile_qr_scan"}, "name": "0970497c9f82e0c817855fd9cd7fe81d", "type": "electric_scooter", "lat": 38.9103425, "is_disabled": 0}, {"fusion_lat": 0.0, "lon": -77.04471, "is_reserved": 0, "bike_id": "de15b13817f49fdc0e10076571421831", "fusion_lon": 0.0, "rental_uris": {"android": "https://dc.lft.to/lastmile_qr_scan", "ios": "https://dc.lft.to/lastmile_qr_scan"}, "name": "de15b13817f49fdc0e10076571421831", "type": "electric_scooter", "lat": 38.91869883333333, "is_disabled": 0}, {"fusion_lat": 0.0, "lon": -77.03259216666666, "is_reserved": 0, "bike_id": "1769df07d0d423a22d87ad32bf9eb9c8", "fusion_lon": 0.0, "rental_uris": {"android": "https://dc.lft.to/lastmile_qr_scan", "ios": "https://dc.lft.to/lastmile_qr_scan"}, "name": "1769df07d0d423a22d87ad32bf9eb9c8", "type": "electric_scooter", "lat": 38.90259183333333, "is_disabled": 0}, {"fusion_lat": 0.0, "lon": -77.05155683333334, "is_reserved": 0, "bike_id": "2a6f42c2f35f7edd3bc03f1dc3b2541a", "fusion_lon": 0.0, "rental_uris": {"android": "https://dc.lft.to/lastmile_qr_scan", "ios": "https://dc.lft.to/lastmile_qr_scan"}, "name": "2a6f42c2f35f7edd3bc03f1dc3b2541a", "type": "electric_scooter", "lat": 38.90526716666667, "is_disabled": 0}, {"fusion_lat": 0.0, "lon": -76.935423, "is_reserved": 0, "bike_id": "219210aa438e0451d20f06e99d2186b5", "fusion_lon": 0.0, "rental_uris": {"android": "https://dc.lft.to/lastmile_qr_scan", "ios": "https://dc.lft.to/lastmile_qr_scan"}, "name": "219210aa438e0451d20f06e99d2186b5", "type": "electric_bike", "lat": 38.9555715, "is_disabled": 0}, {"fusion_lat": 0.0, "lon": -77.05998316666667, "is_reserved": 0, "bike_id": "7206f8d3d0d8cddb34fa65c0ce8fc14c", "fusion_lon": 0.0, "rental_uris": {"android": "https://dc.lft.to/lastmile_qr_scan", "ios": "https://dc.lft.to/lastmile_qr_scan"}, "name": "7206f8d3d0d8cddb34fa65c0ce8fc14c", "type": "electric_bike", "lat": 38.9050715, "is_disabled": 0}, {"fusion_lat": 0.0, "lon": -76.931984, "is_reserved": 0, "bike_id": "cc26ff3f1869592d560d0c9c9d50c3ba", "fusion_lon": 0.0, "rental_uris": {"android": "https://dc.lft.to/lastmile_qr_scan", "ios": "https://dc.lft.to/lastmile_qr_scan"}, "name": "cc26ff3f1869592d560d0c9c9d50c3ba", "type": "electric_scooter", "lat": 38.898807833333336, "is_disabled": 0}, {"fusion_lat": 0.0, "lon": -77.049773, "is_reserved": 0, "bike_id": "38c54f14ed708f66caf3a7aa93fb708d", "fusion_lon": 0.0, "rental_uris": {"android": "https://dc.lft.to/lastmile_qr_scan", "ios": "https://dc.lft.to/lastmile_qr_scan"}, "name": "38c54f14ed708f66caf3a7aa93fb708d", "type": "electric_scooter", "lat": 38.90369283333333, "is_disabled": 0}, {"fusion_lat": 0.0, "lon": -76.985115, "is_reserved": 0, "bike_id": "9b038bdad773727c7348400629d58e5c", "fusion_lon": 0.0, "rental_uris": {"android": "https://dc.lft.to/lastmile_qr_scan", "ios": "https://dc.lft.to/lastmile_qr_scan"}, "name": "9b038bdad773727c7348400629d58e5c", "type": "electric_scooter", "lat": 38.86659133333333, "is_disabled": 0}, {"fusion_lat": 0.0, "lon": -77.02296266666667, "is_reserved": 0, "bike_id": "2219b60f1aaa25a4cceb0f5268aa59a0", "fusion_lon": 0.0, "rental_uris": {"android": "https://dc.lft.to/lastmile_qr_scan", "ios": "https://dc.lft.to/lastmile_qr_scan"}, "name": "2219b60f1aaa25a4cceb0f5268aa59a0", "type": "electric_scooter", "lat": 38.91604783333333, "is_disabled": 0}, {"fusion_lat": 0.0, "lon": -77.0233115, "is_reserved": 0, "bike_id": "7c74db5540f2efa1ed2c66e6e54dff6b", "fusion_lon": 0.0, "rental_uris": {"android": "https://dc.lft.to/lastmile_qr_scan", "ios": "https://dc.lft.to/lastmile_qr_scan"}, "name": "7c74db5540f2efa1ed2c66e6e54dff6b", "type": "electric_scooter", "lat": 38.928884833333335, "is_disabled": 0}, {"fusion_lat": 0.0, "lon": -77.02590816666667, "is_reserved": 0, "bike_id": "d7d7f4678a588fe45a27aeb10cdb0e08", "fusion_lon": 0.0, "rental_uris": {"android": "https://dc.lft.to/lastmile_qr_scan", "ios": "https://dc.lft.to/lastmile_qr_scan"}, "name": "d7d7f4678a588fe45a27aeb10cdb0e08", "type": "electric_scooter", "lat": 38.904946, "is_disabled": 0}, {"fusion_lat": 0.0, "lon": -77.07970233333333, "is_reserved": 0, "bike_id": "f686d018f0cd9c018153744360612386", "fusion_lon": 0.0, "rental_uris": {"android": "https://dc.lft.to/lastmile_qr_scan", "ios": "https://dc.lft.to/lastmile_qr_scan"}, "name": "f686d018f0cd9c018153744360612386", "type": "electric_scooter", "lat": 38.925806666666666, "is_disabled": 0}, {"fusion_lat": 0.0, "lon": -77.057389, "is_reserved": 0, "bike_id": "71ffaffa208e326fda3e275e458c3bbb", "fusion_lon": 0.0, "rental_uris": {"android": "https://dc.lft.to/lastmile_qr_scan", "ios": "https://dc.lft.to/lastmile_qr_scan"}, "name": "71ffaffa208e326fda3e275e458c3bbb", "type": "electric_scooter", "lat": 38.9337625, "is_disabled": 0}, {"fusion_lat": 0.0, "lon": -77.0194925, "is_reserved": 0, "bike_id": "abbcd0a521e6726386bd2239ef1e12b6", "fusion_lon": 0.0, "rental_uris": {"android": "https://dc.lft.to/lastmile_qr_scan", "ios": "https://dc.lft.to/lastmile_qr_scan"}, "name": "abbcd0a521e6726386bd2239ef1e12b6", "type": "electric_bike", "lat": 38.92417366666667, "is_disabled": 0}, {"fusion_lat": 0.0, "lon": -77.019328, "is_reserved": 0, "bike_id": "290fdca9ce55eec7e733204316f0abaa", "fusion_lon": 0.0, "rental_uris": {"android": "https://dc.lft.to/lastmile_qr_scan", "ios": "https://dc.lft.to/lastmile_qr_scan"}, "name": "290fdca9ce55eec7e733204316f0abaa", "type": "electric_scooter", "lat": 38.9469655, "is_disabled": 0}, {"fusion_lat": 0.0, "lon": -77.06010433333333, "is_reserved": 0, "bike_id": "5ad06c92634bf131369ec6cf9a10cc95", "fusion_lon": 0.0, "rental_uris": {"android": "https://dc.lft.to/lastmile_qr_scan", "ios": "https://dc.lft.to/lastmile_qr_scan"}, "name": "5ad06c92634bf131369ec6cf9a10cc95", "type": "electric_scooter", "lat": 38.9019445, "is_disabled": 0}, {"fusion_lat": 0.0, "lon": -77.03958966666667, "is_reserved": 0, "bike_id": "fdd5bc3cf1094b7716b983cd8c421fc9", "fusion_lon": 0.0, "rental_uris": {"android": "https://dc.lft.to/lastmile_qr_scan", "ios": "https://dc.lft.to/lastmile_qr_scan"}, "name": "fdd5bc3cf1094b7716b983cd8c421fc9", "type": "electric_scooter", "lat": 38.892429666666665, "is_disabled": 0}, {"fusion_lat": 0.0, "lon": -76.98286983333334, "is_reserved": 0, "bike_id": "d60df0dea36730bec7efb7cbe4c985f7", "fusion_lon": 0.0, "rental_uris": {"android": "https://dc.lft.to/lastmile_qr_scan", "ios": "https://dc.lft.to/lastmile_qr_scan"}, "name": "d60df0dea36730bec7efb7cbe4c985f7", "type": "electric_scooter", "lat": 38.90041866666667, "is_disabled": 0}, {"fusion_lat": 0.0, "lon": -76.9273615, "is_reserved": 0, "bike_id": "b7348bbaa157d1a92721724723c14c88", "fusion_lon": 0.0, "rental_uris": {"android": "https://dc.lft.to/lastmile_qr_scan", "ios": "https://dc.lft.to/lastmile_qr_scan"}, "name": "b7348bbaa157d1a92721724723c14c88", "type": "electric_scooter", "lat": 38.889619, "is_disabled": 0}, {"fusion_lat": 0.0, "lon": -76.9315815, "is_reserved": 0, "bike_id": "83b2b8dbf634ee0e7f595299eaab31a4", "fusion_lon": 0.0, "rental_uris": {"android": "https://dc.lft.to/lastmile_qr_scan", "ios": "https://dc.lft.to/lastmile_qr_scan"}, "name": "83b2b8dbf634ee0e7f595299eaab31a4", "type": "electric_scooter", "lat": 38.898740333333336, "is_disabled": 0}, {"fusion_lat": 0.0, "lon": -76.99505833333333, "is_reserved": 0, "bike_id": "d3faca4691d6c13f15c8d2ce486f76ca", "fusion_lon": 0.0, "rental_uris": {"android": "https://dc.lft.to/lastmile_qr_scan", "ios": "https://dc.lft.to/lastmile_qr_scan"}, "name": "d3faca4691d6c13f15c8d2ce486f76ca", "type": "electric_scooter", "lat": 38.88282433333333, "is_disabled": 0}, {"fusion_lat": 0.0, "lon": -77.02800866666666, "is_reserved": 0, "bike_id": "4639680702521da1ae3ef7d55dc91107", "fusion_lon": 0.0, "rental_uris": {"android": "https://dc.lft.to/lastmile_qr_scan", "ios": "https://dc.lft.to/lastmile_qr_scan"}, "name": "4639680702521da1ae3ef7d55dc91107", "type": "electric_scooter", "lat": 38.909752166666664, "is_disabled": 0}, {"fusion_lat": 0.0, "lon": -77.04658366666666, "is_reserved": 0, "bike_id": "a5ff84c7405c55d0c1d93adbc5d978f9", "fusion_lon": 0.0, "rental_uris": {"android": "https://dc.lft.to/lastmile_qr_scan", "ios": "https://dc.lft.to/lastmile_qr_scan"}, "name": "a5ff84c7405c55d0c1d93adbc5d978f9", "type": "electric_scooter", "lat": 38.90328866666667, "is_disabled": 0}, {"fusion_lat": 0.0, "lon": -77.01983833333334, "is_reserved": 0, "bike_id": "9db24330b4f692ff42c962f3073f8c25", "fusion_lon": 0.0, "rental_uris": {"android": "https://dc.lft.to/lastmile_qr_scan", "ios": "https://dc.lft.to/lastmile_qr_scan"}, "name": "9db24330b4f692ff42c962f3073f8c25", "type": "electric_scooter", "lat": 38.92271983333333, "is_disabled": 0}, {"fusion_lat": 0.0, "lon": -77.02963716666666, "is_reserved": 0, "bike_id": "0a3f83a1608e44f9fff4ae65a2f3017d", "fusion_lon": 0.0, "rental_uris": {"android": "https://dc.lft.to/lastmile_qr_scan", "ios": "https://dc.lft.to/lastmile_qr_scan"}, "name": "0a3f83a1608e44f9fff4ae65a2f3017d", "type": "electric_scooter", "lat": 38.91694783333333, "is_disabled": 0}, {"fusion_lat": 0.0, "lon": -77.03617016666666, "is_reserved": 0, "bike_id": "67ae3539c34aafaac0c9579d8d0ac2b5", "fusion_lon": 0.0, "rental_uris": {"android": "https://dc.lft.to/lastmile_qr_scan", "ios": "https://dc.lft.to/lastmile_qr_scan"}, "name": "67ae3539c34aafaac0c9579d8d0ac2b5", "type": "electric_scooter", "lat": 38.91713416666666, "is_disabled": 0}, {"fusion_lat": 0.0, "lon": -77.0317955, "is_reserved": 0, "bike_id": "4d66686ea99c3b7112c6af0513ec058f", "fusion_lon": 0.0, "rental_uris": {"android": "https://dc.lft.to/lastmile_qr_scan", "ios": "https://dc.lft.to/lastmile_qr_scan"}, "name": "4d66686ea99c3b7112c6af0513ec058f", "type": "electric_scooter", "lat": 38.913956166666665, "is_disabled": 0}, {"fusion_lat": 0.0, "lon": -77.01286133333333, "is_reserved": 0, "bike_id": "10fb7ebe256b98b8de9568a240a8a6bb", "fusion_lon": 0.0, "rental_uris": {"android": "https://dc.lft.to/lastmile_qr_scan", "ios": "https://dc.lft.to/lastmile_qr_scan"}, "name": "10fb7ebe256b98b8de9568a240a8a6bb", "type": "electric_scooter", "lat": 38.9103055, "is_disabled": 0}, {"fusion_lat": 0.0, "lon": -77.03203833333333, "is_reserved": 0, "bike_id": "0b86f175e6da2fe6c4b003433fccdda9", "fusion_lon": 0.0, "rental_uris": {"android": "https://dc.lft.to/lastmile_qr_scan", "ios": "https://dc.lft.to/lastmile_qr_scan"}, "name": "0b86f175e6da2fe6c4b003433fccdda9", "type": "electric_scooter", "lat": 38.917821833333335, "is_disabled": 0}, {"fusion_lat": 0.0, "lon": -76.98104416666666, "is_reserved": 0, "bike_id": "65f79f76d9310a26f08b1f1f486363e0", "fusion_lon": 0.0, "rental_uris": {"android": "https://dc.lft.to/lastmile_qr_scan", "ios": "https://dc.lft.to/lastmile_qr_scan"}, "name": "65f79f76d9310a26f08b1f1f486363e0", "type": "electric_scooter", "lat": 38.90391183333333, "is_disabled": 0}, {"fusion_lat": 0.0, "lon": -77.04326633333334, "is_reserved": 0, "bike_id": "91d8b1737956a5f0de7fc34c1d8209de", "fusion_lon": 0.0, "rental_uris": {"android": "https://dc.lft.to/lastmile_qr_scan", "ios": "https://dc.lft.to/lastmile_qr_scan"}, "name": "91d8b1737956a5f0de7fc34c1d8209de", "type": "electric_scooter", "lat": 38.892246666666665, "is_disabled": 0}, {"fusion_lat": 0.0, "lon": -76.98539783333334, "is_reserved": 0, "bike_id": "ddc1053366fbaff64df687d9cc04835d", "fusion_lon": 0.0, "rental_uris": {"android": "https://dc.lft.to/lastmile_qr_scan", "ios": "https://dc.lft.to/lastmile_qr_scan"}, "name": "ddc1053366fbaff64df687d9cc04835d", "type": "electric_scooter", "lat": 38.86642033333333, "is_disabled": 0}, {"fusion_lat": 0.0, "lon": -77.00063416666667, "is_reserved": 0, "bike_id": "a2e77970a80a1165c76124e64f0a7cb5", "fusion_lon": 0.0, "rental_uris": {"android": "https://dc.lft.to/lastmile_qr_scan", "ios": "https://dc.lft.to/lastmile_qr_scan"}, "name": "a2e77970a80a1165c76124e64f0a7cb5", "type": "electric_scooter", "lat": 38.8999365, "is_disabled": 0}, {"fusion_lat": 0.0, "lon": -77.03208416666666, "is_reserved": 0, "bike_id": "5c1ff9292b727a4e1e19d352b7fac1b8", "fusion_lon": 0.0, "rental_uris": {"android": "https://dc.lft.to/lastmile_qr_scan", "ios": "https://dc.lft.to/lastmile_qr_scan"}, "name": "5c1ff9292b727a4e1e19d352b7fac1b8", "type": "electric_scooter", "lat": 38.9234655, "is_disabled": 0}, {"fusion_lat": 0.0, "lon": -77.03511416666667, "is_reserved": 0, "bike_id": "8f6492ca6cbc055376b7e54e00b3b6bb", "fusion_lon": 0.0, "rental_uris": {"android": "https://dc.lft.to/lastmile_qr_scan", "ios": "https://dc.lft.to/lastmile_qr_scan"}, "name": "8f6492ca6cbc055376b7e54e00b3b6bb", "type": "electric_scooter", "lat": 38.966210333333336, "is_disabled": 0}, {"fusion_lat": 0.0, "lon": -76.98537216666666, "is_reserved": 0, "bike_id": "9454c4d8b30c73f642f8fc31cf4a1c63", "fusion_lon": 0.0, "rental_uris": {"android": "https://dc.lft.to/lastmile_qr_scan", "ios": "https://dc.lft.to/lastmile_qr_scan"}, "name": "9454c4d8b30c73f642f8fc31cf4a1c63", "type": "electric_scooter", "lat": 38.9102465, "is_disabled": 0}, {"fusion_lat": 0.0, "lon": -77.03976233333333, "is_reserved": 0, "bike_id": "ee97e12efde7ec666989a82cacc6c3b1", "fusion_lon": 0.0, "rental_uris": {"android": "https://dc.lft.to/lastmile_qr_scan", "ios": "https://dc.lft.to/lastmile_qr_scan"}, "name": "ee97e12efde7ec666989a82cacc6c3b1", "type": "electric_scooter", "lat": 38.892190666666664, "is_disabled": 0}, {"fusion_lat": 0.0, "lon": -77.060869, "is_reserved": 0, "bike_id": "97661f98a9fec96515b36ad03eaa3c52", "fusion_lon": 0.0, "rental_uris": {"android": "https://dc.lft.to/lastmile_qr_scan", "ios": "https://dc.lft.to/lastmile_qr_scan"}, "name": "97661f98a9fec96515b36ad03eaa3c52", "type": "electric_scooter", "lat": 38.91172383333333, "is_disabled": 0}, {"fusion_lat": 0.0, "lon": -76.9963125, "is_reserved": 0, "bike_id": "b35d2d7a663d19e8ef944a6335fc7358", "fusion_lon": 0.0, "rental_uris": {"android": "https://dc.lft.to/lastmile_qr_scan", "ios": "https://dc.lft.to/lastmile_qr_scan"}, "name": "b35d2d7a663d19e8ef944a6335fc7358", "type": "electric_scooter", "lat": 38.900197666666664, "is_disabled": 0}, {"fusion_lat": 0.0, "lon": -77.01904883333333, "is_reserved": 0, "bike_id": "6b694e685fd5f1b09c9929f11101acd4", "fusion_lon": 0.0, "rental_uris": {"android": "https://dc.lft.to/lastmile_qr_scan", "ios": "https://dc.lft.to/lastmile_qr_scan"}, "name": "6b694e685fd5f1b09c9929f11101acd4", "type": "electric_scooter", "lat": 38.902176833333336, "is_disabled": 0}, {"fusion_lat": 0.0, "lon": -77.022262, "is_reserved": 0, "bike_id": "83ad4e6acf88bf6978279250b73754ba", "fusion_lon": 0.0, "rental_uris": {"android": "https://dc.lft.to/lastmile_qr_scan", "ios": "https://dc.lft.to/lastmile_qr_scan"}, "name": "83ad4e6acf88bf6978279250b73754ba", "type": "electric_scooter", "lat": 38.89213183333333, "is_disabled": 0}, {"fusion_lat": 0.0, "lon": -77.01249816666666, "is_reserved": 0, "bike_id": "236649c165d78d162189cd46d4eaaab9", "fusion_lon": 0.0, "rental_uris": {"android": "https://dc.lft.to/lastmile_qr_scan", "ios": "https://dc.lft.to/lastmile_qr_scan"}, "name": "236649c165d78d162189cd46d4eaaab9", "type": "electric_scooter", "lat": 38.8305055, "is_disabled": 0}, {"fusion_lat": 0.0, "lon": -76.9926895, "is_reserved": 0, "bike_id": "3046e440fbd35b882e12d4ba8ef2dbea", "fusion_lon": 0.0, "rental_uris": {"android": "https://dc.lft.to/lastmile_qr_scan", "ios": "https://dc.lft.to/lastmile_qr_scan"}, "name": "3046e440fbd35b882e12d4ba8ef2dbea", "type": "electric_scooter", "lat": 38.88617, "is_disabled": 0}, {"fusion_lat": 0.0, "lon": -77.04482183333333, "is_reserved": 0, "bike_id": "b56886cf672197255d1d2c144ed65df0", "fusion_lon": 0.0, "rental_uris": {"android": "https://dc.lft.to/lastmile_qr_scan", "ios": "https://dc.lft.to/lastmile_qr_scan"}, "name": "b56886cf672197255d1d2c144ed65df0", "type": "electric_scooter", "lat": 38.923986666666664, "is_disabled": 0}, {"fusion_lat": 0.0, "lon": -77.03528816666666, "is_reserved": 0, "bike_id": "87f43e8fbd27c725699ddd981be9e3e6", "fusion_lon": 0.0, "rental_uris": {"android": "https://dc.lft.to/lastmile_qr_scan", "ios": "https://dc.lft.to/lastmile_qr_scan"}, "name": "87f43e8fbd27c725699ddd981be9e3e6", "type": "electric_scooter", "lat": 38.923135, "is_disabled": 0}, {"fusion_lat": 0.0, "lon": -77.03955233333333, "is_reserved": 0, "bike_id": "3c51d69311f93949f2c523582f505990", "fusion_lon": 0.0, "rental_uris": {"android": "https://dc.lft.to/lastmile_qr_scan", "ios": "https://dc.lft.to/lastmile_qr_scan"}, "name": "3c51d69311f93949f2c523582f505990", "type": "electric_scooter", "lat": 38.892413166666664, "is_disabled": 0}, {"fusion_lat": 0.0, "lon": -77.05583916666667, "is_reserved": 0, "bike_id": "ed21d4d79381317d46b903be2aeadfc4", "fusion_lon": 0.0, "rental_uris": {"android": "https://dc.lft.to/lastmile_qr_scan", "ios": "https://dc.lft.to/lastmile_qr_scan"}, "name": "ed21d4d79381317d46b903be2aeadfc4", "type": "electric_scooter", "lat": 38.936183666666665, "is_disabled": 0}, {"fusion_lat": 0.0, "lon": -77.01714016666666, "is_reserved": 0, "bike_id": "bdff513f99322453a99adb5e9c3f2629", "fusion_lon": 0.0, "rental_uris": {"android": "https://dc.lft.to/lastmile_qr_scan", "ios": "https://dc.lft.to/lastmile_qr_scan"}, "name": "bdff513f99322453a99adb5e9c3f2629", "type": "electric_scooter", "lat": 38.9148715, "is_disabled": 0}, {"fusion_lat": 0.0, "lon": -77.048706, "is_reserved": 0, "bike_id": "e80e50258e9d00a4200fc4a9c54cc742", "fusion_lon": 0.0, "rental_uris": {"android": "https://dc.lft.to/lastmile_qr_scan", "ios": "https://dc.lft.to/lastmile_qr_scan"}, "name": "e80e50258e9d00a4200fc4a9c54cc742", "type": "electric_scooter", "lat": 38.9053165, "is_disabled": 0}, {"fusion_lat": 0.0, "lon": -77.03091, "is_reserved": 0, "bike_id": "c18557ffb021166bdd021d1ad1b1b265", "fusion_lon": 0.0, "rental_uris": {"android": "https://dc.lft.to/lastmile_qr_scan", "ios": "https://dc.lft.to/lastmile_qr_scan"}, "name": "c18557ffb021166bdd021d1ad1b1b265", "type": "electric_scooter", "lat": 38.922465333333335, "is_disabled": 0}, {"fusion_lat": 0.0, "lon": -77.0208785, "is_reserved": 0, "bike_id": "f1e1bd21b3678704e6bc7f44af996be0", "fusion_lon": 0.0, "rental_uris": {"android": "https://dc.lft.to/lastmile_qr_scan", "ios": "https://dc.lft.to/lastmile_qr_scan"}, "name": "f1e1bd21b3678704e6bc7f44af996be0", "type": "electric_scooter", "lat": 38.92716866666667, "is_disabled": 0}, {"fusion_lat": 0.0, "lon": -77.0318945, "is_reserved": 0, "bike_id": "7dc939a4c9dea3309c5f67e5d99b0ccd", "fusion_lon": 0.0, "rental_uris": {"android": "https://dc.lft.to/lastmile_qr_scan", "ios": "https://dc.lft.to/lastmile_qr_scan"}, "name": "7dc939a4c9dea3309c5f67e5d99b0ccd", "type": "electric_scooter", "lat": 38.91654333333334, "is_disabled": 0}, {"fusion_lat": 0.0, "lon": -77.02789433333334, "is_reserved": 0, "bike_id": "e11746bd9804fc843573128695d3715d", "fusion_lon": 0.0, "rental_uris": {"android": "https://dc.lft.to/lastmile_qr_scan", "ios": "https://dc.lft.to/lastmile_qr_scan"}, "name": "e11746bd9804fc843573128695d3715d", "type": "electric_scooter", "lat": 38.954045, "is_disabled": 0}, {"fusion_lat": 0.0, "lon": -76.98115583333333, "is_reserved": 0, "bike_id": "5d9707da4cc98c517a4e14c545d45e41", "fusion_lon": 0.0, "rental_uris": {"android": "https://dc.lft.to/lastmile_qr_scan", "ios": "https://dc.lft.to/lastmile_qr_scan"}, "name": "5d9707da4cc98c517a4e14c545d45e41", "type": "electric_scooter", "lat": 38.904053166666664, "is_disabled": 0}, {"fusion_lat": 0.0, "lon": -76.98367083333333, "is_reserved": 0, "bike_id": "9e8c204236f7bbe4521d5d8b0aa7f540", "fusion_lon": 0.0, "rental_uris": {"android": "https://dc.lft.to/lastmile_qr_scan", "ios": "https://dc.lft.to/lastmile_qr_scan"}, "name": "9e8c204236f7bbe4521d5d8b0aa7f540", "type": "electric_scooter", "lat": 38.91544016666667, "is_disabled": 0}, {"fusion_lat": 0.0, "lon": -77.03810883333334, "is_reserved": 0, "bike_id": "c05914162e17e7daa22b107b05895931", "fusion_lon": 0.0, "rental_uris": {"android": "https://dc.lft.to/lastmile_qr_scan", "ios": "https://dc.lft.to/lastmile_qr_scan"}, "name": "c05914162e17e7daa22b107b05895931", "type": "electric_scooter", "lat": 38.92506783333333, "is_disabled": 0}, {"fusion_lat": 0.0, "lon": -77.02659816666667, "is_reserved": 0, "bike_id": "de9c2b86ea8d58e015dc1b1b093bed04", "fusion_lon": 0.0, "rental_uris": {"android": "https://dc.lft.to/lastmile_qr_scan", "ios": "https://dc.lft.to/lastmile_qr_scan"}, "name": "de9c2b86ea8d58e015dc1b1b093bed04", "type": "electric_scooter", "lat": 38.89723983333333, "is_disabled": 0}, {"fusion_lat": 0.0, "lon": -77.0271885, "is_reserved": 0, "bike_id": "5a46f8974bc14032cfe13002f4bc34fb", "fusion_lon": 0.0, "rental_uris": {"android": "https://dc.lft.to/lastmile_qr_scan", "ios": "https://dc.lft.to/lastmile_qr_scan"}, "name": "5a46f8974bc14032cfe13002f4bc34fb", "type": "electric_scooter", "lat": 38.949537, "is_disabled": 0}, {"fusion_lat": 0.0, "lon": -77.00886766666666, "is_reserved": 0, "bike_id": "1b95217132f19d345d397cea729c9f05", "fusion_lon": 0.0, "rental_uris": {"android": "https://dc.lft.to/lastmile_qr_scan", "ios": "https://dc.lft.to/lastmile_qr_scan"}, "name": "1b95217132f19d345d397cea729c9f05", "type": "electric_scooter", "lat": 38.90261616666667, "is_disabled": 0}, {"fusion_lat": 0.0, "lon": -77.03020766666667, "is_reserved": 0, "bike_id": "87e57342ae5028b85aaba6e5bbfc2bd6", "fusion_lon": 0.0, "rental_uris": {"android": "https://dc.lft.to/lastmile_qr_scan", "ios": "https://dc.lft.to/lastmile_qr_scan"}, "name": "87e57342ae5028b85aaba6e5bbfc2bd6", "type": "electric_scooter", "lat": 38.89614133333333, "is_disabled": 0}, {"fusion_lat": 0.0, "lon": -77.01162766666667, "is_reserved": 0, "bike_id": "5266e3153d58c40bb34b6c86951c1363", "fusion_lon": 0.0, "rental_uris": {"android": "https://dc.lft.to/lastmile_qr_scan", "ios": "https://dc.lft.to/lastmile_qr_scan"}, "name": "5266e3153d58c40bb34b6c86951c1363", "type": "electric_scooter", "lat": 38.969789, "is_disabled": 0}, {"fusion_lat": 0.0, "lon": -77.05209033333334, "is_reserved": 0, "bike_id": "489511f6e2efdf53d26842767cd75002", "fusion_lon": 0.0, "rental_uris": {"android": "https://dc.lft.to/lastmile_qr_scan", "ios": "https://dc.lft.to/lastmile_qr_scan"}, "name": "489511f6e2efdf53d26842767cd75002", "type": "electric_scooter", "lat": 38.9156275, "is_disabled": 0}, {"fusion_lat": 0.0, "lon": -76.93615883333334, "is_reserved": 0, "bike_id": "8c99d1f4d4e628419d86cae9f8be28ba", "fusion_lon": 0.0, "rental_uris": {"android": "https://dc.lft.to/lastmile_qr_scan", "ios": "https://dc.lft.to/lastmile_qr_scan"}, "name": "8c99d1f4d4e628419d86cae9f8be28ba", "type": "electric_scooter", "lat": 38.886692833333335, "is_disabled": 0}, {"fusion_lat": 0.0, "lon": -77.03585916666667, "is_reserved": 0, "bike_id": "627639150faeafb2b0fdd41db6134629", "fusion_lon": 0.0, "rental_uris": {"android": "https://dc.lft.to/lastmile_qr_scan", "ios": "https://dc.lft.to/lastmile_qr_scan"}, "name": "627639150faeafb2b0fdd41db6134629", "type": "electric_scooter", "lat": 38.907619833333335, "is_disabled": 0}, {"fusion_lat": 0.0, "lon": -76.98272916666667, "is_reserved": 0, "bike_id": "ebd06cf9a46edc81ea1325ab19d3cb54", "fusion_lon": 0.0, "rental_uris": {"android": "https://dc.lft.to/lastmile_qr_scan", "ios": "https://dc.lft.to/lastmile_qr_scan"}, "name": "ebd06cf9a46edc81ea1325ab19d3cb54", "type": "electric_scooter", "lat": 38.86305883333333, "is_disabled": 0}, {"fusion_lat": 0.0, "lon": -77.00455583333333, "is_reserved": 0, "bike_id": "bf81b49e5024e586772b5cc15635a9c4", "fusion_lon": 0.0, "rental_uris": {"android": "https://dc.lft.to/lastmile_qr_scan", "ios": "https://dc.lft.to/lastmile_qr_scan"}, "name": "bf81b49e5024e586772b5cc15635a9c4", "type": "electric_scooter", "lat": 38.9135785, "is_disabled": 0}, {"fusion_lat": 0.0, "lon": -77.025003, "is_reserved": 0, "bike_id": "d805e059eff13b6b40b64bcabca02ef0", "fusion_lon": 0.0, "rental_uris": {"android": "https://dc.lft.to/lastmile_qr_scan", "ios": "https://dc.lft.to/lastmile_qr_scan"}, "name": "d805e059eff13b6b40b64bcabca02ef0", "type": "electric_scooter", "lat": 38.939607, "is_disabled": 0}, {"fusion_lat": 0.0, "lon": -77.03668233333333, "is_reserved": 0, "bike_id": "487d9e1c3dfcf5f4c79fb19768ca14d8", "fusion_lon": 0.0, "rental_uris": {"android": "https://dc.lft.to/lastmile_qr_scan", "ios": "https://dc.lft.to/lastmile_qr_scan"}, "name": "487d9e1c3dfcf5f4c79fb19768ca14d8", "type": "electric_scooter", "lat": 38.927238, "is_disabled": 0}, {"fusion_lat": 0.0, "lon": -77.07507266666667, "is_reserved": 0, "bike_id": "877667459cd0db5ad00d84c77bcea208", "fusion_lon": 0.0, "rental_uris": {"android": "https://dc.lft.to/lastmile_qr_scan", "ios": "https://dc.lft.to/lastmile_qr_scan"}, "name": "877667459cd0db5ad00d84c77bcea208", "type": "electric_scooter", "lat": 38.894645, "is_disabled": 0}, {"fusion_lat": 0.0, "lon": -77.02370466666666, "is_reserved": 0, "bike_id": "4b61e570fef4c3cb018bc07ff3735f00", "fusion_lon": 0.0, "rental_uris": {"android": "https://dc.lft.to/lastmile_qr_scan", "ios": "https://dc.lft.to/lastmile_qr_scan"}, "name": "4b61e570fef4c3cb018bc07ff3735f00", "type": "electric_scooter", "lat": 38.920488666666664, "is_disabled": 0}, {"fusion_lat": 0.0, "lon": -77.02046333333334, "is_reserved": 0, "bike_id": "4a4421a7c2ad596374f83c581e62a6f6", "fusion_lon": 0.0, "rental_uris": {"android": "https://dc.lft.to/lastmile_qr_scan", "ios": "https://dc.lft.to/lastmile_qr_scan"}, "name": "4a4421a7c2ad596374f83c581e62a6f6", "type": "electric_scooter", "lat": 38.915495666666665, "is_disabled": 0}, {"fusion_lat": 0.0, "lon": -76.94638633333334, "is_reserved": 0, "bike_id": "eebbad4b461bd7081deb399a008d96b6", "fusion_lon": 0.0, "rental_uris": {"android": "https://dc.lft.to/lastmile_qr_scan", "ios": "https://dc.lft.to/lastmile_qr_scan"}, "name": "eebbad4b461bd7081deb399a008d96b6", "type": "electric_scooter", "lat": 38.89845316666667, "is_disabled": 0}, {"fusion_lat": 0.0, "lon": -76.98828566666667, "is_reserved": 0, "bike_id": "118ffee81710ba120c58dc3642ef9b9c", "fusion_lon": 0.0, "rental_uris": {"android": "https://dc.lft.to/lastmile_qr_scan", "ios": "https://dc.lft.to/lastmile_qr_scan"}, "name": "118ffee81710ba120c58dc3642ef9b9c", "type": "electric_scooter", "lat": 38.900408166666665, "is_disabled": 0}, {"fusion_lat": 0.0, "lon": -77.04990416666666, "is_reserved": 0, "bike_id": "37c3aaddfc14b68a47c23b8eb2ee782d", "fusion_lon": 0.0, "rental_uris": {"android": "https://dc.lft.to/lastmile_qr_scan", "ios": "https://dc.lft.to/lastmile_qr_scan"}, "name": "37c3aaddfc14b68a47c23b8eb2ee782d", "type": "electric_scooter", "lat": 38.897286333333334, "is_disabled": 0}, {"fusion_lat": 0.0, "lon": -76.97630816666667, "is_reserved": 0, "bike_id": "10a88e8b6eacb889c6574f9578dc5237", "fusion_lon": 0.0, "rental_uris": {"android": "https://dc.lft.to/lastmile_qr_scan", "ios": "https://dc.lft.to/lastmile_qr_scan"}, "name": "10a88e8b6eacb889c6574f9578dc5237", "type": "electric_scooter", "lat": 38.905690666666665, "is_disabled": 0}, {"fusion_lat": 0.0, "lon": -77.12529166666667, "is_reserved": 0, "bike_id": "428a41a61b6666c191d0fe16ad08be2e", "fusion_lon": 0.0, "rental_uris": {"android": "https://dc.lft.to/lastmile_qr_scan", "ios": "https://dc.lft.to/lastmile_qr_scan"}, "name": "428a41a61b6666c191d0fe16ad08be2e", "type": "electric_bike", "lat": 39.05631983333333, "is_disabled": 0}, {"fusion_lat": 0.0, "lon": -77.03520633333333, "is_reserved": 0, "bike_id": "904df5bfb2644c1b9bdd0de72f3a4f65", "fusion_lon": 0.0, "rental_uris": {"android": "https://dc.lft.to/lastmile_qr_scan", "ios": "https://dc.lft.to/lastmile_qr_scan"}, "name": "904df5bfb2644c1b9bdd0de72f3a4f65", "type": "electric_scooter", "lat": 38.900284666666664, "is_disabled": 0}, {"fusion_lat": 0.0, "lon": -77.03448033333333, "is_reserved": 0, "bike_id": "d8114edba00c86c3e746bc8b76865e56", "fusion_lon": 0.0, "rental_uris": {"android": "https://dc.lft.to/lastmile_qr_scan", "ios": "https://dc.lft.to/lastmile_qr_scan"}, "name": "d8114edba00c86c3e746bc8b76865e56", "type": "electric_scooter", "lat": 38.90948366666667, "is_disabled": 0}, {"fusion_lat": 0.0, "lon": -77.0340515, "is_reserved": 0, "bike_id": "3be18fb78b6da653b32e6d7fc0e48210", "fusion_lon": 0.0, "rental_uris": {"android": "https://dc.lft.to/lastmile_qr_scan", "ios": "https://dc.lft.to/lastmile_qr_scan"}, "name": "3be18fb78b6da653b32e6d7fc0e48210", "type": "electric_scooter", "lat": 38.92253083333333, "is_disabled": 0}, {"fusion_lat": 0.0, "lon": -76.985514, "is_reserved": 0, "bike_id": "7be6a8cca55010818598dbd943f6e87d", "fusion_lon": 0.0, "rental_uris": {"android": "https://dc.lft.to/lastmile_qr_scan", "ios": "https://dc.lft.to/lastmile_qr_scan"}, "name": "7be6a8cca55010818598dbd943f6e87d", "type": "electric_scooter", "lat": 38.910305666666666, "is_disabled": 0}, {"fusion_lat": 0.0, "lon": -77.0327505, "is_reserved": 0, "bike_id": "8772190746b0c905f6ce8552d4af41a9", "fusion_lon": 0.0, "rental_uris": {"android": "https://dc.lft.to/lastmile_qr_scan", "ios": "https://dc.lft.to/lastmile_qr_scan"}, "name": "8772190746b0c905f6ce8552d4af41a9", "type": "electric_scooter", "lat": 38.917173, "is_disabled": 0}, {"fusion_lat": 0.0, "lon": -77.03309816666666, "is_reserved": 0, "bike_id": "82fb8243f2ff39bf1cf807a5b390cc56", "fusion_lon": 0.0, "rental_uris": {"android": "https://dc.lft.to/lastmile_qr_scan", "ios": "https://dc.lft.to/lastmile_qr_scan"}, "name": "82fb8243f2ff39bf1cf807a5b390cc56", "type": "electric_scooter", "lat": 38.9561655, "is_disabled": 0}, {"fusion_lat": 0.0, "lon": -76.98612133333333, "is_reserved": 0, "bike_id": "8c9081201d8470f70ce97cf96eef1a9f", "fusion_lon": 0.0, "rental_uris": {"android": "https://dc.lft.to/lastmile_qr_scan", "ios": "https://dc.lft.to/lastmile_qr_scan"}, "name": "8c9081201d8470f70ce97cf96eef1a9f", "type": "electric_scooter", "lat": 38.865258, "is_disabled": 0}, {"fusion_lat": 0.0, "lon": -77.0320305, "is_reserved": 0, "bike_id": "1ad453f3b0e103a3d738b6a4c1e81796", "fusion_lon": 0.0, "rental_uris": {"android": "https://dc.lft.to/lastmile_qr_scan", "ios": "https://dc.lft.to/lastmile_qr_scan"}, "name": "1ad453f3b0e103a3d738b6a4c1e81796", "type": "electric_scooter", "lat": 38.9098565, "is_disabled": 0}, {"fusion_lat": 0.0, "lon": -77.06354383333333, "is_reserved": 0, "bike_id": "e03e5f685b0329af7db358de1404e3ac", "fusion_lon": 0.0, "rental_uris": {"android": "https://dc.lft.to/lastmile_qr_scan", "ios": "https://dc.lft.to/lastmile_qr_scan"}, "name": "e03e5f685b0329af7db358de1404e3ac", "type": "electric_scooter", "lat": 38.906818666666666, "is_disabled": 0}, {"fusion_lat": 0.0, "lon": -76.99856333333334, "is_reserved": 0, "bike_id": "d6ab8ae37b74e5b4abaf5fcc2e4b2791", "fusion_lon": 0.0, "rental_uris": {"android": "https://dc.lft.to/lastmile_qr_scan", "ios": "https://dc.lft.to/lastmile_qr_scan"}, "name": "d6ab8ae37b74e5b4abaf5fcc2e4b2791", "type": "electric_scooter", "lat": 38.88740983333334, "is_disabled": 0}, {"fusion_lat": 0.0, "lon": -77.054171, "is_reserved": 0, "bike_id": "d64fda6db3bfa04b036c68d861216e3c", "fusion_lon": 0.0, "rental_uris": {"android": "https://dc.lft.to/lastmile_qr_scan", "ios": "https://dc.lft.to/lastmile_qr_scan"}, "name": "d64fda6db3bfa04b036c68d861216e3c", "type": "electric_scooter", "lat": 38.90227266666667, "is_disabled": 0}, {"fusion_lat": 0.0, "lon": -76.9936885, "is_reserved": 0, "bike_id": "c98e801d0d5c1b5414eb4c42ca0b72fe", "fusion_lon": 0.0, "rental_uris": {"android": "https://dc.lft.to/lastmile_qr_scan", "ios": "https://dc.lft.to/lastmile_qr_scan"}, "name": "c98e801d0d5c1b5414eb4c42ca0b72fe", "type": "electric_scooter", "lat": 38.883350166666666, "is_disabled": 0}, {"fusion_lat": 0.0, "lon": -77.03557816666667, "is_reserved": 0, "bike_id": "df07db585181c3bd203387cc9cabbd39", "fusion_lon": 0.0, "rental_uris": {"android": "https://dc.lft.to/lastmile_qr_scan", "ios": "https://dc.lft.to/lastmile_qr_scan"}, "name": "df07db585181c3bd203387cc9cabbd39", "type": "electric_scooter", "lat": 38.917112, "is_disabled": 0}, {"fusion_lat": 0.0, "lon": -76.98093566666667, "is_reserved": 0, "bike_id": "88294e0a2912c1a5ce6a4dd29ff39182", "fusion_lon": 0.0, "rental_uris": {"android": "https://dc.lft.to/lastmile_qr_scan", "ios": "https://dc.lft.to/lastmile_qr_scan"}, "name": "88294e0a2912c1a5ce6a4dd29ff39182", "type": "electric_bike", "lat": 38.88129983333333, "is_disabled": 0}, {"fusion_lat": 0.0, "lon": -76.98835566666666, "is_reserved": 0, "bike_id": "b97542a6a3fd3f6646cbf81dbfc53936", "fusion_lon": 0.0, "rental_uris": {"android": "https://dc.lft.to/lastmile_qr_scan", "ios": "https://dc.lft.to/lastmile_qr_scan"}, "name": "b97542a6a3fd3f6646cbf81dbfc53936", "type": "electric_scooter", "lat": 38.89248283333333, "is_disabled": 0}, {"fusion_lat": 0.0, "lon": -76.9336025, "is_reserved": 0, "bike_id": "bc854d17dbfd19a1f62c21d7f3db9c4a", "fusion_lon": 0.0, "rental_uris": {"android": "https://dc.lft.to/lastmile_qr_scan", "ios": "https://dc.lft.to/lastmile_qr_scan"}, "name": "bc854d17dbfd19a1f62c21d7f3db9c4a", "type": "electric_scooter", "lat": 38.899185, "is_disabled": 0}, {"fusion_lat": 0.0, "lon": -77.03201416666667, "is_reserved": 0, "bike_id": "5479c2f320ba1e7dd705e0b1af804eca", "fusion_lon": 0.0, "rental_uris": {"android": "https://dc.lft.to/lastmile_qr_scan", "ios": "https://dc.lft.to/lastmile_qr_scan"}, "name": "5479c2f320ba1e7dd705e0b1af804eca", "type": "electric_scooter", "lat": 38.91705283333334, "is_disabled": 0}, {"fusion_lat": 0.0, "lon": -77.04193116666667, "is_reserved": 0, "bike_id": "4cb78f2beabf483f79e83b50e65e723a", "fusion_lon": 0.0, "rental_uris": {"android": "https://dc.lft.to/lastmile_qr_scan", "ios": "https://dc.lft.to/lastmile_qr_scan"}, "name": "4cb78f2beabf483f79e83b50e65e723a", "type": "electric_scooter", "lat": 38.926205833333334, "is_disabled": 0}, {"fusion_lat": 0.0, "lon": -77.03638683333334, "is_reserved": 0, "bike_id": "72e8aa91c339534921f41a5753eeca35", "fusion_lon": 0.0, "rental_uris": {"android": "https://dc.lft.to/lastmile_qr_scan", "ios": "https://dc.lft.to/lastmile_qr_scan"}, "name": "72e8aa91c339534921f41a5753eeca35", "type": "electric_scooter", "lat": 38.90816433333333, "is_disabled": 0}, {"fusion_lat": 0.0, "lon": -77.03179233333333, "is_reserved": 0, "bike_id": "4a6585dedd92ca0aebe2c40c6dc63128", "fusion_lon": 0.0, "rental_uris": {"android": "https://dc.lft.to/lastmile_qr_scan", "ios": "https://dc.lft.to/lastmile_qr_scan"}, "name": "4a6585dedd92ca0aebe2c40c6dc63128", "type": "electric_scooter", "lat": 38.903104666666664, "is_disabled": 0}, {"fusion_lat": 0.0, "lon": -76.9116155, "is_reserved": 0, "bike_id": "e6c9dbd5c18107fc5cfa475be58264fc", "fusion_lon": 0.0, "rental_uris": {"android": "https://dc.lft.to/lastmile_qr_scan", "ios": "https://dc.lft.to/lastmile_qr_scan"}, "name": "e6c9dbd5c18107fc5cfa475be58264fc", "type": "electric_scooter", "lat": 38.89403, "is_disabled": 0}, {"fusion_lat": 0.0, "lon": -77.02191866666666, "is_reserved": 0, "bike_id": "df0c91a70db60f2b86d478b99e8e4109", "fusion_lon": 0.0, "rental_uris": {"android": "https://dc.lft.to/lastmile_qr_scan", "ios": "https://dc.lft.to/lastmile_qr_scan"}, "name": "df0c91a70db60f2b86d478b99e8e4109", "type": "electric_scooter", "lat": 38.922714, "is_disabled": 0}, {"fusion_lat": 0.0, "lon": -76.94635483333333, "is_reserved": 0, "bike_id": "3eade4869970469b9e8f710f84e9bc63", "fusion_lon": 0.0, "rental_uris": {"android": "https://dc.lft.to/lastmile_qr_scan", "ios": "https://dc.lft.to/lastmile_qr_scan"}, "name": "3eade4869970469b9e8f710f84e9bc63", "type": "electric_scooter", "lat": 38.898428, "is_disabled": 0}, {"fusion_lat": 0.0, "lon": -76.99910116666666, "is_reserved": 0, "bike_id": "3674f78f5b870f56358f1677bb5ddeeb", "fusion_lon": 0.0, "rental_uris": {"android": "https://dc.lft.to/lastmile_qr_scan", "ios": "https://dc.lft.to/lastmile_qr_scan"}, "name": "3674f78f5b870f56358f1677bb5ddeeb", "type": "electric_scooter", "lat": 38.92448383333333, "is_disabled": 0}, {"fusion_lat": 0.0, "lon": -77.03560933333333, "is_reserved": 0, "bike_id": "8490071d5f65b526e6f8078ccf2ba225", "fusion_lon": 0.0, "rental_uris": {"android": "https://dc.lft.to/lastmile_qr_scan", "ios": "https://dc.lft.to/lastmile_qr_scan"}, "name": "8490071d5f65b526e6f8078ccf2ba225", "type": "electric_scooter", "lat": 38.91706816666667, "is_disabled": 0}, {"fusion_lat": 0.0, "lon": -77.04004133333333, "is_reserved": 0, "bike_id": "223d1f8810e40102493eb1fd566f0433", "fusion_lon": 0.0, "rental_uris": {"android": "https://dc.lft.to/lastmile_qr_scan", "ios": "https://dc.lft.to/lastmile_qr_scan"}, "name": "223d1f8810e40102493eb1fd566f0433", "type": "electric_scooter", "lat": 38.8886475, "is_disabled": 0}, {"fusion_lat": 0.0, "lon": -77.0334645, "is_reserved": 0, "bike_id": "b82d00a354fab0afde9424e9852db5df", "fusion_lon": 0.0, "rental_uris": {"android": "https://dc.lft.to/lastmile_qr_scan", "ios": "https://dc.lft.to/lastmile_qr_scan"}, "name": "b82d00a354fab0afde9424e9852db5df", "type": "electric_scooter", "lat": 38.93216666666667, "is_disabled": 0}, {"fusion_lat": 0.0, "lon": -77.05503533333334, "is_reserved": 0, "bike_id": "76a8c91573ee4bab5d8d3b4ccde72e78", "fusion_lon": 0.0, "rental_uris": {"android": "https://dc.lft.to/lastmile_qr_scan", "ios": "https://dc.lft.to/lastmile_qr_scan"}, "name": "76a8c91573ee4bab5d8d3b4ccde72e78", "type": "electric_scooter", "lat": 38.93654333333333, "is_disabled": 0}, {"fusion_lat": 0.0, "lon": -77.05171416666667, "is_reserved": 0, "bike_id": "050211ac8017d74fefce60f5807c9d0d", "fusion_lon": 0.0, "rental_uris": {"android": "https://dc.lft.to/lastmile_qr_scan", "ios": "https://dc.lft.to/lastmile_qr_scan"}, "name": "050211ac8017d74fefce60f5807c9d0d", "type": "electric_scooter", "lat": 38.90324483333333, "is_disabled": 0}, {"fusion_lat": 0.0, "lon": -77.0243365, "is_reserved": 0, "bike_id": "90d451f39220fb6f328b0cb689ddfd9f", "fusion_lon": 0.0, "rental_uris": {"android": "https://dc.lft.to/lastmile_qr_scan", "ios": "https://dc.lft.to/lastmile_qr_scan"}, "name": "90d451f39220fb6f328b0cb689ddfd9f", "type": "electric_scooter", "lat": 38.93583233333333, "is_disabled": 0}, {"fusion_lat": 0.0, "lon": -77.13146383333333, "is_reserved": 0, "bike_id": "98585fac09094373104ddef92a4558e6", "fusion_lon": 0.0, "rental_uris": {"android": "https://dc.lft.to/lastmile_qr_scan", "ios": "https://dc.lft.to/lastmile_qr_scan"}, "name": "98585fac09094373104ddef92a4558e6", "type": "electric_bike", "lat": 38.861691, "is_disabled": 0}, {"fusion_lat": 0.0, "lon": -76.9718585, "is_reserved": 0, "bike_id": "b553898f9788ab5fa6bd9c4445d8766f", "fusion_lon": 0.0, "rental_uris": {"android": "https://dc.lft.to/lastmile_qr_scan", "ios": "https://dc.lft.to/lastmile_qr_scan"}, "name": "b553898f9788ab5fa6bd9c4445d8766f", "type": "electric_bike", "lat": 38.91780416666667, "is_disabled": 0}, {"fusion_lat": 0.0, "lon": -77.0732865, "is_reserved": 0, "bike_id": "7697129fb2b40e202974c720ca594586", "fusion_lon": 0.0, "rental_uris": {"android": "https://dc.lft.to/lastmile_qr_scan", "ios": "https://dc.lft.to/lastmile_qr_scan"}, "name": "7697129fb2b40e202974c720ca594586", "type": "electric_scooter", "lat": 38.9333675, "is_disabled": 0}, {"fusion_lat": 0.0, "lon": -77.0317345, "is_reserved": 0, "bike_id": "7bb263cad3d677996535e762afb7475d", "fusion_lon": 0.0, "rental_uris": {"android": "https://dc.lft.to/lastmile_qr_scan", "ios": "https://dc.lft.to/lastmile_qr_scan"}, "name": "7bb263cad3d677996535e762afb7475d", "type": "electric_scooter", "lat": 38.9155145, "is_disabled": 0}, {"fusion_lat": 0.0, "lon": -77.01404116666667, "is_reserved": 0, "bike_id": "a66eb91c6a9a463107772488fb84ea5e", "fusion_lon": 0.0, "rental_uris": {"android": "https://dc.lft.to/lastmile_qr_scan", "ios": "https://dc.lft.to/lastmile_qr_scan"}, "name": "a66eb91c6a9a463107772488fb84ea5e", "type": "electric_scooter", "lat": 38.887445166666666, "is_disabled": 0}, {"fusion_lat": 0.0, "lon": -77.178383, "is_reserved": 0, "bike_id": "34a199eb00ab9e17e752d29ed9729347", "fusion_lon": 0.0, "rental_uris": {"android": "https://dc.lft.to/lastmile_qr_scan", "ios": "https://dc.lft.to/lastmile_qr_scan"}, "name": "34a199eb00ab9e17e752d29ed9729347", "type": "electric_bike", "lat": 39.08853033333333, "is_disabled": 0}, {"fusion_lat": 0.0, "lon": -77.042913, "is_reserved": 0, "bike_id": "707c648f53bafd30971f24ad0db1415e", "fusion_lon": 0.0, "rental_uris": {"android": "https://dc.lft.to/lastmile_qr_scan", "ios": "https://dc.lft.to/lastmile_qr_scan"}, "name": "707c648f53bafd30971f24ad0db1415e", "type": "electric_scooter", "lat": 38.9168965, "is_disabled": 0}, {"fusion_lat": 0.0, "lon": -76.991582, "is_reserved": 0, "bike_id": "50cdaf8efbf3372e34fa41256511791f", "fusion_lon": 0.0, "rental_uris": {"android": "https://dc.lft.to/lastmile_qr_scan", "ios": "https://dc.lft.to/lastmile_qr_scan"}, "name": "50cdaf8efbf3372e34fa41256511791f", "type": "electric_scooter", "lat": 38.897984666666666, "is_disabled": 0}, {"fusion_lat": 0.0, "lon": -77.03204616666666, "is_reserved": 0, "bike_id": "856fd00a1f6372f0ea0d7174d7634bae", "fusion_lon": 0.0, "rental_uris": {"android": "https://dc.lft.to/lastmile_qr_scan", "ios": "https://dc.lft.to/lastmile_qr_scan"}, "name": "856fd00a1f6372f0ea0d7174d7634bae", "type": "electric_scooter", "lat": 38.91769633333333, "is_disabled": 0}, {"fusion_lat": 0.0, "lon": -76.98573133333333, "is_reserved": 0, "bike_id": "6881c97efd3aeacccacbbd2dd029019f", "fusion_lon": 0.0, "rental_uris": {"android": "https://dc.lft.to/lastmile_qr_scan", "ios": "https://dc.lft.to/lastmile_qr_scan"}, "name": "6881c97efd3aeacccacbbd2dd029019f", "type": "electric_scooter", "lat": 38.91434733333333, "is_disabled": 0}, {"fusion_lat": 0.0, "lon": -77.04171183333334, "is_reserved": 0, "bike_id": "b4dc51cfc5f81b19f9d860881992e841", "fusion_lon": 0.0, "rental_uris": {"android": "https://dc.lft.to/lastmile_qr_scan", "ios": "https://dc.lft.to/lastmile_qr_scan"}, "name": "b4dc51cfc5f81b19f9d860881992e841", "type": "electric_scooter", "lat": 38.91702633333333, "is_disabled": 0}, {"fusion_lat": 0.0, "lon": -77.02658366666667, "is_reserved": 0, "bike_id": "2f09b0ba7d0bb7f1f271cc8649c529aa", "fusion_lon": 0.0, "rental_uris": {"android": "https://dc.lft.to/lastmile_qr_scan", "ios": "https://dc.lft.to/lastmile_qr_scan"}, "name": "2f09b0ba7d0bb7f1f271cc8649c529aa", "type": "electric_scooter", "lat": 38.89218433333333, "is_disabled": 0}, {"fusion_lat": 0.0, "lon": -77.02890983333333, "is_reserved": 0, "bike_id": "99a8118573c6499ed29271c1089856ef", "fusion_lon": 0.0, "rental_uris": {"android": "https://dc.lft.to/lastmile_qr_scan", "ios": "https://dc.lft.to/lastmile_qr_scan"}, "name": "99a8118573c6499ed29271c1089856ef", "type": "electric_scooter", "lat": 38.91068933333333, "is_disabled": 0}, {"fusion_lat": 0.0, "lon": -76.95656466666667, "is_reserved": 0, "bike_id": "f28ca1ec1997d644138622b96924dbc9", "fusion_lon": 0.0, "rental_uris": {"android": "https://dc.lft.to/lastmile_qr_scan", "ios": "https://dc.lft.to/lastmile_qr_scan"}, "name": "f28ca1ec1997d644138622b96924dbc9", "type": "electric_scooter", "lat": 38.89553133333333, "is_disabled": 0}, {"fusion_lat": 0.0, "lon": -77.07622, "is_reserved": 0, "bike_id": "3bc8d6eb2cbcdfefe68cc59e0f3e04a3", "fusion_lon": 0.0, "rental_uris": {"android": "https://dc.lft.to/lastmile_qr_scan", "ios": "https://dc.lft.to/lastmile_qr_scan"}, "name": "3bc8d6eb2cbcdfefe68cc59e0f3e04a3", "type": "electric_scooter", "lat": 38.9126995, "is_disabled": 0}, {"fusion_lat": 0.0, "lon": -76.96561833333334, "is_reserved": 0, "bike_id": "1181429944f5daa6603a74a46c6c6f21", "fusion_lon": 0.0, "rental_uris": {"android": "https://dc.lft.to/lastmile_qr_scan", "ios": "https://dc.lft.to/lastmile_qr_scan"}, "name": "1181429944f5daa6603a74a46c6c6f21", "type": "electric_bike", "lat": 38.87376833333333, "is_disabled": 0}, {"fusion_lat": 0.0, "lon": -77.038687, "is_reserved": 0, "bike_id": "78fc65f6de1b25032126016b54966ec7", "fusion_lon": 0.0, "rental_uris": {"android": "https://dc.lft.to/lastmile_qr_scan", "ios": "https://dc.lft.to/lastmile_qr_scan"}, "name": "78fc65f6de1b25032126016b54966ec7", "type": "electric_scooter", "lat": 38.91032383333334, "is_disabled": 0}, {"fusion_lat": 0.0, "lon": -76.9954585, "is_reserved": 0, "bike_id": "4adfa44fa172a6900a9f51c2753a76f6", "fusion_lon": 0.0, "rental_uris": {"android": "https://dc.lft.to/lastmile_qr_scan", "ios": "https://dc.lft.to/lastmile_qr_scan"}, "name": "4adfa44fa172a6900a9f51c2753a76f6", "type": "electric_scooter", "lat": 38.862590833333336, "is_disabled": 0}, {"fusion_lat": 0.0, "lon": -77.0426255, "is_reserved": 0, "bike_id": "879f181ffdc429051b67ad9e7652abd9", "fusion_lon": 0.0, "rental_uris": {"android": "https://dc.lft.to/lastmile_qr_scan", "ios": "https://dc.lft.to/lastmile_qr_scan"}, "name": "879f181ffdc429051b67ad9e7652abd9", "type": "electric_scooter", "lat": 38.92231116666667, "is_disabled": 0}, {"fusion_lat": 0.0, "lon": -77.02895566666666, "is_reserved": 0, "bike_id": "d244413c39111579f4c387df8f295c00", "fusion_lon": 0.0, "rental_uris": {"android": "https://dc.lft.to/lastmile_qr_scan", "ios": "https://dc.lft.to/lastmile_qr_scan"}, "name": "d244413c39111579f4c387df8f295c00", "type": "electric_scooter", "lat": 38.9168375, "is_disabled": 0}, {"fusion_lat": 0.0, "lon": -77.03303566666666, "is_reserved": 0, "bike_id": "19d48305e85821c024d3fd64806c5ac3", "fusion_lon": 0.0, "rental_uris": {"android": "https://dc.lft.to/lastmile_qr_scan", "ios": "https://dc.lft.to/lastmile_qr_scan"}, "name": "19d48305e85821c024d3fd64806c5ac3", "type": "electric_bike", "lat": 38.926221, "is_disabled": 0}, {"fusion_lat": 0.0, "lon": -77.043493, "is_reserved": 0, "bike_id": "b4e425172ba898240c5ddcffbd2a1f1e", "fusion_lon": 0.0, "rental_uris": {"android": "https://dc.lft.to/lastmile_qr_scan", "ios": "https://dc.lft.to/lastmile_qr_scan"}, "name": "b4e425172ba898240c5ddcffbd2a1f1e", "type": "electric_scooter", "lat": 38.90762483333334, "is_disabled": 0}, {"fusion_lat": 0.0, "lon": -77.028107, "is_reserved": 0, "bike_id": "c79e682be8181c61c7ae4701ecbb0297", "fusion_lon": 0.0, "rental_uris": {"android": "https://dc.lft.to/lastmile_qr_scan", "ios": "https://dc.lft.to/lastmile_qr_scan"}, "name": "c79e682be8181c61c7ae4701ecbb0297", "type": "electric_scooter", "lat": 38.96076983333333, "is_disabled": 0}, {"fusion_lat": 0.0, "lon": -77.01221533333333, "is_reserved": 0, "bike_id": "aa21c61d42113b4c48b638c25fd2a56f", "fusion_lon": 0.0, "rental_uris": {"android": "https://dc.lft.to/lastmile_qr_scan", "ios": "https://dc.lft.to/lastmile_qr_scan"}, "name": "aa21c61d42113b4c48b638c25fd2a56f", "type": "electric_scooter", "lat": 38.91516333333333, "is_disabled": 0}, {"fusion_lat": 0.0, "lon": -77.04399216666667, "is_reserved": 0, "bike_id": "ec0f52c985a03214d6c09da86b8914ee", "fusion_lon": 0.0, "rental_uris": {"android": "https://dc.lft.to/lastmile_qr_scan", "ios": "https://dc.lft.to/lastmile_qr_scan"}, "name": "ec0f52c985a03214d6c09da86b8914ee", "type": "electric_scooter", "lat": 38.92026216666667, "is_disabled": 0}, {"fusion_lat": 0.0, "lon": -77.1295825, "is_reserved": 0, "bike_id": "5956bf2b729d440d1aa6672154e816cd", "fusion_lon": 0.0, "rental_uris": {"android": "https://dc.lft.to/lastmile_qr_scan", "ios": "https://dc.lft.to/lastmile_qr_scan"}, "name": "5956bf2b729d440d1aa6672154e816cd", "type": "electric_bike", "lat": 38.85216783333333, "is_disabled": 0}, {"fusion_lat": 0.0, "lon": -76.99804416666667, "is_reserved": 0, "bike_id": "ff38de7deb6b5f5dcb377e37545f4754", "fusion_lon": 0.0, "rental_uris": {"android": "https://dc.lft.to/lastmile_qr_scan", "ios": "https://dc.lft.to/lastmile_qr_scan"}, "name": "ff38de7deb6b5f5dcb377e37545f4754", "type": "electric_scooter", "lat": 38.908459, "is_disabled": 0}, {"fusion_lat": 0.0, "lon": -76.983736, "is_reserved": 0, "bike_id": "b30d16819a0d6e161b81487139d0a1d4", "fusion_lon": 0.0, "rental_uris": {"android": "https://dc.lft.to/lastmile_qr_scan", "ios": "https://dc.lft.to/lastmile_qr_scan"}, "name": "b30d16819a0d6e161b81487139d0a1d4", "type": "electric_scooter", "lat": 38.91541983333333, "is_disabled": 0}, {"fusion_lat": 0.0, "lon": -77.05305833333334, "is_reserved": 0, "bike_id": "7cc77981ac4bdea03ec2206a9cd5f2bd", "fusion_lon": 0.0, "rental_uris": {"android": "https://dc.lft.to/lastmile_qr_scan", "ios": "https://dc.lft.to/lastmile_qr_scan"}, "name": "7cc77981ac4bdea03ec2206a9cd5f2bd", "type": "electric_scooter", "lat": 38.89850883333333, "is_disabled": 0}, {"fusion_lat": 0.0, "lon": -76.98558583333333, "is_reserved": 0, "bike_id": "7d3957ec1d6cd2045581757106f110f8", "fusion_lon": 0.0, "rental_uris": {"android": "https://dc.lft.to/lastmile_qr_scan", "ios": "https://dc.lft.to/lastmile_qr_scan"}, "name": "7d3957ec1d6cd2045581757106f110f8", "type": "electric_scooter", "lat": 38.91033183333333, "is_disabled": 0}, {"fusion_lat": 0.0, "lon": -77.00760316666667, "is_reserved": 0, "bike_id": "732e2af72986b53dd8dfab0c36f1c947", "fusion_lon": 0.0, "rental_uris": {"android": "https://dc.lft.to/lastmile_qr_scan", "ios": "https://dc.lft.to/lastmile_qr_scan"}, "name": "732e2af72986b53dd8dfab0c36f1c947", "type": "electric_scooter", "lat": 38.92677783333333, "is_disabled": 0}, {"fusion_lat": 0.0, "lon": -77.0370375, "is_reserved": 0, "bike_id": "e6b182103d928b935fbc1de6c8006b1f", "fusion_lon": 0.0, "rental_uris": {"android": "https://dc.lft.to/lastmile_qr_scan", "ios": "https://dc.lft.to/lastmile_qr_scan"}, "name": "e6b182103d928b935fbc1de6c8006b1f", "type": "electric_scooter", "lat": 38.927707, "is_disabled": 0}, {"fusion_lat": 0.0, "lon": -77.07580566666667, "is_reserved": 0, "bike_id": "014e2592a70eb6874a6d52c8dd24e587", "fusion_lon": 0.0, "rental_uris": {"android": "https://dc.lft.to/lastmile_qr_scan", "ios": "https://dc.lft.to/lastmile_qr_scan"}, "name": "014e2592a70eb6874a6d52c8dd24e587", "type": "electric_scooter", "lat": 38.9386315, "is_disabled": 0}, {"fusion_lat": 0.0, "lon": -77.02536133333334, "is_reserved": 0, "bike_id": "5c0258094dd017bff39788c26fb8b73d", "fusion_lon": 0.0, "rental_uris": {"android": "https://dc.lft.to/lastmile_qr_scan", "ios": "https://dc.lft.to/lastmile_qr_scan"}, "name": "5c0258094dd017bff39788c26fb8b73d", "type": "electric_scooter", "lat": 38.92743166666666, "is_disabled": 0}, {"fusion_lat": 0.0, "lon": -77.03066583333333, "is_reserved": 0, "bike_id": "396654d45e8fb9390e15e0ba8c55441b", "fusion_lon": 0.0, "rental_uris": {"android": "https://dc.lft.to/lastmile_qr_scan", "ios": "https://dc.lft.to/lastmile_qr_scan"}, "name": "396654d45e8fb9390e15e0ba8c55441b", "type": "electric_scooter", "lat": 38.904126833333336, "is_disabled": 0}, {"fusion_lat": 0.0, "lon": -76.981077, "is_reserved": 0, "bike_id": "d60c6bd159abebc6ecdd0050191f4b7b", "fusion_lon": 0.0, "rental_uris": {"android": "https://dc.lft.to/lastmile_qr_scan", "ios": "https://dc.lft.to/lastmile_qr_scan"}, "name": "d60c6bd159abebc6ecdd0050191f4b7b", "type": "electric_bike", "lat": 38.87730033333333, "is_disabled": 0}, {"fusion_lat": 0.0, "lon": -77.01951883333334, "is_reserved": 0, "bike_id": "a43cd7b78d9279bd1508b84319c14685", "fusion_lon": 0.0, "rental_uris": {"android": "https://dc.lft.to/lastmile_qr_scan", "ios": "https://dc.lft.to/lastmile_qr_scan"}, "name": "a43cd7b78d9279bd1508b84319c14685", "type": "electric_scooter", "lat": 38.91989266666667, "is_disabled": 0}, {"fusion_lat": 0.0, "lon": -77.0056205, "is_reserved": 0, "bike_id": "1682e4623aa1b6329e464427783dadd2", "fusion_lon": 0.0, "rental_uris": {"android": "https://dc.lft.to/lastmile_qr_scan", "ios": "https://dc.lft.to/lastmile_qr_scan"}, "name": "1682e4623aa1b6329e464427783dadd2", "type": "electric_scooter", "lat": 38.90034833333333, "is_disabled": 0}, {"fusion_lat": 0.0, "lon": -77.0120105, "is_reserved": 0, "bike_id": "dda89f362dbd3a05995c77392a166707", "fusion_lon": 0.0, "rental_uris": {"android": "https://dc.lft.to/lastmile_qr_scan", "ios": "https://dc.lft.to/lastmile_qr_scan"}, "name": "dda89f362dbd3a05995c77392a166707", "type": "electric_scooter", "lat": 38.9002055, "is_disabled": 0}, {"fusion_lat": 0.0, "lon": -77.01595766666667, "is_reserved": 0, "bike_id": "76a7ac0deede138954caedc69565d4f7", "fusion_lon": 0.0, "rental_uris": {"android": "https://dc.lft.to/lastmile_qr_scan", "ios": "https://dc.lft.to/lastmile_qr_scan"}, "name": "76a7ac0deede138954caedc69565d4f7", "type": "electric_scooter", "lat": 38.9493755, "is_disabled": 0}, {"fusion_lat": 0.0, "lon": -77.05170616666666, "is_reserved": 0, "bike_id": "a0aa4d51f00a1b90bb54800d65a825e6", "fusion_lon": 0.0, "rental_uris": {"android": "https://dc.lft.to/lastmile_qr_scan", "ios": "https://dc.lft.to/lastmile_qr_scan"}, "name": "a0aa4d51f00a1b90bb54800d65a825e6", "type": "electric_scooter", "lat": 38.9240255, "is_disabled": 0}, {"fusion_lat": 0.0, "lon": -77.0439955, "is_reserved": 0, "bike_id": "db461f6828df79020e940db718517cf2", "fusion_lon": 0.0, "rental_uris": {"android": "https://dc.lft.to/lastmile_qr_scan", "ios": "https://dc.lft.to/lastmile_qr_scan"}, "name": "db461f6828df79020e940db718517cf2", "type": "electric_scooter", "lat": 38.90937133333333, "is_disabled": 0}, {"fusion_lat": 0.0, "lon": -76.99645566666666, "is_reserved": 0, "bike_id": "12a988812b53ee6410041e9794b950c2", "fusion_lon": 0.0, "rental_uris": {"android": "https://dc.lft.to/lastmile_qr_scan", "ios": "https://dc.lft.to/lastmile_qr_scan"}, "name": "12a988812b53ee6410041e9794b950c2", "type": "electric_scooter", "lat": 38.8871785, "is_disabled": 0}, {"fusion_lat": 0.0, "lon": -77.020662, "is_reserved": 0, "bike_id": "9df8808666333bde9dd0f30ff0415162", "fusion_lon": 0.0, "rental_uris": {"android": "https://dc.lft.to/lastmile_qr_scan", "ios": "https://dc.lft.to/lastmile_qr_scan"}, "name": "9df8808666333bde9dd0f30ff0415162", "type": "electric_scooter", "lat": 38.91538583333333, "is_disabled": 0}, {"fusion_lat": 0.0, "lon": -77.00048466666667, "is_reserved": 0, "bike_id": "60801e81b31bad0c6321086280c20e13", "fusion_lon": 0.0, "rental_uris": {"android": "https://dc.lft.to/lastmile_qr_scan", "ios": "https://dc.lft.to/lastmile_qr_scan"}, "name": "60801e81b31bad0c6321086280c20e13", "type": "electric_scooter", "lat": 38.8915685, "is_disabled": 0}, {"fusion_lat": 0.0, "lon": -77.03222216666667, "is_reserved": 0, "bike_id": "0fa680e899def218831ce79884eb1645", "fusion_lon": 0.0, "rental_uris": {"android": "https://dc.lft.to/lastmile_qr_scan", "ios": "https://dc.lft.to/lastmile_qr_scan"}, "name": "0fa680e899def218831ce79884eb1645", "type": "electric_scooter", "lat": 38.90868533333333, "is_disabled": 0}, {"fusion_lat": 0.0, "lon": -76.98554616666667, "is_reserved": 0, "bike_id": "3cbcef0126c2dae441a352fa856e2689", "fusion_lon": 0.0, "rental_uris": {"android": "https://dc.lft.to/lastmile_qr_scan", "ios": "https://dc.lft.to/lastmile_qr_scan"}, "name": "3cbcef0126c2dae441a352fa856e2689", "type": "electric_scooter", "lat": 38.910320666666664, "is_disabled": 0}, {"fusion_lat": 0.0, "lon": -76.987825, "is_reserved": 0, "bike_id": "b0d3b5b9aa545e7eba3d30f2c1ecbec2", "fusion_lon": 0.0, "rental_uris": {"android": "https://dc.lft.to/lastmile_qr_scan", "ios": "https://dc.lft.to/lastmile_qr_scan"}, "name": "b0d3b5b9aa545e7eba3d30f2c1ecbec2", "type": "electric_scooter", "lat": 38.90301516666667, "is_disabled": 0}, {"fusion_lat": 0.0, "lon": -77.0329155, "is_reserved": 0, "bike_id": "7e4e465865a4929ac6b75e8386cb2da7", "fusion_lon": 0.0, "rental_uris": {"android": "https://dc.lft.to/lastmile_qr_scan", "ios": "https://dc.lft.to/lastmile_qr_scan"}, "name": "7e4e465865a4929ac6b75e8386cb2da7", "type": "electric_scooter", "lat": 38.909785166666666, "is_disabled": 0}, {"fusion_lat": 0.0, "lon": -77.041559, "is_reserved": 0, "bike_id": "2250dbb95df58891fa32d21834954e71", "fusion_lon": 0.0, "rental_uris": {"android": "https://dc.lft.to/lastmile_qr_scan", "ios": "https://dc.lft.to/lastmile_qr_scan"}, "name": "2250dbb95df58891fa32d21834954e71", "type": "electric_scooter", "lat": 38.9233355, "is_disabled": 0}, {"fusion_lat": 0.0, "lon": -77.05256833333334, "is_reserved": 0, "bike_id": "dca8288cf71619c495e79654a03febed", "fusion_lon": 0.0, "rental_uris": {"android": "https://dc.lft.to/lastmile_qr_scan", "ios": "https://dc.lft.to/lastmile_qr_scan"}, "name": "dca8288cf71619c495e79654a03febed", "type": "electric_scooter", "lat": 38.92381483333333, "is_disabled": 0}, {"fusion_lat": 0.0, "lon": -76.99504466666667, "is_reserved": 0, "bike_id": "ba8f8eb604e1b499100d38f7dc13e41e", "fusion_lon": 0.0, "rental_uris": {"android": "https://dc.lft.to/lastmile_qr_scan", "ios": "https://dc.lft.to/lastmile_qr_scan"}, "name": "ba8f8eb604e1b499100d38f7dc13e41e", "type": "electric_scooter", "lat": 38.909815333333334, "is_disabled": 0}, {"fusion_lat": 0.0, "lon": -76.9934895, "is_reserved": 0, "bike_id": "e6367750163e7cb2bfce09f946af87a2", "fusion_lon": 0.0, "rental_uris": {"android": "https://dc.lft.to/lastmile_qr_scan", "ios": "https://dc.lft.to/lastmile_qr_scan"}, "name": "e6367750163e7cb2bfce09f946af87a2", "type": "electric_scooter", "lat": 38.914854166666665, "is_disabled": 0}, {"fusion_lat": 0.0, "lon": -76.99786916666666, "is_reserved": 0, "bike_id": "3ec49f94380406b95fd6a610cf816cb1", "fusion_lon": 0.0, "rental_uris": {"android": "https://dc.lft.to/lastmile_qr_scan", "ios": "https://dc.lft.to/lastmile_qr_scan"}, "name": "3ec49f94380406b95fd6a610cf816cb1", "type": "electric_scooter", "lat": 38.89080216666667, "is_disabled": 0}, {"fusion_lat": 0.0, "lon": -77.04002466666667, "is_reserved": 0, "bike_id": "743b887c5c73d017cd9baff01d2c6923", "fusion_lon": 0.0, "rental_uris": {"android": "https://dc.lft.to/lastmile_qr_scan", "ios": "https://dc.lft.to/lastmile_qr_scan"}, "name": "743b887c5c73d017cd9baff01d2c6923", "type": "electric_scooter", "lat": 38.9125565, "is_disabled": 0}, {"fusion_lat": 0.0, "lon": -77.0109315, "is_reserved": 0, "bike_id": "933a6e2509987a8b992fd88a7963b962", "fusion_lon": 0.0, "rental_uris": {"android": "https://dc.lft.to/lastmile_qr_scan", "ios": "https://dc.lft.to/lastmile_qr_scan"}, "name": "933a6e2509987a8b992fd88a7963b962", "type": "electric_scooter", "lat": 38.894991, "is_disabled": 0}, {"fusion_lat": 0.0, "lon": -77.03196533333333, "is_reserved": 0, "bike_id": "4e5d5f240b04e13af2e52ac5aace0a45", "fusion_lon": 0.0, "rental_uris": {"android": "https://dc.lft.to/lastmile_qr_scan", "ios": "https://dc.lft.to/lastmile_qr_scan"}, "name": "4e5d5f240b04e13af2e52ac5aace0a45", "type": "electric_scooter", "lat": 38.91423983333333, "is_disabled": 0}, {"fusion_lat": 0.0, "lon": -77.00241316666667, "is_reserved": 0, "bike_id": "e184f96493c17f8ccb854c61cb56c071", "fusion_lon": 0.0, "rental_uris": {"android": "https://dc.lft.to/lastmile_qr_scan", "ios": "https://dc.lft.to/lastmile_qr_scan"}, "name": "e184f96493c17f8ccb854c61cb56c071", "type": "electric_scooter", "lat": 38.95721133333333, "is_disabled": 0}, {"fusion_lat": 0.0, "lon": -77.04001016666666, "is_reserved": 0, "bike_id": "25d4755ef56d99feb8e439af1809e8cb", "fusion_lon": 0.0, "rental_uris": {"android": "https://dc.lft.to/lastmile_qr_scan", "ios": "https://dc.lft.to/lastmile_qr_scan"}, "name": "25d4755ef56d99feb8e439af1809e8cb", "type": "electric_scooter", "lat": 38.913193666666665, "is_disabled": 0}, {"fusion_lat": 0.0, "lon": -77.03198216666667, "is_reserved": 0, "bike_id": "a38d854e5f4356124b6818fc3cebce4e", "fusion_lon": 0.0, "rental_uris": {"android": "https://dc.lft.to/lastmile_qr_scan", "ios": "https://dc.lft.to/lastmile_qr_scan"}, "name": "a38d854e5f4356124b6818fc3cebce4e", "type": "electric_scooter", "lat": 38.91783, "is_disabled": 0}, {"fusion_lat": 0.0, "lon": -76.99548366666667, "is_reserved": 0, "bike_id": "a38377c19e3b2cffe0bac3eb72a272ca", "fusion_lon": 0.0, "rental_uris": {"android": "https://dc.lft.to/lastmile_qr_scan", "ios": "https://dc.lft.to/lastmile_qr_scan"}, "name": "a38377c19e3b2cffe0bac3eb72a272ca", "type": "electric_scooter", "lat": 38.862575666666665, "is_disabled": 0}, {"fusion_lat": 0.0, "lon": -77.03862666666667, "is_reserved": 0, "bike_id": "2e1e0f1062d8cc16148c29a7c9cb6297", "fusion_lon": 0.0, "rental_uris": {"android": "https://dc.lft.to/lastmile_qr_scan", "ios": "https://dc.lft.to/lastmile_qr_scan"}, "name": "2e1e0f1062d8cc16148c29a7c9cb6297", "type": "electric_scooter", "lat": 38.91262283333333, "is_disabled": 0}, {"fusion_lat": 0.0, "lon": -77.04286133333333, "is_reserved": 0, "bike_id": "819746a56da4eb7280c6c649431f0a19", "fusion_lon": 0.0, "rental_uris": {"android": "https://dc.lft.to/lastmile_qr_scan", "ios": "https://dc.lft.to/lastmile_qr_scan"}, "name": "819746a56da4eb7280c6c649431f0a19", "type": "electric_scooter", "lat": 38.905569166666666, "is_disabled": 0}, {"fusion_lat": 0.0, "lon": -77.01694666666667, "is_reserved": 0, "bike_id": "6ef896ec089f5851fe71a5662fd74186", "fusion_lon": 0.0, "rental_uris": {"android": "https://dc.lft.to/lastmile_qr_scan", "ios": "https://dc.lft.to/lastmile_qr_scan"}, "name": "6ef896ec089f5851fe71a5662fd74186", "type": "electric_scooter", "lat": 38.97491866666667, "is_disabled": 0}, {"fusion_lat": 0.0, "lon": -77.02375116666667, "is_reserved": 0, "bike_id": "1c783f2bdf0cb7899d1c78697d9e03a1", "fusion_lon": 0.0, "rental_uris": {"android": "https://dc.lft.to/lastmile_qr_scan", "ios": "https://dc.lft.to/lastmile_qr_scan"}, "name": "1c783f2bdf0cb7899d1c78697d9e03a1", "type": "electric_scooter", "lat": 38.92084066666666, "is_disabled": 0}, {"fusion_lat": 0.0, "lon": -76.9941765, "is_reserved": 0, "bike_id": "94564bae4fa4f6ed058501a7ee8ffca0", "fusion_lon": 0.0, "rental_uris": {"android": "https://dc.lft.to/lastmile_qr_scan", "ios": "https://dc.lft.to/lastmile_qr_scan"}, "name": "94564bae4fa4f6ed058501a7ee8ffca0", "type": "electric_scooter", "lat": 38.921181, "is_disabled": 0}, {"fusion_lat": 0.0, "lon": -76.9882415, "is_reserved": 0, "bike_id": "2ca0149afc7db5ced7ede4c64fbc12b1", "fusion_lon": 0.0, "rental_uris": {"android": "https://dc.lft.to/lastmile_qr_scan", "ios": "https://dc.lft.to/lastmile_qr_scan"}, "name": "2ca0149afc7db5ced7ede4c64fbc12b1", "type": "electric_scooter", "lat": 38.890726, "is_disabled": 0}, {"fusion_lat": 0.0, "lon": -76.96921216666667, "is_reserved": 0, "bike_id": "9a2879b77709325e13a11c2f3f8002e4", "fusion_lon": 0.0, "rental_uris": {"android": "https://dc.lft.to/lastmile_qr_scan", "ios": "https://dc.lft.to/lastmile_qr_scan"}, "name": "9a2879b77709325e13a11c2f3f8002e4", "type": "electric_bike", "lat": 38.9511125, "is_disabled": 0}, {"fusion_lat": 0.0, "lon": -76.98687933333333, "is_reserved": 0, "bike_id": "f0f6a8176fda2324f499ee98409f8b4a", "fusion_lon": 0.0, "rental_uris": {"android": "https://dc.lft.to/lastmile_qr_scan", "ios": "https://dc.lft.to/lastmile_qr_scan"}, "name": "f0f6a8176fda2324f499ee98409f8b4a", "type": "electric_scooter", "lat": 38.90697433333333, "is_disabled": 0}, {"fusion_lat": 0.0, "lon": -77.2280145, "is_reserved": 0, "bike_id": "4885def392ba6fb8d22d6551fafc7721", "fusion_lon": 0.0, "rental_uris": {"android": "https://dc.lft.to/lastmile_qr_scan", "ios": "https://dc.lft.to/lastmile_qr_scan"}, "name": "4885def392ba6fb8d22d6551fafc7721", "type": "electric_bike", "lat": 38.9100795, "is_disabled": 0}, {"fusion_lat": 0.0, "lon": -77.0833725, "is_reserved": 0, "bike_id": "d3aab693670275558148edaa9bdb3822", "fusion_lon": 0.0, "rental_uris": {"android": "https://dc.lft.to/lastmile_qr_scan", "ios": "https://dc.lft.to/lastmile_qr_scan"}, "name": "d3aab693670275558148edaa9bdb3822", "type": "electric_bike", "lat": 38.91248366666667, "is_disabled": 0}, {"fusion_lat": 0.0, "lon": -77.03287666666667, "is_reserved": 0, "bike_id": "12ad22d041ead92db2a8bab708648b3b", "fusion_lon": 0.0, "rental_uris": {"android": "https://dc.lft.to/lastmile_qr_scan", "ios": "https://dc.lft.to/lastmile_qr_scan"}, "name": "12ad22d041ead92db2a8bab708648b3b", "type": "electric_scooter", "lat": 38.9095505, "is_disabled": 0}, {"fusion_lat": 0.0, "lon": -77.0410645, "is_reserved": 0, "bike_id": "7f7017fb1490ccdac4dfc6f4b7f069bc", "fusion_lon": 0.0, "rental_uris": {"android": "https://dc.lft.to/lastmile_qr_scan", "ios": "https://dc.lft.to/lastmile_qr_scan"}, "name": "7f7017fb1490ccdac4dfc6f4b7f069bc", "type": "electric_scooter", "lat": 38.910616166666664, "is_disabled": 0}, {"fusion_lat": 0.0, "lon": -77.02402633333334, "is_reserved": 0, "bike_id": "67e888496acd00c07bb6526132f4e110", "fusion_lon": 0.0, "rental_uris": {"android": "https://dc.lft.to/lastmile_qr_scan", "ios": "https://dc.lft.to/lastmile_qr_scan"}, "name": "67e888496acd00c07bb6526132f4e110", "type": "electric_scooter", "lat": 38.90604033333334, "is_disabled": 0}, {"fusion_lat": 0.0, "lon": -77.05108833333334, "is_reserved": 0, "bike_id": "0da2f5bd4407a4c6502cfe9645144e86", "fusion_lon": 0.0, "rental_uris": {"android": "https://dc.lft.to/lastmile_qr_scan", "ios": "https://dc.lft.to/lastmile_qr_scan"}, "name": "0da2f5bd4407a4c6502cfe9645144e86", "type": "electric_bike", "lat": 39.0366865, "is_disabled": 0}, {"fusion_lat": 0.0, "lon": -76.99817333333333, "is_reserved": 0, "bike_id": "0cd6719a85b63cfd27cb3837ee6f6dc4", "fusion_lon": 0.0, "rental_uris": {"android": "https://dc.lft.to/lastmile_qr_scan", "ios": "https://dc.lft.to/lastmile_qr_scan"}, "name": "0cd6719a85b63cfd27cb3837ee6f6dc4", "type": "electric_scooter", "lat": 38.907196666666664, "is_disabled": 0}, {"fusion_lat": 0.0, "lon": -77.03997, "is_reserved": 0, "bike_id": "c018a2d98a09bb859b32fa5399db5b4c", "fusion_lon": 0.0, "rental_uris": {"android": "https://dc.lft.to/lastmile_qr_scan", "ios": "https://dc.lft.to/lastmile_qr_scan"}, "name": "c018a2d98a09bb859b32fa5399db5b4c", "type": "electric_scooter", "lat": 38.892212666666666, "is_disabled": 0}, {"fusion_lat": 0.0, "lon": -77.00723916666666, "is_reserved": 0, "bike_id": "c251fd5af981cd0f75e2ad4ba0963112", "fusion_lon": 0.0, "rental_uris": {"android": "https://dc.lft.to/lastmile_qr_scan", "ios": "https://dc.lft.to/lastmile_qr_scan"}, "name": "c251fd5af981cd0f75e2ad4ba0963112", "type": "electric_scooter", "lat": 38.88490933333333, "is_disabled": 0}, {"fusion_lat": 0.0, "lon": -77.02978133333333, "is_reserved": 0, "bike_id": "fd4ab1bffd74f145f858464b37f986eb", "fusion_lon": 0.0, "rental_uris": {"android": "https://dc.lft.to/lastmile_qr_scan", "ios": "https://dc.lft.to/lastmile_qr_scan"}, "name": "fd4ab1bffd74f145f858464b37f986eb", "type": "electric_scooter", "lat": 38.914135, "is_disabled": 0}, {"fusion_lat": 0.0, "lon": -77.03091966666666, "is_reserved": 0, "bike_id": "b1640f4259f3c849ec3ab10a43b50cbb", "fusion_lon": 0.0, "rental_uris": {"android": "https://dc.lft.to/lastmile_qr_scan", "ios": "https://dc.lft.to/lastmile_qr_scan"}, "name": "b1640f4259f3c849ec3ab10a43b50cbb", "type": "electric_scooter", "lat": 38.9320855, "is_disabled": 0}, {"fusion_lat": 0.0, "lon": -77.04432266666667, "is_reserved": 0, "bike_id": "5a8a41bacc3544449dc110dae7e0773e", "fusion_lon": 0.0, "rental_uris": {"android": "https://dc.lft.to/lastmile_qr_scan", "ios": "https://dc.lft.to/lastmile_qr_scan"}, "name": "5a8a41bacc3544449dc110dae7e0773e", "type": "electric_scooter", "lat": 38.92124166666667, "is_disabled": 0}, {"fusion_lat": 0.0, "lon": -76.99849716666667, "is_reserved": 0, "bike_id": "8a578159d82b012cfa2d7958e8a963f2", "fusion_lon": 0.0, "rental_uris": {"android": "https://dc.lft.to/lastmile_qr_scan", "ios": "https://dc.lft.to/lastmile_qr_scan"}, "name": "8a578159d82b012cfa2d7958e8a963f2", "type": "electric_scooter", "lat": 38.900257333333336, "is_disabled": 0}, {"fusion_lat": 0.0, "lon": -77.01868083333333, "is_reserved": 0, "bike_id": "ba1944d2edb6f72114179c15170dd0f4", "fusion_lon": 0.0, "rental_uris": {"android": "https://dc.lft.to/lastmile_qr_scan", "ios": "https://dc.lft.to/lastmile_qr_scan"}, "name": "ba1944d2edb6f72114179c15170dd0f4", "type": "electric_scooter", "lat": 38.97365216666667, "is_disabled": 0}, {"fusion_lat": 0.0, "lon": -77.025099, "is_reserved": 0, "bike_id": "d88f16cb49c6a9ac05ce1d7a46ebffb9", "fusion_lon": 0.0, "rental_uris": {"android": "https://dc.lft.to/lastmile_qr_scan", "ios": "https://dc.lft.to/lastmile_qr_scan"}, "name": "d88f16cb49c6a9ac05ce1d7a46ebffb9", "type": "electric_bike", "lat": 38.934085833333334, "is_disabled": 0}, {"fusion_lat": 0.0, "lon": -77.0528245, "is_reserved": 0, "bike_id": "2497627e714e5cd820aac82de3190aa0", "fusion_lon": 0.0, "rental_uris": {"android": "https://dc.lft.to/lastmile_qr_scan", "ios": "https://dc.lft.to/lastmile_qr_scan"}, "name": "2497627e714e5cd820aac82de3190aa0", "type": "electric_scooter", "lat": 38.925575333333335, "is_disabled": 0}, {"fusion_lat": 0.0, "lon": -76.99636116666667, "is_reserved": 0, "bike_id": "9e7f02e7b701829fbfc4323099e31072", "fusion_lon": 0.0, "rental_uris": {"android": "https://dc.lft.to/lastmile_qr_scan", "ios": "https://dc.lft.to/lastmile_qr_scan"}, "name": "9e7f02e7b701829fbfc4323099e31072", "type": "electric_scooter", "lat": 38.9001825, "is_disabled": 0}, {"fusion_lat": 0.0, "lon": -77.01362566666667, "is_reserved": 0, "bike_id": "789c65a30d9b44fb773e25594f5254f0", "fusion_lon": 0.0, "rental_uris": {"android": "https://dc.lft.to/lastmile_qr_scan", "ios": "https://dc.lft.to/lastmile_qr_scan"}, "name": "789c65a30d9b44fb773e25594f5254f0", "type": "electric_scooter", "lat": 38.91816683333333, "is_disabled": 0}, {"fusion_lat": 0.0, "lon": -76.94871916666666, "is_reserved": 0, "bike_id": "1385b18c8164e51cc2dc10ce2eea85b9", "fusion_lon": 0.0, "rental_uris": {"android": "https://dc.lft.to/lastmile_qr_scan", "ios": "https://dc.lft.to/lastmile_qr_scan"}, "name": "1385b18c8164e51cc2dc10ce2eea85b9", "type": "electric_scooter", "lat": 38.8954705, "is_disabled": 0}, {"fusion_lat": 0.0, "lon": -77.073284, "is_reserved": 0, "bike_id": "ed294c575be504cbbb91823340320874", "fusion_lon": 0.0, "rental_uris": {"android": "https://dc.lft.to/lastmile_qr_scan", "ios": "https://dc.lft.to/lastmile_qr_scan"}, "name": "ed294c575be504cbbb91823340320874", "type": "electric_scooter", "lat": 38.92611433333333, "is_disabled": 0}, {"fusion_lat": 0.0, "lon": -77.06011616666666, "is_reserved": 0, "bike_id": "a750ef0fda174f33d1b9fa2267ef6adb", "fusion_lon": 0.0, "rental_uris": {"android": "https://dc.lft.to/lastmile_qr_scan", "ios": "https://dc.lft.to/lastmile_qr_scan"}, "name": "a750ef0fda174f33d1b9fa2267ef6adb", "type": "electric_scooter", "lat": 38.901986, "is_disabled": 0}, {"fusion_lat": 0.0, "lon": -77.05743033333333, "is_reserved": 0, "bike_id": "e12ab981238b8ef2317f3d2375410bae", "fusion_lon": 0.0, "rental_uris": {"android": "https://dc.lft.to/lastmile_qr_scan", "ios": "https://dc.lft.to/lastmile_qr_scan"}, "name": "e12ab981238b8ef2317f3d2375410bae", "type": "electric_scooter", "lat": 38.93390633333333, "is_disabled": 0}, {"fusion_lat": 0.0, "lon": -76.99377666666666, "is_reserved": 0, "bike_id": "f768f83c2c93f7661d50918375ad7f2c", "fusion_lon": 0.0, "rental_uris": {"android": "https://dc.lft.to/lastmile_qr_scan", "ios": "https://dc.lft.to/lastmile_qr_scan"}, "name": "f768f83c2c93f7661d50918375ad7f2c", "type": "electric_bike", "lat": 38.971838166666664, "is_disabled": 0}, {"fusion_lat": 0.0, "lon": -77.02488816666667, "is_reserved": 0, "bike_id": "8e5f4bea817313413d23308ca972a078", "fusion_lon": 0.0, "rental_uris": {"android": "https://dc.lft.to/lastmile_qr_scan", "ios": "https://dc.lft.to/lastmile_qr_scan"}, "name": "8e5f4bea817313413d23308ca972a078", "type": "electric_scooter", "lat": 38.937541833333334, "is_disabled": 0}, {"fusion_lat": 0.0, "lon": -76.98394766666667, "is_reserved": 0, "bike_id": "27505c913e896d8bb569d0c95f442877", "fusion_lon": 0.0, "rental_uris": {"android": "https://dc.lft.to/lastmile_qr_scan", "ios": "https://dc.lft.to/lastmile_qr_scan"}, "name": "27505c913e896d8bb569d0c95f442877", "type": "electric_scooter", "lat": 38.86702483333333, "is_disabled": 0}, {"fusion_lat": 0.0, "lon": -77.03085533333334, "is_reserved": 0, "bike_id": "1bfa956da9a787f456f10932ac6cf56b", "fusion_lon": 0.0, "rental_uris": {"android": "https://dc.lft.to/lastmile_qr_scan", "ios": "https://dc.lft.to/lastmile_qr_scan"}, "name": "1bfa956da9a787f456f10932ac6cf56b", "type": "electric_scooter", "lat": 38.89972933333333, "is_disabled": 0}, {"fusion_lat": 0.0, "lon": -77.03904883333334, "is_reserved": 0, "bike_id": "eb32c48497d2a1ff5ae607fc77a8c4f4", "fusion_lon": 0.0, "rental_uris": {"android": "https://dc.lft.to/lastmile_qr_scan", "ios": "https://dc.lft.to/lastmile_qr_scan"}, "name": "eb32c48497d2a1ff5ae607fc77a8c4f4", "type": "electric_scooter", "lat": 38.92422066666666, "is_disabled": 0}, {"fusion_lat": 0.0, "lon": -77.00627416666667, "is_reserved": 0, "bike_id": "84d1304d1cc47edc794d5bfb0e062a48", "fusion_lon": 0.0, "rental_uris": {"android": "https://dc.lft.to/lastmile_qr_scan", "ios": "https://dc.lft.to/lastmile_qr_scan"}, "name": "84d1304d1cc47edc794d5bfb0e062a48", "type": "electric_scooter", "lat": 38.8327145, "is_disabled": 0}, {"fusion_lat": 0.0, "lon": -77.04552883333334, "is_reserved": 0, "bike_id": "6cbfb96d0d08dbc332a2ab14f0ae2771", "fusion_lon": 0.0, "rental_uris": {"android": "https://dc.lft.to/lastmile_qr_scan", "ios": "https://dc.lft.to/lastmile_qr_scan"}, "name": "6cbfb96d0d08dbc332a2ab14f0ae2771", "type": "electric_scooter", "lat": 38.92419483333333, "is_disabled": 0}, {"fusion_lat": 0.0, "lon": -76.92919616666667, "is_reserved": 0, "bike_id": "494f0fc2ee381b3ebe8937925d7512d9", "fusion_lon": 0.0, "rental_uris": {"android": "https://dc.lft.to/lastmile_qr_scan", "ios": "https://dc.lft.to/lastmile_qr_scan"}, "name": "494f0fc2ee381b3ebe8937925d7512d9", "type": "electric_scooter", "lat": 38.892914166666664, "is_disabled": 0}, {"fusion_lat": 0.0, "lon": -77.06280633333333, "is_reserved": 0, "bike_id": "0e57358e1a9ee45968cbe6a59266a4bc", "fusion_lon": 0.0, "rental_uris": {"android": "https://dc.lft.to/lastmile_qr_scan", "ios": "https://dc.lft.to/lastmile_qr_scan"}, "name": "0e57358e1a9ee45968cbe6a59266a4bc", "type": "electric_scooter", "lat": 38.90459666666667, "is_disabled": 0}, {"fusion_lat": 0.0, "lon": -77.023048, "is_reserved": 0, "bike_id": "aabc9224b064959bf228129c1ff0b83d", "fusion_lon": 0.0, "rental_uris": {"android": "https://dc.lft.to/lastmile_qr_scan", "ios": "https://dc.lft.to/lastmile_qr_scan"}, "name": "aabc9224b064959bf228129c1ff0b83d", "type": "electric_scooter", "lat": 38.9090345, "is_disabled": 0}, {"fusion_lat": 0.0, "lon": -76.930599, "is_reserved": 0, "bike_id": "e491b9e86ecc74cd1efe36f53b809531", "fusion_lon": 0.0, "rental_uris": {"android": "https://dc.lft.to/lastmile_qr_scan", "ios": "https://dc.lft.to/lastmile_qr_scan"}, "name": "e491b9e86ecc74cd1efe36f53b809531", "type": "electric_scooter", "lat": 38.90149433333333, "is_disabled": 0}, {"fusion_lat": 0.0, "lon": -77.03707283333334, "is_reserved": 0, "bike_id": "b75466add2ee15e5276456b31158063b", "fusion_lon": 0.0, "rental_uris": {"android": "https://dc.lft.to/lastmile_qr_scan", "ios": "https://dc.lft.to/lastmile_qr_scan"}, "name": "b75466add2ee15e5276456b31158063b", "type": "electric_scooter", "lat": 38.9036445, "is_disabled": 0}, {"fusion_lat": 0.0, "lon": -77.034724, "is_reserved": 0, "bike_id": "31e9cccdafd790f2916c84b5d6294b33", "fusion_lon": 0.0, "rental_uris": {"android": "https://dc.lft.to/lastmile_qr_scan", "ios": "https://dc.lft.to/lastmile_qr_scan"}, "name": "31e9cccdafd790f2916c84b5d6294b33", "type": "electric_scooter", "lat": 38.9065485, "is_disabled": 0}, {"fusion_lat": 0.0, "lon": -77.002909, "is_reserved": 0, "bike_id": "008ddddbee26fb627936be040bf9739b", "fusion_lon": 0.0, "rental_uris": {"android": "https://dc.lft.to/lastmile_qr_scan", "ios": "https://dc.lft.to/lastmile_qr_scan"}, "name": "008ddddbee26fb627936be040bf9739b", "type": "electric_scooter", "lat": 38.8948975, "is_disabled": 0}, {"fusion_lat": 0.0, "lon": -77.04650533333333, "is_reserved": 0, "bike_id": "c5159e8dea52bc88800269c2e05def3d", "fusion_lon": 0.0, "rental_uris": {"android": "https://dc.lft.to/lastmile_qr_scan", "ios": "https://dc.lft.to/lastmile_qr_scan"}, "name": "c5159e8dea52bc88800269c2e05def3d", "type": "electric_scooter", "lat": 38.909691333333335, "is_disabled": 0}, {"fusion_lat": 0.0, "lon": -76.98624233333334, "is_reserved": 0, "bike_id": "c6139a740860a25dfe1f3d4611d1e25f", "fusion_lon": 0.0, "rental_uris": {"android": "https://dc.lft.to/lastmile_qr_scan", "ios": "https://dc.lft.to/lastmile_qr_scan"}, "name": "c6139a740860a25dfe1f3d4611d1e25f", "type": "electric_scooter", "lat": 38.901169, "is_disabled": 0}, {"fusion_lat": 0.0, "lon": -77.09063733333333, "is_reserved": 0, "bike_id": "b4a61ca6e474b748e533c6a51a76f33a", "fusion_lon": 0.0, "rental_uris": {"android": "https://dc.lft.to/lastmile_qr_scan", "ios": "https://dc.lft.to/lastmile_qr_scan"}, "name": "b4a61ca6e474b748e533c6a51a76f33a", "type": "electric_bike", "lat": 38.8626025, "is_disabled": 0}, {"fusion_lat": 0.0, "lon": -77.015758, "is_reserved": 0, "bike_id": "de565dfb91cae5fc57d2caacc9c8a95b", "fusion_lon": 0.0, "rental_uris": {"android": "https://dc.lft.to/lastmile_qr_scan", "ios": "https://dc.lft.to/lastmile_qr_scan"}, "name": "de565dfb91cae5fc57d2caacc9c8a95b", "type": "electric_bike", "lat": 38.953176666666664, "is_disabled": 0}, {"fusion_lat": 0.0, "lon": -77.01764483333334, "is_reserved": 0, "bike_id": "dd7994b2e75d958352a8b53d413facd1", "fusion_lon": 0.0, "rental_uris": {"android": "https://dc.lft.to/lastmile_qr_scan", "ios": "https://dc.lft.to/lastmile_qr_scan"}, "name": "dd7994b2e75d958352a8b53d413facd1", "type": "electric_scooter", "lat": 38.921143666666666, "is_disabled": 0}, {"fusion_lat": 0.0, "lon": -76.97828233333334, "is_reserved": 0, "bike_id": "d6ccf5a034093e6cb634ac7a5895c614", "fusion_lon": 0.0, "rental_uris": {"android": "https://dc.lft.to/lastmile_qr_scan", "ios": "https://dc.lft.to/lastmile_qr_scan"}, "name": "d6ccf5a034093e6cb634ac7a5895c614", "type": "electric_bike", "lat": 38.84366133333333, "is_disabled": 0}, {"fusion_lat": 0.0, "lon": -76.98715466666667, "is_reserved": 0, "bike_id": "1c92dc4c4d87f2be4437900d7f99229c", "fusion_lon": 0.0, "rental_uris": {"android": "https://dc.lft.to/lastmile_qr_scan", "ios": "https://dc.lft.to/lastmile_qr_scan"}, "name": "1c92dc4c4d87f2be4437900d7f99229c", "type": "electric_scooter", "lat": 38.89964166666667, "is_disabled": 0}, {"fusion_lat": 0.0, "lon": -77.02413716666666, "is_reserved": 0, "bike_id": "0e7bc3b1e8535b7e3054f6949e64d1a6", "fusion_lon": 0.0, "rental_uris": {"android": "https://dc.lft.to/lastmile_qr_scan", "ios": "https://dc.lft.to/lastmile_qr_scan"}, "name": "0e7bc3b1e8535b7e3054f6949e64d1a6", "type": "electric_scooter", "lat": 38.9359745, "is_disabled": 0}, {"fusion_lat": 0.0, "lon": -76.99778733333333, "is_reserved": 0, "bike_id": "9ec2569f763dd4cf5826f68a4122b723", "fusion_lon": 0.0, "rental_uris": {"android": "https://dc.lft.to/lastmile_qr_scan", "ios": "https://dc.lft.to/lastmile_qr_scan"}, "name": "9ec2569f763dd4cf5826f68a4122b723", "type": "electric_scooter", "lat": 38.844264, "is_disabled": 0}, {"fusion_lat": 0.0, "lon": -77.03226183333334, "is_reserved": 0, "bike_id": "e28156cd68f41499cd3d6810453db7ff", "fusion_lon": 0.0, "rental_uris": {"android": "https://dc.lft.to/lastmile_qr_scan", "ios": "https://dc.lft.to/lastmile_qr_scan"}, "name": "e28156cd68f41499cd3d6810453db7ff", "type": "electric_scooter", "lat": 38.91553783333333, "is_disabled": 0}, {"fusion_lat": 0.0, "lon": -76.9495625, "is_reserved": 0, "bike_id": "5cd88fe0447456454bc6a18116d2fdd1", "fusion_lon": 0.0, "rental_uris": {"android": "https://dc.lft.to/lastmile_qr_scan", "ios": "https://dc.lft.to/lastmile_qr_scan"}, "name": "5cd88fe0447456454bc6a18116d2fdd1", "type": "electric_scooter", "lat": 38.89436366666666, "is_disabled": 0}, {"fusion_lat": 0.0, "lon": -77.0083205, "is_reserved": 0, "bike_id": "0e341ef89dcac32c1722b3c55f03919b", "fusion_lon": 0.0, "rental_uris": {"android": "https://dc.lft.to/lastmile_qr_scan", "ios": "https://dc.lft.to/lastmile_qr_scan"}, "name": "0e341ef89dcac32c1722b3c55f03919b", "type": "electric_scooter", "lat": 38.922444, "is_disabled": 0}, {"fusion_lat": 0.0, "lon": -77.03228116666666, "is_reserved": 0, "bike_id": "ca85a2bb871d5c95888b03cd1cab8c12", "fusion_lon": 0.0, "rental_uris": {"android": "https://dc.lft.to/lastmile_qr_scan", "ios": "https://dc.lft.to/lastmile_qr_scan"}, "name": "ca85a2bb871d5c95888b03cd1cab8c12", "type": "electric_scooter", "lat": 38.896823499999996, "is_disabled": 0}, {"fusion_lat": 0.0, "lon": -76.94382033333333, "is_reserved": 0, "bike_id": "9021e996541d17bd5deb671552980e24", "fusion_lon": 0.0, "rental_uris": {"android": "https://dc.lft.to/lastmile_qr_scan", "ios": "https://dc.lft.to/lastmile_qr_scan"}, "name": "9021e996541d17bd5deb671552980e24", "type": "electric_scooter", "lat": 38.8931905, "is_disabled": 0}, {"fusion_lat": 0.0, "lon": -76.97423033333334, "is_reserved": 0, "bike_id": "5f0747a88d923004f524cea46eae3018", "fusion_lon": 0.0, "rental_uris": {"android": "https://dc.lft.to/lastmile_qr_scan", "ios": "https://dc.lft.to/lastmile_qr_scan"}, "name": "5f0747a88d923004f524cea46eae3018", "type": "electric_scooter", "lat": 38.90401966666667, "is_disabled": 0}, {"fusion_lat": 0.0, "lon": -77.01905966666666, "is_reserved": 0, "bike_id": "389e22259efc204b1df09197c0f367f2", "fusion_lon": 0.0, "rental_uris": {"android": "https://dc.lft.to/lastmile_qr_scan", "ios": "https://dc.lft.to/lastmile_qr_scan"}, "name": "389e22259efc204b1df09197c0f367f2", "type": "electric_scooter", "lat": 38.9193465, "is_disabled": 0}, {"fusion_lat": 0.0, "lon": -77.02942666666667, "is_reserved": 0, "bike_id": "dabd1ceb479e8506c33f46c0e8c7e24f", "fusion_lon": 0.0, "rental_uris": {"android": "https://dc.lft.to/lastmile_qr_scan", "ios": "https://dc.lft.to/lastmile_qr_scan"}, "name": "dabd1ceb479e8506c33f46c0e8c7e24f", "type": "electric_scooter", "lat": 38.899975, "is_disabled": 0}, {"fusion_lat": 0.0, "lon": -76.93756516666667, "is_reserved": 0, "bike_id": "b733e497cf0964191a17d935b251d117", "fusion_lon": 0.0, "rental_uris": {"android": "https://dc.lft.to/lastmile_qr_scan", "ios": "https://dc.lft.to/lastmile_qr_scan"}, "name": "b733e497cf0964191a17d935b251d117", "type": "electric_scooter", "lat": 38.89046966666667, "is_disabled": 0}, {"fusion_lat": 0.0, "lon": -77.0629915, "is_reserved": 0, "bike_id": "6acd9a47b1bb9319e8c42f79e0f7298b", "fusion_lon": 0.0, "rental_uris": {"android": "https://dc.lft.to/lastmile_qr_scan", "ios": "https://dc.lft.to/lastmile_qr_scan"}, "name": "6acd9a47b1bb9319e8c42f79e0f7298b", "type": "electric_scooter", "lat": 38.90393183333333, "is_disabled": 0}, {"fusion_lat": 0.0, "lon": -77.06324933333333, "is_reserved": 0, "bike_id": "121288a4ab6d27bfeff26dd3697e3bae", "fusion_lon": 0.0, "rental_uris": {"android": "https://dc.lft.to/lastmile_qr_scan", "ios": "https://dc.lft.to/lastmile_qr_scan"}, "name": "121288a4ab6d27bfeff26dd3697e3bae", "type": "electric_scooter", "lat": 38.907625333333336, "is_disabled": 0}, {"fusion_lat": 0.0, "lon": -77.02761483333333, "is_reserved": 0, "bike_id": "991b96d88febc612c4f27539e97c31b3", "fusion_lon": 0.0, "rental_uris": {"android": "https://dc.lft.to/lastmile_qr_scan", "ios": "https://dc.lft.to/lastmile_qr_scan"}, "name": "991b96d88febc612c4f27539e97c31b3", "type": "electric_scooter", "lat": 38.954228666666666, "is_disabled": 0}, {"fusion_lat": 0.0, "lon": -77.00904916666667, "is_reserved": 0, "bike_id": "4b464860edcceef6ec6e9e3d08505811", "fusion_lon": 0.0, "rental_uris": {"android": "https://dc.lft.to/lastmile_qr_scan", "ios": "https://dc.lft.to/lastmile_qr_scan"}, "name": "4b464860edcceef6ec6e9e3d08505811", "type": "electric_bike", "lat": 38.899280833333336, "is_disabled": 0}, {"fusion_lat": 0.0, "lon": -77.01194533333333, "is_reserved": 0, "bike_id": "e3b5573327387f4b68064cac907d7baa", "fusion_lon": 0.0, "rental_uris": {"android": "https://dc.lft.to/lastmile_qr_scan", "ios": "https://dc.lft.to/lastmile_qr_scan"}, "name": "e3b5573327387f4b68064cac907d7baa", "type": "electric_scooter", "lat": 38.90646983333333, "is_disabled": 0}, {"fusion_lat": 0.0, "lon": -77.02140216666666, "is_reserved": 0, "bike_id": "94543b80043a460392d8172ce8512346", "fusion_lon": 0.0, "rental_uris": {"android": "https://dc.lft.to/lastmile_qr_scan", "ios": "https://dc.lft.to/lastmile_qr_scan"}, "name": "94543b80043a460392d8172ce8512346", "type": "electric_scooter", "lat": 38.9231935, "is_disabled": 0}, {"fusion_lat": 0.0, "lon": -77.05347933333333, "is_reserved": 0, "bike_id": "557470495d524cbcc3408ab938438ca0", "fusion_lon": 0.0, "rental_uris": {"android": "https://dc.lft.to/lastmile_qr_scan", "ios": "https://dc.lft.to/lastmile_qr_scan"}, "name": "557470495d524cbcc3408ab938438ca0", "type": "electric_scooter", "lat": 38.9235205, "is_disabled": 0}, {"fusion_lat": 0.0, "lon": -77.041726, "is_reserved": 0, "bike_id": "8640b860d70d9e0e1272c7c62da11198", "fusion_lon": 0.0, "rental_uris": {"android": "https://dc.lft.to/lastmile_qr_scan", "ios": "https://dc.lft.to/lastmile_qr_scan"}, "name": "8640b860d70d9e0e1272c7c62da11198", "type": "electric_scooter", "lat": 38.919557833333336, "is_disabled": 0}, {"fusion_lat": 0.0, "lon": -77.0274105, "is_reserved": 0, "bike_id": "28963fa28425787fb1f71b6c0a405d06", "fusion_lon": 0.0, "rental_uris": {"android": "https://dc.lft.to/lastmile_qr_scan", "ios": "https://dc.lft.to/lastmile_qr_scan"}, "name": "28963fa28425787fb1f71b6c0a405d06", "type": "electric_scooter", "lat": 38.935803166666666, "is_disabled": 0}, {"fusion_lat": 0.0, "lon": -76.98194383333333, "is_reserved": 0, "bike_id": "f58ef802d3b438bc07e7797d164300d3", "fusion_lon": 0.0, "rental_uris": {"android": "https://dc.lft.to/lastmile_qr_scan", "ios": "https://dc.lft.to/lastmile_qr_scan"}, "name": "f58ef802d3b438bc07e7797d164300d3", "type": "electric_scooter", "lat": 38.90278566666667, "is_disabled": 0}, {"fusion_lat": 0.0, "lon": -77.0116145, "is_reserved": 0, "bike_id": "39855fb4dc9b8a3c7f9e6ad5242bb4d3", "fusion_lon": 0.0, "rental_uris": {"android": "https://dc.lft.to/lastmile_qr_scan", "ios": "https://dc.lft.to/lastmile_qr_scan"}, "name": "39855fb4dc9b8a3c7f9e6ad5242bb4d3", "type": "electric_scooter", "lat": 38.90021633333333, "is_disabled": 0}, {"fusion_lat": 0.0, "lon": -77.021722, "is_reserved": 0, "bike_id": "59ae4f9fd82a6d2b0b2c2ccbb28adcf0", "fusion_lon": 0.0, "rental_uris": {"android": "https://dc.lft.to/lastmile_qr_scan", "ios": "https://dc.lft.to/lastmile_qr_scan"}, "name": "59ae4f9fd82a6d2b0b2c2ccbb28adcf0", "type": "electric_scooter", "lat": 38.89729766666667, "is_disabled": 0}, {"fusion_lat": 0.0, "lon": -76.98696183333334, "is_reserved": 0, "bike_id": "d6b865448a7de82d77e03b7ef25a042f", "fusion_lon": 0.0, "rental_uris": {"android": "https://dc.lft.to/lastmile_qr_scan", "ios": "https://dc.lft.to/lastmile_qr_scan"}, "name": "d6b865448a7de82d77e03b7ef25a042f", "type": "electric_scooter", "lat": 38.862513, "is_disabled": 0}, {"fusion_lat": 0.0, "lon": -77.02965433333334, "is_reserved": 0, "bike_id": "39e1610a703b27462e452d4f74db710a", "fusion_lon": 0.0, "rental_uris": {"android": "https://dc.lft.to/lastmile_qr_scan", "ios": "https://dc.lft.to/lastmile_qr_scan"}, "name": "39e1610a703b27462e452d4f74db710a", "type": "electric_scooter", "lat": 38.91683966666667, "is_disabled": 0}, {"fusion_lat": 0.0, "lon": -77.0320365, "is_reserved": 0, "bike_id": "a18eca1e3dc58c11d81917ef7d7c9ca1", "fusion_lon": 0.0, "rental_uris": {"android": "https://dc.lft.to/lastmile_qr_scan", "ios": "https://dc.lft.to/lastmile_qr_scan"}, "name": "a18eca1e3dc58c11d81917ef7d7c9ca1", "type": "electric_scooter", "lat": 38.90938366666666, "is_disabled": 0}, {"fusion_lat": 0.0, "lon": -77.08399983333334, "is_reserved": 0, "bike_id": "cba69d0a4cb6e63f477fae1b7b9f90f0", "fusion_lon": 0.0, "rental_uris": {"android": "https://dc.lft.to/lastmile_qr_scan", "ios": "https://dc.lft.to/lastmile_qr_scan"}, "name": "cba69d0a4cb6e63f477fae1b7b9f90f0", "type": "electric_scooter", "lat": 38.908003666666666, "is_disabled": 0}, {"fusion_lat": 0.0, "lon": -77.0316465, "is_reserved": 0, "bike_id": "4420fb5a8cc31a3cc7d7bc7eb0d46ff1", "fusion_lon": 0.0, "rental_uris": {"android": "https://dc.lft.to/lastmile_qr_scan", "ios": "https://dc.lft.to/lastmile_qr_scan"}, "name": "4420fb5a8cc31a3cc7d7bc7eb0d46ff1", "type": "electric_scooter", "lat": 38.91413583333333, "is_disabled": 0}, {"fusion_lat": 0.0, "lon": -76.94933916666666, "is_reserved": 0, "bike_id": "19e2a2e9d44d8fcd2d3c45549829cfc1", "fusion_lon": 0.0, "rental_uris": {"android": "https://dc.lft.to/lastmile_qr_scan", "ios": "https://dc.lft.to/lastmile_qr_scan"}, "name": "19e2a2e9d44d8fcd2d3c45549829cfc1", "type": "electric_scooter", "lat": 38.89344783333333, "is_disabled": 0}, {"fusion_lat": 0.0, "lon": -77.02408916666667, "is_reserved": 0, "bike_id": "290f28f19ab79b12fd0fe67eec5974aa", "fusion_lon": 0.0, "rental_uris": {"android": "https://dc.lft.to/lastmile_qr_scan", "ios": "https://dc.lft.to/lastmile_qr_scan"}, "name": "290f28f19ab79b12fd0fe67eec5974aa", "type": "electric_scooter", "lat": 38.93361733333333, "is_disabled": 0}, {"fusion_lat": 0.0, "lon": -77.0310475, "is_reserved": 0, "bike_id": "ac9ad9dde71cde05f359854b4220f714", "fusion_lon": 0.0, "rental_uris": {"android": "https://dc.lft.to/lastmile_qr_scan", "ios": "https://dc.lft.to/lastmile_qr_scan"}, "name": "ac9ad9dde71cde05f359854b4220f714", "type": "electric_scooter", "lat": 38.950749, "is_disabled": 0}, {"fusion_lat": 0.0, "lon": -77.04884316666667, "is_reserved": 0, "bike_id": "7fa1bae9127b0cf4fdfa691397229a36", "fusion_lon": 0.0, "rental_uris": {"android": "https://dc.lft.to/lastmile_qr_scan", "ios": "https://dc.lft.to/lastmile_qr_scan"}, "name": "7fa1bae9127b0cf4fdfa691397229a36", "type": "electric_scooter", "lat": 38.9103005, "is_disabled": 0}, {"fusion_lat": 0.0, "lon": -76.9301445, "is_reserved": 0, "bike_id": "0d7fcefc75f83946f77e9115765a39e1", "fusion_lon": 0.0, "rental_uris": {"android": "https://dc.lft.to/lastmile_qr_scan", "ios": "https://dc.lft.to/lastmile_qr_scan"}, "name": "0d7fcefc75f83946f77e9115765a39e1", "type": "electric_bike", "lat": 38.896544166666665, "is_disabled": 0}, {"fusion_lat": 0.0, "lon": -77.0383565, "is_reserved": 0, "bike_id": "0bf1a05c35ac68953323f69bb18ed508", "fusion_lon": 0.0, "rental_uris": {"android": "https://dc.lft.to/lastmile_qr_scan", "ios": "https://dc.lft.to/lastmile_qr_scan"}, "name": "0bf1a05c35ac68953323f69bb18ed508", "type": "electric_scooter", "lat": 38.91187866666667, "is_disabled": 0}, {"fusion_lat": 0.0, "lon": -77.04751333333333, "is_reserved": 0, "bike_id": "4081428e93aac1bf9bda7f467f9d7b83", "fusion_lon": 0.0, "rental_uris": {"android": "https://dc.lft.to/lastmile_qr_scan", "ios": "https://dc.lft.to/lastmile_qr_scan"}, "name": "4081428e93aac1bf9bda7f467f9d7b83", "type": "electric_scooter", "lat": 38.900558333333336, "is_disabled": 0}, {"fusion_lat": 0.0, "lon": -76.99505516666666, "is_reserved": 0, "bike_id": "2445046d1f110b455da573079fd87b2f", "fusion_lon": 0.0, "rental_uris": {"android": "https://dc.lft.to/lastmile_qr_scan", "ios": "https://dc.lft.to/lastmile_qr_scan"}, "name": "2445046d1f110b455da573079fd87b2f", "type": "electric_scooter", "lat": 38.880099, "is_disabled": 0}, {"fusion_lat": 0.0, "lon": -77.02523233333334, "is_reserved": 0, "bike_id": "583c8547082706a6823539d5d77c83f6", "fusion_lon": 0.0, "rental_uris": {"android": "https://dc.lft.to/lastmile_qr_scan", "ios": "https://dc.lft.to/lastmile_qr_scan"}, "name": "583c8547082706a6823539d5d77c83f6", "type": "electric_scooter", "lat": 38.9212415, "is_disabled": 0}, {"fusion_lat": 0.0, "lon": -77.0324615, "is_reserved": 0, "bike_id": "a78054d8e7035524c97a64b5647a4dd7", "fusion_lon": 0.0, "rental_uris": {"android": "https://dc.lft.to/lastmile_qr_scan", "ios": "https://dc.lft.to/lastmile_qr_scan"}, "name": "a78054d8e7035524c97a64b5647a4dd7", "type": "electric_scooter", "lat": 38.919195, "is_disabled": 0}, {"fusion_lat": 0.0, "lon": -76.9364585, "is_reserved": 0, "bike_id": "b67aa191170a80734eb5542dbae4548b", "fusion_lon": 0.0, "rental_uris": {"android": "https://dc.lft.to/lastmile_qr_scan", "ios": "https://dc.lft.to/lastmile_qr_scan"}, "name": "b67aa191170a80734eb5542dbae4548b", "type": "electric_scooter", "lat": 38.900692666666664, "is_disabled": 0}, {"fusion_lat": 0.0, "lon": -77.03590166666666, "is_reserved": 0, "bike_id": "13fc4b2e2933c7820a64124dcc58eae7", "fusion_lon": 0.0, "rental_uris": {"android": "https://dc.lft.to/lastmile_qr_scan", "ios": "https://dc.lft.to/lastmile_qr_scan"}, "name": "13fc4b2e2933c7820a64124dcc58eae7", "type": "electric_scooter", "lat": 38.91755416666667, "is_disabled": 0}, {"fusion_lat": 0.0, "lon": -77.05182766666667, "is_reserved": 0, "bike_id": "d38ad195019b95fd521a5c2a9b550180", "fusion_lon": 0.0, "rental_uris": {"android": "https://dc.lft.to/lastmile_qr_scan", "ios": "https://dc.lft.to/lastmile_qr_scan"}, "name": "d38ad195019b95fd521a5c2a9b550180", "type": "electric_scooter", "lat": 38.923729, "is_disabled": 0}, {"fusion_lat": 0.0, "lon": -76.9993925, "is_reserved": 0, "bike_id": "03ada21e65996642640d8d358c3abe30", "fusion_lon": 0.0, "rental_uris": {"android": "https://dc.lft.to/lastmile_qr_scan", "ios": "https://dc.lft.to/lastmile_qr_scan"}, "name": "03ada21e65996642640d8d358c3abe30", "type": "electric_scooter", "lat": 38.8964425, "is_disabled": 0}, {"fusion_lat": 0.0, "lon": -76.988859, "is_reserved": 0, "bike_id": "6061c5eba18d9df61fab7706ae97b394", "fusion_lon": 0.0, "rental_uris": {"android": "https://dc.lft.to/lastmile_qr_scan", "ios": "https://dc.lft.to/lastmile_qr_scan"}, "name": "6061c5eba18d9df61fab7706ae97b394", "type": "electric_scooter", "lat": 38.866453166666666, "is_disabled": 0}, {"fusion_lat": 0.0, "lon": -77.04501516666667, "is_reserved": 0, "bike_id": "98aa029a578b80b9dccdb227caf86d27", "fusion_lon": 0.0, "rental_uris": {"android": "https://dc.lft.to/lastmile_qr_scan", "ios": "https://dc.lft.to/lastmile_qr_scan"}, "name": "98aa029a578b80b9dccdb227caf86d27", "type": "electric_scooter", "lat": 38.914164166666666, "is_disabled": 0}, {"fusion_lat": 0.0, "lon": -77.04317016666667, "is_reserved": 0, "bike_id": "c4ebd2816f838644f4a96071e6bd23ee", "fusion_lon": 0.0, "rental_uris": {"android": "https://dc.lft.to/lastmile_qr_scan", "ios": "https://dc.lft.to/lastmile_qr_scan"}, "name": "c4ebd2816f838644f4a96071e6bd23ee", "type": "electric_scooter", "lat": 38.926522, "is_disabled": 0}, {"fusion_lat": 0.0, "lon": -76.99783433333333, "is_reserved": 0, "bike_id": "c40d765d3405f06e671eed50e28dc3d8", "fusion_lon": 0.0, "rental_uris": {"android": "https://dc.lft.to/lastmile_qr_scan", "ios": "https://dc.lft.to/lastmile_qr_scan"}, "name": "c40d765d3405f06e671eed50e28dc3d8", "type": "electric_bike", "lat": 38.952967666666666, "is_disabled": 0}, {"fusion_lat": 0.0, "lon": -77.02968433333334, "is_reserved": 0, "bike_id": "b63ea873f5e207bacc431f831d0e02d5", "fusion_lon": 0.0, "rental_uris": {"android": "https://dc.lft.to/lastmile_qr_scan", "ios": "https://dc.lft.to/lastmile_qr_scan"}, "name": "b63ea873f5e207bacc431f831d0e02d5", "type": "electric_scooter", "lat": 38.899305166666664, "is_disabled": 0}, {"fusion_lat": 0.0, "lon": -77.01614166666667, "is_reserved": 0, "bike_id": "2cd602d36c7e80d3dd8e6991f6e625a0", "fusion_lon": 0.0, "rental_uris": {"android": "https://dc.lft.to/lastmile_qr_scan", "ios": "https://dc.lft.to/lastmile_qr_scan"}, "name": "2cd602d36c7e80d3dd8e6991f6e625a0", "type": "electric_scooter", "lat": 38.899597666666665, "is_disabled": 0}, {"fusion_lat": 0.0, "lon": -77.03176683333334, "is_reserved": 0, "bike_id": "23091b311fe6935e3232401f49a4959d", "fusion_lon": 0.0, "rental_uris": {"android": "https://dc.lft.to/lastmile_qr_scan", "ios": "https://dc.lft.to/lastmile_qr_scan"}, "name": "23091b311fe6935e3232401f49a4959d", "type": "electric_scooter", "lat": 38.908813333333335, "is_disabled": 0}, {"fusion_lat": 0.0, "lon": -77.0747805, "is_reserved": 0, "bike_id": "811aa023ca6f5a936def801fa0ecf4da", "fusion_lon": 0.0, "rental_uris": {"android": "https://dc.lft.to/lastmile_qr_scan", "ios": "https://dc.lft.to/lastmile_qr_scan"}, "name": "811aa023ca6f5a936def801fa0ecf4da", "type": "electric_scooter", "lat": 38.96375316666666, "is_disabled": 0}, {"fusion_lat": 0.0, "lon": -77.0240475, "is_reserved": 0, "bike_id": "6a3fa2003d3e158adb38a3cac87b80fa", "fusion_lon": 0.0, "rental_uris": {"android": "https://dc.lft.to/lastmile_qr_scan", "ios": "https://dc.lft.to/lastmile_qr_scan"}, "name": "6a3fa2003d3e158adb38a3cac87b80fa", "type": "electric_scooter", "lat": 38.957303333333336, "is_disabled": 0}, {"fusion_lat": 0.0, "lon": -76.94876316666667, "is_reserved": 0, "bike_id": "b3884f5cb5675fb5b951b30485b0554d", "fusion_lon": 0.0, "rental_uris": {"android": "https://dc.lft.to/lastmile_qr_scan", "ios": "https://dc.lft.to/lastmile_qr_scan"}, "name": "b3884f5cb5675fb5b951b30485b0554d", "type": "electric_scooter", "lat": 38.895484, "is_disabled": 0}, {"fusion_lat": 0.0, "lon": -76.98106716666666, "is_reserved": 0, "bike_id": "133f138d3270d4d0b646ab6f404dba9b", "fusion_lon": 0.0, "rental_uris": {"android": "https://dc.lft.to/lastmile_qr_scan", "ios": "https://dc.lft.to/lastmile_qr_scan"}, "name": "133f138d3270d4d0b646ab6f404dba9b", "type": "electric_scooter", "lat": 38.90392383333333, "is_disabled": 0}, {"fusion_lat": 0.0, "lon": -77.00725683333333, "is_reserved": 0, "bike_id": "e05931a31a980f440225364b13de8e9d", "fusion_lon": 0.0, "rental_uris": {"android": "https://dc.lft.to/lastmile_qr_scan", "ios": "https://dc.lft.to/lastmile_qr_scan"}, "name": "e05931a31a980f440225364b13de8e9d", "type": "electric_scooter", "lat": 38.8849135, "is_disabled": 0}, {"fusion_lat": 0.0, "lon": -77.03202116666667, "is_reserved": 0, "bike_id": "4b4e479a31c35d8b94a5ca8456141518", "fusion_lon": 0.0, "rental_uris": {"android": "https://dc.lft.to/lastmile_qr_scan", "ios": "https://dc.lft.to/lastmile_qr_scan"}, "name": "4b4e479a31c35d8b94a5ca8456141518", "type": "electric_scooter", "lat": 38.915262166666665, "is_disabled": 0}, {"fusion_lat": 0.0, "lon": -77.04311783333333, "is_reserved": 0, "bike_id": "5df964b944c30d862c90e2c8af66d471", "fusion_lon": 0.0, "rental_uris": {"android": "https://dc.lft.to/lastmile_qr_scan", "ios": "https://dc.lft.to/lastmile_qr_scan"}, "name": "5df964b944c30d862c90e2c8af66d471", "type": "electric_scooter", "lat": 38.89361616666667, "is_disabled": 0}, {"fusion_lat": 0.0, "lon": -77.0374555, "is_reserved": 0, "bike_id": "af22fa21f44cc0167bec882e3881d5fb", "fusion_lon": 0.0, "rental_uris": {"android": "https://dc.lft.to/lastmile_qr_scan", "ios": "https://dc.lft.to/lastmile_qr_scan"}, "name": "af22fa21f44cc0167bec882e3881d5fb", "type": "electric_scooter", "lat": 38.9291815, "is_disabled": 0}, {"fusion_lat": 0.0, "lon": -76.946342, "is_reserved": 0, "bike_id": "de03dcf0ac62b6eea778de0b238ed406", "fusion_lon": 0.0, "rental_uris": {"android": "https://dc.lft.to/lastmile_qr_scan", "ios": "https://dc.lft.to/lastmile_qr_scan"}, "name": "de03dcf0ac62b6eea778de0b238ed406", "type": "electric_scooter", "lat": 38.89841783333333, "is_disabled": 0}, {"fusion_lat": 0.0, "lon": -76.99002683333333, "is_reserved": 0, "bike_id": "0c81c8786c9e058f527e203a1d376170", "fusion_lon": 0.0, "rental_uris": {"android": "https://dc.lft.to/lastmile_qr_scan", "ios": "https://dc.lft.to/lastmile_qr_scan"}, "name": "0c81c8786c9e058f527e203a1d376170", "type": "electric_scooter", "lat": 38.86425833333333, "is_disabled": 0}, {"fusion_lat": 0.0, "lon": -76.93477683333333, "is_reserved": 0, "bike_id": "d0212bd58feb2aa9adbc12c623ebc61d", "fusion_lon": 0.0, "rental_uris": {"android": "https://dc.lft.to/lastmile_qr_scan", "ios": "https://dc.lft.to/lastmile_qr_scan"}, "name": "d0212bd58feb2aa9adbc12c623ebc61d", "type": "electric_scooter", "lat": 38.9055285, "is_disabled": 0}, {"fusion_lat": 0.0, "lon": -76.94594316666667, "is_reserved": 0, "bike_id": "4b35f2841fef6aeb97c319132cf6a3d9", "fusion_lon": 0.0, "rental_uris": {"android": "https://dc.lft.to/lastmile_qr_scan", "ios": "https://dc.lft.to/lastmile_qr_scan"}, "name": "4b35f2841fef6aeb97c319132cf6a3d9", "type": "electric_scooter", "lat": 38.901421666666664, "is_disabled": 0}, {"fusion_lat": 0.0, "lon": -77.018165, "is_reserved": 0, "bike_id": "c40e49f5525b84131368783e686d7677", "fusion_lon": 0.0, "rental_uris": {"android": "https://dc.lft.to/lastmile_qr_scan", "ios": "https://dc.lft.to/lastmile_qr_scan"}, "name": "c40e49f5525b84131368783e686d7677", "type": "electric_scooter", "lat": 38.930408, "is_disabled": 0}, {"fusion_lat": 0.0, "lon": -77.01635966666667, "is_reserved": 0, "bike_id": "94ef0573dfe44831045042cf3d3ed466", "fusion_lon": 0.0, "rental_uris": {"android": "https://dc.lft.to/lastmile_qr_scan", "ios": "https://dc.lft.to/lastmile_qr_scan"}, "name": "94ef0573dfe44831045042cf3d3ed466", "type": "electric_scooter", "lat": 38.900573333333334, "is_disabled": 0},