{"data": {"bikes": [{"lat": 38.9104055, "is_disabled": 0, "type": "electric_scooter", "lon": -77.04280966666667, "bike_id": "f1fc64b4c2a3da3cc94a188bd7ae8d2f", "fusion_lat": 0.0, "name": "f1fc64b4c2a3da3cc94a188bd7ae8d2f", "is_reserved": 0, "rental_uris": {"android": "https://dc.lft.to/lastmile_qr_scan", "ios": "https://dc.lft.to/lastmile_qr_scan"}, "fusion_lon": 0.0}, {"lat": 38.86692016666667, "is_disabled": 0, "type": "electric_scooter", "lon": -76.98545216666666, "bike_id": "08efa4be52d33384e834ef1e120d9961", "fusion_lat": 0.0, "name": "08efa4be52d33384e834ef1e120d9961", "is_reserved": 0, "rental_uris": {"android": "https://dc.lft.to/lastmile_qr_scan", "ios": "https://dc.lft.to/lastmile_qr_scan"}, "fusion_lon": 0.0}, {"lat": 38.930200666666664, "is_disabled": 0, "type": "electric_scooter", "lon": -77.04445483333333, "bike_id": "1851ba24644283d087ab4b3bc7a33990", "fusion_lat": 0.0, "name": "1851ba24644283d087ab4b3bc7a33990", "is_reserved": 0, "rental_uris": {"android": "https://dc.lft.to/lastmile_qr_scan", "ios": "https://dc.lft.to/lastmile_qr_scan"}, "fusion_lon": 0.0}, {"lat": 38.897108833333334, "is_disabled": 0, "type": "electric_scooter", "lon": -77.04884983333334, "bike_id": "0c838579eaf148b86e8c8665e10f32ab", "fusion_lat": 0.0, "name": "0c838579eaf148b86e8c8665e10f32ab", "is_reserved": 0, "rental_uris": {"android": "https://dc.lft.to/lastmile_qr_scan", "ios": "https://dc.lft.to/lastmile_qr_scan"}, "fusion_lon": 0.0}, {"lat": 38.89549383333333, "is_disabled": 0, "type": "electric_scooter", "lon": -77.00914733333333, "bike_id": "1f4c35beba2bf6d5a230e676caba0e20", "fusion_lat": 0.0, "name": "1f4c35beba2bf6d5a230e676caba0e20", "is_reserved": 0, "rental_uris": {"android": "https://dc.lft.to/lastmile_qr_scan", "ios": "https://dc.lft.to/lastmile_qr_scan"}, "fusion_lon": 0.0}, {"lat": 38.93108483333334, "is_disabled": 0, "type": "electric_scooter", "lon": -77.02648683333334, "bike_id": "9777e7a52061a82231f5ac51724ec15d", "fusion_lat": 0.0, "name": "9777e7a52061a82231f5ac51724ec15d", "is_reserved": 0, "rental_uris": {"android": "https://dc.lft.to/lastmile_qr_scan", "ios": "https://dc.lft.to/lastmile_qr_scan"}, "fusion_lon": 0.0}, {"lat": 38.91375816666667, "is_disabled": 0, "type": "electric_scooter", "lon": -77.03207466666667, "bike_id": "1af39c8146c67a6cd4d21e41ca386eaa", "fusion_lat": 0.0, "name": "1af39c8146c67a6cd4d21e41ca386eaa", "is_reserved": 0, "rental_uris": {"android": "https://dc.lft.to/lastmile_qr_scan", "ios": "https://dc.lft.to/lastmile_qr_scan"}, "fusion_lon": 0.0}, {"lat": 38.91185516666667, "is_disabled": 0, "type": "electric_scooter", "lon": -77.01078683333333, "bike_id": "67c831befee39b4a92e133a20a5a572a", "fusion_lat": 0.0, "name": "67c831befee39b4a92e133a20a5a572a", "is_reserved": 0, "rental_uris": {"android": "https://dc.lft.to/lastmile_qr_scan", "ios": "https://dc.lft.to/lastmile_qr_scan"}, "fusion_lon": 0.0}, {"lat": 38.902396, "is_disabled": 0, "type": "electric_scooter", "lon": -77.001996, "bike_id": "04c652fe3258eb972a4b9ed40dc12883", "fusion_lat": 0.0, "name": "04c652fe3258eb972a4b9ed40dc12883", "is_reserved": 0, "rental_uris": {"android": "https://dc.lft.to/lastmile_qr_scan", "ios": "https://dc.lft.to/lastmile_qr_scan"}, "fusion_lon": 0.0}, {"lat": 38.898990833333336, "is_disabled": 0, "type": "electric_scooter", "lon": -76.93351666666666, "bike_id": "1b647e98c46cc562e723d1479fec7c90", "fusion_lat": 0.0, "name": "1b647e98c46cc562e723d1479fec7c90", "is_reserved": 0, "rental_uris": {"android": "https://dc.lft.to/lastmile_qr_scan", "ios": "https://dc.lft.to/lastmile_qr_scan"}, "fusion_lon": 0.0}, {"lat": 38.91404883333333, "is_disabled": 0, "type": "electric_scooter", "lon": -77.03158716666667, "bike_id": "4d2c2ca66994066d5d4a969cff2c6d87", "fusion_lat": 0.0, "name": "4d2c2ca66994066d5d4a969cff2c6d87", "is_reserved": 0, "rental_uris": {"android": "https://dc.lft.to/lastmile_qr_scan", "ios": "https://dc.lft.to/lastmile_qr_scan"}, "fusion_lon": 0.0}, {"lat": 38.911742833333335, "is_disabled": 0, "type": "electric_bike", "lon": -77.00269233333333, "bike_id": "ff2e8b297743ecf5045a829687cb3701", "fusion_lat": 0.0, "name": "ff2e8b297743ecf5045a829687cb3701", "is_reserved": 0, "rental_uris": {"android": "https://dc.lft.to/lastmile_qr_scan", "ios": "https://dc.lft.to/lastmile_qr_scan"}, "fusion_lon": 0.0}, {"lat": 38.9305915, "is_disabled": 0, "type": "electric_scooter", "lon": -77.0369505, "bike_id": "9be497d4faa729b6db00a6b32ddc4ce2", "fusion_lat": 0.0, "name": "9be497d4faa729b6db00a6b32ddc4ce2", "is_reserved": 0, "rental_uris": {"android": "https://dc.lft.to/lastmile_qr_scan", "ios": "https://dc.lft.to/lastmile_qr_scan"}, "fusion_lon": 0.0}, {"lat": 38.9098995, "is_disabled": 0, "type": "electric_scooter", "lon": -76.9974015, "bike_id": "85afc32d995e5a08617a2bdff0a4dfa0", "fusion_lat": 0.0, "name": "85afc32d995e5a08617a2bdff0a4dfa0", "is_reserved": 0, "rental_uris": {"android": "https://dc.lft.to/lastmile_qr_scan", "ios": "https://dc.lft.to/lastmile_qr_scan"}, "fusion_lon": 0.0}, {"lat": 38.93021316666667, "is_disabled": 0, "type": "electric_scooter", "lon": -77.0445105, "bike_id": "3b6766d2d4374b14f0e51a94c408a87d", "fusion_lat": 0.0, "name": "3b6766d2d4374b14f0e51a94c408a87d", "is_reserved": 0, "rental_uris": {"android": "https://dc.lft.to/lastmile_qr_scan", "ios": "https://dc.lft.to/lastmile_qr_scan"}, "fusion_lon": 0.0}, {"lat": 38.90087316666666, "is_disabled": 0, "type": "electric_scooter", "lon": -77.0433325, "bike_id": "09dde065f8874ea065a810d13ed2b2d3", "fusion_lat": 0.0, "name": "09dde065f8874ea065a810d13ed2b2d3", "is_reserved": 0, "rental_uris": {"android": "https://dc.lft.to/lastmile_qr_scan", "ios": "https://dc.lft.to/lastmile_qr_scan"}, "fusion_lon": 0.0}, {"lat": 38.94439116666667, "is_disabled": 0, "type": "electric_scooter", "lon": -77.06398833333333, "bike_id": "d3659e4318bc5a00407c48458f8ef37f", "fusion_lat": 0.0, "name": "d3659e4318bc5a00407c48458f8ef37f", "is_reserved": 0, "rental_uris": {"android": "https://dc.lft.to/lastmile_qr_scan", "ios": "https://dc.lft.to/lastmile_qr_scan"}, "fusion_lon": 0.0}, {"lat": 39.00479283333333, "is_disabled": 0, "type": "electric_bike", "lon": -76.90134483333334, "bike_id": "f99e66cc9fac15749fe21575440c1444", "fusion_lat": 0.0, "name": "f99e66cc9fac15749fe21575440c1444", "is_reserved": 0, "rental_uris": {"android": "https://dc.lft.to/lastmile_qr_scan", "ios": "https://dc.lft.to/lastmile_qr_scan"}, "fusion_lon": 0.0}, {"lat": 38.892185166666664, "is_disabled": 0, "type": "electric_scooter", "lon": -77.03167266666667, "bike_id": "4ea03f02591496327b86ef6b5216fd72", "fusion_lat": 0.0, "name": "4ea03f02591496327b86ef6b5216fd72", "is_reserved": 0, "rental_uris": {"android": "https://dc.lft.to/lastmile_qr_scan", "ios": "https://dc.lft.to/lastmile_qr_scan"}, "fusion_lon": 0.0}, {"lat": 38.884444, "is_disabled": 0, "type": "electric_scooter", "lon": -76.99630683333334, "bike_id": "01c52b703e9eacafcccac55a6eb68e6a", "fusion_lat": 0.0, "name": "01c52b703e9eacafcccac55a6eb68e6a", "is_reserved": 0, "rental_uris": {"android": "https://dc.lft.to/lastmile_qr_scan", "ios": "https://dc.lft.to/lastmile_qr_scan"}, "fusion_lon": 0.0}, {"lat": 38.898846666666664, "is_disabled": 0, "type": "electric_scooter", "lon": -76.931749, "bike_id": "c41162e71dc4b1a90724389af023a4b9", "fusion_lat": 0.0, "name": "c41162e71dc4b1a90724389af023a4b9", "is_reserved": 0, "rental_uris": {"android": "https://dc.lft.to/lastmile_qr_scan", "ios": "https://dc.lft.to/lastmile_qr_scan"}, "fusion_lon": 0.0}, {"lat": 38.82872616666667, "is_disabled": 0, "type": "electric_bike", "lon": -77.112184, "bike_id": "1cc02571020ae634804348b227a4475d", "fusion_lat": 0.0, "name": "1cc02571020ae634804348b227a4475d", "is_reserved": 0, "rental_uris": {"android": "https://dc.lft.to/lastmile_qr_scan", "ios": "https://dc.lft.to/lastmile_qr_scan"}, "fusion_lon": 0.0}, {"lat": 38.892214333333335, "is_disabled": 0, "type": "electric_scooter", "lon": -77.03160383333334, "bike_id": "cf1614ce3088e701944c8a66b59d518e", "fusion_lat": 0.0, "name": "cf1614ce3088e701944c8a66b59d518e", "is_reserved": 0, "rental_uris": {"android": "https://dc.lft.to/lastmile_qr_scan", "ios": "https://dc.lft.to/lastmile_qr_scan"}, "fusion_lon": 0.0}, {"lat": 38.92236233333333, "is_disabled": 0, "type": "electric_scooter", "lon": -77.02842916666667, "bike_id": "e462babf64bd1a8cdb6e758b65888066", "fusion_lat": 0.0, "name": "e462babf64bd1a8cdb6e758b65888066", "is_reserved": 0, "rental_uris": {"android": "https://dc.lft.to/lastmile_qr_scan", "ios": "https://dc.lft.to/lastmile_qr_scan"}, "fusion_lon": 0.0}, {"lat": 38.897391666666664, "is_disabled": 0, "type": "electric_scooter", "lon": -77.02386966666667, "bike_id": "3eae9d894985e48a1462c9e1cc4c6997", "fusion_lat": 0.0, "name": "3eae9d894985e48a1462c9e1cc4c6997", "is_reserved": 0, "rental_uris": {"android": "https://dc.lft.to/lastmile_qr_scan", "ios": "https://dc.lft.to/lastmile_qr_scan"}, "fusion_lon": 0.0}, {"lat": 38.90367116666667, "is_disabled": 0, "type": "electric_scooter", "lon": -76.9923075, "bike_id": "eeebd8a06c0fbab77bef52e8de7cc26e", "fusion_lat": 0.0, "name": "eeebd8a06c0fbab77bef52e8de7cc26e", "is_reserved": 0, "rental_uris": {"android": "https://dc.lft.to/lastmile_qr_scan", "ios": "https://dc.lft.to/lastmile_qr_scan"}, "fusion_lon": 0.0}, {"lat": 38.9353855, "is_disabled": 0, "type": "electric_scooter", "lon": -77.03265016666667, "bike_id": "0fa8e163007175b1afd8f1131eac99ec", "fusion_lat": 0.0, "name": "0fa8e163007175b1afd8f1131eac99ec", "is_reserved": 0, "rental_uris": {"android": "https://dc.lft.to/lastmile_qr_scan", "ios": "https://dc.lft.to/lastmile_qr_scan"}, "fusion_lon": 0.0}, {"lat": 38.89225233333333, "is_disabled": 0, "type": "electric_bike", "lon": -77.0321735, "bike_id": "59b4df25af235908e9fb077613b15d2e", "fusion_lat": 0.0, "name": "59b4df25af235908e9fb077613b15d2e", "is_reserved": 0, "rental_uris": {"android": "https://dc.lft.to/lastmile_qr_scan", "ios": "https://dc.lft.to/lastmile_qr_scan"}, "fusion_lon": 0.0}, {"lat": 38.89552483333333, "is_disabled": 0, "type": "electric_scooter", "lon": -77.00921983333333, "bike_id": "799c3a6c9f0dcad8a4a4ca93ef69970f", "fusion_lat": 0.0, "name": "799c3a6c9f0dcad8a4a4ca93ef69970f", "is_reserved": 0, "rental_uris": {"android": "https://dc.lft.to/lastmile_qr_scan", "ios": "https://dc.lft.to/lastmile_qr_scan"}, "fusion_lon": 0.0}, {"lat": 38.9242275, "is_disabled": 0, "type": "electric_scooter", "lon": -77.04450216666666, "bike_id": "ba73132b2f96c81748c55cf1e1a729d0", "fusion_lat": 0.0, "name": "ba73132b2f96c81748c55cf1e1a729d0", "is_reserved": 0, "rental_uris": {"android": "https://dc.lft.to/lastmile_qr_scan", "ios": "https://dc.lft.to/lastmile_qr_scan"}, "fusion_lon": 0.0}, {"lat": 38.935254, "is_disabled": 0, "type": "electric_scooter", "lon": -77.07291983333333, "bike_id": "771d12b03fbad973e4e1061624f5243d", "fusion_lat": 0.0, "name": "771d12b03fbad973e4e1061624f5243d", "is_reserved": 0, "rental_uris": {"android": "https://dc.lft.to/lastmile_qr_scan", "ios": "https://dc.lft.to/lastmile_qr_scan"}, "fusion_lon": 0.0}, {"lat": 38.918429, "is_disabled": 0, "type": "electric_scooter", "lon": -77.02201266666667, "bike_id": "5cbc80067b630631f0b4e18f8b3eedbf", "fusion_lat": 0.0, "name": "5cbc80067b630631f0b4e18f8b3eedbf", "is_reserved": 0, "rental_uris": {"android": "https://dc.lft.to/lastmile_qr_scan", "ios": "https://dc.lft.to/lastmile_qr_scan"}, "fusion_lon": 0.0}, {"lat": 38.8921975, "is_disabled": 0, "type": "electric_scooter", "lon": -77.02212516666667, "bike_id": "60ca12692437fb4a4279389125ba26be", "fusion_lat": 0.0, "name": "60ca12692437fb4a4279389125ba26be", "is_reserved": 0, "rental_uris": {"android": "https://dc.lft.to/lastmile_qr_scan", "ios": "https://dc.lft.to/lastmile_qr_scan"}, "fusion_lon": 0.0}, {"lat": 38.94175383333334, "is_disabled": 0, "type": "electric_scooter", "lon": -77.02499733333333, "bike_id": "c9684cf227a8fa7706cd2826203ddf6e", "fusion_lat": 0.0, "name": "c9684cf227a8fa7706cd2826203ddf6e", "is_reserved": 0, "rental_uris": {"android": "https://dc.lft.to/lastmile_qr_scan", "ios": "https://dc.lft.to/lastmile_qr_scan"}, "fusion_lon": 0.0}, {"lat": 38.913648333333335, "is_disabled": 0, "type": "electric_scooter", "lon": -77.03360433333333, "bike_id": "e3e2db9b000f299e6670e123465e67ca", "fusion_lat": 0.0, "name": "e3e2db9b000f299e6670e123465e67ca", "is_reserved": 0, "rental_uris": {"android": "https://dc.lft.to/lastmile_qr_scan", "ios": "https://dc.lft.to/lastmile_qr_scan"}, "fusion_lon": 0.0}, {"lat": 38.8922285, "is_disabled": 0, "type": "electric_scooter", "lon": -76.9330025, "bike_id": "ea2dfdf04103124868146f4dddd0af7b", "fusion_lat": 0.0, "name": "ea2dfdf04103124868146f4dddd0af7b", "is_reserved": 0, "rental_uris": {"android": "https://dc.lft.to/lastmile_qr_scan", "ios": "https://dc.lft.to/lastmile_qr_scan"}, "fusion_lon": 0.0}, {"lat": 38.90504883333333, "is_disabled": 0, "type": "electric_scooter", "lon": -77.048811, "bike_id": "bffddf1316f611ab50d2562de2baa469", "fusion_lat": 0.0, "name": "bffddf1316f611ab50d2562de2baa469", "is_reserved": 0, "rental_uris": {"android": "https://dc.lft.to/lastmile_qr_scan", "ios": "https://dc.lft.to/lastmile_qr_scan"}, "fusion_lon": 0.0}, {"lat": 38.905578, "is_disabled": 0, "type": "electric_scooter", "lon": -77.039768, "bike_id": "c9a49272d6d3c8a82b4a20b9ade6667a", "fusion_lat": 0.0, "name": "c9a49272d6d3c8a82b4a20b9ade6667a", "is_reserved": 0, "rental_uris": {"android": "https://dc.lft.to/lastmile_qr_scan", "ios": "https://dc.lft.to/lastmile_qr_scan"}, "fusion_lon": 0.0}, {"lat": 38.90221566666666, "is_disabled": 0, "type": "electric_scooter", "lon": -77.059189, "bike_id": "a312420b80c7eb139670de164d281059", "fusion_lat": 0.0, "name": "a312420b80c7eb139670de164d281059", "is_reserved": 0, "rental_uris": {"android": "https://dc.lft.to/lastmile_qr_scan", "ios": "https://dc.lft.to/lastmile_qr_scan"}, "fusion_lon": 0.0}, {"lat": 38.900943166666664, "is_disabled": 0, "type": "electric_scooter", "lon": -77.055979, "bike_id": "03887d13b245bfc74100f25199f1dac9", "fusion_lat": 0.0, "name": "03887d13b245bfc74100f25199f1dac9", "is_reserved": 0, "rental_uris": {"android": "https://dc.lft.to/lastmile_qr_scan", "ios": "https://dc.lft.to/lastmile_qr_scan"}, "fusion_lon": 0.0}, {"lat": 38.9157015, "is_disabled": 0, "type": "electric_scooter", "lon": -77.02290066666667, "bike_id": "33324925cc504f72926b98493be68422", "fusion_lat": 0.0, "name": "33324925cc504f72926b98493be68422", "is_reserved": 0, "rental_uris": {"android": "https://dc.lft.to/lastmile_qr_scan", "ios": "https://dc.lft.to/lastmile_qr_scan"}, "fusion_lon": 0.0}, {"lat": 38.8650725, "is_disabled": 0, "type": "electric_scooter", "lon": -76.9900455, "bike_id": "23e0ca770accc027a999a40864b27bcb", "fusion_lat": 0.0, "name": "23e0ca770accc027a999a40864b27bcb", "is_reserved": 0, "rental_uris": {"android": "https://dc.lft.to/lastmile_qr_scan", "ios": "https://dc.lft.to/lastmile_qr_scan"}, "fusion_lon": 0.0}, {"lat": 38.899998833333335, "is_disabled": 0, "type": "electric_scooter", "lon": -77.0065655, "bike_id": "83cf7b58ef6139e29680598a7819cebd", "fusion_lat": 0.0, "name": "83cf7b58ef6139e29680598a7819cebd", "is_reserved": 0, "rental_uris": {"android": "https://dc.lft.to/lastmile_qr_scan", "ios": "https://dc.lft.to/lastmile_qr_scan"}, "fusion_lon": 0.0}, {"lat": 38.89811533333334, "is_disabled": 0, "type": "electric_scooter", "lon": -77.02817333333333, "bike_id": "0fa2f927a1e44097038a5e7299f669be", "fusion_lat": 0.0, "name": "0fa2f927a1e44097038a5e7299f669be", "is_reserved": 0, "rental_uris": {"android": "https://dc.lft.to/lastmile_qr_scan", "ios": "https://dc.lft.to/lastmile_qr_scan"}, "fusion_lon": 0.0}, {"lat": 38.903449, "is_disabled": 0, "type": "electric_scooter", "lon": -77.02580033333334, "bike_id": "ba847f3d7f612f686647d802685e09fa", "fusion_lat": 0.0, "name": "ba847f3d7f612f686647d802685e09fa", "is_reserved": 0, "rental_uris": {"android": "https://dc.lft.to/lastmile_qr_scan", "ios": "https://dc.lft.to/lastmile_qr_scan"}, "fusion_lon": 0.0}, {"lat": 38.9254745, "is_disabled": 0, "type": "electric_scooter", "lon": -77.05273466666667, "bike_id": "8a87cec90c6d7a759d1fcb388a67b0dc", "fusion_lat": 0.0, "name": "8a87cec90c6d7a759d1fcb388a67b0dc", "is_reserved": 0, "rental_uris": {"android": "https://dc.lft.to/lastmile_qr_scan", "ios": "https://dc.lft.to/lastmile_qr_scan"}, "fusion_lon": 0.0}, {"lat": 38.912649, "is_disabled": 0, "type": "electric_scooter", "lon": -77.03144216666666, "bike_id": "a48b1604f4a72a906d7e63c2e3385910", "fusion_lat": 0.0, "name": "a48b1604f4a72a906d7e63c2e3385910", "is_reserved": 0, "rental_uris": {"android": "https://dc.lft.to/lastmile_qr_scan", "ios": "https://dc.lft.to/lastmile_qr_scan"}, "fusion_lon": 0.0}, {"lat": 38.91284, "is_disabled": 0, "type": "electric_scooter", "lon": -77.04509716666666, "bike_id": "291de1acf120fec53b1a7b0eb1678f2d", "fusion_lat": 0.0, "name": "291de1acf120fec53b1a7b0eb1678f2d", "is_reserved": 0, "rental_uris": {"android": "https://dc.lft.to/lastmile_qr_scan", "ios": "https://dc.lft.to/lastmile_qr_scan"}, "fusion_lon": 0.0}, {"lat": 38.901447833333336, "is_disabled": 0, "type": "electric_scooter", "lon": -77.0419145, "bike_id": "f4b0c9e665d6ff77b329f7be9d848fbf", "fusion_lat": 0.0, "name": "f4b0c9e665d6ff77b329f7be9d848fbf", "is_reserved": 0, "rental_uris": {"android": "https://dc.lft.to/lastmile_qr_scan", "ios": "https://dc.lft.to/lastmile_qr_scan"}, "fusion_lon": 0.0}, {"lat": 38.9058585, "is_disabled": 0, "type": "electric_scooter", "lon": -76.98621616666667, "bike_id": "7fab62db55fab139c49beaf97358a9ae", "fusion_lat": 0.0, "name": "7fab62db55fab139c49beaf97358a9ae", "is_reserved": 0, "rental_uris": {"android": "https://dc.lft.to/lastmile_qr_scan", "ios": "https://dc.lft.to/lastmile_qr_scan"}, "fusion_lon": 0.0}, {"lat": 38.906794, "is_disabled": 0, "type": "electric_scooter", "lon": -77.02697916666666, "bike_id": "6bc6281c109481fbe70b108ca7ef3f6f", "fusion_lat": 0.0, "name": "6bc6281c109481fbe70b108ca7ef3f6f", "is_reserved": 0, "rental_uris": {"android": "https://dc.lft.to/lastmile_qr_scan", "ios": "https://dc.lft.to/lastmile_qr_scan"}, "fusion_lon": 0.0}, {"lat": 38.88534333333333, "is_disabled": 0, "type": "electric_scooter", "lon": -76.99830216666666, "bike_id": "8e0659c9622fae7636f6b3e0e8ce9ff4", "fusion_lat": 0.0, "name": "8e0659c9622fae7636f6b3e0e8ce9ff4", "is_reserved": 0, "rental_uris": {"android": "https://dc.lft.to/lastmile_qr_scan", "ios": "https://dc.lft.to/lastmile_qr_scan"}, "fusion_lon": 0.0}, {"lat": 38.8670725, "is_disabled": 0, "type": "electric_scooter", "lon": -76.98728816666667, "bike_id": "f08d78e04d9c58d6e9bd2f4e2eda8490", "fusion_lat": 0.0, "name": "f08d78e04d9c58d6e9bd2f4e2eda8490", "is_reserved": 0, "rental_uris": {"android": "https://dc.lft.to/lastmile_qr_scan", "ios": "https://dc.lft.to/lastmile_qr_scan"}, "fusion_lon": 0.0}, {"lat": 38.84506483333333, "is_disabled": 0, "type": "electric_bike", "lon": -76.9935355, "bike_id": "3c1a1d9bac8d9c9ae3097697e3630e29", "fusion_lat": 0.0, "name": "3c1a1d9bac8d9c9ae3097697e3630e29", "is_reserved": 0, "rental_uris": {"android": "https://dc.lft.to/lastmile_qr_scan", "ios": "https://dc.lft.to/lastmile_qr_scan"}, "fusion_lon": 0.0}, {"lat": 38.90251883333333, "is_disabled": 0, "type": "electric_scooter", "lon": -77.0377455, "bike_id": "c4c2b96a6a039191ef3da9887bc03939", "fusion_lat": 0.0, "name": "c4c2b96a6a039191ef3da9887bc03939", "is_reserved": 0, "rental_uris": {"android": "https://dc.lft.to/lastmile_qr_scan", "ios": "https://dc.lft.to/lastmile_qr_scan"}, "fusion_lon": 0.0}, {"lat": 38.91797533333333, "is_disabled": 0, "type": "electric_scooter", "lon": -77.0318705, "bike_id": "f386fab3595392c4b0fe91bfa9ea1884", "fusion_lat": 0.0, "name": "f386fab3595392c4b0fe91bfa9ea1884", "is_reserved": 0, "rental_uris": {"android": "https://dc.lft.to/lastmile_qr_scan", "ios": "https://dc.lft.to/lastmile_qr_scan"}, "fusion_lon": 0.0}, {"lat": 38.911247, "is_disabled": 0, "type": "electric_scooter", "lon": -77.02694416666667, "bike_id": "12a292de1e60b311b1cb5cc83d5b0c81", "fusion_lat": 0.0, "name": "12a292de1e60b311b1cb5cc83d5b0c81", "is_reserved": 0, "rental_uris": {"android": "https://dc.lft.to/lastmile_qr_scan", "ios": "https://dc.lft.to/lastmile_qr_scan"}, "fusion_lon": 0.0}, {"lat": 38.865079, "is_disabled": 0, "type": "electric_scooter", "lon": -76.990082, "bike_id": "9cfb4fcc313bf0f950041bcdca9cabfa", "fusion_lat": 0.0, "name": "9cfb4fcc313bf0f950041bcdca9cabfa", "is_reserved": 0, "rental_uris": {"android": "https://dc.lft.to/lastmile_qr_scan", "ios": "https://dc.lft.to/lastmile_qr_scan"}, "fusion_lon": 0.0}, {"lat": 38.903803833333335, "is_disabled": 0, "type": "electric_scooter", "lon": -77.04263533333334, "bike_id": "ceda03cdcd76e0581c3306420f93349b", "fusion_lat": 0.0, "name": "ceda03cdcd76e0581c3306420f93349b", "is_reserved": 0, "rental_uris": {"android": "https://dc.lft.to/lastmile_qr_scan", "ios": "https://dc.lft.to/lastmile_qr_scan"}, "fusion_lon": 0.0}, {"lat": 38.8671155, "is_disabled": 0, "type": "electric_scooter", "lon": -76.98727383333333, "bike_id": "64fc734b3246d0463fd6e710faa5acff", "fusion_lat": 0.0, "name": "64fc734b3246d0463fd6e710faa5acff", "is_reserved": 0, "rental_uris": {"android": "https://dc.lft.to/lastmile_qr_scan", "ios": "https://dc.lft.to/lastmile_qr_scan"}, "fusion_lon": 0.0}, {"lat": 38.917091, "is_disabled": 0, "type": "electric_scooter", "lon": -77.02660866666666, "bike_id": "ec71c74f290735d8da031a6e6f0572e3", "fusion_lat": 0.0, "name": "ec71c74f290735d8da031a6e6f0572e3", "is_reserved": 0, "rental_uris": {"android": "https://dc.lft.to/lastmile_qr_scan", "ios": "https://dc.lft.to/lastmile_qr_scan"}, "fusion_lon": 0.0}, {"lat": 38.90557583333333, "is_disabled": 0, "type": "electric_scooter", "lon": -76.9987625, "bike_id": "0250fe60501452263d0e953e1b3bed12", "fusion_lat": 0.0, "name": "0250fe60501452263d0e953e1b3bed12", "is_reserved": 0, "rental_uris": {"android": "https://dc.lft.to/lastmile_qr_scan", "ios": "https://dc.lft.to/lastmile_qr_scan"}, "fusion_lon": 0.0}, {"lat": 38.895777333333335, "is_disabled": 0, "type": "electric_scooter", "lon": -77.027077, "bike_id": "a5ba63e7749c7250a93db38d7345628d", "fusion_lat": 0.0, "name": "a5ba63e7749c7250a93db38d7345628d", "is_reserved": 0, "rental_uris": {"android": "https://dc.lft.to/lastmile_qr_scan", "ios": "https://dc.lft.to/lastmile_qr_scan"}, "fusion_lon": 0.0}, {"lat": 38.895838, "is_disabled": 0, "type": "electric_scooter", "lon": -77.02713433333334, "bike_id": "af8473ff2d0db48de505d4afc8e0d52c", "fusion_lat": 0.0, "name": "af8473ff2d0db48de505d4afc8e0d52c", "is_reserved": 0, "rental_uris": {"android": "https://dc.lft.to/lastmile_qr_scan", "ios": "https://dc.lft.to/lastmile_qr_scan"}, "fusion_lon": 0.0}, {"lat": 38.87286683333333, "is_disabled": 0, "type": "electric_scooter", "lon": -77.00985716666666, "bike_id": "90f6919703314d3a9809e655f3878a16", "fusion_lat": 0.0, "name": "90f6919703314d3a9809e655f3878a16", "is_reserved": 0, "rental_uris": {"android": "https://dc.lft.to/lastmile_qr_scan", "ios": "https://dc.lft.to/lastmile_qr_scan"}, "fusion_lon": 0.0}, {"lat": 38.88140883333333, "is_disabled": 0, "type": "electric_scooter", "lon": -76.99517383333334, "bike_id": "e9c93dac94bb24695826e119e2f61044", "fusion_lat": 0.0, "name": "e9c93dac94bb24695826e119e2f61044", "is_reserved": 0, "rental_uris": {"android": "https://dc.lft.to/lastmile_qr_scan", "ios": "https://dc.lft.to/lastmile_qr_scan"}, "fusion_lon": 0.0}, {"lat": 38.905797, "is_disabled": 0, "type": "electric_scooter", "lon": -77.00586966666667, "bike_id": "fd7231a682eb771ee3d63f62ec247953", "fusion_lat": 0.0, "name": "fd7231a682eb771ee3d63f62ec247953", "is_reserved": 0, "rental_uris": {"android": "https://dc.lft.to/lastmile_qr_scan", "ios": "https://dc.lft.to/lastmile_qr_scan"}, "fusion_lon": 0.0}, {"lat": 38.89883783333333, "is_disabled": 0, "type": "electric_scooter", "lon": -76.93173733333333, "bike_id": "0f0215c9699799a431102b3b64e45787", "fusion_lat": 0.0, "name": "0f0215c9699799a431102b3b64e45787", "is_reserved": 0, "rental_uris": {"android": "https://dc.lft.to/lastmile_qr_scan", "ios": "https://dc.lft.to/lastmile_qr_scan"}, "fusion_lon": 0.0}, {"lat": 38.868898, "is_disabled": 0, "type": "electric_scooter", "lon": -76.983128, "bike_id": "e3cdbb39784783239c92b5b0b4b28d90", "fusion_lat": 0.0, "name": "e3cdbb39784783239c92b5b0b4b28d90", "is_reserved": 0, "rental_uris": {"android": "https://dc.lft.to/lastmile_qr_scan", "ios": "https://dc.lft.to/lastmile_qr_scan"}, "fusion_lon": 0.0}, {"lat": 38.912704833333336, "is_disabled": 0, "type": "electric_scooter", "lon": -77.044809, "bike_id": "ffa3b7b76a5893ce69ff802eb5faf649", "fusion_lat": 0.0, "name": "ffa3b7b76a5893ce69ff802eb5faf649", "is_reserved": 0, "rental_uris": {"android": "https://dc.lft.to/lastmile_qr_scan", "ios": "https://dc.lft.to/lastmile_qr_scan"}, "fusion_lon": 0.0}, {"lat": 38.89941183333333, "is_disabled": 0, "type": "electric_scooter", "lon": -77.02818116666667, "bike_id": "3691fdf20d731d4a05f69eafd2b0ba12", "fusion_lat": 0.0, "name": "3691fdf20d731d4a05f69eafd2b0ba12", "is_reserved": 0, "rental_uris": {"android": "https://dc.lft.to/lastmile_qr_scan", "ios": "https://dc.lft.to/lastmile_qr_scan"}, "fusion_lon": 0.0}, {"lat": 38.902077, "is_disabled": 0, "type": "electric_scooter", "lon": -76.99274116666666, "bike_id": "06f1d90fbe1ca0c47a5aa1ff75076986", "fusion_lat": 0.0, "name": "06f1d90fbe1ca0c47a5aa1ff75076986", "is_reserved": 0, "rental_uris": {"android": "https://dc.lft.to/lastmile_qr_scan", "ios": "https://dc.lft.to/lastmile_qr_scan"}, "fusion_lon": 0.0}, {"lat": 38.91952216666667, "is_disabled": 0, "type": "electric_scooter", "lon": -77.07979166666667, "bike_id": "e2fe4fd144e949d081896464c2497ba7", "fusion_lat": 0.0, "name": "e2fe4fd144e949d081896464c2497ba7", "is_reserved": 0, "rental_uris": {"android": "https://dc.lft.to/lastmile_qr_scan", "ios": "https://dc.lft.to/lastmile_qr_scan"}, "fusion_lon": 0.0}, {"lat": 38.93491016666667, "is_disabled": 0, "type": "electric_bike", "lon": -77.0209665, "bike_id": "444f1669079cd0ac0e20bfb2f938275d", "fusion_lat": 0.0, "name": "444f1669079cd0ac0e20bfb2f938275d", "is_reserved": 0, "rental_uris": {"android": "https://dc.lft.to/lastmile_qr_scan", "ios": "https://dc.lft.to/lastmile_qr_scan"}, "fusion_lon": 0.0}, {"lat": 38.90978833333333, "is_disabled": 0, "type": "electric_scooter", "lon": -77.021809, "bike_id": "dcbfa02912a3e92e373782203c7d752e", "fusion_lat": 0.0, "name": "dcbfa02912a3e92e373782203c7d752e", "is_reserved": 0, "rental_uris": {"android": "https://dc.lft.to/lastmile_qr_scan", "ios": "https://dc.lft.to/lastmile_qr_scan"}, "fusion_lon": 0.0}, {"lat": 38.89894616666667, "is_disabled": 0, "type": "electric_scooter", "lon": -76.99726866666667, "bike_id": "c4369022028b9e316d7b48a287f8321b", "fusion_lat": 0.0, "name": "c4369022028b9e316d7b48a287f8321b", "is_reserved": 0, "rental_uris": {"android": "https://dc.lft.to/lastmile_qr_scan", "ios": "https://dc.lft.to/lastmile_qr_scan"}, "fusion_lon": 0.0}, {"lat": 38.893645, "is_disabled": 0, "type": "electric_scooter", "lon": -77.00332316666666, "bike_id": "63e64ad9e05c0dec58140ec1f662d944", "fusion_lat": 0.0, "name": "63e64ad9e05c0dec58140ec1f662d944", "is_reserved": 0, "rental_uris": {"android": "https://dc.lft.to/lastmile_qr_scan", "ios": "https://dc.lft.to/lastmile_qr_scan"}, "fusion_lon": 0.0}, {"lat": 38.9057685, "is_disabled": 0, "type": "electric_scooter", "lon": -77.0088905, "bike_id": "ca7a5449cd83ed384adfb46052af3d98", "fusion_lat": 0.0, "name": "ca7a5449cd83ed384adfb46052af3d98", "is_reserved": 0, "rental_uris": {"android": "https://dc.lft.to/lastmile_qr_scan", "ios": "https://dc.lft.to/lastmile_qr_scan"}, "fusion_lon": 0.0}, {"lat": 38.8772005, "is_disabled": 0, "type": "electric_scooter", "lon": -77.01758133333334, "bike_id": "e8f7e6b78e0a575114b8a76843ca4029", "fusion_lat": 0.0, "name": "e8f7e6b78e0a575114b8a76843ca4029", "is_reserved": 0, "rental_uris": {"android": "https://dc.lft.to/lastmile_qr_scan", "ios": "https://dc.lft.to/lastmile_qr_scan"}, "fusion_lon": 0.0}, {"lat": 38.920422333333335, "is_disabled": 0, "type": "electric_scooter", "lon": -77.02988833333333, "bike_id": "2015b1e1af8d1c6e36a9b28fd1abe2f9", "fusion_lat": 0.0, "name": "2015b1e1af8d1c6e36a9b28fd1abe2f9", "is_reserved": 0, "rental_uris": {"android": "https://dc.lft.to/lastmile_qr_scan", "ios": "https://dc.lft.to/lastmile_qr_scan"}, "fusion_lon": 0.0}, {"lat": 38.892238666666664, "is_disabled": 0, "type": "electric_scooter", "lon": -77.043283, "bike_id": "c35a0fb5ca4af45a256620528e464df4", "fusion_lat": 0.0, "name": "c35a0fb5ca4af45a256620528e464df4", "is_reserved": 0, "rental_uris": {"android": "https://dc.lft.to/lastmile_qr_scan", "ios": "https://dc.lft.to/lastmile_qr_scan"}, "fusion_lon": 0.0}, {"lat": 38.90235216666667, "is_disabled": 0, "type": "electric_scooter", "lon": -77.00571683333334, "bike_id": "dff6351ef4a1741d635bda1ad4a82795", "fusion_lat": 0.0, "name": "dff6351ef4a1741d635bda1ad4a82795", "is_reserved": 0, "rental_uris": {"android": "https://dc.lft.to/lastmile_qr_scan", "ios": "https://dc.lft.to/lastmile_qr_scan"}, "fusion_lon": 0.0}, {"lat": 38.90230366666667, "is_disabled": 0, "type": "electric_scooter", "lon": -77.06020116666667, "bike_id": "7853afaaed3f19496218b9be69a959a3", "fusion_lat": 0.0, "name": "7853afaaed3f19496218b9be69a959a3", "is_reserved": 0, "rental_uris": {"android": "https://dc.lft.to/lastmile_qr_scan", "ios": "https://dc.lft.to/lastmile_qr_scan"}, "fusion_lon": 0.0}, {"lat": 38.911226166666665, "is_disabled": 0, "type": "electric_scooter", "lon": -77.02693616666667, "bike_id": "ea00fb3fd4543a718a298ecd6d18f121", "fusion_lat": 0.0, "name": "ea00fb3fd4543a718a298ecd6d18f121", "is_reserved": 0, "rental_uris": {"android": "https://dc.lft.to/lastmile_qr_scan", "ios": "https://dc.lft.to/lastmile_qr_scan"}, "fusion_lon": 0.0}, {"lat": 38.896771333333334, "is_disabled": 0, "type": "electric_scooter", "lon": -77.05126666666666, "bike_id": "60ca60cd854badc140eb8db31a362aba", "fusion_lat": 0.0, "name": "60ca60cd854badc140eb8db31a362aba", "is_reserved": 0, "rental_uris": {"android": "https://dc.lft.to/lastmile_qr_scan", "ios": "https://dc.lft.to/lastmile_qr_scan"}, "fusion_lon": 0.0}, {"lat": 38.910554, "is_disabled": 0, "type": "electric_scooter", "lon": -77.0439465, "bike_id": "bfce5b3acab5c1226229a93feecda092", "fusion_lat": 0.0, "name": "bfce5b3acab5c1226229a93feecda092", "is_reserved": 0, "rental_uris": {"android": "https://dc.lft.to/lastmile_qr_scan", "ios": "https://dc.lft.to/lastmile_qr_scan"}, "fusion_lon": 0.0}, {"lat": 38.9182815, "is_disabled": 0, "type": "electric_scooter", "lon": -77.0320105, "bike_id": "fbbaf2d699b2a281832e6a6b37e7ac38", "fusion_lat": 0.0, "name": "fbbaf2d699b2a281832e6a6b37e7ac38", "is_reserved": 0, "rental_uris": {"android": "https://dc.lft.to/lastmile_qr_scan", "ios": "https://dc.lft.to/lastmile_qr_scan"}, "fusion_lon": 0.0}, {"lat": 38.8766755, "is_disabled": 0, "type": "electric_scooter", "lon": -77.0040775, "bike_id": "870b895c1eaa912956533541286f8cd7", "fusion_lat": 0.0, "name": "870b895c1eaa912956533541286f8cd7", "is_reserved": 0, "rental_uris": {"android": "https://dc.lft.to/lastmile_qr_scan", "ios": "https://dc.lft.to/lastmile_qr_scan"}, "fusion_lon": 0.0}, {"lat": 38.91801666666667, "is_disabled": 0, "type": "electric_bike", "lon": -77.223345, "bike_id": "8f8ffe3dcce10e4d1ef1e55413717213", "fusion_lat": 0.0, "name": "8f8ffe3dcce10e4d1ef1e55413717213", "is_reserved": 0, "rental_uris": {"android": "https://dc.lft.to/lastmile_qr_scan", "ios": "https://dc.lft.to/lastmile_qr_scan"}, "fusion_lon": 0.0}, {"lat": 38.92019783333333, "is_disabled": 0, "type": "electric_scooter", "lon": -77.014349, "bike_id": "837e208a9f6ed8a210cbc90f8f7cb879", "fusion_lat": 0.0, "name": "837e208a9f6ed8a210cbc90f8f7cb879", "is_reserved": 0, "rental_uris": {"android": "https://dc.lft.to/lastmile_qr_scan", "ios": "https://dc.lft.to/lastmile_qr_scan"}, "fusion_lon": 0.0}, {"lat": 38.923147666666665, "is_disabled": 0, "type": "electric_scooter", "lon": -77.0365605, "bike_id": "bfc95fba5add56119b625495dc7c36c3", "fusion_lat": 0.0, "name": "bfc95fba5add56119b625495dc7c36c3", "is_reserved": 0, "rental_uris": {"android": "https://dc.lft.to/lastmile_qr_scan", "ios": "https://dc.lft.to/lastmile_qr_scan"}, "fusion_lon": 0.0}, {"lat": 38.931898833333335, "is_disabled": 0, "type": "electric_scooter", "lon": -77.028351, "bike_id": "d107fd275d141624a7e8f19d44393aee", "fusion_lat": 0.0, "name": "d107fd275d141624a7e8f19d44393aee", "is_reserved": 0, "rental_uris": {"android": "https://dc.lft.to/lastmile_qr_scan", "ios": "https://dc.lft.to/lastmile_qr_scan"}, "fusion_lon": 0.0}, {"lat": 38.91269166666667, "is_disabled": 0, "type": "electric_scooter", "lon": -77.02251366666667, "bike_id": "aac8ff2efd732a6ccd6243b94732c436", "fusion_lat": 0.0, "name": "aac8ff2efd732a6ccd6243b94732c436", "is_reserved": 0, "rental_uris": {"android": "https://dc.lft.to/lastmile_qr_scan", "ios": "https://dc.lft.to/lastmile_qr_scan"}, "fusion_lon": 0.0}, {"lat": 38.91816583333333, "is_disabled": 0, "type": "electric_scooter", "lon": -77.04177616666666, "bike_id": "5fc88ffabccfe5915dfdfdd0f69d79a9", "fusion_lat": 0.0, "name": "5fc88ffabccfe5915dfdfdd0f69d79a9", "is_reserved": 0, "rental_uris": {"android": "https://dc.lft.to/lastmile_qr_scan", "ios": "https://dc.lft.to/lastmile_qr_scan"}, "fusion_lon": 0.0}, {"lat": 38.89012483333333, "is_disabled": 0, "type": "electric_scooter", "lon": -76.93739483333333, "bike_id": "1be5341c510a97b24f92804ecaeeab60", "fusion_lat": 0.0, "name": "1be5341c510a97b24f92804ecaeeab60", "is_reserved": 0, "rental_uris": {"android": "https://dc.lft.to/lastmile_qr_scan", "ios": "https://dc.lft.to/lastmile_qr_scan"}, "fusion_lon": 0.0}, {"lat": 38.9192365, "is_disabled": 0, "type": "electric_scooter", "lon": -77.0313635, "bike_id": "b17b422d9c9e65fa58fbf633f7920245", "fusion_lat": 0.0, "name": "b17b422d9c9e65fa58fbf633f7920245", "is_reserved": 0, "rental_uris": {"android": "https://dc.lft.to/lastmile_qr_scan", "ios": "https://dc.lft.to/lastmile_qr_scan"}, "fusion_lon": 0.0}, {"lat": 38.9228465, "is_disabled": 0, "type": "electric_scooter", "lon": -77.0366335, "bike_id": "71514877717ecaa5bc1e885045128ba4", "fusion_lat": 0.0, "name": "71514877717ecaa5bc1e885045128ba4", "is_reserved": 0, "rental_uris": {"android": "https://dc.lft.to/lastmile_qr_scan", "ios": "https://dc.lft.to/lastmile_qr_scan"}, "fusion_lon": 0.0}, {"lat": 38.89278316666667, "is_disabled": 0, "type": "electric_scooter", "lon": -77.05034233333333, "bike_id": "65053f42bd87a85064e30527f1c21f6f", "fusion_lat": 0.0, "name": "65053f42bd87a85064e30527f1c21f6f", "is_reserved": 0, "rental_uris": {"android": "https://dc.lft.to/lastmile_qr_scan", "ios": "https://dc.lft.to/lastmile_qr_scan"}, "fusion_lon": 0.0}, {"lat": 38.9100795, "is_disabled": 0, "type": "electric_scooter", "lon": -77.04422833333334, "bike_id": "ceeb8e4e62d42b12685050604a58c9a2", "fusion_lat": 0.0, "name": "ceeb8e4e62d42b12685050604a58c9a2", "is_reserved": 0, "rental_uris": {"android": "https://dc.lft.to/lastmile_qr_scan", "ios": "https://dc.lft.to/lastmile_qr_scan"}, "fusion_lon": 0.0}, {"lat": 38.898874, "is_disabled": 0, "type": "electric_scooter", "lon": -76.93173433333334, "bike_id": "9f20c5bd140a4171079d203cc117b414", "fusion_lat": 0.0, "name": "9f20c5bd140a4171079d203cc117b414", "is_reserved": 0, "rental_uris": {"android": "https://dc.lft.to/lastmile_qr_scan", "ios": "https://dc.lft.to/lastmile_qr_scan"}, "fusion_lon": 0.0}, {"lat": 38.90531216666667, "is_disabled": 0, "type": "electric_scooter", "lon": -77.06527516666667, "bike_id": "ed6087dd23fdda2637e2c2d8b8d58724", "fusion_lat": 0.0, "name": "ed6087dd23fdda2637e2c2d8b8d58724", "is_reserved": 0, "rental_uris": {"android": "https://dc.lft.to/lastmile_qr_scan", "ios": "https://dc.lft.to/lastmile_qr_scan"}, "fusion_lon": 0.0}, {"lat": 38.92482783333333, "is_disabled": 0, "type": "electric_bike", "lon": -76.99027216666667, "bike_id": "9d9f6244dcc9a2fc5836e94a29dabb39", "fusion_lat": 0.0, "name": "9d9f6244dcc9a2fc5836e94a29dabb39", "is_reserved": 0, "rental_uris": {"android": "https://dc.lft.to/lastmile_qr_scan", "ios": "https://dc.lft.to/lastmile_qr_scan"}, "fusion_lon": 0.0}, {"lat": 38.90500683333333, "is_disabled": 0, "type": "electric_bike", "lon": -77.0435155, "bike_id": "4d505ca084a2bf2b7bb647b0f9d7c8f6", "fusion_lat": 0.0, "name": "4d505ca084a2bf2b7bb647b0f9d7c8f6", "is_reserved": 0, "rental_uris": {"android": "https://dc.lft.to/lastmile_qr_scan", "ios": "https://dc.lft.to/lastmile_qr_scan"}, "fusion_lon": 0.0}, {"lat": 38.92857083333333, "is_disabled": 0, "type": "electric_bike", "lon": -77.2221805, "bike_id": "c53a7c21b121dbc859256704b749f616", "fusion_lat": 0.0, "name": "c53a7c21b121dbc859256704b749f616", "is_reserved": 0, "rental_uris": {"android": "https://dc.lft.to/lastmile_qr_scan", "ios": "https://dc.lft.to/lastmile_qr_scan"}, "fusion_lon": 0.0}, {"lat": 38.90955, "is_disabled": 0, "type": "electric_bike", "lon": -77.04572166666667, "bike_id": "0d00bfee099745e6441d37dd360d96aa", "fusion_lat": 0.0, "name": "0d00bfee099745e6441d37dd360d96aa", "is_reserved": 0, "rental_uris": {"android": "https://dc.lft.to/lastmile_qr_scan", "ios": "https://dc.lft.to/lastmile_qr_scan"}, "fusion_lon": 0.0}, {"lat": 39.08858633333333, "is_disabled": 0, "type": "electric_bike", "lon": -77.17833633333333, "bike_id": "e8a619b2bcb2819c3588869e7fc713bc", "fusion_lat": 0.0, "name": "e8a619b2bcb2819c3588869e7fc713bc", "is_reserved": 0, "rental_uris": {"android": "https://dc.lft.to/lastmile_qr_scan", "ios": "https://dc.lft.to/lastmile_qr_scan"}, "fusion_lon": 0.0}, {"lat": 38.90679816666667, "is_disabled": 0, "type": "electric_scooter", "lon": -77.02696683333333, "bike_id": "158fc49c6571ff4ebda4b66a43b5bc9d", "fusion_lat": 0.0, "name": "158fc49c6571ff4ebda4b66a43b5bc9d", "is_reserved": 0, "rental_uris": {"android": "https://dc.lft.to/lastmile_qr_scan", "ios": "https://dc.lft.to/lastmile_qr_scan"}, "fusion_lon": 0.0}, {"lat": 38.90019683333333, "is_disabled": 0, "type": "electric_scooter", "lon": -77.03351916666666, "bike_id": "37d599acbcffd452b487c87b2bf24c82", "fusion_lat": 0.0, "name": "37d599acbcffd452b487c87b2bf24c82", "is_reserved": 0, "rental_uris": {"android": "https://dc.lft.to/lastmile_qr_scan", "ios": "https://dc.lft.to/lastmile_qr_scan"}, "fusion_lon": 0.0}, {"lat": 38.91919583333333, "is_disabled": 0, "type": "electric_scooter", "lon": -77.03256783333333, "bike_id": "ee3807b2e2256a954ca30cd560433c2e", "fusion_lat": 0.0, "name": "ee3807b2e2256a954ca30cd560433c2e", "is_reserved": 0, "rental_uris": {"android": "https://dc.lft.to/lastmile_qr_scan", "ios": "https://dc.lft.to/lastmile_qr_scan"}, "fusion_lon": 0.0}, {"lat": 38.918436666666665, "is_disabled": 0, "type": "electric_scooter", "lon": -76.96555583333334, "bike_id": "804289af412915d73e48119bd2699c37", "fusion_lat": 0.0, "name": "804289af412915d73e48119bd2699c37", "is_reserved": 0, "rental_uris": {"android": "https://dc.lft.to/lastmile_qr_scan", "ios": "https://dc.lft.to/lastmile_qr_scan"}, "fusion_lon": 0.0}, {"lat": 38.8791685, "is_disabled": 0, "type": "electric_scooter", "lon": -76.9950725, "bike_id": "fe566fa3feadb191721312ca4d683ac3", "fusion_lat": 0.0, "name": "fe566fa3feadb191721312ca4d683ac3", "is_reserved": 0, "rental_uris": {"android": "https://dc.lft.to/lastmile_qr_scan", "ios": "https://dc.lft.to/lastmile_qr_scan"}, "fusion_lon": 0.0}, {"lat": 38.92404, "is_disabled": 0, "type": "electric_scooter", "lon": -77.02543233333333, "bike_id": "73aecdadccdd4d9490fdce8caf524d7a", "fusion_lat": 0.0, "name": "73aecdadccdd4d9490fdce8caf524d7a", "is_reserved": 0, "rental_uris": {"android": "https://dc.lft.to/lastmile_qr_scan", "ios": "https://dc.lft.to/lastmile_qr_scan"}, "fusion_lon": 0.0}, {"lat": 38.923151833333336, "is_disabled": 0, "type": "electric_scooter", "lon": -77.0365715, "bike_id": "427e6cc9c734af17c6006df62997cdbd", "fusion_lat": 0.0, "name": "427e6cc9c734af17c6006df62997cdbd", "is_reserved": 0, "rental_uris": {"android": "https://dc.lft.to/lastmile_qr_scan", "ios": "https://dc.lft.to/lastmile_qr_scan"}, "fusion_lon": 0.0}, {"lat": 38.9192105, "is_disabled": 0, "type": "electric_scooter", "lon": -77.03178416666667, "bike_id": "b3d74f356b93793199afbeeb0f2b73bf", "fusion_lat": 0.0, "name": "b3d74f356b93793199afbeeb0f2b73bf", "is_reserved": 0, "rental_uris": {"android": "https://dc.lft.to/lastmile_qr_scan", "ios": "https://dc.lft.to/lastmile_qr_scan"}, "fusion_lon": 0.0}, {"lat": 38.92062933333333, "is_disabled": 0, "type": "electric_scooter", "lon": -77.032027, "bike_id": "bab9a78b0161a0871b7a5fb22614874a", "fusion_lat": 0.0, "name": "bab9a78b0161a0871b7a5fb22614874a", "is_reserved": 0, "rental_uris": {"android": "https://dc.lft.to/lastmile_qr_scan", "ios": "https://dc.lft.to/lastmile_qr_scan"}, "fusion_lon": 0.0}, {"lat": 38.8900425, "is_disabled": 0, "type": "electric_scooter", "lon": -76.937426, "bike_id": "caf3ebc523a00f1da4753307ad9a9c68", "fusion_lat": 0.0, "name": "caf3ebc523a00f1da4753307ad9a9c68", "is_reserved": 0, "rental_uris": {"android": "https://dc.lft.to/lastmile_qr_scan", "ios": "https://dc.lft.to/lastmile_qr_scan"}, "fusion_lon": 0.0}, {"lat": 38.9306565, "is_disabled": 0, "type": "electric_scooter", "lon": -77.040327, "bike_id": "2c1a4bd80a3f656044f687827bc1d06f", "fusion_lat": 0.0, "name": "2c1a4bd80a3f656044f687827bc1d06f", "is_reserved": 0, "rental_uris": {"android": "https://dc.lft.to/lastmile_qr_scan", "ios": "https://dc.lft.to/lastmile_qr_scan"}, "fusion_lon": 0.0}, {"lat": 38.922526833333336, "is_disabled": 0, "type": "electric_scooter", "lon": -77.035188, "bike_id": "aadf96d8206cfb3ce43cd5db4c2e25d1", "fusion_lat": 0.0, "name": "aadf96d8206cfb3ce43cd5db4c2e25d1", "is_reserved": 0, "rental_uris": {"android": "https://dc.lft.to/lastmile_qr_scan", "ios": "https://dc.lft.to/lastmile_qr_scan"}, "fusion_lon": 0.0}, {"lat": 38.892047166666664, "is_disabled": 0, "type": "electric_scooter", "lon": -76.98569883333333, "bike_id": "7f9325694f525baf06bbc37489059e5c", "fusion_lat": 0.0, "name": "7f9325694f525baf06bbc37489059e5c", "is_reserved": 0, "rental_uris": {"android": "https://dc.lft.to/lastmile_qr_scan", "ios": "https://dc.lft.to/lastmile_qr_scan"}, "fusion_lon": 0.0}, {"lat": 38.998185666666664, "is_disabled": 0, "type": "electric_bike", "lon": -76.88369133333333, "bike_id": "b50421a518e3ae8ce4e8abf0235e9ff6", "fusion_lat": 0.0, "name": "b50421a518e3ae8ce4e8abf0235e9ff6", "is_reserved": 0, "rental_uris": {"android": "https://dc.lft.to/lastmile_qr_scan", "ios": "https://dc.lft.to/lastmile_qr_scan"}, "fusion_lon": 0.0}, {"lat": 38.92315766666667, "is_disabled": 0, "type": "electric_scooter", "lon": -77.03657566666666, "bike_id": "2bd6e3b2a67333c770587cd48436412e", "fusion_lat": 0.0, "name": "2bd6e3b2a67333c770587cd48436412e", "is_reserved": 0, "rental_uris": {"android": "https://dc.lft.to/lastmile_qr_scan", "ios": "https://dc.lft.to/lastmile_qr_scan"}, "fusion_lon": 0.0}, {"lat": 38.89528716666667, "is_disabled": 0, "type": "electric_scooter", "lon": -76.94891, "bike_id": "613b48ab169ebdd696a4202b8c027701", "fusion_lat": 0.0, "name": "613b48ab169ebdd696a4202b8c027701", "is_reserved": 0, "rental_uris": {"android": "https://dc.lft.to/lastmile_qr_scan", "ios": "https://dc.lft.to/lastmile_qr_scan"}, "fusion_lon": 0.0}, {"lat": 39.024292, "is_disabled": 0, "type": "electric_bike", "lon": -77.1309895, "bike_id": "26fd302b55ea5c74394e81c9d3bcbf71", "fusion_lat": 0.0, "name": "26fd302b55ea5c74394e81c9d3bcbf71", "is_reserved": 0, "rental_uris": {"android": "https://dc.lft.to/lastmile_qr_scan", "ios": "https://dc.lft.to/lastmile_qr_scan"}, "fusion_lon": 0.0}, {"lat": 38.94310816666667, "is_disabled": 0, "type": "electric_scooter", "lon": -77.06172583333333, "bike_id": "de7b2f8ced3747cf527a281655f67a50", "fusion_lat": 0.0, "name": "de7b2f8ced3747cf527a281655f67a50", "is_reserved": 0, "rental_uris": {"android": "https://dc.lft.to/lastmile_qr_scan", "ios": "https://dc.lft.to/lastmile_qr_scan"}, "fusion_lon": 0.0}, {"lat": 38.938626666666664, "is_disabled": 0, "type": "electric_scooter", "lon": -77.03091583333334, "bike_id": "79fc07de78dec23f6ccf8aa3f5ed7983", "fusion_lat": 0.0, "name": "79fc07de78dec23f6ccf8aa3f5ed7983", "is_reserved": 0, "rental_uris": {"android": "https://dc.lft.to/lastmile_qr_scan", "ios": "https://dc.lft.to/lastmile_qr_scan"}, "fusion_lon": 0.0}, {"lat": 38.91386133333334, "is_disabled": 0, "type": "electric_scooter", "lon": -77.0169995, "bike_id": "547284565d1810599a40b309ca3d2a1c", "fusion_lat": 0.0, "name": "547284565d1810599a40b309ca3d2a1c", "is_reserved": 0, "rental_uris": {"android": "https://dc.lft.to/lastmile_qr_scan", "ios": "https://dc.lft.to/lastmile_qr_scan"}, "fusion_lon": 0.0}, {"lat": 39.030455333333336, "is_disabled": 0, "type": "electric_bike", "lon": -77.0947905, "bike_id": "ee247a2e4f4d4aa67d2d4cec79113e6a", "fusion_lat": 0.0, "name": "ee247a2e4f4d4aa67d2d4cec79113e6a", "is_reserved": 0, "rental_uris": {"android": "https://dc.lft.to/lastmile_qr_scan", "ios": "https://dc.lft.to/lastmile_qr_scan"}, "fusion_lon": 0.0}, {"lat": 38.91034483333333, "is_disabled": 0, "type": "electric_scooter", "lon": -76.9934535, "bike_id": "999418d4044aab2bf76aa7c18c5c51da", "fusion_lat": 0.0, "name": "999418d4044aab2bf76aa7c18c5c51da", "is_reserved": 0, "rental_uris": {"android": "https://dc.lft.to/lastmile_qr_scan", "ios": "https://dc.lft.to/lastmile_qr_scan"}, "fusion_lon": 0.0}, {"lat": 38.8766305, "is_disabled": 0, "type": "electric_scooter", "lon": -77.00418433333333, "bike_id": "e037bb0d6bd4db4eb1e062d56d028e98", "fusion_lat": 0.0, "name": "e037bb0d6bd4db4eb1e062d56d028e98", "is_reserved": 0, "rental_uris": {"android": "https://dc.lft.to/lastmile_qr_scan", "ios": "https://dc.lft.to/lastmile_qr_scan"}, "fusion_lon": 0.0}, {"lat": 38.917203, "is_disabled": 0, "type": "electric_scooter", "lon": -77.026668, "bike_id": "0a6d7439155ae2c1af898bf6086e8e29", "fusion_lat": 0.0, "name": "0a6d7439155ae2c1af898bf6086e8e29", "is_reserved": 0, "rental_uris": {"android": "https://dc.lft.to/lastmile_qr_scan", "ios": "https://dc.lft.to/lastmile_qr_scan"}, "fusion_lon": 0.0}, {"lat": 38.892174833333335, "is_disabled": 0, "type": "electric_scooter", "lon": -77.0222405, "bike_id": "83b4ccafd2e8acd299df72bde9e7bd3f", "fusion_lat": 0.0, "name": "83b4ccafd2e8acd299df72bde9e7bd3f", "is_reserved": 0, "rental_uris": {"android": "https://dc.lft.to/lastmile_qr_scan", "ios": "https://dc.lft.to/lastmile_qr_scan"}, "fusion_lon": 0.0}, {"lat": 38.879198833333334, "is_disabled": 0, "type": "electric_scooter", "lon": -77.0309285, "bike_id": "886b0b7da7c887bd31468a584ebf715c", "fusion_lat": 0.0, "name": "886b0b7da7c887bd31468a584ebf715c", "is_reserved": 0, "rental_uris": {"android": "https://dc.lft.to/lastmile_qr_scan", "ios": "https://dc.lft.to/lastmile_qr_scan"}, "fusion_lon": 0.0}, {"lat": 38.97091866666667, "is_disabled": 0, "type": "electric_bike", "lon": -77.06963483333334, "bike_id": "ab5aa6291b0480b352213bc5449cc3f0", "fusion_lat": 0.0, "name": "ab5aa6291b0480b352213bc5449cc3f0", "is_reserved": 0, "rental_uris": {"android": "https://dc.lft.to/lastmile_qr_scan", "ios": "https://dc.lft.to/lastmile_qr_scan"}, "fusion_lon": 0.0}, {"lat": 38.898223, "is_disabled": 0, "type": "electric_bike", "lon": -77.02464133333334, "bike_id": "99f91a9fc0ad2c71d5e978c539ba23b4", "fusion_lat": 0.0, "name": "99f91a9fc0ad2c71d5e978c539ba23b4", "is_reserved": 0, "rental_uris": {"android": "https://dc.lft.to/lastmile_qr_scan", "ios": "https://dc.lft.to/lastmile_qr_scan"}, "fusion_lon": 0.0}, {"lat": 38.9182725, "is_disabled": 0, "type": "electric_scooter", "lon": -77.02698533333333, "bike_id": "5d4bc668e197033b93e9760a4c6df10a", "fusion_lat": 0.0, "name": "5d4bc668e197033b93e9760a4c6df10a", "is_reserved": 0, "rental_uris": {"android": "https://dc.lft.to/lastmile_qr_scan", "ios": "https://dc.lft.to/lastmile_qr_scan"}, "fusion_lon": 0.0}, {"lat": 38.906830666666664, "is_disabled": 0, "type": "electric_scooter", "lon": -77.026929, "bike_id": "dd8521eff310493f872d2b4cf7741ca4", "fusion_lat": 0.0, "name": "dd8521eff310493f872d2b4cf7741ca4", "is_reserved": 0, "rental_uris": {"android": "https://dc.lft.to/lastmile_qr_scan", "ios": "https://dc.lft.to/lastmile_qr_scan"}, "fusion_lon": 0.0}, {"lat": 38.8998155, "is_disabled": 0, "type": "electric_scooter", "lon": -77.02562633333334, "bike_id": "ebeacc16316a0c833d617f2cab549b7f", "fusion_lat": 0.0, "name": "ebeacc16316a0c833d617f2cab549b7f", "is_reserved": 0, "rental_uris": {"android": "https://dc.lft.to/lastmile_qr_scan", "ios": "https://dc.lft.to/lastmile_qr_scan"}, "fusion_lon": 0.0}, {"lat": 38.90720966666667, "is_disabled": 0, "type": "electric_scooter", "lon": -77.0168485, "bike_id": "a3d4c888bd8d27141fe44ef9feac178f", "fusion_lat": 0.0, "name": "a3d4c888bd8d27141fe44ef9feac178f", "is_reserved": 0, "rental_uris": {"android": "https://dc.lft.to/lastmile_qr_scan", "ios": "https://dc.lft.to/lastmile_qr_scan"}, "fusion_lon": 0.0}, {"lat": 38.905717833333334, "is_disabled": 0, "type": "electric_scooter", "lon": -77.0418355, "bike_id": "259c4c5e41bac90bda2f1ba13b1e6134", "fusion_lat": 0.0, "name": "259c4c5e41bac90bda2f1ba13b1e6134", "is_reserved": 0, "rental_uris": {"android": "https://dc.lft.to/lastmile_qr_scan", "ios": "https://dc.lft.to/lastmile_qr_scan"}, "fusion_lon": 0.0}, {"lat": 38.91405366666667, "is_disabled": 0, "type": "electric_bike", "lon": -77.03811116666667, "bike_id": "0471c56391d880ca97da6a6ad4888a17", "fusion_lat": 0.0, "name": "0471c56391d880ca97da6a6ad4888a17", "is_reserved": 0, "rental_uris": {"android": "https://dc.lft.to/lastmile_qr_scan", "ios": "https://dc.lft.to/lastmile_qr_scan"}, "fusion_lon": 0.0}, {"lat": 38.90582333333333, "is_disabled": 0, "type": "electric_scooter", "lon": -77.005829, "bike_id": "bffeb25be49b0d2fcb365dbff07b6ab4", "fusion_lat": 0.0, "name": "bffeb25be49b0d2fcb365dbff07b6ab4", "is_reserved": 0, "rental_uris": {"android": "https://dc.lft.to/lastmile_qr_scan", "ios": "https://dc.lft.to/lastmile_qr_scan"}, "fusion_lon": 0.0}, {"lat": 38.84115583333333, "is_disabled": 0, "type": "electric_bike", "lon": -77.08942816666666, "bike_id": "cd45452b791fe2c1725032fa9cd01ba7", "fusion_lat": 0.0, "name": "cd45452b791fe2c1725032fa9cd01ba7", "is_reserved": 0, "rental_uris": {"android": "https://dc.lft.to/lastmile_qr_scan", "ios": "https://dc.lft.to/lastmile_qr_scan"}, "fusion_lon": 0.0}, {"lat": 38.917185, "is_disabled": 0, "type": "electric_scooter", "lon": -77.03337466666666, "bike_id": "bb6f31f7170d23bc421878b6772a7a8e", "fusion_lat": 0.0, "name": "bb6f31f7170d23bc421878b6772a7a8e", "is_reserved": 0, "rental_uris": {"android": "https://dc.lft.to/lastmile_qr_scan", "ios": "https://dc.lft.to/lastmile_qr_scan"}, "fusion_lon": 0.0}, {"lat": 38.8987765, "is_disabled": 0, "type": "electric_scooter", "lon": -76.93186816666666, "bike_id": "8e31e1971a2a2c783b85185692f51f0f", "fusion_lat": 0.0, "name": "8e31e1971a2a2c783b85185692f51f0f", "is_reserved": 0, "rental_uris": {"android": "https://dc.lft.to/lastmile_qr_scan", "ios": "https://dc.lft.to/lastmile_qr_scan"}, "fusion_lon": 0.0}, {"lat": 38.8669835, "is_disabled": 0, "type": "electric_scooter", "lon": -76.9871305, "bike_id": "935528c55633a4048bf1404159f44469", "fusion_lat": 0.0, "name": "935528c55633a4048bf1404159f44469", "is_reserved": 0, "rental_uris": {"android": "https://dc.lft.to/lastmile_qr_scan", "ios": "https://dc.lft.to/lastmile_qr_scan"}, "fusion_lon": 0.0}, {"lat": 38.910794, "is_disabled": 0, "type": "electric_scooter", "lon": -77.02098233333334, "bike_id": "959d7ea482ae84365243dd823b870b72", "fusion_lat": 0.0, "name": "959d7ea482ae84365243dd823b870b72", "is_reserved": 0, "rental_uris": {"android": "https://dc.lft.to/lastmile_qr_scan", "ios": "https://dc.lft.to/lastmile_qr_scan"}, "fusion_lon": 0.0}, {"lat": 38.884488, "is_disabled": 0, "type": "electric_scooter", "lon": -77.0005655, "bike_id": "8d43d0298cfddfd3ed52bc3ad559e066", "fusion_lat": 0.0, "name": "8d43d0298cfddfd3ed52bc3ad559e066", "is_reserved": 0, "rental_uris": {"android": "https://dc.lft.to/lastmile_qr_scan", "ios": "https://dc.lft.to/lastmile_qr_scan"}, "fusion_lon": 0.0}, {"lat": 38.90524883333333, "is_disabled": 0, "type": "electric_scooter", "lon": -77.0644855, "bike_id": "50c6160dc741fafbb2c41b454c8db03a", "fusion_lat": 0.0, "name": "50c6160dc741fafbb2c41b454c8db03a", "is_reserved": 0, "rental_uris": {"android": "https://dc.lft.to/lastmile_qr_scan", "ios": "https://dc.lft.to/lastmile_qr_scan"}, "fusion_lon": 0.0}, {"lat": 38.92958183333333, "is_disabled": 0, "type": "electric_scooter", "lon": -77.0234515, "bike_id": "7c986692b8ec91d5e817006e89a28934", "fusion_lat": 0.0, "name": "7c986692b8ec91d5e817006e89a28934", "is_reserved": 0, "rental_uris": {"android": "https://dc.lft.to/lastmile_qr_scan", "ios": "https://dc.lft.to/lastmile_qr_scan"}, "fusion_lon": 0.0}, {"lat": 38.9371265, "is_disabled": 0, "type": "electric_scooter", "lon": -77.03635633333333, "bike_id": "44aa1ef21444820f7d4ffa771206c533", "fusion_lat": 0.0, "name": "44aa1ef21444820f7d4ffa771206c533", "is_reserved": 0, "rental_uris": {"android": "https://dc.lft.to/lastmile_qr_scan", "ios": "https://dc.lft.to/lastmile_qr_scan"}, "fusion_lon": 0.0}, {"lat": 38.89393916666667, "is_disabled": 0, "type": "electric_scooter", "lon": -76.94997583333334, "bike_id": "cd2fb1fbb858e2d9a967fd00bd988e77", "fusion_lat": 0.0, "name": "cd2fb1fbb858e2d9a967fd00bd988e77", "is_reserved": 0, "rental_uris": {"android": "https://dc.lft.to/lastmile_qr_scan", "ios": "https://dc.lft.to/lastmile_qr_scan"}, "fusion_lon": 0.0}, {"lat": 38.89736, "is_disabled": 0, "type": "electric_scooter", "lon": -77.0267915, "bike_id": "45540ad693c0af510ab8fb37d054a738", "fusion_lat": 0.0, "name": "45540ad693c0af510ab8fb37d054a738", "is_reserved": 0, "rental_uris": {"android": "https://dc.lft.to/lastmile_qr_scan", "ios": "https://dc.lft.to/lastmile_qr_scan"}, "fusion_lon": 0.0}, {"lat": 38.92272483333333, "is_disabled": 0, "type": "electric_scooter", "lon": -76.99450133333333, "bike_id": "d8e926946e8cae9782eb2966dac6bbbd", "fusion_lat": 0.0, "name": "d8e926946e8cae9782eb2966dac6bbbd", "is_reserved": 0, "rental_uris": {"android": "https://dc.lft.to/lastmile_qr_scan", "ios": "https://dc.lft.to/lastmile_qr_scan"}, "fusion_lon": 0.0}, {"lat": 38.91730166666667, "is_disabled": 0, "type": "electric_scooter", "lon": -77.04177983333334, "bike_id": "3923adbc5d906c2783a42093668a37d0", "fusion_lat": 0.0, "name": "3923adbc5d906c2783a42093668a37d0", "is_reserved": 0, "rental_uris": {"android": "https://dc.lft.to/lastmile_qr_scan", "ios": "https://dc.lft.to/lastmile_qr_scan"}, "fusion_lon": 0.0}, {"lat": 38.866968, "is_disabled": 0, "type": "electric_scooter", "lon": -76.987112, "bike_id": "cc4b428a4fadb23fbf711d81c5f2b0be", "fusion_lat": 0.0, "name": "cc4b428a4fadb23fbf711d81c5f2b0be", "is_reserved": 0, "rental_uris": {"android": "https://dc.lft.to/lastmile_qr_scan", "ios": "https://dc.lft.to/lastmile_qr_scan"}, "fusion_lon": 0.0}, {"lat": 38.93529683333333, "is_disabled": 0, "type": "electric_scooter", "lon": -77.07291833333333, "bike_id": "5db5a0ffaf39281649486b8ab458c1e8", "fusion_lat": 0.0, "name": "5db5a0ffaf39281649486b8ab458c1e8", "is_reserved": 0, "rental_uris": {"android": "https://dc.lft.to/lastmile_qr_scan", "ios": "https://dc.lft.to/lastmile_qr_scan"}, "fusion_lon": 0.0}, {"lat": 38.900841, "is_disabled": 0, "type": "electric_scooter", "lon": -77.0271835, "bike_id": "c8b56a1602f4512a05d8bd5edf0a7fa3", "fusion_lat": 0.0, "name": "c8b56a1602f4512a05d8bd5edf0a7fa3", "is_reserved": 0, "rental_uris": {"android": "https://dc.lft.to/lastmile_qr_scan", "ios": "https://dc.lft.to/lastmile_qr_scan"}, "fusion_lon": 0.0}, {"lat": 38.90563133333333, "is_disabled": 0, "type": "electric_scooter", "lon": -77.01677566666666, "bike_id": "8623ff4fcdc3a23b5e9225cfac3fea0f", "fusion_lat": 0.0, "name": "8623ff4fcdc3a23b5e9225cfac3fea0f", "is_reserved": 0, "rental_uris": {"android": "https://dc.lft.to/lastmile_qr_scan", "ios": "https://dc.lft.to/lastmile_qr_scan"}, "fusion_lon": 0.0}, {"lat": 38.918174666666665, "is_disabled": 0, "type": "electric_scooter", "lon": -77.03202566666667, "bike_id": "cf2889e89dfb2c21a646753311a9d2e8", "fusion_lat": 0.0, "name": "cf2889e89dfb2c21a646753311a9d2e8", "is_reserved": 0, "rental_uris": {"android": "https://dc.lft.to/lastmile_qr_scan", "ios": "https://dc.lft.to/lastmile_qr_scan"}, "fusion_lon": 0.0}, {"lat": 38.887449333333336, "is_disabled": 0, "type": "electric_scooter", "lon": -76.9835665, "bike_id": "90ea1a05bd4da0b541a32ec86c14164e", "fusion_lat": 0.0, "name": "90ea1a05bd4da0b541a32ec86c14164e", "is_reserved": 0, "rental_uris": {"android": "https://dc.lft.to/lastmile_qr_scan", "ios": "https://dc.lft.to/lastmile_qr_scan"}, "fusion_lon": 0.0}, {"lat": 38.9094435, "is_disabled": 0, "type": "electric_scooter", "lon": -76.9896015, "bike_id": "128ff65233e12570bf7df26f55858d79", "fusion_lat": 0.0, "name": "128ff65233e12570bf7df26f55858d79", "is_reserved": 0, "rental_uris": {"android": "https://dc.lft.to/lastmile_qr_scan", "ios": "https://dc.lft.to/lastmile_qr_scan"}, "fusion_lon": 0.0}, {"lat": 38.840317, "is_disabled": 0, "type": "electric_bike", "lon": -76.97588166666667, "bike_id": "057cf2de7043aa63a04c1c0f23816a17", "fusion_lat": 0.0, "name": "057cf2de7043aa63a04c1c0f23816a17", "is_reserved": 0, "rental_uris": {"android": "https://dc.lft.to/lastmile_qr_scan", "ios": "https://dc.lft.to/lastmile_qr_scan"}, "fusion_lon": 0.0}, {"lat": 38.90357433333333, "is_disabled": 0, "type": "electric_scooter", "lon": -77.01107, "bike_id": "39ce804878323ef3ccfc9b39d240c75e", "fusion_lat": 0.0, "name": "39ce804878323ef3ccfc9b39d240c75e", "is_reserved": 0, "rental_uris": {"android": "https://dc.lft.to/lastmile_qr_scan", "ios": "https://dc.lft.to/lastmile_qr_scan"}, "fusion_lon": 0.0}, {"lat": 38.902874, "is_disabled": 0, "type": "electric_scooter", "lon": -77.058018, "bike_id": "bf47c97a36a0b77c51a540c5462e50fc", "fusion_lat": 0.0, "name": "bf47c97a36a0b77c51a540c5462e50fc", "is_reserved": 0, "rental_uris": {"android": "https://dc.lft.to/lastmile_qr_scan", "ios": "https://dc.lft.to/lastmile_qr_scan"}, "fusion_lon": 0.0}, {"lat": 38.874134833333336, "is_disabled": 0, "type": "electric_bike", "lon": -76.965756, "bike_id": "ac3c54846224c182becd763fd82ac48f", "fusion_lat": 0.0, "name": "ac3c54846224c182becd763fd82ac48f", "is_reserved": 0, "rental_uris": {"android": "https://dc.lft.to/lastmile_qr_scan", "ios": "https://dc.lft.to/lastmile_qr_scan"}, "fusion_lon": 0.0}, {"lat": 38.903168666666666, "is_disabled": 0, "type": "electric_scooter", "lon": -77.04167233333334, "bike_id": "e02e1f974707f4bab716b44888646a86", "fusion_lat": 0.0, "name": "e02e1f974707f4bab716b44888646a86", "is_reserved": 0, "rental_uris": {"android": "https://dc.lft.to/lastmile_qr_scan", "ios": "https://dc.lft.to/lastmile_qr_scan"}, "fusion_lon": 0.0}, {"lat": 38.9325495, "is_disabled": 0, "type": "electric_scooter", "lon": -77.03278233333333, "bike_id": "8143f3896b9c639887b1e22fa0bcfbea", "fusion_lat": 0.0, "name": "8143f3896b9c639887b1e22fa0bcfbea", "is_reserved": 0, "rental_uris": {"android": "https://dc.lft.to/lastmile_qr_scan", "ios": "https://dc.lft.to/lastmile_qr_scan"}, "fusion_lon": 0.0}, {"lat": 38.911207, "is_disabled": 0, "type": "electric_scooter", "lon": -77.0436655, "bike_id": "da6a838dbfa6e53aaedc4c45f40263c2", "fusion_lat": 0.0, "name": "da6a838dbfa6e53aaedc4c45f40263c2", "is_reserved": 0, "rental_uris": {"android": "https://dc.lft.to/lastmile_qr_scan", "ios": "https://dc.lft.to/lastmile_qr_scan"}, "fusion_lon": 0.0}, {"lat": 39.03422333333334, "is_disabled": 0, "type": "electric_bike", "lon": -77.04257433333333, "bike_id": "a94d2b35ab7eefdcf69ec3ba6eb67d0e", "fusion_lat": 0.0, "name": "a94d2b35ab7eefdcf69ec3ba6eb67d0e", "is_reserved": 0, "rental_uris": {"android": "https://dc.lft.to/lastmile_qr_scan", "ios": "https://dc.lft.to/lastmile_qr_scan"}, "fusion_lon": 0.0}, {"lat": 38.918252, "is_disabled": 0, "type": "electric_scooter", "lon": -77.03456616666666, "bike_id": "941102e6a37bef71bfeaa54d93322908", "fusion_lat": 0.0, "name": "941102e6a37bef71bfeaa54d93322908", "is_reserved": 0, "rental_uris": {"android": "https://dc.lft.to/lastmile_qr_scan", "ios": "https://dc.lft.to/lastmile_qr_scan"}, "fusion_lon": 0.0}, {"lat": 38.89987083333333, "is_disabled": 0, "type": "electric_scooter", "lon": -77.03080866666667, "bike_id": "d84c43d3f07fffbd9d7ed1589443b0b5", "fusion_lat": 0.0, "name": "d84c43d3f07fffbd9d7ed1589443b0b5", "is_reserved": 0, "rental_uris": {"android": "https://dc.lft.to/lastmile_qr_scan", "ios": "https://dc.lft.to/lastmile_qr_scan"}, "fusion_lon": 0.0}, {"lat": 38.900324499999996, "is_disabled": 0, "type": "electric_scooter", "lon": -77.01760616666667, "bike_id": "52667b9b68cebf23c1d27e565486e744", "fusion_lat": 0.0, "name": "52667b9b68cebf23c1d27e565486e744", "is_reserved": 0, "rental_uris": {"android": "https://dc.lft.to/lastmile_qr_scan", "ios": "https://dc.lft.to/lastmile_qr_scan"}, "fusion_lon": 0.0}, {"lat": 38.89070616666667, "is_disabled": 0, "type": "electric_scooter", "lon": -76.988378, "bike_id": "5253a6de7fdbe019b8b58b6e88cc905c", "fusion_lat": 0.0, "name": "5253a6de7fdbe019b8b58b6e88cc905c", "is_reserved": 0, "rental_uris": {"android": "https://dc.lft.to/lastmile_qr_scan", "ios": "https://dc.lft.to/lastmile_qr_scan"}, "fusion_lon": 0.0}, {"lat": 38.936555, "is_disabled": 0, "type": "electric_bike", "lon": -76.9521975, "bike_id": "c3e6ae72557d90eb279786e49a07e681", "fusion_lat": 0.0, "name": "c3e6ae72557d90eb279786e49a07e681", "is_reserved": 0, "rental_uris": {"android": "https://dc.lft.to/lastmile_qr_scan", "ios": "https://dc.lft.to/lastmile_qr_scan"}, "fusion_lon": 0.0}, {"lat": 38.945519833333336, "is_disabled": 0, "type": "electric_bike", "lon": -76.89538366666666, "bike_id": "cb9b238aa30da569d078c2bb36663a64", "fusion_lat": 0.0, "name": "cb9b238aa30da569d078c2bb36663a64", "is_reserved": 0, "rental_uris": {"android": "https://dc.lft.to/lastmile_qr_scan", "ios": "https://dc.lft.to/lastmile_qr_scan"}, "fusion_lon": 0.0}, {"lat": 38.893509333333334, "is_disabled": 0, "type": "electric_scooter", "lon": -77.04140783333334, "bike_id": "0aa31c0efb491848048b7a32adda1581", "fusion_lat": 0.0, "name": "0aa31c0efb491848048b7a32adda1581", "is_reserved": 0, "rental_uris": {"android": "https://dc.lft.to/lastmile_qr_scan", "ios": "https://dc.lft.to/lastmile_qr_scan"}, "fusion_lon": 0.0}, {"lat": 38.85199183333334, "is_disabled": 0, "type": "electric_scooter", "lon": -76.97632316666666, "bike_id": "7ad3edfae41d41a31365cd26652c4d37", "fusion_lat": 0.0, "name": "7ad3edfae41d41a31365cd26652c4d37", "is_reserved": 0, "rental_uris": {"android": "https://dc.lft.to/lastmile_qr_scan", "ios": "https://dc.lft.to/lastmile_qr_scan"}, "fusion_lon": 0.0}, {"lat": 38.92591633333333, "is_disabled": 0, "type": "electric_scooter", "lon": -77.044023, "bike_id": "c4180de6c20c6a1d887578ecb1e6629c", "fusion_lat": 0.0, "name": "c4180de6c20c6a1d887578ecb1e6629c", "is_reserved": 0, "rental_uris": {"android": "https://dc.lft.to/lastmile_qr_scan", "ios": "https://dc.lft.to/lastmile_qr_scan"}, "fusion_lon": 0.0}, {"lat": 38.9080365, "is_disabled": 0, "type": "electric_scooter", "lon": -77.04245866666666, "bike_id": "a377d6ec0a790d32ab6c9fc43ee48129", "fusion_lat": 0.0, "name": "a377d6ec0a790d32ab6c9fc43ee48129", "is_reserved": 0, "rental_uris": {"android": "https://dc.lft.to/lastmile_qr_scan", "ios": "https://dc.lft.to/lastmile_qr_scan"}, "fusion_lon": 0.0}, {"lat": 38.90893033333333, "is_disabled": 0, "type": "electric_scooter", "lon": -77.04347666666666, "bike_id": "c5dc722683878f39d58a896c30d2405b", "fusion_lat": 0.0, "name": "c5dc722683878f39d58a896c30d2405b", "is_reserved": 0, "rental_uris": {"android": "https://dc.lft.to/lastmile_qr_scan", "ios": "https://dc.lft.to/lastmile_qr_scan"}, "fusion_lon": 0.0}, {"lat": 38.93695783333333, "is_disabled": 0, "type": "electric_scooter", "lon": -77.02410866666666, "bike_id": "21dd05afd81635e01c2785e100439dfb", "fusion_lat": 0.0, "name": "21dd05afd81635e01c2785e100439dfb", "is_reserved": 0, "rental_uris": {"android": "https://dc.lft.to/lastmile_qr_scan", "ios": "https://dc.lft.to/lastmile_qr_scan"}, "fusion_lon": 0.0}, {"lat": 38.9053275, "is_disabled": 0, "type": "electric_scooter", "lon": -77.06179833333333, "bike_id": "8a8f4a70fe75f6e9382aa7031bd6c867", "fusion_lat": 0.0, "name": "8a8f4a70fe75f6e9382aa7031bd6c867", "is_reserved": 0, "rental_uris": {"android": "https://dc.lft.to/lastmile_qr_scan", "ios": "https://dc.lft.to/lastmile_qr_scan"}, "fusion_lon": 0.0}, {"lat": 38.90960283333333, "is_disabled": 0, "type": "electric_scooter", "lon": -77.048259, "bike_id": "e1678c8c1a639cd92d197bd4b34075d5", "fusion_lat": 0.0, "name": "e1678c8c1a639cd92d197bd4b34075d5", "is_reserved": 0, "rental_uris": {"android": "https://dc.lft.to/lastmile_qr_scan", "ios": "https://dc.lft.to/lastmile_qr_scan"}, "fusion_lon": 0.0}, {"lat": 38.900137666666666, "is_disabled": 0, "type": "electric_scooter", "lon": -77.0466605, "bike_id": "f648089d18dd20c41b2d848036f81644", "fusion_lat": 0.0, "name": "f648089d18dd20c41b2d848036f81644", "is_reserved": 0, "rental_uris": {"android": "https://dc.lft.to/lastmile_qr_scan", "ios": "https://dc.lft.to/lastmile_qr_scan"}, "fusion_lon": 0.0}, {"lat": 38.892207166666665, "is_disabled": 0, "type": "electric_scooter", "lon": -77.0277985, "bike_id": "df5996ac73dea5a9a23a10002e553ebc", "fusion_lat": 0.0, "name": "df5996ac73dea5a9a23a10002e553ebc", "is_reserved": 0, "rental_uris": {"android": "https://dc.lft.to/lastmile_qr_scan", "ios": "https://dc.lft.to/lastmile_qr_scan"}, "fusion_lon": 0.0}, {"lat": 38.86506933333333, "is_disabled": 0, "type": "electric_scooter", "lon": -76.98979233333333, "bike_id": "e6111927b40429fee3879b139d4e5b27", "fusion_lat": 0.0, "name": "e6111927b40429fee3879b139d4e5b27", "is_reserved": 0, "rental_uris": {"android": "https://dc.lft.to/lastmile_qr_scan", "ios": "https://dc.lft.to/lastmile_qr_scan"}, "fusion_lon": 0.0}, {"lat": 38.93426566666667, "is_disabled": 0, "type": "electric_scooter", "lon": -77.04004766666667, "bike_id": "e9f36ca0112f1dd0b4ba50de301deb5e", "fusion_lat": 0.0, "name": "e9f36ca0112f1dd0b4ba50de301deb5e", "is_reserved": 0, "rental_uris": {"android": "https://dc.lft.to/lastmile_qr_scan", "ios": "https://dc.lft.to/lastmile_qr_scan"}, "fusion_lon": 0.0}, {"lat": 39.0293305, "is_disabled": 0, "type": "electric_bike", "lon": -77.04922066666667, "bike_id": "b36a337682df21c0bf1b78f71929ec8d", "fusion_lat": 0.0, "name": "b36a337682df21c0bf1b78f71929ec8d", "is_reserved": 0, "rental_uris": {"android": "https://dc.lft.to/lastmile_qr_scan", "ios": "https://dc.lft.to/lastmile_qr_scan"}, "fusion_lon": 0.0}, {"lat": 38.892161333333334, "is_disabled": 0, "type": "electric_scooter", "lon": -76.9958765, "bike_id": "954a6c0a292d8c4ef3567acd13e8ce10", "fusion_lat": 0.0, "name": "954a6c0a292d8c4ef3567acd13e8ce10", "is_reserved": 0, "rental_uris": {"android": "https://dc.lft.to/lastmile_qr_scan", "ios": "https://dc.lft.to/lastmile_qr_scan"}, "fusion_lon": 0.0}, {"lat": 38.91348833333333, "is_disabled": 0, "type": "electric_scooter", "lon": -77.0435065, "bike_id": "47a7d3ba212ebedab6a152bf7c5bbd7f", "fusion_lat": 0.0, "name": "47a7d3ba212ebedab6a152bf7c5bbd7f", "is_reserved": 0, "rental_uris": {"android": "https://dc.lft.to/lastmile_qr_scan", "ios": "https://dc.lft.to/lastmile_qr_scan"}, "fusion_lon": 0.0}, {"lat": 38.91555, "is_disabled": 0, "type": "electric_scooter", "lon": -77.041893, "bike_id": "efc57c91a161726c81c2750fe4ca8ff2", "fusion_lat": 0.0, "name": "efc57c91a161726c81c2750fe4ca8ff2", "is_reserved": 0, "rental_uris": {"android": "https://dc.lft.to/lastmile_qr_scan", "ios": "https://dc.lft.to/lastmile_qr_scan"}, "fusion_lon": 0.0}, {"lat": 38.911801, "is_disabled": 0, "type": "electric_scooter", "lon": -77.0484995, "bike_id": "2b1ae6773a519258e890e72c9d19d3c3", "fusion_lat": 0.0, "name": "2b1ae6773a519258e890e72c9d19d3c3", "is_reserved": 0, "rental_uris": {"android": "https://dc.lft.to/lastmile_qr_scan", "ios": "https://dc.lft.to/lastmile_qr_scan"}, "fusion_lon": 0.0}, {"lat": 38.93111433333333, "is_disabled": 0, "type": "electric_scooter", "lon": -77.03841966666667, "bike_id": "a4f3145d285c4719b54289a256b653c4", "fusion_lat": 0.0, "name": "a4f3145d285c4719b54289a256b653c4", "is_reserved": 0, "rental_uris": {"android": "https://dc.lft.to/lastmile_qr_scan", "ios": "https://dc.lft.to/lastmile_qr_scan"}, "fusion_lon": 0.0}, {"lat": 38.9028415, "is_disabled": 0, "type": "electric_scooter", "lon": -77.04620783333333, "bike_id": "0c5312af62753cf33df737532674d675", "fusion_lat": 0.0, "name": "0c5312af62753cf33df737532674d675", "is_reserved": 0, "rental_uris": {"android": "https://dc.lft.to/lastmile_qr_scan", "ios": "https://dc.lft.to/lastmile_qr_scan"}, "fusion_lon": 0.0}, {"lat": 38.949224, "is_disabled": 0, "type": "electric_bike", "lon": -77.00794716666667, "bike_id": "01d21cb4a3ec6e44177307e8ed3cfa21", "fusion_lat": 0.0, "name": "01d21cb4a3ec6e44177307e8ed3cfa21", "is_reserved": 0, "rental_uris": {"android": "https://dc.lft.to/lastmile_qr_scan", "ios": "https://dc.lft.to/lastmile_qr_scan"}, "fusion_lon": 0.0}, {"lat": 38.869971666666665, "is_disabled": 0, "type": "electric_bike", "lon": -77.06569533333334, "bike_id": "3fc066cedea128b2ce821a0afc0ab734", "fusion_lat": 0.0, "name": "3fc066cedea128b2ce821a0afc0ab734", "is_reserved": 0, "rental_uris": {"android": "https://dc.lft.to/lastmile_qr_scan", "ios": "https://dc.lft.to/lastmile_qr_scan"}, "fusion_lon": 0.0}, {"lat": 38.9015105, "is_disabled": 0, "type": "electric_scooter", "lon": -77.04349216666667, "bike_id": "591ddfeda1cb8eeff5c4daea130859d6", "fusion_lat": 0.0, "name": "591ddfeda1cb8eeff5c4daea130859d6", "is_reserved": 0, "rental_uris": {"android": "https://dc.lft.to/lastmile_qr_scan", "ios": "https://dc.lft.to/lastmile_qr_scan"}, "fusion_lon": 0.0}, {"lat": 38.91427766666666, "is_disabled": 0, "type": "electric_scooter", "lon": -77.0318325, "bike_id": "49750cec4f596cbcd6731f847b2e6f9e", "fusion_lat": 0.0, "name": "49750cec4f596cbcd6731f847b2e6f9e", "is_reserved": 0, "rental_uris": {"android": "https://dc.lft.to/lastmile_qr_scan", "ios": "https://dc.lft.to/lastmile_qr_scan"}, "fusion_lon": 0.0}, {"lat": 38.91779316666667, "is_disabled": 0, "type": "electric_scooter", "lon": -77.0364385, "bike_id": "9d080ad0e7aa3668745133eab46345a3", "fusion_lat": 0.0, "name": "9d080ad0e7aa3668745133eab46345a3", "is_reserved": 0, "rental_uris": {"android": "https://dc.lft.to/lastmile_qr_scan", "ios": "https://dc.lft.to/lastmile_qr_scan"}, "fusion_lon": 0.0}, {"lat": 38.903648833333335, "is_disabled": 0, "type": "electric_scooter", "lon": -77.0425105, "bike_id": "47e2d751fa039d8d8adacb0abc9d2427", "fusion_lat": 0.0, "name": "47e2d751fa039d8d8adacb0abc9d2427", "is_reserved": 0, "rental_uris": {"android": "https://dc.lft.to/lastmile_qr_scan", "ios": "https://dc.lft.to/lastmile_qr_scan"}, "fusion_lon": 0.0}, {"lat": 38.8841185, "is_disabled": 0, "type": "electric_scooter", "lon": -77.0153625, "bike_id": "8f7bc2cd8fa52501423a9f35a304694f", "fusion_lat": 0.0, "name": "8f7bc2cd8fa52501423a9f35a304694f", "is_reserved": 0, "rental_uris": {"android": "https://dc.lft.to/lastmile_qr_scan", "ios": "https://dc.lft.to/lastmile_qr_scan"}, "fusion_lon": 0.0}, {"lat": 38.92586983333333, "is_disabled": 0, "type": "electric_scooter", "lon": -77.00460816666667, "bike_id": "8437bdcbfa08eadb31c5ad3be74381aa", "fusion_lat": 0.0, "name": "8437bdcbfa08eadb31c5ad3be74381aa", "is_reserved": 0, "rental_uris": {"android": "https://dc.lft.to/lastmile_qr_scan", "ios": "https://dc.lft.to/lastmile_qr_scan"}, "fusion_lon": 0.0}, {"lat": 38.91198766666667, "is_disabled": 0, "type": "electric_scooter", "lon": -77.031793, "bike_id": "d31a5f52723bb61d3dbbc333a4f6d860", "fusion_lat": 0.0, "name": "d31a5f52723bb61d3dbbc333a4f6d860", "is_reserved": 0, "rental_uris": {"android": "https://dc.lft.to/lastmile_qr_scan", "ios": "https://dc.lft.to/lastmile_qr_scan"}, "fusion_lon": 0.0}, {"lat": 38.86256233333334, "is_disabled": 0, "type": "electric_scooter", "lon": -76.995169, "bike_id": "257e43b16861d42c07bdd31f156bdda6", "fusion_lat": 0.0, "name": "257e43b16861d42c07bdd31f156bdda6", "is_reserved": 0, "rental_uris": {"android": "https://dc.lft.to/lastmile_qr_scan", "ios": "https://dc.lft.to/lastmile_qr_scan"}, "fusion_lon": 0.0}, {"lat": 38.91258466666667, "is_disabled": 0, "type": "electric_scooter", "lon": -77.02530216666666, "bike_id": "54033d66d819d5992b8e395faae8dfa5", "fusion_lat": 0.0, "name": "54033d66d819d5992b8e395faae8dfa5", "is_reserved": 0, "rental_uris": {"android": "https://dc.lft.to/lastmile_qr_scan", "ios": "https://dc.lft.to/lastmile_qr_scan"}, "fusion_lon": 0.0}, {"lat": 38.909167, "is_disabled": 0, "type": "electric_scooter", "lon": -77.04418133333333, "bike_id": "fa0c7e8cb1708e19f16bae60f7fb71cd", "fusion_lat": 0.0, "name": "fa0c7e8cb1708e19f16bae60f7fb71cd", "is_reserved": 0, "rental_uris": {"android": "https://dc.lft.to/lastmile_qr_scan", "ios": "https://dc.lft.to/lastmile_qr_scan"}, "fusion_lon": 0.0}, {"lat": 38.929636, "is_disabled": 0, "type": "electric_scooter", "lon": -77.02784766666667, "bike_id": "ebcaec8d53c07c5dce0c905f43c58af7", "fusion_lat": 0.0, "name": "ebcaec8d53c07c5dce0c905f43c58af7", "is_reserved": 0, "rental_uris": {"android": "https://dc.lft.to/lastmile_qr_scan", "ios": "https://dc.lft.to/lastmile_qr_scan"}, "fusion_lon": 0.0}, {"lat": 38.85529583333334, "is_disabled": 0, "type": "electric_bike", "lon": -77.1155935, "bike_id": "78e6afbd965d60a393934e3ae4666571", "fusion_lat": 0.0, "name": "78e6afbd965d60a393934e3ae4666571", "is_reserved": 0, "rental_uris": {"android": "https://dc.lft.to/lastmile_qr_scan", "ios": "https://dc.lft.to/lastmile_qr_scan"}, "fusion_lon": 0.0}, {"lat": 38.904766, "is_disabled": 0, "type": "electric_scooter", "lon": -77.002169, "bike_id": "a0bb3fa63c15c17da47c1b5810938e48", "fusion_lat": 0.0, "name": "a0bb3fa63c15c17da47c1b5810938e48", "is_reserved": 0, "rental_uris": {"android": "https://dc.lft.to/lastmile_qr_scan", "ios": "https://dc.lft.to/lastmile_qr_scan"}, "fusion_lon": 0.0}, {"lat": 38.92445416666666, "is_disabled": 0, "type": "electric_scooter", "lon": -77.0403355, "bike_id": "4cb3a45b117110d8909a46eeb1957a6b", "fusion_lat": 0.0, "name": "4cb3a45b117110d8909a46eeb1957a6b", "is_reserved": 0, "rental_uris": {"android": "https://dc.lft.to/lastmile_qr_scan", "ios": "https://dc.lft.to/lastmile_qr_scan"}, "fusion_lon": 0.0}, {"lat": 38.924109333333334, "is_disabled": 0, "type": "electric_scooter", "lon": -77.0274115, "bike_id": "a1de45040929df08601642f2abac6235", "fusion_lat": 0.0, "name": "a1de45040929df08601642f2abac6235", "is_reserved": 0, "rental_uris": {"android": "https://dc.lft.to/lastmile_qr_scan", "ios": "https://dc.lft.to/lastmile_qr_scan"}, "fusion_lon": 0.0}, {"lat": 38.892211333333336, "is_disabled": 0, "type": "electric_bike", "lon": -77.03216716666667, "bike_id": "058367e52f47d30a6a70d413478556d3", "fusion_lat": 0.0, "name": "058367e52f47d30a6a70d413478556d3", "is_reserved": 0, "rental_uris": {"android": "https://dc.lft.to/lastmile_qr_scan", "ios": "https://dc.lft.to/lastmile_qr_scan"}, "fusion_lon": 0.0}, {"lat": 38.892251333333334, "is_disabled": 0, "type": "electric_bike", "lon": -77.0344275, "bike_id": "dd1c9b1afbf9c8917e4e93415ab45390", "fusion_lat": 0.0, "name": "dd1c9b1afbf9c8917e4e93415ab45390", "is_reserved": 0, "rental_uris": {"android": "https://dc.lft.to/lastmile_qr_scan", "ios": "https://dc.lft.to/lastmile_qr_scan"}, "fusion_lon": 0.0}, {"lat": 38.9063135, "is_disabled": 0, "type": "electric_scooter", "lon": -77.03376533333333, "bike_id": "4c56fb4c4cab97310387f10ec77dd965", "fusion_lat": 0.0, "name": "4c56fb4c4cab97310387f10ec77dd965", "is_reserved": 0, "rental_uris": {"android": "https://dc.lft.to/lastmile_qr_scan", "ios": "https://dc.lft.to/lastmile_qr_scan"}, "fusion_lon": 0.0}, {"lat": 38.90682116666667, "is_disabled": 0, "type": "electric_scooter", "lon": -77.0377095, "bike_id": "2d8707342995ee35ea4c2197cd8ccc8a", "fusion_lat": 0.0, "name": "2d8707342995ee35ea4c2197cd8ccc8a", "is_reserved": 0, "rental_uris": {"android": "https://dc.lft.to/lastmile_qr_scan", "ios": "https://dc.lft.to/lastmile_qr_scan"}, "fusion_lon": 0.0}, {"lat": 38.89606466666667, "is_disabled": 0, "type": "electric_scooter", "lon": -77.02660016666667, "bike_id": "4196eb3b4d43344eb178bf9d9633fa56", "fusion_lat": 0.0, "name": "4196eb3b4d43344eb178bf9d9633fa56", "is_reserved": 0, "rental_uris": {"android": "https://dc.lft.to/lastmile_qr_scan", "ios": "https://dc.lft.to/lastmile_qr_scan"}, "fusion_lon": 0.0}, {"lat": 38.9350635, "is_disabled": 0, "type": "electric_scooter", "lon": -77.04280916666667, "bike_id": "bb37d60cacb6841964e776af53c55623", "fusion_lat": 0.0, "name": "bb37d60cacb6841964e776af53c55623", "is_reserved": 0, "rental_uris": {"android": "https://dc.lft.to/lastmile_qr_scan", "ios": "https://dc.lft.to/lastmile_qr_scan"}, "fusion_lon": 0.0}, {"lat": 38.9208495, "is_disabled": 0, "type": "electric_scooter", "lon": -77.03644183333333, "bike_id": "1ff477788a9c9bb25d369d39aa2f2ed8", "fusion_lat": 0.0, "name": "1ff477788a9c9bb25d369d39aa2f2ed8", "is_reserved": 0, "rental_uris": {"android": "https://dc.lft.to/lastmile_qr_scan", "ios": "https://dc.lft.to/lastmile_qr_scan"}, "fusion_lon": 0.0}, {"lat": 38.89005983333333, "is_disabled": 0, "type": "electric_scooter", "lon": -76.93743783333333, "bike_id": "1cfc758d7120104ba68d92d1a065643c", "fusion_lat": 0.0, "name": "1cfc758d7120104ba68d92d1a065643c", "is_reserved": 0, "rental_uris": {"android": "https://dc.lft.to/lastmile_qr_scan", "ios": "https://dc.lft.to/lastmile_qr_scan"}, "fusion_lon": 0.0}, {"lat": 38.920888, "is_disabled": 0, "type": "electric_scooter", "lon": -77.01772116666666, "bike_id": "78007b42f20a9cd8060a0999a4c3d3e4", "fusion_lat": 0.0, "name": "78007b42f20a9cd8060a0999a4c3d3e4", "is_reserved": 0, "rental_uris": {"android": "https://dc.lft.to/lastmile_qr_scan", "ios": "https://dc.lft.to/lastmile_qr_scan"}, "fusion_lon": 0.0}, {"lat": 38.88675633333333, "is_disabled": 0, "type": "electric_bike", "lon": -77.16255866666667, "bike_id": "1b9be29b0f5be75954ef33174e8fe869", "fusion_lat": 0.0, "name": "1b9be29b0f5be75954ef33174e8fe869", "is_reserved": 0, "rental_uris": {"android": "https://dc.lft.to/lastmile_qr_scan", "ios": "https://dc.lft.to/lastmile_qr_scan"}, "fusion_lon": 0.0}, {"lat": 38.901103, "is_disabled": 0, "type": "electric_scooter", "lon": -76.99553266666666, "bike_id": "19781303684243f8fdb1e10983a3fcf6", "fusion_lat": 0.0, "name": "19781303684243f8fdb1e10983a3fcf6", "is_reserved": 0, "rental_uris": {"android": "https://dc.lft.to/lastmile_qr_scan", "ios": "https://dc.lft.to/lastmile_qr_scan"}, "fusion_lon": 0.0}, {"lat": 38.899004166666664, "is_disabled": 0, "type": "electric_scooter", "lon": -77.03247616666667, "bike_id": "a621123b850af18bdf5e5d4338fd14a1", "fusion_lat": 0.0, "name": "a621123b850af18bdf5e5d4338fd14a1", "is_reserved": 0, "rental_uris": {"android": "https://dc.lft.to/lastmile_qr_scan", "ios": "https://dc.lft.to/lastmile_qr_scan"}, "fusion_lon": 0.0}, {"lat": 38.90418866666667, "is_disabled": 0, "type": "electric_scooter", "lon": -77.0688925, "bike_id": "b319a008ce7ae75fb8b91be8fb68500f", "fusion_lat": 0.0, "name": "b319a008ce7ae75fb8b91be8fb68500f", "is_reserved": 0, "rental_uris": {"android": "https://dc.lft.to/lastmile_qr_scan", "ios": "https://dc.lft.to/lastmile_qr_scan"}, "fusion_lon": 0.0}, {"lat": 38.910108, "is_disabled": 0, "type": "electric_scooter", "lon": -76.9939115, "bike_id": "c4a3053c2b6d6da52cc319dc1c491a29", "fusion_lat": 0.0, "name": "c4a3053c2b6d6da52cc319dc1c491a29", "is_reserved": 0, "rental_uris": {"android": "https://dc.lft.to/lastmile_qr_scan", "ios": "https://dc.lft.to/lastmile_qr_scan"}, "fusion_lon": 0.0}, {"lat": 38.916706166666664, "is_disabled": 0, "type": "electric_scooter", "lon": -77.02715383333333, "bike_id": "dc22721d6f56fc6f5909ec46b25a22e8", "fusion_lat": 0.0, "name": "dc22721d6f56fc6f5909ec46b25a22e8", "is_reserved": 0, "rental_uris": {"android": "https://dc.lft.to/lastmile_qr_scan", "ios": "https://dc.lft.to/lastmile_qr_scan"}, "fusion_lon": 0.0}, {"lat": 38.92994016666667, "is_disabled": 0, "type": "electric_scooter", "lon": -77.03636516666667, "bike_id": "87efee083fd112719be5fbc7af4f9cb4", "fusion_lat": 0.0, "name": "87efee083fd112719be5fbc7af4f9cb4", "is_reserved": 0, "rental_uris": {"android": "https://dc.lft.to/lastmile_qr_scan", "ios": "https://dc.lft.to/lastmile_qr_scan"}, "fusion_lon": 0.0}, {"lat": 38.89222616666667, "is_disabled": 0, "type": "electric_scooter", "lon": -77.04197183333333, "bike_id": "7ab3d0cbefbd9a40b6ba7b0811d7e47b", "fusion_lat": 0.0, "name": "7ab3d0cbefbd9a40b6ba7b0811d7e47b", "is_reserved": 0, "rental_uris": {"android": "https://dc.lft.to/lastmile_qr_scan", "ios": "https://dc.lft.to/lastmile_qr_scan"}, "fusion_lon": 0.0}, {"lat": 38.917092833333335, "is_disabled": 0, "type": "electric_scooter", "lon": -77.03124866666667, "bike_id": "f93191d4f0a4862f48e442c2d0d9b6b4", "fusion_lat": 0.0, "name": "f93191d4f0a4862f48e442c2d0d9b6b4", "is_reserved": 0, "rental_uris": {"android": "https://dc.lft.to/lastmile_qr_scan", "ios": "https://dc.lft.to/lastmile_qr_scan"}, "fusion_lon": 0.0}, {"lat": 38.90065883333333, "is_disabled": 0, "type": "electric_scooter", "lon": -77.00204583333333, "bike_id": "21d25d216d9c141496ef25284f4fd214", "fusion_lat": 0.0, "name": "21d25d216d9c141496ef25284f4fd214", "is_reserved": 0, "rental_uris": {"android": "https://dc.lft.to/lastmile_qr_scan", "ios": "https://dc.lft.to/lastmile_qr_scan"}, "fusion_lon": 0.0}, {"lat": 38.90840033333333, "is_disabled": 0, "type": "electric_scooter", "lon": -76.996978, "bike_id": "4c598cffabb9164bffc0fedbaf8fd7ce", "fusion_lat": 0.0, "name": "4c598cffabb9164bffc0fedbaf8fd7ce", "is_reserved": 0, "rental_uris": {"android": "https://dc.lft.to/lastmile_qr_scan", "ios": "https://dc.lft.to/lastmile_qr_scan"}, "fusion_lon": 0.0}, {"lat": 38.88365533333333, "is_disabled": 0, "type": "electric_scooter", "lon": -76.99506766666667, "bike_id": "be765424ee685db838b2237473a30f76", "fusion_lat": 0.0, "name": "be765424ee685db838b2237473a30f76", "is_reserved": 0, "rental_uris": {"android": "https://dc.lft.to/lastmile_qr_scan", "ios": "https://dc.lft.to/lastmile_qr_scan"}, "fusion_lon": 0.0}, {"lat": 38.922965, "is_disabled": 0, "type": "electric_scooter", "lon": -77.0414625, "bike_id": "c0a850601e17d50cd05912ba5eb4f7f8", "fusion_lat": 0.0, "name": "c0a850601e17d50cd05912ba5eb4f7f8", "is_reserved": 0, "rental_uris": {"android": "https://dc.lft.to/lastmile_qr_scan", "ios": "https://dc.lft.to/lastmile_qr_scan"}, "fusion_lon": 0.0}, {"lat": 38.92236966666667, "is_disabled": 0, "type": "electric_scooter", "lon": -77.0457235, "bike_id": "6b9f591fc889b38dfcad8f4ea12853ef", "fusion_lat": 0.0, "name": "6b9f591fc889b38dfcad8f4ea12853ef", "is_reserved": 0, "rental_uris": {"android": "https://dc.lft.to/lastmile_qr_scan", "ios": "https://dc.lft.to/lastmile_qr_scan"}, "fusion_lon": 0.0}, {"lat": 38.9233995, "is_disabled": 0, "type": "electric_scooter", "lon": -77.05030083333334, "bike_id": "0eab023f64332dbb349c359638e55c60", "fusion_lat": 0.0, "name": "0eab023f64332dbb349c359638e55c60", "is_reserved": 0, "rental_uris": {"android": "https://dc.lft.to/lastmile_qr_scan", "ios": "https://dc.lft.to/lastmile_qr_scan"}, "fusion_lon": 0.0}, {"lat": 38.844255, "is_disabled": 0, "type": "electric_scooter", "lon": -76.99777883333333, "bike_id": "4bfe5c957f78f4be8037dc897d3473d4", "fusion_lat": 0.0, "name": "4bfe5c957f78f4be8037dc897d3473d4", "is_reserved": 0, "rental_uris": {"android": "https://dc.lft.to/lastmile_qr_scan", "ios": "https://dc.lft.to/lastmile_qr_scan"}, "fusion_lon": 0.0}, {"lat": 38.9332045, "is_disabled": 0, "type": "electric_scooter", "lon": -77.04528433333333, "bike_id": "1b0e5ad3c2482ebdd39c3447d3f5ba02", "fusion_lat": 0.0, "name": "1b0e5ad3c2482ebdd39c3447d3f5ba02", "is_reserved": 0, "rental_uris": {"android": "https://dc.lft.to/lastmile_qr_scan", "ios": "https://dc.lft.to/lastmile_qr_scan"}, "fusion_lon": 0.0}, {"lat": 38.890056666666666, "is_disabled": 0, "type": "electric_scooter", "lon": -76.93744333333333, "bike_id": "e8b9e709baa1918789f001be7a424cf5", "fusion_lat": 0.0, "name": "e8b9e709baa1918789f001be7a424cf5", "is_reserved": 0, "rental_uris": {"android": "https://dc.lft.to/lastmile_qr_scan", "ios": "https://dc.lft.to/lastmile_qr_scan"}, "fusion_lon": 0.0}, {"lat": 38.97224883333333, "is_disabled": 0, "type": "electric_bike", "lon": -76.9934475, "bike_id": "04e3bc6832f346e433790a8d1e575f12", "fusion_lat": 0.0, "name": "04e3bc6832f346e433790a8d1e575f12", "is_reserved": 0, "rental_uris": {"android": "https://dc.lft.to/lastmile_qr_scan", "ios": "https://dc.lft.to/lastmile_qr_scan"}, "fusion_lon": 0.0}, {"lat": 38.90242816666667, "is_disabled": 0, "type": "electric_scooter", "lon": -77.02839983333334, "bike_id": "f6c342950fcaa7b936cac83326fcd584", "fusion_lat": 0.0, "name": "f6c342950fcaa7b936cac83326fcd584", "is_reserved": 0, "rental_uris": {"android": "https://dc.lft.to/lastmile_qr_scan", "ios": "https://dc.lft.to/lastmile_qr_scan"}, "fusion_lon": 0.0}, {"lat": 38.916924333333334, "is_disabled": 0, "type": "electric_scooter", "lon": -76.97955866666666, "bike_id": "bfc386a4d2e44298ff0a21dc5c011f85", "fusion_lat": 0.0, "name": "bfc386a4d2e44298ff0a21dc5c011f85", "is_reserved": 0, "rental_uris": {"android": "https://dc.lft.to/lastmile_qr_scan", "ios": "https://dc.lft.to/lastmile_qr_scan"}, "fusion_lon": 0.0}, {"lat": 38.9044125, "is_disabled": 0, "type": "electric_scooter", "lon": -77.05060133333333, "bike_id": "88be8cf27151faff45baf7b047675b2f", "fusion_lat": 0.0, "name": "88be8cf27151faff45baf7b047675b2f", "is_reserved": 0, "rental_uris": {"android": "https://dc.lft.to/lastmile_qr_scan", "ios": "https://dc.lft.to/lastmile_qr_scan"}, "fusion_lon": 0.0}, {"lat": 38.900407, "is_disabled": 0, "type": "electric_scooter", "lon": -76.99031633333334, "bike_id": "540f61b5f42922f133a32f986262252b", "fusion_lat": 0.0, "name": "540f61b5f42922f133a32f986262252b", "is_reserved": 0, "rental_uris": {"android": "https://dc.lft.to/lastmile_qr_scan", "ios": "https://dc.lft.to/lastmile_qr_scan"}, "fusion_lon": 0.0}, {"lat": 38.886043, "is_disabled": 0, "type": "electric_scooter", "lon": -77.018807, "bike_id": "b15873d1ce4a5723345692a763bfdfb3", "fusion_lat": 0.0, "name": "b15873d1ce4a5723345692a763bfdfb3", "is_reserved": 0, "rental_uris": {"android": "https://dc.lft.to/lastmile_qr_scan", "ios": "https://dc.lft.to/lastmile_qr_scan"}, "fusion_lon": 0.0}, {"lat": 38.879896333333335, "is_disabled": 0, "type": "electric_scooter", "lon": -77.0241115, "bike_id": "b57cd9d189b49d31988dc8bb56b1d4f0", "fusion_lat": 0.0, "name": "b57cd9d189b49d31988dc8bb56b1d4f0", "is_reserved": 0, "rental_uris": {"android": "https://dc.lft.to/lastmile_qr_scan", "ios": "https://dc.lft.to/lastmile_qr_scan"}, "fusion_lon": 0.0}, {"lat": 38.88677416666667, "is_disabled": 0, "type": "electric_bike", "lon": -77.162473, "bike_id": "ab9a33e2bb9c0d12c2aae60ca55374a3", "fusion_lat": 0.0, "name": "ab9a33e2bb9c0d12c2aae60ca55374a3", "is_reserved": 0, "rental_uris": {"android": "https://dc.lft.to/lastmile_qr_scan", "ios": "https://dc.lft.to/lastmile_qr_scan"}, "fusion_lon": 0.0}, {"lat": 38.88547116666667, "is_disabled": 0, "type": "electric_bike", "lon": -77.11787333333334, "bike_id": "c9b0437a32f27994470ee3c674fb6636", "fusion_lat": 0.0, "name": "c9b0437a32f27994470ee3c674fb6636", "is_reserved": 0, "rental_uris": {"android": "https://dc.lft.to/lastmile_qr_scan", "ios": "https://dc.lft.to/lastmile_qr_scan"}, "fusion_lon": 0.0}, {"lat": 38.90827633333333, "is_disabled": 0, "type": "electric_scooter", "lon": -77.02004266666667, "bike_id": "58d3cf33af7e2fe8060a81055284a34d", "fusion_lat": 0.0, "name": "58d3cf33af7e2fe8060a81055284a34d", "is_reserved": 0, "rental_uris": {"android": "https://dc.lft.to/lastmile_qr_scan", "ios": "https://dc.lft.to/lastmile_qr_scan"}, "fusion_lon": 0.0}, {"lat": 38.907284833333335, "is_disabled": 0, "type": "electric_scooter", "lon": -77.02415233333333, "bike_id": "1a629795a4c990869d642ec79409e452", "fusion_lat": 0.0, "name": "1a629795a4c990869d642ec79409e452", "is_reserved": 0, "rental_uris": {"android": "https://dc.lft.to/lastmile_qr_scan", "ios": "https://dc.lft.to/lastmile_qr_scan"}, "fusion_lon": 0.0}, {"lat": 38.8963445, "is_disabled": 0, "type": "electric_scooter", "lon": -77.02856016666667, "bike_id": "07ac106d24e99bd1c98fc33c7a23ee3d", "fusion_lat": 0.0, "name": "07ac106d24e99bd1c98fc33c7a23ee3d", "is_reserved": 0, "rental_uris": {"android": "https://dc.lft.to/lastmile_qr_scan", "ios": "https://dc.lft.to/lastmile_qr_scan"}, "fusion_lon": 0.0}, {"lat": 38.86363216666667, "is_disabled": 0, "type": "electric_scooter", "lon": -76.99033116666666, "bike_id": "1e15ef96a9720a5173e768a5b397f341", "fusion_lat": 0.0, "name": "1e15ef96a9720a5173e768a5b397f341", "is_reserved": 0, "rental_uris": {"android": "https://dc.lft.to/lastmile_qr_scan", "ios": "https://dc.lft.to/lastmile_qr_scan"}, "fusion_lon": 0.0}, {"lat": 38.890028, "is_disabled": 0, "type": "electric_scooter", "lon": -76.93748016666666, "bike_id": "2f397f59ca5c05474272e37de74791c6", "fusion_lat": 0.0, "name": "2f397f59ca5c05474272e37de74791c6", "is_reserved": 0, "rental_uris": {"android": "https://dc.lft.to/lastmile_qr_scan", "ios": "https://dc.lft.to/lastmile_qr_scan"}, "fusion_lon": 0.0}, {"lat": 38.911235, "is_disabled": 0, "type": "electric_scooter", "lon": -77.03842783333333, "bike_id": "c80c27d30f94cadd2a870ca8041f3278", "fusion_lat": 0.0, "name": "c80c27d30f94cadd2a870ca8041f3278", "is_reserved": 0, "rental_uris": {"android": "https://dc.lft.to/lastmile_qr_scan", "ios": "https://dc.lft.to/lastmile_qr_scan"}, "fusion_lon": 0.0}, {"lat": 38.9207185, "is_disabled": 0, "type": "electric_scooter", "lon": -77.02533916666667, "bike_id": "467a58195a64f3a768db6c7933074c48", "fusion_lat": 0.0, "name": "467a58195a64f3a768db6c7933074c48", "is_reserved": 0, "rental_uris": {"android": "https://dc.lft.to/lastmile_qr_scan", "ios": "https://dc.lft.to/lastmile_qr_scan"}, "fusion_lon": 0.0}, {"lat": 38.91427066666667, "is_disabled": 0, "type": "electric_scooter", "lon": -77.0318115, "bike_id": "4727b7a35ad649b257cfe28ec43e009e", "fusion_lat": 0.0, "name": "4727b7a35ad649b257cfe28ec43e009e", "is_reserved": 0, "rental_uris": {"android": "https://dc.lft.to/lastmile_qr_scan", "ios": "https://dc.lft.to/lastmile_qr_scan"}, "fusion_lon": 0.0}, {"lat": 38.92448483333333, "is_disabled": 0, "type": "electric_scooter", "lon": -77.040231, "bike_id": "67afbf4a77ef5d83c29159bf037921d8", "fusion_lat": 0.0, "name": "67afbf4a77ef5d83c29159bf037921d8", "is_reserved": 0, "rental_uris": {"android": "https://dc.lft.to/lastmile_qr_scan", "ios": "https://dc.lft.to/lastmile_qr_scan"}, "fusion_lon": 0.0}, {"lat": 38.894755833333335, "is_disabled": 0, "type": "electric_scooter", "lon": -77.009897, "bike_id": "f07f2752e88c5eb3d1719338eb99549c", "fusion_lat": 0.0, "name": "f07f2752e88c5eb3d1719338eb99549c", "is_reserved": 0, "rental_uris": {"android": "https://dc.lft.to/lastmile_qr_scan", "ios": "https://dc.lft.to/lastmile_qr_scan"}, "fusion_lon": 0.0}, {"lat": 38.8922095, "is_disabled": 0, "type": "electric_scooter", "lon": -77.04201283333333, "bike_id": "eec122eeb6f2ea7c4b39b2cfc87ac691", "fusion_lat": 0.0, "name": "eec122eeb6f2ea7c4b39b2cfc87ac691", "is_reserved": 0, "rental_uris": {"android": "https://dc.lft.to/lastmile_qr_scan", "ios": "https://dc.lft.to/lastmile_qr_scan"}, "fusion_lon": 0.0}, {"lat": 38.87151216666667, "is_disabled": 0, "type": "electric_bike", "lon": -76.93650633333333, "bike_id": "90b8b8ace657bc2648030cc89d6853e6", "fusion_lat": 0.0, "name": "90b8b8ace657bc2648030cc89d6853e6", "is_reserved": 0, "rental_uris": {"android": "https://dc.lft.to/lastmile_qr_scan", "ios": "https://dc.lft.to/lastmile_qr_scan"}, "fusion_lon": 0.0}, {"lat": 38.921615333333335, "is_disabled": 0, "type": "electric_scooter", "lon": -77.040205, "bike_id": "0a6eb54cbafc9cbcb825bdb2c0e347a2", "fusion_lat": 0.0, "name": "0a6eb54cbafc9cbcb825bdb2c0e347a2", "is_reserved": 0, "rental_uris": {"android": "https://dc.lft.to/lastmile_qr_scan", "ios": "https://dc.lft.to/lastmile_qr_scan"}, "fusion_lon": 0.0}, {"lat": 38.8836525, "is_disabled": 0, "type": "electric_scooter", "lon": -76.99507766666666, "bike_id": "a7d9f1a7f84a8c32066794b8b2e7fcb1", "fusion_lat": 0.0, "name": "a7d9f1a7f84a8c32066794b8b2e7fcb1", "is_reserved": 0, "rental_uris": {"android": "https://dc.lft.to/lastmile_qr_scan", "ios": "https://dc.lft.to/lastmile_qr_scan"}, "fusion_lon": 0.0}, {"lat": 38.89485666666667, "is_disabled": 0, "type": "electric_scooter", "lon": -76.99497583333333, "bike_id": "913a14bd002d33dd51c29f4c0854d378", "fusion_lat": 0.0, "name": "913a14bd002d33dd51c29f4c0854d378", "is_reserved": 0, "rental_uris": {"android": "https://dc.lft.to/lastmile_qr_scan", "ios": "https://dc.lft.to/lastmile_qr_scan"}, "fusion_lon": 0.0}, {"lat": 38.892228333333335, "is_disabled": 0, "type": "electric_scooter", "lon": -77.04514, "bike_id": "4a54689c83835741a9cf54b9a49c5367", "fusion_lat": 0.0, "name": "4a54689c83835741a9cf54b9a49c5367", "is_reserved": 0, "rental_uris": {"android": "https://dc.lft.to/lastmile_qr_scan", "ios": "https://dc.lft.to/lastmile_qr_scan"}, "fusion_lon": 0.0}, {"lat": 38.895667333333336, "is_disabled": 0, "type": "electric_scooter", "lon": -76.93040716666667, "bike_id": "9c6abade41578204092ea05118eeebba", "fusion_lat": 0.0, "name": "9c6abade41578204092ea05118eeebba", "is_reserved": 0, "rental_uris": {"android": "https://dc.lft.to/lastmile_qr_scan", "ios": "https://dc.lft.to/lastmile_qr_scan"}, "fusion_lon": 0.0}, {"lat": 38.893913, "is_disabled": 0, "type": "electric_scooter", "lon": -76.94998383333333, "bike_id": "36872e7155b3a2a6287bd6076f157ee7", "fusion_lat": 0.0, "name": "36872e7155b3a2a6287bd6076f157ee7", "is_reserved": 0, "rental_uris": {"android": "https://dc.lft.to/lastmile_qr_scan", "ios": "https://dc.lft.to/lastmile_qr_scan"}, "fusion_lon": 0.0}, {"lat": 38.90361266666667, "is_disabled": 0, "type": "electric_scooter", "lon": -77.0446615, "bike_id": "e4997aee2d32613c29d985f0808d673f", "fusion_lat": 0.0, "name": "e4997aee2d32613c29d985f0808d673f", "is_reserved": 0, "rental_uris": {"android": "https://dc.lft.to/lastmile_qr_scan", "ios": "https://dc.lft.to/lastmile_qr_scan"}, "fusion_lon": 0.0}, {"lat": 38.906269333333334, "is_disabled": 0, "type": "electric_scooter", "lon": -77.03154233333333, "bike_id": "eaef29d2ff1cb7448b2834ffecc2acc2", "fusion_lat": 0.0, "name": "eaef29d2ff1cb7448b2834ffecc2acc2", "is_reserved": 0, "rental_uris": {"android": "https://dc.lft.to/lastmile_qr_scan", "ios": "https://dc.lft.to/lastmile_qr_scan"}, "fusion_lon": 0.0}, {"lat": 38.89906533333333, "is_disabled": 0, "type": "electric_scooter", "lon": -76.9334905, "bike_id": "95506ea40ce3e007b901b93d1f686baa", "fusion_lat": 0.0, "name": "95506ea40ce3e007b901b93d1f686baa", "is_reserved": 0, "rental_uris": {"android": "https://dc.lft.to/lastmile_qr_scan", "ios": "https://dc.lft.to/lastmile_qr_scan"}, "fusion_lon": 0.0}, {"lat": 38.91410966666667, "is_disabled": 0, "type": "electric_scooter", "lon": -77.02953316666667, "bike_id": "64d6dfa93d62ebae84e413127056e0e7", "fusion_lat": 0.0, "name": "64d6dfa93d62ebae84e413127056e0e7", "is_reserved": 0, "rental_uris": {"android": "https://dc.lft.to/lastmile_qr_scan", "ios": "https://dc.lft.to/lastmile_qr_scan"}, "fusion_lon": 0.0}, {"lat": 38.909435, "is_disabled": 0, "type": "electric_bike", "lon": -76.99906733333333, "bike_id": "d176ddb73abfa977870cfb38b7c0ba16", "fusion_lat": 0.0, "name": "d176ddb73abfa977870cfb38b7c0ba16", "is_reserved": 0, "rental_uris": {"android": "https://dc.lft.to/lastmile_qr_scan", "ios": "https://dc.lft.to/lastmile_qr_scan"}, "fusion_lon": 0.0}, {"lat": 38.93362783333333, "is_disabled": 0, "type": "electric_scooter", "lon": -77.0571835, "bike_id": "ecd8ce8dddeefdd8c0a246897018e22e", "fusion_lat": 0.0, "name": "ecd8ce8dddeefdd8c0a246897018e22e", "is_reserved": 0, "rental_uris": {"android": "https://dc.lft.to/lastmile_qr_scan", "ios": "https://dc.lft.to/lastmile_qr_scan"}, "fusion_lon": 0.0}, {"lat": 38.93951216666667, "is_disabled": 0, "type": "electric_bike", "lon": -77.36100766666667, "bike_id": "b7345fa8ea2ec6fb3ced8a5a355de9d8", "fusion_lat": 0.0, "name": "b7345fa8ea2ec6fb3ced8a5a355de9d8", "is_reserved": 0, "rental_uris": {"android": "https://dc.lft.to/lastmile_qr_scan", "ios": "https://dc.lft.to/lastmile_qr_scan"}, "fusion_lon": 0.0}, {"lat": 38.98384033333333, "is_disabled": 0, "type": "electric_bike", "lon": -77.0053745, "bike_id": "c9314bb714f860ebd4ea59a05bd29707", "fusion_lat": 0.0, "name": "c9314bb714f860ebd4ea59a05bd29707", "is_reserved": 0, "rental_uris": {"android": "https://dc.lft.to/lastmile_qr_scan", "ios": "https://dc.lft.to/lastmile_qr_scan"}, "fusion_lon": 0.0}, {"lat": 38.918281, "is_disabled": 0, "type": "electric_scooter", "lon": -77.0320915, "bike_id": "5f5a6f09d8a89367d8759e8cf7a949c5", "fusion_lat": 0.0, "name": "5f5a6f09d8a89367d8759e8cf7a949c5", "is_reserved": 0, "rental_uris": {"android": "https://dc.lft.to/lastmile_qr_scan", "ios": "https://dc.lft.to/lastmile_qr_scan"}, "fusion_lon": 0.0}, {"lat": 38.8922045, "is_disabled": 0, "type": "electric_scooter", "lon": -77.04197633333334, "bike_id": "b47640e416307bf2b12dd619687604d3", "fusion_lat": 0.0, "name": "b47640e416307bf2b12dd619687604d3", "is_reserved": 0, "rental_uris": {"android": "https://dc.lft.to/lastmile_qr_scan", "ios": "https://dc.lft.to/lastmile_qr_scan"}, "fusion_lon": 0.0}, {"lat": 38.900439666666664, "is_disabled": 0, "type": "electric_scooter", "lon": -77.02620283333333, "bike_id": "a8866dbb9386e6e60a90498c1ad4291e", "fusion_lat": 0.0, "name": "a8866dbb9386e6e60a90498c1ad4291e", "is_reserved": 0, "rental_uris": {"android": "https://dc.lft.to/lastmile_qr_scan", "ios": "https://dc.lft.to/lastmile_qr_scan"}, "fusion_lon": 0.0}, {"lat": 38.9529625, "is_disabled": 0, "type": "electric_bike", "lon": -76.94601933333334, "bike_id": "e7012ed35cdc01659c0dc24b9a54c988", "fusion_lat": 0.0, "name": "e7012ed35cdc01659c0dc24b9a54c988", "is_reserved": 0, "rental_uris": {"android": "https://dc.lft.to/lastmile_qr_scan", "ios": "https://dc.lft.to/lastmile_qr_scan"}, "fusion_lon": 0.0}, {"lat": 38.922602833333336, "is_disabled": 0, "type": "electric_scooter", "lon": -77.04694733333334, "bike_id": "3154dec4684ae085ad8adf9e14e26dd0", "fusion_lat": 0.0, "name": "3154dec4684ae085ad8adf9e14e26dd0", "is_reserved": 0, "rental_uris": {"android": "https://dc.lft.to/lastmile_qr_scan", "ios": "https://dc.lft.to/lastmile_qr_scan"}, "fusion_lon": 0.0}, {"lat": 38.8665655, "is_disabled": 0, "type": "electric_scooter", "lon": -76.98882716666667, "bike_id": "ecede898617037d22b9a152a35fc5012", "fusion_lat": 0.0, "name": "ecede898617037d22b9a152a35fc5012", "is_reserved": 0, "rental_uris": {"android": "https://dc.lft.to/lastmile_qr_scan", "ios": "https://dc.lft.to/lastmile_qr_scan"}, "fusion_lon": 0.0}, {"lat": 38.907322, "is_disabled": 0, "type": "electric_scooter", "lon": -76.93545566666667, "bike_id": "b061f60108364aec48bebbc76af9d503", "fusion_lat": 0.0, "name": "b061f60108364aec48bebbc76af9d503", "is_reserved": 0, "rental_uris": {"android": "https://dc.lft.to/lastmile_qr_scan", "ios": "https://dc.lft.to/lastmile_qr_scan"}, "fusion_lon": 0.0}, {"lat": 38.90328483333333, "is_disabled": 0, "type": "electric_scooter", "lon": -76.975987, "bike_id": "24c419808817a9aa88043dfa509f2386", "fusion_lat": 0.0, "name": "24c419808817a9aa88043dfa509f2386", "is_reserved": 0, "rental_uris": {"android": "https://dc.lft.to/lastmile_qr_scan", "ios": "https://dc.lft.to/lastmile_qr_scan"}, "fusion_lon": 0.0}, {"lat": 38.91557666666667, "is_disabled": 0, "type": "electric_scooter", "lon": -77.03165116666666, "bike_id": "ad32c1a09812b9e629952416e8399704", "fusion_lat": 0.0, "name": "ad32c1a09812b9e629952416e8399704", "is_reserved": 0, "rental_uris": {"android": "https://dc.lft.to/lastmile_qr_scan", "ios": "https://dc.lft.to/lastmile_qr_scan"}, "fusion_lon": 0.0}, {"lat": 38.806810666666664, "is_disabled": 0, "type": "electric_bike", "lon": -77.081199, "bike_id": "15d192130aedfa162f6a9de86d167ed3", "fusion_lat": 0.0, "name": "15d192130aedfa162f6a9de86d167ed3", "is_reserved": 0, "rental_uris": {"android": "https://dc.lft.to/lastmile_qr_scan", "ios": "https://dc.lft.to/lastmile_qr_scan"}, "fusion_lon": 0.0},