{"data": {"bikes": [{"rental_uris": {"ios": "https://dc.lft.to/lastmile_qr_scan", "android": "https://dc.lft.to/lastmile_qr_scan"}, "lon": -77.023432, "type": "electric_scooter", "fusion_lat": 0.0, "lat": 38.9620815, "name": "44696001bf16d29991f9400c3409616c", "fusion_lon": 0.0, "bike_id": "44696001bf16d29991f9400c3409616c", "is_disabled": 0, "is_reserved": 0}, {"rental_uris": {"ios": "https://dc.lft.to/lastmile_qr_scan", "android": "https://dc.lft.to/lastmile_qr_scan"}, "lon": -77.12503183333334, "type": "electric_bike", "fusion_lat": 0.0, "lat": 39.02417283333333, "name": "b1c80d93baf5e0b1f6dede848aa988c4", "fusion_lon": 0.0, "bike_id": "b1c80d93baf5e0b1f6dede848aa988c4", "is_disabled": 0, "is_reserved": 0}, {"rental_uris": {"ios": "https://dc.lft.to/lastmile_qr_scan", "android": "https://dc.lft.to/lastmile_qr_scan"}, "lon": -77.00590516666666, "type": "electric_scooter", "fusion_lat": 0.0, "lat": 38.91565416666667, "name": "e68ed64077c0840b94a4f4b077e7d353", "fusion_lon": 0.0, "bike_id": "e68ed64077c0840b94a4f4b077e7d353", "is_disabled": 0, "is_reserved": 0}, {"rental_uris": {"ios": "https://dc.lft.to/lastmile_qr_scan", "android": "https://dc.lft.to/lastmile_qr_scan"}, "lon": -77.026104, "type": "electric_scooter", "fusion_lat": 0.0, "lat": 38.90349416666667, "name": "2e5dad31d32023f3e8c0c1bf7804d0a8", "fusion_lon": 0.0, "bike_id": "2e5dad31d32023f3e8c0c1bf7804d0a8", "is_disabled": 0, "is_reserved": 0}, {"rental_uris": {"ios": "https://dc.lft.to/lastmile_qr_scan", "android": "https://dc.lft.to/lastmile_qr_scan"}, "lon": -77.022874, "type": "electric_scooter", "fusion_lat": 0.0, "lat": 38.91569333333333, "name": "9d4eef1de29ce68baf19f59a80bcbd1f", "fusion_lon": 0.0, "bike_id": "9d4eef1de29ce68baf19f59a80bcbd1f", "is_disabled": 0, "is_reserved": 0}, {"rental_uris": {"ios": "https://dc.lft.to/lastmile_qr_scan", "android": "https://dc.lft.to/lastmile_qr_scan"}, "lon": -77.04182216666666, "type": "electric_scooter", "fusion_lat": 0.0, "lat": 38.90755983333333, "name": "d6aceb87d88b3a6c7db57060a96c97f0", "fusion_lon": 0.0, "bike_id": "d6aceb87d88b3a6c7db57060a96c97f0", "is_disabled": 0, "is_reserved": 0}, {"rental_uris": {"ios": "https://dc.lft.to/lastmile_qr_scan", "android": "https://dc.lft.to/lastmile_qr_scan"}, "lon": -77.22211916666667, "type": "electric_bike", "fusion_lat": 0.0, "lat": 38.9208035, "name": "5f490a51b1534deddb75cc6462fa7746", "fusion_lon": 0.0, "bike_id": "5f490a51b1534deddb75cc6462fa7746", "is_disabled": 0, "is_reserved": 0}, {"rental_uris": {"ios": "https://dc.lft.to/lastmile_qr_scan", "android": "https://dc.lft.to/lastmile_qr_scan"}, "lon": -77.04382266666667, "type": "electric_scooter", "fusion_lat": 0.0, "lat": 38.929436833333334, "name": "dcbd0788b67046bd02b1e1a8385bdf5e", "fusion_lon": 0.0, "bike_id": "dcbd0788b67046bd02b1e1a8385bdf5e", "is_disabled": 0, "is_reserved": 0}, {"rental_uris": {"ios": "https://dc.lft.to/lastmile_qr_scan", "android": "https://dc.lft.to/lastmile_qr_scan"}, "lon": -77.03081183333333, "type": "electric_scooter", "fusion_lat": 0.0, "lat": 38.9224035, "name": "8eb4b61fee330909d04bb8122f40ee38", "fusion_lon": 0.0, "bike_id": "8eb4b61fee330909d04bb8122f40ee38", "is_disabled": 0, "is_reserved": 0}, {"rental_uris": {"ios": "https://dc.lft.to/lastmile_qr_scan", "android": "https://dc.lft.to/lastmile_qr_scan"}, "lon": -77.04355916666667, "type": "electric_scooter", "fusion_lat": 0.0, "lat": 38.9071935, "name": "cf5da03e4f3ea8b657a9086e9fa04c44", "fusion_lon": 0.0, "bike_id": "cf5da03e4f3ea8b657a9086e9fa04c44", "is_disabled": 0, "is_reserved": 0}, {"rental_uris": {"ios": "https://dc.lft.to/lastmile_qr_scan", "android": "https://dc.lft.to/lastmile_qr_scan"}, "lon": -77.031772, "type": "electric_scooter", "fusion_lat": 0.0, "lat": 38.913496, "name": "0301f7208dd1360424fd59c3df1a1ee6", "fusion_lon": 0.0, "bike_id": "0301f7208dd1360424fd59c3df1a1ee6", "is_disabled": 0, "is_reserved": 0}, {"rental_uris": {"ios": "https://dc.lft.to/lastmile_qr_scan", "android": "https://dc.lft.to/lastmile_qr_scan"}, "lon": -77.028443, "type": "electric_scooter", "fusion_lat": 0.0, "lat": 38.93075616666667, "name": "2e9f04c87bb99fa0ee1a0439973a2e89", "fusion_lon": 0.0, "bike_id": "2e9f04c87bb99fa0ee1a0439973a2e89", "is_disabled": 0, "is_reserved": 0}, {"rental_uris": {"ios": "https://dc.lft.to/lastmile_qr_scan", "android": "https://dc.lft.to/lastmile_qr_scan"}, "lon": -77.0389695, "type": "electric_scooter", "fusion_lat": 0.0, "lat": 38.923311166666664, "name": "e9d4647a87909be2484475ace40f16fb", "fusion_lon": 0.0, "bike_id": "e9d4647a87909be2484475ace40f16fb", "is_disabled": 0, "is_reserved": 0}, {"rental_uris": {"ios": "https://dc.lft.to/lastmile_qr_scan", "android": "https://dc.lft.to/lastmile_qr_scan"}, "lon": -77.04036066666667, "type": "electric_scooter", "fusion_lat": 0.0, "lat": 38.9243355, "name": "eb773f52d1f6f140a0bd6336fff22184", "fusion_lon": 0.0, "bike_id": "eb773f52d1f6f140a0bd6336fff22184", "is_disabled": 0, "is_reserved": 0}, {"rental_uris": {"ios": "https://dc.lft.to/lastmile_qr_scan", "android": "https://dc.lft.to/lastmile_qr_scan"}, "lon": -77.0441065, "type": "electric_scooter", "fusion_lat": 0.0, "lat": 38.9091345, "name": "0f1b635691e3080c8eaaa7175e3fa2ad", "fusion_lon": 0.0, "bike_id": "0f1b635691e3080c8eaaa7175e3fa2ad", "is_disabled": 0, "is_reserved": 0}, {"rental_uris": {"ios": "https://dc.lft.to/lastmile_qr_scan", "android": "https://dc.lft.to/lastmile_qr_scan"}, "lon": -77.04350083333334, "type": "electric_scooter", "fusion_lat": 0.0, "lat": 38.8966555, "name": "74c24d59eddde9ada22bdc26f190db60", "fusion_lon": 0.0, "bike_id": "74c24d59eddde9ada22bdc26f190db60", "is_disabled": 0, "is_reserved": 0}, {"rental_uris": {"ios": "https://dc.lft.to/lastmile_qr_scan", "android": "https://dc.lft.to/lastmile_qr_scan"}, "lon": -77.04453933333333, "type": "electric_scooter", "fusion_lat": 0.0, "lat": 38.919381666666666, "name": "b3c7b27d198be07733d3b9880ee8e4eb", "fusion_lon": 0.0, "bike_id": "b3c7b27d198be07733d3b9880ee8e4eb", "is_disabled": 0, "is_reserved": 0}, {"rental_uris": {"ios": "https://dc.lft.to/lastmile_qr_scan", "android": "https://dc.lft.to/lastmile_qr_scan"}, "lon": -77.03815733333333, "type": "electric_scooter", "fusion_lat": 0.0, "lat": 38.9069065, "name": "3a0d923cc6755ef141ef33a9a6e53c0a", "fusion_lon": 0.0, "bike_id": "3a0d923cc6755ef141ef33a9a6e53c0a", "is_disabled": 0, "is_reserved": 0}, {"rental_uris": {"ios": "https://dc.lft.to/lastmile_qr_scan", "android": "https://dc.lft.to/lastmile_qr_scan"}, "lon": -77.03068833333333, "type": "electric_scooter", "fusion_lat": 0.0, "lat": 38.899665, "name": "d5118b820283e8fd7ce09c0ca1924fc7", "fusion_lon": 0.0, "bike_id": "d5118b820283e8fd7ce09c0ca1924fc7", "is_disabled": 0, "is_reserved": 0}, {"rental_uris": {"ios": "https://dc.lft.to/lastmile_qr_scan", "android": "https://dc.lft.to/lastmile_qr_scan"}, "lon": -77.03329616666667, "type": "electric_scooter", "fusion_lat": 0.0, "lat": 38.898497166666665, "name": "af80a434d64414357a5209aaba05ee22", "fusion_lon": 0.0, "bike_id": "af80a434d64414357a5209aaba05ee22", "is_disabled": 0, "is_reserved": 0}, {"rental_uris": {"ios": "https://dc.lft.to/lastmile_qr_scan", "android": "https://dc.lft.to/lastmile_qr_scan"}, "lon": -77.038057, "type": "electric_scooter", "fusion_lat": 0.0, "lat": 38.912277833333334, "name": "faabd0bec9318e3f150b98ef845b0b2d", "fusion_lon": 0.0, "bike_id": "faabd0bec9318e3f150b98ef845b0b2d", "is_disabled": 0, "is_reserved": 0}, {"rental_uris": {"ios": "https://dc.lft.to/lastmile_qr_scan", "android": "https://dc.lft.to/lastmile_qr_scan"}, "lon": -77.0639035, "type": "electric_scooter", "fusion_lat": 0.0, "lat": 38.90836483333333, "name": "40246afa124cd8ff9aae8aa6d02d206c", "fusion_lon": 0.0, "bike_id": "40246afa124cd8ff9aae8aa6d02d206c", "is_disabled": 0, "is_reserved": 0}, {"rental_uris": {"ios": "https://dc.lft.to/lastmile_qr_scan", "android": "https://dc.lft.to/lastmile_qr_scan"}, "lon": -77.0272265, "type": "electric_scooter", "fusion_lat": 0.0, "lat": 38.93788583333333, "name": "283c62ca09f57302dcd7a574a43a522d", "fusion_lon": 0.0, "bike_id": "283c62ca09f57302dcd7a574a43a522d", "is_disabled": 0, "is_reserved": 0}, {"rental_uris": {"ios": "https://dc.lft.to/lastmile_qr_scan", "android": "https://dc.lft.to/lastmile_qr_scan"}, "lon": -77.0193785, "type": "electric_scooter", "fusion_lat": 0.0, "lat": 38.94928133333333, "name": "6e08dd1c5b9a896aa1be6efd573826de", "fusion_lon": 0.0, "bike_id": "6e08dd1c5b9a896aa1be6efd573826de", "is_disabled": 0, "is_reserved": 0}, {"rental_uris": {"ios": "https://dc.lft.to/lastmile_qr_scan", "android": "https://dc.lft.to/lastmile_qr_scan"}, "lon": -77.03862316666667, "type": "electric_scooter", "fusion_lat": 0.0, "lat": 38.912432333333335, "name": "72d914a58395a59069f8374acdfb0c0b", "fusion_lon": 0.0, "bike_id": "72d914a58395a59069f8374acdfb0c0b", "is_disabled": 0, "is_reserved": 0}, {"rental_uris": {"ios": "https://dc.lft.to/lastmile_qr_scan", "android": "https://dc.lft.to/lastmile_qr_scan"}, "lon": -77.032043, "type": "electric_scooter", "fusion_lat": 0.0, "lat": 38.91760416666666, "name": "a5a36175e30a2b919cceb3bf0e73c600", "fusion_lon": 0.0, "bike_id": "a5a36175e30a2b919cceb3bf0e73c600", "is_disabled": 0, "is_reserved": 0}, {"rental_uris": {"ios": "https://dc.lft.to/lastmile_qr_scan", "android": "https://dc.lft.to/lastmile_qr_scan"}, "lon": -77.02204883333333, "type": "electric_scooter", "fusion_lat": 0.0, "lat": 38.915499, "name": "0503f2a6097fbbfb5fb00125fd354cf1", "fusion_lon": 0.0, "bike_id": "0503f2a6097fbbfb5fb00125fd354cf1", "is_disabled": 0, "is_reserved": 0}, {"rental_uris": {"ios": "https://dc.lft.to/lastmile_qr_scan", "android": "https://dc.lft.to/lastmile_qr_scan"}, "lon": -76.999314, "type": "electric_scooter", "fusion_lat": 0.0, "lat": 38.89616566666667, "name": "7bea9fc9ab6fe513153924d056a5602f", "fusion_lon": 0.0, "bike_id": "7bea9fc9ab6fe513153924d056a5602f", "is_disabled": 0, "is_reserved": 0}, {"rental_uris": {"ios": "https://dc.lft.to/lastmile_qr_scan", "android": "https://dc.lft.to/lastmile_qr_scan"}, "lon": -77.01699366666666, "type": "electric_scooter", "fusion_lat": 0.0, "lat": 38.92030283333333, "name": "905192d7bef77dae8859183f10774ee7", "fusion_lon": 0.0, "bike_id": "905192d7bef77dae8859183f10774ee7", "is_disabled": 0, "is_reserved": 0}, {"rental_uris": {"ios": "https://dc.lft.to/lastmile_qr_scan", "android": "https://dc.lft.to/lastmile_qr_scan"}, "lon": -77.01857683333333, "type": "electric_scooter", "fusion_lat": 0.0, "lat": 38.9400315, "name": "a74a34f8bdf1724e20c3d89c467e50e9", "fusion_lon": 0.0, "bike_id": "a74a34f8bdf1724e20c3d89c467e50e9", "is_disabled": 0, "is_reserved": 0}, {"rental_uris": {"ios": "https://dc.lft.to/lastmile_qr_scan", "android": "https://dc.lft.to/lastmile_qr_scan"}, "lon": -77.04572666666667, "type": "electric_scooter", "fusion_lat": 0.0, "lat": 38.910496, "name": "d49d37bda3a8b8691c59b44922781aa0", "fusion_lon": 0.0, "bike_id": "d49d37bda3a8b8691c59b44922781aa0", "is_disabled": 0, "is_reserved": 0}, {"rental_uris": {"ios": "https://dc.lft.to/lastmile_qr_scan", "android": "https://dc.lft.to/lastmile_qr_scan"}, "lon": -77.02407933333333, "type": "electric_scooter", "fusion_lat": 0.0, "lat": 38.9110545, "name": "91f3b031ccd54e161451594d923b2e45", "fusion_lon": 0.0, "bike_id": "91f3b031ccd54e161451594d923b2e45", "is_disabled": 0, "is_reserved": 0}, {"rental_uris": {"ios": "https://dc.lft.to/lastmile_qr_scan", "android": "https://dc.lft.to/lastmile_qr_scan"}, "lon": -77.0319215, "type": "electric_scooter", "fusion_lat": 0.0, "lat": 38.91797366666667, "name": "4ccc7ab49d6761484aa359577563fd0e", "fusion_lon": 0.0, "bike_id": "4ccc7ab49d6761484aa359577563fd0e", "is_disabled": 0, "is_reserved": 0}, {"rental_uris": {"ios": "https://dc.lft.to/lastmile_qr_scan", "android": "https://dc.lft.to/lastmile_qr_scan"}, "lon": -77.0386925, "type": "electric_scooter", "fusion_lat": 0.0, "lat": 38.932470333333335, "name": "b4d2a16a83a21b30feaeed0077dd17f4", "fusion_lon": 0.0, "bike_id": "b4d2a16a83a21b30feaeed0077dd17f4", "is_disabled": 0, "is_reserved": 0}, {"rental_uris": {"ios": "https://dc.lft.to/lastmile_qr_scan", "android": "https://dc.lft.to/lastmile_qr_scan"}, "lon": -77.02545366666666, "type": "electric_scooter", "fusion_lat": 0.0, "lat": 38.92741866666667, "name": "07ec83ebf446cf91e661b01ca2e26a35", "fusion_lon": 0.0, "bike_id": "07ec83ebf446cf91e661b01ca2e26a35", "is_disabled": 0, "is_reserved": 0}, {"rental_uris": {"ios": "https://dc.lft.to/lastmile_qr_scan", "android": "https://dc.lft.to/lastmile_qr_scan"}, "lon": -77.03038383333333, "type": "electric_scooter", "fusion_lat": 0.0, "lat": 38.91698616666667, "name": "9e863b43cacf03490fc0e61ee584582b", "fusion_lon": 0.0, "bike_id": "9e863b43cacf03490fc0e61ee584582b", "is_disabled": 0, "is_reserved": 0}, {"rental_uris": {"ios": "https://dc.lft.to/lastmile_qr_scan", "android": "https://dc.lft.to/lastmile_qr_scan"}, "lon": -77.02834483333334, "type": "electric_scooter", "fusion_lat": 0.0, "lat": 38.88769116666667, "name": "be484247bb6d699255a30d5fad5b8176", "fusion_lon": 0.0, "bike_id": "be484247bb6d699255a30d5fad5b8176", "is_disabled": 0, "is_reserved": 0}, {"rental_uris": {"ios": "https://dc.lft.to/lastmile_qr_scan", "android": "https://dc.lft.to/lastmile_qr_scan"}, "lon": -77.0129695, "type": "electric_scooter", "fusion_lat": 0.0, "lat": 38.90054333333333, "name": "3f28d29280f4f71b7af63be6c35d5c45", "fusion_lon": 0.0, "bike_id": "3f28d29280f4f71b7af63be6c35d5c45", "is_disabled": 0, "is_reserved": 0}, {"rental_uris": {"ios": "https://dc.lft.to/lastmile_qr_scan", "android": "https://dc.lft.to/lastmile_qr_scan"}, "lon": -77.0382945, "type": "electric_scooter", "fusion_lat": 0.0, "lat": 38.90779366666666, "name": "6821f634fb1c4e29b54e979ca3d24b77", "fusion_lon": 0.0, "bike_id": "6821f634fb1c4e29b54e979ca3d24b77", "is_disabled": 0, "is_reserved": 0}, {"rental_uris": {"ios": "https://dc.lft.to/lastmile_qr_scan", "android": "https://dc.lft.to/lastmile_qr_scan"}, "lon": -77.03900266666666, "type": "electric_scooter", "fusion_lat": 0.0, "lat": 38.9222305, "name": "3b322466fa4fee4b69a120bed1f50751", "fusion_lon": 0.0, "bike_id": "3b322466fa4fee4b69a120bed1f50751", "is_disabled": 0, "is_reserved": 0}, {"rental_uris": {"ios": "https://dc.lft.to/lastmile_qr_scan", "android": "https://dc.lft.to/lastmile_qr_scan"}, "lon": -77.0444555, "type": "electric_scooter", "fusion_lat": 0.0, "lat": 38.91882116666667, "name": "56f0011c0e8a7f3246a1a6e6d972eb5d", "fusion_lon": 0.0, "bike_id": "56f0011c0e8a7f3246a1a6e6d972eb5d", "is_disabled": 0, "is_reserved": 0}, {"rental_uris": {"ios": "https://dc.lft.to/lastmile_qr_scan", "android": "https://dc.lft.to/lastmile_qr_scan"}, "lon": -77.04006233333334, "type": "electric_scooter", "fusion_lat": 0.0, "lat": 38.88894716666667, "name": "6445bd461f082010bf3505ed96931366", "fusion_lon": 0.0, "bike_id": "6445bd461f082010bf3505ed96931366", "is_disabled": 0, "is_reserved": 0}, {"rental_uris": {"ios": "https://dc.lft.to/lastmile_qr_scan", "android": "https://dc.lft.to/lastmile_qr_scan"}, "lon": -77.0451785, "type": "electric_scooter", "fusion_lat": 0.0, "lat": 38.909702, "name": "e4a3cb17edc7aaea2724ac5fbc42c44e", "fusion_lon": 0.0, "bike_id": "e4a3cb17edc7aaea2724ac5fbc42c44e", "is_disabled": 0, "is_reserved": 0}, {"rental_uris": {"ios": "https://dc.lft.to/lastmile_qr_scan", "android": "https://dc.lft.to/lastmile_qr_scan"}, "lon": -77.031871, "type": "electric_scooter", "fusion_lat": 0.0, "lat": 38.913070166666664, "name": "98d5d83c5f020c16e5932eb99cec519b", "fusion_lon": 0.0, "bike_id": "98d5d83c5f020c16e5932eb99cec519b", "is_disabled": 0, "is_reserved": 0}, {"rental_uris": {"ios": "https://dc.lft.to/lastmile_qr_scan", "android": "https://dc.lft.to/lastmile_qr_scan"}, "lon": -77.043598, "type": "electric_scooter", "fusion_lat": 0.0, "lat": 38.90257366666667, "name": "e336d1ba58b2d1de4d1424a8d339df50", "fusion_lon": 0.0, "bike_id": "e336d1ba58b2d1de4d1424a8d339df50", "is_disabled": 0, "is_reserved": 0}, {"rental_uris": {"ios": "https://dc.lft.to/lastmile_qr_scan", "android": "https://dc.lft.to/lastmile_qr_scan"}, "lon": -77.02797783333334, "type": "electric_scooter", "fusion_lat": 0.0, "lat": 38.894073166666665, "name": "866fea43ca739680df6b61bc2a6f612d", "fusion_lon": 0.0, "bike_id": "866fea43ca739680df6b61bc2a6f612d", "is_disabled": 0, "is_reserved": 0}, {"rental_uris": {"ios": "https://dc.lft.to/lastmile_qr_scan", "android": "https://dc.lft.to/lastmile_qr_scan"}, "lon": -77.03827016666666, "type": "electric_scooter", "fusion_lat": 0.0, "lat": 38.920642, "name": "61a06dad2b215be49fd71a20f2952554", "fusion_lon": 0.0, "bike_id": "61a06dad2b215be49fd71a20f2952554", "is_disabled": 0, "is_reserved": 0}, {"rental_uris": {"ios": "https://dc.lft.to/lastmile_qr_scan", "android": "https://dc.lft.to/lastmile_qr_scan"}, "lon": -77.03563766666667, "type": "electric_scooter", "fusion_lat": 0.0, "lat": 38.91813066666667, "name": "3d9e73cf81814977025b1300c3ed12bc", "fusion_lon": 0.0, "bike_id": "3d9e73cf81814977025b1300c3ed12bc", "is_disabled": 0, "is_reserved": 0}, {"rental_uris": {"ios": "https://dc.lft.to/lastmile_qr_scan", "android": "https://dc.lft.to/lastmile_qr_scan"}, "lon": -77.032145, "type": "electric_scooter", "fusion_lat": 0.0, "lat": 38.916962166666664, "name": "5e7c87cab6a091eb3fff853e59b7c33f", "fusion_lon": 0.0, "bike_id": "5e7c87cab6a091eb3fff853e59b7c33f", "is_disabled": 0, "is_reserved": 0}, {"rental_uris": {"ios": "https://dc.lft.to/lastmile_qr_scan", "android": "https://dc.lft.to/lastmile_qr_scan"}, "lon": -76.95821116666667, "type": "electric_scooter", "fusion_lat": 0.0, "lat": 38.890592, "name": "ebaf4af875bdb38a3a1c73535976b0d7", "fusion_lon": 0.0, "bike_id": "ebaf4af875bdb38a3a1c73535976b0d7", "is_disabled": 0, "is_reserved": 0}, {"rental_uris": {"ios": "https://dc.lft.to/lastmile_qr_scan", "android": "https://dc.lft.to/lastmile_qr_scan"}, "lon": -77.03186016666666, "type": "electric_scooter", "fusion_lat": 0.0, "lat": 38.91317466666667, "name": "54dbf4fbcf6909da8c1448b8ddc570ee", "fusion_lon": 0.0, "bike_id": "54dbf4fbcf6909da8c1448b8ddc570ee", "is_disabled": 0, "is_reserved": 0}, {"rental_uris": {"ios": "https://dc.lft.to/lastmile_qr_scan", "android": "https://dc.lft.to/lastmile_qr_scan"}, "lon": -77.09522933333334, "type": "electric_bike", "fusion_lat": 0.0, "lat": 38.83813516666667, "name": "e088eead821eb79499a8dcb5ea38f901", "fusion_lon": 0.0, "bike_id": "e088eead821eb79499a8dcb5ea38f901", "is_disabled": 0, "is_reserved": 0}, {"rental_uris": {"ios": "https://dc.lft.to/lastmile_qr_scan", "android": "https://dc.lft.to/lastmile_qr_scan"}, "lon": -77.033619, "type": "electric_scooter", "fusion_lat": 0.0, "lat": 38.885109666666665, "name": "24c632b3bd752edfcfc92dc8170a8bd2", "fusion_lon": 0.0, "bike_id": "24c632b3bd752edfcfc92dc8170a8bd2", "is_disabled": 0, "is_reserved": 0}, {"rental_uris": {"ios": "https://dc.lft.to/lastmile_qr_scan", "android": "https://dc.lft.to/lastmile_qr_scan"}, "lon": -77.0559515, "type": "electric_scooter", "fusion_lat": 0.0, "lat": 38.92779816666667, "name": "b513aa9632acad952872d2f48034a6e7", "fusion_lon": 0.0, "bike_id": "b513aa9632acad952872d2f48034a6e7", "is_disabled": 0, "is_reserved": 0}, {"rental_uris": {"ios": "https://dc.lft.to/lastmile_qr_scan", "android": "https://dc.lft.to/lastmile_qr_scan"}, "lon": -76.98998966666667, "type": "electric_scooter", "fusion_lat": 0.0, "lat": 38.9039165, "name": "7277df1d06584e0a0a842f1fe7588871", "fusion_lon": 0.0, "bike_id": "7277df1d06584e0a0a842f1fe7588871", "is_disabled": 0, "is_reserved": 0}, {"rental_uris": {"ios": "https://dc.lft.to/lastmile_qr_scan", "android": "https://dc.lft.to/lastmile_qr_scan"}, "lon": -77.01899666666667, "type": "electric_scooter", "fusion_lat": 0.0, "lat": 38.9035755, "name": "ca5e3af4895905fa5426d09eaed38a29", "fusion_lon": 0.0, "bike_id": "ca5e3af4895905fa5426d09eaed38a29", "is_disabled": 0, "is_reserved": 0}, {"rental_uris": {"ios": "https://dc.lft.to/lastmile_qr_scan", "android": "https://dc.lft.to/lastmile_qr_scan"}, "lon": -77.03745016666667, "type": "electric_scooter", "fusion_lat": 0.0, "lat": 38.912568, "name": "24374c14ce4e0c1d982a331ce3994ce1", "fusion_lon": 0.0, "bike_id": "24374c14ce4e0c1d982a331ce3994ce1", "is_disabled": 0, "is_reserved": 0}, {"rental_uris": {"ios": "https://dc.lft.to/lastmile_qr_scan", "android": "https://dc.lft.to/lastmile_qr_scan"}, "lon": -76.99843116666666, "type": "electric_scooter", "fusion_lat": 0.0, "lat": 38.90039383333333, "name": "06ae972a940763c96e8a8400eff66c15", "fusion_lon": 0.0, "bike_id": "06ae972a940763c96e8a8400eff66c15", "is_disabled": 0, "is_reserved": 0}, {"rental_uris": {"ios": "https://dc.lft.to/lastmile_qr_scan", "android": "https://dc.lft.to/lastmile_qr_scan"}, "lon": -77.05757566666666, "type": "electric_scooter", "fusion_lat": 0.0, "lat": 38.934167, "name": "815ff5f3c60d5df34d57bb5e9ee5c5c7", "fusion_lon": 0.0, "bike_id": "815ff5f3c60d5df34d57bb5e9ee5c5c7", "is_disabled": 0, "is_reserved": 0}, {"rental_uris": {"ios": "https://dc.lft.to/lastmile_qr_scan", "android": "https://dc.lft.to/lastmile_qr_scan"}, "lon": -77.030928, "type": "electric_scooter", "fusion_lat": 0.0, "lat": 38.91702933333333, "name": "4633fc3d4da55785be69add0651ad1d8", "fusion_lon": 0.0, "bike_id": "4633fc3d4da55785be69add0651ad1d8", "is_disabled": 0, "is_reserved": 0}, {"rental_uris": {"ios": "https://dc.lft.to/lastmile_qr_scan", "android": "https://dc.lft.to/lastmile_qr_scan"}, "lon": -77.059293, "type": "electric_scooter", "fusion_lat": 0.0, "lat": 38.90957016666667, "name": "31b51bfbb8a7e8ed87d2ddba967989d7", "fusion_lon": 0.0, "bike_id": "31b51bfbb8a7e8ed87d2ddba967989d7", "is_disabled": 0, "is_reserved": 0}, {"rental_uris": {"ios": "https://dc.lft.to/lastmile_qr_scan", "android": "https://dc.lft.to/lastmile_qr_scan"}, "lon": -77.01022283333333, "type": "electric_scooter", "fusion_lat": 0.0, "lat": 38.91812683333333, "name": "4f8fb15b4ee9296b4dba3c24e7d40d35", "fusion_lon": 0.0, "bike_id": "4f8fb15b4ee9296b4dba3c24e7d40d35", "is_disabled": 0, "is_reserved": 0}, {"rental_uris": {"ios": "https://dc.lft.to/lastmile_qr_scan", "android": "https://dc.lft.to/lastmile_qr_scan"}, "lon": -77.019896, "type": "electric_scooter", "fusion_lat": 0.0, "lat": 38.93779766666667, "name": "cb9281756663516c81ecb9297b33b52b", "fusion_lon": 0.0, "bike_id": "cb9281756663516c81ecb9297b33b52b", "is_disabled": 0, "is_reserved": 0}, {"rental_uris": {"ios": "https://dc.lft.to/lastmile_qr_scan", "android": "https://dc.lft.to/lastmile_qr_scan"}, "lon": -76.99553766666666, "type": "electric_scooter", "fusion_lat": 0.0, "lat": 38.86234916666667, "name": "b49faff4eee2265c9c87386428007655", "fusion_lon": 0.0, "bike_id": "b49faff4eee2265c9c87386428007655", "is_disabled": 0, "is_reserved": 0}, {"rental_uris": {"ios": "https://dc.lft.to/lastmile_qr_scan", "android": "https://dc.lft.to/lastmile_qr_scan"}, "lon": -76.98308433333334, "type": "electric_scooter", "fusion_lat": 0.0, "lat": 38.8997005, "name": "88449c1632c4fd6dbbcd2ecf017a7ab1", "fusion_lon": 0.0, "bike_id": "88449c1632c4fd6dbbcd2ecf017a7ab1", "is_disabled": 0, "is_reserved": 0}, {"rental_uris": {"ios": "https://dc.lft.to/lastmile_qr_scan", "android": "https://dc.lft.to/lastmile_qr_scan"}, "lon": -77.03470683333333, "type": "electric_scooter", "fusion_lat": 0.0, "lat": 38.934424166666666, "name": "c62eb969732e59fde293d5583557c64a", "fusion_lon": 0.0, "bike_id": "c62eb969732e59fde293d5583557c64a", "is_disabled": 0, "is_reserved": 0}, {"rental_uris": {"ios": "https://dc.lft.to/lastmile_qr_scan", "android": "https://dc.lft.to/lastmile_qr_scan"}, "lon": -77.03143783333333, "type": "electric_scooter", "fusion_lat": 0.0, "lat": 38.914066166666665, "name": "cf6f60a335e7464a9b5b8e21b0e7c7e0", "fusion_lon": 0.0, "bike_id": "cf6f60a335e7464a9b5b8e21b0e7c7e0", "is_disabled": 0, "is_reserved": 0}, {"rental_uris": {"ios": "https://dc.lft.to/lastmile_qr_scan", "android": "https://dc.lft.to/lastmile_qr_scan"}, "lon": -77.03121866666666, "type": "electric_scooter", "fusion_lat": 0.0, "lat": 38.9737915, "name": "315f696e9794c0dea062d78178505173", "fusion_lon": 0.0, "bike_id": "315f696e9794c0dea062d78178505173", "is_disabled": 0, "is_reserved": 0}, {"rental_uris": {"ios": "https://dc.lft.to/lastmile_qr_scan", "android": "https://dc.lft.to/lastmile_qr_scan"}, "lon": -77.130927, "type": "electric_bike", "fusion_lat": 0.0, "lat": 38.8616375, "name": "07f02dab2108507ff2374b293e8ac0ee", "fusion_lon": 0.0, "bike_id": "07f02dab2108507ff2374b293e8ac0ee", "is_disabled": 0, "is_reserved": 0}, {"rental_uris": {"ios": "https://dc.lft.to/lastmile_qr_scan", "android": "https://dc.lft.to/lastmile_qr_scan"}, "lon": -77.03184716666667, "type": "electric_scooter", "fusion_lat": 0.0, "lat": 38.9139705, "name": "7c1f8c92351eff6d002623d118635254", "fusion_lon": 0.0, "bike_id": "7c1f8c92351eff6d002623d118635254", "is_disabled": 0, "is_reserved": 0}, {"rental_uris": {"ios": "https://dc.lft.to/lastmile_qr_scan", "android": "https://dc.lft.to/lastmile_qr_scan"}, "lon": -77.03927933333334, "type": "electric_scooter", "fusion_lat": 0.0, "lat": 38.917554, "name": "0f3a9c44b97ef8fe0970a30324e6695f", "fusion_lon": 0.0, "bike_id": "0f3a9c44b97ef8fe0970a30324e6695f", "is_disabled": 0, "is_reserved": 0}, {"rental_uris": {"ios": "https://dc.lft.to/lastmile_qr_scan", "android": "https://dc.lft.to/lastmile_qr_scan"}, "lon": -77.03752333333334, "type": "electric_scooter", "fusion_lat": 0.0, "lat": 38.925938333333335, "name": "b413aa7834ea0d1a8fe802b459f0755d", "fusion_lon": 0.0, "bike_id": "b413aa7834ea0d1a8fe802b459f0755d", "is_disabled": 0, "is_reserved": 0}, {"rental_uris": {"ios": "https://dc.lft.to/lastmile_qr_scan", "android": "https://dc.lft.to/lastmile_qr_scan"}, "lon": -77.05598683333334, "type": "electric_scooter", "fusion_lat": 0.0, "lat": 38.9369595, "name": "c4d01a6d343349ffd287e8d53498c13f", "fusion_lon": 0.0, "bike_id": "c4d01a6d343349ffd287e8d53498c13f", "is_disabled": 0, "is_reserved": 0}, {"rental_uris": {"ios": "https://dc.lft.to/lastmile_qr_scan", "android": "https://dc.lft.to/lastmile_qr_scan"}, "lon": -77.04182933333334, "type": "electric_scooter", "fusion_lat": 0.0, "lat": 38.91860766666667, "name": "91ccbfd6d934ddd6746e660acbd4d909", "fusion_lon": 0.0, "bike_id": "91ccbfd6d934ddd6746e660acbd4d909", "is_disabled": 0, "is_reserved": 0}, {"rental_uris": {"ios": "https://dc.lft.to/lastmile_qr_scan", "android": "https://dc.lft.to/lastmile_qr_scan"}, "lon": -77.04704666666666, "type": "electric_scooter", "fusion_lat": 0.0, "lat": 38.9210405, "name": "8ccff1f28a0c70c4eedc1e08e0d5a888", "fusion_lon": 0.0, "bike_id": "8ccff1f28a0c70c4eedc1e08e0d5a888", "is_disabled": 0, "is_reserved": 0}, {"rental_uris": {"ios": "https://dc.lft.to/lastmile_qr_scan", "android": "https://dc.lft.to/lastmile_qr_scan"}, "lon": -77.0323375, "type": "electric_scooter", "fusion_lat": 0.0, "lat": 38.896391333333334, "name": "e22553627dd2ff856982312f331ca65c", "fusion_lon": 0.0, "bike_id": "e22553627dd2ff856982312f331ca65c", "is_disabled": 0, "is_reserved": 0}, {"rental_uris": {"ios": "https://dc.lft.to/lastmile_qr_scan", "android": "https://dc.lft.to/lastmile_qr_scan"}, "lon": -77.0241015, "type": "electric_bike", "fusion_lat": 0.0, "lat": 38.9346455, "name": "b78efb2144a8bd374e5df998c6b9621d", "fusion_lon": 0.0, "bike_id": "b78efb2144a8bd374e5df998c6b9621d", "is_disabled": 0, "is_reserved": 0}, {"rental_uris": {"ios": "https://dc.lft.to/lastmile_qr_scan", "android": "https://dc.lft.to/lastmile_qr_scan"}, "lon": -77.09163, "type": "electric_bike", "fusion_lat": 0.0, "lat": 38.967652333333334, "name": "e968f979503b0710716fb787a78205ab", "fusion_lon": 0.0, "bike_id": "e968f979503b0710716fb787a78205ab", "is_disabled": 0, "is_reserved": 0}, {"rental_uris": {"ios": "https://dc.lft.to/lastmile_qr_scan", "android": "https://dc.lft.to/lastmile_qr_scan"}, "lon": -77.04175133333334, "type": "electric_bike", "fusion_lat": 0.0, "lat": 38.920288, "name": "1190e54a61b017f9c81e724464b69044", "fusion_lon": 0.0, "bike_id": "1190e54a61b017f9c81e724464b69044", "is_disabled": 0, "is_reserved": 0}, {"rental_uris": {"ios": "https://dc.lft.to/lastmile_qr_scan", "android": "https://dc.lft.to/lastmile_qr_scan"}, "lon": -77.013355, "type": "electric_scooter", "fusion_lat": 0.0, "lat": 38.9661115, "name": "6e15008aaec8622e292d757d8ca6d393", "fusion_lon": 0.0, "bike_id": "6e15008aaec8622e292d757d8ca6d393", "is_disabled": 0, "is_reserved": 0}, {"rental_uris": {"ios": "https://dc.lft.to/lastmile_qr_scan", "android": "https://dc.lft.to/lastmile_qr_scan"}, "lon": -77.03799216666667, "type": "electric_scooter", "fusion_lat": 0.0, "lat": 38.93602516666667, "name": "2491bf30f7833f201737c67a91dab54a", "fusion_lon": 0.0, "bike_id": "2491bf30f7833f201737c67a91dab54a", "is_disabled": 0, "is_reserved": 0}, {"rental_uris": {"ios": "https://dc.lft.to/lastmile_qr_scan", "android": "https://dc.lft.to/lastmile_qr_scan"}, "lon": -77.04406433333334, "type": "electric_scooter", "fusion_lat": 0.0, "lat": 38.87428766666667, "name": "8db1a19c3d6b25f664482e50a2c37009", "fusion_lon": 0.0, "bike_id": "8db1a19c3d6b25f664482e50a2c37009", "is_disabled": 0, "is_reserved": 0}, {"rental_uris": {"ios": "https://dc.lft.to/lastmile_qr_scan", "android": "https://dc.lft.to/lastmile_qr_scan"}, "lon": -77.02326266666667, "type": "electric_scooter", "fusion_lat": 0.0, "lat": 38.883533166666666, "name": "26d687839fcfd635b53d93bc723478ac", "fusion_lon": 0.0, "bike_id": "26d687839fcfd635b53d93bc723478ac", "is_disabled": 0, "is_reserved": 0}, {"rental_uris": {"ios": "https://dc.lft.to/lastmile_qr_scan", "android": "https://dc.lft.to/lastmile_qr_scan"}, "lon": -77.03949366666667, "type": "electric_scooter", "fusion_lat": 0.0, "lat": 38.90261066666667, "name": "c35f27e733d23f12cf207ae854dc0d60", "fusion_lon": 0.0, "bike_id": "c35f27e733d23f12cf207ae854dc0d60", "is_disabled": 0, "is_reserved": 0}, {"rental_uris": {"ios": "https://dc.lft.to/lastmile_qr_scan", "android": "https://dc.lft.to/lastmile_qr_scan"}, "lon": -76.96175266666667, "type": "electric_bike", "fusion_lat": 0.0, "lat": 38.91862533333333, "name": "0b1fde8a0ea950f68e4e0d554c541e7f", "fusion_lon": 0.0, "bike_id": "0b1fde8a0ea950f68e4e0d554c541e7f", "is_disabled": 0, "is_reserved": 0}, {"rental_uris": {"ios": "https://dc.lft.to/lastmile_qr_scan", "android": "https://dc.lft.to/lastmile_qr_scan"}, "lon": -77.107081, "type": "electric_bike", "fusion_lat": 0.0, "lat": 38.855510333333335, "name": "77d30104f73f852052d89f0dd8324d96", "fusion_lon": 0.0, "bike_id": "77d30104f73f852052d89f0dd8324d96", "is_disabled": 0, "is_reserved": 0}, {"rental_uris": {"ios": "https://dc.lft.to/lastmile_qr_scan", "android": "https://dc.lft.to/lastmile_qr_scan"}, "lon": -77.06673933333333, "type": "electric_scooter", "fusion_lat": 0.0, "lat": 38.91404883333333, "name": "dccfc290db70f4bfa8865ab37e07ba27", "fusion_lon": 0.0, "bike_id": "dccfc290db70f4bfa8865ab37e07ba27", "is_disabled": 0, "is_reserved": 0}, {"rental_uris": {"ios": "https://dc.lft.to/lastmile_qr_scan", "android": "https://dc.lft.to/lastmile_qr_scan"}, "lon": -77.03870316666666, "type": "electric_scooter", "fusion_lat": 0.0, "lat": 38.9126245, "name": "f423f0039146df2e65b8240075f61cc1", "fusion_lon": 0.0, "bike_id": "f423f0039146df2e65b8240075f61cc1", "is_disabled": 0, "is_reserved": 0}, {"rental_uris": {"ios": "https://dc.lft.to/lastmile_qr_scan", "android": "https://dc.lft.to/lastmile_qr_scan"}, "lon": -77.04417683333334, "type": "electric_scooter", "fusion_lat": 0.0, "lat": 38.9107405, "name": "a244b13398c8c8c987c1641483e6ce1b", "fusion_lon": 0.0, "bike_id": "a244b13398c8c8c987c1641483e6ce1b", "is_disabled": 0, "is_reserved": 0}, {"rental_uris": {"ios": "https://dc.lft.to/lastmile_qr_scan", "android": "https://dc.lft.to/lastmile_qr_scan"}, "lon": -77.05272916666667, "type": "electric_scooter", "fusion_lat": 0.0, "lat": 38.8983915, "name": "7c6c5d0c266e68dd7b321657a2f142d4", "fusion_lon": 0.0, "bike_id": "7c6c5d0c266e68dd7b321657a2f142d4", "is_disabled": 0, "is_reserved": 0}, {"rental_uris": {"ios": "https://dc.lft.to/lastmile_qr_scan", "android": "https://dc.lft.to/lastmile_qr_scan"}, "lon": -77.02667716666667, "type": "electric_bike", "fusion_lat": 0.0, "lat": 38.99747716666667, "name": "31261fb0851e7e08dfc59e637ef4608c", "fusion_lon": 0.0, "bike_id": "31261fb0851e7e08dfc59e637ef4608c", "is_disabled": 0, "is_reserved": 0}, {"rental_uris": {"ios": "https://dc.lft.to/lastmile_qr_scan", "android": "https://dc.lft.to/lastmile_qr_scan"}, "lon": -77.00189033333334, "type": "electric_scooter", "fusion_lat": 0.0, "lat": 38.9003465, "name": "646a44693039837d9c40191726a44811", "fusion_lon": 0.0, "bike_id": "646a44693039837d9c40191726a44811", "is_disabled": 0, "is_reserved": 0}, {"rental_uris": {"ios": "https://dc.lft.to/lastmile_qr_scan", "android": "https://dc.lft.to/lastmile_qr_scan"}, "lon": -77.0660415, "type": "electric_scooter", "fusion_lat": 0.0, "lat": 38.9052185, "name": "c90f8aa29b6c91acdd7c0c6abd4a06ad", "fusion_lon": 0.0, "bike_id": "c90f8aa29b6c91acdd7c0c6abd4a06ad", "is_disabled": 0, "is_reserved": 0}, {"rental_uris": {"ios": "https://dc.lft.to/lastmile_qr_scan", "android": "https://dc.lft.to/lastmile_qr_scan"}, "lon": -77.04660983333333, "type": "electric_scooter", "fusion_lat": 0.0, "lat": 38.905551833333334, "name": "55af5260ddf85e0b18a787dbdf3e1e04", "fusion_lon": 0.0, "bike_id": "55af5260ddf85e0b18a787dbdf3e1e04", "is_disabled": 0, "is_reserved": 0}, {"rental_uris": {"ios": "https://dc.lft.to/lastmile_qr_scan", "android": "https://dc.lft.to/lastmile_qr_scan"}, "lon": -77.00137533333333, "type": "electric_scooter", "fusion_lat": 0.0, "lat": 38.904188166666664, "name": "dfb2f60497c6b8f38fbc37ea4721aef7", "fusion_lon": 0.0, "bike_id": "dfb2f60497c6b8f38fbc37ea4721aef7", "is_disabled": 0, "is_reserved": 0}, {"rental_uris": {"ios": "https://dc.lft.to/lastmile_qr_scan", "android": "https://dc.lft.to/lastmile_qr_scan"}, "lon": -76.999356, "type": "electric_scooter", "fusion_lat": 0.0, "lat": 38.896152666666666, "name": "7326426aedb8ed986fed6542dc66b47b", "fusion_lon": 0.0, "bike_id": "7326426aedb8ed986fed6542dc66b47b", "is_disabled": 0, "is_reserved": 0}, {"rental_uris": {"ios": "https://dc.lft.to/lastmile_qr_scan", "android": "https://dc.lft.to/lastmile_qr_scan"}, "lon": -77.00593816666667, "type": "electric_scooter", "fusion_lat": 0.0, "lat": 38.90553033333333, "name": "97116f02b96d64d6311fe7ab8dcf120c", "fusion_lon": 0.0, "bike_id": "97116f02b96d64d6311fe7ab8dcf120c", "is_disabled": 0, "is_reserved": 0}, {"rental_uris": {"ios": "https://dc.lft.to/lastmile_qr_scan", "android": "https://dc.lft.to/lastmile_qr_scan"}, "lon": -76.95207783333333, "type": "electric_bike", "fusion_lat": 0.0, "lat": 38.936728333333335, "name": "f0b7d23e976c80d9c5f146a6709202b6", "fusion_lon": 0.0, "bike_id": "f0b7d23e976c80d9c5f146a6709202b6", "is_disabled": 0, "is_reserved": 0}, {"rental_uris": {"ios": "https://dc.lft.to/lastmile_qr_scan", "android": "https://dc.lft.to/lastmile_qr_scan"}, "lon": -77.0715715, "type": "electric_scooter", "fusion_lat": 0.0, "lat": 38.90736066666667, "name": "39cddcc794c07267b4d353915c66908b", "fusion_lon": 0.0, "bike_id": "39cddcc794c07267b4d353915c66908b", "is_disabled": 0, "is_reserved": 0}, {"rental_uris": {"ios": "https://dc.lft.to/lastmile_qr_scan", "android": "https://dc.lft.to/lastmile_qr_scan"}, "lon": -77.01963533333333, "type": "electric_scooter", "fusion_lat": 0.0, "lat": 38.8784615, "name": "b545d2c53f1f5e444f64259dacb98059", "fusion_lon": 0.0, "bike_id": "b545d2c53f1f5e444f64259dacb98059", "is_disabled": 0, "is_reserved": 0}, {"rental_uris": {"ios": "https://dc.lft.to/lastmile_qr_scan", "android": "https://dc.lft.to/lastmile_qr_scan"}, "lon": -76.96498716666666, "type": "electric_bike", "fusion_lat": 0.0, "lat": 38.875553333333336, "name": "9a09e38f8fe98ecf8add4d6228751da5", "fusion_lon": 0.0, "bike_id": "9a09e38f8fe98ecf8add4d6228751da5", "is_disabled": 0, "is_reserved": 0}, {"rental_uris": {"ios": "https://dc.lft.to/lastmile_qr_scan", "android": "https://dc.lft.to/lastmile_qr_scan"}, "lon": -77.021195, "type": "electric_scooter", "fusion_lat": 0.0, "lat": 38.91403016666667, "name": "411358979bfb02244a4975dbe2e21a2d", "fusion_lon": 0.0, "bike_id": "411358979bfb02244a4975dbe2e21a2d", "is_disabled": 0, "is_reserved": 0}, {"rental_uris": {"ios": "https://dc.lft.to/lastmile_qr_scan", "android": "https://dc.lft.to/lastmile_qr_scan"}, "lon": -77.047193, "type": "electric_scooter", "fusion_lat": 0.0, "lat": 38.90976883333333, "name": "73646bafddd4c87f885e3877e38df9a1", "fusion_lon": 0.0, "bike_id": "73646bafddd4c87f885e3877e38df9a1", "is_disabled": 0, "is_reserved": 0}, {"rental_uris": {"ios": "https://dc.lft.to/lastmile_qr_scan", "android": "https://dc.lft.to/lastmile_qr_scan"}, "lon": -77.03415683333333, "type": "electric_scooter", "fusion_lat": 0.0, "lat": 38.909718833333336, "name": "41d8f01e797647348262baf6a0c96869", "fusion_lon": 0.0, "bike_id": "41d8f01e797647348262baf6a0c96869", "is_disabled": 0, "is_reserved": 0}, {"rental_uris": {"ios": "https://dc.lft.to/lastmile_qr_scan", "android": "https://dc.lft.to/lastmile_qr_scan"}, "lon": -77.03078383333333, "type": "electric_scooter", "fusion_lat": 0.0, "lat": 38.92250083333333, "name": "53c2899785191827247ec9cf00f2eee9", "fusion_lon": 0.0, "bike_id": "53c2899785191827247ec9cf00f2eee9", "is_disabled": 0, "is_reserved": 0}, {"rental_uris": {"ios": "https://dc.lft.to/lastmile_qr_scan", "android": "https://dc.lft.to/lastmile_qr_scan"}, "lon": -77.03208966666666, "type": "electric_scooter", "fusion_lat": 0.0, "lat": 38.916328, "name": "af18481d7acc8da900a0ed8513b42348", "fusion_lon": 0.0, "bike_id": "af18481d7acc8da900a0ed8513b42348", "is_disabled": 0, "is_reserved": 0}, {"rental_uris": {"ios": "https://dc.lft.to/lastmile_qr_scan", "android": "https://dc.lft.to/lastmile_qr_scan"}, "lon": -76.93185683333333, "type": "electric_scooter", "fusion_lat": 0.0, "lat": 38.89876783333333, "name": "7070a36b0b9ec88ce35d9412a1dc4848", "fusion_lon": 0.0, "bike_id": "7070a36b0b9ec88ce35d9412a1dc4848", "is_disabled": 0, "is_reserved": 0}, {"rental_uris": {"ios": "https://dc.lft.to/lastmile_qr_scan", "android": "https://dc.lft.to/lastmile_qr_scan"}, "lon": -77.00874633333333, "type": "electric_scooter", "fusion_lat": 0.0, "lat": 38.91178416666666, "name": "72a3560f1bc03c06fe99c8b8a23ee79e", "fusion_lon": 0.0, "bike_id": "72a3560f1bc03c06fe99c8b8a23ee79e", "is_disabled": 0, "is_reserved": 0}, {"rental_uris": {"ios": "https://dc.lft.to/lastmile_qr_scan", "android": "https://dc.lft.to/lastmile_qr_scan"}, "lon": -77.034436, "type": "electric_scooter", "fusion_lat": 0.0, "lat": 38.91840216666667, "name": "aa6c02e4ce1ee25e5090cb2895e53c1d", "fusion_lon": 0.0, "bike_id": "aa6c02e4ce1ee25e5090cb2895e53c1d", "is_disabled": 0, "is_reserved": 0}, {"rental_uris": {"ios": "https://dc.lft.to/lastmile_qr_scan", "android": "https://dc.lft.to/lastmile_qr_scan"}, "lon": -77.044383, "type": "electric_scooter", "fusion_lat": 0.0, "lat": 38.90559916666667, "name": "255564959b6e8177d6b065033f6a46ff", "fusion_lon": 0.0, "bike_id": "255564959b6e8177d6b065033f6a46ff", "is_disabled": 0, "is_reserved": 0}, {"rental_uris": {"ios": "https://dc.lft.to/lastmile_qr_scan", "android": "https://dc.lft.to/lastmile_qr_scan"}, "lon": -77.04228266666667, "type": "electric_scooter", "fusion_lat": 0.0, "lat": 38.9216905, "name": "5e418d4d28edc5d0d5262ef817558a48", "fusion_lon": 0.0, "bike_id": "5e418d4d28edc5d0d5262ef817558a48", "is_disabled": 0, "is_reserved": 0}, {"rental_uris": {"ios": "https://dc.lft.to/lastmile_qr_scan", "android": "https://dc.lft.to/lastmile_qr_scan"}, "lon": -77.0256045, "type": "electric_scooter", "fusion_lat": 0.0, "lat": 38.93980833333333, "name": "bb0e5765689943e3eeb5190c779cf02d", "fusion_lon": 0.0, "bike_id": "bb0e5765689943e3eeb5190c779cf02d", "is_disabled": 0, "is_reserved": 0}, {"rental_uris": {"ios": "https://dc.lft.to/lastmile_qr_scan", "android": "https://dc.lft.to/lastmile_qr_scan"}, "lon": -77.03887416666667, "type": "electric_scooter", "fusion_lat": 0.0, "lat": 38.92320516666667, "name": "9bf7b04168e928a7f5711ee5bfd72b5c", "fusion_lon": 0.0, "bike_id": "9bf7b04168e928a7f5711ee5bfd72b5c", "is_disabled": 0, "is_reserved": 0}, {"rental_uris": {"ios": "https://dc.lft.to/lastmile_qr_scan", "android": "https://dc.lft.to/lastmile_qr_scan"}, "lon": -77.05125716666667, "type": "electric_scooter", "fusion_lat": 0.0, "lat": 38.923617166666666, "name": "bafd3782b06578f89e7d2d488c4b7750", "fusion_lon": 0.0, "bike_id": "bafd3782b06578f89e7d2d488c4b7750", "is_disabled": 0, "is_reserved": 0}, {"rental_uris": {"ios": "https://dc.lft.to/lastmile_qr_scan", "android": "https://dc.lft.to/lastmile_qr_scan"}, "lon": -77.03222866666667, "type": "electric_scooter", "fusion_lat": 0.0, "lat": 38.892223666666666, "name": "84aeaf91e7cf8a7e8ac6282a5cbbcb0a", "fusion_lon": 0.0, "bike_id": "84aeaf91e7cf8a7e8ac6282a5cbbcb0a", "is_disabled": 0, "is_reserved": 0}, {"rental_uris": {"ios": "https://dc.lft.to/lastmile_qr_scan", "android": "https://dc.lft.to/lastmile_qr_scan"}, "lon": -77.02048333333333, "type": "electric_scooter", "fusion_lat": 0.0, "lat": 38.915561833333335, "name": "fb41411bdc200dc2572bc9aae2d6c106", "fusion_lon": 0.0, "bike_id": "fb41411bdc200dc2572bc9aae2d6c106", "is_disabled": 0, "is_reserved": 0}, {"rental_uris": {"ios": "https://dc.lft.to/lastmile_qr_scan", "android": "https://dc.lft.to/lastmile_qr_scan"}, "lon": -77.0332445, "type": "electric_scooter", "fusion_lat": 0.0, "lat": 38.89893983333333, "name": "506782e6e1aa34cf9f61cb2f0d93171a", "fusion_lon": 0.0, "bike_id": "506782e6e1aa34cf9f61cb2f0d93171a", "is_disabled": 0, "is_reserved": 0}, {"rental_uris": {"ios": "https://dc.lft.to/lastmile_qr_scan", "android": "https://dc.lft.to/lastmile_qr_scan"}, "lon": -77.071688, "type": "electric_scooter", "fusion_lat": 0.0, "lat": 38.907751166666664, "name": "a20cbf300ae11fdb31b414594c8d704b", "fusion_lon": 0.0, "bike_id": "a20cbf300ae11fdb31b414594c8d704b", "is_disabled": 0, "is_reserved": 0}, {"rental_uris": {"ios": "https://dc.lft.to/lastmile_qr_scan", "android": "https://dc.lft.to/lastmile_qr_scan"}, "lon": -77.03423333333333, "type": "electric_scooter", "fusion_lat": 0.0, "lat": 38.935436, "name": "227a3a6630c14e479f54dd6b3e610c66", "fusion_lon": 0.0, "bike_id": "227a3a6630c14e479f54dd6b3e610c66", "is_disabled": 0, "is_reserved": 0}, {"rental_uris": {"ios": "https://dc.lft.to/lastmile_qr_scan", "android": "https://dc.lft.to/lastmile_qr_scan"}, "lon": -77.02962266666667, "type": "electric_scooter", "fusion_lat": 0.0, "lat": 38.892114666666664, "name": "17c5b1af737454179ad2a28b2e245668", "fusion_lon": 0.0, "bike_id": "17c5b1af737454179ad2a28b2e245668", "is_disabled": 0, "is_reserved": 0}, {"rental_uris": {"ios": "https://dc.lft.to/lastmile_qr_scan", "android": "https://dc.lft.to/lastmile_qr_scan"}, "lon": -77.04892083333333, "type": "electric_scooter", "fusion_lat": 0.0, "lat": 38.905964833333336, "name": "9f6a67b602fe8bbf8b564b61b5e40552", "fusion_lon": 0.0, "bike_id": "9f6a67b602fe8bbf8b564b61b5e40552", "is_disabled": 0, "is_reserved": 0}, {"rental_uris": {"ios": "https://dc.lft.to/lastmile_qr_scan", "android": "https://dc.lft.to/lastmile_qr_scan"}, "lon": -76.9782765, "type": "electric_bike", "fusion_lat": 0.0, "lat": 38.84609283333333, "name": "15ec8e34527f39c5602d50a153a00209", "fusion_lon": 0.0, "bike_id": "15ec8e34527f39c5602d50a153a00209", "is_disabled": 0, "is_reserved": 0}, {"rental_uris": {"ios": "https://dc.lft.to/lastmile_qr_scan", "android": "https://dc.lft.to/lastmile_qr_scan"}, "lon": -77.0313295, "type": "electric_scooter", "fusion_lat": 0.0, "lat": 38.910373666666665, "name": "fe184c4b9ed6c938e2504b05ff1e91c0", "fusion_lon": 0.0, "bike_id": "fe184c4b9ed6c938e2504b05ff1e91c0", "is_disabled": 0, "is_reserved": 0}, {"rental_uris": {"ios": "https://dc.lft.to/lastmile_qr_scan", "android": "https://dc.lft.to/lastmile_qr_scan"}, "lon": -77.04325533333333, "type": "electric_scooter", "fusion_lat": 0.0, "lat": 38.903645, "name": "f70f1238d2121c8db87e11593cb8b86d", "fusion_lon": 0.0, "bike_id": "f70f1238d2121c8db87e11593cb8b86d", "is_disabled": 0, "is_reserved": 0}, {"rental_uris": {"ios": "https://dc.lft.to/lastmile_qr_scan", "android": "https://dc.lft.to/lastmile_qr_scan"}, "lon": -76.98392, "type": "electric_bike", "fusion_lat": 0.0, "lat": 38.922052666666666, "name": "f96906507945d5398f79a1029879bb1e", "fusion_lon": 0.0, "bike_id": "f96906507945d5398f79a1029879bb1e", "is_disabled": 0, "is_reserved": 0}, {"rental_uris": {"ios": "https://dc.lft.to/lastmile_qr_scan", "android": "https://dc.lft.to/lastmile_qr_scan"}, "lon": -77.126264, "type": "electric_bike", "fusion_lat": 0.0, "lat": 39.05813, "name": "b004ea015c0ccee8b0c09f4669cf97a3", "fusion_lon": 0.0, "bike_id": "b004ea015c0ccee8b0c09f4669cf97a3", "is_disabled": 0, "is_reserved": 0}, {"rental_uris": {"ios": "https://dc.lft.to/lastmile_qr_scan", "android": "https://dc.lft.to/lastmile_qr_scan"}, "lon": -77.021675, "type": "electric_scooter", "fusion_lat": 0.0, "lat": 38.912594666666664, "name": "6919ae2b6a30e90180729a16917d6186", "fusion_lon": 0.0, "bike_id": "6919ae2b6a30e90180729a16917d6186", "is_disabled": 0, "is_reserved": 0}, {"rental_uris": {"ios": "https://dc.lft.to/lastmile_qr_scan", "android": "https://dc.lft.to/lastmile_qr_scan"}, "lon": -77.00776816666666, "type": "electric_scooter", "fusion_lat": 0.0, "lat": 38.870932333333336, "name": "518543d6d4092c4ffcf361b19af80207", "fusion_lon": 0.0, "bike_id": "518543d6d4092c4ffcf361b19af80207", "is_disabled": 0, "is_reserved": 0}, {"rental_uris": {"ios": "https://dc.lft.to/lastmile_qr_scan", "android": "https://dc.lft.to/lastmile_qr_scan"}, "lon": -77.02349683333334, "type": "electric_scooter", "fusion_lat": 0.0, "lat": 38.93382716666667, "name": "38148b2dc9d12809de1d81ce5d0a27e5", "fusion_lon": 0.0, "bike_id": "38148b2dc9d12809de1d81ce5d0a27e5", "is_disabled": 0, "is_reserved": 0}, {"rental_uris": {"ios": "https://dc.lft.to/lastmile_qr_scan", "android": "https://dc.lft.to/lastmile_qr_scan"}, "lon": -77.07905283333334, "type": "electric_bike", "fusion_lat": 0.0, "lat": 38.83935, "name": "1799ee0529314402b8b027cb4d310334", "fusion_lon": 0.0, "bike_id": "1799ee0529314402b8b027cb4d310334", "is_disabled": 0, "is_reserved": 0}, {"rental_uris": {"ios": "https://dc.lft.to/lastmile_qr_scan", "android": "https://dc.lft.to/lastmile_qr_scan"}, "lon": -77.05096733333333, "type": "electric_bike", "fusion_lat": 0.0, "lat": 38.81334433333333, "name": "d828d7cdbf95503bd6039c286b697fd6", "fusion_lon": 0.0, "bike_id": "d828d7cdbf95503bd6039c286b697fd6", "is_disabled": 0, "is_reserved": 0}, {"rental_uris": {"ios": "https://dc.lft.to/lastmile_qr_scan", "android": "https://dc.lft.to/lastmile_qr_scan"}, "lon": -77.02346333333334, "type": "electric_scooter", "fusion_lat": 0.0, "lat": 38.931378, "name": "33b690b0e3c2d4490b4af3405f3f339c", "fusion_lon": 0.0, "bike_id": "33b690b0e3c2d4490b4af3405f3f339c", "is_disabled": 0, "is_reserved": 0}, {"rental_uris": {"ios": "https://dc.lft.to/lastmile_qr_scan", "android": "https://dc.lft.to/lastmile_qr_scan"}, "lon": -77.0153305, "type": "electric_scooter", "fusion_lat": 0.0, "lat": 38.88738466666667, "name": "83c1e3efb67e9da2de1256cd5b79d6d1", "fusion_lon": 0.0, "bike_id": "83c1e3efb67e9da2de1256cd5b79d6d1", "is_disabled": 0, "is_reserved": 0}, {"rental_uris": {"ios": "https://dc.lft.to/lastmile_qr_scan", "android": "https://dc.lft.to/lastmile_qr_scan"}, "lon": -77.01157183333333, "type": "electric_scooter", "fusion_lat": 0.0, "lat": 38.91328733333334, "name": "d909491dd1907a189661ef3ade71f774", "fusion_lon": 0.0, "bike_id": "d909491dd1907a189661ef3ade71f774", "is_disabled": 0, "is_reserved": 0}, {"rental_uris": {"ios": "https://dc.lft.to/lastmile_qr_scan", "android": "https://dc.lft.to/lastmile_qr_scan"}, "lon": -77.02976116666666, "type": "electric_scooter", "fusion_lat": 0.0, "lat": 38.8956885, "name": "d78ffb3dc68f8cae82e88aaefade86b7", "fusion_lon": 0.0, "bike_id": "d78ffb3dc68f8cae82e88aaefade86b7", "is_disabled": 0, "is_reserved": 0}, {"rental_uris": {"ios": "https://dc.lft.to/lastmile_qr_scan", "android": "https://dc.lft.to/lastmile_qr_scan"}, "lon": -77.02712816666667, "type": "electric_scooter", "fusion_lat": 0.0, "lat": 38.8814765, "name": "1ec849ae56044728292eb23d385570bc", "fusion_lon": 0.0, "bike_id": "1ec849ae56044728292eb23d385570bc", "is_disabled": 0, "is_reserved": 0}, {"rental_uris": {"ios": "https://dc.lft.to/lastmile_qr_scan", "android": "https://dc.lft.to/lastmile_qr_scan"}, "lon": -77.11431933333333, "type": "electric_bike", "fusion_lat": 0.0, "lat": 38.843083166666666, "name": "2150cd970a6613b5b670a7ee47da01b3", "fusion_lon": 0.0, "bike_id": "2150cd970a6613b5b670a7ee47da01b3", "is_disabled": 0, "is_reserved": 0}, {"rental_uris": {"ios": "https://dc.lft.to/lastmile_qr_scan", "android": "https://dc.lft.to/lastmile_qr_scan"}, "lon": -77.0296875, "type": "electric_scooter", "fusion_lat": 0.0, "lat": 38.95422116666667, "name": "d6022a7b9dc23224e2ecbe0bc180d593", "fusion_lon": 0.0, "bike_id": "d6022a7b9dc23224e2ecbe0bc180d593", "is_disabled": 0, "is_reserved": 0}, {"rental_uris": {"ios": "https://dc.lft.to/lastmile_qr_scan", "android": "https://dc.lft.to/lastmile_qr_scan"}, "lon": -77.027556, "type": "electric_scooter", "fusion_lat": 0.0, "lat": 38.95613916666667, "name": "72e7627819c380bb103df713d4787e73", "fusion_lon": 0.0, "bike_id": "72e7627819c380bb103df713d4787e73", "is_disabled": 0, "is_reserved": 0}, {"rental_uris": {"ios": "https://dc.lft.to/lastmile_qr_scan", "android": "https://dc.lft.to/lastmile_qr_scan"}, "lon": -77.06953366666667, "type": "electric_bike", "fusion_lat": 0.0, "lat": 38.99044116666666, "name": "9117829b95c04a523bc723a145ff21c6", "fusion_lon": 0.0, "bike_id": "9117829b95c04a523bc723a145ff21c6", "is_disabled": 0, "is_reserved": 0}, {"rental_uris": {"ios": "https://dc.lft.to/lastmile_qr_scan", "android": "https://dc.lft.to/lastmile_qr_scan"}, "lon": -77.02280133333333, "type": "electric_scooter", "fusion_lat": 0.0, "lat": 38.916636833333335, "name": "7cda1311de3f24186169e46497e6de79", "fusion_lon": 0.0, "bike_id": "7cda1311de3f24186169e46497e6de79", "is_disabled": 0, "is_reserved": 0}, {"rental_uris": {"ios": "https://dc.lft.to/lastmile_qr_scan", "android": "https://dc.lft.to/lastmile_qr_scan"}, "lon": -77.0067555, "type": "electric_bike", "fusion_lat": 0.0, "lat": 38.945079666666665, "name": "33a3453e27a87286d207b23684f9442b", "fusion_lon": 0.0, "bike_id": "33a3453e27a87286d207b23684f9442b", "is_disabled": 0, "is_reserved": 0}, {"rental_uris": {"ios": "https://dc.lft.to/lastmile_qr_scan", "android": "https://dc.lft.to/lastmile_qr_scan"}, "lon": -77.00714216666667, "type": "electric_scooter", "fusion_lat": 0.0, "lat": 38.88488366666667, "name": "8cbdeeff056e4d630722175081384f46", "fusion_lon": 0.0, "bike_id": "8cbdeeff056e4d630722175081384f46", "is_disabled": 0, "is_reserved": 0}, {"rental_uris": {"ios": "https://dc.lft.to/lastmile_qr_scan", "android": "https://dc.lft.to/lastmile_qr_scan"}, "lon": -77.03558316666667, "type": "electric_scooter", "fusion_lat": 0.0, "lat": 38.9180955, "name": "ce58ccf4f6faff1c542e159e1f3ae56e", "fusion_lon": 0.0, "bike_id": "ce58ccf4f6faff1c542e159e1f3ae56e", "is_disabled": 0, "is_reserved": 0}, {"rental_uris": {"ios": "https://dc.lft.to/lastmile_qr_scan", "android": "https://dc.lft.to/lastmile_qr_scan"}, "lon": -77.05885333333333, "type": "electric_scooter", "fusion_lat": 0.0, "lat": 38.936347, "name": "cb4f24c1a3831ac9879513a89fac8560", "fusion_lon": 0.0, "bike_id": "cb4f24c1a3831ac9879513a89fac8560", "is_disabled": 0, "is_reserved": 0}, {"rental_uris": {"ios": "https://dc.lft.to/lastmile_qr_scan", "android": "https://dc.lft.to/lastmile_qr_scan"}, "lon": -77.04731666666666, "type": "electric_scooter", "fusion_lat": 0.0, "lat": 38.911140833333334, "name": "0918ed416818ec6ed8dc4c6073cf54cf", "fusion_lon": 0.0, "bike_id": "0918ed416818ec6ed8dc4c6073cf54cf", "is_disabled": 0, "is_reserved": 0}, {"rental_uris": {"ios": "https://dc.lft.to/lastmile_qr_scan", "android": "https://dc.lft.to/lastmile_qr_scan"}, "lon": -77.0160465, "type": "electric_scooter", "fusion_lat": 0.0, "lat": 38.899765333333335, "name": "a04220e43b841bd66ddf7b9b09101008", "fusion_lon": 0.0, "bike_id": "a04220e43b841bd66ddf7b9b09101008", "is_disabled": 0, "is_reserved": 0}, {"rental_uris": {"ios": "https://dc.lft.to/lastmile_qr_scan", "android": "https://dc.lft.to/lastmile_qr_scan"}, "lon": -77.02191166666667, "type": "electric_scooter", "fusion_lat": 0.0, "lat": 38.9148215, "name": "fa3b5d85100230c0504ac0e11caf111a", "fusion_lon": 0.0, "bike_id": "fa3b5d85100230c0504ac0e11caf111a", "is_disabled": 0, "is_reserved": 0}, {"rental_uris": {"ios": "https://dc.lft.to/lastmile_qr_scan", "android": "https://dc.lft.to/lastmile_qr_scan"}, "lon": -77.0110365, "type": "electric_scooter", "fusion_lat": 0.0, "lat": 38.903638, "name": "151789ba1eb02519c43b2183269dc01c", "fusion_lon": 0.0, "bike_id": "151789ba1eb02519c43b2183269dc01c", "is_disabled": 0, "is_reserved": 0}, {"rental_uris": {"ios": "https://dc.lft.to/lastmile_qr_scan", "android": "https://dc.lft.to/lastmile_qr_scan"}, "lon": -77.02718533333334, "type": "electric_scooter", "fusion_lat": 0.0, "lat": 38.90956716666667, "name": "2eee64a4aa2436d9116f7c0c35b73152", "fusion_lon": 0.0, "bike_id": "2eee64a4aa2436d9116f7c0c35b73152", "is_disabled": 0, "is_reserved": 0}, {"rental_uris": {"ios": "https://dc.lft.to/lastmile_qr_scan", "android": "https://dc.lft.to/lastmile_qr_scan"}, "lon": -77.0281765, "type": "electric_scooter", "fusion_lat": 0.0, "lat": 38.89908716666667, "name": "d791e25c63d13d7b887d80af9ea14dc5", "fusion_lon": 0.0, "bike_id": "d791e25c63d13d7b887d80af9ea14dc5", "is_disabled": 0, "is_reserved": 0}, {"rental_uris": {"ios": "https://dc.lft.to/lastmile_qr_scan", "android": "https://dc.lft.to/lastmile_qr_scan"}, "lon": -76.96525283333334, "type": "electric_scooter", "fusion_lat": 0.0, "lat": 38.876314666666666, "name": "423d5999aef800296fec5e14d3a61230", "fusion_lon": 0.0, "bike_id": "423d5999aef800296fec5e14d3a61230", "is_disabled": 0, "is_reserved": 0}, {"rental_uris": {"ios": "https://dc.lft.to/lastmile_qr_scan", "android": "https://dc.lft.to/lastmile_qr_scan"}, "lon": -77.0401455, "type": "electric_scooter", "fusion_lat": 0.0, "lat": 38.921842833333336, "name": "b6828af838530ccc54640c7fbb505696", "fusion_lon": 0.0, "bike_id": "b6828af838530ccc54640c7fbb505696", "is_disabled": 0, "is_reserved": 0}, {"rental_uris": {"ios": "https://dc.lft.to/lastmile_qr_scan", "android": "https://dc.lft.to/lastmile_qr_scan"}, "lon": -77.03316366666667, "type": "electric_scooter", "fusion_lat": 0.0, "lat": 38.9056875, "name": "60e103c494125542abe0d98c06ae5117", "fusion_lon": 0.0, "bike_id": "60e103c494125542abe0d98c06ae5117", "is_disabled": 0, "is_reserved": 0}, {"rental_uris": {"ios": "https://dc.lft.to/lastmile_qr_scan", "android": "https://dc.lft.to/lastmile_qr_scan"}, "lon": -77.0019385, "type": "electric_scooter", "fusion_lat": 0.0, "lat": 38.9003835, "name": "b4d9e4afd74493e6399fd8e8a84b7d86", "fusion_lon": 0.0, "bike_id": "b4d9e4afd74493e6399fd8e8a84b7d86", "is_disabled": 0, "is_reserved": 0}, {"rental_uris": {"ios": "https://dc.lft.to/lastmile_qr_scan", "android": "https://dc.lft.to/lastmile_qr_scan"}, "lon": -77.03349616666667, "type": "electric_scooter", "fusion_lat": 0.0, "lat": 38.885089666666666, "name": "11bd3c4731fd7835576513adc2d9b50d", "fusion_lon": 0.0, "bike_id": "11bd3c4731fd7835576513adc2d9b50d", "is_disabled": 0, "is_reserved": 0}, {"rental_uris": {"ios": "https://dc.lft.to/lastmile_qr_scan", "android": "https://dc.lft.to/lastmile_qr_scan"}, "lon": -77.03465233333333, "type": "electric_scooter", "fusion_lat": 0.0, "lat": 38.934529833333336, "name": "d1391671faee4f3f4aa62414a74664ce", "fusion_lon": 0.0, "bike_id": "d1391671faee4f3f4aa62414a74664ce", "is_disabled": 0, "is_reserved": 0}, {"rental_uris": {"ios": "https://dc.lft.to/lastmile_qr_scan", "android": "https://dc.lft.to/lastmile_qr_scan"}, "lon": -77.02188733333334, "type": "electric_scooter", "fusion_lat": 0.0, "lat": 38.915676500000004, "name": "4cd18210dbc6d95f3e289bbb2b80fdf9", "fusion_lon": 0.0, "bike_id": "4cd18210dbc6d95f3e289bbb2b80fdf9", "is_disabled": 0, "is_reserved": 0}, {"rental_uris": {"ios": "https://dc.lft.to/lastmile_qr_scan", "android": "https://dc.lft.to/lastmile_qr_scan"}, "lon": -77.02629183333333, "type": "electric_bike", "fusion_lat": 0.0, "lat": 38.962326166666664, "name": "4ec7d53752a7570b4581c6f18d093b50", "fusion_lon": 0.0, "bike_id": "4ec7d53752a7570b4581c6f18d093b50", "is_disabled": 0, "is_reserved": 0}, {"rental_uris": {"ios": "https://dc.lft.to/lastmile_qr_scan", "android": "https://dc.lft.to/lastmile_qr_scan"}, "lon": -77.01502166666667, "type": "electric_scooter", "fusion_lat": 0.0, "lat": 38.917759333333336, "name": "52f523d102745b5a47436d43a8b36c0f", "fusion_lon": 0.0, "bike_id": "52f523d102745b5a47436d43a8b36c0f", "is_disabled": 0, "is_reserved": 0}, {"rental_uris": {"ios": "https://dc.lft.to/lastmile_qr_scan", "android": "https://dc.lft.to/lastmile_qr_scan"}, "lon": -77.0072545, "type": "electric_scooter", "fusion_lat": 0.0, "lat": 38.884928, "name": "111d17fb56a4e8e55993f18fdc83a432", "fusion_lon": 0.0, "bike_id": "111d17fb56a4e8e55993f18fdc83a432", "is_disabled": 0, "is_reserved": 0}, {"rental_uris": {"ios": "https://dc.lft.to/lastmile_qr_scan", "android": "https://dc.lft.to/lastmile_qr_scan"}, "lon": -77.04107583333334, "type": "electric_scooter", "fusion_lat": 0.0, "lat": 38.91859483333333, "name": "de028103c9d81e9bdb3800fcfda13a6d", "fusion_lon": 0.0, "bike_id": "de028103c9d81e9bdb3800fcfda13a6d", "is_disabled": 0, "is_reserved": 0}, {"rental_uris": {"ios": "https://dc.lft.to/lastmile_qr_scan", "android": "https://dc.lft.to/lastmile_qr_scan"}, "lon": -77.0344905, "type": "electric_scooter", "fusion_lat": 0.0, "lat": 38.90264166666667, "name": "cd814c4418ace65daa72cfcff161545f", "fusion_lon": 0.0, "bike_id": "cd814c4418ace65daa72cfcff161545f", "is_disabled": 0, "is_reserved": 0}, {"rental_uris": {"ios": "https://dc.lft.to/lastmile_qr_scan", "android": "https://dc.lft.to/lastmile_qr_scan"}, "lon": -77.042103, "type": "electric_scooter", "fusion_lat": 0.0, "lat": 38.90732933333334, "name": "0b57bbab268a8ef7495cd9820f14dc7c", "fusion_lon": 0.0, "bike_id": "0b57bbab268a8ef7495cd9820f14dc7c", "is_disabled": 0, "is_reserved": 0}, {"rental_uris": {"ios": "https://dc.lft.to/lastmile_qr_scan", "android": "https://dc.lft.to/lastmile_qr_scan"}, "lon": -77.08540016666667, "type": "electric_bike", "fusion_lat": 0.0, "lat": 38.85618783333334, "name": "826a406d44688d581d6ebde195e349bb", "fusion_lon": 0.0, "bike_id": "826a406d44688d581d6ebde195e349bb", "is_disabled": 0, "is_reserved": 0}, {"rental_uris": {"ios": "https://dc.lft.to/lastmile_qr_scan", "android": "https://dc.lft.to/lastmile_qr_scan"}, "lon": -77.03461516666667, "type": "electric_scooter", "fusion_lat": 0.0, "lat": 38.9457435, "name": "4d286cacb7acc183e2dedc2b4f52c464", "fusion_lon": 0.0, "bike_id": "4d286cacb7acc183e2dedc2b4f52c464", "is_disabled": 0, "is_reserved": 0}, {"rental_uris": {"ios": "https://dc.lft.to/lastmile_qr_scan", "android": "https://dc.lft.to/lastmile_qr_scan"}, "lon": -77.04422933333333, "type": "electric_scooter", "fusion_lat": 0.0, "lat": 38.8922035, "name": "0b3da599bfd428783484909540681041", "fusion_lon": 0.0, "bike_id": "0b3da599bfd428783484909540681041", "is_disabled": 0, "is_reserved": 0}, {"rental_uris": {"ios": "https://dc.lft.to/lastmile_qr_scan", "android": "https://dc.lft.to/lastmile_qr_scan"}, "lon": -77.17848183333334, "type": "electric_bike", "fusion_lat": 0.0, "lat": 39.08900916666666, "name": "60b07f0fcb4895068b1a6eddc74d971b", "fusion_lon": 0.0, "bike_id": "60b07f0fcb4895068b1a6eddc74d971b", "is_disabled": 0, "is_reserved": 0}, {"rental_uris": {"ios": "https://dc.lft.to/lastmile_qr_scan", "android": "https://dc.lft.to/lastmile_qr_scan"}, "lon": -76.94633416666667, "type": "electric_scooter", "fusion_lat": 0.0, "lat": 38.89833483333334, "name": "2b76b6b01cda2714352a39cd10aa63c5", "fusion_lon": 0.0, "bike_id": "2b76b6b01cda2714352a39cd10aa63c5", "is_disabled": 0, "is_reserved": 0}, {"rental_uris": {"ios": "https://dc.lft.to/lastmile_qr_scan", "android": "https://dc.lft.to/lastmile_qr_scan"}, "lon": -77.03635683333333, "type": "electric_scooter", "fusion_lat": 0.0, "lat": 38.903199666666666, "name": "a1de261064e032ac3389eb4f6c9036a1", "fusion_lon": 0.0, "bike_id": "a1de261064e032ac3389eb4f6c9036a1", "is_disabled": 0, "is_reserved": 0}, {"rental_uris": {"ios": "https://dc.lft.to/lastmile_qr_scan", "android": "https://dc.lft.to/lastmile_qr_scan"}, "lon": -76.99929233333333, "type": "electric_scooter", "fusion_lat": 0.0, "lat": 38.90911416666667, "name": "b2c3bf62cf3f3fe80b81832eeb01a8fa", "fusion_lon": 0.0, "bike_id": "b2c3bf62cf3f3fe80b81832eeb01a8fa", "is_disabled": 0, "is_reserved": 0}, {"rental_uris": {"ios": "https://dc.lft.to/lastmile_qr_scan", "android": "https://dc.lft.to/lastmile_qr_scan"}, "lon": -77.031871, "type": "electric_scooter", "fusion_lat": 0.0, "lat": 38.91464066666666, "name": "83fabd068fa937bd640dede965f61f32", "fusion_lon": 0.0, "bike_id": "83fabd068fa937bd640dede965f61f32", "is_disabled": 0, "is_reserved": 0}, {"rental_uris": {"ios": "https://dc.lft.to/lastmile_qr_scan", "android": "https://dc.lft.to/lastmile_qr_scan"}, "lon": -77.0138665, "type": "electric_scooter", "fusion_lat": 0.0, "lat": 38.928821, "name": "39c22c49b51ef050166dfe5508525062", "fusion_lon": 0.0, "bike_id": "39c22c49b51ef050166dfe5508525062", "is_disabled": 0, "is_reserved": 0}, {"rental_uris": {"ios": "https://dc.lft.to/lastmile_qr_scan", "android": "https://dc.lft.to/lastmile_qr_scan"}, "lon": -77.0284535, "type": "electric_scooter", "fusion_lat": 0.0, "lat": 38.9341565, "name": "a55bb2fe446b6ac45bf2740e0c5b1ecc", "fusion_lon": 0.0, "bike_id": "a55bb2fe446b6ac45bf2740e0c5b1ecc", "is_disabled": 0, "is_reserved": 0}, {"rental_uris": {"ios": "https://dc.lft.to/lastmile_qr_scan", "android": "https://dc.lft.to/lastmile_qr_scan"}, "lon": -76.9895665, "type": "electric_scooter", "fusion_lat": 0.0, "lat": 38.90139383333333, "name": "e01f70e367160a6faae20c400e66074b", "fusion_lon": 0.0, "bike_id": "e01f70e367160a6faae20c400e66074b", "is_disabled": 0, "is_reserved": 0}, {"rental_uris": {"ios": "https://dc.lft.to/lastmile_qr_scan", "android": "https://dc.lft.to/lastmile_qr_scan"}, "lon": -77.02708066666666, "type": "electric_scooter", "fusion_lat": 0.0, "lat": 38.94997933333333, "name": "2eff4ca2a824ec26d0194f8531711059", "fusion_lon": 0.0, "bike_id": "2eff4ca2a824ec26d0194f8531711059", "is_disabled": 0, "is_reserved": 0}, {"rental_uris": {"ios": "https://dc.lft.to/lastmile_qr_scan", "android": "https://dc.lft.to/lastmile_qr_scan"}, "lon": -77.03213366666667, "type": "electric_scooter", "fusion_lat": 0.0, "lat": 38.9206105, "name": "4e56e86b01b28fc249122227f8c5b390", "fusion_lon": 0.0, "bike_id": "4e56e86b01b28fc249122227f8c5b390", "is_disabled": 0, "is_reserved": 0}, {"rental_uris": {"ios": "https://dc.lft.to/lastmile_qr_scan", "android": "https://dc.lft.to/lastmile_qr_scan"}, "lon": -77.0062865, "type": "electric_scooter", "fusion_lat": 0.0, "lat": 38.90275366666667, "name": "23a03257fae65b93ca6fe56196dd2290", "fusion_lon": 0.0, "bike_id": "23a03257fae65b93ca6fe56196dd2290", "is_disabled": 0, "is_reserved": 0}, {"rental_uris": {"ios": "https://dc.lft.to/lastmile_qr_scan", "android": "https://dc.lft.to/lastmile_qr_scan"}, "lon": -77.03139366666667, "type": "electric_scooter", "fusion_lat": 0.0, "lat": 38.917014, "name": "31961fde2c5cd653a2ff6ce3fca1332d", "fusion_lon": 0.0, "bike_id": "31961fde2c5cd653a2ff6ce3fca1332d", "is_disabled": 0, "is_reserved": 0}, {"rental_uris": {"ios": "https://dc.lft.to/lastmile_qr_scan", "android": "https://dc.lft.to/lastmile_qr_scan"}, "lon": -76.98967116666667, "type": "electric_scooter", "fusion_lat": 0.0, "lat": 38.902476666666665, "name": "3d8bcd93dbc938dc3d74d67096277305", "fusion_lon": 0.0, "bike_id": "3d8bcd93dbc938dc3d74d67096277305", "is_disabled": 0, "is_reserved": 0}, {"rental_uris": {"ios": "https://dc.lft.to/lastmile_qr_scan", "android": "https://dc.lft.to/lastmile_qr_scan"}, "lon": -77.0200685, "type": "electric_scooter", "fusion_lat": 0.0, "lat": 38.913165166666666, "name": "f20c95086702192161b479d0f10697e4", "fusion_lon": 0.0, "bike_id": "f20c95086702192161b479d0f10697e4", "is_disabled": 0, "is_reserved": 0}, {"rental_uris": {"ios": "https://dc.lft.to/lastmile_qr_scan", "android": "https://dc.lft.to/lastmile_qr_scan"}, "lon": -77.04510383333333, "type": "electric_scooter", "fusion_lat": 0.0, "lat": 38.90647533333333, "name": "9086325dfdba61b4e7976e9ec56d801d", "fusion_lon": 0.0, "bike_id": "9086325dfdba61b4e7976e9ec56d801d", "is_disabled": 0, "is_reserved": 0}, {"rental_uris": {"ios": "https://dc.lft.to/lastmile_qr_scan", "android": "https://dc.lft.to/lastmile_qr_scan"}, "lon": -77.052588, "type": "electric_scooter", "fusion_lat": 0.0, "lat": 38.923756833333336, "name": "d40edf5bc12878cdc847237627d297ad", "fusion_lon": 0.0, "bike_id": "d40edf5bc12878cdc847237627d297ad", "is_disabled": 0, "is_reserved": 0}, {"rental_uris": {"ios": "https://dc.lft.to/lastmile_qr_scan", "android": "https://dc.lft.to/lastmile_qr_scan"}, "lon": -77.01258666666666, "type": "electric_scooter", "fusion_lat": 0.0, "lat": 38.8997145, "name": "36aa68fc036653679dc0aee97f8c781f", "fusion_lon": 0.0, "bike_id": "36aa68fc036653679dc0aee97f8c781f", "is_disabled": 0, "is_reserved": 0}, {"rental_uris": {"ios": "https://dc.lft.to/lastmile_qr_scan", "android": "https://dc.lft.to/lastmile_qr_scan"}, "lon": -77.13598066666667, "type": "electric_bike", "fusion_lat": 0.0, "lat": 39.053479, "name": "e128c2647445aa692d8233e7803ceff4", "fusion_lon": 0.0, "bike_id": "e128c2647445aa692d8233e7803ceff4", "is_disabled": 0, "is_reserved": 0}, {"rental_uris": {"ios": "https://dc.lft.to/lastmile_qr_scan", "android": "https://dc.lft.to/lastmile_qr_scan"}, "lon": -77.01442583333333, "type": "electric_scooter", "fusion_lat": 0.0, "lat": 38.87769516666667, "name": "88c054549989634e687ee9cf68f777bc", "fusion_lon": 0.0, "bike_id": "88c054549989634e687ee9cf68f777bc", "is_disabled": 0, "is_reserved": 0}, {"rental_uris": {"ios": "https://dc.lft.to/lastmile_qr_scan", "android": "https://dc.lft.to/lastmile_qr_scan"}, "lon": -77.04309716666667, "type": "electric_scooter", "fusion_lat": 0.0, "lat": 38.92251383333333, "name": "14a951f43e41dd59ba9544e9c38cc77c", "fusion_lon": 0.0, "bike_id": "14a951f43e41dd59ba9544e9c38cc77c", "is_disabled": 0, "is_reserved": 0}, {"rental_uris": {"ios": "https://dc.lft.to/lastmile_qr_scan", "android": "https://dc.lft.to/lastmile_qr_scan"}, "lon": -77.036593, "type": "electric_scooter", "fusion_lat": 0.0, "lat": 38.91305833333333, "name": "39dd35e7ee3da4acba475af985d79b86", "fusion_lon": 0.0, "bike_id": "39dd35e7ee3da4acba475af985d79b86", "is_disabled": 0, "is_reserved": 0}, {"rental_uris": {"ios": "https://dc.lft.to/lastmile_qr_scan", "android": "https://dc.lft.to/lastmile_qr_scan"}, "lon": -76.94884466666667, "type": "electric_scooter", "fusion_lat": 0.0, "lat": 38.894656, "name": "168469e54dd891eb9afc229dd4b9caca", "fusion_lon": 0.0, "bike_id": "168469e54dd891eb9afc229dd4b9caca", "is_disabled": 0, "is_reserved": 0}, {"rental_uris": {"ios": "https://dc.lft.to/lastmile_qr_scan", "android": "https://dc.lft.to/lastmile_qr_scan"}, "lon": -76.98613333333333, "type": "electric_scooter", "fusion_lat": 0.0, "lat": 38.86820566666667, "name": "6d93133f7a5617bc024c7fdf1cc56817", "fusion_lon": 0.0, "bike_id": "6d93133f7a5617bc024c7fdf1cc56817", "is_disabled": 0, "is_reserved": 0}, {"rental_uris": {"ios": "https://dc.lft.to/lastmile_qr_scan", "android": "https://dc.lft.to/lastmile_qr_scan"}, "lon": -77.011548, "type": "electric_scooter", "fusion_lat": 0.0, "lat": 38.897094833333334, "name": "4b7f6553365992259fe12b820592e322", "fusion_lon": 0.0, "bike_id": "4b7f6553365992259fe12b820592e322", "is_disabled": 0, "is_reserved": 0}, {"rental_uris": {"ios": "https://dc.lft.to/lastmile_qr_scan", "android": "https://dc.lft.to/lastmile_qr_scan"}, "lon": -77.0362835, "type": "electric_scooter", "fusion_lat": 0.0, "lat": 38.9291765, "name": "4f060cc8049f887195fbebc1a265696a", "fusion_lon": 0.0, "bike_id": "4f060cc8049f887195fbebc1a265696a", "is_disabled": 0, "is_reserved": 0}, {"rental_uris": {"ios": "https://dc.lft.to/lastmile_qr_scan", "android": "https://dc.lft.to/lastmile_qr_scan"}, "lon": -77.02091883333334, "type": "electric_scooter", "fusion_lat": 0.0, "lat": 38.910101166666664, "name": "ab5a045827250f842d6c6e62fff358a8", "fusion_lon": 0.0, "bike_id": "ab5a045827250f842d6c6e62fff358a8", "is_disabled": 0, "is_reserved": 0}, {"rental_uris": {"ios": "https://dc.lft.to/lastmile_qr_scan", "android": "https://dc.lft.to/lastmile_qr_scan"}, "lon": -77.3609575, "type": "electric_bike", "fusion_lat": 0.0, "lat": 38.93963733333333, "name": "ad7b5b2f05e81f6eb182c6000814bb44", "fusion_lon": 0.0, "bike_id": "ad7b5b2f05e81f6eb182c6000814bb44", "is_disabled": 0, "is_reserved": 0}, {"rental_uris": {"ios": "https://dc.lft.to/lastmile_qr_scan", "android": "https://dc.lft.to/lastmile_qr_scan"}, "lon": -77.0231815, "type": "electric_scooter", "fusion_lat": 0.0, "lat": 38.91771083333333, "name": "c3d1d7fcbc3d7b52c509e169771068f0", "fusion_lon": 0.0, "bike_id": "c3d1d7fcbc3d7b52c509e169771068f0", "is_disabled": 0, "is_reserved": 0}, {"rental_uris": {"ios": "https://dc.lft.to/lastmile_qr_scan", "android": "https://dc.lft.to/lastmile_qr_scan"}, "lon": -77.02993216666667, "type": "electric_scooter", "fusion_lat": 0.0, "lat": 38.924819166666666, "name": "30d23f8e6d607bbc4d67eb1f8010a7c2", "fusion_lon": 0.0, "bike_id": "30d23f8e6d607bbc4d67eb1f8010a7c2", "is_disabled": 0, "is_reserved": 0}, {"rental_uris": {"ios": "https://dc.lft.to/lastmile_qr_scan", "android": "https://dc.lft.to/lastmile_qr_scan"}, "lon": -76.97987983333333, "type": "electric_bike", "fusion_lat": 0.0, "lat": 38.877552666666666, "name": "c6a9e66c430f81cc7da4faac8a8bdb2c", "fusion_lon": 0.0, "bike_id": "c6a9e66c430f81cc7da4faac8a8bdb2c", "is_disabled": 0, "is_reserved": 0}, {"rental_uris": {"ios": "https://dc.lft.to/lastmile_qr_scan", "android": "https://dc.lft.to/lastmile_qr_scan"}, "lon": -77.01231616666666, "type": "electric_scooter", "fusion_lat": 0.0, "lat": 38.915516333333336, "name": "15d0f0751a545c1e5bdd8192a2e41758", "fusion_lon": 0.0, "bike_id": "15d0f0751a545c1e5bdd8192a2e41758", "is_disabled": 0, "is_reserved": 0}, {"rental_uris": {"ios": "https://dc.lft.to/lastmile_qr_scan", "android": "https://dc.lft.to/lastmile_qr_scan"}, "lon": -77.015792, "type": "electric_scooter", "fusion_lat": 0.0, "lat": 38.91682, "name": "fc5b6d5c20abf52df48d51f3c1dfcdd0", "fusion_lon": 0.0, "bike_id": "fc5b6d5c20abf52df48d51f3c1dfcdd0", "is_disabled": 0, "is_reserved": 0}, {"rental_uris": {"ios": "https://dc.lft.to/lastmile_qr_scan", "android": "https://dc.lft.to/lastmile_qr_scan"}, "lon": -77.0350105, "type": "electric_scooter", "fusion_lat": 0.0, "lat": 38.92872066666666, "name": "f98e5ddbe48c76622542330c5844b4ff", "fusion_lon": 0.0, "bike_id": "f98e5ddbe48c76622542330c5844b4ff", "is_disabled": 0, "is_reserved": 0}, {"rental_uris": {"ios": "https://dc.lft.to/lastmile_qr_scan", "android": "https://dc.lft.to/lastmile_qr_scan"}, "lon": -77.04654916666667, "type": "electric_scooter", "fusion_lat": 0.0, "lat": 38.90563616666667, "name": "16e92ad4b78cbf083dfaac762306cf92", "fusion_lon": 0.0, "bike_id": "16e92ad4b78cbf083dfaac762306cf92", "is_disabled": 0, "is_reserved": 0}, {"rental_uris": {"ios": "https://dc.lft.to/lastmile_qr_scan", "android": "https://dc.lft.to/lastmile_qr_scan"}, "lon": -77.01088216666666, "type": "electric_scooter", "fusion_lat": 0.0, "lat": 38.918237166666664, "name": "1d36bfc0a5482dbcdf794f353f437c92", "fusion_lon": 0.0, "bike_id": "1d36bfc0a5482dbcdf794f353f437c92", "is_disabled": 0, "is_reserved": 0}, {"rental_uris": {"ios": "https://dc.lft.to/lastmile_qr_scan", "android": "https://dc.lft.to/lastmile_qr_scan"}, "lon": -77.040877, "type": "electric_scooter", "fusion_lat": 0.0, "lat": 38.90737983333333, "name": "62397ea9e8d7bcf1467ae32dd0504f92", "fusion_lon": 0.0, "bike_id": "62397ea9e8d7bcf1467ae32dd0504f92", "is_disabled": 0, "is_reserved": 0}, {"rental_uris": {"ios": "https://dc.lft.to/lastmile_qr_scan", "android": "https://dc.lft.to/lastmile_qr_scan"}, "lon": -76.94779133333333, "type": "electric_bike", "fusion_lat": 0.0, "lat": 38.89440466666667, "name": "7c1e5920c43dc0778102caeb1c701cd3", "fusion_lon": 0.0, "bike_id": "7c1e5920c43dc0778102caeb1c701cd3", "is_disabled": 0, "is_reserved": 0}, {"rental_uris": {"ios": "https://dc.lft.to/lastmile_qr_scan", "android": "https://dc.lft.to/lastmile_qr_scan"}, "lon": -77.0010445, "type": "electric_scooter", "fusion_lat": 0.0, "lat": 38.89429783333333, "name": "36d0c5b7abd07ecf8ca0e88420bd1507", "fusion_lon": 0.0, "bike_id": "36d0c5b7abd07ecf8ca0e88420bd1507", "is_disabled": 0, "is_reserved": 0}, {"rental_uris": {"ios": "https://dc.lft.to/lastmile_qr_scan", "android": "https://dc.lft.to/lastmile_qr_scan"}, "lon": -77.03297066666667, "type": "electric_scooter", "fusion_lat": 0.0, "lat": 38.92215366666667, "name": "bacd44bd128ec8dd6c7fc40e8ceae813", "fusion_lon": 0.0, "bike_id": "bacd44bd128ec8dd6c7fc40e8ceae813", "is_disabled": 0, "is_reserved": 0}, {"rental_uris": {"ios": "https://dc.lft.to/lastmile_qr_scan", "android": "https://dc.lft.to/lastmile_qr_scan"}, "lon": -76.93571333333334, "type": "electric_bike", "fusion_lat": 0.0, "lat": 38.88532133333333, "name": "3c217d7a9556fb32e8a88a3a4855eebe", "fusion_lon": 0.0, "bike_id": "3c217d7a9556fb32e8a88a3a4855eebe", "is_disabled": 0, "is_reserved": 0}, {"rental_uris": {"ios": "https://dc.lft.to/lastmile_qr_scan", "android": "https://dc.lft.to/lastmile_qr_scan"}, "lon": -77.01113333333333, "type": "electric_scooter", "fusion_lat": 0.0, "lat": 38.89472083333333, "name": "b3fd31921d9e4c121c3ee13f42fd331e", "fusion_lon": 0.0, "bike_id": "b3fd31921d9e4c121c3ee13f42fd331e", "is_disabled": 0, "is_reserved": 0}, {"rental_uris": {"ios": "https://dc.lft.to/lastmile_qr_scan", "android": "https://dc.lft.to/lastmile_qr_scan"}, "lon": -77.0756855, "type": "electric_scooter", "fusion_lat": 0.0, "lat": 38.920936, "name": "9dce056824ce7b4ab718e7a44aa38253", "fusion_lon": 0.0, "bike_id": "9dce056824ce7b4ab718e7a44aa38253", "is_disabled": 0, "is_reserved": 0}, {"rental_uris": {"ios": "https://dc.lft.to/lastmile_qr_scan", "android": "https://dc.lft.to/lastmile_qr_scan"}, "lon": -77.03002083333334, "type": "electric_scooter", "fusion_lat": 0.0, "lat": 38.934554, "name": "ba5258f5a814acb7aaccf72d8c85499a", "fusion_lon": 0.0, "bike_id": "ba5258f5a814acb7aaccf72d8c85499a", "is_disabled": 0, "is_reserved": 0}, {"rental_uris": {"ios": "https://dc.lft.to/lastmile_qr_scan", "android": "https://dc.lft.to/lastmile_qr_scan"}, "lon": -76.98613866666666, "type": "electric_scooter", "fusion_lat": 0.0, "lat": 38.85464316666667, "name": "b2ab62d5bdd78b3eaae321f120518d74", "fusion_lon": 0.0, "bike_id": "b2ab62d5bdd78b3eaae321f120518d74", "is_disabled": 0, "is_reserved": 0}, {"rental_uris": {"ios": "https://dc.lft.to/lastmile_qr_scan", "android": "https://dc.lft.to/lastmile_qr_scan"}, "lon": -77.01414133333333, "type": "electric_scooter", "fusion_lat": 0.0, "lat": 38.916983333333334, "name": "c2adbdbe09ca9417f4c532c83a8067d3", "fusion_lon": 0.0, "bike_id": "c2adbdbe09ca9417f4c532c83a8067d3", "is_disabled": 0, "is_reserved": 0}, {"rental_uris": {"ios": "https://dc.lft.to/lastmile_qr_scan", "android": "https://dc.lft.to/lastmile_qr_scan"}, "lon": -76.9997085, "type": "electric_scooter", "fusion_lat": 0.0, "lat": 38.908524666666665, "name": "747577ebfb1fac8b23771328b178bf15", "fusion_lon": 0.0, "bike_id": "747577ebfb1fac8b23771328b178bf15", "is_disabled": 0, "is_reserved": 0}, {"rental_uris": {"ios": "https://dc.lft.to/lastmile_qr_scan", "android": "https://dc.lft.to/lastmile_qr_scan"}, "lon": -77.02647116666667, "type": "electric_scooter", "fusion_lat": 0.0, "lat": 38.93861833333333, "name": "c3852710b43ea4c16d4dfb4d9b408823", "fusion_lon": 0.0, "bike_id": "c3852710b43ea4c16d4dfb4d9b408823", "is_disabled": 0, "is_reserved": 0}, {"rental_uris": {"ios": "https://dc.lft.to/lastmile_qr_scan", "android": "https://dc.lft.to/lastmile_qr_scan"}, "lon": -77.03643433333333, "type": "electric_scooter", "fusion_lat": 0.0, "lat": 38.913070166666664, "name": "314f8a2a6a4ada0681df6ec9362758c8", "fusion_lon": 0.0, "bike_id": "314f8a2a6a4ada0681df6ec9362758c8", "is_disabled": 0, "is_reserved": 0}, {"rental_uris": {"ios": "https://dc.lft.to/lastmile_qr_scan", "android": "https://dc.lft.to/lastmile_qr_scan"}, "lon": -77.0256835, "type": "electric_scooter", "fusion_lat": 0.0, "lat": 38.88745983333333, "name": "5bf00f18c2f66766c87e10abb0305551", "fusion_lon": 0.0, "bike_id": "5bf00f18c2f66766c87e10abb0305551", "is_disabled": 0, "is_reserved": 0}, {"rental_uris": {"ios": "https://dc.lft.to/lastmile_qr_scan", "android": "https://dc.lft.to/lastmile_qr_scan"}, "lon": -77.041018, "type": "electric_scooter", "fusion_lat": 0.0, "lat": 38.9237025, "name": "382fb6b1f0e32c67b6b97320e67dcf69", "fusion_lon": 0.0, "bike_id": "382fb6b1f0e32c67b6b97320e67dcf69", "is_disabled": 0, "is_reserved": 0}, {"rental_uris": {"ios": "https://dc.lft.to/lastmile_qr_scan", "android": "https://dc.lft.to/lastmile_qr_scan"}, "lon": -77.03799233333334, "type": "electric_bike", "fusion_lat": 0.0, "lat": 38.93066316666667, "name": "6af3c441a74cb80e1352809aa891a0d0", "fusion_lon": 0.0, "bike_id": "6af3c441a74cb80e1352809aa891a0d0", "is_disabled": 0, "is_reserved": 0}, {"rental_uris": {"ios": "https://dc.lft.to/lastmile_qr_scan", "android": "https://dc.lft.to/lastmile_qr_scan"}, "lon": -76.94971783333334, "type": "electric_scooter", "fusion_lat": 0.0, "lat": 38.89370183333333, "name": "fdb993a6bb65b7707d8ff4f94516ccf0", "fusion_lon": 0.0, "bike_id": "fdb993a6bb65b7707d8ff4f94516ccf0", "is_disabled": 0, "is_reserved": 0}, {"rental_uris": {"ios": "https://dc.lft.to/lastmile_qr_scan", "android": "https://dc.lft.to/lastmile_qr_scan"}, "lon": -77.01077033333334, "type": "electric_bike", "fusion_lat": 0.0, "lat": 38.9626025, "name": "563abb04033769fd6cbbc45215261e6c", "fusion_lon": 0.0, "bike_id": "563abb04033769fd6cbbc45215261e6c", "is_disabled": 0, "is_reserved": 0}, {"rental_uris": {"ios": "https://dc.lft.to/lastmile_qr_scan", "android": "https://dc.lft.to/lastmile_qr_scan"}, "lon": -77.041555, "type": "electric_scooter", "fusion_lat": 0.0, "lat": 38.91789933333333, "name": "8b3b5dc02ded9807bdf9d802ca93c664", "fusion_lon": 0.0, "bike_id": "8b3b5dc02ded9807bdf9d802ca93c664", "is_disabled": 0, "is_reserved": 0}, {"rental_uris": {"ios": "https://dc.lft.to/lastmile_qr_scan", "android": "https://dc.lft.to/lastmile_qr_scan"}, "lon": -77.037436, "type": "electric_scooter", "fusion_lat": 0.0, "lat": 38.91482583333333, "name": "87c83d09affe358835440a3ccd883d7c", "fusion_lon": 0.0, "bike_id": "87c83d09affe358835440a3ccd883d7c", "is_disabled": 0, "is_reserved": 0}, {"rental_uris": {"ios": "https://dc.lft.to/lastmile_qr_scan", "android": "https://dc.lft.to/lastmile_qr_scan"}, "lon": -76.98020216666667, "type": "electric_scooter", "fusion_lat": 0.0, "lat": 38.903793, "name": "5373765be26122bc98529b15b0742d30", "fusion_lon": 0.0, "bike_id": "5373765be26122bc98529b15b0742d30", "is_disabled": 0, "is_reserved": 0}, {"rental_uris": {"ios": "https://dc.lft.to/lastmile_qr_scan", "android": "https://dc.lft.to/lastmile_qr_scan"}, "lon": -76.99837983333333, "type": "electric_bike", "fusion_lat": 0.0, "lat": 38.83915966666667, "name": "e86da9e4bab2d65ff48ef90d3674874b", "fusion_lon": 0.0, "bike_id": "e86da9e4bab2d65ff48ef90d3674874b", "is_disabled": 0, "is_reserved": 0}, {"rental_uris": {"ios": "https://dc.lft.to/lastmile_qr_scan", "android": "https://dc.lft.to/lastmile_qr_scan"}, "lon": -76.94963466666667, "type": "electric_scooter", "fusion_lat": 0.0, "lat": 38.89370616666667, "name": "24d1174d8d6e11eac7841e894a23313c", "fusion_lon": 0.0, "bike_id": "24d1174d8d6e11eac7841e894a23313c", "is_disabled": 0, "is_reserved": 0}, {"rental_uris": {"ios": "https://dc.lft.to/lastmile_qr_scan", "android": "https://dc.lft.to/lastmile_qr_scan"}, "lon": -77.12814566666667, "type": "electric_bike", "fusion_lat": 0.0, "lat": 38.86534483333333, "name": "81c6366a735c26ba1d5ed08672c57faa", "fusion_lon": 0.0, "bike_id": "81c6366a735c26ba1d5ed08672c57faa", "is_disabled": 0, "is_reserved": 0}, {"rental_uris": {"ios": "https://dc.lft.to/lastmile_qr_scan", "android": "https://dc.lft.to/lastmile_qr_scan"}, "lon": -77.02966333333333, "type": "electric_scooter", "fusion_lat": 0.0, "lat": 38.90735466666667, "name": "fbcd5ee14325b08fb97a191e3b91a9bd", "fusion_lon": 0.0, "bike_id": "fbcd5ee14325b08fb97a191e3b91a9bd", "is_disabled": 0, "is_reserved": 0}, {"rental_uris": {"ios": "https://dc.lft.to/lastmile_qr_scan", "android": "https://dc.lft.to/lastmile_qr_scan"}, "lon": -77.12985783333333, "type": "electric_bike", "fusion_lat": 0.0, "lat": 38.79990433333333, "name": "77ae537c1ef3b7f006a163539c38b822", "fusion_lon": 0.0, "bike_id": "77ae537c1ef3b7f006a163539c38b822", "is_disabled": 0, "is_reserved": 0}, {"rental_uris": {"ios": "https://dc.lft.to/lastmile_qr_scan", "android": "https://dc.lft.to/lastmile_qr_scan"}, "lon": -77.07043066666667, "type": "electric_bike", "fusion_lat": 0.0, "lat": 38.8244345, "name": "9bde15d4564214307aa83fd9c66f12ba", "fusion_lon": 0.0, "bike_id": "9bde15d4564214307aa83fd9c66f12ba", "is_disabled": 0, "is_reserved": 0}, {"rental_uris": {"ios": "https://dc.lft.to/lastmile_qr_scan", "android": "https://dc.lft.to/lastmile_qr_scan"}, "lon": -76.91601533333333, "type": "electric_bike", "fusion_lat": 0.0, "lat": 38.87980366666667, "name": "bb550bc08d04f97eff15ea832f33460e", "fusion_lon": 0.0, "bike_id": "bb550bc08d04f97eff15ea832f33460e", "is_disabled": 0, "is_reserved": 0}, {"rental_uris": {"ios": "https://dc.lft.to/lastmile_qr_scan", "android": "https://dc.lft.to/lastmile_qr_scan"}, "lon": -77.06394483333334, "type": "electric_scooter", "fusion_lat": 0.0, "lat": 38.929073, "name": "b5087d6b9f48c0c223a13ad3659a27f1", "fusion_lon": 0.0, "bike_id": "b5087d6b9f48c0c223a13ad3659a27f1", "is_disabled": 0, "is_reserved": 0}, {"rental_uris": {"ios": "https://dc.lft.to/lastmile_qr_scan", "android": "https://dc.lft.to/lastmile_qr_scan"}, "lon": -77.03109933333333, "type": "electric_scooter", "fusion_lat": 0.0, "lat": 38.91180416666667, "name": "df6289772f7024b1b20a1ea4c6551636", "fusion_lon": 0.0, "bike_id": "df6289772f7024b1b20a1ea4c6551636", "is_disabled": 0, "is_reserved": 0}, {"rental_uris": {"ios": "https://dc.lft.to/lastmile_qr_scan", "android": "https://dc.lft.to/lastmile_qr_scan"}, "lon": -77.050248, "type": "electric_scooter", "fusion_lat": 0.0, "lat": 38.92355466666667, "name": "07f8e0e94da1af04e52977d1f95aabd0", "fusion_lon": 0.0, "bike_id": "07f8e0e94da1af04e52977d1f95aabd0", "is_disabled": 0, "is_reserved": 0}, {"rental_uris": {"ios": "https://dc.lft.to/lastmile_qr_scan", "android": "https://dc.lft.to/lastmile_qr_scan"}, "lon": -77.024779, "type": "electric_scooter", "fusion_lat": 0.0, "lat": 38.918139333333336, "name": "f4cb50e089f88f4cd4f464bd3ddc4309", "fusion_lon": 0.0, "bike_id": "f4cb50e089f88f4cd4f464bd3ddc4309", "is_disabled": 0, "is_reserved": 0}, {"rental_uris": {"ios": "https://dc.lft.to/lastmile_qr_scan", "android": "https://dc.lft.to/lastmile_qr_scan"}, "lon": -77.03958233333333, "type": "electric_scooter", "fusion_lat": 0.0, "lat": 38.902594666666666, "name": "64a5f9e5e1d5bd7c8691a7043cad5547", "fusion_lon": 0.0, "bike_id": "64a5f9e5e1d5bd7c8691a7043cad5547", "is_disabled": 0, "is_reserved": 0}, {"rental_uris": {"ios": "https://dc.lft.to/lastmile_qr_scan", "android": "https://dc.lft.to/lastmile_qr_scan"}, "lon": -77.02177233333333, "type": "electric_scooter", "fusion_lat": 0.0, "lat": 38.912658, "name": "5184d1f9431e2df3dc461138f3a7dd37", "fusion_lon": 0.0, "bike_id": "5184d1f9431e2df3dc461138f3a7dd37", "is_disabled": 0, "is_reserved": 0}, {"rental_uris": {"ios": "https://dc.lft.to/lastmile_qr_scan", "android": "https://dc.lft.to/lastmile_qr_scan"}, "lon": -77.02950433333334, "type": "electric_scooter", "fusion_lat": 0.0, "lat": 38.905060666666664, "name": "9e9eda46f72422cb34dbf025058fd687", "fusion_lon": 0.0, "bike_id": "9e9eda46f72422cb34dbf025058fd687", "is_disabled": 0, "is_reserved": 0}, {"rental_uris": {"ios": "https://dc.lft.to/lastmile_qr_scan", "android": "https://dc.lft.to/lastmile_qr_scan"}, "lon": -76.95243483333333, "type": "electric_bike", "fusion_lat": 0.0, "lat": 38.907041166666666, "name": "819815b317db6dc9455f15163f3870da", "fusion_lon": 0.0, "bike_id": "819815b317db6dc9455f15163f3870da", "is_disabled": 0, "is_reserved": 0}, {"rental_uris": {"ios": "https://dc.lft.to/lastmile_qr_scan", "android": "https://dc.lft.to/lastmile_qr_scan"}, "lon": -77.01313783333333, "type": "electric_scooter", "fusion_lat": 0.0, "lat": 38.89737233333334, "name": "6679d32b49a7f5e29549aa89ade5bb18", "fusion_lon": 0.0, "bike_id": "6679d32b49a7f5e29549aa89ade5bb18", "is_disabled": 0, "is_reserved": 0}, {"rental_uris": {"ios": "https://dc.lft.to/lastmile_qr_scan", "android": "https://dc.lft.to/lastmile_qr_scan"}, "lon": -76.98073866666667, "type": "electric_bike", "fusion_lat": 0.0, "lat": 38.899676, "name": "ec2d37858322662dc2eb0558c26ee78f", "fusion_lon": 0.0, "bike_id": "ec2d37858322662dc2eb0558c26ee78f", "is_disabled": 0, "is_reserved": 0}, {"rental_uris": {"ios": "https://dc.lft.to/lastmile_qr_scan", "android": "https://dc.lft.to/lastmile_qr_scan"}, "lon": -77.022938, "type": "electric_scooter", "fusion_lat": 0.0, "lat": 38.91569716666667, "name": "639e3ce558a49a082d777aa8e647b871", "fusion_lon": 0.0, "bike_id": "639e3ce558a49a082d777aa8e647b871", "is_disabled": 0, "is_reserved": 0}, {"rental_uris": {"ios": "https://dc.lft.to/lastmile_qr_scan", "android": "https://dc.lft.to/lastmile_qr_scan"}, "lon": -77.02304333333333, "type": "electric_scooter", "fusion_lat": 0.0, "lat": 38.91795466666667, "name": "702120a42635c52d97545596e45d9e37", "fusion_lon": 0.0, "bike_id": "702120a42635c52d97545596e45d9e37", "is_disabled": 0, "is_reserved": 0}, {"rental_uris": {"ios": "https://dc.lft.to/lastmile_qr_scan", "android": "https://dc.lft.to/lastmile_qr_scan"}, "lon": -77.02205983333333, "type": "electric_scooter", "fusion_lat": 0.0, "lat": 38.8871625, "name": "c263e589a5ef5f268fc65230d237a2df", "fusion_lon": 0.0, "bike_id": "c263e589a5ef5f268fc65230d237a2df", "is_disabled": 0, "is_reserved": 0}, {"rental_uris": {"ios": "https://dc.lft.to/lastmile_qr_scan", "android": "https://dc.lft.to/lastmile_qr_scan"}, "lon": -77.0282065, "type": "electric_bike", "fusion_lat": 0.0, "lat": 38.965043, "name": "ed4d5e2f1c05486ec7c3dedc9c30fd6f", "fusion_lon": 0.0, "bike_id": "ed4d5e2f1c05486ec7c3dedc9c30fd6f", "is_disabled": 0, "is_reserved": 0}, {"rental_uris": {"ios": "https://dc.lft.to/lastmile_qr_scan", "android": "https://dc.lft.to/lastmile_qr_scan"}, "lon": -77.04153066666667, "type": "electric_scooter", "fusion_lat": 0.0, "lat": 38.9236265, "name": "7b58afc5dd9136c3bf93cf46b7875ae9", "fusion_lon": 0.0, "bike_id": "7b58afc5dd9136c3bf93cf46b7875ae9", "is_disabled": 0, "is_reserved": 0}, {"rental_uris": {"ios": "https://dc.lft.to/lastmile_qr_scan", "android": "https://dc.lft.to/lastmile_qr_scan"}, "lon": -77.05004466666666, "type": "electric_scooter", "fusion_lat": 0.0, "lat": 38.892314166666665, "name": "ea95b0224d1e1dd8cf85eeb8cf8f3e1a", "fusion_lon": 0.0, "bike_id": "ea95b0224d1e1dd8cf85eeb8cf8f3e1a", "is_disabled": 0, "is_reserved": 0}, {"rental_uris": {"ios": "https://dc.lft.to/lastmile_qr_scan", "android": "https://dc.lft.to/lastmile_qr_scan"}, "lon": -77.11246933333334, "type": "electric_bike", "fusion_lat": 0.0, "lat": 38.812316, "name": "08620ecda2e4f5bc501dd1d33a5d3538", "fusion_lon": 0.0, "bike_id": "08620ecda2e4f5bc501dd1d33a5d3538", "is_disabled": 0, "is_reserved": 0}, {"rental_uris": {"ios": "https://dc.lft.to/lastmile_qr_scan", "android": "https://dc.lft.to/lastmile_qr_scan"}, "lon": -77.0135525, "type": "electric_scooter", "fusion_lat": 0.0, "lat": 38.871192, "name": "64a604e5c92e597259666565d1f2dff9", "fusion_lon": 0.0, "bike_id": "64a604e5c92e597259666565d1f2dff9", "is_disabled": 0, "is_reserved": 0}, {"rental_uris": {"ios": "https://dc.lft.to/lastmile_qr_scan", "android": "https://dc.lft.to/lastmile_qr_scan"}, "lon": -77.03180916666666, "type": "electric_scooter", "fusion_lat": 0.0, "lat": 38.91354066666667, "name": "991f88d48d13774c51215639db271588", "fusion_lon": 0.0, "bike_id": "991f88d48d13774c51215639db271588", "is_disabled": 0, "is_reserved": 0}, {"rental_uris": {"ios": "https://dc.lft.to/lastmile_qr_scan", "android": "https://dc.lft.to/lastmile_qr_scan"}, "lon": -76.9492875, "type": "electric_scooter", "fusion_lat": 0.0, "lat": 38.89479266666667, "name": "078cecccb3e259c28611c9d26929bc76", "fusion_lon": 0.0, "bike_id": "078cecccb3e259c28611c9d26929bc76", "is_disabled": 0, "is_reserved": 0}, {"rental_uris": {"ios": "https://dc.lft.to/lastmile_qr_scan", "android": "https://dc.lft.to/lastmile_qr_scan"}, "lon": -77.023329, "type": "electric_scooter", "fusion_lat": 0.0, "lat": 38.893963166666666, "name": "b763f67610b5b6e00ee99394f4bf806e", "fusion_lon": 0.0, "bike_id": "b763f67610b5b6e00ee99394f4bf806e", "is_disabled": 0, "is_reserved": 0}, {"rental_uris": {"ios": "https://dc.lft.to/lastmile_qr_scan", "android": "https://dc.lft.to/lastmile_qr_scan"}, "lon": -77.02201866666667, "type": "electric_scooter", "fusion_lat": 0.0, "lat": 38.908341166666666, "name": "ad7ca7d03a7b39ddb84fc028e06ebb1e", "fusion_lon": 0.0, "bike_id": "ad7ca7d03a7b39ddb84fc028e06ebb1e", "is_disabled": 0, "is_reserved": 0}, {"rental_uris": {"ios": "https://dc.lft.to/lastmile_qr_scan", "android": "https://dc.lft.to/lastmile_qr_scan"}, "lon": -77.03386933333333, "type": "electric_scooter", "fusion_lat": 0.0, "lat": 38.88658433333333, "name": "7e46d7f906cbf6cbffffd2c121758151", "fusion_lon": 0.0, "bike_id": "7e46d7f906cbf6cbffffd2c121758151", "is_disabled": 0, "is_reserved": 0}, {"rental_uris": {"ios": "https://dc.lft.to/lastmile_qr_scan", "android": "https://dc.lft.to/lastmile_qr_scan"}, "lon": -77.02597966666667, "type": "electric_scooter", "fusion_lat": 0.0, "lat": 38.975862, "name": "d2b7a271fe0e9d11bcce0230945287eb", "fusion_lon": 0.0, "bike_id": "d2b7a271fe0e9d11bcce0230945287eb", "is_disabled": 0, "is_reserved": 0}, {"rental_uris": {"ios": "https://dc.lft.to/lastmile_qr_scan", "android": "https://dc.lft.to/lastmile_qr_scan"}, "lon": -77.02116383333333, "type": "electric_scooter", "fusion_lat": 0.0, "lat": 38.894885333333335, "name": "4b782b329b653a73569d9c53bc4c418e", "fusion_lon": 0.0, "bike_id": "4b782b329b653a73569d9c53bc4c418e", "is_disabled": 0, "is_reserved": 0}, {"rental_uris": {"ios": "https://dc.lft.to/lastmile_qr_scan", "android": "https://dc.lft.to/lastmile_qr_scan"}, "lon": -77.0529625, "type": "electric_scooter", "fusion_lat": 0.0, "lat": 38.92794116666666, "name": "f9ba2f29cdd62870e85600155c84af75", "fusion_lon": 0.0, "bike_id": "f9ba2f29cdd62870e85600155c84af75", "is_disabled": 0, "is_reserved": 0}, {"rental_uris": {"ios": "https://dc.lft.to/lastmile_qr_scan", "android": "https://dc.lft.to/lastmile_qr_scan"}, "lon": -77.0037405, "type": "electric_scooter", "fusion_lat": 0.0, "lat": 38.876621, "name": "d11bc08b3c093c1f9acb90df020aa5e3", "fusion_lon": 0.0, "bike_id": "d11bc08b3c093c1f9acb90df020aa5e3", "is_disabled": 0, "is_reserved": 0}, {"rental_uris": {"ios": "https://dc.lft.to/lastmile_qr_scan", "android": "https://dc.lft.to/lastmile_qr_scan"}, "lon": -77.053552, "type": "electric_scooter", "fusion_lat": 0.0, "lat": 38.928002166666666, "name": "222b906f290ddcb111076ece83e451d0", "fusion_lon": 0.0, "bike_id": "222b906f290ddcb111076ece83e451d0", "is_disabled": 0, "is_reserved": 0}, {"rental_uris": {"ios": "https://dc.lft.to/lastmile_qr_scan", "android": "https://dc.lft.to/lastmile_qr_scan"}, "lon": -77.02394483333333, "type": "electric_scooter", "fusion_lat": 0.0, "lat": 38.91593783333333, "name": "7a4fd393edb4dbed83a7c5085ea90d37", "fusion_lon": 0.0, "bike_id": "7a4fd393edb4dbed83a7c5085ea90d37", "is_disabled": 0, "is_reserved": 0}, {"rental_uris": {"ios": "https://dc.lft.to/lastmile_qr_scan", "android": "https://dc.lft.to/lastmile_qr_scan"}, "lon": -77.05219566666666, "type": "electric_scooter", "fusion_lat": 0.0, "lat": 38.9249615, "name": "6c1830644924cf6d15098e6931ae87e0", "fusion_lon": 0.0, "bike_id": "6c1830644924cf6d15098e6931ae87e0", "is_disabled": 0, "is_reserved": 0}, {"rental_uris": {"ios": "https://dc.lft.to/lastmile_qr_scan", "android": "https://dc.lft.to/lastmile_qr_scan"}, "lon": -77.020059, "type": "electric_scooter", "fusion_lat": 0.0, "lat": 38.9026755, "name": "1d7dcb40d7c7f6d30c0a9333a25e5458", "fusion_lon": 0.0, "bike_id": "1d7dcb40d7c7f6d30c0a9333a25e5458", "is_disabled": 0, "is_reserved": 0}, {"rental_uris": {"ios": "https://dc.lft.to/lastmile_qr_scan", "android": "https://dc.lft.to/lastmile_qr_scan"}, "lon": -77.02698366666667, "type": "electric_scooter", "fusion_lat": 0.0, "lat": 38.908687666666665, "name": "b3497a7646a1591827da2d3d80223cbe", "fusion_lon": 0.0, "bike_id": "b3497a7646a1591827da2d3d80223cbe", "is_disabled": 0, "is_reserved": 0}, {"rental_uris": {"ios": "https://dc.lft.to/lastmile_qr_scan", "android": "https://dc.lft.to/lastmile_qr_scan"}, "lon": -77.12903133333333, "type": "electric_bike", "fusion_lat": 0.0, "lat": 38.86379616666667, "name": "610fbbea4cb54bdf31a583d98798123f", "fusion_lon": 0.0, "bike_id": "610fbbea4cb54bdf31a583d98798123f", "is_disabled": 0, "is_reserved": 0}, {"rental_uris": {"ios": "https://dc.lft.to/lastmile_qr_scan", "android": "https://dc.lft.to/lastmile_qr_scan"}, "lon": -77.018265, "type": "electric_scooter", "fusion_lat": 0.0, "lat": 38.8769405, "name": "380f7096de5c1d641b95c593ee00af03", "fusion_lon": 0.0, "bike_id": "380f7096de5c1d641b95c593ee00af03", "is_disabled": 0, "is_reserved": 0}, {"rental_uris": {"ios": "https://dc.lft.to/lastmile_qr_scan", "android": "https://dc.lft.to/lastmile_qr_scan"}, "lon": -77.06627866666666, "type": "electric_scooter", "fusion_lat": 0.0, "lat": 38.91368033333333, "name": "5839d9bce139a5edb6799363feee4914", "fusion_lon": 0.0, "bike_id": "5839d9bce139a5edb6799363feee4914", "is_disabled": 0, "is_reserved": 0}, {"rental_uris": {"ios": "https://dc.lft.to/lastmile_qr_scan", "android": "https://dc.lft.to/lastmile_qr_scan"}, "lon": -77.048892, "type": "electric_scooter", "fusion_lat": 0.0, "lat": 38.90591916666666, "name": "3f38d95e5f58436c70764093288d2ba0", "fusion_lon": 0.0, "bike_id": "3f38d95e5f58436c70764093288d2ba0", "is_disabled": 0, "is_reserved": 0}, {"rental_uris": {"ios": "https://dc.lft.to/lastmile_qr_scan", "android": "https://dc.lft.to/lastmile_qr_scan"}, "lon": -77.03230133333334, "type": "electric_scooter", "fusion_lat": 0.0, "lat": 38.912760166666665, "name": "99fd574c2ebce860628d016b44681b66", "fusion_lon": 0.0, "bike_id": "99fd574c2ebce860628d016b44681b66", "is_disabled": 0, "is_reserved": 0}, {"rental_uris": {"ios": "https://dc.lft.to/lastmile_qr_scan", "android": "https://dc.lft.to/lastmile_qr_scan"}, "lon": -76.98378066666666, "type": "electric_scooter", "fusion_lat": 0.0, "lat": 38.86034433333333, "name": "5829d4440fba27b9c8163fc9bc14b1a8", "fusion_lon": 0.0, "bike_id": "5829d4440fba27b9c8163fc9bc14b1a8", "is_disabled": 0, "is_reserved": 0}, {"rental_uris": {"ios": "https://dc.lft.to/lastmile_qr_scan", "android": "https://dc.lft.to/lastmile_qr_scan"}, "lon": -77.02960316666666, "type": "electric_scooter", "fusion_lat": 0.0, "lat": 38.911751833333334, "name": "514f678126c6457897cc31e6ed05df70", "fusion_lon": 0.0, "bike_id": "514f678126c6457897cc31e6ed05df70", "is_disabled": 0, "is_reserved": 0}, {"rental_uris": {"ios": "https://dc.lft.to/lastmile_qr_scan", "android": "https://dc.lft.to/lastmile_qr_scan"}, "lon": -77.06049733333333, "type": "electric_scooter", "fusion_lat": 0.0, "lat": 38.939082666666664, "name": "af0a4db26c17925458f8b594a6b85b39", "fusion_lon": 0.0, "bike_id": "af0a4db26c17925458f8b594a6b85b39", "is_disabled": 0, "is_reserved": 0}, {"rental_uris": {"ios": "https://dc.lft.to/lastmile_qr_scan", "android": "https://dc.lft.to/lastmile_qr_scan"}, "lon": -77.03928566666667, "type": "electric_scooter", "fusion_lat": 0.0, "lat": 38.91755083333334, "name": "cb532c6d9186cf90e696bf85a22c71d4", "fusion_lon": 0.0, "bike_id": "cb532c6d9186cf90e696bf85a22c71d4", "is_disabled": 0, "is_reserved": 0}, {"rental_uris": {"ios": "https://dc.lft.to/lastmile_qr_scan", "android": "https://dc.lft.to/lastmile_qr_scan"}, "lon": -77.03448216666666, "type": "electric_scooter", "fusion_lat": 0.0, "lat": 38.9053595, "name": "b3eb563f7631dbddeb80b6eb4b7fa785", "fusion_lon": 0.0, "bike_id": "b3eb563f7631dbddeb80b6eb4b7fa785", "is_disabled": 0, "is_reserved": 0}, {"rental_uris": {"ios": "https://dc.lft.to/lastmile_qr_scan", "android": "https://dc.lft.to/lastmile_qr_scan"}, "lon": -76.99591716666667, "type": "electric_scooter", "fusion_lat": 0.0, "lat": 38.92227783333333, "name": "651e53d9b36264083b66a88e3d04d93b", "fusion_lon": 0.0, "bike_id": "651e53d9b36264083b66a88e3d04d93b", "is_disabled": 0, "is_reserved": 0}, {"rental_uris": {"ios": "https://dc.lft.to/lastmile_qr_scan", "android": "https://dc.lft.to/lastmile_qr_scan"}, "lon": -77.02979683333334, "type": "electric_scooter", "fusion_lat": 0.0, "lat": 38.9405035, "name": "81648b1836e9ce55136bd3d7b792bdcb", "fusion_lon": 0.0, "bike_id": "81648b1836e9ce55136bd3d7b792bdcb", "is_disabled": 0, "is_reserved": 0}, {"rental_uris": {"ios": "https://dc.lft.to/lastmile_qr_scan", "android": "https://dc.lft.to/lastmile_qr_scan"}, "lon": -77.008008, "type": "electric_bike", "fusion_lat": 0.0, "lat": 38.949242166666664, "name": "9d56745d1f20f0ec389470fa19ef53a5", "fusion_lon": 0.0, "bike_id": "9d56745d1f20f0ec389470fa19ef53a5", "is_disabled": 0, "is_reserved": 0}, {"rental_uris": {"ios": "https://dc.lft.to/lastmile_qr_scan", "android": "https://dc.lft.to/lastmile_qr_scan"}, "lon": -77.00667833333333, "type": "electric_scooter", "fusion_lat": 0.0, "lat": 38.874844833333334, "name": "836cf33fed9516c81919cdf0995304c5", "fusion_lon": 0.0, "bike_id": "836cf33fed9516c81919cdf0995304c5", "is_disabled": 0, "is_reserved": 0}, {"rental_uris": {"ios": "https://dc.lft.to/lastmile_qr_scan", "android": "https://dc.lft.to/lastmile_qr_scan"}, "lon": -77.0392775, "type": "electric_scooter", "fusion_lat": 0.0, "lat": 38.92614116666667, "name": "d0d50bc9e1315232eb03fd4ce31ca0b1", "fusion_lon": 0.0, "bike_id": "d0d50bc9e1315232eb03fd4ce31ca0b1", "is_disabled": 0, "is_reserved": 0}, {"rental_uris": {"ios": "https://dc.lft.to/lastmile_qr_scan", "android": "https://dc.lft.to/lastmile_qr_scan"}, "lon": -77.02768016666667, "type": "electric_scooter", "fusion_lat": 0.0, "lat": 38.89203666666667, "name": "f1db6ec54cab73a2b981d0d034ce8eb8", "fusion_lon": 0.0, "bike_id": "f1db6ec54cab73a2b981d0d034ce8eb8", "is_disabled": 0, "is_reserved": 0}, {"rental_uris": {"ios": "https://dc.lft.to/lastmile_qr_scan", "android": "https://dc.lft.to/lastmile_qr_scan"}, "lon": -77.00058416666667, "type": "electric_scooter", "fusion_lat": 0.0, "lat": 38.87379216666667, "name": "591cf71ca5dc85561b6551ed53e2b85f", "fusion_lon": 0.0, "bike_id": "591cf71ca5dc85561b6551ed53e2b85f", "is_disabled": 0, "is_reserved": 0}, {"rental_uris": {"ios": "https://dc.lft.to/lastmile_qr_scan", "android": "https://dc.lft.to/lastmile_qr_scan"}, "lon": -77.03834833333333, "type": "electric_scooter", "fusion_lat": 0.0, "lat": 38.903808833333336, "name": "cb8cac282afd5c9a7529d13e4d58907a", "fusion_lon": 0.0, "bike_id": "cb8cac282afd5c9a7529d13e4d58907a", "is_disabled": 0, "is_reserved": 0}, {"rental_uris": {"ios": "https://dc.lft.to/lastmile_qr_scan", "android": "https://dc.lft.to/lastmile_qr_scan"}, "lon": -77.1412105, "type": "electric_bike", "fusion_lat": 0.0, "lat": 38.81603916666667, "name": "9dff25bbc5665c6f492c6c004305e49b", "fusion_lon": 0.0, "bike_id": "9dff25bbc5665c6f492c6c004305e49b", "is_disabled": 0, "is_reserved": 0}, {"rental_uris": {"ios": "https://dc.lft.to/lastmile_qr_scan", "android": "https://dc.lft.to/lastmile_qr_scan"}, "lon": -77.03430816666666, "type": "electric_scooter", "fusion_lat": 0.0, "lat": 38.927358166666664, "name": "ad2f0201580a08944be65d8a2b3fe53e", "fusion_lon": 0.0, "bike_id": "ad2f0201580a08944be65d8a2b3fe53e", "is_disabled": 0, "is_reserved": 0}, {"rental_uris": {"ios": "https://dc.lft.to/lastmile_qr_scan", "android": "https://dc.lft.to/lastmile_qr_scan"},