{"data": {"bikes": [{"rental_uris": {"android": "https://dc.lft.to/lastmile_qr_scan", "ios": "https://dc.lft.to/lastmile_qr_scan"}, "type": "electric_scooter", "lon": -77.01754783333334, "name": "a0818829bc4e39e94dc6ab4a85764c8a", "bike_id": "a0818829bc4e39e94dc6ab4a85764c8a", "fusion_lat": 0.0, "is_reserved": 0, "lat": 38.9135225, "fusion_lon": 0.0, "is_disabled": 0}, {"rental_uris": {"android": "https://dc.lft.to/lastmile_qr_scan", "ios": "https://dc.lft.to/lastmile_qr_scan"}, "type": "electric_scooter", "lon": -77.04662883333333, "name": "099f0c7c62bbf644d163d15c874bd565", "bike_id": "099f0c7c62bbf644d163d15c874bd565", "fusion_lat": 0.0, "is_reserved": 0, "lat": 38.89228083333333, "fusion_lon": 0.0, "is_disabled": 0}, {"rental_uris": {"android": "https://dc.lft.to/lastmile_qr_scan", "ios": "https://dc.lft.to/lastmile_qr_scan"}, "type": "electric_bike", "lon": -76.98755216666666, "name": "757d7deaa8553fbe2ecca5f5e4e114b5", "bike_id": "757d7deaa8553fbe2ecca5f5e4e114b5", "fusion_lat": 0.0, "is_reserved": 0, "lat": 38.98824283333333, "fusion_lon": 0.0, "is_disabled": 0}, {"rental_uris": {"android": "https://dc.lft.to/lastmile_qr_scan", "ios": "https://dc.lft.to/lastmile_qr_scan"}, "type": "electric_scooter", "lon": -77.02430166666667, "name": "91a248145cd8f8ee6fd91b05cdc4c499", "bike_id": "91a248145cd8f8ee6fd91b05cdc4c499", "fusion_lat": 0.0, "is_reserved": 0, "lat": 38.920424833333335, "fusion_lon": 0.0, "is_disabled": 0}, {"rental_uris": {"android": "https://dc.lft.to/lastmile_qr_scan", "ios": "https://dc.lft.to/lastmile_qr_scan"}, "type": "electric_scooter", "lon": -77.01199416666667, "name": "a5ddca7618ae2f79c57442afbb74f761", "bike_id": "a5ddca7618ae2f79c57442afbb74f761", "fusion_lat": 0.0, "is_reserved": 0, "lat": 38.895368500000004, "fusion_lon": 0.0, "is_disabled": 0}, {"rental_uris": {"android": "https://dc.lft.to/lastmile_qr_scan", "ios": "https://dc.lft.to/lastmile_qr_scan"}, "type": "electric_scooter", "lon": -77.02351233333333, "name": "575333cb7fb178fdbf740926f7346227", "bike_id": "575333cb7fb178fdbf740926f7346227", "fusion_lat": 0.0, "is_reserved": 0, "lat": 38.90203483333333, "fusion_lon": 0.0, "is_disabled": 0}, {"rental_uris": {"android": "https://dc.lft.to/lastmile_qr_scan", "ios": "https://dc.lft.to/lastmile_qr_scan"}, "type": "electric_bike", "lon": -76.992433, "name": "2648e30ea6eefceda4f6144cc7250589", "bike_id": "2648e30ea6eefceda4f6144cc7250589", "fusion_lat": 0.0, "is_reserved": 0, "lat": 38.92341066666667, "fusion_lon": 0.0, "is_disabled": 0}, {"rental_uris": {"android": "https://dc.lft.to/lastmile_qr_scan", "ios": "https://dc.lft.to/lastmile_qr_scan"}, "type": "electric_scooter", "lon": -77.03155283333334, "name": "1e5ed84589dc6c9c4a9cab5beaf35f12", "bike_id": "1e5ed84589dc6c9c4a9cab5beaf35f12", "fusion_lat": 0.0, "is_reserved": 0, "lat": 38.9281125, "fusion_lon": 0.0, "is_disabled": 0}, {"rental_uris": {"android": "https://dc.lft.to/lastmile_qr_scan", "ios": "https://dc.lft.to/lastmile_qr_scan"}, "type": "electric_scooter", "lon": -76.9346405, "name": "d9e32a5116e8f985ecf8fa0deb11475f", "bike_id": "d9e32a5116e8f985ecf8fa0deb11475f", "fusion_lat": 0.0, "is_reserved": 0, "lat": 38.90182466666667, "fusion_lon": 0.0, "is_disabled": 0}, {"rental_uris": {"android": "https://dc.lft.to/lastmile_qr_scan", "ios": "https://dc.lft.to/lastmile_qr_scan"}, "type": "electric_bike", "lon": -76.93891783333333, "name": "f2620a51a57b4331549425b1a9e00447", "bike_id": "f2620a51a57b4331549425b1a9e00447", "fusion_lat": 0.0, "is_reserved": 0, "lat": 38.95610633333333, "fusion_lon": 0.0, "is_disabled": 0}, {"rental_uris": {"android": "https://dc.lft.to/lastmile_qr_scan", "ios": "https://dc.lft.to/lastmile_qr_scan"}, "type": "electric_scooter", "lon": -77.02029616666667, "name": "5b611fd65b6df4b43135549166bda42c", "bike_id": "5b611fd65b6df4b43135549166bda42c", "fusion_lat": 0.0, "is_reserved": 0, "lat": 38.898642, "fusion_lon": 0.0, "is_disabled": 0}, {"rental_uris": {"android": "https://dc.lft.to/lastmile_qr_scan", "ios": "https://dc.lft.to/lastmile_qr_scan"}, "type": "electric_scooter", "lon": -76.9963365, "name": "9d15654209792954946d79a8b61ad1cd", "bike_id": "9d15654209792954946d79a8b61ad1cd", "fusion_lat": 0.0, "is_reserved": 0, "lat": 38.846186, "fusion_lon": 0.0, "is_disabled": 0}, {"rental_uris": {"android": "https://dc.lft.to/lastmile_qr_scan", "ios": "https://dc.lft.to/lastmile_qr_scan"}, "type": "electric_scooter", "lon": -77.0314635, "name": "d79ad71f781bd89032bef997ecf62891", "bike_id": "d79ad71f781bd89032bef997ecf62891", "fusion_lat": 0.0, "is_reserved": 0, "lat": 38.93178116666667, "fusion_lon": 0.0, "is_disabled": 0}, {"rental_uris": {"android": "https://dc.lft.to/lastmile_qr_scan", "ios": "https://dc.lft.to/lastmile_qr_scan"}, "type": "electric_scooter", "lon": -77.01620083333333, "name": "28aedbbcb6f2496c4f2adb51cc0836a4", "bike_id": "28aedbbcb6f2496c4f2adb51cc0836a4", "fusion_lat": 0.0, "is_reserved": 0, "lat": 38.901970666666664, "fusion_lon": 0.0, "is_disabled": 0}, {"rental_uris": {"android": "https://dc.lft.to/lastmile_qr_scan", "ios": "https://dc.lft.to/lastmile_qr_scan"}, "type": "electric_scooter", "lon": -77.03479816666666, "name": "6caac88a4ca74cd6ee7eb179198830ff", "bike_id": "6caac88a4ca74cd6ee7eb179198830ff", "fusion_lat": 0.0, "is_reserved": 0, "lat": 38.910943833333334, "fusion_lon": 0.0, "is_disabled": 0}, {"rental_uris": {"android": "https://dc.lft.to/lastmile_qr_scan", "ios": "https://dc.lft.to/lastmile_qr_scan"}, "type": "electric_scooter", "lon": -77.03181416666666, "name": "1c1df329b0522ab50a82b5d6badb2e6e", "bike_id": "1c1df329b0522ab50a82b5d6badb2e6e", "fusion_lat": 0.0, "is_reserved": 0, "lat": 38.9106185, "fusion_lon": 0.0, "is_disabled": 0}, {"rental_uris": {"android": "https://dc.lft.to/lastmile_qr_scan", "ios": "https://dc.lft.to/lastmile_qr_scan"}, "type": "electric_scooter", "lon": -77.0060925, "name": "ec6c271e290616ad213dd37469307379", "bike_id": "ec6c271e290616ad213dd37469307379", "fusion_lat": 0.0, "is_reserved": 0, "lat": 38.905405, "fusion_lon": 0.0, "is_disabled": 0}, {"rental_uris": {"android": "https://dc.lft.to/lastmile_qr_scan", "ios": "https://dc.lft.to/lastmile_qr_scan"}, "type": "electric_scooter", "lon": -76.99010116666666, "name": "cba829e9caef6690aa3365d7f35def37", "bike_id": "cba829e9caef6690aa3365d7f35def37", "fusion_lat": 0.0, "is_reserved": 0, "lat": 38.90389716666667, "fusion_lon": 0.0, "is_disabled": 0}, {"rental_uris": {"android": "https://dc.lft.to/lastmile_qr_scan", "ios": "https://dc.lft.to/lastmile_qr_scan"}, "type": "electric_scooter", "lon": -77.00057783333334, "name": "84061f64a80ed556268859d186810ad1", "bike_id": "84061f64a80ed556268859d186810ad1", "fusion_lat": 0.0, "is_reserved": 0, "lat": 38.87664783333334, "fusion_lon": 0.0, "is_disabled": 0}, {"rental_uris": {"android": "https://dc.lft.to/lastmile_qr_scan", "ios": "https://dc.lft.to/lastmile_qr_scan"}, "type": "electric_scooter", "lon": -77.02961766666667, "name": "1a011aad66d6d4db9195221ed8c9019f", "bike_id": "1a011aad66d6d4db9195221ed8c9019f", "fusion_lat": 0.0, "is_reserved": 0, "lat": 38.921446333333336, "fusion_lon": 0.0, "is_disabled": 0}, {"rental_uris": {"android": "https://dc.lft.to/lastmile_qr_scan", "ios": "https://dc.lft.to/lastmile_qr_scan"}, "type": "electric_scooter", "lon": -77.041723, "name": "b5db8a89fdb25fcec3f73b0417d2b211", "bike_id": "b5db8a89fdb25fcec3f73b0417d2b211", "fusion_lat": 0.0, "is_reserved": 0, "lat": 38.91345483333333, "fusion_lon": 0.0, "is_disabled": 0}, {"rental_uris": {"android": "https://dc.lft.to/lastmile_qr_scan", "ios": "https://dc.lft.to/lastmile_qr_scan"}, "type": "electric_scooter", "lon": -77.02494583333333, "name": "e9dc7f2324e0a9bb997084514491d1c4", "bike_id": "e9dc7f2324e0a9bb997084514491d1c4", "fusion_lat": 0.0, "is_reserved": 0, "lat": 38.94186666666667, "fusion_lon": 0.0, "is_disabled": 0}, {"rental_uris": {"android": "https://dc.lft.to/lastmile_qr_scan", "ios": "https://dc.lft.to/lastmile_qr_scan"}, "type": "electric_scooter", "lon": -77.02748766666667, "name": "712bdfd9960235f3869918829d7348b2", "bike_id": "712bdfd9960235f3869918829d7348b2", "fusion_lat": 0.0, "is_reserved": 0, "lat": 38.956063666666665, "fusion_lon": 0.0, "is_disabled": 0}, {"rental_uris": {"android": "https://dc.lft.to/lastmile_qr_scan", "ios": "https://dc.lft.to/lastmile_qr_scan"}, "type": "electric_scooter", "lon": -77.04822816666666, "name": "2fd3f2f26c9c39bb206178467afe8c37", "bike_id": "2fd3f2f26c9c39bb206178467afe8c37", "fusion_lat": 0.0, "is_reserved": 0, "lat": 38.914857833333336, "fusion_lon": 0.0, "is_disabled": 0}, {"rental_uris": {"android": "https://dc.lft.to/lastmile_qr_scan", "ios": "https://dc.lft.to/lastmile_qr_scan"}, "type": "electric_scooter", "lon": -76.99493333333334, "name": "b13c2aa4f7d99bf04d5d7fa1ebe0e2b6", "bike_id": "b13c2aa4f7d99bf04d5d7fa1ebe0e2b6", "fusion_lat": 0.0, "is_reserved": 0, "lat": 38.86239783333333, "fusion_lon": 0.0, "is_disabled": 0}, {"rental_uris": {"android": "https://dc.lft.to/lastmile_qr_scan", "ios": "https://dc.lft.to/lastmile_qr_scan"}, "type": "electric_scooter", "lon": -77.04329816666667, "name": "6107103b01aada80876128e0189ec1bf", "bike_id": "6107103b01aada80876128e0189ec1bf", "fusion_lat": 0.0, "is_reserved": 0, "lat": 38.90390216666667, "fusion_lon": 0.0, "is_disabled": 0}, {"rental_uris": {"android": "https://dc.lft.to/lastmile_qr_scan", "ios": "https://dc.lft.to/lastmile_qr_scan"}, "type": "electric_scooter", "lon": -76.99034816666666, "name": "fabab55c01e51002c9b3d0b0d53ae6bb", "bike_id": "fabab55c01e51002c9b3d0b0d53ae6bb", "fusion_lat": 0.0, "is_reserved": 0, "lat": 38.85869783333333, "fusion_lon": 0.0, "is_disabled": 0}, {"rental_uris": {"android": "https://dc.lft.to/lastmile_qr_scan", "ios": "https://dc.lft.to/lastmile_qr_scan"}, "type": "electric_bike", "lon": -77.10923483333333, "name": "00f737f75513add93f12896091096fb3", "bike_id": "00f737f75513add93f12896091096fb3", "fusion_lat": 0.0, "is_reserved": 0, "lat": 39.051934833333334, "fusion_lon": 0.0, "is_disabled": 0}, {"rental_uris": {"android": "https://dc.lft.to/lastmile_qr_scan", "ios": "https://dc.lft.to/lastmile_qr_scan"}, "type": "electric_scooter", "lon": -77.04088366666667, "name": "2bfcaa8b96941250d96d040e6fa6a3b9", "bike_id": "2bfcaa8b96941250d96d040e6fa6a3b9", "fusion_lat": 0.0, "is_reserved": 0, "lat": 38.914812, "fusion_lon": 0.0, "is_disabled": 0}, {"rental_uris": {"android": "https://dc.lft.to/lastmile_qr_scan", "ios": "https://dc.lft.to/lastmile_qr_scan"}, "type": "electric_scooter", "lon": -76.99490183333333, "name": "19278374a0798fe2ae4c23742b9be9d7", "bike_id": "19278374a0798fe2ae4c23742b9be9d7", "fusion_lat": 0.0, "is_reserved": 0, "lat": 38.862415666666664, "fusion_lon": 0.0, "is_disabled": 0}, {"rental_uris": {"android": "https://dc.lft.to/lastmile_qr_scan", "ios": "https://dc.lft.to/lastmile_qr_scan"}, "type": "electric_scooter", "lon": -77.04904333333333, "name": "777ec745b0ce4b8f92af56bd6178e991", "bike_id": "777ec745b0ce4b8f92af56bd6178e991", "fusion_lat": 0.0, "is_reserved": 0, "lat": 38.89253333333333, "fusion_lon": 0.0, "is_disabled": 0}, {"rental_uris": {"android": "https://dc.lft.to/lastmile_qr_scan", "ios": "https://dc.lft.to/lastmile_qr_scan"}, "type": "electric_scooter", "lon": -76.9730005, "name": "a71cde90f445f050aa224b32f7e221be", "bike_id": "a71cde90f445f050aa224b32f7e221be", "fusion_lat": 0.0, "is_reserved": 0, "lat": 38.91987133333333, "fusion_lon": 0.0, "is_disabled": 0}, {"rental_uris": {"android": "https://dc.lft.to/lastmile_qr_scan", "ios": "https://dc.lft.to/lastmile_qr_scan"}, "type": "electric_scooter", "lon": -77.00813916666667, "name": "422173a670808af7296cad1871ca4af7", "bike_id": "422173a670808af7296cad1871ca4af7", "fusion_lat": 0.0, "is_reserved": 0, "lat": 38.876524833333335, "fusion_lon": 0.0, "is_disabled": 0}, {"rental_uris": {"android": "https://dc.lft.to/lastmile_qr_scan", "ios": "https://dc.lft.to/lastmile_qr_scan"}, "type": "electric_scooter", "lon": -76.96507916666667, "name": "450a591d97f29dab3263ea16b1615c22", "bike_id": "450a591d97f29dab3263ea16b1615c22", "fusion_lat": 0.0, "is_reserved": 0, "lat": 38.87642433333333, "fusion_lon": 0.0, "is_disabled": 0}, {"rental_uris": {"android": "https://dc.lft.to/lastmile_qr_scan", "ios": "https://dc.lft.to/lastmile_qr_scan"}, "type": "electric_scooter", "lon": -77.046607, "name": "786c2641d053d26ce7e7e2f10a76c86a", "bike_id": "786c2641d053d26ce7e7e2f10a76c86a", "fusion_lat": 0.0, "is_reserved": 0, "lat": 38.90409533333333, "fusion_lon": 0.0, "is_disabled": 0}, {"rental_uris": {"android": "https://dc.lft.to/lastmile_qr_scan", "ios": "https://dc.lft.to/lastmile_qr_scan"}, "type": "electric_scooter", "lon": -77.043918, "name": "cdb7c25d74c9139ba84adeeae7e25a11", "bike_id": "cdb7c25d74c9139ba84adeeae7e25a11", "fusion_lat": 0.0, "is_reserved": 0, "lat": 38.92269016666667, "fusion_lon": 0.0, "is_disabled": 0}, {"rental_uris": {"android": "https://dc.lft.to/lastmile_qr_scan", "ios": "https://dc.lft.to/lastmile_qr_scan"}, "type": "electric_scooter", "lon": -77.02375566666667, "name": "01f83cbf16e48f20367dab2005efcb54", "bike_id": "01f83cbf16e48f20367dab2005efcb54", "fusion_lat": 0.0, "is_reserved": 0, "lat": 38.892173, "fusion_lon": 0.0, "is_disabled": 0}, {"rental_uris": {"android": "https://dc.lft.to/lastmile_qr_scan", "ios": "https://dc.lft.to/lastmile_qr_scan"}, "type": "electric_scooter", "lon": -77.01754, "name": "eba9dd38fb5a9a9be6dd1f18ade4f674", "bike_id": "eba9dd38fb5a9a9be6dd1f18ade4f674", "fusion_lat": 0.0, "is_reserved": 0, "lat": 38.90870283333334, "fusion_lon": 0.0, "is_disabled": 0}, {"rental_uris": {"android": "https://dc.lft.to/lastmile_qr_scan", "ios": "https://dc.lft.to/lastmile_qr_scan"}, "type": "electric_scooter", "lon": -77.04332883333333, "name": "9f2f34f35a580466a80e5b64930a295a", "bike_id": "9f2f34f35a580466a80e5b64930a295a", "fusion_lat": 0.0, "is_reserved": 0, "lat": 38.903183, "fusion_lon": 0.0, "is_disabled": 0}, {"rental_uris": {"android": "https://dc.lft.to/lastmile_qr_scan", "ios": "https://dc.lft.to/lastmile_qr_scan"}, "type": "electric_scooter", "lon": -77.0276005, "name": "2001ff04a476ce54b926b22ee330b517", "bike_id": "2001ff04a476ce54b926b22ee330b517", "fusion_lat": 0.0, "is_reserved": 0, "lat": 38.96504016666667, "fusion_lon": 0.0, "is_disabled": 0}, {"rental_uris": {"android": "https://dc.lft.to/lastmile_qr_scan", "ios": "https://dc.lft.to/lastmile_qr_scan"}, "type": "electric_scooter", "lon": -77.02602833333333, "name": "cb96c59d920e497b35df573ef95a1d98", "bike_id": "cb96c59d920e497b35df573ef95a1d98", "fusion_lat": 0.0, "is_reserved": 0, "lat": 38.91633816666667, "fusion_lon": 0.0, "is_disabled": 0}, {"rental_uris": {"android": "https://dc.lft.to/lastmile_qr_scan", "ios": "https://dc.lft.to/lastmile_qr_scan"}, "type": "electric_scooter", "lon": -77.03114983333333, "name": "373036d40e4bf53f9f55e58edabe0098", "bike_id": "373036d40e4bf53f9f55e58edabe0098", "fusion_lat": 0.0, "is_reserved": 0, "lat": 38.91699966666667, "fusion_lon": 0.0, "is_disabled": 0}, {"rental_uris": {"android": "https://dc.lft.to/lastmile_qr_scan", "ios": "https://dc.lft.to/lastmile_qr_scan"}, "type": "electric_scooter", "lon": -77.0271985, "name": "f1131d203a0bd9101ec688b17fa10620", "bike_id": "f1131d203a0bd9101ec688b17fa10620", "fusion_lat": 0.0, "is_reserved": 0, "lat": 38.922474333333334, "fusion_lon": 0.0, "is_disabled": 0}, {"rental_uris": {"android": "https://dc.lft.to/lastmile_qr_scan", "ios": "https://dc.lft.to/lastmile_qr_scan"}, "type": "electric_scooter", "lon": -77.019771, "name": "6685584b52478470d746e260ee66a746", "bike_id": "6685584b52478470d746e260ee66a746", "fusion_lat": 0.0, "is_reserved": 0, "lat": 38.9129085, "fusion_lon": 0.0, "is_disabled": 0}, {"rental_uris": {"android": "https://dc.lft.to/lastmile_qr_scan", "ios": "https://dc.lft.to/lastmile_qr_scan"}, "type": "electric_bike", "lon": -77.12584966666667, "name": "45f02967fda4fd4cc18ecce0abe27191", "bike_id": "45f02967fda4fd4cc18ecce0abe27191", "fusion_lat": 0.0, "is_reserved": 0, "lat": 38.851383, "fusion_lon": 0.0, "is_disabled": 0}, {"rental_uris": {"android": "https://dc.lft.to/lastmile_qr_scan", "ios": "https://dc.lft.to/lastmile_qr_scan"}, "type": "electric_scooter", "lon": -77.01830033333333, "name": "f179c533d17b596639b0021404703fb6", "bike_id": "f179c533d17b596639b0021404703fb6", "fusion_lat": 0.0, "is_reserved": 0, "lat": 38.921987333333334, "fusion_lon": 0.0, "is_disabled": 0}, {"rental_uris": {"android": "https://dc.lft.to/lastmile_qr_scan", "ios": "https://dc.lft.to/lastmile_qr_scan"}, "type": "electric_scooter", "lon": -77.02716, "name": "7f3688ac257626b4d08a2e3113e78096", "bike_id": "7f3688ac257626b4d08a2e3113e78096", "fusion_lat": 0.0, "is_reserved": 0, "lat": 38.907461833333336, "fusion_lon": 0.0, "is_disabled": 0}, {"rental_uris": {"android": "https://dc.lft.to/lastmile_qr_scan", "ios": "https://dc.lft.to/lastmile_qr_scan"}, "type": "electric_scooter", "lon": -77.0456265, "name": "b66f616b235ba452b26de945359e1f39", "bike_id": "b66f616b235ba452b26de945359e1f39", "fusion_lat": 0.0, "is_reserved": 0, "lat": 38.90846616666666, "fusion_lon": 0.0, "is_disabled": 0}, {"rental_uris": {"android": "https://dc.lft.to/lastmile_qr_scan", "ios": "https://dc.lft.to/lastmile_qr_scan"}, "type": "electric_scooter", "lon": -77.02275833333333, "name": "615d4bc4e64656efd0a35964af76b5fa", "bike_id": "615d4bc4e64656efd0a35964af76b5fa", "fusion_lat": 0.0, "is_reserved": 0, "lat": 38.897247666666665, "fusion_lon": 0.0, "is_disabled": 0}, {"rental_uris": {"android": "https://dc.lft.to/lastmile_qr_scan", "ios": "https://dc.lft.to/lastmile_qr_scan"}, "type": "electric_bike", "lon": -76.93231283333333, "name": "40a064fd8f32e0afbc25ee4c6def8895", "bike_id": "40a064fd8f32e0afbc25ee4c6def8895", "fusion_lat": 0.0, "is_reserved": 0, "lat": 38.86590866666667, "fusion_lon": 0.0, "is_disabled": 0}, {"rental_uris": {"android": "https://dc.lft.to/lastmile_qr_scan", "ios": "https://dc.lft.to/lastmile_qr_scan"}, "type": "electric_scooter", "lon": -77.02344933333333, "name": "d15ead23b880f57ae04df07346629cd2", "bike_id": "d15ead23b880f57ae04df07346629cd2", "fusion_lat": 0.0, "is_reserved": 0, "lat": 38.929806666666664, "fusion_lon": 0.0, "is_disabled": 0}, {"rental_uris": {"android": "https://dc.lft.to/lastmile_qr_scan", "ios": "https://dc.lft.to/lastmile_qr_scan"}, "type": "electric_scooter", "lon": -77.03175883333333, "name": "3e6bff5ae0f3ad924444c968c80aa65b", "bike_id": "3e6bff5ae0f3ad924444c968c80aa65b", "fusion_lat": 0.0, "is_reserved": 0, "lat": 38.92091583333333, "fusion_lon": 0.0, "is_disabled": 0}, {"rental_uris": {"android": "https://dc.lft.to/lastmile_qr_scan", "ios": "https://dc.lft.to/lastmile_qr_scan"}, "type": "electric_scooter", "lon": -77.03212866666667, "name": "a3adfb2f1e5956edc805a6ac4189e9bd", "bike_id": "a3adfb2f1e5956edc805a6ac4189e9bd", "fusion_lat": 0.0, "is_reserved": 0, "lat": 38.9181325, "fusion_lon": 0.0, "is_disabled": 0}, {"rental_uris": {"android": "https://dc.lft.to/lastmile_qr_scan", "ios": "https://dc.lft.to/lastmile_qr_scan"}, "type": "electric_scooter", "lon": -77.02463833333333, "name": "ce74fa9bf48444f5b3e22477a77b258b", "bike_id": "ce74fa9bf48444f5b3e22477a77b258b", "fusion_lat": 0.0, "is_reserved": 0, "lat": 38.906293166666664, "fusion_lon": 0.0, "is_disabled": 0}, {"rental_uris": {"android": "https://dc.lft.to/lastmile_qr_scan", "ios": "https://dc.lft.to/lastmile_qr_scan"}, "type": "electric_scooter", "lon": -77.0372875, "name": "ad52d8742d40f158dcb613119cceb266", "bike_id": "ad52d8742d40f158dcb613119cceb266", "fusion_lat": 0.0, "is_reserved": 0, "lat": 38.90615316666667, "fusion_lon": 0.0, "is_disabled": 0}, {"rental_uris": {"android": "https://dc.lft.to/lastmile_qr_scan", "ios": "https://dc.lft.to/lastmile_qr_scan"}, "type": "electric_scooter", "lon": -77.0460795, "name": "bccd3e10a1a4c0a48653bee963127a5a", "bike_id": "bccd3e10a1a4c0a48653bee963127a5a", "fusion_lat": 0.0, "is_reserved": 0, "lat": 38.8837485, "fusion_lon": 0.0, "is_disabled": 0}, {"rental_uris": {"android": "https://dc.lft.to/lastmile_qr_scan", "ios": "https://dc.lft.to/lastmile_qr_scan"}, "type": "electric_scooter", "lon": -77.08622283333334, "name": "1f0e02cef9facff6b05b54f4af4df114", "bike_id": "1f0e02cef9facff6b05b54f4af4df114", "fusion_lat": 0.0, "is_reserved": 0, "lat": 38.9585935, "fusion_lon": 0.0, "is_disabled": 0}, {"rental_uris": {"android": "https://dc.lft.to/lastmile_qr_scan", "ios": "https://dc.lft.to/lastmile_qr_scan"}, "type": "electric_scooter", "lon": -77.06363816666666, "name": "c0a62c3e7f935589de484d488b7a109b", "bike_id": "c0a62c3e7f935589de484d488b7a109b", "fusion_lat": 0.0, "is_reserved": 0, "lat": 38.94451, "fusion_lon": 0.0, "is_disabled": 0}, {"rental_uris": {"android": "https://dc.lft.to/lastmile_qr_scan", "ios": "https://dc.lft.to/lastmile_qr_scan"}, "type": "electric_scooter", "lon": -77.00862633333334, "name": "597468b6e13100bde734723e2b81ee3f", "bike_id": "597468b6e13100bde734723e2b81ee3f", "fusion_lat": 0.0, "is_reserved": 0, "lat": 38.87653983333333, "fusion_lon": 0.0, "is_disabled": 0}, {"rental_uris": {"android": "https://dc.lft.to/lastmile_qr_scan", "ios": "https://dc.lft.to/lastmile_qr_scan"}, "type": "electric_scooter", "lon": -77.03724216666667, "name": "295119bbe87f7017b59403aeb41dc404", "bike_id": "295119bbe87f7017b59403aeb41dc404", "fusion_lat": 0.0, "is_reserved": 0, "lat": 38.91806366666667, "fusion_lon": 0.0, "is_disabled": 0}, {"rental_uris": {"android": "https://dc.lft.to/lastmile_qr_scan", "ios": "https://dc.lft.to/lastmile_qr_scan"}, "type": "electric_scooter", "lon": -76.99579916666667, "name": "b9f7cde39de1d87f7684018a8e1d81f9", "bike_id": "b9f7cde39de1d87f7684018a8e1d81f9", "fusion_lat": 0.0, "is_reserved": 0, "lat": 38.949471833333334, "fusion_lon": 0.0, "is_disabled": 0}, {"rental_uris": {"android": "https://dc.lft.to/lastmile_qr_scan", "ios": "https://dc.lft.to/lastmile_qr_scan"}, "type": "electric_scooter", "lon": -77.02617866666667, "name": "5cf312bc7cd3289532551cd4276cdf5d", "bike_id": "5cf312bc7cd3289532551cd4276cdf5d", "fusion_lat": 0.0, "is_reserved": 0, "lat": 38.90030266666667, "fusion_lon": 0.0, "is_disabled": 0}, {"rental_uris": {"android": "https://dc.lft.to/lastmile_qr_scan", "ios": "https://dc.lft.to/lastmile_qr_scan"}, "type": "electric_scooter", "lon": -77.04135883333333, "name": "20011e2f821cadcfd904c20091101925", "bike_id": "20011e2f821cadcfd904c20091101925", "fusion_lat": 0.0, "is_reserved": 0, "lat": 38.921184, "fusion_lon": 0.0, "is_disabled": 0}, {"rental_uris": {"android": "https://dc.lft.to/lastmile_qr_scan", "ios": "https://dc.lft.to/lastmile_qr_scan"}, "type": "electric_bike", "lon": -76.964938, "name": "fc0d778e5645d6aebe1857ffffc100fe", "bike_id": "fc0d778e5645d6aebe1857ffffc100fe", "fusion_lat": 0.0, "is_reserved": 0, "lat": 38.8754925, "fusion_lon": 0.0, "is_disabled": 0}, {"rental_uris": {"android": "https://dc.lft.to/lastmile_qr_scan", "ios": "https://dc.lft.to/lastmile_qr_scan"}, "type": "electric_scooter", "lon": -77.031825, "name": "c37758f2bdfe60a0d88606d4bcbff8bf", "bike_id": "c37758f2bdfe60a0d88606d4bcbff8bf", "fusion_lat": 0.0, "is_reserved": 0, "lat": 38.8873565, "fusion_lon": 0.0, "is_disabled": 0}, {"rental_uris": {"android": "https://dc.lft.to/lastmile_qr_scan", "ios": "https://dc.lft.to/lastmile_qr_scan"}, "type": "electric_scooter", "lon": -77.02480783333333, "name": "df632ade652d60ad085bf9db75f6419f", "bike_id": "df632ade652d60ad085bf9db75f6419f", "fusion_lat": 0.0, "is_reserved": 0, "lat": 38.88013516666667, "fusion_lon": 0.0, "is_disabled": 0}, {"rental_uris": {"android": "https://dc.lft.to/lastmile_qr_scan", "ios": "https://dc.lft.to/lastmile_qr_scan"}, "type": "electric_scooter", "lon": -77.02896716666666, "name": "fdd5fd570fd7e482ac804f83d1248c35", "bike_id": "fdd5fd570fd7e482ac804f83d1248c35", "fusion_lat": 0.0, "is_reserved": 0, "lat": 38.90426633333333, "fusion_lon": 0.0, "is_disabled": 0}, {"rental_uris": {"android": "https://dc.lft.to/lastmile_qr_scan", "ios": "https://dc.lft.to/lastmile_qr_scan"}, "type": "electric_scooter", "lon": -77.02775316666667, "name": "6a1e68e7f9c917877351df3b937db0eb", "bike_id": "6a1e68e7f9c917877351df3b937db0eb", "fusion_lat": 0.0, "is_reserved": 0, "lat": 38.89220983333333, "fusion_lon": 0.0, "is_disabled": 0}, {"rental_uris": {"android": "https://dc.lft.to/lastmile_qr_scan", "ios": "https://dc.lft.to/lastmile_qr_scan"}, "type": "electric_scooter", "lon": -77.0320515, "name": "6020ede423bdcd2021a798275a4439c2", "bike_id": "6020ede423bdcd2021a798275a4439c2", "fusion_lat": 0.0, "is_reserved": 0, "lat": 38.91427183333333, "fusion_lon": 0.0, "is_disabled": 0}, {"rental_uris": {"android": "https://dc.lft.to/lastmile_qr_scan", "ios": "https://dc.lft.to/lastmile_qr_scan"}, "type": "electric_scooter", "lon": -77.026025, "name": "e6eb74acfa80f38842c5a6c13a65e10d", "bike_id": "e6eb74acfa80f38842c5a6c13a65e10d", "fusion_lat": 0.0, "is_reserved": 0, "lat": 38.9161085, "fusion_lon": 0.0, "is_disabled": 0}, {"rental_uris": {"android": "https://dc.lft.to/lastmile_qr_scan", "ios": "https://dc.lft.to/lastmile_qr_scan"}, "type": "electric_scooter", "lon": -77.02209316666666, "name": "a5042615ab67ab7ecf85b53ab6eedf81", "bike_id": "a5042615ab67ab7ecf85b53ab6eedf81", "fusion_lat": 0.0, "is_reserved": 0, "lat": 38.921042, "fusion_lon": 0.0, "is_disabled": 0}, {"rental_uris": {"android": "https://dc.lft.to/lastmile_qr_scan", "ios": "https://dc.lft.to/lastmile_qr_scan"}, "type": "electric_scooter", "lon": -77.04295883333333, "name": "c3802b2999f5d22c0b9bab0d32a08dc2", "bike_id": "c3802b2999f5d22c0b9bab0d32a08dc2", "fusion_lat": 0.0, "is_reserved": 0, "lat": 38.9225655, "fusion_lon": 0.0, "is_disabled": 0}, {"rental_uris": {"android": "https://dc.lft.to/lastmile_qr_scan", "ios": "https://dc.lft.to/lastmile_qr_scan"}, "type": "electric_scooter", "lon": -76.95194733333334, "name": "31064bf4397faaec07db1ce0d1547577", "bike_id": "31064bf4397faaec07db1ce0d1547577", "fusion_lat": 0.0, "is_reserved": 0, "lat": 38.88660316666667, "fusion_lon": 0.0, "is_disabled": 0}, {"rental_uris": {"android": "https://dc.lft.to/lastmile_qr_scan", "ios": "https://dc.lft.to/lastmile_qr_scan"}, "type": "electric_scooter", "lon": -77.04255816666667, "name": "a263f1125599090b16c1d1883a3e595a", "bike_id": "a263f1125599090b16c1d1883a3e595a", "fusion_lat": 0.0, "is_reserved": 0, "lat": 38.920528, "fusion_lon": 0.0, "is_disabled": 0}, {"rental_uris": {"android": "https://dc.lft.to/lastmile_qr_scan", "ios": "https://dc.lft.to/lastmile_qr_scan"}, "type": "electric_scooter", "lon": -77.0766005, "name": "142aee6b885c837d30cfad2910d5fd4d", "bike_id": "142aee6b885c837d30cfad2910d5fd4d", "fusion_lat": 0.0, "is_reserved": 0, "lat": 38.910798, "fusion_lon": 0.0, "is_disabled": 0}, {"rental_uris": {"android": "https://dc.lft.to/lastmile_qr_scan", "ios": "https://dc.lft.to/lastmile_qr_scan"}, "type": "electric_bike", "lon": -77.09966183333333, "name": "a5a1f3f0f7538c0b1e0552fb5b3b279f", "bike_id": "a5a1f3f0f7538c0b1e0552fb5b3b279f", "fusion_lat": 0.0, "is_reserved": 0, "lat": 38.857802666666664, "fusion_lon": 0.0, "is_disabled": 0}, {"rental_uris": {"android": "https://dc.lft.to/lastmile_qr_scan", "ios": "https://dc.lft.to/lastmile_qr_scan"}, "type": "electric_bike", "lon": -76.93199066666666, "name": "dc6264cff8961b2f50e1a98c75c3d907", "bike_id": "dc6264cff8961b2f50e1a98c75c3d907", "fusion_lat": 0.0, "is_reserved": 0, "lat": 38.872372666666664, "fusion_lon": 0.0, "is_disabled": 0}, {"rental_uris": {"android": "https://dc.lft.to/lastmile_qr_scan", "ios": "https://dc.lft.to/lastmile_qr_scan"}, "type": "electric_scooter", "lon": -77.03654733333333, "name": "7c39a2c1943a6a41166e4686e38eb45e", "bike_id": "7c39a2c1943a6a41166e4686e38eb45e", "fusion_lat": 0.0, "is_reserved": 0, "lat": 38.956412666666665, "fusion_lon": 0.0, "is_disabled": 0}, {"rental_uris": {"android": "https://dc.lft.to/lastmile_qr_scan", "ios": "https://dc.lft.to/lastmile_qr_scan"}, "type": "electric_scooter", "lon": -77.02625333333333, "name": "af554d4145d80cf73dfb49421937ed58", "bike_id": "af554d4145d80cf73dfb49421937ed58", "fusion_lat": 0.0, "is_reserved": 0, "lat": 38.8872905, "fusion_lon": 0.0, "is_disabled": 0}, {"rental_uris": {"android": "https://dc.lft.to/lastmile_qr_scan", "ios": "https://dc.lft.to/lastmile_qr_scan"}, "type": "electric_scooter", "lon": -77.038498, "name": "715401a222f735a50f75c0096864399c", "bike_id": "715401a222f735a50f75c0096864399c", "fusion_lat": 0.0, "is_reserved": 0, "lat": 38.91596366666667, "fusion_lon": 0.0, "is_disabled": 0}, {"rental_uris": {"android": "https://dc.lft.to/lastmile_qr_scan", "ios": "https://dc.lft.to/lastmile_qr_scan"}, "type": "electric_scooter", "lon": -77.03505216666667, "name": "9f224d212504a794dff2c8cd43da29c0", "bike_id": "9f224d212504a794dff2c8cd43da29c0", "fusion_lat": 0.0, "is_reserved": 0, "lat": 38.918750333333335, "fusion_lon": 0.0, "is_disabled": 0}, {"rental_uris": {"android": "https://dc.lft.to/lastmile_qr_scan", "ios": "https://dc.lft.to/lastmile_qr_scan"}, "type": "electric_scooter", "lon": -77.04756483333334, "name": "e05442b6b045d5c3fa634915b65eda41", "bike_id": "e05442b6b045d5c3fa634915b65eda41", "fusion_lat": 0.0, "is_reserved": 0, "lat": 38.902111, "fusion_lon": 0.0, "is_disabled": 0}, {"rental_uris": {"android": "https://dc.lft.to/lastmile_qr_scan", "ios": "https://dc.lft.to/lastmile_qr_scan"}, "type": "electric_bike", "lon": -76.987343, "name": "e327de38ecfaf3244324dce5c335b02c", "bike_id": "e327de38ecfaf3244324dce5c335b02c", "fusion_lat": 0.0, "is_reserved": 0, "lat": 38.94431083333333, "fusion_lon": 0.0, "is_disabled": 0}, {"rental_uris": {"android": "https://dc.lft.to/lastmile_qr_scan", "ios": "https://dc.lft.to/lastmile_qr_scan"}, "type": "electric_scooter", "lon": -77.0676615, "name": "55e84f9fb83ad9f666f4cdf6a48aac02", "bike_id": "55e84f9fb83ad9f666f4cdf6a48aac02", "fusion_lat": 0.0, "is_reserved": 0, "lat": 38.9036405, "fusion_lon": 0.0, "is_disabled": 0}, {"rental_uris": {"android": "https://dc.lft.to/lastmile_qr_scan", "ios": "https://dc.lft.to/lastmile_qr_scan"}, "type": "electric_scooter", "lon": -77.04778766666666, "name": "d1c30aa7f1dd378b5ec3b0edd6d278df", "bike_id": "d1c30aa7f1dd378b5ec3b0edd6d278df", "fusion_lat": 0.0, "is_reserved": 0, "lat": 38.9025055, "fusion_lon": 0.0, "is_disabled": 0}, {"rental_uris": {"android": "https://dc.lft.to/lastmile_qr_scan", "ios": "https://dc.lft.to/lastmile_qr_scan"}, "type": "electric_scooter", "lon": -77.07863033333334, "name": "18c9e1346d596e26b37676466d15dd25", "bike_id": "18c9e1346d596e26b37676466d15dd25", "fusion_lat": 0.0, "is_reserved": 0, "lat": 38.92458833333333, "fusion_lon": 0.0, "is_disabled": 0}, {"rental_uris": {"android": "https://dc.lft.to/lastmile_qr_scan", "ios": "https://dc.lft.to/lastmile_qr_scan"}, "type": "electric_scooter", "lon": -77.02836716666667, "name": "ca91e1da3687110b5fec017bd71b6e92", "bike_id": "ca91e1da3687110b5fec017bd71b6e92", "fusion_lat": 0.0, "is_reserved": 0, "lat": 38.9003565, "fusion_lon": 0.0, "is_disabled": 0}, {"rental_uris": {"android": "https://dc.lft.to/lastmile_qr_scan", "ios": "https://dc.lft.to/lastmile_qr_scan"}, "type": "electric_scooter", "lon": -77.05159666666667, "name": "889564636d68f3aab44cebaecf17b4dd", "bike_id": "889564636d68f3aab44cebaecf17b4dd", "fusion_lat": 0.0, "is_reserved": 0, "lat": 38.9057575, "fusion_lon": 0.0, "is_disabled": 0}, {"rental_uris": {"android": "https://dc.lft.to/lastmile_qr_scan", "ios": "https://dc.lft.to/lastmile_qr_scan"}, "type": "electric_scooter", "lon": -77.04127566666666, "name": "f4ed335c9c67eab2b93c33672fe29c35", "bike_id": "f4ed335c9c67eab2b93c33672fe29c35", "fusion_lat": 0.0, "is_reserved": 0, "lat": 38.916337, "fusion_lon": 0.0, "is_disabled": 0}, {"rental_uris": {"android": "https://dc.lft.to/lastmile_qr_scan", "ios": "https://dc.lft.to/lastmile_qr_scan"}, "type": "electric_scooter", "lon": -77.02424883333333, "name": "ef7a3dff2a8095e8887b6fa11ec9a8c7", "bike_id": "ef7a3dff2a8095e8887b6fa11ec9a8c7", "fusion_lat": 0.0, "is_reserved": 0, "lat": 38.8922305, "fusion_lon": 0.0, "is_disabled": 0}, {"rental_uris": {"android": "https://dc.lft.to/lastmile_qr_scan", "ios": "https://dc.lft.to/lastmile_qr_scan"}, "type": "electric_bike", "lon": -77.12261766666667, "name": "bd8d02f08586f0c6ce5015e865ba1a6e", "bike_id": "bd8d02f08586f0c6ce5015e865ba1a6e", "fusion_lat": 0.0, "is_reserved": 0, "lat": 38.89187966666667, "fusion_lon": 0.0, "is_disabled": 0}, {"rental_uris": {"android": "https://dc.lft.to/lastmile_qr_scan", "ios": "https://dc.lft.to/lastmile_qr_scan"}, "type": "electric_scooter", "lon": -77.03219583333333, "name": "39ec9107aa847a7033706385eb1378f0", "bike_id": "39ec9107aa847a7033706385eb1378f0", "fusion_lat": 0.0, "is_reserved": 0, "lat": 38.9119425, "fusion_lon": 0.0, "is_disabled": 0}, {"rental_uris": {"android": "https://dc.lft.to/lastmile_qr_scan", "ios": "https://dc.lft.to/lastmile_qr_scan"}, "type": "electric_scooter", "lon": -77.01559633333333, "name": "3d03883c355055c1c54e648e19ade860", "bike_id": "3d03883c355055c1c54e648e19ade860", "fusion_lat": 0.0, "is_reserved": 0, "lat": 38.91459, "fusion_lon": 0.0, "is_disabled": 0}, {"rental_uris": {"android": "https://dc.lft.to/lastmile_qr_scan", "ios": "https://dc.lft.to/lastmile_qr_scan"}, "type": "electric_bike", "lon": -77.07685183333334, "name": "1123d4162b0362fbae37fad36bac3414", "bike_id": "1123d4162b0362fbae37fad36bac3414", "fusion_lat": 0.0, "is_reserved": 0, "lat": 38.83187233333334, "fusion_lon": 0.0, "is_disabled": 0}, {"rental_uris": {"android": "https://dc.lft.to/lastmile_qr_scan", "ios": "https://dc.lft.to/lastmile_qr_scan"}, "type": "electric_bike", "lon": -76.93517516666667, "name": "b1a1635e804427a3036e7388e24c173e", "bike_id": "b1a1635e804427a3036e7388e24c173e", "fusion_lat": 0.0, "is_reserved": 0, "lat": 38.95543266666667, "fusion_lon": 0.0, "is_disabled": 0}, {"rental_uris": {"android": "https://dc.lft.to/lastmile_qr_scan", "ios": "https://dc.lft.to/lastmile_qr_scan"}, "type": "electric_bike", "lon": -77.11226233333333, "name": "b55cfb4b1b8b1320507633d59fd8f68b", "bike_id": "b55cfb4b1b8b1320507633d59fd8f68b", "fusion_lat": 0.0, "is_reserved": 0, "lat": 38.828659, "fusion_lon": 0.0, "is_disabled": 0}, {"rental_uris": {"android": "https://dc.lft.to/lastmile_qr_scan", "ios": "https://dc.lft.to/lastmile_qr_scan"}, "type": "electric_scooter", "lon": -76.98493966666666, "name": "8aa9beb89da4ff46dd6b867d7ed82f8e", "bike_id": "8aa9beb89da4ff46dd6b867d7ed82f8e", "fusion_lat": 0.0, "is_reserved": 0, "lat": 38.900362333333334, "fusion_lon": 0.0, "is_disabled": 0}, {"rental_uris": {"android": "https://dc.lft.to/lastmile_qr_scan", "ios": "https://dc.lft.to/lastmile_qr_scan"}, "type": "electric_scooter", "lon": -77.00216716666667, "name": "d314a958d54eaaf1fcb7c723295ed763", "bike_id": "d314a958d54eaaf1fcb7c723295ed763", "fusion_lat": 0.0, "is_reserved": 0, "lat": 38.87745316666667, "fusion_lon": 0.0, "is_disabled": 0}, {"rental_uris": {"android": "https://dc.lft.to/lastmile_qr_scan", "ios": "https://dc.lft.to/lastmile_qr_scan"}, "type": "electric_scooter", "lon": -77.00119383333333, "name": "72019b19273a487ffb25461d5e42e764", "bike_id": "72019b19273a487ffb25461d5e42e764", "fusion_lat": 0.0, "is_reserved": 0, "lat": 38.89989416666667, "fusion_lon": 0.0, "is_disabled": 0}, {"rental_uris": {"android": "https://dc.lft.to/lastmile_qr_scan", "ios": "https://dc.lft.to/lastmile_qr_scan"}, "type": "electric_scooter", "lon": -77.0109955, "name": "c22243fe83a9df3eedb94b0cf3fce50f", "bike_id": "c22243fe83a9df3eedb94b0cf3fce50f", "fusion_lat": 0.0, "is_reserved": 0, "lat": 38.905528, "fusion_lon": 0.0, "is_disabled": 0}, {"rental_uris": {"android": "https://dc.lft.to/lastmile_qr_scan", "ios": "https://dc.lft.to/lastmile_qr_scan"}, "type": "electric_scooter", "lon": -76.99162533333333, "name": "ae87e5665916ee55828460f9beda1faf", "bike_id": "ae87e5665916ee55828460f9beda1faf", "fusion_lat": 0.0, "is_reserved": 0, "lat": 38.87919933333333, "fusion_lon": 0.0, "is_disabled": 0}, {"rental_uris": {"android": "https://dc.lft.to/lastmile_qr_scan", "ios": "https://dc.lft.to/lastmile_qr_scan"}, "type": "electric_scooter", "lon": -77.02814233333334, "name": "590f09c94a682fe5afc177819cb883d6", "bike_id": "590f09c94a682fe5afc177819cb883d6", "fusion_lat": 0.0, "is_reserved": 0, "lat": 38.95613016666667, "fusion_lon": 0.0, "is_disabled": 0}, {"rental_uris": {"android": "https://dc.lft.to/lastmile_qr_scan", "ios": "https://dc.lft.to/lastmile_qr_scan"}, "type": "electric_scooter", "lon": -77.0215615, "name": "37bcffb05e986517b9d851521941e4e2", "bike_id": "37bcffb05e986517b9d851521941e4e2", "fusion_lat": 0.0, "is_reserved": 0, "lat": 38.899362833333335, "fusion_lon": 0.0, "is_disabled": 0}, {"rental_uris": {"android": "https://dc.lft.to/lastmile_qr_scan", "ios": "https://dc.lft.to/lastmile_qr_scan"}, "type": "electric_scooter", "lon": -77.03946916666666, "name": "99edf5a6f721bae64d275b344303b734", "bike_id": "99edf5a6f721bae64d275b344303b734", "fusion_lat": 0.0, "is_reserved": 0, "lat": 38.90421766666667, "fusion_lon": 0.0, "is_disabled": 0}, {"rental_uris": {"android": "https://dc.lft.to/lastmile_qr_scan", "ios": "https://dc.lft.to/lastmile_qr_scan"}, "type": "electric_scooter", "lon": -77.025269, "name": "febffa83218e7e81f7d7ea79020946d3", "bike_id": "febffa83218e7e81f7d7ea79020946d3", "fusion_lat": 0.0, "is_reserved": 0, "lat": 38.919922166666666, "fusion_lon": 0.0, "is_disabled": 0}, {"rental_uris": {"android": "https://dc.lft.to/lastmile_qr_scan", "ios": "https://dc.lft.to/lastmile_qr_scan"}, "type": "electric_scooter", "lon": -77.04678366666667, "name": "26f5cbd8726ce6457e90a41072c6af33", "bike_id": "26f5cbd8726ce6457e90a41072c6af33", "fusion_lat": 0.0, "is_reserved": 0, "lat": 38.90486883333333, "fusion_lon": 0.0, "is_disabled": 0}, {"rental_uris": {"android": "https://dc.lft.to/lastmile_qr_scan", "ios": "https://dc.lft.to/lastmile_qr_scan"}, "type": "electric_scooter", "lon": -77.03112, "name": "a9e66f7e747584a7a3816dc1b749b272", "bike_id": "a9e66f7e747584a7a3816dc1b749b272", "fusion_lat": 0.0, "is_reserved": 0, "lat": 38.89220733333333, "fusion_lon": 0.0, "is_disabled": 0}, {"rental_uris": {"android": "https://dc.lft.to/lastmile_qr_scan", "ios": "https://dc.lft.to/lastmile_qr_scan"}, "type": "electric_scooter", "lon": -77.02530016666667, "name": "45c1be402b80e959c57e9510ba830e68", "bike_id": "45c1be402b80e959c57e9510ba830e68", "fusion_lat": 0.0, "is_reserved": 0, "lat": 38.907207666666665, "fusion_lon": 0.0, "is_disabled": 0}, {"rental_uris": {"android": "https://dc.lft.to/lastmile_qr_scan", "ios": "https://dc.lft.to/lastmile_qr_scan"}, "type": "electric_scooter", "lon": -77.01770766666667, "name": "dc63d9f1b2d761fa312ffe5d987fef6e", "bike_id": "dc63d9f1b2d761fa312ffe5d987fef6e", "fusion_lat": 0.0, "is_reserved": 0, "lat": 38.902644, "fusion_lon": 0.0, "is_disabled": 0}, {"rental_uris": {"android": "https://dc.lft.to/lastmile_qr_scan", "ios": "https://dc.lft.to/lastmile_qr_scan"}, "type": "electric_scooter", "lon": -77.0920875, "name": "bcfdd7c93549c167b9bd1ea952e09074", "bike_id": "bcfdd7c93549c167b9bd1ea952e09074", "fusion_lat": 0.0, "is_reserved": 0, "lat": 38.91700866666667, "fusion_lon": 0.0, "is_disabled": 0}, {"rental_uris": {"android": "https://dc.lft.to/lastmile_qr_scan", "ios": "https://dc.lft.to/lastmile_qr_scan"}, "type": "electric_scooter", "lon": -77.04316833333333, "name": "55e2be0d83e95ec5f37ac45827c0e8ae", "bike_id": "55e2be0d83e95ec5f37ac45827c0e8ae", "fusion_lat": 0.0, "is_reserved": 0, "lat": 38.91266016666667, "fusion_lon": 0.0, "is_disabled": 0}, {"rental_uris": {"android": "https://dc.lft.to/lastmile_qr_scan", "ios": "https://dc.lft.to/lastmile_qr_scan"}, "type": "electric_scooter", "lon": -77.024292, "name": "c1e85d822fcc4ff516d15f862ba5b930", "bike_id": "c1e85d822fcc4ff516d15f862ba5b930", "fusion_lat": 0.0, "is_reserved": 0, "lat": 38.927424333333335, "fusion_lon": 0.0, "is_disabled": 0}, {"rental_uris": {"android": "https://dc.lft.to/lastmile_qr_scan", "ios": "https://dc.lft.to/lastmile_qr_scan"}, "type": "electric_scooter", "lon": -77.03021233333334, "name": "02e066fa82745c5b2d4992444bcde5c8", "bike_id": "02e066fa82745c5b2d4992444bcde5c8", "fusion_lat": 0.0, "is_reserved": 0, "lat": 38.8962015, "fusion_lon": 0.0, "is_disabled": 0}, {"rental_uris": {"android": "https://dc.lft.to/lastmile_qr_scan", "ios": "https://dc.lft.to/lastmile_qr_scan"}, "type": "electric_scooter", "lon": -77.02189983333334, "name": "6c6dafd2dd4ab39795a1b5d776dcd443", "bike_id": "6c6dafd2dd4ab39795a1b5d776dcd443", "fusion_lat": 0.0, "is_reserved": 0, "lat": 38.9058995, "fusion_lon": 0.0, "is_disabled": 0}, {"rental_uris": {"android": "https://dc.lft.to/lastmile_qr_scan", "ios": "https://dc.lft.to/lastmile_qr_scan"}, "type": "electric_scooter", "lon": -77.00451783333334, "name": "fcb4d61c11a7162ac892e459b572b851", "bike_id": "fcb4d61c11a7162ac892e459b572b851", "fusion_lat": 0.0, "is_reserved": 0, "lat": 38.928967166666666, "fusion_lon": 0.0, "is_disabled": 0}, {"rental_uris": {"android": "https://dc.lft.to/lastmile_qr_scan", "ios": "https://dc.lft.to/lastmile_qr_scan"}, "type": "electric_scooter", "lon": -77.01308383333334, "name": "11cb1189687ecc398773642a8b6c6adb", "bike_id": "11cb1189687ecc398773642a8b6c6adb", "fusion_lat": 0.0, "is_reserved": 0, "lat": 38.901812, "fusion_lon": 0.0, "is_disabled": 0}, {"rental_uris": {"android": "https://dc.lft.to/lastmile_qr_scan", "ios": "https://dc.lft.to/lastmile_qr_scan"}, "type": "electric_scooter", "lon": -77.029809, "name": "bce24eaa23b41536d12b6f4f003a8413", "bike_id": "bce24eaa23b41536d12b6f4f003a8413", "fusion_lat": 0.0, "is_reserved": 0, "lat": 38.940688, "fusion_lon": 0.0, "is_disabled": 0}, {"rental_uris": {"android": "https://dc.lft.to/lastmile_qr_scan", "ios": "https://dc.lft.to/lastmile_qr_scan"}, "type": "electric_scooter", "lon": -77.036435, "name": "d5fd0c3d12bed0e06730a73211564bd2", "bike_id": "d5fd0c3d12bed0e06730a73211564bd2", "fusion_lat": 0.0, "is_reserved": 0, "lat": 38.905613333333335, "fusion_lon": 0.0, "is_disabled": 0}, {"rental_uris": {"android": "https://dc.lft.to/lastmile_qr_scan", "ios": "https://dc.lft.to/lastmile_qr_scan"}, "type": "electric_scooter", "lon": -76.9995015, "name": "57de8a6843e1f1813189c4af3a1b6e5c", "bike_id": "57de8a6843e1f1813189c4af3a1b6e5c", "fusion_lat": 0.0, "is_reserved": 0, "lat": 38.89318983333333, "fusion_lon": 0.0, "is_disabled": 0}, {"rental_uris": {"android": "https://dc.lft.to/lastmile_qr_scan", "ios": "https://dc.lft.to/lastmile_qr_scan"}, "type": "electric_scooter", "lon": -77.03946033333334, "name": "f7018ce3e31da56daae49d4c3f09d027", "bike_id": "f7018ce3e31da56daae49d4c3f09d027", "fusion_lat": 0.0, "is_reserved": 0, "lat": 38.91693566666667, "fusion_lon": 0.0, "is_disabled": 0}, {"rental_uris": {"android": "https://dc.lft.to/lastmile_qr_scan", "ios": "https://dc.lft.to/lastmile_qr_scan"}, "type": "electric_bike", "lon": -77.04044416666666, "name": "914597562563c3bfd4a2495235eb565c", "bike_id": "914597562563c3bfd4a2495235eb565c", "fusion_lat": 0.0, "is_reserved": 0, "lat": 38.92554116666667, "fusion_lon": 0.0, "is_disabled": 0}, {"rental_uris": {"android": "https://dc.lft.to/lastmile_qr_scan", "ios": "https://dc.lft.to/lastmile_qr_scan"}, "type": "electric_scooter", "lon": -77.02172683333333, "name": "58ccfba2d67dbf475a2f8ab578a62c08", "bike_id": "58ccfba2d67dbf475a2f8ab578a62c08", "fusion_lat": 0.0, "is_reserved": 0, "lat": 38.942854833333335, "fusion_lon": 0.0, "is_disabled": 0}, {"rental_uris": {"android": "https://dc.lft.to/lastmile_qr_scan", "ios": "https://dc.lft.to/lastmile_qr_scan"}, "type": "electric_bike", "lon": -77.02693333333333, "name": "bf7b42e95b08f5aa753bd9fd8339d599", "bike_id": "bf7b42e95b08f5aa753bd9fd8339d599", "fusion_lat": 0.0, "is_reserved": 0, "lat": 38.91138983333333, "fusion_lon": 0.0, "is_disabled": 0}, {"rental_uris": {"android": "https://dc.lft.to/lastmile_qr_scan", "ios": "https://dc.lft.to/lastmile_qr_scan"}, "type": "electric_scooter", "lon": -77.0316365, "name": "265353f878c44a7cb7841db81f4e1a88", "bike_id": "265353f878c44a7cb7841db81f4e1a88", "fusion_lat": 0.0, "is_reserved": 0, "lat": 38.92712233333334, "fusion_lon": 0.0, "is_disabled": 0}, {"rental_uris": {"android": "https://dc.lft.to/lastmile_qr_scan", "ios": "https://dc.lft.to/lastmile_qr_scan"}, "type": "electric_scooter", "lon": -77.03798133333333, "name": "9a88459475609936c85eee9faf1ea6bf", "bike_id": "9a88459475609936c85eee9faf1ea6bf", "fusion_lat": 0.0, "is_reserved": 0, "lat": 38.926268666666665, "fusion_lon": 0.0, "is_disabled": 0}, {"rental_uris": {"android": "https://dc.lft.to/lastmile_qr_scan", "ios": "https://dc.lft.to/lastmile_qr_scan"}, "type": "electric_scooter", "lon": -77.04033616666666, "name": "0b4fc405aa0cf37d312db3a6e1d01716", "bike_id": "0b4fc405aa0cf37d312db3a6e1d01716", "fusion_lat": 0.0, "is_reserved": 0, "lat": 38.899873166666666, "fusion_lon": 0.0, "is_disabled": 0}, {"rental_uris": {"android": "https://dc.lft.to/lastmile_qr_scan", "ios": "https://dc.lft.to/lastmile_qr_scan"}, "type": "electric_scooter", "lon": -77.03583033333334, "name": "51043c8c5e762b3bd6af822972b5ea7c", "bike_id": "51043c8c5e762b3bd6af822972b5ea7c", "fusion_lat": 0.0, "is_reserved": 0, "lat": 38.93473066666667, "fusion_lon": 0.0, "is_disabled": 0}, {"rental_uris": {"android": "https://dc.lft.to/lastmile_qr_scan", "ios": "https://dc.lft.to/lastmile_qr_scan"}, "type": "electric_scooter", "lon": -77.03825633333334, "name": "0d3e16c3dc29dda5692186b4b6c928b2", "bike_id": "0d3e16c3dc29dda5692186b4b6c928b2", "fusion_lat": 0.0, "is_reserved": 0, "lat": 38.921761000000004, "fusion_lon": 0.0, "is_disabled": 0}, {"rental_uris": {"android": "https://dc.lft.to/lastmile_qr_scan", "ios": "https://dc.lft.to/lastmile_qr_scan"}, "type": "electric_scooter", "lon": -77.034479, "name": "df44808d6026af4ec034ebe50d9d5158", "bike_id": "df44808d6026af4ec034ebe50d9d5158", "fusion_lat": 0.0, "is_reserved": 0, "lat": 38.93426216666667, "fusion_lon": 0.0, "is_disabled": 0}, {"rental_uris": {"android": "https://dc.lft.to/lastmile_qr_scan", "ios": "https://dc.lft.to/lastmile_qr_scan"}, "type": "electric_scooter", "lon": -77.02118083333333, "name": "dee3e7eb89a26e20a8148da58de4ab31", "bike_id": "dee3e7eb89a26e20a8148da58de4ab31", "fusion_lat": 0.0, "is_reserved": 0, "lat": 38.917295333333335, "fusion_lon": 0.0, "is_disabled": 0}, {"rental_uris": {"android": "https://dc.lft.to/lastmile_qr_scan", "ios": "https://dc.lft.to/lastmile_qr_scan"}, "type": "electric_scooter", "lon": -77.01845, "name": "fb6b92055a6055e41fbdf97d3ed70427", "bike_id": "fb6b92055a6055e41fbdf97d3ed70427", "fusion_lat": 0.0, "is_reserved": 0, "lat": 38.915030333333334, "fusion_lon": 0.0, "is_disabled": 0}, {"rental_uris": {"android": "https://dc.lft.to/lastmile_qr_scan", "ios": "https://dc.lft.to/lastmile_qr_scan"}, "type": "electric_bike", "lon": -77.36090383333334, "name": "742c8376a436f573428f01268207f7ae", "bike_id": "742c8376a436f573428f01268207f7ae", "fusion_lat": 0.0, "is_reserved": 0, "lat": 38.939613333333334, "fusion_lon": 0.0, "is_disabled": 0}, {"rental_uris": {"android": "https://dc.lft.to/lastmile_qr_scan", "ios": "https://dc.lft.to/lastmile_qr_scan"}, "type": "electric_scooter", "lon": -77.00753833333333, "name": "4fce0cb78b65f4d6ae2ff37081cc617d", "bike_id": "4fce0cb78b65f4d6ae2ff37081cc617d", "fusion_lat": 0.0, "is_reserved": 0, "lat": 38.876433666666664, "fusion_lon": 0.0, "is_disabled": 0}, {"rental_uris": {"android": "https://dc.lft.to/lastmile_qr_scan", "ios": "https://dc.lft.to/lastmile_qr_scan"}, "type": "electric_scooter", "lon": -77.04176, "name": "c95c60fa49d952e6745b9dc732c5e461", "bike_id": "c95c60fa49d952e6745b9dc732c5e461", "fusion_lat": 0.0, "is_reserved": 0, "lat": 38.911320333333336, "fusion_lon": 0.0, "is_disabled": 0}, {"rental_uris": {"android": "https://dc.lft.to/lastmile_qr_scan", "ios": "https://dc.lft.to/lastmile_qr_scan"}, "type": "electric_scooter", "lon": -77.01437633333333, "name": "3b8d2d3297252148c361a2ba70df0d38", "bike_id": "3b8d2d3297252148c361a2ba70df0d38", "fusion_lat": 0.0, "is_reserved": 0, "lat": 38.87888816666667, "fusion_lon": 0.0, "is_disabled": 0}, {"rental_uris": {"android": "https://dc.lft.to/lastmile_qr_scan", "ios": "https://dc.lft.to/lastmile_qr_scan"}, "type": "electric_scooter", "lon": -76.99167733333333, "name": "3cb7a5ba5aa61e24acd4d09e55eebc55", "bike_id": "3cb7a5ba5aa61e24acd4d09e55eebc55", "fusion_lat": 0.0, "is_reserved": 0, "lat": 38.873399666666664, "fusion_lon": 0.0, "is_disabled": 0}, {"rental_uris": {"android": "https://dc.lft.to/lastmile_qr_scan", "ios": "https://dc.lft.to/lastmile_qr_scan"}, "type": "electric_bike", "lon": -76.99839816666666, "name": "924cb86de9be8a2535bbfdf4ca5ac8fe", "bike_id": "924cb86de9be8a2535bbfdf4ca5ac8fe", "fusion_lat": 0.0, "is_reserved": 0, "lat": 38.839164333333336, "fusion_lon": 0.0, "is_disabled": 0}, {"rental_uris": {"android": "https://dc.lft.to/lastmile_qr_scan", "ios": "https://dc.lft.to/lastmile_qr_scan"}, "type": "electric_scooter", "lon": -77.03643833333334, "name": "37262c942715017c2394ae598f758fac", "bike_id": "37262c942715017c2394ae598f758fac", "fusion_lat": 0.0, "is_reserved": 0, "lat": 38.912226833333335, "fusion_lon": 0.0, "is_disabled": 0}, {"rental_uris": {"android": "https://dc.lft.to/lastmile_qr_scan", "ios": "https://dc.lft.to/lastmile_qr_scan"}, "type": "electric_bike", "lon": -77.01077783333334, "name": "fb9ebe9536ff0fcc5273715278209636", "bike_id": "fb9ebe9536ff0fcc5273715278209636", "fusion_lat": 0.0, "is_reserved": 0, "lat": 38.96257933333333, "fusion_lon": 0.0, "is_disabled": 0}, {"rental_uris": {"android": "https://dc.lft.to/lastmile_qr_scan", "ios": "https://dc.lft.to/lastmile_qr_scan"}, "type": "electric_scooter", "lon": -76.99496266666667, "name": "a3b8454f2447e393c9eed16c04c47c1f", "bike_id": "a3b8454f2447e393c9eed16c04c47c1f", "fusion_lat": 0.0, "is_reserved": 0, "lat": 38.92097483333333, "fusion_lon": 0.0, "is_disabled": 0}, {"rental_uris": {"android": "https://dc.lft.to/lastmile_qr_scan", "ios": "https://dc.lft.to/lastmile_qr_scan"}, "type": "electric_scooter", "lon": -77.01465866666666, "name": "1d2baba387d9c6971a771125f7420a44", "bike_id": "1d2baba387d9c6971a771125f7420a44", "fusion_lat": 0.0, "is_reserved": 0, "lat": 38.91040116666667, "fusion_lon": 0.0, "is_disabled": 0}, {"rental_uris": {"android": "https://dc.lft.to/lastmile_qr_scan", "ios": "https://dc.lft.to/lastmile_qr_scan"}, "type": "electric_bike", "lon": -77.08485533333334, "name": "74444f4cffd5aaa88c48a663d5277f5b", "bike_id": "74444f4cffd5aaa88c48a663d5277f5b", "fusion_lat": 0.0, "is_reserved": 0, "lat": 38.8905325, "fusion_lon": 0.0, "is_disabled": 0}, {"rental_uris": {"android": "https://dc.lft.to/lastmile_qr_scan", "ios": "https://dc.lft.to/lastmile_qr_scan"}, "type": "electric_scooter", "lon": -77.015097, "name": "8ff08610287aa1968a7481630d2f2048", "bike_id": "8ff08610287aa1968a7481630d2f2048", "fusion_lat": 0.0, "is_reserved": 0, "lat": 38.9100025, "fusion_lon": 0.0, "is_disabled": 0}, {"rental_uris": {"android": "https://dc.lft.to/lastmile_qr_scan", "ios": "https://dc.lft.to/lastmile_qr_scan"}, "type": "electric_scooter", "lon": -77.02889833333333, "name": "143c5756c4060f92a3029cba10858450", "bike_id": "143c5756c4060f92a3029cba10858450", "fusion_lat": 0.0, "is_reserved": 0, "lat": 38.914009166666666, "fusion_lon": 0.0, "is_disabled": 0}, {"rental_uris": {"android": "https://dc.lft.to/lastmile_qr_scan", "ios": "https://dc.lft.to/lastmile_qr_scan"}, "type": "electric_scooter", "lon": -77.0125645, "name": "f9b97c358c84578466e99913f6b89fe4", "bike_id": "f9b97c358c84578466e99913f6b89fe4", "fusion_lat": 0.0, "is_reserved": 0, "lat": 38.908385833333334, "fusion_lon": 0.0, "is_disabled": 0}, {"rental_uris": {"android": "https://dc.lft.to/lastmile_qr_scan", "ios": "https://dc.lft.to/lastmile_qr_scan"}, "type": "electric_scooter", "lon": -76.97912316666667, "name": "0cc412baa3325d16aefc8c450ab91e35", "bike_id": "0cc412baa3325d16aefc8c450ab91e35", "fusion_lat": 0.0, "is_reserved": 0, "lat": 38.86991016666666, "fusion_lon": 0.0, "is_disabled": 0}, {"rental_uris": {"android": "https://dc.lft.to/lastmile_qr_scan", "ios": "https://dc.lft.to/lastmile_qr_scan"}, "type": "electric_scooter", "lon": -76.99607166666667, "name": "19cb0b989ca14f1d16d1c422d01c00ab", "bike_id": "19cb0b989ca14f1d16d1c422d01c00ab", "fusion_lat": 0.0, "is_reserved": 0, "lat": 38.9261265, "fusion_lon": 0.0, "is_disabled": 0}, {"rental_uris": {"android": "https://dc.lft.to/lastmile_qr_scan", "ios": "https://dc.lft.to/lastmile_qr_scan"}, "type": "electric_bike", "lon": -77.0647695, "name": "7526fe9a02e5daf8ad49a661905b5dbc", "bike_id": "7526fe9a02e5daf8ad49a661905b5dbc", "fusion_lat": 0.0, "is_reserved": 0, "lat": 38.97382283333334, "fusion_lon": 0.0, "is_disabled": 0}, {"rental_uris": {"android": "https://dc.lft.to/lastmile_qr_scan", "ios": "https://dc.lft.to/lastmile_qr_scan"}, "type": "electric_scooter", "lon": -77.03329883333333, "name": "b80d399b1ea3116ef13a6a33f2a65eee", "bike_id": "b80d399b1ea3116ef13a6a33f2a65eee", "fusion_lat": 0.0, "is_reserved": 0, "lat": 38.90364316666667, "fusion_lon": 0.0, "is_disabled": 0}, {"rental_uris": {"android": "https://dc.lft.to/lastmile_qr_scan", "ios": "https://dc.lft.to/lastmile_qr_scan"}, "type": "electric_scooter", "lon": -77.0432955, "name": "f5f34b926b866fc0f733d71d085f1d70", "bike_id": "f5f34b926b866fc0f733d71d085f1d70", "fusion_lat": 0.0, "is_reserved": 0, "lat": 38.89218483333333, "fusion_lon": 0.0, "is_disabled": 0}, {"rental_uris": {"android": "https://dc.lft.to/lastmile_qr_scan", "ios": "https://dc.lft.to/lastmile_qr_scan"}, "type": "electric_scooter", "lon": -76.995037, "name": "23df1cd1b5715c98445fb8c64f36f236", "bike_id": "23df1cd1b5715c98445fb8c64f36f236", "fusion_lat": 0.0, "is_reserved": 0, "lat": 38.881916833333335, "fusion_lon": 0.0, "is_disabled": 0}, {"rental_uris": {"android": "https://dc.lft.to/lastmile_qr_scan", "ios": "https://dc.lft.to/lastmile_qr_scan"}, "type": "electric_bike", "lon": -77.0258705, "name": "d1601f9f3c78a458b4ba76ad8c4987ac", "bike_id": "d1601f9f3c78a458b4ba76ad8c4987ac", "fusion_lat": 0.0, "is_reserved": 0, "lat": 38.98233183333333, "fusion_lon": 0.0, "is_disabled": 0}, {"rental_uris": {"android": "https://dc.lft.to/lastmile_qr_scan", "ios": "https://dc.lft.to/lastmile_qr_scan"}, "type": "electric_scooter", "lon": -77.01052616666666, "name": "67985e37eb9cfbcf0f272fd903f0be94", "bike_id": "67985e37eb9cfbcf0f272fd903f0be94", "fusion_lat": 0.0, "is_reserved": 0, "lat": 38.929719666666664, "fusion_lon": 0.0, "is_disabled": 0}, {"rental_uris": {"android": "https://dc.lft.to/lastmile_qr_scan", "ios": "https://dc.lft.to/lastmile_qr_scan"}, "type": "electric_scooter", "lon": -77.01215816666667, "name": "416dc0118a79bd06a2d7f6e714b4bd15", "bike_id": "416dc0118a79bd06a2d7f6e714b4bd15", "fusion_lat": 0.0, "is_reserved": 0, "lat": 38.906620333333336, "fusion_lon": 0.0, "is_disabled": 0}, {"rental_uris": {"android": "https://dc.lft.to/lastmile_qr_scan", "ios": "https://dc.lft.to/lastmile_qr_scan"}, "type": "electric_scooter", "lon": -77.04158083333333, "name": "1014c595a822afc16f48ab7a0ca799ea", "bike_id": "1014c595a822afc16f48ab7a0ca799ea", "fusion_lat": 0.0, "is_reserved": 0, "lat": 38.9164805, "fusion_lon": 0.0, "is_disabled": 0}, {"rental_uris": {"android": "https://dc.lft.to/lastmile_qr_scan", "ios": "https://dc.lft.to/lastmile_qr_scan"}, "type": "electric_scooter", "lon": -76.9949835, "name": "9f88a7c61bad627465fc361cb2601660", "bike_id": "9f88a7c61bad627465fc361cb2601660", "fusion_lat": 0.0, "is_reserved": 0, "lat": 38.883397333333335, "fusion_lon": 0.0, "is_disabled": 0}, {"rental_uris": {"android": "https://dc.lft.to/lastmile_qr_scan", "ios": "https://dc.lft.to/lastmile_qr_scan"}, "type": "electric_scooter", "lon": -76.94944533333333, "name": "611352b993277764d52bbe34c71fe143", "bike_id": "611352b993277764d52bbe34c71fe143", "fusion_lat": 0.0, "is_reserved": 0, "lat": 38.88309066666667, "fusion_lon": 0.0, "is_disabled": 0}, {"rental_uris": {"android": "https://dc.lft.to/lastmile_qr_scan", "ios": "https://dc.lft.to/lastmile_qr_scan"}, "type": "electric_bike", "lon": -76.988439, "name": "55af244a0736901c96869cb38f285ccb", "bike_id": "55af244a0736901c96869cb38f285ccb", "fusion_lat": 0.0, "is_reserved": 0, "lat": 38.84271066666667, "fusion_lon": 0.0, "is_disabled": 0}, {"rental_uris": {"android": "https://dc.lft.to/lastmile_qr_scan", "ios": "https://dc.lft.to/lastmile_qr_scan"}, "type": "electric_bike", "lon": -77.0268975, "name": "7600ebbe29d0acd51cdb74d47985a3d7", "bike_id": "7600ebbe29d0acd51cdb74d47985a3d7", "fusion_lat": 0.0, "is_reserved": 0, "lat": 38.973769, "fusion_lon": 0.0, "is_disabled": 0}, {"rental_uris": {"android": "https://dc.lft.to/lastmile_qr_scan", "ios": "https://dc.lft.to/lastmile_qr_scan"}, "type": "electric_scooter", "lon": -77.030003, "name": "59ed3a14048a6b3f3b4754221db79fba", "bike_id": "59ed3a14048a6b3f3b4754221db79fba", "fusion_lat": 0.0, "is_reserved": 0, "lat": 38.92476683333334, "fusion_lon": 0.0, "is_disabled": 0}, {"rental_uris": {"android": "https://dc.lft.to/lastmile_qr_scan", "ios": "https://dc.lft.to/lastmile_qr_scan"}, "type": "electric_scooter", "lon": -77.03283866666666, "name": "fccfe2115523653fd55975ff04c8a004", "bike_id": "fccfe2115523653fd55975ff04c8a004", "fusion_lat": 0.0, "is_reserved": 0, "lat": 38.95651633333333, "fusion_lon": 0.0, "is_disabled": 0}, {"rental_uris": {"android": "https://dc.lft.to/lastmile_qr_scan", "ios": "https://dc.lft.to/lastmile_qr_scan"}, "type": "electric_scooter", "lon": -76.9479, "name": "6c12d0bfc2f7d7f38d6853a2783cfeb5", "bike_id": "6c12d0bfc2f7d7f38d6853a2783cfeb5", "fusion_lat": 0.0, "is_reserved": 0, "lat": 38.896423166666665, "fusion_lon": 0.0, "is_disabled": 0}, {"rental_uris": {"android": "https://dc.lft.to/lastmile_qr_scan", "ios": "https://dc.lft.to/lastmile_qr_scan"}, "type": "electric_scooter", "lon": -77.02396483333334, "name": "6ccf12506b06b2e95ea822889c91f2ec", "bike_id": "6ccf12506b06b2e95ea822889c91f2ec", "fusion_lat": 0.0, "is_reserved": 0, "lat": 38.90735183333334, "fusion_lon": 0.0, "is_disabled": 0}, {"rental_uris": {"android": "https://dc.lft.to/lastmile_qr_scan", "ios": "https://dc.lft.to/lastmile_qr_scan"}, "type": "electric_scooter", "lon": -77.03431133333333, "name": "bcba277ff4749a4e7cf1c88c0e0b3c79", "bike_id": "bcba277ff4749a4e7cf1c88c0e0b3c79", "fusion_lat": 0.0, "is_reserved": 0, "lat": 38.9168425, "fusion_lon": 0.0, "is_disabled": 0}, {"rental_uris": {"android": "https://dc.lft.to/lastmile_qr_scan", "ios": "https://dc.lft.to/lastmile_qr_scan"}, "type": "electric_scooter", "lon": -77.00443683333333, "name": "4a1a660d69a02a8c16ecde1384c7a378", "bike_id": "4a1a660d69a02a8c16ecde1384c7a378", "fusion_lat": 0.0, "is_reserved": 0, "lat": 38.907090833333335, "fusion_lon": 0.0, "is_disabled": 0}, {"rental_uris": {"android": "https://dc.lft.to/lastmile_qr_scan", "ios": "https://dc.lft.to/lastmile_qr_scan"}, "type": "electric_bike", "lon": -77.089383, "name": "aa813c4b062f2019e417413d49622605", "bike_id": "aa813c4b062f2019e417413d49622605", "fusion_lat": 0.0, "is_reserved": 0, "lat": 38.84097766666667, "fusion_lon": 0.0, "is_disabled": 0}, {"rental_uris": {"android": "https://dc.lft.to/lastmile_qr_scan", "ios": "https://dc.lft.to/lastmile_qr_scan"}, "type": "electric_scooter", "lon": -76.9908155, "name": "e75f8da99d9630fac634f26a61d7f5e4", "bike_id": "e75f8da99d9630fac634f26a61d7f5e4", "fusion_lat": 0.0, "is_reserved": 0, "lat": 38.86049883333333, "fusion_lon": 0.0, "is_disabled": 0}, {"rental_uris": {"android": "https://dc.lft.to/lastmile_qr_scan", "ios": "https://dc.lft.to/lastmile_qr_scan"}, "type": "electric_scooter", "lon": -76.99942083333333, "name": "0dd6e1da8c37be3913308a335af5fc15", "bike_id": "0dd6e1da8c37be3913308a335af5fc15", "fusion_lat": 0.0, "is_reserved": 0, "lat": 38.84317216666667, "fusion_lon": 0.0, "is_disabled": 0}, {"rental_uris": {"android": "https://dc.lft.to/lastmile_qr_scan", "ios": "https://dc.lft.to/lastmile_qr_scan"}, "type": "electric_scooter", "lon": -77.012115, "name": "ceedb6c1c61f98d923d116b58bf6fb7c", "bike_id": "ceedb6c1c61f98d923d116b58bf6fb7c", "fusion_lat": 0.0, "is_reserved": 0, "lat": 38.92580483333333, "fusion_lon": 0.0, "is_disabled": 0}, {"rental_uris": {"android": "https://dc.lft.to/lastmile_qr_scan", "ios": "https://dc.lft.to/lastmile_qr_scan"}, "type": "electric_scooter", "lon": -77.0199785, "name": "0ac5d6a6c81d311ee05da469598542ba", "bike_id": "0ac5d6a6c81d311ee05da469598542ba", "fusion_lat": 0.0, "is_reserved": 0, "lat": 38.966385333333335, "fusion_lon": 0.0, "is_disabled": 0}, {"rental_uris": {"android": "https://dc.lft.to/lastmile_qr_scan", "ios": "https://dc.lft.to/lastmile_qr_scan"}, "type": "electric_scooter", "lon": -77.04668183333334, "name": "d8ebe572dc75bdad19d4fa37405b9f3d", "bike_id": "d8ebe572dc75bdad19d4fa37405b9f3d", "fusion_lat": 0.0, "is_reserved": 0, "lat": 38.9000405, "fusion_lon": 0.0, "is_disabled": 0}, {"rental_uris": {"android": "https://dc.lft.to/lastmile_qr_scan", "ios": "https://dc.lft.to/lastmile_qr_scan"}, "type": "electric_scooter", "lon": -76.99365283333333, "name": "d24375c509c9b1f2a0cb916b92cc1a8d", "bike_id": "d24375c509c9b1f2a0cb916b92cc1a8d", "fusion_lat": 0.0, "is_reserved": 0, "lat": 38.928381333333334, "fusion_lon": 0.0, "is_disabled": 0}, {"rental_uris": {"android": "https://dc.lft.to/lastmile_qr_scan", "ios": "https://dc.lft.to/lastmile_qr_scan"}, "type": "electric_scooter", "lon": -77.02832683333334, "name": "7700798e884a92add687652a5ad19bee", "bike_id": "7700798e884a92add687652a5ad19bee", "fusion_lat": 0.0, "is_reserved": 0, "lat": 38.9246405, "fusion_lon": 0.0, "is_disabled": 0}, {"rental_uris": {"android": "https://dc.lft.to/lastmile_qr_scan", "ios": "https://dc.lft.to/lastmile_qr_scan"}, "type": "electric_scooter", "lon": -76.9900955, "name": "833a8ab7be502a4fc4402925c04aab13", "bike_id": "833a8ab7be502a4fc4402925c04aab13", "fusion_lat": 0.0, "is_reserved": 0, "lat": 38.86501716666667, "fusion_lon": 0.0, "is_disabled": 0}, {"rental_uris": {"android": "https://dc.lft.to/lastmile_qr_scan", "ios": "https://dc.lft.to/lastmile_qr_scan"}, "type": "electric_scooter", "lon": -77.0656055, "name": "7bac6d86ed855436b5968b0f1398e791", "bike_id": "7bac6d86ed855436b5968b0f1398e791", "fusion_lat": 0.0, "is_reserved": 0, "lat": 38.905171, "fusion_lon": 0.0, "is_disabled": 0}, {"rental_uris": {"android": "https://dc.lft.to/lastmile_qr_scan", "ios": "https://dc.lft.to/lastmile_qr_scan"}, "type": "electric_scooter", "lon": -77.02692333333333, "name": "7b39a2ae08554c43e9963c82f1ad0ae8", "bike_id": "7b39a2ae08554c43e9963c82f1ad0ae8", "fusion_lat": 0.0, "is_reserved": 0, "lat": 38.898625, "fusion_lon": 0.0, "is_disabled": 0}, {"rental_uris": {"android": "https://dc.lft.to/lastmile_qr_scan", "ios": "https://dc.lft.to/lastmile_qr_scan"}, "type": "electric_bike", "lon": -77.112224, "name": "12bedac6f7adeb48d664016f6923138d", "bike_id": "12bedac6f7adeb48d664016f6923138d", "fusion_lat": 0.0, "is_reserved": 0, "lat": 38.82865, "fusion_lon": 0.0, "is_disabled": 0}, {"rental_uris": {"android": "https://dc.lft.to/lastmile_qr_scan", "ios": "https://dc.lft.to/lastmile_qr_scan"}, "type": "electric_scooter", "lon": -76.931609, "name": "e50a45ab15dd793c0197417c22c46625", "bike_id": "e50a45ab15dd793c0197417c22c46625", "fusion_lat": 0.0, "is_reserved": 0, "lat": 38.8987935, "fusion_lon": 0.0, "is_disabled": 0}, {"rental_uris": {"android": "https://dc.lft.to/lastmile_qr_scan", "ios": "https://dc.lft.to/lastmile_qr_scan"}, "type": "electric_scooter", "lon": -77.021765, "name": "45eed4275553a54b32691489860cfad9", "bike_id": "45eed4275553a54b32691489860cfad9", "fusion_lat": 0.0, "is_reserved": 0, "lat": 38.91120933333333, "fusion_lon": 0.0, "is_disabled": 0}, {"rental_uris": {"android": "https://dc.lft.to/lastmile_qr_scan", "ios": "https://dc.lft.to/lastmile_qr_scan"}, "type": "electric_scooter", "lon": -77.06840633333333, "name": "99505ac2d28c0503049600f107e122a5", "bike_id": "99505ac2d28c0503049600f107e122a5", "fusion_lat": 0.0, "is_reserved": 0, "lat": 38.903982166666665, "fusion_lon": 0.0, "is_disabled": 0}, {"rental_uris": {"android": "https://dc.lft.to/lastmile_qr_scan", "ios": "https://dc.lft.to/lastmile_qr_scan"}, "type": "electric_scooter", "lon": -77.00339933333333, "name": "7f3d95525a522cfbfcc94e5b86b3d3a1", "bike_id": "7f3d95525a522cfbfcc94e5b86b3d3a1", "fusion_lat": 0.0, "is_reserved": 0, "lat": 38.895043666666666, "fusion_lon": 0.0, "is_disabled": 0}, {"rental_uris": {"android": "https://dc.lft.to/lastmile_qr_scan", "ios": "https://dc.lft.to/lastmile_qr_scan"}, "type": "electric_scooter", "lon": -77.04379183333333, "name": "f141ecb00ff240cb8f0864d10143844b", "bike_id": "f141ecb00ff240cb8f0864d10143844b", "fusion_lat": 0.0, "is_reserved": 0, "lat": 38.910516, "fusion_lon": 0.0, "is_disabled": 0}, {"rental_uris": {"android": "https://dc.lft.to/lastmile_qr_scan", "ios": "https://dc.lft.to/lastmile_qr_scan"}, "type": "electric_scooter", "lon": -77.00069666666667, "name": "8d58b3b3715f81dd540272ea79b7bc1f", "bike_id": "8d58b3b3715f81dd540272ea79b7bc1f", "fusion_lat": 0.0, "is_reserved": 0, "lat": 38.897395, "fusion_lon": 0.0, "is_disabled": 0}, {"rental_uris": {"android": "https://dc.lft.to/lastmile_qr_scan", "ios": "https://dc.lft.to/lastmile_qr_scan"}, "type": "electric_bike", "lon": -76.87498216666667, "name": "4eaeb173dd5594844bf61f90fdc96429", "bike_id": "4eaeb173dd5594844bf61f90fdc96429", "fusion_lat": 0.0, "is_reserved": 0, "lat": 38.990884, "fusion_lon": 0.0, "is_disabled": 0}, {"rental_uris": {"android": "https://dc.lft.to/lastmile_qr_scan", "ios": "https://dc.lft.to/lastmile_qr_scan"}, "type": "electric_scooter", "lon": -77.03851016666667, "name": "55a2d5812236bc0f96fd35d850e34fdd", "bike_id": "55a2d5812236bc0f96fd35d850e34fdd", "fusion_lat": 0.0, "is_reserved": 0, "lat": 38.9119185, "fusion_lon": 0.0, "is_disabled": 0}, {"rental_uris": {"android": "https://dc.lft.to/lastmile_qr_scan", "ios": "https://dc.lft.to/lastmile_qr_scan"}, "type": "electric_scooter", "lon": -77.02171866666667, "name": "7dca736a4b57726c2fb576a50da34d5d", "bike_id": "7dca736a4b57726c2fb576a50da34d5d", "fusion_lat": 0.0, "is_reserved": 0, "lat": 38.897122, "fusion_lon": 0.0, "is_disabled": 0}, {"rental_uris": {"android": "https://dc.lft.to/lastmile_qr_scan", "ios": "https://dc.lft.to/lastmile_qr_scan"}, "type": "electric_bike", "lon": -77.0857505, "name": "19b21d966997288882ef3a8fbd7f1c61", "bike_id": "19b21d966997288882ef3a8fbd7f1c61", "fusion_lat": 0.0, "is_reserved": 0, "lat": 38.87418516666666, "fusion_lon": 0.0, "is_disabled": 0}, {"rental_uris": {"android": "https://dc.lft.to/lastmile_qr_scan", "ios": "https://dc.lft.to/lastmile_qr_scan"}, "type": "electric_bike", "lon": -77.025001, "name": "a17303011d3852f4b13a2673cf0ccc77", "bike_id": "a17303011d3852f4b13a2673cf0ccc77", "fusion_lat": 0.0, "is_reserved": 0, "lat": 38.974002166666665, "fusion_lon": 0.0, "is_disabled": 0}, {"rental_uris": {"android": "https://dc.lft.to/lastmile_qr_scan", "ios": "https://dc.lft.to/lastmile_qr_scan"}, "type": "electric_scooter", "lon": -76.993852, "name": "18d6b36803a7132c2338349560f013c6", "bike_id": "18d6b36803a7132c2338349560f013c6", "fusion_lat": 0.0, "is_reserved": 0, "lat": 38.88969183333333, "fusion_lon": 0.0, "is_disabled": 0}, {"rental_uris": {"android": "https://dc.lft.to/lastmile_qr_scan", "ios": "https://dc.lft.to/lastmile_qr_scan"}, "type": "electric_scooter", "lon": -77.025767, "name": "f99fd3276d43b8157ac0e81095c292f9", "bike_id": "f99fd3276d43b8157ac0e81095c292f9", "fusion_lat": 0.0, "is_reserved": 0, "lat": 38.93089583333333, "fusion_lon": 0.0, "is_disabled": 0}, {"rental_uris": {"android": "https://dc.lft.to/lastmile_qr_scan", "ios": "https://dc.lft.to/lastmile_qr_scan"}, "type": "electric_scooter", "lon": -76.98035516666667, "name": "f2c4175e5077f9b23fde60506f1b977e", "bike_id": "f2c4175e5077f9b23fde60506f1b977e", "fusion_lat": 0.0, "is_reserved": 0, "lat": 38.9167145, "fusion_lon": 0.0, "is_disabled": 0}, {"rental_uris": {"android": "https://dc.lft.to/lastmile_qr_scan", "ios": "https://dc.lft.to/lastmile_qr_scan"}, "type": "electric_scooter", "lon": -77.03366683333333, "name": "c27e85fc564a4e00c0506c26d765516c", "bike_id": "c27e85fc564a4e00c0506c26d765516c", "fusion_lat": 0.0, "is_reserved": 0, "lat": 38.911840166666664, "fusion_lon": 0.0, "is_disabled": 0}, {"rental_uris": {"android": "https://dc.lft.to/lastmile_qr_scan", "ios": "https://dc.lft.to/lastmile_qr_scan"}, "type": "electric_scooter", "lon": -77.054384, "name": "be51343b41c85624d4e0c2f89021e6d8", "bike_id": "be51343b41c85624d4e0c2f89021e6d8", "fusion_lat": 0.0, "is_reserved": 0, "lat": 38.8960095, "fusion_lon": 0.0, "is_disabled": 0}, {"rental_uris": {"android": "https://dc.lft.to/lastmile_qr_scan", "ios": "https://dc.lft.to/lastmile_qr_scan"}, "type": "electric_scooter", "lon": -77.00864433333334, "name": "d42a344edd85430302d288b007c03120", "bike_id": "d42a344edd85430302d288b007c03120", "fusion_lat": 0.0, "is_reserved": 0, "lat": 38.905643, "fusion_lon": 0.0, "is_disabled": 0}, {"rental_uris": {"android": "https://dc.lft.to/lastmile_qr_scan", "ios": "https://dc.lft.to/lastmile_qr_scan"}, "type": "electric_scooter", "lon": -77.03440916666666, "name": "003a2c39ba95ea41de5e7ceaccf5d756", "bike_id": "003a2c39ba95ea41de5e7ceaccf5d756", "fusion_lat": 0.0, "is_reserved": 0, "lat": 38.90623933333333, "fusion_lon": 0.0, "is_disabled": 0}, {"rental_uris": {"android": "https://dc.lft.to/lastmile_qr_scan", "ios": "https://dc.lft.to/lastmile_qr_scan"}, "type": "electric_bike", "lon": -77.0775055, "name": "372c7196124420c5412c95ee2be11db6", "bike_id": "372c7196124420c5412c95ee2be11db6", "fusion_lat": 0.0, "is_reserved": 0, "lat": 38.94029866666666, "fusion_lon": 0.0, "is_disabled": 0}, {"rental_uris": {"android": "https://dc.lft.to/lastmile_qr_scan", "ios": "https://dc.lft.to/lastmile_qr_scan"}, "type": "electric_scooter", "lon": -77.006534, "name": "ee540620d5197bdf16cea487e70ff85e", "bike_id": "ee540620d5197bdf16cea487e70ff85e", "fusion_lat": 0.0, "is_reserved": 0, "lat": 38.883303833333336, "fusion_lon": 0.0, "is_disabled": 0}, {"rental_uris": {"android": "https://dc.lft.to/lastmile_qr_scan", "ios": "https://dc.lft.to/lastmile_qr_scan"}, "type": "electric_scooter", "lon": -77.01108, "name": "1e9201d3f84aa7a7d464d27cb46e01e6", "bike_id": "1e9201d3f84aa7a7d464d27cb46e01e6", "fusion_lat": 0.0, "is_reserved": 0, "lat": 38.903578833333334, "fusion_lon": 0.0, "is_disabled": 0}, {"rental_uris": {"android": "https://dc.lft.to/lastmile_qr_scan", "ios": "https://dc.lft.to/lastmile_qr_scan"}, "type": "electric_scooter", "lon": -76.99511866666667, "name": "98e55cff91597d233eb59a69b0a08ece", "bike_id": "98e55cff91597d233eb59a69b0a08ece", "fusion_lat": 0.0, "is_reserved": 0, "lat": 38.87777066666666, "fusion_lon": 0.0, "is_disabled": 0}, {"rental_uris": {"android": "https://dc.lft.to/lastmile_qr_scan", "ios": "https://dc.lft.to/lastmile_qr_scan"}, "type": "electric_scooter", "lon": -77.0347435, "name": "0140fe94c679b7b08e7f8dabce369029", "bike_id": "0140fe94c679b7b08e7f8dabce369029", "fusion_lat": 0.0, "is_reserved": 0, "lat": 38.911130166666666, "fusion_lon": 0.0, "is_disabled": 0}, {"rental_uris": {"android": "https://dc.lft.to/lastmile_qr_scan", "ios": "https://dc.lft.to/lastmile_qr_scan"}, "type": "electric_bike", "lon": -76.94952733333334, "name": "a1947efd1ac4d25775ad46add50ce411", "bike_id": "a1947efd1ac4d25775ad46add50ce411", "fusion_lat": 0.0, "is_reserved": 0, "lat": 38.93500266666667, "fusion_lon": 0.0, "is_disabled": 0}, {"rental_uris": {"android": "https://dc.lft.to/lastmile_qr_scan", "ios": "https://dc.lft.to/lastmile_qr_scan"}, "type": "electric_bike", "lon": -77.054417, "name": "34211f3bebeb9176da5b2b2be97023ff", "bike_id": "34211f3bebeb9176da5b2b2be97023ff", "fusion_lat": 0.0, "is_reserved": 0, "lat": 38.89602816666667, "fusion_lon": 0.0, "is_disabled": 0}, {"rental_uris": {"android": "https://dc.lft.to/lastmile_qr_scan", "ios": "https://dc.lft.to/lastmile_qr_scan"}, "type": "electric_scooter", "lon": -77.038357, "name": "c1b65ecf74af4281f307f03ddcb2045f", "bike_id": "c1b65ecf74af4281f307f03ddcb2045f", "fusion_lat": 0.0, "is_reserved": 0, "lat": 38.90338933333334, "fusion_lon": 0.0, "is_disabled": 0}, {"rental_uris": {"android": "https://dc.lft.to/lastmile_qr_scan", "ios": "https://dc.lft.to/lastmile_qr_scan"}, "type": "electric_scooter", "lon": -77.02977133333333, "name": "b5d399d62d13be82bc8ac8a482a733ea", "bike_id": "b5d399d62d13be82bc8ac8a482a733ea", "fusion_lat": 0.0, "is_reserved": 0, "lat": 38.927453, "fusion_lon": 0.0, "is_disabled": 0}, {"rental_uris": {"android": "https://dc.lft.to/lastmile_qr_scan", "ios": "https://dc.lft.to/lastmile_qr_scan"}, "type": "electric_scooter", "lon": -76.97328933333333, "name": "6c53e66e085e566b7940521bb34a7835", "bike_id": "6c53e66e085e566b7940521bb34a7835", "fusion_lat": 0.0, "is_reserved": 0, "lat": 38.90477416666667, "fusion_lon": 0.0, "is_disabled": 0}, {"rental_uris": {"android": "https://dc.lft.to/lastmile_qr_scan", "ios": "https://dc.lft.to/lastmile_qr_scan"}, "type": "electric_scooter", "lon": -76.9868945, "name": "4b53905ef23447d09ad94de6c19f8625", "bike_id": "4b53905ef23447d09ad94de6c19f8625", "fusion_lat": 0.0, "is_reserved": 0, "lat": 38.90496066666667, "fusion_lon": 0.0, "is_disabled": 0}, {"rental_uris": {"android": "https://dc.lft.to/lastmile_qr_scan", "ios": "https://dc.lft.to/lastmile_qr_scan"}, "type": "electric_scooter", "lon": -77.071887, "name": "919fdc6981029317982aae0d734c026a", "bike_id": "919fdc6981029317982aae0d734c026a", "fusion_lat": 0.0, "is_reserved": 0, "lat": 38.921008666666665, "fusion_lon": 0.0, "is_disabled": 0}, {"rental_uris": {"android": "https://dc.lft.to/lastmile_qr_scan", "ios": "https://dc.lft.to/lastmile_qr_scan"}, "type": "electric_scooter", "lon": -77.038549, "name": "467fc206666edda1c2d1361ca31caf93", "bike_id": "467fc206666edda1c2d1361ca31caf93", "fusion_lat": 0.0, "is_reserved": 0, "lat": 38.9102135, "fusion_lon": 0.0, "is_disabled": 0}, {"rental_uris": {"android": "https://dc.lft.to/lastmile_qr_scan", "ios": "https://dc.lft.to/lastmile_qr_scan"}, "type": "electric_scooter", "lon": -76.9953725, "name": "b64d3e6018b64bd86554cbdf803a47da", "bike_id": "b64d3e6018b64bd86554cbdf803a47da", "fusion_lat": 0.0, "is_reserved": 0, "lat": 38.9000495, "fusion_lon": 0.0, "is_disabled": 0}, {"rental_uris": {"android": "https://dc.lft.to/lastmile_qr_scan", "ios": "https://dc.lft.to/lastmile_qr_scan"}, "type": "electric_scooter", "lon": -77.04977683333334, "name": "a8340f8767627adbc94eeb6d8e252765", "bike_id": "a8340f8767627adbc94eeb6d8e252765", "fusion_lat": 0.0, "is_reserved": 0, "lat": 38.904969666666666, "fusion_lon": 0.0, "is_disabled": 0}, {"rental_uris": {"android": "https://dc.lft.to/lastmile_qr_scan", "ios": "https://dc.lft.to/lastmile_qr_scan"}, "type": "electric_scooter", "lon": -77.06766083333333, "name": "9f8a1856c503ec7160febfe7d5c5ff7b", "bike_id": "9f8a1856c503ec7160febfe7d5c5ff7b", "fusion_lat": 0.0, "is_reserved": 0, "lat": 38.90363683333333, "fusion_lon": 0.0, "is_disabled": 0}, {"rental_uris": {"android": "https://dc.lft.to/lastmile_qr_scan", "ios": "https://dc.lft.to/lastmile_qr_scan"}, "type": "electric_scooter", "lon": -77.03853583333333, "name": "bc4f98be04c83f2a8474d7df973a5784", "bike_id": "bc4f98be04c83f2a8474d7df973a5784", "fusion_lat": 0.0, "is_reserved": 0, "lat": 38.902918166666666, "fusion_lon": 0.0, "is_disabled": 0}, {"rental_uris": {"android": "https://dc.lft.to/lastmile_qr_scan", "ios": "https://dc.lft.to/lastmile_qr_scan"}, "type": "electric_scooter", "lon": -77.030463, "name": "e41396b18a8eb6821b39a43f0d37a8e6", "bike_id": "e41396b18a8eb6821b39a43f0d37a8e6", "fusion_lat": 0.0, "is_reserved": 0, "lat": 38.8840595, "fusion_lon": 0.0, "is_disabled": 0}, {"rental_uris": {"android": "https://dc.lft.to/lastmile_qr_scan", "ios": "https://dc.lft.to/lastmile_qr_scan"}, "type": "electric_scooter", "lon": -77.00820666666667, "name": "dfb6d909d0cc6b3bd0afe9b560f45221", "bike_id": "dfb6d909d0cc6b3bd0afe9b560f45221", "fusion_lat": 0.0, "is_reserved": 0, "lat": 38.915592833333335, "fusion_lon": 0.0, "is_disabled": 0}, {"rental_uris": {"android": "https://dc.lft.to/lastmile_qr_scan", "ios": "https://dc.lft.to/lastmile_qr_scan"}, "type": "electric_scooter", "lon": -77.00243783333333, "name": "2d061e9a5fb2bd9eb142842780a528f6", "bike_id": "2d061e9a5fb2bd9eb142842780a528f6", "fusion_lat": 0.0, "is_reserved": 0, "lat": 38.8802055, "fusion_lon": 0.0, "is_disabled": 0}, {"rental_uris": {"android": "https://dc.lft.to/lastmile_qr_scan", "ios": "https://dc.lft.to/lastmile_qr_scan"}, "type": "electric_scooter", "lon": -77.03398116666666, "name": "3c28915acf2bf423f0aeb23ab57cdacc", "bike_id": "3c28915acf2bf423f0aeb23ab57cdacc", "fusion_lat": 0.0, "is_reserved": 0, "lat": 38.92425816666667, "fusion_lon": 0.0, "is_disabled": 0}, {"rental_uris": {"android": "https://dc.lft.to/lastmile_qr_scan", "ios": "https://dc.lft.to/lastmile_qr_scan"}, "type": "electric_scooter", "lon": -77.061344, "name": "1639d332b7ef508b8daf53c705f63381", "bike_id": "1639d332b7ef508b8daf53c705f63381", "fusion_lat": 0.0, "is_reserved": 0, "lat": 38.94374033333333, "fusion_lon": 0.0, "is_disabled": 0}, {"rental_uris": {"android": "https://dc.lft.to/lastmile_qr_scan", "ios": "https://dc.lft.to/lastmile_qr_scan"}, "type": "electric_scooter", "lon": -77.0060175, "name": "8573c8f780aae0d8f378bd3713110023", "bike_id": "8573c8f780aae0d8f378bd3713110023", "fusion_lat": 0.0, "is_reserved": 0, "lat": 38.90816866666667, "fusion_lon": 0.0, "is_disabled": 0}, {"rental_uris": {"android": "https://dc.lft.to/lastmile_qr_scan", "ios": "https://dc.lft.to/lastmile_qr_scan"}, "type": "electric_scooter", "lon": -77.02024566666667, "name": "9bfd1f357da2d32ff11b9ebff9124eb2", "bike_id": "9bfd1f357da2d32ff11b9ebff9124eb2", "fusion_lat": 0.0, "is_reserved": 0, "lat": 38.924213333333334, "fusion_lon": 0.0, "is_disabled": 0}, {"rental_uris": {"android": "https://dc.lft.to/lastmile_qr_scan", "ios": "https://dc.lft.to/lastmile_qr_scan"}, "type": "electric_scooter", "lon": -77.04480783333334, "name": "005c130f93b4e252bd9fe0f90c7e4f68", "bike_id": "005c130f93b4e252bd9fe0f90c7e4f68", "fusion_lat": 0.0, "is_reserved": 0, "lat": 38.9091225, "fusion_lon": 0.0, "is_disabled": 0}, {"rental_uris": {"android": "https://dc.lft.to/lastmile_qr_scan", "ios": "https://dc.lft.to/lastmile_qr_scan"}, "type": "electric_scooter", "lon": -77.0320915, "name": "09669095f49dbc58d008f402191b7dce", "bike_id": "09669095f49dbc58d008f402191b7dce", "fusion_lat": 0.0, "is_reserved": 0, "lat": 38.91624933333333, "fusion_lon": 0.0, "is_disabled": 0}, {"rental_uris": {"android": "https://dc.lft.to/lastmile_qr_scan", "ios": "https://dc.lft.to/lastmile_qr_scan"}, "type": "electric_scooter", "lon": -76.9903135, "name": "6ccb9c9e9414d2378a04218b930cd08c", "bike_id": "6ccb9c9e9414d2378a04218b930cd08c", "fusion_lat": 0.0, "is_reserved": 0, "lat": 38.8640505, "fusion_lon": 0.0, "is_disabled": 0}, {"rental_uris": {"android": "https://dc.lft.to/lastmile_qr_scan", "ios": "https://dc.lft.to/lastmile_qr_scan"}, "type": "electric_scooter", "lon": -76.997266, "name": "315c7349497f3044ff7a561a694beab0", "bike_id": "315c7349497f3044ff7a561a694beab0", "fusion_lat": 0.0, "is_reserved": 0, "lat": 38.898809, "fusion_lon": 0.0, "is_disabled": 0}, {"rental_uris": {"android": "https://dc.lft.to/lastmile_qr_scan", "ios": "https://dc.lft.to/lastmile_qr_scan"}, "type": "electric_scooter", "lon": -77.02442416666666, "name": "fb6e38179b5717f4cd5900c4c083e2d3", "bike_id": "fb6e38179b5717f4cd5900c4c083e2d3", "fusion_lat": 0.0, "is_reserved": 0, "lat": 38.932847, "fusion_lon": 0.0, "is_disabled": 0}, {"rental_uris": {"android": "https://dc.lft.to/lastmile_qr_scan", "ios": "https://dc.lft.to/lastmile_qr_scan"}, "type": "electric_scooter", "lon": -77.0070235, "name": "2b1b76b72e323c504911c473b30bff05", "bike_id": "2b1b76b72e323c504911c473b30bff05", "fusion_lat": 0.0, "is_reserved": 0, "lat": 38.87701716666667, "fusion_lon": 0.0, "is_disabled": 0}, {"rental_uris": {"android": "https://dc.lft.to/lastmile_qr_scan", "ios": "https://dc.lft.to/lastmile_qr_scan"}, "type": "electric_scooter", "lon": -77.03829516666667, "name": "d6584fc0cbe5e70028bdce69e279281b", "bike_id": "d6584fc0cbe5e70028bdce69e279281b", "fusion_lat": 0.0, "is_reserved": 0, "lat": 38.91507516666667, "fusion_lon": 0.0, "is_disabled": 0}, {"rental_uris": {"android": "https://dc.lft.to/lastmile_qr_scan", "ios": "https://dc.lft.to/lastmile_qr_scan"}, "type": "electric_scooter", "lon": -77.0315745, "name": "d6e85f09e0ecfbc154d123b7eb4d756d", "bike_id": "d6e85f09e0ecfbc154d123b7eb4d756d", "fusion_lat": 0.0, "is_reserved": 0, "lat": 38.896952166666665, "fusion_lon": 0.0, "is_disabled": 0}, {"rental_uris": {"android": "https://dc.lft.to/lastmile_qr_scan", "ios": "https://dc.lft.to/lastmile_qr_scan"}, "type": "electric_scooter", "lon": -77.04255633333334, "name": "dabf24b317d17ad149e765b5e313f408", "bike_id": "dabf24b317d17ad149e765b5e313f408", "fusion_lat": 0.0, "is_reserved": 0, "lat": 38.92200733333333, "fusion_lon": 0.0, "is_disabled": 0}, {"rental_uris": {"android": "https://dc.lft.to/lastmile_qr_scan", "ios": "https://dc.lft.to/lastmile_qr_scan"}, "type": "electric_scooter", "lon": -77.00892316666666, "name": "897bbad52377cfbcbad075c069877eb6", "bike_id": "897bbad52377cfbcbad075c069877eb6", "fusion_lat": 0.0, "is_reserved": 0, "lat": 38.87631983333333, "fusion_lon": 0.0, "is_disabled": 0}, {"rental_uris": {"android": "https://dc.lft.to/lastmile_qr_scan", "ios": "https://dc.lft.to/lastmile_qr_scan"}, "type": "electric_scooter", "lon": -77.04748566666666, "name": "dccf52aa041fcba5cce7422e33071276", "bike_id": "dccf52aa041fcba5cce7422e33071276", "fusion_lat": 0.0, "is_reserved": 0, "lat": 38.905368, "fusion_lon": 0.0, "is_disabled": 0}, {"rental_uris": {"android": "https://dc.lft.to/lastmile_qr_scan", "ios": "https://dc.lft.to/lastmile_qr_scan"}, "type": "electric_scooter", "lon": -77.05329216666667, "name": "106e22f1d8140bb9eda5727f0392a685", "bike_id": "106e22f1d8140bb9eda5727f0392a685", "fusion_lat": 0.0, "is_reserved": 0, "lat": 38.90531516666667, "fusion_lon": 0.0, "is_disabled": 0}, {"rental_uris": {"android": "https://dc.lft.to/lastmile_qr_scan", "ios": "https://dc.lft.to/lastmile_qr_scan"}, "type": "electric_bike", "lon": -76.973338, "name": "764556d2b64acc98b9b4021c02c48c24", "bike_id": "764556d2b64acc98b9b4021c02c48c24", "fusion_lat": 0.0, "is_reserved": 0, "lat": 38.8505645, "fusion_lon": 0.0, "is_disabled": 0}, {"rental_uris": {"android": "https://dc.lft.to/lastmile_qr_scan", "ios": "https://dc.lft.to/lastmile_qr_scan"}, "type": "electric_scooter", "lon": -77.008619, "name": "2c575f8d3c8f72c15f1d37c334af3be7", "bike_id": "2c575f8d3c8f72c15f1d37c334af3be7", "fusion_lat": 0.0, "is_reserved": 0, "lat": 38.9062895, "fusion_lon": 0.0, "is_disabled": 0}, {"rental_uris": {"android": "https://dc.lft.to/lastmile_qr_scan", "ios": "https://dc.lft.to/lastmile_qr_scan"}, "type": "electric_scooter", "lon": -77.0398945, "name": "b73a2a59eb579130c45b569d77f0b523", "bike_id": "b73a2a59eb579130c45b569d77f0b523", "fusion_lat": 0.0, "is_reserved": 0, "lat": 38.903582666666665, "fusion_lon": 0.0, "is_disabled": 0}, {"rental_uris": {"android": "https://dc.lft.to/lastmile_qr_scan", "ios": "https://dc.lft.to/lastmile_qr_scan"}, "type": "electric_scooter", "lon": -77.02169816666667, "name": "2702feb104d7d1e8a2310d47990dab22", "bike_id": "2702feb104d7d1e8a2310d47990dab22", "fusion_lat": 0.0, "is_reserved": 0, "lat": 38.88740883333333, "fusion_lon": 0.0, "is_disabled": 0}, {"rental_uris": {"android": "https://dc.lft.to/lastmile_qr_scan", "ios": "https://dc.lft.to/lastmile_qr_scan"}, "type": "electric_scooter", "lon": -77.03336083333333, "name": "1fa479799dcfe9a3934509394532da35", "bike_id": "1fa479799dcfe9a3934509394532da35", "fusion_lat": 0.0, "is_reserved": 0, "lat": 38.919092, "fusion_lon": 0.0, "is_disabled": 0}, {"rental_uris": {"android": "https://dc.lft.to/lastmile_qr_scan", "ios": "https://dc.lft.to/lastmile_qr_scan"}, "type": "electric_scooter", "lon": -77.01962733333333, "name": "94368841b7ba9279faee32df47ae352d", "bike_id": "94368841b7ba9279faee32df47ae352d", "fusion_lat": 0.0, "is_reserved": 0, "lat": 38.93568033333333, "fusion_lon": 0.0, "is_disabled": 0}, {"rental_uris": {"android": "https://dc.lft.to/lastmile_qr_scan", "ios": "https://dc.lft.to/lastmile_qr_scan"}, "type": "electric_scooter", "lon": -77.0425755, "name": "f3eec81b52cfd3f74c4844de13c265d5", "bike_id": "f3eec81b52cfd3f74c4844de13c265d5", "fusion_lat": 0.0, "is_reserved": 0, "lat": 38.92246133333333, "fusion_lon": 0.0, "is_disabled": 0}, {"rental_uris": {"android": "https://dc.lft.to/lastmile_qr_scan", "ios": "https://dc.lft.to/lastmile_qr_scan"}, "type": "electric_scooter", "lon": -77.04682233333334, "name": "eef8463e9caae77aeb93c1bf4e7f89d0", "bike_id": "eef8463e9caae77aeb93c1bf4e7f89d0", "fusion_lat": 0.0, "is_reserved": 0, "lat": 38.90493566666667, "fusion_lon": 0.0, "is_disabled": 0}, {"rental_uris": {"android": "https://dc.lft.to/lastmile_qr_scan", "ios": "https://dc.lft.to/lastmile_qr_scan"}, "type": "electric_scooter", "lon": -77.07994433333333, "name": "319f36d77bd745f031a8afed894627da", "bike_id": "319f36d77bd745f031a8afed894627da", "fusion_lat": 0.0, "is_reserved": 0, "lat": 38.923656666666666, "fusion_lon": 0.0, "is_disabled": 0}, {"rental_uris": {"android": "https://dc.lft.to/lastmile_qr_scan", "ios": "https://dc.lft.to/lastmile_qr_scan"}, "type": "electric_scooter", "lon": -77.03959883333333, "name": "f4c1870b5b60b915db622932cde6eb2c", "bike_id": "f4c1870b5b60b915db622932cde6eb2c", "fusion_lat": 0.0, "is_reserved": 0, "lat": 38.90595366666667, "fusion_lon": 0.0, "is_disabled": 0}, {"rental_uris": {"android": "https://dc.lft.to/lastmile_qr_scan", "ios": "https://dc.lft.to/lastmile_qr_scan"}, "type": "electric_scooter", "lon": -77.02435883333334, "name": "a2026f3a7406d6e5999dbc34971e3d97", "bike_id": "a2026f3a7406d6e5999dbc34971e3d97", "fusion_lat": 0.0, "is_reserved": 0, "lat": 38.923732666666666, "fusion_lon": 0.0, "is_disabled": 0}, {"rental_uris": {"android": "https://dc.lft.to/lastmile_qr_scan", "ios": "https://dc.lft.to/lastmile_qr_scan"}, "type": "electric_bike", "lon": -76.96701083333333, "name": "2078e141580a1fac71294cae35b7f04c", "bike_id": "2078e141580a1fac71294cae35b7f04c", "fusion_lat": 0.0, "is_reserved": 0, "lat": 38.868537, "fusion_lon": 0.0, "is_disabled": 0}, {"rental_uris": {"android": "https://dc.lft.to/lastmile_qr_scan", "ios": "https://dc.lft.to/lastmile_qr_scan"}, "type": "electric_scooter", "lon": -77.04669366666667, "name": "2bb93ee0b50201b4c0c984aa1e5147da", "bike_id": "2bb93ee0b50201b4c0c984aa1e5147da", "fusion_lat": 0.0, "is_reserved": 0, "lat": 38.915727333333336, "fusion_lon": 0.0, "is_disabled": 0}, {"rental_uris": {"android": "https://dc.lft.to/lastmile_qr_scan", "ios": "https://dc.lft.to/lastmile_qr_scan"}, "type": "electric_scooter", "lon": -77.002117, "name": "119e9e5a704fa1ccc86b44a5e77db438", "bike_id": "119e9e5a704fa1ccc86b44a5e77db438", "fusion_lat": 0.0, "is_reserved": 0, "lat": 38.88733116666667, "fusion_lon": 0.0, "is_disabled": 0}, {"rental_uris": {"android": "https://dc.lft.to/lastmile_qr_scan", "ios": "https://dc.lft.to/lastmile_qr_scan"}, "type": "electric_scooter", "lon": -77.00922766666666, "name": "4333e2b9dff79f31dc1d132dd790bf05", "bike_id": "4333e2b9dff79f31dc1d132dd790bf05", "fusion_lat": 0.0, "is_reserved": 0, "lat": 38.876394, "fusion_lon": 0.0, "is_disabled": 0}, {"rental_uris": {"android": "https://dc.lft.to/lastmile_qr_scan", "ios": "https://dc.lft.to/lastmile_qr_scan"}, "type": "electric_bike", "lon": -77.19543633333333, "name": "ca772b102349f1a44b088089625f537c", "bike_id": "ca772b102349f1a44b088089625f537c", "fusion_lat": 0.0, "is_reserved": 0, "lat": 39.1150645, "fusion_lon": 0.0, "is_disabled": 0}, {"rental_uris": {"android": "https://dc.lft.to/lastmile_qr_scan", "ios": "https://dc.lft.to/lastmile_qr_scan"}, "type": "electric_scooter", "lon": -77.072543, "name": "456eda85c6eb46cbf9804516767b4faa", "bike_id": "456eda85c6eb46cbf9804516767b4faa", "fusion_lat": 0.0, "is_reserved": 0, "lat": 38.93437433333333, "fusion_lon": 0.0, "is_disabled": 0}, {"rental_uris": {"android": "https://dc.lft.to/lastmile_qr_scan", "ios": "https://dc.lft.to/lastmile_qr_scan"}, "type": "electric_bike", "lon": -77.04979283333333, "name": "c5eb40ea74f71a9112b6449b8fea3af7", "bike_id": "c5eb40ea74f71a9112b6449b8fea3af7", "fusion_lat": 0.0, "is_reserved": 0, "lat": 38.99243583333333, "fusion_lon": 0.0, "is_disabled": 0}, {"rental_uris": {"android": "https://dc.lft.to/lastmile_qr_scan", "ios": "https://dc.lft.to/lastmile_qr_scan"}, "type": "electric_scooter", "lon": -76.983733, "name": "a5338cb36122aa93c6004041166ca768", "bike_id": "a5338cb36122aa93c6004041166ca768", "fusion_lat": 0.0, "is_reserved": 0, "lat": 38.90641333333333, "fusion_lon": 0.0, "is_disabled": 0}, {"rental_uris": {"android": "https://dc.lft.to/lastmile_qr_scan", "ios": "https://dc.lft.to/lastmile_qr_scan"}, "type": "electric_bike", "lon": -77.02331683333334, "name": "aaca6b2ecdd3bd7f3aaf492ebc10ec65", "bike_id": "aaca6b2ecdd3bd7f3aaf492ebc10ec65", "fusion_lat": 0.0, "is_reserved": 0, "lat": 38.94439216666667, "fusion_lon": 0.0, "is_disabled": 0}, {"rental_uris": {"android": "https://dc.lft.to/lastmile_qr_scan", "ios": "https://dc.lft.to/lastmile_qr_scan"}, "type": "electric_scooter", "lon": -77.0277575, "name": "4687e90363426dd9a1c155ffd6b768ac", "bike_id": "4687e90363426dd9a1c155ffd6b768ac", "fusion_lat": 0.0, "is_reserved": 0, "lat": 38.89218733333333, "fusion_lon": 0.0, "is_disabled": 0}, {"rental_uris": {"android": "https://dc.lft.to/lastmile_qr_scan", "ios": "https://dc.lft.to/lastmile_qr_scan"}, "type": "electric_scooter", "lon": -76.94826366666666, "name": "3d1a62ac07a9ba975c2e57b329a94af5", "bike_id": "3d1a62ac07a9ba975c2e57b329a94af5", "fusion_lat": 0.0, "is_reserved": 0, "lat": 38.885116, "fusion_lon": 0.0, "is_disabled": 0}, {"rental_uris": {"android": "https://dc.lft.to/lastmile_qr_scan", "ios": "https://dc.lft.to/lastmile_qr_scan"}, "type": "electric_scooter", "lon": -77.04573583333334, "name": "4103ef124d915afd74634ebdbb17a93e", "bike_id": "4103ef124d915afd74634ebdbb17a93e", "fusion_lat": 0.0, "is_reserved": 0, "lat": 38.913936166666666, "fusion_lon": 0.0, "is_disabled": 0}, {"rental_uris": {"android": "https://dc.lft.to/lastmile_qr_scan", "ios": "https://dc.lft.to/lastmile_qr_scan"}, "type": "electric_scooter", "lon": -77.0384105, "name": "454fef591b31c7499edd662834c0b497", "bike_id": "454fef591b31c7499edd662834c0b497", "fusion_lat": 0.0, "is_reserved": 0, "lat": 38.91209633333333, "fusion_lon": 0.0, "is_disabled": 0}, {"rental_uris": {"android": "https://dc.lft.to/lastmile_qr_scan", "ios": "https://dc.lft.to/lastmile_qr_scan"}, "type": "electric_scooter", "lon": -77.0228675, "name": "70e3cbc976e5ced449676e7ef5743692", "bike_id": "70e3cbc976e5ced449676e7ef5743692", "fusion_lat": 0.0, "is_reserved": 0, "lat": 38.916556, "fusion_lon": 0.0, "is_disabled": 0}, {"rental_uris": {"android": "https://dc.lft.to/lastmile_qr_scan", "ios": "https://dc.lft.to/lastmile_qr_scan"}, "type": "electric_scooter", "lon": -77.0344865, "name": "c4c56cd83a887278a9bc5bc990afd5cf", "bike_id": "c4c56cd83a887278a9bc5bc990afd5cf", "fusion_lat": 0.0, "is_reserved": 0, "lat": 38.906772833333335, "fusion_lon": 0.0, "is_disabled": 0}, {"rental_uris": {"android": "https://dc.lft.to/lastmile_qr_scan", "ios": "https://dc.lft.to/lastmile_qr_scan"}, "type": "electric_scooter", "lon": -77.01953333333333, "name": "c0770529b2de0725a99c8855e9375a85", "bike_id": "c0770529b2de0725a99c8855e9375a85", "fusion_lat": 0.0, "is_reserved": 0, "lat": 38.92241533333333, "fusion_lon": 0.0, "is_disabled": 0}, {"rental_uris": {"android": "https://dc.lft.to/lastmile_qr_scan", "ios": "https://dc.lft.to/lastmile_qr_scan"}, "type": "electric_scooter", "lon": -77.0629225, "name": "426418f4c47a7190f6a367334c84a490", "bike_id": "426418f4c47a7190f6a367334c84a490", "fusion_lat": 0.0, "is_reserved": 0, "lat": 38.906118, "fusion_lon": 0.0, "is_disabled": 0}, {"rental_uris": {"android": "https://dc.lft.to/lastmile_qr_scan", "ios": "https://dc.lft.to/lastmile_qr_scan"}, "type": "electric_scooter", "lon": -77.04747083333334, "name": "3934e751ccc5e52600c651488c6279c2", "bike_id": "3934e751ccc5e52600c651488c6279c2", "fusion_lat": 0.0, "is_reserved": 0, "lat": 38.905233, "fusion_lon": 0.0, "is_disabled": 0}, {"rental_uris": {"android": "https://dc.lft.to/lastmile_qr_scan", "ios": "https://dc.lft.to/lastmile_qr_scan"}, "type": "electric_scooter", "lon": -76.99857716666666, "name": "dd824125907ef1b9b42805aa3a3d2259", "bike_id": "dd824125907ef1b9b42805aa3a3d2259", "fusion_lat": 0.0, "is_reserved": 0, "lat": 38.9000595, "fusion_lon": 0.0, "is_disabled": 0}, {"rental_uris": {"android": "https://dc.lft.to/lastmile_qr_scan", "ios": "https://dc.lft.to/lastmile_qr_scan"}, "type": "electric_scooter", "lon": -77.05439533333333, "name": "bb8154be1b4c0e41f97c8ebc9950ab30", "bike_id": "bb8154be1b4c0e41f97c8ebc9950ab30", "fusion_lat": 0.0, "is_reserved": 0, "lat": 38.89595083333333, "fusion_lon": 0.0, "is_disabled": 0}, {"rental_uris": {"android": "https://dc.lft.to/lastmile_qr_scan", "ios": "https://dc.lft.to/lastmile_qr_scan"}, "type": "electric_scooter", "lon": -76.986033, "name": "3f9294f4fdf7c186ea2125dcf94e92cd", "bike_id": "3f9294f4fdf7c186ea2125dcf94e92cd", "fusion_lat": 0.0, "is_reserved": 0, "lat": 38.90003516666667, "fusion_lon": 0.0, "is_disabled": 0}, {"rental_uris": {"android": "https://dc.lft.to/lastmile_qr_scan", "ios": "https://dc.lft.to/lastmile_qr_scan"}, "type": "electric_scooter", "lon": -77.03218366666667, "name": "1bc049ee87f2743465906851b9bcf5cd", "bike_id": "1bc049ee87f2743465906851b9bcf5cd", "fusion_lat": 0.0, "is_reserved": 0, "lat": 38.9158115, "fusion_lon": 0.0, "is_disabled": 0}, {"rental_uris": {"android": "https://dc.lft.to/lastmile_qr_scan", "ios": "https://dc.lft.to/lastmile_qr_scan"}, "type": "electric_scooter", "lon": -77.0027105, "name": "073c093d124debb81ef9bd17c9750d85", "bike_id": "073c093d124debb81ef9bd17c9750d85", "fusion_lat": 0.0, "is_reserved": 0, "lat": 38.90372283333333, "fusion_lon": 0.0, "is_disabled": 0}, {"rental_uris": {"android": "https://dc.lft.to/lastmile_qr_scan", "ios": "https://dc.lft.to/lastmile_qr_scan"}, "type": "electric_scooter", "lon": -77.02193216666667, "name": "2cf64120f81774b8c33aceca58831784", "bike_id": "2cf64120f81774b8c33aceca58831784", "fusion_lat": 0.0, "is_reserved": 0, "lat": 38.920108166666665, "fusion_lon": 0.0, "is_disabled": 0}, {"rental_uris": {"android": "https://dc.lft.to/lastmile_qr_scan", "ios": "https://dc.lft.to/lastmile_qr_scan"}, "type": "electric_scooter", "lon": -77.00543, "name": "c1a45937725b6934488e4110b1363145", "bike_id": "c1a45937725b6934488e4110b1363145", "fusion_lat": 0.0, "is_reserved": 0, "lat": 38.874551, "fusion_lon": 0.0, "is_disabled": 0}, {"rental_uris": {"android": "https://dc.lft.to/lastmile_qr_scan", "ios": "https://dc.lft.to/lastmile_qr_scan"}, "type": "electric_bike", "lon": -77.04539983333333, "name": "57bbb38274efb4db110a459dfb46a473", "bike_id": "57bbb38274efb4db110a459dfb46a473", "fusion_lat": 0.0, "is_reserved": 0, "lat": 38.88561083333333, "fusion_lon": 0.0, "is_disabled": 0}, {"rental_uris": {"android": "https://dc.lft.to/lastmile_qr_scan", "ios": "https://dc.lft.to/lastmile_qr_scan"}, "type": "electric_scooter", "lon": -77.023971, "name": "944f1d94a194fec051d9d529766639d5", "bike_id": "944f1d94a194fec051d9d529766639d5", "fusion_lat": 0.0, "is_reserved": 0, "lat": 38.91084166666667, "fusion_lon": 0.0, "is_disabled": 0}, {"rental_uris": {"android": "https://dc.lft.to/lastmile_qr_scan", "ios": "https://dc.lft.to/lastmile_qr_scan"}, "type": "electric_scooter", "lon": -77.04386283333334, "name": "62ac27fac0365e3fc78b121b44ef9b64", "bike_id": "62ac27fac0365e3fc78b121b44ef9b64", "fusion_lat": 0.0, "is_reserved": 0, "lat": 38.9206575, "fusion_lon": 0.0, "is_disabled": 0}, {"rental_uris": {"android": "https://dc.lft.to/lastmile_qr_scan", "ios": "https://dc.lft.to/lastmile_qr_scan"}, "type": "electric_scooter", "lon": -77.0436185, "name": "2bb5327b81c3e070e435c057fa33f62e", "bike_id": "2bb5327b81c3e070e435c057fa33f62e", "fusion_lat": 0.0, "is_reserved": 0, "lat": 38.8923485, "fusion_lon": 0.0, "is_disabled": 0}, {"rental_uris": {"android": "https://dc.lft.to/lastmile_qr_scan", "ios": "https://dc.lft.to/lastmile_qr_scan"}, "type": "electric_scooter", "lon": -76.97449866666666, "name": "04a9301b6c36e8872abb69165e96fb03", "bike_id": "04a9301b6c36e8872abb69165e96fb03", "fusion_lat": 0.0, "is_reserved": 0, "lat": 38.873880166666666, "fusion_lon": 0.0, "is_disabled": 0}, {"rental_uris": {"android": "https://dc.lft.to/lastmile_qr_scan", "ios": "https://dc.lft.to/lastmile_qr_scan"}, "type": "electric_scooter", "lon": -77.02813816666666, "name": "4ecd00ec72607be42b09f1c2a1620aac", "bike_id": "4ecd00ec72607be42b09f1c2a1620aac", "fusion_lat": 0.0, "is_reserved": 0, "lat": 38.89244983333333, "fusion_lon": 0.0, "is_disabled": 0}, {"rental_uris": {"android": "https://dc.lft.to/lastmile_qr_scan", "ios": "https://dc.lft.to/lastmile_qr_scan"}, "type": "electric_scooter", "lon": -77.01708416666666, "name": "50ecc99fb70bfdeafd858d4333417a56", "bike_id": "50ecc99fb70bfdeafd858d4333417a56", "fusion_lat": 0.0, "is_reserved": 0, "lat": 38.90491216666667, "fusion_lon": 0.0, "is_disabled": 0}, {"rental_uris": {"android": "https://dc.lft.to/lastmile_qr_scan", "ios": "https://dc.lft.to/lastmile_qr_scan"}, "type": "electric_scooter", "lon": -76.99976633333333, "name": "a3a7f0238531ff818c810780e6f067a7", "bike_id": "a3a7f0238531ff818c810780e6f067a7", "fusion_lat": 0.0, "is_reserved": 0, "lat": 38.90016216666667, "fusion_lon": 0.0, "is_disabled": 0}, {"rental_uris": {"android": "https://dc.lft.to/lastmile_qr_scan", "ios": "https://dc.lft.to/lastmile_qr_scan"}, "type": "electric_scooter", "lon": -77.022652, "name": "a0ccf5c0eb7e2ab0fdfe5d2b80bf1b46", "bike_id": "a0ccf5c0eb7e2ab0fdfe5d2b80bf1b46", "fusion_lat": 0.0, "is_reserved": 0, "lat": 38.94712466666667, "fusion_lon": 0.0, "is_disabled": 0}, {"rental_uris": {"android": "https://dc.lft.to/lastmile_qr_scan", "ios": "https://dc.lft.to/lastmile_qr_scan"}, "type": "electric_scooter", "lon": -77.060794, "name": "13f9a81d3a4a288d82070b2c84289135", "bike_id": "13f9a81d3a4a288d82070b2c84289135", "fusion_lat": 0.0, "is_reserved": 0, "lat": 38.90515033333333, "fusion_lon": 0.0, "is_disabled": 0}, {"rental_uris": {"android": "https://dc.lft.to/lastmile_qr_scan", "ios": "https://dc.lft.to/lastmile_qr_scan"}, "type": "electric_scooter", "lon": -76.99513933333333, "name": "734a031f5d753dbd07588e5b4fa5cdb9", "bike_id": "734a031f5d753dbd07588e5b4fa5cdb9", "fusion_lat": 0.0, "is_reserved": 0, "lat": 38.89544766666667, "fusion_lon": 0.0, "is_disabled": 0}, {"rental_uris": {"android": "https://dc.lft.to/lastmile_qr_scan", "ios": "https://dc.lft.to/lastmile_qr_scan"}, "type": "electric_scooter", "lon": -76.98847216666667, "name": "23046ef8d86dd9e311c0662a1586e74f", "bike_id": "23046ef8d86dd9e311c0662a1586e74f", "fusion_lat": 0.0, "is_reserved": 0, "lat": 38.9019685, "fusion_lon": 0.0, "is_disabled": 0}, {"rental_uris": {"android": "https://dc.lft.to/lastmile_qr_scan", "ios": "https://dc.lft.to/lastmile_qr_scan"}, "type": "electric_scooter", "lon": -77.0220475, "name": "4a9422457f0e6807622dfbc8ba6cac7a", "bike_id": "4a9422457f0e6807622dfbc8ba6cac7a", "fusion_lat": 0.0, "is_reserved": 0, "lat": 38.90544833333333, "fusion_lon": 0.0, "is_disabled": 0}, {"rental_uris": {"android": "https://dc.lft.to/lastmile_qr_scan", "ios": "https://dc.lft.to/lastmile_qr_scan"}, "type": "electric_scooter", "lon": -77.03916666666667, "name": "246d2a0044143faa86805236a1a22613", "bike_id": "246d2a0044143faa86805236a1a22613", "fusion_lat": 0.0, "is_reserved": 0, "lat": 38.923035166666665, "fusion_lon": 0.0, "is_disabled": 0}, {"rental_uris": {"android": "https://dc.lft.to/lastmile_qr_scan", "ios": "https://dc.lft.to/lastmile_qr_scan"}, "type": "electric_scooter", "lon": -77.02701583333334, "name": "0098dc34a39d65882567816121509a8b", "bike_id": "0098dc34a39d65882567816121509a8b", "fusion_lat": 0.0, "is_reserved": 0, "lat": 38.90839916666667, "fusion_lon": 0.0, "is_disabled": 0}, {"rental_uris": {"android": "https://dc.lft.to/lastmile_qr_scan", "ios": "https://dc.lft.to/lastmile_qr_scan"},