{"data": {"bikes": [{"is_disabled": 0, "rental_uris": {"android": "https://dc.lft.to/lastmile_qr_scan", "ios": "https://dc.lft.to/lastmile_qr_scan"}, "is_reserved": 0, "name": "6a6e560335f4400a608e3f16c0f190f4", "lon": -77.14778433333333, "type": "electric_bike", "bike_id": "6a6e560335f4400a608e3f16c0f190f4", "fusion_lon": 0.0, "lat": 39.095934, "fusion_lat": 0.0}, {"is_disabled": 0, "rental_uris": {"android": "https://dc.lft.to/lastmile_qr_scan", "ios": "https://dc.lft.to/lastmile_qr_scan"}, "is_reserved": 0, "name": "694abbb51e725484bcc0faca444b8fbb", "lon": -76.99681333333334, "type": "electric_scooter", "bike_id": "694abbb51e725484bcc0faca444b8fbb", "fusion_lon": 0.0, "lat": 38.860476, "fusion_lat": 0.0}, {"is_disabled": 0, "rental_uris": {"android": "https://dc.lft.to/lastmile_qr_scan", "ios": "https://dc.lft.to/lastmile_qr_scan"}, "is_reserved": 0, "name": "e1a162e011f4998ddfdd58a315c24f59", "lon": -77.00253983333333, "type": "electric_scooter", "bike_id": "e1a162e011f4998ddfdd58a315c24f59", "fusion_lon": 0.0, "lat": 38.91185766666667, "fusion_lat": 0.0}, {"is_disabled": 0, "rental_uris": {"android": "https://dc.lft.to/lastmile_qr_scan", "ios": "https://dc.lft.to/lastmile_qr_scan"}, "is_reserved": 0, "name": "5eea3a45c1f084d6cfcd8991a1f9a23d", "lon": -77.09578616666667, "type": "electric_bike", "bike_id": "5eea3a45c1f084d6cfcd8991a1f9a23d", "fusion_lon": 0.0, "lat": 38.83790916666667, "fusion_lat": 0.0}, {"is_disabled": 0, "rental_uris": {"android": "https://dc.lft.to/lastmile_qr_scan", "ios": "https://dc.lft.to/lastmile_qr_scan"}, "is_reserved": 0, "name": "8334aa629ee28a551f3c9ce00bef9c8e", "lon": -77.03611983333333, "type": "electric_scooter", "bike_id": "8334aa629ee28a551f3c9ce00bef9c8e", "fusion_lon": 0.0, "lat": 38.93150633333333, "fusion_lat": 0.0}, {"is_disabled": 0, "rental_uris": {"android": "https://dc.lft.to/lastmile_qr_scan", "ios": "https://dc.lft.to/lastmile_qr_scan"}, "is_reserved": 0, "name": "433ce36a5c783aa63d2b0eba054be2d2", "lon": -77.04790283333334, "type": "electric_bike", "bike_id": "433ce36a5c783aa63d2b0eba054be2d2", "fusion_lon": 0.0, "lat": 38.91939883333333, "fusion_lat": 0.0}, {"is_disabled": 0, "rental_uris": {"android": "https://dc.lft.to/lastmile_qr_scan", "ios": "https://dc.lft.to/lastmile_qr_scan"}, "is_reserved": 0, "name": "f60c5b09cc2e319f1b29c7d43d269764", "lon": -76.948845, "type": "electric_scooter", "bike_id": "f60c5b09cc2e319f1b29c7d43d269764", "fusion_lon": 0.0, "lat": 38.89509966666667, "fusion_lat": 0.0}, {"is_disabled": 0, "rental_uris": {"android": "https://dc.lft.to/lastmile_qr_scan", "ios": "https://dc.lft.to/lastmile_qr_scan"}, "is_reserved": 0, "name": "b42d9e0bc45fe6949cf92f25db942b79", "lon": -77.0012345, "type": "electric_bike", "bike_id": "b42d9e0bc45fe6949cf92f25db942b79", "fusion_lon": 0.0, "lat": 38.9993315, "fusion_lat": 0.0}, {"is_disabled": 0, "rental_uris": {"android": "https://dc.lft.to/lastmile_qr_scan", "ios": "https://dc.lft.to/lastmile_qr_scan"}, "is_reserved": 0, "name": "6f4260330190fc12b5339bb6033f5a99", "lon": -76.94702316666667, "type": "electric_scooter", "bike_id": "6f4260330190fc12b5339bb6033f5a99", "fusion_lon": 0.0, "lat": 38.897272, "fusion_lat": 0.0}, {"is_disabled": 0, "rental_uris": {"android": "https://dc.lft.to/lastmile_qr_scan", "ios": "https://dc.lft.to/lastmile_qr_scan"}, "is_reserved": 0, "name": "f81c24a2d059a8cfc39393c9e6218e05", "lon": -77.01854533333334, "type": "electric_scooter", "bike_id": "f81c24a2d059a8cfc39393c9e6218e05", "fusion_lon": 0.0, "lat": 38.90409416666667, "fusion_lat": 0.0}, {"is_disabled": 0, "rental_uris": {"android": "https://dc.lft.to/lastmile_qr_scan", "ios": "https://dc.lft.to/lastmile_qr_scan"}, "is_reserved": 0, "name": "4be44f0aa84fffbc33075e3549cdee98", "lon": -76.992268, "type": "electric_scooter", "bike_id": "4be44f0aa84fffbc33075e3549cdee98", "fusion_lon": 0.0, "lat": 38.89886033333333, "fusion_lat": 0.0}, {"is_disabled": 0, "rental_uris": {"android": "https://dc.lft.to/lastmile_qr_scan", "ios": "https://dc.lft.to/lastmile_qr_scan"}, "is_reserved": 0, "name": "1165c9e75fdd095b2344c928251faa5c", "lon": -77.02571516666667, "type": "electric_scooter", "bike_id": "1165c9e75fdd095b2344c928251faa5c", "fusion_lon": 0.0, "lat": 38.899524, "fusion_lat": 0.0}, {"is_disabled": 0, "rental_uris": {"android": "https://dc.lft.to/lastmile_qr_scan", "ios": "https://dc.lft.to/lastmile_qr_scan"}, "is_reserved": 0, "name": "d48c1b5f0e7bd39270e30bb31d37965b", "lon": -77.03061816666667, "type": "electric_scooter", "bike_id": "d48c1b5f0e7bd39270e30bb31d37965b", "fusion_lon": 0.0, "lat": 38.956303166666665, "fusion_lat": 0.0}, {"is_disabled": 0, "rental_uris": {"android": "https://dc.lft.to/lastmile_qr_scan", "ios": "https://dc.lft.to/lastmile_qr_scan"}, "is_reserved": 0, "name": "3405a6b0d06841baf18390cbda87429f", "lon": -77.04123783333333, "type": "electric_scooter", "bike_id": "3405a6b0d06841baf18390cbda87429f", "fusion_lon": 0.0, "lat": 38.91708, "fusion_lat": 0.0}, {"is_disabled": 0, "rental_uris": {"android": "https://dc.lft.to/lastmile_qr_scan", "ios": "https://dc.lft.to/lastmile_qr_scan"}, "is_reserved": 0, "name": "3c01348452441079fba4a0b6289d67f0", "lon": -77.0285025, "type": "electric_bike", "bike_id": "3c01348452441079fba4a0b6289d67f0", "fusion_lon": 0.0, "lat": 38.913611333333336, "fusion_lat": 0.0}, {"is_disabled": 0, "rental_uris": {"android": "https://dc.lft.to/lastmile_qr_scan", "ios": "https://dc.lft.to/lastmile_qr_scan"}, "is_reserved": 0, "name": "e515e9652e56451f20c4ffbb3d26461d", "lon": -77.026106, "type": "electric_scooter", "bike_id": "e515e9652e56451f20c4ffbb3d26461d", "fusion_lon": 0.0, "lat": 38.9244155, "fusion_lat": 0.0}, {"is_disabled": 0, "rental_uris": {"android": "https://dc.lft.to/lastmile_qr_scan", "ios": "https://dc.lft.to/lastmile_qr_scan"}, "is_reserved": 0, "name": "7bd75a8dd9b625d74b75013ad85eaf61", "lon": -77.031476, "type": "electric_scooter", "bike_id": "7bd75a8dd9b625d74b75013ad85eaf61", "fusion_lon": 0.0, "lat": 38.90128266666667, "fusion_lat": 0.0}, {"is_disabled": 0, "rental_uris": {"android": "https://dc.lft.to/lastmile_qr_scan", "ios": "https://dc.lft.to/lastmile_qr_scan"}, "is_reserved": 0, "name": "e16047bdefbd9d99af3ca04189179ef4", "lon": -77.05118816666666, "type": "electric_scooter", "bike_id": "e16047bdefbd9d99af3ca04189179ef4", "fusion_lon": 0.0, "lat": 38.901299333333334, "fusion_lat": 0.0}, {"is_disabled": 0, "rental_uris": {"android": "https://dc.lft.to/lastmile_qr_scan", "ios": "https://dc.lft.to/lastmile_qr_scan"}, "is_reserved": 0, "name": "2288f21e8c59a69e9ed4247c9c3d2762", "lon": -77.02372, "type": "electric_scooter", "bike_id": "2288f21e8c59a69e9ed4247c9c3d2762", "fusion_lon": 0.0, "lat": 38.902157, "fusion_lat": 0.0}, {"is_disabled": 0, "rental_uris": {"android": "https://dc.lft.to/lastmile_qr_scan", "ios": "https://dc.lft.to/lastmile_qr_scan"}, "is_reserved": 0, "name": "8aae4031e5c44166fc345c8302461279", "lon": -77.05132383333333, "type": "electric_scooter", "bike_id": "8aae4031e5c44166fc345c8302461279", "fusion_lon": 0.0, "lat": 38.902165333333336, "fusion_lat": 0.0}, {"is_disabled": 0, "rental_uris": {"android": "https://dc.lft.to/lastmile_qr_scan", "ios": "https://dc.lft.to/lastmile_qr_scan"}, "is_reserved": 0, "name": "3c158754553bbce860e4dba5d5271fec", "lon": -77.007826, "type": "electric_scooter", "bike_id": "3c158754553bbce860e4dba5d5271fec", "fusion_lon": 0.0, "lat": 38.90766633333333, "fusion_lat": 0.0}, {"is_disabled": 0, "rental_uris": {"android": "https://dc.lft.to/lastmile_qr_scan", "ios": "https://dc.lft.to/lastmile_qr_scan"}, "is_reserved": 0, "name": "ec180bb06c75f79cf039269be02975e0", "lon": -77.0476945, "type": "electric_scooter", "bike_id": "ec180bb06c75f79cf039269be02975e0", "fusion_lon": 0.0, "lat": 38.91772266666667, "fusion_lat": 0.0}, {"is_disabled": 0, "rental_uris": {"android": "https://dc.lft.to/lastmile_qr_scan", "ios": "https://dc.lft.to/lastmile_qr_scan"}, "is_reserved": 0, "name": "4753676a467f65dcfab2f04ad8d9846c", "lon": -77.02160316666667, "type": "electric_scooter", "bike_id": "4753676a467f65dcfab2f04ad8d9846c", "fusion_lon": 0.0, "lat": 38.87918483333333, "fusion_lat": 0.0}, {"is_disabled": 0, "rental_uris": {"android": "https://dc.lft.to/lastmile_qr_scan", "ios": "https://dc.lft.to/lastmile_qr_scan"}, "is_reserved": 0, "name": "a4eb58e10392c3ecb43cd01248865515", "lon": -77.02761016666666, "type": "electric_scooter", "bike_id": "a4eb58e10392c3ecb43cd01248865515", "fusion_lon": 0.0, "lat": 38.96729966666667, "fusion_lat": 0.0}, {"is_disabled": 0, "rental_uris": {"android": "https://dc.lft.to/lastmile_qr_scan", "ios": "https://dc.lft.to/lastmile_qr_scan"}, "is_reserved": 0, "name": "64bf213110741c385477dc4c3bb431b4", "lon": -77.033847, "type": "electric_scooter", "bike_id": "64bf213110741c385477dc4c3bb431b4", "fusion_lon": 0.0, "lat": 38.9216145, "fusion_lat": 0.0}, {"is_disabled": 0, "rental_uris": {"android": "https://dc.lft.to/lastmile_qr_scan", "ios": "https://dc.lft.to/lastmile_qr_scan"}, "is_reserved": 0, "name": "76bce05a98dfdbc22760081e893ec590", "lon": -77.01892383333333, "type": "electric_scooter", "bike_id": "76bce05a98dfdbc22760081e893ec590", "fusion_lon": 0.0, "lat": 38.92955333333333, "fusion_lat": 0.0}, {"is_disabled": 0, "rental_uris": {"android": "https://dc.lft.to/lastmile_qr_scan", "ios": "https://dc.lft.to/lastmile_qr_scan"}, "is_reserved": 0, "name": "95246de6f0125d6edfa060aebbab7b83", "lon": -77.0236665, "type": "electric_scooter", "bike_id": "95246de6f0125d6edfa060aebbab7b83", "fusion_lon": 0.0, "lat": 38.919094666666666, "fusion_lat": 0.0}, {"is_disabled": 0, "rental_uris": {"android": "https://dc.lft.to/lastmile_qr_scan", "ios": "https://dc.lft.to/lastmile_qr_scan"}, "is_reserved": 0, "name": "1fb7f048469ca2c9e26c0bed25bb2c98", "lon": -77.021246, "type": "electric_bike", "bike_id": "1fb7f048469ca2c9e26c0bed25bb2c98", "fusion_lon": 0.0, "lat": 38.93580466666667, "fusion_lat": 0.0}, {"is_disabled": 0, "rental_uris": {"android": "https://dc.lft.to/lastmile_qr_scan", "ios": "https://dc.lft.to/lastmile_qr_scan"}, "is_reserved": 0, "name": "8c53fd4c7cbc279d4fd71fd9feeaecf6", "lon": -77.00876083333333, "type": "electric_scooter", "bike_id": "8c53fd4c7cbc279d4fd71fd9feeaecf6", "fusion_lon": 0.0, "lat": 38.90571533333333, "fusion_lat": 0.0}, {"is_disabled": 0, "rental_uris": {"android": "https://dc.lft.to/lastmile_qr_scan", "ios": "https://dc.lft.to/lastmile_qr_scan"}, "is_reserved": 0, "name": "afdc4f95569ef0d14467dd586ba7ad21", "lon": -77.00085116666666, "type": "electric_bike", "bike_id": "afdc4f95569ef0d14467dd586ba7ad21", "fusion_lon": 0.0, "lat": 38.8859455, "fusion_lat": 0.0}, {"is_disabled": 0, "rental_uris": {"android": "https://dc.lft.to/lastmile_qr_scan", "ios": "https://dc.lft.to/lastmile_qr_scan"}, "is_reserved": 0, "name": "39186826c037739615a9def4064c7394", "lon": -77.04325333333334, "type": "electric_scooter", "bike_id": "39186826c037739615a9def4064c7394", "fusion_lon": 0.0, "lat": 38.9233185, "fusion_lat": 0.0}, {"is_disabled": 0, "rental_uris": {"android": "https://dc.lft.to/lastmile_qr_scan", "ios": "https://dc.lft.to/lastmile_qr_scan"}, "is_reserved": 0, "name": "cea5e3cd01862f7f2bffcd1f8bfec9a2", "lon": -77.03245383333334, "type": "electric_scooter", "bike_id": "cea5e3cd01862f7f2bffcd1f8bfec9a2", "fusion_lon": 0.0, "lat": 38.921004, "fusion_lat": 0.0}, {"is_disabled": 0, "rental_uris": {"android": "https://dc.lft.to/lastmile_qr_scan", "ios": "https://dc.lft.to/lastmile_qr_scan"}, "is_reserved": 0, "name": "c3bb91f8368c1c8edfe459a0caf490a5", "lon": -77.01225333333333, "type": "electric_scooter", "bike_id": "c3bb91f8368c1c8edfe459a0caf490a5", "fusion_lon": 0.0, "lat": 38.90717883333333, "fusion_lat": 0.0}, {"is_disabled": 0, "rental_uris": {"android": "https://dc.lft.to/lastmile_qr_scan", "ios": "https://dc.lft.to/lastmile_qr_scan"}, "is_reserved": 0, "name": "73fe5db7c2e637f55c2b32879ba23f9c", "lon": -77.03449166666667, "type": "electric_scooter", "bike_id": "73fe5db7c2e637f55c2b32879ba23f9c", "fusion_lon": 0.0, "lat": 38.908963, "fusion_lat": 0.0}, {"is_disabled": 0, "rental_uris": {"android": "https://dc.lft.to/lastmile_qr_scan", "ios": "https://dc.lft.to/lastmile_qr_scan"}, "is_reserved": 0, "name": "3764c7ccc67d1a16a7393579b7235a70", "lon": -76.97910066666667, "type": "electric_scooter", "bike_id": "3764c7ccc67d1a16a7393579b7235a70", "fusion_lon": 0.0, "lat": 38.90433483333333, "fusion_lat": 0.0}, {"is_disabled": 0, "rental_uris": {"android": "https://dc.lft.to/lastmile_qr_scan", "ios": "https://dc.lft.to/lastmile_qr_scan"}, "is_reserved": 0, "name": "e1ac5375675d4f99efa3d5445647d608", "lon": -77.03903766666667, "type": "electric_scooter", "bike_id": "e1ac5375675d4f99efa3d5445647d608", "fusion_lon": 0.0, "lat": 38.914251666666665, "fusion_lat": 0.0}, {"is_disabled": 0, "rental_uris": {"android": "https://dc.lft.to/lastmile_qr_scan", "ios": "https://dc.lft.to/lastmile_qr_scan"}, "is_reserved": 0, "name": "4f76e52798b5fe9e100ecfd439d933e8", "lon": -76.98076866666666, "type": "electric_scooter", "bike_id": "4f76e52798b5fe9e100ecfd439d933e8", "fusion_lon": 0.0, "lat": 38.919347333333334, "fusion_lat": 0.0}, {"is_disabled": 0, "rental_uris": {"android": "https://dc.lft.to/lastmile_qr_scan", "ios": "https://dc.lft.to/lastmile_qr_scan"}, "is_reserved": 0, "name": "7bbe3e91b4631e1ed134a7f9d308154d", "lon": -76.93199433333334, "type": "electric_bike", "bike_id": "7bbe3e91b4631e1ed134a7f9d308154d", "fusion_lon": 0.0, "lat": 38.8723725, "fusion_lat": 0.0}, {"is_disabled": 0, "rental_uris": {"android": "https://dc.lft.to/lastmile_qr_scan", "ios": "https://dc.lft.to/lastmile_qr_scan"}, "is_reserved": 0, "name": "43f41e8fc1db0fdaaa0ed08c1fb8202c", "lon": -77.00817083333334, "type": "electric_scooter", "bike_id": "43f41e8fc1db0fdaaa0ed08c1fb8202c", "fusion_lon": 0.0, "lat": 38.88331516666667, "fusion_lat": 0.0}, {"is_disabled": 0, "rental_uris": {"android": "https://dc.lft.to/lastmile_qr_scan", "ios": "https://dc.lft.to/lastmile_qr_scan"}, "is_reserved": 0, "name": "b6462eecc5184d601bdec72ad3a929d9", "lon": -77.00592416666667, "type": "electric_scooter", "bike_id": "b6462eecc5184d601bdec72ad3a929d9", "fusion_lon": 0.0, "lat": 38.92756283333333, "fusion_lat": 0.0}, {"is_disabled": 0, "rental_uris": {"android": "https://dc.lft.to/lastmile_qr_scan", "ios": "https://dc.lft.to/lastmile_qr_scan"}, "is_reserved": 0, "name": "078ade0e365f7329020ade628e30d181", "lon": -76.99696916666667, "type": "electric_scooter", "bike_id": "078ade0e365f7329020ade628e30d181", "fusion_lon": 0.0, "lat": 38.83868283333334, "fusion_lat": 0.0}, {"is_disabled": 0, "rental_uris": {"android": "https://dc.lft.to/lastmile_qr_scan", "ios": "https://dc.lft.to/lastmile_qr_scan"}, "is_reserved": 0, "name": "c9e4b1cc1f04f7bba4363073626e8500", "lon": -77.01848933333333, "type": "electric_scooter", "bike_id": "c9e4b1cc1f04f7bba4363073626e8500", "fusion_lon": 0.0, "lat": 38.954314833333335, "fusion_lat": 0.0}, {"is_disabled": 0, "rental_uris": {"android": "https://dc.lft.to/lastmile_qr_scan", "ios": "https://dc.lft.to/lastmile_qr_scan"}, "is_reserved": 0, "name": "694f590e1795ebf4e754f8e1182cb54c", "lon": -77.0019795, "type": "electric_scooter", "bike_id": "694f590e1795ebf4e754f8e1182cb54c", "fusion_lon": 0.0, "lat": 38.90243566666667, "fusion_lat": 0.0}, {"is_disabled": 0, "rental_uris": {"android": "https://dc.lft.to/lastmile_qr_scan", "ios": "https://dc.lft.to/lastmile_qr_scan"}, "is_reserved": 0, "name": "d2a5aa634d68b26205100ab197d61c01", "lon": -77.03094266666666, "type": "electric_scooter", "bike_id": "d2a5aa634d68b26205100ab197d61c01", "fusion_lon": 0.0, "lat": 38.928632, "fusion_lat": 0.0}, {"is_disabled": 0, "rental_uris": {"android": "https://dc.lft.to/lastmile_qr_scan", "ios": "https://dc.lft.to/lastmile_qr_scan"}, "is_reserved": 0, "name": "b817a5a853b0e7b57b9017e0e70ce6c1", "lon": -77.005513, "type": "electric_scooter", "bike_id": "b817a5a853b0e7b57b9017e0e70ce6c1", "fusion_lon": 0.0, "lat": 38.877061166666664, "fusion_lat": 0.0}, {"is_disabled": 0, "rental_uris": {"android": "https://dc.lft.to/lastmile_qr_scan", "ios": "https://dc.lft.to/lastmile_qr_scan"}, "is_reserved": 0, "name": "3446c5f08c85766a86c729e6175a8ba6", "lon": -77.04820383333333, "type": "electric_scooter", "bike_id": "3446c5f08c85766a86c729e6175a8ba6", "fusion_lon": 0.0, "lat": 38.90463966666667, "fusion_lat": 0.0}, {"is_disabled": 0, "rental_uris": {"android": "https://dc.lft.to/lastmile_qr_scan", "ios": "https://dc.lft.to/lastmile_qr_scan"}, "is_reserved": 0, "name": "4c55bd080d8802a86672ab1dc79e8354", "lon": -77.0318725, "type": "electric_scooter", "bike_id": "4c55bd080d8802a86672ab1dc79e8354", "fusion_lon": 0.0, "lat": 38.91013233333334, "fusion_lat": 0.0}, {"is_disabled": 0, "rental_uris": {"android": "https://dc.lft.to/lastmile_qr_scan", "ios": "https://dc.lft.to/lastmile_qr_scan"}, "is_reserved": 0, "name": "cddb85ce434ed432dbfedec5f9ea6d47", "lon": -77.00064516666667, "type": "electric_scooter", "bike_id": "cddb85ce434ed432dbfedec5f9ea6d47", "fusion_lon": 0.0, "lat": 38.9005115, "fusion_lat": 0.0}, {"is_disabled": 0, "rental_uris": {"android": "https://dc.lft.to/lastmile_qr_scan", "ios": "https://dc.lft.to/lastmile_qr_scan"}, "is_reserved": 0, "name": "35252c6c4df5b5484e35feb26474e3be", "lon": -77.034468, "type": "electric_scooter", "bike_id": "35252c6c4df5b5484e35feb26474e3be", "fusion_lon": 0.0, "lat": 38.925431833333334, "fusion_lat": 0.0}, {"is_disabled": 0, "rental_uris": {"android": "https://dc.lft.to/lastmile_qr_scan", "ios": "https://dc.lft.to/lastmile_qr_scan"}, "is_reserved": 0, "name": "5395221bb8f5d1ae766b6aeee0baa9d4", "lon": -77.0548005, "type": "electric_scooter", "bike_id": "5395221bb8f5d1ae766b6aeee0baa9d4", "fusion_lon": 0.0, "lat": 38.90443466666667, "fusion_lat": 0.0}, {"is_disabled": 0, "rental_uris": {"android": "https://dc.lft.to/lastmile_qr_scan", "ios": "https://dc.lft.to/lastmile_qr_scan"}, "is_reserved": 0, "name": "bb4dfb68a6b7a2080f7f4c58d9f2f91f", "lon": -77.01876666666666, "type": "electric_scooter", "bike_id": "bb4dfb68a6b7a2080f7f4c58d9f2f91f", "fusion_lon": 0.0, "lat": 38.90028366666667, "fusion_lat": 0.0}, {"is_disabled": 0, "rental_uris": {"android": "https://dc.lft.to/lastmile_qr_scan", "ios": "https://dc.lft.to/lastmile_qr_scan"}, "is_reserved": 0, "name": "2538fa1fc50d666c3c4c53cb77adbe01", "lon": -77.02494383333334, "type": "electric_bike", "bike_id": "2538fa1fc50d666c3c4c53cb77adbe01", "fusion_lon": 0.0, "lat": 38.97404133333333, "fusion_lat": 0.0}, {"is_disabled": 0, "rental_uris": {"android": "https://dc.lft.to/lastmile_qr_scan", "ios": "https://dc.lft.to/lastmile_qr_scan"}, "is_reserved": 0, "name": "c172395cb111083f5623708b45312d9a", "lon": -77.02225666666666, "type": "electric_scooter", "bike_id": "c172395cb111083f5623708b45312d9a", "fusion_lon": 0.0, "lat": 38.89220866666667, "fusion_lat": 0.0}, {"is_disabled": 0, "rental_uris": {"android": "https://dc.lft.to/lastmile_qr_scan", "ios": "https://dc.lft.to/lastmile_qr_scan"}, "is_reserved": 0, "name": "afd886d4021c7b2191fea84ec8633f6c", "lon": -76.935245, "type": "electric_scooter", "bike_id": "afd886d4021c7b2191fea84ec8633f6c", "fusion_lon": 0.0, "lat": 38.8789925, "fusion_lat": 0.0}, {"is_disabled": 0, "rental_uris": {"android": "https://dc.lft.to/lastmile_qr_scan", "ios": "https://dc.lft.to/lastmile_qr_scan"}, "is_reserved": 0, "name": "71a1ba88389353743839f7cd74635c1c", "lon": -77.0379285, "type": "electric_bike", "bike_id": "71a1ba88389353743839f7cd74635c1c", "fusion_lon": 0.0, "lat": 38.996851666666664, "fusion_lat": 0.0}, {"is_disabled": 0, "rental_uris": {"android": "https://dc.lft.to/lastmile_qr_scan", "ios": "https://dc.lft.to/lastmile_qr_scan"}, "is_reserved": 0, "name": "c21178dfdce7455ecab6b2064495ac70", "lon": -77.0388155, "type": "electric_scooter", "bike_id": "c21178dfdce7455ecab6b2064495ac70", "fusion_lon": 0.0, "lat": 38.915601833333334, "fusion_lat": 0.0}, {"is_disabled": 0, "rental_uris": {"android": "https://dc.lft.to/lastmile_qr_scan", "ios": "https://dc.lft.to/lastmile_qr_scan"}, "is_reserved": 0, "name": "78e6ba4cb89d4d5c09e768e68013f57f", "lon": -76.93352733333333, "type": "electric_scooter", "bike_id": "78e6ba4cb89d4d5c09e768e68013f57f", "fusion_lon": 0.0, "lat": 38.90193933333333, "fusion_lat": 0.0}, {"is_disabled": 0, "rental_uris": {"android": "https://dc.lft.to/lastmile_qr_scan", "ios": "https://dc.lft.to/lastmile_qr_scan"}, "is_reserved": 0, "name": "cfe9ababe7481d560dbdc2c7b4ba4696", "lon": -77.0983365, "type": "electric_bike", "bike_id": "cfe9ababe7481d560dbdc2c7b4ba4696", "fusion_lon": 0.0, "lat": 38.8578895, "fusion_lat": 0.0}, {"is_disabled": 0, "rental_uris": {"android": "https://dc.lft.to/lastmile_qr_scan", "ios": "https://dc.lft.to/lastmile_qr_scan"}, "is_reserved": 0, "name": "d59ee44fa14623968e286769f7e4aa80", "lon": -76.99078633333333, "type": "electric_scooter", "bike_id": "d59ee44fa14623968e286769f7e4aa80", "fusion_lon": 0.0, "lat": 38.904186333333335, "fusion_lat": 0.0}, {"is_disabled": 0, "rental_uris": {"android": "https://dc.lft.to/lastmile_qr_scan", "ios": "https://dc.lft.to/lastmile_qr_scan"}, "is_reserved": 0, "name": "92e03e8db41e49d7d05ccb86e1971653", "lon": -77.061122, "type": "electric_scooter", "bike_id": "92e03e8db41e49d7d05ccb86e1971653", "fusion_lon": 0.0, "lat": 38.943629333333334, "fusion_lat": 0.0}, {"is_disabled": 0, "rental_uris": {"android": "https://dc.lft.to/lastmile_qr_scan", "ios": "https://dc.lft.to/lastmile_qr_scan"}, "is_reserved": 0, "name": "a06836ec7c3935029313fd38f7573e39", "lon": -77.034433, "type": "electric_scooter", "bike_id": "a06836ec7c3935029313fd38f7573e39", "fusion_lon": 0.0, "lat": 38.934341, "fusion_lat": 0.0}, {"is_disabled": 0, "rental_uris": {"android": "https://dc.lft.to/lastmile_qr_scan", "ios": "https://dc.lft.to/lastmile_qr_scan"}, "is_reserved": 0, "name": "a6df1ee4617bdddd01e183b039bc6945", "lon": -77.017785, "type": "electric_scooter", "bike_id": "a6df1ee4617bdddd01e183b039bc6945", "fusion_lon": 0.0, "lat": 38.91912033333333, "fusion_lat": 0.0}, {"is_disabled": 0, "rental_uris": {"android": "https://dc.lft.to/lastmile_qr_scan", "ios": "https://dc.lft.to/lastmile_qr_scan"}, "is_reserved": 0, "name": "e7a679eaf91cbb4b6bf598d416340cf0", "lon": -77.033508, "type": "electric_scooter", "bike_id": "e7a679eaf91cbb4b6bf598d416340cf0", "fusion_lon": 0.0, "lat": 38.93789533333333, "fusion_lat": 0.0}, {"is_disabled": 0, "rental_uris": {"android": "https://dc.lft.to/lastmile_qr_scan", "ios": "https://dc.lft.to/lastmile_qr_scan"}, "is_reserved": 0, "name": "1df3bfd01e92b15ecca3e4fc48bde65c", "lon": -76.99881983333333, "type": "electric_scooter", "bike_id": "1df3bfd01e92b15ecca3e4fc48bde65c", "fusion_lon": 0.0, "lat": 38.889723333333336, "fusion_lat": 0.0}, {"is_disabled": 0, "rental_uris": {"android": "https://dc.lft.to/lastmile_qr_scan", "ios": "https://dc.lft.to/lastmile_qr_scan"}, "is_reserved": 0, "name": "1a2cf5da5d75ca645b03909ba722c846", "lon": -77.04697966666667, "type": "electric_scooter", "bike_id": "1a2cf5da5d75ca645b03909ba722c846", "fusion_lon": 0.0, "lat": 38.915738833333336, "fusion_lat": 0.0}, {"is_disabled": 0, "rental_uris": {"android": "https://dc.lft.to/lastmile_qr_scan", "ios": "https://dc.lft.to/lastmile_qr_scan"}, "is_reserved": 0, "name": "5ca199ac66a202fd02b7d80c6c01c793", "lon": -77.05530466666667, "type": "electric_scooter", "bike_id": "5ca199ac66a202fd02b7d80c6c01c793", "fusion_lon": 0.0, "lat": 38.921588666666665, "fusion_lat": 0.0}, {"is_disabled": 0, "rental_uris": {"android": "https://dc.lft.to/lastmile_qr_scan", "ios": "https://dc.lft.to/lastmile_qr_scan"}, "is_reserved": 0, "name": "aaf2501881caf2de328c57b746686d71", "lon": -77.041698, "type": "electric_scooter", "bike_id": "aaf2501881caf2de328c57b746686d71", "fusion_lon": 0.0, "lat": 38.91269, "fusion_lat": 0.0}, {"is_disabled": 0, "rental_uris": {"android": "https://dc.lft.to/lastmile_qr_scan", "ios": "https://dc.lft.to/lastmile_qr_scan"}, "is_reserved": 0, "name": "4a65030b0b789bd845da315f02fc0299", "lon": -77.0466865, "type": "electric_scooter", "bike_id": "4a65030b0b789bd845da315f02fc0299", "fusion_lon": 0.0, "lat": 38.9073945, "fusion_lat": 0.0}, {"is_disabled": 0, "rental_uris": {"android": "https://dc.lft.to/lastmile_qr_scan", "ios": "https://dc.lft.to/lastmile_qr_scan"}, "is_reserved": 0, "name": "2490c4993bab34422a6725607fca46d7", "lon": -77.017183, "type": "electric_scooter", "bike_id": "2490c4993bab34422a6725607fca46d7", "fusion_lon": 0.0, "lat": 38.905316, "fusion_lat": 0.0}, {"is_disabled": 0, "rental_uris": {"android": "https://dc.lft.to/lastmile_qr_scan", "ios": "https://dc.lft.to/lastmile_qr_scan"}, "is_reserved": 0, "name": "d7c9f1a83eadf857c40ed823204cce68", "lon": -77.03544966666666, "type": "electric_scooter", "bike_id": "d7c9f1a83eadf857c40ed823204cce68", "fusion_lon": 0.0, "lat": 38.924155166666665, "fusion_lat": 0.0}, {"is_disabled": 0, "rental_uris": {"android": "https://dc.lft.to/lastmile_qr_scan", "ios": "https://dc.lft.to/lastmile_qr_scan"}, "is_reserved": 0, "name": "e35479bab534e8c451e90773ca3f7484", "lon": -76.942839, "type": "electric_scooter", "bike_id": "e35479bab534e8c451e90773ca3f7484", "fusion_lon": 0.0, "lat": 38.883030166666664, "fusion_lat": 0.0}, {"is_disabled": 0, "rental_uris": {"android": "https://dc.lft.to/lastmile_qr_scan", "ios": "https://dc.lft.to/lastmile_qr_scan"}, "is_reserved": 0, "name": "b48ef4595b3f71132f59553611f19ae3", "lon": -77.02613366666667, "type": "electric_scooter", "bike_id": "b48ef4595b3f71132f59553611f19ae3", "fusion_lon": 0.0, "lat": 38.907485666666666, "fusion_lat": 0.0}, {"is_disabled": 0, "rental_uris": {"android": "https://dc.lft.to/lastmile_qr_scan", "ios": "https://dc.lft.to/lastmile_qr_scan"}, "is_reserved": 0, "name": "88f2ded49ef2266ab9ce84a1b6f67601", "lon": -77.01210733333333, "type": "electric_scooter", "bike_id": "88f2ded49ef2266ab9ce84a1b6f67601", "fusion_lon": 0.0, "lat": 38.91820416666667, "fusion_lat": 0.0}, {"is_disabled": 0, "rental_uris": {"android": "https://dc.lft.to/lastmile_qr_scan", "ios": "https://dc.lft.to/lastmile_qr_scan"}, "is_reserved": 0, "name": "ccd35fcfcc770f69a337ea3afa83012b", "lon": -76.9223495, "type": "electric_scooter", "bike_id": "ccd35fcfcc770f69a337ea3afa83012b", "fusion_lon": 0.0, "lat": 38.899949166666666, "fusion_lat": 0.0}, {"is_disabled": 0, "rental_uris": {"android": "https://dc.lft.to/lastmile_qr_scan", "ios": "https://dc.lft.to/lastmile_qr_scan"}, "is_reserved": 0, "name": "1d2f4669d77246b5a5bfb9101aae84d5", "lon": -77.02181516666667, "type": "electric_scooter", "bike_id": "1d2f4669d77246b5a5bfb9101aae84d5", "fusion_lon": 0.0, "lat": 38.89928416666667, "fusion_lat": 0.0}, {"is_disabled": 0, "rental_uris": {"android": "https://dc.lft.to/lastmile_qr_scan", "ios": "https://dc.lft.to/lastmile_qr_scan"}, "is_reserved": 0, "name": "e8d982d2e08e1c2307d98038bdaae7ad", "lon": -77.00389933333334, "type": "electric_scooter", "bike_id": "e8d982d2e08e1c2307d98038bdaae7ad", "fusion_lon": 0.0, "lat": 38.910675166666664, "fusion_lat": 0.0}, {"is_disabled": 0, "rental_uris": {"android": "https://dc.lft.to/lastmile_qr_scan", "ios": "https://dc.lft.to/lastmile_qr_scan"}, "is_reserved": 0, "name": "c7d6af7dc8dcbd32e2cba63c0c1c8487", "lon": -77.073853, "type": "electric_bike", "bike_id": "c7d6af7dc8dcbd32e2cba63c0c1c8487", "fusion_lon": 0.0, "lat": 38.96176916666667, "fusion_lat": 0.0}, {"is_disabled": 0, "rental_uris": {"android": "https://dc.lft.to/lastmile_qr_scan", "ios": "https://dc.lft.to/lastmile_qr_scan"}, "is_reserved": 0, "name": "bb11c0dd2987e1aeadc6084eb1afd4fe", "lon": -77.04617733333333, "type": "electric_scooter", "bike_id": "bb11c0dd2987e1aeadc6084eb1afd4fe", "fusion_lon": 0.0, "lat": 38.8996915, "fusion_lat": 0.0}, {"is_disabled": 0, "rental_uris": {"android": "https://dc.lft.to/lastmile_qr_scan", "ios": "https://dc.lft.to/lastmile_qr_scan"}, "is_reserved": 0, "name": "dcade84d66b7b370b8f51d41b7ba3bad", "lon": -77.029318, "type": "electric_scooter", "bike_id": "dcade84d66b7b370b8f51d41b7ba3bad", "fusion_lon": 0.0, "lat": 38.92976933333333, "fusion_lat": 0.0}, {"is_disabled": 0, "rental_uris": {"android": "https://dc.lft.to/lastmile_qr_scan", "ios": "https://dc.lft.to/lastmile_qr_scan"}, "is_reserved": 0, "name": "4ae4f70cb1e74a201a2728cf49df5bcb", "lon": -76.9801915, "type": "electric_bike", "bike_id": "4ae4f70cb1e74a201a2728cf49df5bcb", "fusion_lon": 0.0, "lat": 38.95751683333334, "fusion_lat": 0.0}, {"is_disabled": 0, "rental_uris": {"android": "https://dc.lft.to/lastmile_qr_scan", "ios": "https://dc.lft.to/lastmile_qr_scan"}, "is_reserved": 0, "name": "c716124d973fc32fae0bf03c940a16a2", "lon": -77.02154466666667, "type": "electric_scooter", "bike_id": "c716124d973fc32fae0bf03c940a16a2", "fusion_lon": 0.0, "lat": 38.899901166666666, "fusion_lat": 0.0}, {"is_disabled": 0, "rental_uris": {"android": "https://dc.lft.to/lastmile_qr_scan", "ios": "https://dc.lft.to/lastmile_qr_scan"}, "is_reserved": 0, "name": "40cc2841f22f78d296ca221aa702fbe2", "lon": -77.04407433333333, "type": "electric_scooter", "bike_id": "40cc2841f22f78d296ca221aa702fbe2", "fusion_lon": 0.0, "lat": 38.900528, "fusion_lat": 0.0}, {"is_disabled": 0, "rental_uris": {"android": "https://dc.lft.to/lastmile_qr_scan", "ios": "https://dc.lft.to/lastmile_qr_scan"}, "is_reserved": 0, "name": "1e9ddfe126a5f9eafcee2f5ad737211b", "lon": -77.00151583333333, "type": "electric_scooter", "bike_id": "1e9ddfe126a5f9eafcee2f5ad737211b", "fusion_lon": 0.0, "lat": 38.91077416666667, "fusion_lat": 0.0}, {"is_disabled": 0, "rental_uris": {"android": "https://dc.lft.to/lastmile_qr_scan", "ios": "https://dc.lft.to/lastmile_qr_scan"}, "is_reserved": 0, "name": "8b02cfc38082d6eaddcea79b2ef8225d", "lon": -77.0327405, "type": "electric_scooter", "bike_id": "8b02cfc38082d6eaddcea79b2ef8225d", "fusion_lon": 0.0, "lat": 38.932492833333335, "fusion_lat": 0.0}, {"is_disabled": 0, "rental_uris": {"android": "https://dc.lft.to/lastmile_qr_scan", "ios": "https://dc.lft.to/lastmile_qr_scan"}, "is_reserved": 0, "name": "5dc55fedf014e122101292fe00d9e157", "lon": -77.03147633333333, "type": "electric_scooter", "bike_id": "5dc55fedf014e122101292fe00d9e157", "fusion_lon": 0.0, "lat": 38.887457, "fusion_lat": 0.0}, {"is_disabled": 0, "rental_uris": {"android": "https://dc.lft.to/lastmile_qr_scan", "ios": "https://dc.lft.to/lastmile_qr_scan"}, "is_reserved": 0, "name": "17e5a7ab5554c24b72021299c5d79c5e", "lon": -77.06351116666667, "type": "electric_scooter", "bike_id": "17e5a7ab5554c24b72021299c5d79c5e", "fusion_lon": 0.0, "lat": 38.944374, "fusion_lat": 0.0}, {"is_disabled": 0, "rental_uris": {"android": "https://dc.lft.to/lastmile_qr_scan", "ios": "https://dc.lft.to/lastmile_qr_scan"}, "is_reserved": 0, "name": "50546527ceb96322038b6bfd2be5f826", "lon": -77.04868166666667, "type": "electric_scooter", "bike_id": "50546527ceb96322038b6bfd2be5f826", "fusion_lon": 0.0, "lat": 38.9042905, "fusion_lat": 0.0}, {"is_disabled": 0, "rental_uris": {"android": "https://dc.lft.to/lastmile_qr_scan", "ios": "https://dc.lft.to/lastmile_qr_scan"}, "is_reserved": 0, "name": "eff49ebc122a9cc7eec7af120f7917c0", "lon": -76.92827016666666, "type": "electric_scooter", "bike_id": "eff49ebc122a9cc7eec7af120f7917c0", "fusion_lon": 0.0, "lat": 38.90177, "fusion_lat": 0.0}, {"is_disabled": 0, "rental_uris": {"android": "https://dc.lft.to/lastmile_qr_scan", "ios": "https://dc.lft.to/lastmile_qr_scan"}, "is_reserved": 0, "name": "5d48aed564b4eef0313f395a75a24fb8", "lon": -77.0437455, "type": "electric_scooter", "bike_id": "5d48aed564b4eef0313f395a75a24fb8", "fusion_lon": 0.0, "lat": 38.92118133333334, "fusion_lat": 0.0}, {"is_disabled": 0, "rental_uris": {"android": "https://dc.lft.to/lastmile_qr_scan", "ios": "https://dc.lft.to/lastmile_qr_scan"}, "is_reserved": 0, "name": "5da39459f8cdd86d9ba23b79039c982d", "lon": -77.038394, "type": "electric_scooter", "bike_id": "5da39459f8cdd86d9ba23b79039c982d", "fusion_lon": 0.0, "lat": 38.906785666666664, "fusion_lat": 0.0}, {"is_disabled": 0, "rental_uris": {"android": "https://dc.lft.to/lastmile_qr_scan", "ios": "https://dc.lft.to/lastmile_qr_scan"}, "is_reserved": 0, "name": "a2b525824b17697a29df89e3c3414f40", "lon": -77.12900983333333, "type": "electric_bike", "bike_id": "a2b525824b17697a29df89e3c3414f40", "fusion_lon": 0.0, "lat": 38.86378916666666, "fusion_lat": 0.0}, {"is_disabled": 0, "rental_uris": {"android": "https://dc.lft.to/lastmile_qr_scan", "ios": "https://dc.lft.to/lastmile_qr_scan"}, "is_reserved": 0, "name": "1870a0919197197c2046430840dfeac3", "lon": -77.05939716666667, "type": "electric_scooter", "bike_id": "1870a0919197197c2046430840dfeac3", "fusion_lon": 0.0, "lat": 38.93678083333333, "fusion_lat": 0.0}, {"is_disabled": 0, "rental_uris": {"android": "https://dc.lft.to/lastmile_qr_scan", "ios": "https://dc.lft.to/lastmile_qr_scan"}, "is_reserved": 0, "name": "053b83367c3aab2612d1cbf9c2172d1d", "lon": -77.0385645, "type": "electric_scooter", "bike_id": "053b83367c3aab2612d1cbf9c2172d1d", "fusion_lon": 0.0, "lat": 38.9171565, "fusion_lat": 0.0}, {"is_disabled": 0, "rental_uris": {"android": "https://dc.lft.to/lastmile_qr_scan", "ios": "https://dc.lft.to/lastmile_qr_scan"}, "is_reserved": 0, "name": "308101e004ae6116d2ad3e23228a21fc", "lon": -77.00915666666667, "type": "electric_scooter", "bike_id": "308101e004ae6116d2ad3e23228a21fc", "fusion_lon": 0.0, "lat": 38.959505, "fusion_lat": 0.0}, {"is_disabled": 0, "rental_uris": {"android": "https://dc.lft.to/lastmile_qr_scan", "ios": "https://dc.lft.to/lastmile_qr_scan"}, "is_reserved": 0, "name": "ce05e4617b59a39ea0c8fc6c928f824f", "lon": -77.07266066666666, "type": "electric_scooter", "bike_id": "ce05e4617b59a39ea0c8fc6c928f824f", "fusion_lon": 0.0, "lat": 38.90673116666667, "fusion_lat": 0.0}, {"is_disabled": 0, "rental_uris": {"android": "https://dc.lft.to/lastmile_qr_scan", "ios": "https://dc.lft.to/lastmile_qr_scan"}, "is_reserved": 0, "name": "9f85edb04b3911950e4a1f384f392703", "lon": -77.02716683333334, "type": "electric_scooter", "bike_id": "9f85edb04b3911950e4a1f384f392703", "fusion_lon": 0.0, "lat": 38.90849166666667, "fusion_lat": 0.0}, {"is_disabled": 0, "rental_uris": {"android": "https://dc.lft.to/lastmile_qr_scan", "ios": "https://dc.lft.to/lastmile_qr_scan"}, "is_reserved": 0, "name": "dab4ca683f52e67a6d8ebcf2c237089c", "lon": -77.040067, "type": "electric_scooter", "bike_id": "dab4ca683f52e67a6d8ebcf2c237089c", "fusion_lon": 0.0, "lat": 38.913109, "fusion_lat": 0.0}, {"is_disabled": 0, "rental_uris": {"android": "https://dc.lft.to/lastmile_qr_scan", "ios": "https://dc.lft.to/lastmile_qr_scan"}, "is_reserved": 0, "name": "c5ee0211c41ff7324cb3d07d399e690f", "lon": -77.02100316666667, "type": "electric_bike", "bike_id": "c5ee0211c41ff7324cb3d07d399e690f", "fusion_lon": 0.0, "lat": 39.02295183333333, "fusion_lat": 0.0}, {"is_disabled": 0, "rental_uris": {"android": "https://dc.lft.to/lastmile_qr_scan", "ios": "https://dc.lft.to/lastmile_qr_scan"}, "is_reserved": 0, "name": "33646678cfa2308ac3962589d4a06fed", "lon": -77.02723033333334, "type": "electric_scooter", "bike_id": "33646678cfa2308ac3962589d4a06fed", "fusion_lon": 0.0, "lat": 38.940849166666666, "fusion_lat": 0.0}, {"is_disabled": 0, "rental_uris": {"android": "https://dc.lft.to/lastmile_qr_scan", "ios": "https://dc.lft.to/lastmile_qr_scan"}, "is_reserved": 0, "name": "e7d73952818243d60b2a6de560d3c102", "lon": -76.93782083333333, "type": "electric_scooter", "bike_id": "e7d73952818243d60b2a6de560d3c102", "fusion_lon": 0.0, "lat": 38.899694333333336, "fusion_lat": 0.0}, {"is_disabled": 0, "rental_uris": {"android": "https://dc.lft.to/lastmile_qr_scan", "ios": "https://dc.lft.to/lastmile_qr_scan"}, "is_reserved": 0, "name": "07cc581f816d91ece3ae9cf6741a03d7", "lon": -77.02786333333333, "type": "electric_scooter", "bike_id": "07cc581f816d91ece3ae9cf6741a03d7", "fusion_lon": 0.0, "lat": 38.926843, "fusion_lat": 0.0}, {"is_disabled": 0, "rental_uris": {"android": "https://dc.lft.to/lastmile_qr_scan", "ios": "https://dc.lft.to/lastmile_qr_scan"}, "is_reserved": 0, "name": "3aa524be9f651e756acc899bc72acef3", "lon": -77.03162633333334, "type": "electric_scooter", "bike_id": "3aa524be9f651e756acc899bc72acef3", "fusion_lon": 0.0, "lat": 38.92793366666667, "fusion_lat": 0.0}, {"is_disabled": 0, "rental_uris": {"android": "https://dc.lft.to/lastmile_qr_scan", "ios": "https://dc.lft.to/lastmile_qr_scan"}, "is_reserved": 0, "name": "64cbd2b6ce945d7924347cc71a317044", "lon": -76.96558866666666, "type": "electric_scooter", "bike_id": "64cbd2b6ce945d7924347cc71a317044", "fusion_lon": 0.0, "lat": 38.918396666666666, "fusion_lat": 0.0}, {"is_disabled": 0, "rental_uris": {"android": "https://dc.lft.to/lastmile_qr_scan", "ios": "https://dc.lft.to/lastmile_qr_scan"}, "is_reserved": 0, "name": "f277a070562028643bd9ec1d82612bc7", "lon": -77.02160033333334, "type": "electric_scooter", "bike_id": "f277a070562028643bd9ec1d82612bc7", "fusion_lon": 0.0, "lat": 38.926129, "fusion_lat": 0.0}, {"is_disabled": 0, "rental_uris": {"android": "https://dc.lft.to/lastmile_qr_scan", "ios": "https://dc.lft.to/lastmile_qr_scan"}, "is_reserved": 0, "name": "70af7cc123ced61581270078ec86b8a8", "lon": -77.12741283333334, "type": "electric_bike", "bike_id": "70af7cc123ced61581270078ec86b8a8", "fusion_lon": 0.0, "lat": 38.888271, "fusion_lat": 0.0}, {"is_disabled": 0, "rental_uris": {"android": "https://dc.lft.to/lastmile_qr_scan", "ios": "https://dc.lft.to/lastmile_qr_scan"}, "is_reserved": 0, "name": "8dac3e35165e32763551ec2047e2f7e5", "lon": -76.954842, "type": "electric_bike", "bike_id": "8dac3e35165e32763551ec2047e2f7e5", "fusion_lon": 0.0, "lat": 38.8720845, "fusion_lat": 0.0}, {"is_disabled": 0, "rental_uris": {"android": "https://dc.lft.to/lastmile_qr_scan", "ios": "https://dc.lft.to/lastmile_qr_scan"}, "is_reserved": 0, "name": "33995372e1eb162d9e72813139262a1c", "lon": -77.06897383333333, "type": "electric_scooter", "bike_id": "33995372e1eb162d9e72813139262a1c", "fusion_lon": 0.0, "lat": 38.90784933333333, "fusion_lat": 0.0}, {"is_disabled": 0, "rental_uris": {"android": "https://dc.lft.to/lastmile_qr_scan", "ios": "https://dc.lft.to/lastmile_qr_scan"}, "is_reserved": 0, "name": "f3b3bd9edaa90b8ce4141857ce745220", "lon": -76.98618766666667, "type": "electric_scooter", "bike_id": "f3b3bd9edaa90b8ce4141857ce745220", "fusion_lon": 0.0, "lat": 38.903477, "fusion_lat": 0.0}, {"is_disabled": 0, "rental_uris": {"android": "https://dc.lft.to/lastmile_qr_scan", "ios": "https://dc.lft.to/lastmile_qr_scan"}, "is_reserved": 0, "name": "e0a674727876c3896ca78444f9e5b609", "lon": -77.0499635, "type": "electric_scooter", "bike_id": "e0a674727876c3896ca78444f9e5b609", "fusion_lon": 0.0, "lat": 38.89229516666666, "fusion_lat": 0.0}, {"is_disabled": 0, "rental_uris": {"android": "https://dc.lft.to/lastmile_qr_scan", "ios": "https://dc.lft.to/lastmile_qr_scan"}, "is_reserved": 0, "name": "f103144ff47c933b9072219f082e1297", "lon": -77.03718533333333, "type": "electric_scooter", "bike_id": "f103144ff47c933b9072219f082e1297", "fusion_lon": 0.0, "lat": 38.911168, "fusion_lat": 0.0}, {"is_disabled": 0, "rental_uris": {"android": "https://dc.lft.to/lastmile_qr_scan", "ios": "https://dc.lft.to/lastmile_qr_scan"}, "is_reserved": 0, "name": "3b0c3acecbcb8fe72e19bb9a530d3549", "lon": -77.0220095, "type": "electric_scooter", "bike_id": "3b0c3acecbcb8fe72e19bb9a530d3549", "fusion_lon": 0.0, "lat": 38.895186, "fusion_lat": 0.0}, {"is_disabled": 0, "rental_uris": {"android": "https://dc.lft.to/lastmile_qr_scan", "ios": "https://dc.lft.to/lastmile_qr_scan"}, "is_reserved": 0, "name": "5d9a00dc978e9d914113d15f8b4fc664", "lon": -76.994874, "type": "electric_scooter", "bike_id": "5d9a00dc978e9d914113d15f8b4fc664", "fusion_lon": 0.0, "lat": 38.862367666666664, "fusion_lat": 0.0}, {"is_disabled": 0, "rental_uris": {"android": "https://dc.lft.to/lastmile_qr_scan", "ios": "https://dc.lft.to/lastmile_qr_scan"}, "is_reserved": 0, "name": "2536fe4d37fd654871ad1bab36a8b8f1", "lon": -77.04336966666666, "type": "electric_scooter", "bike_id": "2536fe4d37fd654871ad1bab36a8b8f1", "fusion_lon": 0.0, "lat": 38.92173966666667, "fusion_lat": 0.0}, {"is_disabled": 0, "rental_uris": {"android": "https://dc.lft.to/lastmile_qr_scan", "ios": "https://dc.lft.to/lastmile_qr_scan"}, "is_reserved": 0, "name": "8ac96b815df7447a475cb065e8a78cb6", "lon": -77.03175033333333, "type": "electric_scooter", "bike_id": "8ac96b815df7447a475cb065e8a78cb6", "fusion_lon": 0.0, "lat": 38.89179083333333, "fusion_lat": 0.0}, {"is_disabled": 0, "rental_uris": {"android": "https://dc.lft.to/lastmile_qr_scan", "ios": "https://dc.lft.to/lastmile_qr_scan"}, "is_reserved": 0, "name": "5b03294f26e112f7906506a78d35d8a1", "lon": -77.02778633333334, "type": "electric_scooter", "bike_id": "5b03294f26e112f7906506a78d35d8a1", "fusion_lon": 0.0, "lat": 38.910179166666666, "fusion_lat": 0.0}, {"is_disabled": 0, "rental_uris": {"android": "https://dc.lft.to/lastmile_qr_scan", "ios": "https://dc.lft.to/lastmile_qr_scan"}, "is_reserved": 0, "name": "950d19747431a3e1fa6a6e3d250ac873", "lon": -76.98615333333333, "type": "electric_scooter", "bike_id": "950d19747431a3e1fa6a6e3d250ac873", "fusion_lon": 0.0, "lat": 38.88279816666667, "fusion_lat": 0.0}, {"is_disabled": 0, "rental_uris": {"android": "https://dc.lft.to/lastmile_qr_scan", "ios": "https://dc.lft.to/lastmile_qr_scan"}, "is_reserved": 0, "name": "7778a45dd831515961fe5cd9133058e2", "lon": -77.03464683333333, "type": "electric_scooter", "bike_id": "7778a45dd831515961fe5cd9133058e2", "fusion_lon": 0.0, "lat": 38.9215235, "fusion_lat": 0.0}, {"is_disabled": 0, "rental_uris": {"android": "https://dc.lft.to/lastmile_qr_scan", "ios": "https://dc.lft.to/lastmile_qr_scan"}, "is_reserved": 0, "name": "0d1b8848fc3945e62f195f4ddcc25dc1", "lon": -77.03249316666667, "type": "electric_scooter", "bike_id": "0d1b8848fc3945e62f195f4ddcc25dc1", "fusion_lon": 0.0, "lat": 38.907224166666666, "fusion_lat": 0.0}, {"is_disabled": 0, "rental_uris": {"android": "https://dc.lft.to/lastmile_qr_scan", "ios": "https://dc.lft.to/lastmile_qr_scan"}, "is_reserved": 0, "name": "c5fd85f1c757905e4d0329ee9d9f2ea9", "lon": -77.016296, "type": "electric_scooter", "bike_id": "c5fd85f1c757905e4d0329ee9d9f2ea9", "fusion_lon": 0.0, "lat": 38.8786845, "fusion_lat": 0.0}, {"is_disabled": 0, "rental_uris": {"android": "https://dc.lft.to/lastmile_qr_scan", "ios": "https://dc.lft.to/lastmile_qr_scan"}, "is_reserved": 0, "name": "8ee36592161954ca98c94ddaccaedabf", "lon": -77.05044, "type": "electric_scooter", "bike_id": "8ee36592161954ca98c94ddaccaedabf", "fusion_lon": 0.0, "lat": 38.923669833333335, "fusion_lat": 0.0}, {"is_disabled": 0, "rental_uris": {"android": "https://dc.lft.to/lastmile_qr_scan", "ios": "https://dc.lft.to/lastmile_qr_scan"}, "is_reserved": 0, "name": "55a8e3b43e77282f0d68e770629b0485", "lon": -76.965283, "type": "electric_scooter", "bike_id": "55a8e3b43e77282f0d68e770629b0485", "fusion_lon": 0.0, "lat": 38.876285, "fusion_lat": 0.0}, {"is_disabled": 0, "rental_uris": {"android": "https://dc.lft.to/lastmile_qr_scan", "ios": "https://dc.lft.to/lastmile_qr_scan"}, "is_reserved": 0, "name": "9fda7da03326e3319dfb5c1da2d8f95d", "lon": -77.03754516666666, "type": "electric_scooter", "bike_id": "9fda7da03326e3319dfb5c1da2d8f95d", "fusion_lon": 0.0, "lat": 38.92907866666667, "fusion_lat": 0.0}, {"is_disabled": 0, "rental_uris": {"android": "https://dc.lft.to/lastmile_qr_scan", "ios": "https://dc.lft.to/lastmile_qr_scan"}, "is_reserved": 0, "name": "f4024835fea0106274a4c673be04e169", "lon": -77.042426, "type": "electric_scooter", "bike_id": "f4024835fea0106274a4c673be04e169", "fusion_lon": 0.0, "lat": 38.922196666666665, "fusion_lat": 0.0}, {"is_disabled": 0, "rental_uris": {"android": "https://dc.lft.to/lastmile_qr_scan", "ios": "https://dc.lft.to/lastmile_qr_scan"}, "is_reserved": 0, "name": "a3d8d5e205a5442adf97e253ef0f515e", "lon": -77.02204733333333, "type": "electric_scooter", "bike_id": "a3d8d5e205a5442adf97e253ef0f515e", "fusion_lon": 0.0, "lat": 38.89941833333334, "fusion_lat": 0.0}, {"is_disabled": 0, "rental_uris": {"android": "https://dc.lft.to/lastmile_qr_scan", "ios": "https://dc.lft.to/lastmile_qr_scan"}, "is_reserved": 0, "name": "d47bd227844abe34cf1350c5701e239e", "lon": -77.03038466666666, "type": "electric_scooter", "bike_id": "d47bd227844abe34cf1350c5701e239e", "fusion_lon": 0.0, "lat": 38.9312295, "fusion_lat": 0.0}, {"is_disabled": 0, "rental_uris": {"android": "https://dc.lft.to/lastmile_qr_scan", "ios": "https://dc.lft.to/lastmile_qr_scan"}, "is_reserved": 0, "name": "2c5ffd2f4655d3fed9e6395b65e57396", "lon": -77.0486895, "type": "electric_scooter", "bike_id": "2c5ffd2f4655d3fed9e6395b65e57396", "fusion_lon": 0.0, "lat": 38.909489666666666, "fusion_lat": 0.0}, {"is_disabled": 0, "rental_uris": {"android": "https://dc.lft.to/lastmile_qr_scan", "ios": "https://dc.lft.to/lastmile_qr_scan"}, "is_reserved": 0, "name": "a541760172ade2994d7e374dddea6b1e", "lon": -77.03151966666667, "type": "electric_scooter", "bike_id": "a541760172ade2994d7e374dddea6b1e", "fusion_lon": 0.0, "lat": 38.920236, "fusion_lat": 0.0}, {"is_disabled": 0, "rental_uris": {"android": "https://dc.lft.to/lastmile_qr_scan", "ios": "https://dc.lft.to/lastmile_qr_scan"}, "is_reserved": 0, "name": "77d011df03c00156be8096cd16132fca", "lon": -77.03869783333333, "type": "electric_scooter", "bike_id": "77d011df03c00156be8096cd16132fca", "fusion_lon": 0.0, "lat": 38.908091166666665, "fusion_lat": 0.0}, {"is_disabled": 0, "rental_uris": {"android": "https://dc.lft.to/lastmile_qr_scan", "ios": "https://dc.lft.to/lastmile_qr_scan"}, "is_reserved": 0, "name": "ec01c142888bb0d443bf3604f2c58e19", "lon": -77.04478716666667, "type": "electric_scooter", "bike_id": "ec01c142888bb0d443bf3604f2c58e19", "fusion_lon": 0.0, "lat": 38.911608333333334, "fusion_lat": 0.0}, {"is_disabled": 0, "rental_uris": {"android": "https://dc.lft.to/lastmile_qr_scan", "ios": "https://dc.lft.to/lastmile_qr_scan"}, "is_reserved": 0, "name": "27d69aed7b8212bc76b0341b6e660b35", "lon": -77.03272183333333, "type": "electric_scooter", "bike_id": "27d69aed7b8212bc76b0341b6e660b35", "fusion_lon": 0.0, "lat": 38.915653, "fusion_lat": 0.0}, {"is_disabled": 0, "rental_uris": {"android": "https://dc.lft.to/lastmile_qr_scan", "ios": "https://dc.lft.to/lastmile_qr_scan"}, "is_reserved": 0, "name": "ee0bb87e09ad15fb84f32525caf8fc59", "lon": -77.03349966666667, "type": "electric_scooter", "bike_id": "ee0bb87e09ad15fb84f32525caf8fc59", "fusion_lon": 0.0, "lat": 38.922354, "fusion_lat": 0.0}, {"is_disabled": 0, "rental_uris": {"android": "https://dc.lft.to/lastmile_qr_scan", "ios": "https://dc.lft.to/lastmile_qr_scan"}, "is_reserved": 0, "name": "63bb81dbf137159c6ecd2d63c38a620b", "lon": -77.03174033333333, "type": "electric_scooter", "bike_id": "63bb81dbf137159c6ecd2d63c38a620b", "fusion_lon": 0.0, "lat": 38.914182333333336, "fusion_lat": 0.0}, {"is_disabled": 0, "rental_uris": {"android": "https://dc.lft.to/lastmile_qr_scan", "ios": "https://dc.lft.to/lastmile_qr_scan"}, "is_reserved": 0, "name": "de0cc3fd7685dddea4fdc8540218c549", "lon": -77.04018616666667, "type": "electric_scooter", "bike_id": "de0cc3fd7685dddea4fdc8540218c549", "fusion_lon": 0.0, "lat": 38.91801733333333, "fusion_lat": 0.0}, {"is_disabled": 0, "rental_uris": {"android": "https://dc.lft.to/lastmile_qr_scan", "ios": "https://dc.lft.to/lastmile_qr_scan"}, "is_reserved": 0, "name": "2d0ea79d8087d344f329d243d22114e5", "lon": -77.0131835, "type": "electric_scooter", "bike_id": "2d0ea79d8087d344f329d243d22114e5", "fusion_lon": 0.0, "lat": 38.900656, "fusion_lat": 0.0}, {"is_disabled": 0, "rental_uris": {"android": "https://dc.lft.to/lastmile_qr_scan", "ios": "https://dc.lft.to/lastmile_qr_scan"}, "is_reserved": 0, "name": "c7882eb36e17d4a2aeb033f4e8001007", "lon": -77.07272883333333, "type": "electric_scooter", "bike_id": "c7882eb36e17d4a2aeb033f4e8001007", "fusion_lon": 0.0, "lat": 38.9347325, "fusion_lat": 0.0}, {"is_disabled": 0, "rental_uris": {"android": "https://dc.lft.to/lastmile_qr_scan", "ios": "https://dc.lft.to/lastmile_qr_scan"}, "is_reserved": 0, "name": "f6e7219f8a44a7793c297d61f7dfe3ae", "lon": -77.0169835, "type": "electric_scooter", "bike_id": "f6e7219f8a44a7793c297d61f7dfe3ae", "fusion_lon": 0.0, "lat": 38.97495683333333, "fusion_lat": 0.0}, {"is_disabled": 0, "rental_uris": {"android": "https://dc.lft.to/lastmile_qr_scan", "ios": "https://dc.lft.to/lastmile_qr_scan"}, "is_reserved": 0, "name": "3259f85cf3cc9ddb4ec5f6440453d8e4", "lon": -77.03448566666667, "type": "electric_scooter", "bike_id": "3259f85cf3cc9ddb4ec5f6440453d8e4", "fusion_lon": 0.0, "lat": 38.905720333333335, "fusion_lat": 0.0}, {"is_disabled": 0, "rental_uris": {"android": "https://dc.lft.to/lastmile_qr_scan", "ios": "https://dc.lft.to/lastmile_qr_scan"}, "is_reserved": 0, "name": "03303af66ba124b36abfa4bc6e22adb5", "lon": -76.98782216666666, "type": "electric_scooter", "bike_id": "03303af66ba124b36abfa4bc6e22adb5", "fusion_lon": 0.0, "lat": 38.8446775, "fusion_lat": 0.0}, {"is_disabled": 0, "rental_uris": {"android": "https://dc.lft.to/lastmile_qr_scan", "ios": "https://dc.lft.to/lastmile_qr_scan"}, "is_reserved": 0, "name": "ea4d5d74fd777614027b42638e1c0474", "lon": -77.04690416666666, "type": "electric_scooter", "bike_id": "ea4d5d74fd777614027b42638e1c0474", "fusion_lon": 0.0, "lat": 38.897397, "fusion_lat": 0.0}, {"is_disabled": 0, "rental_uris": {"android": "https://dc.lft.to/lastmile_qr_scan", "ios": "https://dc.lft.to/lastmile_qr_scan"}, "is_reserved": 0, "name": "27b4b30f6d4d374d6baf33b4996dd7ea", "lon": -77.02741766666666, "type": "electric_scooter", "bike_id": "27b4b30f6d4d374d6baf33b4996dd7ea", "fusion_lon": 0.0, "lat": 38.9430835, "fusion_lat": 0.0}, {"is_disabled": 0, "rental_uris": {"android": "https://dc.lft.to/lastmile_qr_scan", "ios": "https://dc.lft.to/lastmile_qr_scan"}, "is_reserved": 0, "name": "bc0463ffbc4a81dda09a97463dcb7fd9", "lon": -77.046172, "type": "electric_scooter", "bike_id": "bc0463ffbc4a81dda09a97463dcb7fd9", "fusion_lon": 0.0, "lat": 38.923142166666665, "fusion_lat": 0.0}, {"is_disabled": 0, "rental_uris": {"android": "https://dc.lft.to/lastmile_qr_scan", "ios": "https://dc.lft.to/lastmile_qr_scan"}, "is_reserved": 0, "name": "fdeab797899f10bf41144a091a6301cf", "lon": -77.03039833333334, "type": "electric_scooter", "bike_id": "fdeab797899f10bf41144a091a6301cf", "fusion_lon": 0.0, "lat": 38.931123166666666, "fusion_lat": 0.0}, {"is_disabled": 0, "rental_uris": {"android": "https://dc.lft.to/lastmile_qr_scan", "ios": "https://dc.lft.to/lastmile_qr_scan"}, "is_reserved": 0, "name": "8049278354a07a3536b8a6d44aeadfd3", "lon": -77.01754316666667, "type": "electric_scooter", "bike_id": "8049278354a07a3536b8a6d44aeadfd3", "fusion_lon": 0.0, "lat": 38.902612166666664, "fusion_lat": 0.0}, {"is_disabled": 0, "rental_uris": {"android": "https://dc.lft.to/lastmile_qr_scan", "ios": "https://dc.lft.to/lastmile_qr_scan"}, "is_reserved": 0, "name": "4fa9b6b275c7b6115ca279ecda91d37c", "lon": -76.9806505, "type": "electric_scooter", "bike_id": "4fa9b6b275c7b6115ca279ecda91d37c", "fusion_lon": 0.0, "lat": 38.9167185, "fusion_lat": 0.0}, {"is_disabled": 0, "rental_uris": {"android": "https://dc.lft.to/lastmile_qr_scan", "ios": "https://dc.lft.to/lastmile_qr_scan"}, "is_reserved": 0, "name": "71a88d765676bc5a59367c5cf6d556fc", "lon": -77.02841383333333, "type": "electric_scooter", "bike_id": "71a88d765676bc5a59367c5cf6d556fc", "fusion_lon": 0.0, "lat": 38.9330485, "fusion_lat": 0.0}, {"is_disabled": 0, "rental_uris": {"android": "https://dc.lft.to/lastmile_qr_scan", "ios": "https://dc.lft.to/lastmile_qr_scan"}, "is_reserved": 0, "name": "f3e5a4b306ac9675fb235b17a31debae", "lon": -77.050848, "type": "electric_scooter", "bike_id": "f3e5a4b306ac9675fb235b17a31debae", "fusion_lon": 0.0, "lat": 38.905272333333336, "fusion_lat": 0.0}, {"is_disabled": 0, "rental_uris": {"android": "https://dc.lft.to/lastmile_qr_scan", "ios": "https://dc.lft.to/lastmile_qr_scan"}, "is_reserved": 0, "name": "d0c0aa115038ca4b2023eb32730e2415", "lon": -76.98829166666667, "type": "electric_bike", "bike_id": "d0c0aa115038ca4b2023eb32730e2415", "fusion_lon": 0.0, "lat": 38.985608, "fusion_lat": 0.0}, {"is_disabled": 0, "rental_uris": {"android": "https://dc.lft.to/lastmile_qr_scan", "ios": "https://dc.lft.to/lastmile_qr_scan"}, "is_reserved": 0, "name": "f9be66c023380f4eb1f98b6b155f2bc7", "lon": -77.10651916666667, "type": "electric_bike", "bike_id": "f9be66c023380f4eb1f98b6b155f2bc7", "fusion_lon": 0.0, "lat": 39.029995666666665, "fusion_lat": 0.0}, {"is_disabled": 0, "rental_uris": {"android": "https://dc.lft.to/lastmile_qr_scan", "ios": "https://dc.lft.to/lastmile_qr_scan"}, "is_reserved": 0, "name": "2b34c32304c60f1544c51b5bf4c77e55", "lon": -77.03866433333333, "type": "electric_scooter", "bike_id": "2b34c32304c60f1544c51b5bf4c77e55", "fusion_lon": 0.0, "lat": 38.903913, "fusion_lat": 0.0}, {"is_disabled": 0, "rental_uris": {"android": "https://dc.lft.to/lastmile_qr_scan", "ios": "https://dc.lft.to/lastmile_qr_scan"}, "is_reserved": 0, "name": "ab7e66c72b9d7e4c6bab5de86c750a47", "lon": -77.034532, "type": "electric_scooter", "bike_id": "ab7e66c72b9d7e4c6bab5de86c750a47", "fusion_lon": 0.0, "lat": 38.964329666666664, "fusion_lat": 0.0}, {"is_disabled": 0, "rental_uris": {"android": "https://dc.lft.to/lastmile_qr_scan", "ios": "https://dc.lft.to/lastmile_qr_scan"}, "is_reserved": 0, "name": "0774c871d8341cf6ae2a3aeb87ea72c7", "lon": -76.9159635, "type": "electric_bike", "bike_id": "0774c871d8341cf6ae2a3aeb87ea72c7", "fusion_lon": 0.0, "lat": 38.8798115, "fusion_lat": 0.0}, {"is_disabled": 0, "rental_uris": {"android": "https://dc.lft.to/lastmile_qr_scan", "ios": "https://dc.lft.to/lastmile_qr_scan"}, "is_reserved": 0, "name": "f6d3420595f1c13de92e24d43a499f87", "lon": -77.0484405, "type": "electric_scooter", "bike_id": "f6d3420595f1c13de92e24d43a499f87", "fusion_lon": 0.0, "lat": 38.88836083333333, "fusion_lat": 0.0}, {"is_disabled": 0, "rental_uris": {"android": "https://dc.lft.to/lastmile_qr_scan", "ios": "https://dc.lft.to/lastmile_qr_scan"}, "is_reserved": 0, "name": "60a14250b99048579e2a1e8ad586cc48", "lon": -77.1526775, "type": "electric_bike", "bike_id": "60a14250b99048579e2a1e8ad586cc48", "fusion_lon": 0.0, "lat": 39.10563966666667, "fusion_lat": 0.0}, {"is_disabled": 0, "rental_uris": {"android": "https://dc.lft.to/lastmile_qr_scan", "ios": "https://dc.lft.to/lastmile_qr_scan"}, "is_reserved": 0, "name": "07e1ca0ca41a57de42534f964e0d4a2c", "lon": -77.023738, "type": "electric_scooter", "bike_id": "07e1ca0ca41a57de42534f964e0d4a2c", "fusion_lon": 0.0, "lat": 38.914049166666665, "fusion_lat": 0.0}, {"is_disabled": 0, "rental_uris": {"android": "https://dc.lft.to/lastmile_qr_scan", "ios": "https://dc.lft.to/lastmile_qr_scan"}, "is_reserved": 0, "name": "4c46dc6f15fdf0d019c98a75557067fd", "lon": -77.039571, "type": "electric_scooter", "bike_id": "4c46dc6f15fdf0d019c98a75557067fd", "fusion_lon": 0.0, "lat": 38.89904466666667, "fusion_lat": 0.0}, {"is_disabled": 0, "rental_uris": {"android": "https://dc.lft.to/lastmile_qr_scan", "ios": "https://dc.lft.to/lastmile_qr_scan"}, "is_reserved": 0, "name": "b3018453117f2659baab76ae7b0e68fc", "lon": -76.96833666666667, "type": "electric_bike", "bike_id": "b3018453117f2659baab76ae7b0e68fc", "fusion_lon": 0.0, "lat": 38.92444866666666, "fusion_lat": 0.0}, {"is_disabled": 0, "rental_uris": {"android": "https://dc.lft.to/lastmile_qr_scan", "ios": "https://dc.lft.to/lastmile_qr_scan"}, "is_reserved": 0, "name": "660b7f9d25776a608b13e0f24e74f456", "lon": -76.983261, "type": "electric_scooter", "bike_id": "660b7f9d25776a608b13e0f24e74f456", "fusion_lon": 0.0, "lat": 38.86175133333333, "fusion_lat": 0.0}, {"is_disabled": 0, "rental_uris": {"android": "https://dc.lft.to/lastmile_qr_scan", "ios": "https://dc.lft.to/lastmile_qr_scan"}, "is_reserved": 0, "name": "2477e82b6f3701cdca7a097a62cdc75e", "lon": -77.03196316666667, "type": "electric_scooter", "bike_id": "2477e82b6f3701cdca7a097a62cdc75e", "fusion_lon": 0.0, "lat": 38.918105, "fusion_lat": 0.0}, {"is_disabled": 0, "rental_uris": {"android": "https://dc.lft.to/lastmile_qr_scan", "ios": "https://dc.lft.to/lastmile_qr_scan"}, "is_reserved": 0, "name": "f476b2be2b91f1244311bd538115e198", "lon": -76.986623, "type": "electric_scooter", "bike_id": "f476b2be2b91f1244311bd538115e198", "fusion_lon": 0.0, "lat": 38.90148583333333, "fusion_lat": 0.0}, {"is_disabled": 0, "rental_uris": {"android": "https://dc.lft.to/lastmile_qr_scan", "ios": "https://dc.lft.to/lastmile_qr_scan"}, "is_reserved": 0, "name": "d70f59af09ba7e7391d5365f39ada06d", "lon": -77.02014266666667, "type": "electric_scooter", "bike_id": "d70f59af09ba7e7391d5365f39ada06d", "fusion_lon": 0.0, "lat": 38.89267366666667, "fusion_lat": 0.0}, {"is_disabled": 0, "rental_uris": {"android": "https://dc.lft.to/lastmile_qr_scan", "ios": "https://dc.lft.to/lastmile_qr_scan"}, "is_reserved": 0, "name": "b46655251c063837ed7186dad2ca93dc", "lon": -77.02706816666667, "type": "electric_scooter", "bike_id": "b46655251c063837ed7186dad2ca93dc", "fusion_lon": 0.0, "lat": 38.905907, "fusion_lat": 0.0}, {"is_disabled": 0, "rental_uris": {"android": "https://dc.lft.to/lastmile_qr_scan", "ios": "https://dc.lft.to/lastmile_qr_scan"}, "is_reserved": 0, "name": "6efc959d78cc8997220ae5e8e4003768", "lon": -76.987503, "type": "electric_bike", "bike_id": "6efc959d78cc8997220ae5e8e4003768", "fusion_lon": 0.0, "lat": 38.8578985, "fusion_lat": 0.0}, {"is_disabled": 0, "rental_uris": {"android": "https://dc.lft.to/lastmile_qr_scan", "ios": "https://dc.lft.to/lastmile_qr_scan"}, "is_reserved": 0, "name": "191ce89eb1182f710e931157c7c32304", "lon": -77.00611083333334, "type": "electric_scooter", "bike_id": "191ce89eb1182f710e931157c7c32304", "fusion_lon": 0.0, "lat": 38.90585016666667, "fusion_lat": 0.0}, {"is_disabled": 0, "rental_uris": {"android": "https://dc.lft.to/lastmile_qr_scan", "ios": "https://dc.lft.to/lastmile_qr_scan"}, "is_reserved": 0, "name": "5d1faa7e9e733399368279002847d175", "lon": -77.0058735, "type": "electric_scooter", "bike_id": "5d1faa7e9e733399368279002847d175", "fusion_lon": 0.0, "lat": 38.9118045, "fusion_lat": 0.0}, {"is_disabled": 0, "rental_uris": {"android": "https://dc.lft.to/lastmile_qr_scan", "ios": "https://dc.lft.to/lastmile_qr_scan"}, "is_reserved": 0, "name": "36ba729a63bb2955eec02f736eac8941", "lon": -77.01948516666667, "type": "electric_scooter", "bike_id": "36ba729a63bb2955eec02f736eac8941", "fusion_lon": 0.0, "lat": 38.92255633333333, "fusion_lat": 0.0}, {"is_disabled": 0, "rental_uris": {"android": "https://dc.lft.to/lastmile_qr_scan", "ios": "https://dc.lft.to/lastmile_qr_scan"}, "is_reserved": 0, "name": "ce15cebeb89ffaaf4feaf1ba93d0efdd", "lon": -76.98370016666667, "type": "electric_scooter", "bike_id": "ce15cebeb89ffaaf4feaf1ba93d0efdd", "fusion_lon": 0.0, "lat": 38.895277, "fusion_lat": 0.0}, {"is_disabled": 0, "rental_uris": {"android": "https://dc.lft.to/lastmile_qr_scan", "ios": "https://dc.lft.to/lastmile_qr_scan"}, "is_reserved": 0, "name": "8dcd5467480d2446aa525d6c304a969f", "lon": -77.034984, "type": "electric_scooter", "bike_id": "8dcd5467480d2446aa525d6c304a969f", "fusion_lon": 0.0, "lat": 38.91692833333333, "fusion_lat": 0.0}, {"is_disabled": 0, "rental_uris": {"android": "https://dc.lft.to/lastmile_qr_scan", "ios": "https://dc.lft.to/lastmile_qr_scan"}, "is_reserved": 0, "name": "2292a0f3dcaf152f3a1c21113a609dee", "lon": -77.03207366666666, "type": "electric_scooter", "bike_id": "2292a0f3dcaf152f3a1c21113a609dee", "fusion_lon": 0.0, "lat": 38.93970383333333, "fusion_lat": 0.0}, {"is_disabled": 0, "rental_uris": {"android": "https://dc.lft.to/lastmile_qr_scan", "ios": "https://dc.lft.to/lastmile_qr_scan"}, "is_reserved": 0, "name": "c92039e5563a0ebf31e8c5293b1c03e2", "lon": -77.04435333333333, "type": "electric_scooter", "bike_id": "c92039e5563a0ebf31e8c5293b1c03e2", "fusion_lon": 0.0, "lat": 38.912559333333334, "fusion_lat": 0.0}, {"is_disabled": 0, "rental_uris": {"android": "https://dc.lft.to/lastmile_qr_scan", "ios": "https://dc.lft.to/lastmile_qr_scan"}, "is_reserved": 0, "name": "b30e35335613562e7add6d496a3b2c2f", "lon": -77.007116, "type": "electric_scooter", "bike_id": "b30e35335613562e7add6d496a3b2c2f", "fusion_lon": 0.0, "lat": 38.884969, "fusion_lat": 0.0}, {"is_disabled": 0, "rental_uris": {"android": "https://dc.lft.to/lastmile_qr_scan", "ios": "https://dc.lft.to/lastmile_qr_scan"}, "is_reserved": 0, "name": "0df7ef40f48b81cae2988ceaaa9381bb", "lon": -77.0310375, "type": "electric_scooter", "bike_id": "0df7ef40f48b81cae2988ceaaa9381bb", "fusion_lon": 0.0, "lat": 38.92571083333333, "fusion_lat": 0.0}, {"is_disabled": 0, "rental_uris": {"android": "https://dc.lft.to/lastmile_qr_scan", "ios": "https://dc.lft.to/lastmile_qr_scan"}, "is_reserved": 0, "name": "c9dde20552074bf5e7667ff71a504e3b", "lon": -77.01496883333333, "type": "electric_scooter", "bike_id": "c9dde20552074bf5e7667ff71a504e3b", "fusion_lon": 0.0, "lat": 38.956468, "fusion_lat": 0.0}, {"is_disabled": 0, "rental_uris": {"android": "https://dc.lft.to/lastmile_qr_scan", "ios": "https://dc.lft.to/lastmile_qr_scan"}, "is_reserved": 0, "name": "bf2ac8b1afdcea66ef76a3c5e3310709", "lon": -77.033138, "type": "electric_scooter", "bike_id": "bf2ac8b1afdcea66ef76a3c5e3310709", "fusion_lon": 0.0, "lat": 38.91413383333333, "fusion_lat": 0.0}, {"is_disabled": 0, "rental_uris": {"android": "https://dc.lft.to/lastmile_qr_scan", "ios": "https://dc.lft.to/lastmile_qr_scan"}, "is_reserved": 0, "name": "ec1e1fcdacd61d3b4bc2ad4abba68446", "lon": -77.1068745, "type": "electric_bike", "bike_id": "ec1e1fcdacd61d3b4bc2ad4abba68446", "fusion_lon": 0.0, "lat": 38.935822, "fusion_lat": 0.0}, {"is_disabled": 0, "rental_uris": {"android": "https://dc.lft.to/lastmile_qr_scan", "ios": "https://dc.lft.to/lastmile_qr_scan"}, "is_reserved": 0, "name": "66f9e8ebb8fd0c6e4f958d488f37f267", "lon": -77.01391666666666, "type": "electric_scooter", "bike_id": "66f9e8ebb8fd0c6e4f958d488f37f267", "fusion_lon": 0.0, "lat": 38.88020983333333, "fusion_lat": 0.0}, {"is_disabled": 0, "rental_uris": {"android": "https://dc.lft.to/lastmile_qr_scan", "ios": "https://dc.lft.to/lastmile_qr_scan"}, "is_reserved": 0, "name": "c802b8259ce9d1c8c82d817fab0fb336", "lon": -77.01768366666667, "type": "electric_scooter", "bike_id": "c802b8259ce9d1c8c82d817fab0fb336", "fusion_lon": 0.0, "lat": 38.9027145, "fusion_lat": 0.0}, {"is_disabled": 0, "rental_uris": {"android": "https://dc.lft.to/lastmile_qr_scan", "ios": "https://dc.lft.to/lastmile_qr_scan"}, "is_reserved": 0, "name": "b12105ee372e46923807d340df9405a0", "lon": -77.05935483333333, "type": "electric_scooter", "bike_id": "b12105ee372e46923807d340df9405a0", "fusion_lon": 0.0, "lat": 38.905299, "fusion_lat": 0.0}, {"is_disabled": 0, "rental_uris": {"android": "https://dc.lft.to/lastmile_qr_scan", "ios": "https://dc.lft.to/lastmile_qr_scan"}, "is_reserved": 0, "name": "ba81e2476ec63a276749eb210bdf7fe2", "lon": -77.01765516666667, "type": "electric_scooter", "bike_id": "ba81e2476ec63a276749eb210bdf7fe2", "fusion_lon": 0.0, "lat": 38.90401383333333, "fusion_lat": 0.0}, {"is_disabled": 0, "rental_uris": {"android": "https://dc.lft.to/lastmile_qr_scan", "ios": "https://dc.lft.to/lastmile_qr_scan"}, "is_reserved": 0, "name": "415192db0559a0fe14333df6ee604f35", "lon": -77.0378225, "type": "electric_scooter", "bike_id": "415192db0559a0fe14333df6ee604f35", "fusion_lon": 0.0, "lat": 38.923259333333334, "fusion_lat": 0.0}, {"is_disabled": 0, "rental_uris": {"android": "https://dc.lft.to/lastmile_qr_scan", "ios": "https://dc.lft.to/lastmile_qr_scan"}, "is_reserved": 0, "name": "4c429059485e5a38fc82c83a5e9d4045", "lon": -77.04678583333333, "type": "electric_scooter", "bike_id": "4c429059485e5a38fc82c83a5e9d4045", "fusion_lon": 0.0, "lat": 38.915783833333336, "fusion_lat": 0.0}, {"is_disabled": 0, "rental_uris": {"android": "https://dc.lft.to/lastmile_qr_scan", "ios": "https://dc.lft.to/lastmile_qr_scan"}, "is_reserved": 0, "name": "c3429471e67ae36568e46f4244b7c589", "lon": -77.02275083333333, "type": "electric_scooter", "bike_id": "c3429471e67ae36568e46f4244b7c589", "fusion_lon": 0.0, "lat": 38.91263883333333, "fusion_lat": 0.0}, {"is_disabled": 0, "rental_uris": {"android": "https://dc.lft.to/lastmile_qr_scan", "ios": "https://dc.lft.to/lastmile_qr_scan"}, "is_reserved": 0, "name": "20f8ff36391257844dc0c3e1deb2b96e", "lon": -77.0383635, "type": "electric_scooter", "bike_id": "20f8ff36391257844dc0c3e1deb2b96e", "fusion_lon": 0.0, "lat": 38.906767, "fusion_lat": 0.0}, {"is_disabled": 0, "rental_uris": {"android": "https://dc.lft.to/lastmile_qr_scan", "ios": "https://dc.lft.to/lastmile_qr_scan"}, "is_reserved": 0, "name": "3046628ac52691756820caf634870d31", "lon": -77.04867916666667, "type": "electric_scooter", "bike_id": "3046628ac52691756820caf634870d31", "fusion_lon": 0.0, "lat": 38.89225066666667, "fusion_lat": 0.0}, {"is_disabled": 0, "rental_uris": {"android": "https://dc.lft.to/lastmile_qr_scan", "ios": "https://dc.lft.to/lastmile_qr_scan"}, "is_reserved": 0, "name": "d38275aed261594cf15ed52ac456c808", "lon": -77.02477566666667, "type": "electric_scooter", "bike_id": "d38275aed261594cf15ed52ac456c808", "fusion_lon": 0.0, "lat": 38.93883483333333, "fusion_lat": 0.0}, {"is_disabled": 0, "rental_uris": {"android": "https://dc.lft.to/lastmile_qr_scan", "ios": "https://dc.lft.to/lastmile_qr_scan"}, "is_reserved": 0, "name": "fed7b73e4f74d9f0f85507903cdb3ff1", "lon": -77.02374783333333, "type": "electric_scooter", "bike_id": "fed7b73e4f74d9f0f85507903cdb3ff1", "fusion_lon": 0.0, "lat": 38.8948545, "fusion_lat": 0.0}, {"is_disabled": 0, "rental_uris": {"android": "https://dc.lft.to/lastmile_qr_scan", "ios": "https://dc.lft.to/lastmile_qr_scan"}, "is_reserved": 0, "name": "2a0d4a36ae0dc56b334c8c18aebf511a", "lon": -77.04174366666666, "type": "electric_scooter", "bike_id": "2a0d4a36ae0dc56b334c8c18aebf511a", "fusion_lon": 0.0, "lat": 38.91270383333333, "fusion_lat": 0.0}, {"is_disabled": 0, "rental_uris": {"android": "https://dc.lft.to/lastmile_qr_scan", "ios": "https://dc.lft.to/lastmile_qr_scan"}, "is_reserved": 0, "name": "6e41efdb8bb42dc4228084ef1a2864d1", "lon": -77.02222483333334, "type": "electric_scooter", "bike_id": "6e41efdb8bb42dc4228084ef1a2864d1", "fusion_lon": 0.0, "lat": 38.9355295, "fusion_lat": 0.0}, {"is_disabled": 0, "rental_uris": {"android": "https://dc.lft.to/lastmile_qr_scan", "ios": "https://dc.lft.to/lastmile_qr_scan"}, "is_reserved": 0, "name": "24f23997e003da1811b13960a571835f", "lon": -76.90758166666667, "type": "electric_bike", "bike_id": "24f23997e003da1811b13960a571835f", "fusion_lon": 0.0, "lat": 38.924370833333334, "fusion_lat": 0.0}, {"is_disabled": 0, "rental_uris": {"android": "https://dc.lft.to/lastmile_qr_scan", "ios": "https://dc.lft.to/lastmile_qr_scan"}, "is_reserved": 0, "name": "e9f1dcd3845b8f7f023c97d98ee4c185", "lon": -77.037859, "type": "electric_scooter", "bike_id": "e9f1dcd3845b8f7f023c97d98ee4c185", "fusion_lon": 0.0, "lat": 38.930271166666664, "fusion_lat": 0.0}, {"is_disabled": 0, "rental_uris": {"android": "https://dc.lft.to/lastmile_qr_scan", "ios": "https://dc.lft.to/lastmile_qr_scan"}, "is_reserved": 0, "name": "856f0dd5c7bc5ab310fd883530dab0ec", "lon": -77.03261866666666, "type": "electric_scooter", "bike_id": "856f0dd5c7bc5ab310fd883530dab0ec", "fusion_lon": 0.0, "lat": 38.933283, "fusion_lat": 0.0}, {"is_disabled": 0, "rental_uris": {"android": "https://dc.lft.to/lastmile_qr_scan", "ios": "https://dc.lft.to/lastmile_qr_scan"}, "is_reserved": 0, "name": "f4c622cb856f0790149030d638ac4485", "lon": -76.94713383333334, "type": "electric_scooter", "bike_id": "f4c622cb856f0790149030d638ac4485", "fusion_lon": 0.0, "lat": 38.89703133333333, "fusion_lat": 0.0}, {"is_disabled": 0, "rental_uris": {"android": "https://dc.lft.to/lastmile_qr_scan", "ios": "https://dc.lft.to/lastmile_qr_scan"}, "is_reserved": 0, "name": "de1db737c8483ebb0f832cbeaec7cad4", "lon": -76.99195516666667, "type": "electric_scooter", "bike_id": "de1db737c8483ebb0f832cbeaec7cad4", "fusion_lon": 0.0, "lat": 38.8896755, "fusion_lat": 0.0}, {"is_disabled": 0, "rental_uris": {"android": "https://dc.lft.to/lastmile_qr_scan", "ios": "https://dc.lft.to/lastmile_qr_scan"}, "is_reserved": 0, "name": "475655129886bf8abba3317058a7b62f", "lon": -77.02779016666666, "type": "electric_scooter", "bike_id": "475655129886bf8abba3317058a7b62f", "fusion_lon": 0.0, "lat": 38.927685333333336, "fusion_lat": 0.0}, {"is_disabled": 0, "rental_uris": {"android": "https://dc.lft.to/lastmile_qr_scan", "ios": "https://dc.lft.to/lastmile_qr_scan"}, "is_reserved": 0, "name": "2a2332fd1da4cad6c34772cce8d38acc", "lon": -77.00566183333333, "type": "electric_scooter", "bike_id": "2a2332fd1da4cad6c34772cce8d38acc", "fusion_lon": 0.0, "lat": 38.8850245, "fusion_lat": 0.0}, {"is_disabled": 0, "rental_uris": {"android": "https://dc.lft.to/lastmile_qr_scan", "ios": "https://dc.lft.to/lastmile_qr_scan"}, "is_reserved": 0, "name": "d9f24e27f05b4ba21caf29fc176313d3", "lon": -77.06009916666666, "type": "electric_scooter", "bike_id": "d9f24e27f05b4ba21caf29fc176313d3", "fusion_lon": 0.0, "lat": 38.905304666666666, "fusion_lat": 0.0}, {"is_disabled": 0, "rental_uris": {"android": "https://dc.lft.to/lastmile_qr_scan", "ios": "https://dc.lft.to/lastmile_qr_scan"}, "is_reserved": 0, "name": "930bb8f027bb636a63379afe35017116", "lon": -77.033895, "type": "electric_scooter", "bike_id": "930bb8f027bb636a63379afe35017116", "fusion_lon": 0.0, "lat": 38.91917183333333, "fusion_lat": 0.0}, {"is_disabled": 0, "rental_uris": {"android": "https://dc.lft.to/lastmile_qr_scan", "ios": "https://dc.lft.to/lastmile_qr_scan"}, "is_reserved": 0, "name": "f79b6d67a95d2ec5dd6412afc3cbd2d8", "lon": -77.0164175, "type": "electric_scooter", "bike_id": "f79b6d67a95d2ec5dd6412afc3cbd2d8", "fusion_lon": 0.0, "lat": 38.87632633333333, "fusion_lat": 0.0}, {"is_disabled": 0, "rental_uris": {"android": "https://dc.lft.to/lastmile_qr_scan", "ios": "https://dc.lft.to/lastmile_qr_scan"}, "is_reserved": 0, "name": "eecb4c92a7e14baeb0f53c4ededee3b3", "lon": -77.03459866666667, "type": "electric_scooter", "bike_id": "eecb4c92a7e14baeb0f53c4ededee3b3", "fusion_lon": 0.0, "lat": 38.9215905, "fusion_lat": 0.0}, {"is_disabled": 0, "rental_uris": {"android": "https://dc.lft.to/lastmile_qr_scan", "ios": "https://dc.lft.to/lastmile_qr_scan"}, "is_reserved": 0, "name": "ef5a008495677924af0154be5bcb8e41", "lon": -77.04381033333334, "type": "electric_scooter", "bike_id": "ef5a008495677924af0154be5bcb8e41", "fusion_lon": 0.0, "lat": 38.910557833333336, "fusion_lat": 0.0}, {"is_disabled": 0, "rental_uris": {"android": "https://dc.lft.to/lastmile_qr_scan", "ios": "https://dc.lft.to/lastmile_qr_scan"}, "is_reserved": 0, "name": "8d6d2de3ff5b55757a8f7c97cd2d1c41", "lon": -77.02959983333334, "type": "electric_scooter", "bike_id": "8d6d2de3ff5b55757a8f7c97cd2d1c41", "fusion_lon": 0.0, "lat": 38.90424333333333, "fusion_lat": 0.0}, {"is_disabled": 0, "rental_uris": {"android": "https://dc.lft.to/lastmile_qr_scan", "ios": "https://dc.lft.to/lastmile_qr_scan"}, "is_reserved": 0, "name": "52ee9facb197d5e4c70fc2274fc729da", "lon": -77.04655333333334, "type": "electric_scooter", "bike_id": "52ee9facb197d5e4c70fc2274fc729da", "fusion_lon": 0.0, "lat": 38.90559116666667, "fusion_lat": 0.0}, {"is_disabled": 0, "rental_uris": {"android": "https://dc.lft.to/lastmile_qr_scan", "ios": "https://dc.lft.to/lastmile_qr_scan"}, "is_reserved": 0, "name": "40a30dfec198c001f2441606ac1a8a66", "lon": -77.00868766666666, "type": "electric_scooter", "bike_id": "40a30dfec198c001f2441606ac1a8a66", "fusion_lon": 0.0, "lat": 38.90651166666667, "fusion_lat": 0.0}, {"is_disabled": 0, "rental_uris": {"android": "https://dc.lft.to/lastmile_qr_scan", "ios": "https://dc.lft.to/lastmile_qr_scan"}, "is_reserved": 0, "name": "de16496e984ffb69df5517f7f45583e5", "lon": -76.97506616666666, "type": "electric_bike", "bike_id": "de16496e984ffb69df5517f7f45583e5", "fusion_lon": 0.0, "lat": 38.903089333333334, "fusion_lat": 0.0}, {"is_disabled": 0, "rental_uris": {"android": "https://dc.lft.to/lastmile_qr_scan", "ios": "https://dc.lft.to/lastmile_qr_scan"}, "is_reserved": 0, "name": "b6aa569fd4a6a86a8034fac16a1f5b95", "lon": -76.94824016666666, "type": "electric_scooter", "bike_id": "b6aa569fd4a6a86a8034fac16a1f5b95", "fusion_lon": 0.0, "lat": 38.885144, "fusion_lat": 0.0}, {"is_disabled": 0, "rental_uris": {"android": "https://dc.lft.to/lastmile_qr_scan", "ios": "https://dc.lft.to/lastmile_qr_scan"}, "is_reserved": 0, "name": "2687b9d5ac3a3906111be5125e47ee98", "lon": -77.01996766666667, "type": "electric_scooter", "bike_id": "2687b9d5ac3a3906111be5125e47ee98", "fusion_lon": 0.0, "lat": 38.915766833333336, "fusion_lat": 0.0}, {"is_disabled": 0, "rental_uris": {"android": "https://dc.lft.to/lastmile_qr_scan", "ios": "https://dc.lft.to/lastmile_qr_scan"}, "is_reserved": 0, "name": "d2b54e77bdec25c70aab4bb43678fc21", "lon": -77.03873833333333, "type": "electric_scooter", "bike_id": "d2b54e77bdec25c70aab4bb43678fc21", "fusion_lon": 0.0, "lat": 38.91554083333333, "fusion_lat": 0.0}, {"is_disabled": 0, "rental_uris": {"android": "https://dc.lft.to/lastmile_qr_scan", "ios": "https://dc.lft.to/lastmile_qr_scan"}, "is_reserved": 0, "name": "dbd6b7145cad0723c59a497b0c32983b", "lon": -76.978793, "type": "electric_scooter", "bike_id": "dbd6b7145cad0723c59a497b0c32983b", "fusion_lon": 0.0, "lat": 38.92730066666667, "fusion_lat": 0.0}, {"is_disabled": 0, "rental_uris": {"android": "https://dc.lft.to/lastmile_qr_scan", "ios": "https://dc.lft.to/lastmile_qr_scan"}, "is_reserved": 0, "name": "1b97c5ca75e7575d00c783e35596bcf6", "lon": -77.01227383333334, "type": "electric_scooter", "bike_id": "1b97c5ca75e7575d00c783e35596bcf6", "fusion_lon": 0.0, "lat": 38.8858315, "fusion_lat": 0.0}, {"is_disabled": 0, "rental_uris": {"android": "https://dc.lft.to/lastmile_qr_scan", "ios": "https://dc.lft.to/lastmile_qr_scan"}, "is_reserved": 0, "name": "2d616aba15158e54fc4d6a8716929b06", "lon": -77.03313966666667, "type": "electric_scooter", "bike_id": "2d616aba15158e54fc4d6a8716929b06", "fusion_lon": 0.0, "lat": 38.898461, "fusion_lat": 0.0}, {"is_disabled": 0, "rental_uris": {"android": "https://dc.lft.to/lastmile_qr_scan", "ios": "https://dc.lft.to/lastmile_qr_scan"}, "is_reserved": 0, "name": "e201d36d9a7644302074679ad0692cb5", "lon": -77.02343483333334, "type": "electric_scooter", "bike_id": "e201d36d9a7644302074679ad0692cb5", "fusion_lon": 0.0, "lat": 38.9159505, "fusion_lat": 0.0}, {"is_disabled": 0, "rental_uris": {"android": "https://dc.lft.to/lastmile_qr_scan", "ios": "https://dc.lft.to/lastmile_qr_scan"}, "is_reserved": 0, "name": "cbe77b60f88f510782e226faf0fb2d52", "lon": -77.02289416666666, "type": "electric_scooter", "bike_id": "cbe77b60f88f510782e226faf0fb2d52", "fusion_lon": 0.0, "lat": 38.916048, "fusion_lat": 0.0}, {"is_disabled": 0, "rental_uris": {"android": "https://dc.lft.to/lastmile_qr_scan", "ios": "https://dc.lft.to/lastmile_qr_scan"}, "is_reserved": 0, "name": "201a794a4ed24b3ff33977950c5e84d7", "lon": -77.04566983333333, "type": "electric_scooter", "bike_id": "201a794a4ed24b3ff33977950c5e84d7", "fusion_lon": 0.0, "lat": 38.917747166666665, "fusion_lat": 0.0}, {"is_disabled": 0, "rental_uris": {"android": "https://dc.lft.to/lastmile_qr_scan", "ios": "https://dc.lft.to/lastmile_qr_scan"}, "is_reserved": 0, "name": "fb67ec131bf9e046eb742b1e1e38bc39", "lon": -77.054361, "type": "electric_scooter", "bike_id": "fb67ec131bf9e046eb742b1e1e38bc39", "fusion_lon": 0.0, "lat": 38.89604833333333, "fusion_lat": 0.0}, {"is_disabled": 0, "rental_uris": {"android": "https://dc.lft.to/lastmile_qr_scan", "ios": "https://dc.lft.to/lastmile_qr_scan"}, "is_reserved": 0, "name": "1c154b5e89e8ffd24ee79f46aef26eb9", "lon": -77.03662166666666, "type": "electric_scooter", "bike_id": "1c154b5e89e8ffd24ee79f46aef26eb9", "fusion_lon": 0.0, "lat": 38.91247083333333, "fusion_lat": 0.0}, {"is_disabled": 0, "rental_uris": {"android": "https://dc.lft.to/lastmile_qr_scan", "ios": "https://dc.lft.to/lastmile_qr_scan"}, "is_reserved": 0, "name": "284c60c3b1deaeee76e5d98cbe5cc216", "lon": -77.10438083333334, "type": "electric_bike", "bike_id": "284c60c3b1deaeee76e5d98cbe5cc216", "fusion_lon": 0.0, "lat": 39.02865283333333, "fusion_lat": 0.0}, {"is_disabled": 0, "rental_uris": {"android": "https://dc.lft.to/lastmile_qr_scan", "ios": "https://dc.lft.to/lastmile_qr_scan"}, "is_reserved": 0, "name": "6dc1eb13b06818fbc70850e275bc9ee2", "lon": -77.0162855, "type": "electric_scooter", "bike_id": "6dc1eb13b06818fbc70850e275bc9ee2", "fusion_lon": 0.0, "lat": 38.898652166666665, "fusion_lat": 0.0}, {"is_disabled": 0, "rental_uris": {"android": "https://dc.lft.to/lastmile_qr_scan", "ios": "https://dc.lft.to/lastmile_qr_scan"}, "is_reserved": 0, "name": "babf9fb69436511d4facc51fadecf614", "lon": -77.02805016666667, "type": "electric_scooter", "bike_id": "babf9fb69436511d4facc51fadecf614", "fusion_lon": 0.0, "lat": 38.917636333333334, "fusion_lat": 0.0}, {"is_disabled": 0, "rental_uris": {"android": "https://dc.lft.to/lastmile_qr_scan", "ios": "https://dc.lft.to/lastmile_qr_scan"}, "is_reserved": 0, "name": "983fb2fd6f39eae91b0953b87b272de0", "lon": -76.99486883333333, "type": "electric_scooter", "bike_id": "983fb2fd6f39eae91b0953b87b272de0", "fusion_lon": 0.0, "lat": 38.932277666666664, "fusion_lat": 0.0}, {"is_disabled": 0, "rental_uris": {"android": "https://dc.lft.to/lastmile_qr_scan", "ios": "https://dc.lft.to/lastmile_qr_scan"}, "is_reserved": 0, "name": "2cbbd6d7c6ad6acc7c98c182cab2c01e", "lon": -77.01011866666667, "type": "electric_scooter", "bike_id": "2cbbd6d7c6ad6acc7c98c182cab2c01e", "fusion_lon": 0.0, "lat": 38.879702, "fusion_lat": 0.0}, {"is_disabled": 0, "rental_uris": {"android": "https://dc.lft.to/lastmile_qr_scan", "ios": "https://dc.lft.to/lastmile_qr_scan"}, "is_reserved": 0, "name": "a5564cdaf12f0a3907c84db93d2a7afa", "lon": -77.0089765, "type": "electric_scooter", "bike_id": "a5564cdaf12f0a3907c84db93d2a7afa", "fusion_lon": 0.0, "lat": 38.89540216666666, "fusion_lat": 0.0}, {"is_disabled": 0, "rental_uris": {"android": "https://dc.lft.to/lastmile_qr_scan", "ios": "https://dc.lft.to/lastmile_qr_scan"}, "is_reserved": 0, "name": "ebae954374e73057e65a8d6501897f02", "lon": -77.03396766666667, "type": "electric_scooter", "bike_id": "ebae954374e73057e65a8d6501897f02", "fusion_lon": 0.0, "lat": 38.91966383333333, "fusion_lat": 0.0}, {"is_disabled": 0, "rental_uris": {"android": "https://dc.lft.to/lastmile_qr_scan", "ios": "https://dc.lft.to/lastmile_qr_scan"}, "is_reserved": 0, "name": "623ac0104a4706d41cf26c0a3b5308ca", "lon": -77.06178883333334, "type": "electric_bike", "bike_id": "623ac0104a4706d41cf26c0a3b5308ca", "fusion_lon": 0.0, "lat": 38.81269016666667, "fusion_lat": 0.0}, {"is_disabled": 0, "rental_uris": {"android": "https://dc.lft.to/lastmile_qr_scan", "ios": "https://dc.lft.to/lastmile_qr_scan"}, "is_reserved": 0, "name": "50a83b9b1749b35a729ac2b5cbac2bfb", "lon": -77.060933, "type": "electric_scooter", "bike_id": "50a83b9b1749b35a729ac2b5cbac2bfb", "fusion_lon": 0.0, "lat": 38.94374916666666, "fusion_lat": 0.0}, {"is_disabled": 0, "rental_uris": {"android": "https://dc.lft.to/lastmile_qr_scan", "ios": "https://dc.lft.to/lastmile_qr_scan"}, "is_reserved": 0, "name": "ae0d8b4a269a92756beac9c37c34a6be", "lon": -77.04674483333334, "type": "electric_scooter", "bike_id": "ae0d8b4a269a92756beac9c37c34a6be", "fusion_lon": 0.0, "lat": 38.90738183333333, "fusion_lat": 0.0}, {"is_disabled": 0, "rental_uris": {"android": "https://dc.lft.to/lastmile_qr_scan", "ios": "https://dc.lft.to/lastmile_qr_scan"}, "is_reserved": 0, "name": "91da61d23e4f733f12d73f3dcaf94d66", "lon": -77.02394433333333, "type": "electric_scooter", "bike_id": "91da61d23e4f733f12d73f3dcaf94d66", "fusion_lon": 0.0, "lat": 38.91683066666667, "fusion_lat": 0.0}, {"is_disabled": 0, "rental_uris": {"android": "https://dc.lft.to/lastmile_qr_scan", "ios": "https://dc.lft.to/lastmile_qr_scan"}, "is_reserved": 0, "name": "63aaedca838b4dbb0cee6ab2576ffc18", "lon": -77.07898683333333, "type": "electric_bike", "bike_id": "63aaedca838b4dbb0cee6ab2576ffc18", "fusion_lon": 0.0, "lat": 38.83938716666667, "fusion_lat": 0.0}, {"is_disabled": 0, "rental_uris": {"android": "https://dc.lft.to/lastmile_qr_scan", "ios": "https://dc.lft.to/lastmile_qr_scan"}, "is_reserved": 0, "name": "3266b58743dd6a415e58cd688ee9cdc0", "lon": -77.01753633333334, "type": "electric_scooter", "bike_id": "3266b58743dd6a415e58cd688ee9cdc0", "fusion_lon": 0.0, "lat": 38.91351383333333, "fusion_lat": 0.0}, {"is_disabled": 0, "rental_uris": {"android": "https://dc.lft.to/lastmile_qr_scan", "ios": "https://dc.lft.to/lastmile_qr_scan"}, "is_reserved": 0, "name": "a22c085b14e095c97f505f40d1daa42e", "lon": -76.99171083333333, "type": "electric_bike", "bike_id": "a22c085b14e095c97f505f40d1daa42e", "fusion_lon": 0.0, "lat": 38.972522, "fusion_lat": 0.0}, {"is_disabled": 0, "rental_uris": {"android": "https://dc.lft.to/lastmile_qr_scan", "ios": "https://dc.lft.to/lastmile_qr_scan"}, "is_reserved": 0, "name": "fe737d0ce7a9999d20e5aaa771c7dfa3", "lon": -77.001125, "type": "electric_scooter", "bike_id": "fe737d0ce7a9999d20e5aaa771c7dfa3", "fusion_lon": 0.0, "lat": 38.9125415, "fusion_lat": 0.0}, {"is_disabled": 0, "rental_uris": {"android": "https://dc.lft.to/lastmile_qr_scan", "ios": "https://dc.lft.to/lastmile_qr_scan"}, "is_reserved": 0, "name": "dae994a8d6538207279d18152922687a", "lon": -77.04205433333334, "type": "electric_scooter", "bike_id": "dae994a8d6538207279d18152922687a", "fusion_lon": 0.0, "lat": 38.917025333333335, "fusion_lat": 0.0}, {"is_disabled": 0, "rental_uris": {"android": "https://dc.lft.to/lastmile_qr_scan", "ios": "https://dc.lft.to/lastmile_qr_scan"}, "is_reserved": 0, "name": "f752d6fd6fe5673206604f94ed5dd138", "lon": -77.031906, "type": "electric_scooter", "bike_id": "f752d6fd6fe5673206604f94ed5dd138", "fusion_lon": 0.0, "lat": 38.922897666666664, "fusion_lat": 0.0}, {"is_disabled": 0, "rental_uris": {"android": "https://dc.lft.to/lastmile_qr_scan", "ios": "https://dc.lft.to/lastmile_qr_scan"}, "is_reserved": 0, "name": "e0810fcae497a17afca17e63fa242824", "lon": -77.03863, "type": "electric_scooter", "bike_id": "e0810fcae497a17afca17e63fa242824", "fusion_lon": 0.0, "lat": 38.903821666666666, "fusion_lat": 0.0}, {"is_disabled": 0, "rental_uris": {"android": "https://dc.lft.to/lastmile_qr_scan", "ios": "https://dc.lft.to/lastmile_qr_scan"}, "is_reserved": 0, "name": "00172a77938eca714a036cdf4a52adc3", "lon": -77.02222, "type": "electric_scooter", "bike_id": "00172a77938eca714a036cdf4a52adc3", "fusion_lon": 0.0, "lat": 38.905615833333336, "fusion_lat": 0.0}, {"is_disabled": 0, "rental_uris": {"android": "https://dc.lft.to/lastmile_qr_scan", "ios": "https://dc.lft.to/lastmile_qr_scan"}, "is_reserved": 0, "name": "37816b227ca4864b7b0004f055adaf24", "lon": -77.02961983333333, "type": "electric_scooter", "bike_id": "37816b227ca4864b7b0004f055adaf24", "fusion_lon": 0.0, "lat": 38.921439166666666, "fusion_lat": 0.0}, {"is_disabled": 0, "rental_uris": {"android": "https://dc.lft.to/lastmile_qr_scan", "ios": "https://dc.lft.to/lastmile_qr_scan"}, "is_reserved": 0, "name": "c6a5c9d82d9b5c05e5b82c39149b2214", "lon": -76.92702016666667, "type": "electric_scooter", "bike_id": "c6a5c9d82d9b5c05e5b82c39149b2214", "fusion_lon": 0.0, "lat": 38.88533066666667, "fusion_lat": 0.0}, {"is_disabled": 0, "rental_uris": {"android": "https://dc.lft.to/lastmile_qr_scan", "ios": "https://dc.lft.to/lastmile_qr_scan"}, "is_reserved": 0, "name": "6b949b8de519f14f6e8c45cee43739f4", "lon": -77.02343833333333, "type": "electric_scooter", "bike_id": "6b949b8de519f14f6e8c45cee43739f4", "fusion_lon": 0.0, "lat": 38.902247833333334, "fusion_lat": 0.0}, {"is_disabled": 0, "rental_uris": {"android": "https://dc.lft.to/lastmile_qr_scan", "ios": "https://dc.lft.to/lastmile_qr_scan"}, "is_reserved": 0, "name": "4765b36cfbefac9b6e806f49e8095fc9", "lon": -77.026701, "type": "electric_scooter", "bike_id": "4765b36cfbefac9b6e806f49e8095fc9", "fusion_lon": 0.0, "lat": 38.92182183333333, "fusion_lat": 0.0}, {"is_disabled": 0, "rental_uris": {"android": "https://dc.lft.to/lastmile_qr_scan", "ios": "https://dc.lft.to/lastmile_qr_scan"}, "is_reserved": 0, "name": "59ab30d14c1a94c323738409e7d0ff2f", "lon": -77.0380175, "type": "electric_scooter", "bike_id": "59ab30d14c1a94c323738409e7d0ff2f", "fusion_lon": 0.0, "lat": 38.932303, "fusion_lat": 0.0}, {"is_disabled": 0, "rental_uris": {"android": "https://dc.lft.to/lastmile_qr_scan", "ios": "https://dc.lft.to/lastmile_qr_scan"}, "is_reserved": 0, "name": "c97c444fef687ad78c406e37ab71b44e", "lon": -77.0462335, "type": "electric_scooter", "bike_id": "c97c444fef687ad78c406e37ab71b44e", "fusion_lon": 0.0, "lat": 38.923165833333336, "fusion_lat": 0.0}, {"is_disabled": 0, "rental_uris": {"android": "https://dc.lft.to/lastmile_qr_scan", "ios": "https://dc.lft.to/lastmile_qr_scan"}, "is_reserved": 0, "name": "6e7dfe3b5094d2cec52b6d2283de8c58", "lon": -76.98595366666666, "type": "electric_scooter", "bike_id": "6e7dfe3b5094d2cec52b6d2283de8c58", "fusion_lon": 0.0, "lat": 38.86078, "fusion_lat": 0.0}, {"is_disabled": 0, "rental_uris": {"android": "https://dc.lft.to/lastmile_qr_scan", "ios": "https://dc.lft.to/lastmile_qr_scan"}, "is_reserved": 0, "name": "48b056a36f9889a387ed439ce823739e", "lon": -77.03941633333334, "type": "electric_scooter", "bike_id": "48b056a36f9889a387ed439ce823739e", "fusion_lon": 0.0, "lat": 38.9155865, "fusion_lat": 0.0}, {"is_disabled": 0, "rental_uris": {"android": "https://dc.lft.to/lastmile_qr_scan", "ios": "https://dc.lft.to/lastmile_qr_scan"}, "is_reserved": 0, "name": "ead48b5153ade2916f8bcb68a7f4ce67", "lon": -76.9831935, "type": "electric_bike", "bike_id": "ead48b5153ade2916f8bcb68a7f4ce67", "fusion_lon": 0.0, "lat": 38.922522, "fusion_lat": 0.0}, {"is_disabled": 0, "rental_uris": {"android": "https://dc.lft.to/lastmile_qr_scan", "ios": "https://dc.lft.to/lastmile_qr_scan"}, "is_reserved": 0, "name": "6a39b298247c6dd1708383e40990b052", "lon": -76.99868316666667, "type": "electric_scooter", "bike_id": "6a39b298247c6dd1708383e40990b052", "fusion_lon": 0.0, "lat": 38.90030433333333, "fusion_lat": 0.0}, {"is_disabled": 0, "rental_uris": {"android": "https://dc.lft.to/lastmile_qr_scan", "ios": "https://dc.lft.to/lastmile_qr_scan"}, "is_reserved": 0, "name": "6b213596df4b91b7e03f1bf17c66273c", "lon": -77.0330705, "type": "electric_scooter", "bike_id": "6b213596df4b91b7e03f1bf17c66273c", "fusion_lon": 0.0, "lat": 38.91811333333333, "fusion_lat": 0.0}, {"is_disabled": 0, "rental_uris": {"android": "https://dc.lft.to/lastmile_qr_scan", "ios": "https://dc.lft.to/lastmile_qr_scan"}, "is_reserved": 0, "name": "1e1fb1efd3d3030a131fd3f2828c52b5", "lon": -77.05209533333333, "type": "electric_scooter", "bike_id": "1e1fb1efd3d3030a131fd3f2828c52b5", "fusion_lon": 0.0, "lat": 38.92481016666667, "fusion_lat": 0.0}, {"is_disabled": 0, "rental_uris": {"android": "https://dc.lft.to/lastmile_qr_scan", "ios": "https://dc.lft.to/lastmile_qr_scan"}, "is_reserved": 0, "name": "d4513ca9a481960fc3d8c081f7db5ecd", "lon": -77.03848133333334, "type": "electric_scooter", "bike_id": "d4513ca9a481960fc3d8c081f7db5ecd", "fusion_lon": 0.0, "lat": 38.931963, "fusion_lat": 0.0}, {"is_disabled": 0, "rental_uris": {"android": "https://dc.lft.to/lastmile_qr_scan", "ios": "https://dc.lft.to/lastmile_qr_scan"}, "is_reserved": 0, "name": "05a3928249261509ea5a7f8bf8cfd0f1", "lon": -76.946332, "type": "electric_scooter", "bike_id": "05a3928249261509ea5a7f8bf8cfd0f1", "fusion_lon": 0.0, "lat": 38.89833516666667, "fusion_lat": 0.0}, {"is_disabled": 0, "rental_uris": {"android": "https://dc.lft.to/lastmile_qr_scan", "ios": "https://dc.lft.to/lastmile_qr_scan"}, "is_reserved": 0, "name": "a117087bce50c272b74683d523a0d634", "lon": -77.03249166666667, "type": "electric_scooter", "bike_id": "a117087bce50c272b74683d523a0d634", "fusion_lon": 0.0, "lat": 38.937012, "fusion_lat": 0.0}, {"is_disabled": 0, "rental_uris": {"android": "https://dc.lft.to/lastmile_qr_scan", "ios": "https://dc.lft.to/lastmile_qr_scan"}, "is_reserved": 0, "name": "e2af5cfdd22112af84c4303916f2a535", "lon": -77.05938983333333, "type": "electric_scooter", "bike_id": "e2af5cfdd22112af84c4303916f2a535", "fusion_lon": 0.0, "lat": 38.936764, "fusion_lat": 0.0}, {"is_disabled": 0, "rental_uris": {"android": "https://dc.lft.to/lastmile_qr_scan", "ios": "https://dc.lft.to/lastmile_qr_scan"}, "is_reserved": 0, "name": "8315fdef50477a261666bfd278796f27", "lon": -77.050058, "type": "electric_scooter", "bike_id": "8315fdef50477a261666bfd278796f27", "fusion_lon": 0.0, "lat": 38.905116166666666, "fusion_lat": 0.0}, {"is_disabled": 0, "rental_uris": {"android": "https://dc.lft.to/lastmile_qr_scan", "ios": "https://dc.lft.to/lastmile_qr_scan"}, "is_reserved": 0, "name": "64008c8756a286335e881284aaeab501", "lon": -76.99860166666667, "type": "electric_scooter", "bike_id": "64008c8756a286335e881284aaeab501", "fusion_lon": 0.0, "lat": 38.90886233333333, "fusion_lat": 0.0}, {"is_disabled": 0, "rental_uris": {"android": "https://dc.lft.to/lastmile_qr_scan", "ios": "https://dc.lft.to/lastmile_qr_scan"}, "is_reserved": 0, "name": "4a6bbfb9a5b5ce63162ba1ee64d29df1", "lon": -77.0305845, "type": "electric_scooter", "bike_id": "4a6bbfb9a5b5ce63162ba1ee64d29df1", "fusion_lon": 0.0, "lat": 38.9237815, "fusion_lat": 0.0}, {"is_disabled": 0, "rental_uris": {"android": "https://dc.lft.to/lastmile_qr_scan", "ios": "https://dc.lft.to/lastmile_qr_scan"}, "is_reserved": 0, "name": "5548de4919acc4e29325b9f3ff9275cf", "lon": -77.045507, "type": "electric_scooter", "bike_id": "5548de4919acc4e29325b9f3ff9275cf", "fusion_lon": 0.0, "lat": 38.913129, "fusion_lat": 0.0}, {"is_disabled": 0, "rental_uris": {"android": "https://dc.lft.to/lastmile_qr_scan", "ios": "https://dc.lft.to/lastmile_qr_scan"}, "is_reserved": 0, "name": "17c826dc7c7b4133814f1a774f2f3397", "lon": -77.00739416666667, "type": "electric_scooter", "bike_id": "17c826dc7c7b4133814f1a774f2f3397", "fusion_lon": 0.0, "lat": 38.90357616666667, "fusion_lat": 0.0}, {"is_disabled": 0, "rental_uris": {"android": "https://dc.lft.to/lastmile_qr_scan", "ios": "https://dc.lft.to/lastmile_qr_scan"}, "is_reserved": 0, "name": "01f81b278823c6e9d65f20e8579cd919", "lon": -77.0425845, "type": "electric_scooter", "bike_id": "01f81b278823c6e9d65f20e8579cd919", "fusion_lon": 0.0, "lat": 38.90777833333333, "fusion_lat": 0.0}, {"is_disabled": 0, "rental_uris": {"android": "https://dc.lft.to/lastmile_qr_scan", "ios": "https://dc.lft.to/lastmile_qr_scan"}, "is_reserved": 0, "name": "57bb27729a51376d436192117fea4839", "lon": -77.03724383333333, "type": "electric_scooter", "bike_id": "57bb27729a51376d436192117fea4839", "fusion_lon": 0.0, "lat": 38.911138, "fusion_lat": 0.0}, {"is_disabled": 0, "rental_uris": {"android": "https://dc.lft.to/lastmile_qr_scan", "ios": "https://dc.lft.to/lastmile_qr_scan"}, "is_reserved": 0, "name": "5058afd4b962860729d40bfa771b5c19", "lon": -77.0401905, "type": "electric_scooter", "bike_id": "5058afd4b962860729d40bfa771b5c19", "fusion_lon": 0.0, "lat": 38.91802766666667, "fusion_lat": 0.0}, {"is_disabled": 0, "rental_uris": {"android": "https://dc.lft.to/lastmile_qr_scan", "ios": "https://dc.lft.to/lastmile_qr_scan"}, "is_reserved": 0, "name": "0eb505c734de43cbd836cf618d64e192", "lon": -77.047272, "type": "electric_scooter", "bike_id": "0eb505c734de43cbd836cf618d64e192", "fusion_lon": 0.0, "lat": 38.905944833333336, "fusion_lat": 0.0}, {"is_disabled": 0, "rental_uris": {"android": "https://dc.lft.to/lastmile_qr_scan", "ios": "https://dc.lft.to/lastmile_qr_scan"}, "is_reserved": 0, "name": "f36813133fc1c1442ea24f124b68a337", "lon": -77.01992783333333, "type": "electric_scooter", "bike_id": "f36813133fc1c1442ea24f124b68a337", "fusion_lon": 0.0, "lat": 38.89741516666667, "fusion_lat": 0.0}, {"is_disabled": 0, "rental_uris": {"android": "https://dc.lft.to/lastmile_qr_scan", "ios": "https://dc.lft.to/lastmile_qr_scan"}, "is_reserved": 0, "name": "59b7f5da06c1de464a8c1e6ef5303c51", "lon": -77.03416666666666, "type": "electric_scooter", "bike_id": "59b7f5da06c1de464a8c1e6ef5303c51", "fusion_lon": 0.0, "lat": 38.9354295, "fusion_lat": 0.0}, {"is_disabled": 0, "rental_uris": {"android": "https://dc.lft.to/lastmile_qr_scan", "ios": "https://dc.lft.to/lastmile_qr_scan"}, "is_reserved": 0, "name": "0671bd0580698c9fa93a44558ab7e1aa", "lon": -77.03791116666666, "type": "electric_scooter", "bike_id": "0671bd0580698c9fa93a44558ab7e1aa", "fusion_lon": 0.0, "lat": 38.930182, "fusion_lat": 0.0}, {"is_disabled": 0, "rental_uris": {"android": "https://dc.lft.to/lastmile_qr_scan", "ios": "https://dc.lft.to/lastmile_qr_scan"}, "is_reserved": 0, "name": "aeb63cb1a51fe0bf06f29c6f5e362289", "lon": -76.976185, "type": "electric_scooter", "bike_id": "aeb63cb1a51fe0bf06f29c6f5e362289", "fusion_lon": 0.0, "lat": 38.93142316666667, "fusion_lat": 0.0}, {"is_disabled": 0, "rental_uris": {"android": "https://dc.lft.to/lastmile_qr_scan", "ios": "https://dc.lft.to/lastmile_qr_scan"}, "is_reserved": 0, "name": "7b0cbbe179e070e397290ee1b1134679", "lon": -76.94062116666667, "type": "electric_scooter", "bike_id": "7b0cbbe179e070e397290ee1b1134679", "fusion_lon": 0.0, "lat": 38.890267, "fusion_lat": 0.0}, {"is_disabled": 0, "rental_uris": {"android": "https://dc.lft.to/lastmile_qr_scan", "ios": "https://dc.lft.to/lastmile_qr_scan"}, "is_reserved": 0, "name": "f13af0ba7f6202fb78a2c26323219b65", "lon": -77.03189, "type": "electric_scooter", "bike_id": "f13af0ba7f6202fb78a2c26323219b65", "fusion_lon": 0.0, "lat": 38.91775416666667, "fusion_lat": 0.0}, {"is_disabled": 0, "rental_uris": {"android": "https://dc.lft.to/lastmile_qr_scan", "ios": "https://dc.lft.to/lastmile_qr_scan"}, "is_reserved": 0, "name": "6239db4bdd4304250f54292bb86dffca", "lon": -77.03048383333334, "type": "electric_scooter", "bike_id": "6239db4bdd4304250f54292bb86dffca", "fusion_lon": 0.0, "lat": 38.9345785, "fusion_lat": 0.0}, {"is_disabled": 0, "rental_uris": {"android": "https://dc.lft.to/lastmile_qr_scan", "ios": "https://dc.lft.to/lastmile_qr_scan"}, "is_reserved": 0, "name": "da42cc27a060cf63ddb4a3d1f21c226d", "lon": -76.98774016666667, "type": "electric_scooter", "bike_id": "da42cc27a060cf63ddb4a3d1f21c226d", "fusion_lon": 0.0, "lat": 38.91171766666667, "fusion_lat": 0.0}, {"is_disabled": 0, "rental_uris": {"android": "https://dc.lft.to/lastmile_qr_scan", "ios": "https://dc.lft.to/lastmile_qr_scan"}, "is_reserved": 0, "name": "f21d3f9abadf0637f84c27eaff6b8685", "lon": -76.93739566666666, "type": "electric_scooter", "bike_id": "f21d3f9abadf0637f84c27eaff6b8685", "fusion_lon": 0.0, "lat": 38.89017883333333, "fusion_lat": 0.0}, {"is_disabled": 0, "rental_uris": {"android": "https://dc.lft.to/lastmile_qr_scan", "ios": "https://dc.lft.to/lastmile_qr_scan"}, "is_reserved": 0, "name": "e16b75eead8fb601d8a0ff6ef8d75654", "lon": -77.12580133333333, "type": "electric_bike", "bike_id": "e16b75eead8fb601d8a0ff6ef8d75654", "fusion_lon": 0.0, "lat": 38.85146866666667, "fusion_lat": 0.0}, {"is_disabled": 0, "rental_uris": {"android": "https://dc.lft.to/lastmile_qr_scan", "ios": "https://dc.lft.to/lastmile_qr_scan"}, "is_reserved": 0, "name": "851f0e7354366eaa09590ce177383647", "lon": -77.04724433333334, "type": "electric_scooter", "bike_id": "851f0e7354366eaa09590ce177383647", "fusion_lon": 0.0, "lat": 38.897385666666665, "fusion_lat": 0.0}, {"is_disabled": 0, "rental_uris": {"android": "https://dc.lft.to/lastmile_qr_scan", "ios": "https://dc.lft.to/lastmile_qr_scan"}, "is_reserved": 0, "name": "841d83df96877a3f76d6968268ce01f2", "lon": -77.0374165, "type": "electric_scooter", "bike_id": "841d83df96877a3f76d6968268ce01f2", "fusion_lon": 0.0, "lat": 38.91198166666667, "fusion_lat": 0.0}, {"is_disabled": 0, "rental_uris": {"android": "https://dc.lft.to/lastmile_qr_scan", "ios": "https://dc.lft.to/lastmile_qr_scan"}, "is_reserved": 0, "name": "bd8f8e5c861c46651959d81465d2d8dd", "lon": -76.98268466666667, "type": "electric_scooter", "bike_id": "bd8f8e5c861c46651959d81465d2d8dd", "fusion_lon": 0.0, "lat": 38.885318, "fusion_lat": 0.0}, {"is_disabled": 0, "rental_uris": {"android": "https://dc.lft.to/lastmile_qr_scan", "ios": "https://dc.lft.to/lastmile_qr_scan"}, "is_reserved": 0, "name": "50ab7c5e4bb87e533e6ab92c620cd87f", "lon": -77.01851566666667, "type": "electric_scooter", "bike_id": "50ab7c5e4bb87e533e6ab92c620cd87f", "fusion_lon": 0.0, "lat": 38.9216525, "fusion_lat": 0.0}, {"is_disabled": 0, "rental_uris": {"android": "https://dc.lft.to/lastmile_qr_scan", "ios": "https://dc.lft.to/lastmile_qr_scan"}, "is_reserved": 0, "name": "613465081963b1ee9b139f3fbb944f92", "lon": -76.93227316666666, "type": "electric_bike", "bike_id": "613465081963b1ee9b139f3fbb944f92", "fusion_lon": 0.0, "lat": 38.865973333333336, "fusion_lat": 0.0}, {"is_disabled": 0, "rental_uris": {"android": "https://dc.lft.to/lastmile_qr_scan", "ios": "https://dc.lft.to/lastmile_qr_scan"}, "is_reserved": 0, "name": "48d5b7f9413b0d96bc0522d5b37e12e2", "lon": -77.02506316666667, "type": "electric_scooter", "bike_id": "48d5b7f9413b0d96bc0522d5b37e12e2", "fusion_lon": 0.0, "lat": 38.919511166666666, "fusion_lat": 0.0}, {"is_disabled": 0, "rental_uris": {"android": "https://dc.lft.to/lastmile_qr_scan", "ios": "https://dc.lft.to/lastmile_qr_scan"}, "is_reserved": 0, "name": "4de5adaae8edc8b86a6c9aa78782b404", "lon": -76.985684, "type": "electric_scooter", "bike_id": "4de5adaae8edc8b86a6c9aa78782b404", "fusion_lon": 0.0, "lat": 38.89617666666667, "fusion_lat": 0.0}, {"is_disabled": 0, "rental_uris": {"android": "https://dc.lft.to/lastmile_qr_scan", "ios": "https://dc.lft.to/lastmile_qr_scan"}, "is_reserved": 0, "name": "46a42d6395bd412ccf701d51d826195c", "lon": -77.02625716666667, "type": "electric_scooter", "bike_id": "46a42d6395bd412ccf701d51d826195c", "fusion_lon": 0.0, "lat": 38.915678166666666, "fusion_lat": 0.0}, {"is_disabled": 0, "rental_uris": {"android": "https://dc.lft.to/lastmile_qr_scan", "ios": "https://dc.lft.to/lastmile_qr_scan"}, "is_reserved": 0, "name": "b3ef1beb642bda413786e11d24ea312b", "lon": -77.02776366666667, "type": "electric_scooter", "bike_id": "b3ef1beb642bda413786e11d24ea312b", "fusion_lon": 0.0, "lat": 38.917043666666665, "fusion_lat": 0.0}, {"is_disabled": 0, "rental_uris": {"android": "https://dc.lft.to/lastmile_qr_scan", "ios": "https://dc.lft.to/lastmile_qr_scan"}, "is_reserved": 0, "name": "05bfd2c6552615d01214b3daf00487a2", "lon": -77.04500033333333, "type": "electric_scooter", "bike_id": "05bfd2c6552615d01214b3daf00487a2", "fusion_lon": 0.0, "lat": 38.90662016666667, "fusion_lat": 0.0}, {"is_disabled": 0, "rental_uris": {"android": "https://dc.lft.to/lastmile_qr_scan", "ios": "https://dc.lft.to/lastmile_qr_scan"}, "is_reserved": 0, "name": "4f821a02f45eec69c4152c9220a47d94", "lon": -77.02649683333334, "type": "electric_scooter", "bike_id": "4f821a02f45eec69c4152c9220a47d94", "fusion_lon": 0.0, "lat": 38.896033333333335, "fusion_lat": 0.0}, {"is_disabled": 0, "rental_uris": {"android": "https://dc.lft.to/lastmile_qr_scan", "ios": "https://dc.lft.to/lastmile_qr_scan"}, "is_reserved": 0, "name": "5e22456c4152f87de351140c40cd2f91", "lon": -76.99504483333334, "type": "electric_scooter", "bike_id": "5e22456c4152f87de351140c40cd2f91", "fusion_lon": 0.0, "lat": 38.8982065, "fusion_lat": 0.0}, {"is_disabled": 0, "rental_uris": {"android": "https://dc.lft.to/lastmile_qr_scan", "ios": "https://dc.lft.to/lastmile_qr_scan"}, "is_reserved": 0, "name": "6fbba13aee53c2cc3d700ea95b75fad6", "lon": -77.04809316666666, "type": "electric_scooter", "bike_id": "6fbba13aee53c2cc3d700ea95b75fad6", "fusion_lon": 0.0, "lat": 38.9046735, "fusion_lat": 0.0}, {"is_disabled": 0, "rental_uris": {"android": "https://dc.lft.to/lastmile_qr_scan", "ios": "https://dc.lft.to/lastmile_qr_scan"}, "is_reserved": 0, "name": "e3768167af41788e8d318e961828c171", "lon": -77.04766216666667, "type": "electric_scooter", "bike_id": "e3768167af41788e8d318e961828c171", "fusion_lon": 0.0, "lat": 38.912468, "fusion_lat": 0.0}, {"is_disabled": 0, "rental_uris": {"android": "https://dc.lft.to/lastmile_qr_scan", "ios": "https://dc.lft.to/lastmile_qr_scan"},