{"data": {"bikes": [{"bike_id": "bc28c07da5b45785e0342703c224d8f4", "fusion_lon": 0.0, "type": "electric_scooter", "name": "bc28c07da5b45785e0342703c224d8f4", "rental_uris": {"android": "https://dc.lft.to/lastmile_qr_scan", "ios": "https://dc.lft.to/lastmile_qr_scan"}, "fusion_lat": 0.0, "lat": 38.89563416666667, "is_disabled": 0, "lon": -77.02173083333334, "is_reserved": 0}, {"bike_id": "52f6063de0d425e395c497269a871428", "fusion_lon": 0.0, "type": "electric_bike", "name": "52f6063de0d425e395c497269a871428", "rental_uris": {"android": "https://dc.lft.to/lastmile_qr_scan", "ios": "https://dc.lft.to/lastmile_qr_scan"}, "fusion_lat": 0.0, "lat": 38.9540895, "is_disabled": 0, "lon": -76.94291483333333, "is_reserved": 0}, {"bike_id": "8f2fa9fd24e0bbd0620fb52370617709", "fusion_lon": 0.0, "type": "electric_scooter", "name": "8f2fa9fd24e0bbd0620fb52370617709", "rental_uris": {"android": "https://dc.lft.to/lastmile_qr_scan", "ios": "https://dc.lft.to/lastmile_qr_scan"}, "fusion_lat": 0.0, "lat": 38.924137333333334, "is_disabled": 0, "lon": -77.01946833333334, "is_reserved": 0}, {"bike_id": "253b19327567bd18887bb1163ba93b0f", "fusion_lon": 0.0, "type": "electric_scooter", "name": "253b19327567bd18887bb1163ba93b0f", "rental_uris": {"android": "https://dc.lft.to/lastmile_qr_scan", "ios": "https://dc.lft.to/lastmile_qr_scan"}, "fusion_lat": 0.0, "lat": 38.8461945, "is_disabled": 0, "lon": -76.996315, "is_reserved": 0}, {"bike_id": "e337c2a696de3d154e07c3fd20e37cee", "fusion_lon": 0.0, "type": "electric_scooter", "name": "e337c2a696de3d154e07c3fd20e37cee", "rental_uris": {"android": "https://dc.lft.to/lastmile_qr_scan", "ios": "https://dc.lft.to/lastmile_qr_scan"}, "fusion_lat": 0.0, "lat": 38.89729066666666, "is_disabled": 0, "lon": -77.02874, "is_reserved": 0}, {"bike_id": "ed3ff5c516e77de59ae9277b7405c55a", "fusion_lon": 0.0, "type": "electric_scooter", "name": "ed3ff5c516e77de59ae9277b7405c55a", "rental_uris": {"android": "https://dc.lft.to/lastmile_qr_scan", "ios": "https://dc.lft.to/lastmile_qr_scan"}, "fusion_lat": 0.0, "lat": 38.93411833333333, "is_disabled": 0, "lon": -77.03283066666667, "is_reserved": 0}, {"bike_id": "246dfd1747fe871b41c2a08ff408fbee", "fusion_lon": 0.0, "type": "electric_bike", "name": "246dfd1747fe871b41c2a08ff408fbee", "rental_uris": {"android": "https://dc.lft.to/lastmile_qr_scan", "ios": "https://dc.lft.to/lastmile_qr_scan"}, "fusion_lat": 0.0, "lat": 38.98821483333333, "is_disabled": 0, "lon": -76.987637, "is_reserved": 0}, {"bike_id": "70f08e32a9a766b0d119682783806b2f", "fusion_lon": 0.0, "type": "electric_scooter", "name": "70f08e32a9a766b0d119682783806b2f", "rental_uris": {"android": "https://dc.lft.to/lastmile_qr_scan", "ios": "https://dc.lft.to/lastmile_qr_scan"}, "fusion_lat": 0.0, "lat": 38.9021635, "is_disabled": 0, "lon": -77.05152733333334, "is_reserved": 0}, {"bike_id": "339a612ef253ab972bb75995958b469b", "fusion_lon": 0.0, "type": "electric_scooter", "name": "339a612ef253ab972bb75995958b469b", "rental_uris": {"android": "https://dc.lft.to/lastmile_qr_scan", "ios": "https://dc.lft.to/lastmile_qr_scan"}, "fusion_lat": 0.0, "lat": 38.844235833333336, "is_disabled": 0, "lon": -76.99785716666666, "is_reserved": 0}, {"bike_id": "0677880a30fbece3c12c982fac3fc865", "fusion_lon": 0.0, "type": "electric_scooter", "name": "0677880a30fbece3c12c982fac3fc865", "rental_uris": {"android": "https://dc.lft.to/lastmile_qr_scan", "ios": "https://dc.lft.to/lastmile_qr_scan"}, "fusion_lat": 0.0, "lat": 38.917671, "is_disabled": 0, "lon": -77.02304266666667, "is_reserved": 0}, {"bike_id": "ac6e4f5eb3255909cbc74c8fdaa38b3d", "fusion_lon": 0.0, "type": "electric_scooter", "name": "ac6e4f5eb3255909cbc74c8fdaa38b3d", "rental_uris": {"android": "https://dc.lft.to/lastmile_qr_scan", "ios": "https://dc.lft.to/lastmile_qr_scan"}, "fusion_lat": 0.0, "lat": 38.901842, "is_disabled": 0, "lon": -76.934653, "is_reserved": 0}, {"bike_id": "5188b50a18f4388434de4e0af0ecfed6", "fusion_lon": 0.0, "type": "electric_scooter", "name": "5188b50a18f4388434de4e0af0ecfed6", "rental_uris": {"android": "https://dc.lft.to/lastmile_qr_scan", "ios": "https://dc.lft.to/lastmile_qr_scan"}, "fusion_lat": 0.0, "lat": 38.93564, "is_disabled": 0, "lon": -77.02141483333334, "is_reserved": 0}, {"bike_id": "c45ec83214bd87e500e116eb156e780c", "fusion_lon": 0.0, "type": "electric_scooter", "name": "c45ec83214bd87e500e116eb156e780c", "rental_uris": {"android": "https://dc.lft.to/lastmile_qr_scan", "ios": "https://dc.lft.to/lastmile_qr_scan"}, "fusion_lat": 0.0, "lat": 38.92977166666667, "is_disabled": 0, "lon": -77.031908, "is_reserved": 0}, {"bike_id": "01f324cfb739bf803066d99b2732bdf9", "fusion_lon": 0.0, "type": "electric_scooter", "name": "01f324cfb739bf803066d99b2732bdf9", "rental_uris": {"android": "https://dc.lft.to/lastmile_qr_scan", "ios": "https://dc.lft.to/lastmile_qr_scan"}, "fusion_lat": 0.0, "lat": 38.929077666666664, "is_disabled": 0, "lon": -77.02097833333333, "is_reserved": 0}, {"bike_id": "a8c08a5119301f4020cf8436e93c371a", "fusion_lon": 0.0, "type": "electric_scooter", "name": "a8c08a5119301f4020cf8436e93c371a", "rental_uris": {"android": "https://dc.lft.to/lastmile_qr_scan", "ios": "https://dc.lft.to/lastmile_qr_scan"}, "fusion_lat": 0.0, "lat": 38.84289833333333, "is_disabled": 0, "lon": -76.99951433333334, "is_reserved": 0}, {"bike_id": "2c23a3a3d61a7b3102631fcaeec06088", "fusion_lon": 0.0, "type": "electric_scooter", "name": "2c23a3a3d61a7b3102631fcaeec06088", "rental_uris": {"android": "https://dc.lft.to/lastmile_qr_scan", "ios": "https://dc.lft.to/lastmile_qr_scan"}, "fusion_lat": 0.0, "lat": 38.898211, "is_disabled": 0, "lon": -77.03330333333334, "is_reserved": 0}, {"bike_id": "efab1a8babd1fd4fbeaab27b1ebf8885", "fusion_lon": 0.0, "type": "electric_scooter", "name": "efab1a8babd1fd4fbeaab27b1ebf8885", "rental_uris": {"android": "https://dc.lft.to/lastmile_qr_scan", "ios": "https://dc.lft.to/lastmile_qr_scan"}, "fusion_lat": 0.0, "lat": 38.900428833333336, "is_disabled": 0, "lon": -77.04831466666667, "is_reserved": 0}, {"bike_id": "5f96e1166ef3f5bdb9c15096db4b50f5", "fusion_lon": 0.0, "type": "electric_scooter", "name": "5f96e1166ef3f5bdb9c15096db4b50f5", "rental_uris": {"android": "https://dc.lft.to/lastmile_qr_scan", "ios": "https://dc.lft.to/lastmile_qr_scan"}, "fusion_lat": 0.0, "lat": 38.877153, "is_disabled": 0, "lon": -77.01810016666667, "is_reserved": 0}, {"bike_id": "e2b0deee0cfcdcd4e36d521af6cf066b", "fusion_lon": 0.0, "type": "electric_scooter", "name": "e2b0deee0cfcdcd4e36d521af6cf066b", "rental_uris": {"android": "https://dc.lft.to/lastmile_qr_scan", "ios": "https://dc.lft.to/lastmile_qr_scan"}, "fusion_lat": 0.0, "lat": 38.94096833333333, "is_disabled": 0, "lon": -77.0211205, "is_reserved": 0}, {"bike_id": "cf1c1982cd38785ebdb66348fc57de56", "fusion_lon": 0.0, "type": "electric_scooter", "name": "cf1c1982cd38785ebdb66348fc57de56", "rental_uris": {"android": "https://dc.lft.to/lastmile_qr_scan", "ios": "https://dc.lft.to/lastmile_qr_scan"}, "fusion_lat": 0.0, "lat": 38.871985, "is_disabled": 0, "lon": -77.012529, "is_reserved": 0}, {"bike_id": "75d68d8e1af358c1ab3b085ccf360b03", "fusion_lon": 0.0, "type": "electric_scooter", "name": "75d68d8e1af358c1ab3b085ccf360b03", "rental_uris": {"android": "https://dc.lft.to/lastmile_qr_scan", "ios": "https://dc.lft.to/lastmile_qr_scan"}, "fusion_lat": 0.0, "lat": 38.924102500000004, "is_disabled": 0, "lon": -77.051748, "is_reserved": 0}, {"bike_id": "e1598db3091fbd77e1342fd3a67db272", "fusion_lon": 0.0, "type": "electric_scooter", "name": "e1598db3091fbd77e1342fd3a67db272", "rental_uris": {"android": "https://dc.lft.to/lastmile_qr_scan", "ios": "https://dc.lft.to/lastmile_qr_scan"}, "fusion_lat": 0.0, "lat": 38.907769, "is_disabled": 0, "lon": -77.0449145, "is_reserved": 0}, {"bike_id": "0e04f20ca3f028b8fb0550bd35edb4b3", "fusion_lon": 0.0, "type": "electric_scooter", "name": "0e04f20ca3f028b8fb0550bd35edb4b3", "rental_uris": {"android": "https://dc.lft.to/lastmile_qr_scan", "ios": "https://dc.lft.to/lastmile_qr_scan"}, "fusion_lat": 0.0, "lat": 38.924587, "is_disabled": 0, "lon": -77.02162533333333, "is_reserved": 0}, {"bike_id": "fad9da4cfbc2ce1fc682cc2bd862c2d2", "fusion_lon": 0.0, "type": "electric_scooter", "name": "fad9da4cfbc2ce1fc682cc2bd862c2d2", "rental_uris": {"android": "https://dc.lft.to/lastmile_qr_scan", "ios": "https://dc.lft.to/lastmile_qr_scan"}, "fusion_lat": 0.0, "lat": 38.908440666666664, "is_disabled": 0, "lon": -77.02697416666666, "is_reserved": 0}, {"bike_id": "abffa817a60382b4835b1f53be0a0d07", "fusion_lon": 0.0, "type": "electric_scooter", "name": "abffa817a60382b4835b1f53be0a0d07", "rental_uris": {"android": "https://dc.lft.to/lastmile_qr_scan", "ios": "https://dc.lft.to/lastmile_qr_scan"}, "fusion_lat": 0.0, "lat": 38.912087, "is_disabled": 0, "lon": -77.0380215, "is_reserved": 0}, {"bike_id": "ac67a7a9b15d196349c4167d9fcc7ada", "fusion_lon": 0.0, "type": "electric_bike", "name": "ac67a7a9b15d196349c4167d9fcc7ada", "rental_uris": {"android": "https://dc.lft.to/lastmile_qr_scan", "ios": "https://dc.lft.to/lastmile_qr_scan"}, "fusion_lat": 0.0, "lat": 38.8923555, "is_disabled": 0, "lon": -77.01788383333333, "is_reserved": 0}, {"bike_id": "4d372ee2b902057ccd2d53fce8efb664", "fusion_lon": 0.0, "type": "electric_scooter", "name": "4d372ee2b902057ccd2d53fce8efb664", "rental_uris": {"android": "https://dc.lft.to/lastmile_qr_scan", "ios": "https://dc.lft.to/lastmile_qr_scan"}, "fusion_lat": 0.0, "lat": 38.93028783333333, "is_disabled": 0, "lon": -77.01295333333333, "is_reserved": 0}, {"bike_id": "3b35fca4ecedd166ca412ffff352ba7a", "fusion_lon": 0.0, "type": "electric_scooter", "name": "3b35fca4ecedd166ca412ffff352ba7a", "rental_uris": {"android": "https://dc.lft.to/lastmile_qr_scan", "ios": "https://dc.lft.to/lastmile_qr_scan"}, "fusion_lat": 0.0, "lat": 38.921727, "is_disabled": 0, "lon": -77.03902366666667, "is_reserved": 0}, {"bike_id": "d78cd02b9c1b1508b6ff74f12696c115", "fusion_lon": 0.0, "type": "electric_scooter", "name": "d78cd02b9c1b1508b6ff74f12696c115", "rental_uris": {"android": "https://dc.lft.to/lastmile_qr_scan", "ios": "https://dc.lft.to/lastmile_qr_scan"}, "fusion_lat": 0.0, "lat": 38.900590666666666, "is_disabled": 0, "lon": -77.02725666666667, "is_reserved": 0}, {"bike_id": "c4f9f363a34e91f409e700df91ff0379", "fusion_lon": 0.0, "type": "electric_scooter", "name": "c4f9f363a34e91f409e700df91ff0379", "rental_uris": {"android": "https://dc.lft.to/lastmile_qr_scan", "ios": "https://dc.lft.to/lastmile_qr_scan"}, "fusion_lat": 0.0, "lat": 38.93175683333333, "is_disabled": 0, "lon": -77.034188, "is_reserved": 0}, {"bike_id": "fd875a10d6715dd296e2fcfb90405132", "fusion_lon": 0.0, "type": "electric_scooter", "name": "fd875a10d6715dd296e2fcfb90405132", "rental_uris": {"android": "https://dc.lft.to/lastmile_qr_scan", "ios": "https://dc.lft.to/lastmile_qr_scan"}, "fusion_lat": 0.0, "lat": 38.920154333333336, "is_disabled": 0, "lon": -77.01704783333334, "is_reserved": 0}, {"bike_id": "ff4134a65b506ea2e8e4d4cb92052ab1", "fusion_lon": 0.0, "type": "electric_scooter", "name": "ff4134a65b506ea2e8e4d4cb92052ab1", "rental_uris": {"android": "https://dc.lft.to/lastmile_qr_scan", "ios": "https://dc.lft.to/lastmile_qr_scan"}, "fusion_lat": 0.0, "lat": 38.909507166666664, "is_disabled": 0, "lon": -77.03950283333333, "is_reserved": 0}, {"bike_id": "5cfb814c9db544429dd4a5188b12dea6", "fusion_lon": 0.0, "type": "electric_scooter", "name": "5cfb814c9db544429dd4a5188b12dea6", "rental_uris": {"android": "https://dc.lft.to/lastmile_qr_scan", "ios": "https://dc.lft.to/lastmile_qr_scan"}, "fusion_lat": 0.0, "lat": 38.9172225, "is_disabled": 0, "lon": -77.03658066666667, "is_reserved": 0}, {"bike_id": "5137f450e4d16466e3d345aed5b95981", "fusion_lon": 0.0, "type": "electric_scooter", "name": "5137f450e4d16466e3d345aed5b95981", "rental_uris": {"android": "https://dc.lft.to/lastmile_qr_scan", "ios": "https://dc.lft.to/lastmile_qr_scan"}, "fusion_lat": 0.0, "lat": 38.900029833333335, "is_disabled": 0, "lon": -77.00029466666666, "is_reserved": 0}, {"bike_id": "93c92b7e5170b4801b8cb90adb73f2f5", "fusion_lon": 0.0, "type": "electric_scooter", "name": "93c92b7e5170b4801b8cb90adb73f2f5", "rental_uris": {"android": "https://dc.lft.to/lastmile_qr_scan", "ios": "https://dc.lft.to/lastmile_qr_scan"}, "fusion_lat": 0.0, "lat": 38.892279, "is_disabled": 0, "lon": -77.0500685, "is_reserved": 0}, {"bike_id": "a67afc8f98c53866b375ed87aacfb39b", "fusion_lon": 0.0, "type": "electric_scooter", "name": "a67afc8f98c53866b375ed87aacfb39b", "rental_uris": {"android": "https://dc.lft.to/lastmile_qr_scan", "ios": "https://dc.lft.to/lastmile_qr_scan"}, "fusion_lat": 0.0, "lat": 38.91460583333333, "is_disabled": 0, "lon": -77.04165316666666, "is_reserved": 0}, {"bike_id": "e4aa192d9c196c2626f4146ae848895a", "fusion_lon": 0.0, "type": "electric_scooter", "name": "e4aa192d9c196c2626f4146ae848895a", "rental_uris": {"android": "https://dc.lft.to/lastmile_qr_scan", "ios": "https://dc.lft.to/lastmile_qr_scan"}, "fusion_lat": 0.0, "lat": 38.91175716666667, "is_disabled": 0, "lon": -77.0846095, "is_reserved": 0}, {"bike_id": "aad6fe662107fac8b6cfa49903a49284", "fusion_lon": 0.0, "type": "electric_scooter", "name": "aad6fe662107fac8b6cfa49903a49284", "rental_uris": {"android": "https://dc.lft.to/lastmile_qr_scan", "ios": "https://dc.lft.to/lastmile_qr_scan"}, "fusion_lat": 0.0, "lat": 38.9240495, "is_disabled": 0, "lon": -77.02546616666666, "is_reserved": 0}, {"bike_id": "f37830b785100b9641c432b7173fcb7d", "fusion_lon": 0.0, "type": "electric_scooter", "name": "f37830b785100b9641c432b7173fcb7d", "rental_uris": {"android": "https://dc.lft.to/lastmile_qr_scan", "ios": "https://dc.lft.to/lastmile_qr_scan"}, "fusion_lat": 0.0, "lat": 38.89883783333333, "is_disabled": 0, "lon": -76.93161266666667, "is_reserved": 0}, {"bike_id": "aa352fe87ffd5caea3a3f6b16971b30c", "fusion_lon": 0.0, "type": "electric_scooter", "name": "aa352fe87ffd5caea3a3f6b16971b30c", "rental_uris": {"android": "https://dc.lft.to/lastmile_qr_scan", "ios": "https://dc.lft.to/lastmile_qr_scan"}, "fusion_lat": 0.0, "lat": 38.91103966666667, "is_disabled": 0, "lon": -77.03846633333333, "is_reserved": 0}, {"bike_id": "33714d6d8da9cd452d78b6153f5758fe", "fusion_lon": 0.0, "type": "electric_scooter", "name": "33714d6d8da9cd452d78b6153f5758fe", "rental_uris": {"android": "https://dc.lft.to/lastmile_qr_scan", "ios": "https://dc.lft.to/lastmile_qr_scan"}, "fusion_lat": 0.0, "lat": 38.91848816666667, "is_disabled": 0, "lon": -77.0415995, "is_reserved": 0}, {"bike_id": "bcd55eb39f7004a320672d9bc8e72073", "fusion_lon": 0.0, "type": "electric_scooter", "name": "bcd55eb39f7004a320672d9bc8e72073", "rental_uris": {"android": "https://dc.lft.to/lastmile_qr_scan", "ios": "https://dc.lft.to/lastmile_qr_scan"}, "fusion_lat": 0.0, "lat": 38.902459, "is_disabled": 0, "lon": -77.034397, "is_reserved": 0}, {"bike_id": "dda03ba007825a06b440930c57763cfd", "fusion_lon": 0.0, "type": "electric_scooter", "name": "dda03ba007825a06b440930c57763cfd", "rental_uris": {"android": "https://dc.lft.to/lastmile_qr_scan", "ios": "https://dc.lft.to/lastmile_qr_scan"}, "fusion_lat": 0.0, "lat": 38.90353116666667, "is_disabled": 0, "lon": -77.02895866666667, "is_reserved": 0}, {"bike_id": "649cdbad8d6d20d2e3b9e279cfe8da3d", "fusion_lon": 0.0, "type": "electric_scooter", "name": "649cdbad8d6d20d2e3b9e279cfe8da3d", "rental_uris": {"android": "https://dc.lft.to/lastmile_qr_scan", "ios": "https://dc.lft.to/lastmile_qr_scan"}, "fusion_lat": 0.0, "lat": 38.91174316666667, "is_disabled": 0, "lon": -76.98770933333333, "is_reserved": 0}, {"bike_id": "8bea613a5aa2cd5febc332ebfdc7a962", "fusion_lon": 0.0, "type": "electric_scooter", "name": "8bea613a5aa2cd5febc332ebfdc7a962", "rental_uris": {"android": "https://dc.lft.to/lastmile_qr_scan", "ios": "https://dc.lft.to/lastmile_qr_scan"}, "fusion_lat": 0.0, "lat": 38.904321333333336, "is_disabled": 0, "lon": -77.0465535, "is_reserved": 0}, {"bike_id": "0e55d1fe411bcedc72054ed95b695dbf", "fusion_lon": 0.0, "type": "electric_scooter", "name": "0e55d1fe411bcedc72054ed95b695dbf", "rental_uris": {"android": "https://dc.lft.to/lastmile_qr_scan", "ios": "https://dc.lft.to/lastmile_qr_scan"}, "fusion_lat": 0.0, "lat": 38.90792666666667, "is_disabled": 0, "lon": -76.94121033333333, "is_reserved": 0}, {"bike_id": "bb6246ab591196da518d5dce2a923d2e", "fusion_lon": 0.0, "type": "electric_scooter", "name": "bb6246ab591196da518d5dce2a923d2e", "rental_uris": {"android": "https://dc.lft.to/lastmile_qr_scan", "ios": "https://dc.lft.to/lastmile_qr_scan"}, "fusion_lat": 0.0, "lat": 38.898331, "is_disabled": 0, "lon": -77.01781916666667, "is_reserved": 0}, {"bike_id": "e6218f03b0e8f701a2b1b6d5d8ffbdfe", "fusion_lon": 0.0, "type": "electric_scooter", "name": "e6218f03b0e8f701a2b1b6d5d8ffbdfe", "rental_uris": {"android": "https://dc.lft.to/lastmile_qr_scan", "ios": "https://dc.lft.to/lastmile_qr_scan"}, "fusion_lat": 0.0, "lat": 38.90288066666667, "is_disabled": 0, "lon": -76.9366255, "is_reserved": 0}, {"bike_id": "c9fc1818b391e25fa57ae10c3717360d", "fusion_lon": 0.0, "type": "electric_scooter", "name": "c9fc1818b391e25fa57ae10c3717360d", "rental_uris": {"android": "https://dc.lft.to/lastmile_qr_scan", "ios": "https://dc.lft.to/lastmile_qr_scan"}, "fusion_lat": 0.0, "lat": 38.9141585, "is_disabled": 0, "lon": -77.04024233333334, "is_reserved": 0}, {"bike_id": "ae716b82b91e80c70f0bf80308f49dd6", "fusion_lon": 0.0, "type": "electric_scooter", "name": "ae716b82b91e80c70f0bf80308f49dd6", "rental_uris": {"android": "https://dc.lft.to/lastmile_qr_scan", "ios": "https://dc.lft.to/lastmile_qr_scan"}, "fusion_lat": 0.0, "lat": 38.88733533333333, "is_disabled": 0, "lon": -77.02393833333333, "is_reserved": 0}, {"bike_id": "c5cd35fa611cc931bf4e1dd2f3de12a4", "fusion_lon": 0.0, "type": "electric_scooter", "name": "c5cd35fa611cc931bf4e1dd2f3de12a4", "rental_uris": {"android": "https://dc.lft.to/lastmile_qr_scan", "ios": "https://dc.lft.to/lastmile_qr_scan"}, "fusion_lat": 0.0, "lat": 38.8557475, "is_disabled": 0, "lon": -76.986883, "is_reserved": 0}, {"bike_id": "3250437fa92773252d37df383cd4d479", "fusion_lon": 0.0, "type": "electric_scooter", "name": "3250437fa92773252d37df383cd4d479", "rental_uris": {"android": "https://dc.lft.to/lastmile_qr_scan", "ios": "https://dc.lft.to/lastmile_qr_scan"}, "fusion_lat": 0.0, "lat": 38.94222833333333, "is_disabled": 0, "lon": -77.061664, "is_reserved": 0}, {"bike_id": "ffc24e7894e6086adaf308e777e754d1", "fusion_lon": 0.0, "type": "electric_scooter", "name": "ffc24e7894e6086adaf308e777e754d1", "rental_uris": {"android": "https://dc.lft.to/lastmile_qr_scan", "ios": "https://dc.lft.to/lastmile_qr_scan"}, "fusion_lat": 0.0, "lat": 38.900093, "is_disabled": 0, "lon": -77.045022, "is_reserved": 0}, {"bike_id": "64dbe003d21454775e5bc322249c3f57", "fusion_lon": 0.0, "type": "electric_scooter", "name": "64dbe003d21454775e5bc322249c3f57", "rental_uris": {"android": "https://dc.lft.to/lastmile_qr_scan", "ios": "https://dc.lft.to/lastmile_qr_scan"}, "fusion_lat": 0.0, "lat": 38.906994833333336, "is_disabled": 0, "lon": -76.9870225, "is_reserved": 0}, {"bike_id": "11e8dbbd803c59df777e9a8902f4373a", "fusion_lon": 0.0, "type": "electric_scooter", "name": "11e8dbbd803c59df777e9a8902f4373a", "rental_uris": {"android": "https://dc.lft.to/lastmile_qr_scan", "ios": "https://dc.lft.to/lastmile_qr_scan"}, "fusion_lat": 0.0, "lat": 38.88737533333333, "is_disabled": 0, "lon": -77.02832383333333, "is_reserved": 0}, {"bike_id": "a57c9afcfa6d183f948a2a552ac067ec", "fusion_lon": 0.0, "type": "electric_scooter", "name": "a57c9afcfa6d183f948a2a552ac067ec", "rental_uris": {"android": "https://dc.lft.to/lastmile_qr_scan", "ios": "https://dc.lft.to/lastmile_qr_scan"}, "fusion_lat": 0.0, "lat": 38.908648166666666, "is_disabled": 0, "lon": -76.9994555, "is_reserved": 0}, {"bike_id": "6dc0176e3d5f7d6022876657170eaa8d", "fusion_lon": 0.0, "type": "electric_scooter", "name": "6dc0176e3d5f7d6022876657170eaa8d", "rental_uris": {"android": "https://dc.lft.to/lastmile_qr_scan", "ios": "https://dc.lft.to/lastmile_qr_scan"}, "fusion_lat": 0.0, "lat": 38.9355475, "is_disabled": 0, "lon": -77.03462583333334, "is_reserved": 0}, {"bike_id": "2b01c3b058422d7fa9f1c04b52c5f976", "fusion_lon": 0.0, "type": "electric_scooter", "name": "2b01c3b058422d7fa9f1c04b52c5f976", "rental_uris": {"android": "https://dc.lft.to/lastmile_qr_scan", "ios": "https://dc.lft.to/lastmile_qr_scan"}, "fusion_lat": 0.0, "lat": 38.89481216666667, "is_disabled": 0, "lon": -77.04545516666667, "is_reserved": 0}, {"bike_id": "cb64e18da1b2b873d0ec8384935258f0", "fusion_lon": 0.0, "type": "electric_scooter", "name": "cb64e18da1b2b873d0ec8384935258f0", "rental_uris": {"android": "https://dc.lft.to/lastmile_qr_scan", "ios": "https://dc.lft.to/lastmile_qr_scan"}, "fusion_lat": 0.0, "lat": 38.93734933333333, "is_disabled": 0, "lon": -77.03504166666667, "is_reserved": 0}, {"bike_id": "b79d527578bb010d16af92581adf5d64", "fusion_lon": 0.0, "type": "electric_scooter", "name": "b79d527578bb010d16af92581adf5d64", "rental_uris": {"android": "https://dc.lft.to/lastmile_qr_scan", "ios": "https://dc.lft.to/lastmile_qr_scan"}, "fusion_lat": 0.0, "lat": 38.92032316666667, "is_disabled": 0, "lon": -76.97022483333333, "is_reserved": 0}, {"bike_id": "c69c106bbe2b2cc326916bd47f212126", "fusion_lon": 0.0, "type": "electric_bike", "name": "c69c106bbe2b2cc326916bd47f212126", "rental_uris": {"android": "https://dc.lft.to/lastmile_qr_scan", "ios": "https://dc.lft.to/lastmile_qr_scan"}, "fusion_lat": 0.0, "lat": 38.89628316666666, "is_disabled": 0, "lon": -76.94780966666667, "is_reserved": 0}, {"bike_id": "0b500af18d512212e83cbe6e7efd229d", "fusion_lon": 0.0, "type": "electric_scooter", "name": "0b500af18d512212e83cbe6e7efd229d", "rental_uris": {"android": "https://dc.lft.to/lastmile_qr_scan", "ios": "https://dc.lft.to/lastmile_qr_scan"}, "fusion_lat": 0.0, "lat": 38.89817333333333, "is_disabled": 0, "lon": -77.03331916666667, "is_reserved": 0}, {"bike_id": "1b49a56f0c370844034ec398e459cc04", "fusion_lon": 0.0, "type": "electric_scooter", "name": "1b49a56f0c370844034ec398e459cc04", "rental_uris": {"android": "https://dc.lft.to/lastmile_qr_scan", "ios": "https://dc.lft.to/lastmile_qr_scan"}, "fusion_lat": 0.0, "lat": 38.8428195, "is_disabled": 0, "lon": -76.99088483333334, "is_reserved": 0}, {"bike_id": "197f28bba36cce7fa96f10c15800d914", "fusion_lon": 0.0, "type": "electric_scooter", "name": "197f28bba36cce7fa96f10c15800d914", "rental_uris": {"android": "https://dc.lft.to/lastmile_qr_scan", "ios": "https://dc.lft.to/lastmile_qr_scan"}, "fusion_lat": 0.0, "lat": 38.904007166666666, "is_disabled": 0, "lon": -77.05136716666667, "is_reserved": 0}, {"bike_id": "34395d470d8caccb858b8296bf861883", "fusion_lon": 0.0, "type": "electric_scooter", "name": "34395d470d8caccb858b8296bf861883", "rental_uris": {"android": "https://dc.lft.to/lastmile_qr_scan", "ios": "https://dc.lft.to/lastmile_qr_scan"}, "fusion_lat": 0.0, "lat": 38.93918, "is_disabled": 0, "lon": -77.01901766666667, "is_reserved": 0}, {"bike_id": "11e9e3182cfa30cd454f81a807969639", "fusion_lon": 0.0, "type": "electric_scooter", "name": "11e9e3182cfa30cd454f81a807969639", "rental_uris": {"android": "https://dc.lft.to/lastmile_qr_scan", "ios": "https://dc.lft.to/lastmile_qr_scan"}, "fusion_lat": 0.0, "lat": 38.89244083333333, "is_disabled": 0, "lon": -77.03169966666667, "is_reserved": 0}, {"bike_id": "cfedc1d08f21d0c42ca1cca6f8478bca", "fusion_lon": 0.0, "type": "electric_scooter", "name": "cfedc1d08f21d0c42ca1cca6f8478bca", "rental_uris": {"android": "https://dc.lft.to/lastmile_qr_scan", "ios": "https://dc.lft.to/lastmile_qr_scan"}, "fusion_lat": 0.0, "lat": 38.91765633333333, "is_disabled": 0, "lon": -77.01884883333334, "is_reserved": 0}, {"bike_id": "1444290dd18ff0418158516476f1bbba", "fusion_lon": 0.0, "type": "electric_scooter", "name": "1444290dd18ff0418158516476f1bbba", "rental_uris": {"android": "https://dc.lft.to/lastmile_qr_scan", "ios": "https://dc.lft.to/lastmile_qr_scan"}, "fusion_lat": 0.0, "lat": 38.96625216666666, "is_disabled": 0, "lon": -77.02757483333333, "is_reserved": 0}, {"bike_id": "6a03f0971ce4ee4e26277cb19c0446ea", "fusion_lon": 0.0, "type": "electric_scooter", "name": "6a03f0971ce4ee4e26277cb19c0446ea", "rental_uris": {"android": "https://dc.lft.to/lastmile_qr_scan", "ios": "https://dc.lft.to/lastmile_qr_scan"}, "fusion_lat": 0.0, "lat": 38.90937516666666, "is_disabled": 0, "lon": -76.99909616666666, "is_reserved": 0}, {"bike_id": "d49a9d173e8a2b81eae3e389207a514a", "fusion_lon": 0.0, "type": "electric_scooter", "name": "d49a9d173e8a2b81eae3e389207a514a", "rental_uris": {"android": "https://dc.lft.to/lastmile_qr_scan", "ios": "https://dc.lft.to/lastmile_qr_scan"}, "fusion_lat": 0.0, "lat": 38.88742633333333, "is_disabled": 0, "lon": -77.02576516666667, "is_reserved": 0}, {"bike_id": "43336cc7fe27aa7dfc909152b397300f", "fusion_lon": 0.0, "type": "electric_scooter", "name": "43336cc7fe27aa7dfc909152b397300f", "rental_uris": {"android": "https://dc.lft.to/lastmile_qr_scan", "ios": "https://dc.lft.to/lastmile_qr_scan"}, "fusion_lat": 0.0, "lat": 38.90358916666667, "is_disabled": 0, "lon": -77.04052833333333, "is_reserved": 0}, {"bike_id": "3e54e3f9f8ae3dd7fca1a8baf28286dd", "fusion_lon": 0.0, "type": "electric_scooter", "name": "3e54e3f9f8ae3dd7fca1a8baf28286dd", "rental_uris": {"android": "https://dc.lft.to/lastmile_qr_scan", "ios": "https://dc.lft.to/lastmile_qr_scan"}, "fusion_lat": 0.0, "lat": 38.92686583333333, "is_disabled": 0, "lon": -77.02294883333333, "is_reserved": 0}, {"bike_id": "437684c4a1a0595c411d613a50d99f5a", "fusion_lon": 0.0, "type": "electric_scooter", "name": "437684c4a1a0595c411d613a50d99f5a", "rental_uris": {"android": "https://dc.lft.to/lastmile_qr_scan", "ios": "https://dc.lft.to/lastmile_qr_scan"}, "fusion_lat": 0.0, "lat": 38.92320933333333, "is_disabled": 0, "lon": -77.035828, "is_reserved": 0}, {"bike_id": "033753e8f86f7156b8e11e76ab229c0b", "fusion_lon": 0.0, "type": "electric_bike", "name": "033753e8f86f7156b8e11e76ab229c0b", "rental_uris": {"android": "https://dc.lft.to/lastmile_qr_scan", "ios": "https://dc.lft.to/lastmile_qr_scan"}, "fusion_lat": 0.0, "lat": 38.802894, "is_disabled": 0, "lon": -77.03990783333333, "is_reserved": 0}, {"bike_id": "a6818fd872028099ea917f852a9b0498", "fusion_lon": 0.0, "type": "electric_scooter", "name": "a6818fd872028099ea917f852a9b0498", "rental_uris": {"android": "https://dc.lft.to/lastmile_qr_scan", "ios": "https://dc.lft.to/lastmile_qr_scan"}, "fusion_lat": 0.0, "lat": 38.928295166666665, "is_disabled": 0, "lon": -77.02161316666667, "is_reserved": 0}, {"bike_id": "0721baafd07c2d59324ed1b2dcd84adf", "fusion_lon": 0.0, "type": "electric_scooter", "name": "0721baafd07c2d59324ed1b2dcd84adf", "rental_uris": {"android": "https://dc.lft.to/lastmile_qr_scan", "ios": "https://dc.lft.to/lastmile_qr_scan"}, "fusion_lat": 0.0, "lat": 38.84467766666667, "is_disabled": 0, "lon": -76.995189, "is_reserved": 0}, {"bike_id": "1fe878d664a9967d4af106363d149858", "fusion_lon": 0.0, "type": "electric_scooter", "name": "1fe878d664a9967d4af106363d149858", "rental_uris": {"android": "https://dc.lft.to/lastmile_qr_scan", "ios": "https://dc.lft.to/lastmile_qr_scan"}, "fusion_lat": 0.0, "lat": 38.91877233333334, "is_disabled": 0, "lon": -77.0376515, "is_reserved": 0}, {"bike_id": "7c368c4b991ba8a5fdf0d66e2cfe0a4b", "fusion_lon": 0.0, "type": "electric_scooter", "name": "7c368c4b991ba8a5fdf0d66e2cfe0a4b", "rental_uris": {"android": "https://dc.lft.to/lastmile_qr_scan", "ios": "https://dc.lft.to/lastmile_qr_scan"}, "fusion_lat": 0.0, "lat": 38.9059405, "is_disabled": 0, "lon": -77.07016916666667, "is_reserved": 0}, {"bike_id": "0efae5ea856f167a409d68385c8c9b01", "fusion_lon": 0.0, "type": "electric_scooter", "name": "0efae5ea856f167a409d68385c8c9b01", "rental_uris": {"android": "https://dc.lft.to/lastmile_qr_scan", "ios": "https://dc.lft.to/lastmile_qr_scan"}, "fusion_lat": 0.0, "lat": 38.90364483333333, "is_disabled": 0, "lon": -77.03326133333333, "is_reserved": 0}, {"bike_id": "3db16173ad45d4f57cf6513acdff5bbf", "fusion_lon": 0.0, "type": "electric_scooter", "name": "3db16173ad45d4f57cf6513acdff5bbf", "rental_uris": {"android": "https://dc.lft.to/lastmile_qr_scan", "ios": "https://dc.lft.to/lastmile_qr_scan"}, "fusion_lat": 0.0, "lat": 38.917033333333336, "is_disabled": 0, "lon": -77.03864033333333, "is_reserved": 0}, {"bike_id": "8e520b8a422f770c46a2f60b0fde9bea", "fusion_lon": 0.0, "type": "electric_scooter", "name": "8e520b8a422f770c46a2f60b0fde9bea", "rental_uris": {"android": "https://dc.lft.to/lastmile_qr_scan", "ios": "https://dc.lft.to/lastmile_qr_scan"}, "fusion_lat": 0.0, "lat": 38.897267666666664, "is_disabled": 0, "lon": -77.0556535, "is_reserved": 0}, {"bike_id": "971d28a24657a1c6befcd539adb28d22", "fusion_lon": 0.0, "type": "electric_scooter", "name": "971d28a24657a1c6befcd539adb28d22", "rental_uris": {"android": "https://dc.lft.to/lastmile_qr_scan", "ios": "https://dc.lft.to/lastmile_qr_scan"}, "fusion_lat": 0.0, "lat": 38.92121783333333, "is_disabled": 0, "lon": -77.03656366666667, "is_reserved": 0}, {"bike_id": "05b1b880f63077d56d2b2335191ee807", "fusion_lon": 0.0, "type": "electric_scooter", "name": "05b1b880f63077d56d2b2335191ee807", "rental_uris": {"android": "https://dc.lft.to/lastmile_qr_scan", "ios": "https://dc.lft.to/lastmile_qr_scan"}, "fusion_lat": 0.0, "lat": 38.912638333333334, "is_disabled": 0, "lon": -77.01690516666666, "is_reserved": 0}, {"bike_id": "a6bf45052c21c9d69b365d551b070489", "fusion_lon": 0.0, "type": "electric_scooter", "name": "a6bf45052c21c9d69b365d551b070489", "rental_uris": {"android": "https://dc.lft.to/lastmile_qr_scan", "ios": "https://dc.lft.to/lastmile_qr_scan"}, "fusion_lat": 0.0, "lat": 38.909482833333335, "is_disabled": 0, "lon": -77.0320525, "is_reserved": 0}, {"bike_id": "909e2f0c1caeed6cbbe2a3bca75bd5ba", "fusion_lon": 0.0, "type": "electric_scooter", "name": "909e2f0c1caeed6cbbe2a3bca75bd5ba", "rental_uris": {"android": "https://dc.lft.to/lastmile_qr_scan", "ios": "https://dc.lft.to/lastmile_qr_scan"}, "fusion_lat": 0.0, "lat": 38.9114195, "is_disabled": 0, "lon": -77.0280645, "is_reserved": 0}, {"bike_id": "51327a64c8e17f0c48b0d17a8f991bb2", "fusion_lon": 0.0, "type": "electric_bike", "name": "51327a64c8e17f0c48b0d17a8f991bb2", "rental_uris": {"android": "https://dc.lft.to/lastmile_qr_scan", "ios": "https://dc.lft.to/lastmile_qr_scan"}, "fusion_lat": 0.0, "lat": 38.850553166666664, "is_disabled": 0, "lon": -76.9733535, "is_reserved": 0}, {"bike_id": "0c517fa8cfe26dbb5cb896fc5093f993", "fusion_lon": 0.0, "type": "electric_scooter", "name": "0c517fa8cfe26dbb5cb896fc5093f993", "rental_uris": {"android": "https://dc.lft.to/lastmile_qr_scan", "ios": "https://dc.lft.to/lastmile_qr_scan"}, "fusion_lat": 0.0, "lat": 38.8938615, "is_disabled": 0, "lon": -77.02329266666666, "is_reserved": 0}, {"bike_id": "596f3be058b48bb4a04652f1ef1220d6", "fusion_lon": 0.0, "type": "electric_scooter", "name": "596f3be058b48bb4a04652f1ef1220d6", "rental_uris": {"android": "https://dc.lft.to/lastmile_qr_scan", "ios": "https://dc.lft.to/lastmile_qr_scan"}, "fusion_lat": 0.0, "lat": 38.92883283333333, "is_disabled": 0, "lon": -77.02710033333334, "is_reserved": 0}, {"bike_id": "b5f388988d46d81acdc27a2e62ec0a24", "fusion_lon": 0.0, "type": "electric_scooter", "name": "b5f388988d46d81acdc27a2e62ec0a24", "rental_uris": {"android": "https://dc.lft.to/lastmile_qr_scan", "ios": "https://dc.lft.to/lastmile_qr_scan"}, "fusion_lat": 0.0, "lat": 38.91842833333333, "is_disabled": 0, "lon": -77.03215833333333, "is_reserved": 0}, {"bike_id": "605600b292e31fcc1874dd0aecfa1a27", "fusion_lon": 0.0, "type": "electric_scooter", "name": "605600b292e31fcc1874dd0aecfa1a27", "rental_uris": {"android": "https://dc.lft.to/lastmile_qr_scan", "ios": "https://dc.lft.to/lastmile_qr_scan"}, "fusion_lat": 0.0, "lat": 38.9036175, "is_disabled": 0, "lon": -77.0201085, "is_reserved": 0}, {"bike_id": "be0c14042a2b3d8be09f5e3980108abd", "fusion_lon": 0.0, "type": "electric_bike", "name": "be0c14042a2b3d8be09f5e3980108abd", "rental_uris": {"android": "https://dc.lft.to/lastmile_qr_scan", "ios": "https://dc.lft.to/lastmile_qr_scan"}, "fusion_lat": 0.0, "lat": 38.86617066666667, "is_disabled": 0, "lon": -76.94579683333333, "is_reserved": 0}, {"bike_id": "e1995e1f0dd1020fc8c8cc088b8b339c", "fusion_lon": 0.0, "type": "electric_scooter", "name": "e1995e1f0dd1020fc8c8cc088b8b339c", "rental_uris": {"android": "https://dc.lft.to/lastmile_qr_scan", "ios": "https://dc.lft.to/lastmile_qr_scan"}, "fusion_lat": 0.0, "lat": 38.9044245, "is_disabled": 0, "lon": -77.06114966666667, "is_reserved": 0}, {"bike_id": "32d51c086b9bac99d6f3d65eace105db", "fusion_lon": 0.0, "type": "electric_scooter", "name": "32d51c086b9bac99d6f3d65eace105db", "rental_uris": {"android": "https://dc.lft.to/lastmile_qr_scan", "ios": "https://dc.lft.to/lastmile_qr_scan"}, "fusion_lat": 0.0, "lat": 38.91702466666667, "is_disabled": 0, "lon": -77.03865416666666, "is_reserved": 0}, {"bike_id": "ba354e8d4782e16476e27db761c6596b", "fusion_lon": 0.0, "type": "electric_scooter", "name": "ba354e8d4782e16476e27db761c6596b", "rental_uris": {"android": "https://dc.lft.to/lastmile_qr_scan", "ios": "https://dc.lft.to/lastmile_qr_scan"}, "fusion_lat": 0.0, "lat": 38.892242833333334, "is_disabled": 0, "lon": -77.03227466666667, "is_reserved": 0}, {"bike_id": "4aa0dd7ee7147a867ee0e44f2071145d", "fusion_lon": 0.0, "type": "electric_scooter", "name": "4aa0dd7ee7147a867ee0e44f2071145d", "rental_uris": {"android": "https://dc.lft.to/lastmile_qr_scan", "ios": "https://dc.lft.to/lastmile_qr_scan"}, "fusion_lat": 0.0, "lat": 38.946462333333336, "is_disabled": 0, "lon": -77.03037983333333, "is_reserved": 0}, {"bike_id": "8594070d6654091731a998aa72059717", "fusion_lon": 0.0, "type": "electric_scooter", "name": "8594070d6654091731a998aa72059717", "rental_uris": {"android": "https://dc.lft.to/lastmile_qr_scan", "ios": "https://dc.lft.to/lastmile_qr_scan"}, "fusion_lat": 0.0, "lat": 38.92902816666667, "is_disabled": 0, "lon": -77.03755833333334, "is_reserved": 0}, {"bike_id": "34792a9ae0e925a3dcc3e202aad56d9f", "fusion_lon": 0.0, "type": "electric_scooter", "name": "34792a9ae0e925a3dcc3e202aad56d9f", "rental_uris": {"android": "https://dc.lft.to/lastmile_qr_scan", "ios": "https://dc.lft.to/lastmile_qr_scan"}, "fusion_lat": 0.0, "lat": 38.933933, "is_disabled": 0, "lon": -77.03307033333333, "is_reserved": 0}, {"bike_id": "fc4137f969932fb32ef20059ebb6bc76", "fusion_lon": 0.0, "type": "electric_scooter", "name": "fc4137f969932fb32ef20059ebb6bc76", "rental_uris": {"android": "https://dc.lft.to/lastmile_qr_scan", "ios": "https://dc.lft.to/lastmile_qr_scan"}, "fusion_lat": 0.0, "lat": 38.89701183333333, "is_disabled": 0, "lon": -77.022948, "is_reserved": 0}, {"bike_id": "b8938b026ab8575f4af2c0c66a64ad65", "fusion_lon": 0.0, "type": "electric_scooter", "name": "b8938b026ab8575f4af2c0c66a64ad65", "rental_uris": {"android": "https://dc.lft.to/lastmile_qr_scan", "ios": "https://dc.lft.to/lastmile_qr_scan"}, "fusion_lat": 0.0, "lat": 38.91685916666667, "is_disabled": 0, "lon": -77.03499916666667, "is_reserved": 0}, {"bike_id": "53d512140483c9e599cc5d5ffdf8919b", "fusion_lon": 0.0, "type": "electric_scooter", "name": "53d512140483c9e599cc5d5ffdf8919b", "rental_uris": {"android": "https://dc.lft.to/lastmile_qr_scan", "ios": "https://dc.lft.to/lastmile_qr_scan"}, "fusion_lat": 0.0, "lat": 38.900246, "is_disabled": 0, "lon": -76.987772, "is_reserved": 0}, {"bike_id": "bf1c918c97523fc724d58c2b325c543c", "fusion_lon": 0.0, "type": "electric_scooter", "name": "bf1c918c97523fc724d58c2b325c543c", "rental_uris": {"android": "https://dc.lft.to/lastmile_qr_scan", "ios": "https://dc.lft.to/lastmile_qr_scan"}, "fusion_lat": 0.0, "lat": 38.86404183333333, "is_disabled": 0, "lon": -76.99027316666667, "is_reserved": 0}, {"bike_id": "d32b142990beb7a543cfa6e0cea90dae", "fusion_lon": 0.0, "type": "electric_scooter", "name": "d32b142990beb7a543cfa6e0cea90dae", "rental_uris": {"android": "https://dc.lft.to/lastmile_qr_scan", "ios": "https://dc.lft.to/lastmile_qr_scan"}, "fusion_lat": 0.0, "lat": 38.912561833333335, "is_disabled": 0, "lon": -77.04965816666666, "is_reserved": 0}, {"bike_id": "305a1989e9c4a7aa2320f53d7c08c1fc", "fusion_lon": 0.0, "type": "electric_scooter", "name": "305a1989e9c4a7aa2320f53d7c08c1fc", "rental_uris": {"android": "https://dc.lft.to/lastmile_qr_scan", "ios": "https://dc.lft.to/lastmile_qr_scan"}, "fusion_lat": 0.0, "lat": 38.935080166666665, "is_disabled": 0, "lon": -77.08209916666667, "is_reserved": 0}, {"bike_id": "e58f9f3769291baf416ccfd06dd5b071", "fusion_lon": 0.0, "type": "electric_scooter", "name": "e58f9f3769291baf416ccfd06dd5b071", "rental_uris": {"android": "https://dc.lft.to/lastmile_qr_scan", "ios": "https://dc.lft.to/lastmile_qr_scan"}, "fusion_lat": 0.0, "lat": 38.9169765, "is_disabled": 0, "lon": -77.0246955, "is_reserved": 0}, {"bike_id": "41d0064e80d0adfb5809b49062b1efee", "fusion_lon": 0.0, "type": "electric_scooter", "name": "41d0064e80d0adfb5809b49062b1efee", "rental_uris": {"android": "https://dc.lft.to/lastmile_qr_scan", "ios": "https://dc.lft.to/lastmile_qr_scan"}, "fusion_lat": 0.0, "lat": 38.89831616666667, "is_disabled": 0, "lon": -77.02329733333333, "is_reserved": 0}, {"bike_id": "b57145ed1bd67a0aaa87d821b424b1f3", "fusion_lon": 0.0, "type": "electric_scooter", "name": "b57145ed1bd67a0aaa87d821b424b1f3", "rental_uris": {"android": "https://dc.lft.to/lastmile_qr_scan", "ios": "https://dc.lft.to/lastmile_qr_scan"}, "fusion_lat": 0.0, "lat": 38.92291983333333, "is_disabled": 0, "lon": -77.036442, "is_reserved": 0}, {"bike_id": "420d7681ce515f8e3dc191eac5aaaeb9", "fusion_lon": 0.0, "type": "electric_scooter", "name": "420d7681ce515f8e3dc191eac5aaaeb9", "rental_uris": {"android": "https://dc.lft.to/lastmile_qr_scan", "ios": "https://dc.lft.to/lastmile_qr_scan"}, "fusion_lat": 0.0, "lat": 38.914888166666664, "is_disabled": 0, "lon": -77.01218783333333, "is_reserved": 0}, {"bike_id": "0059578c6f08073a3d62ecdf629569ea", "fusion_lon": 0.0, "type": "electric_scooter", "name": "0059578c6f08073a3d62ecdf629569ea", "rental_uris": {"android": "https://dc.lft.to/lastmile_qr_scan", "ios": "https://dc.lft.to/lastmile_qr_scan"}, "fusion_lat": 0.0, "lat": 38.902826, "is_disabled": 0, "lon": -77.03215916666667, "is_reserved": 0}, {"bike_id": "66cb26731c381d170395de9cb03d6527", "fusion_lon": 0.0, "type": "electric_scooter", "name": "66cb26731c381d170395de9cb03d6527", "rental_uris": {"android": "https://dc.lft.to/lastmile_qr_scan", "ios": "https://dc.lft.to/lastmile_qr_scan"}, "fusion_lat": 0.0, "lat": 38.94599316666667, "is_disabled": 0, "lon": -77.02982833333333, "is_reserved": 0}, {"bike_id": "d4fd019658c92d3242b14266f763091b", "fusion_lon": 0.0, "type": "electric_scooter", "name": "d4fd019658c92d3242b14266f763091b", "rental_uris": {"android": "https://dc.lft.to/lastmile_qr_scan", "ios": "https://dc.lft.to/lastmile_qr_scan"}, "fusion_lat": 0.0, "lat": 38.91266183333333, "is_disabled": 0, "lon": -77.038735, "is_reserved": 0}, {"bike_id": "691eba3b8b9eca5719b58e2706272628", "fusion_lon": 0.0, "type": "electric_scooter", "name": "691eba3b8b9eca5719b58e2706272628", "rental_uris": {"android": "https://dc.lft.to/lastmile_qr_scan", "ios": "https://dc.lft.to/lastmile_qr_scan"}, "fusion_lat": 0.0, "lat": 38.89618016666667, "is_disabled": 0, "lon": -76.9993415, "is_reserved": 0}, {"bike_id": "351fd314aadaf8d7e7d5e305ca3ea3b7", "fusion_lon": 0.0, "type": "electric_scooter", "name": "351fd314aadaf8d7e7d5e305ca3ea3b7", "rental_uris": {"android": "https://dc.lft.to/lastmile_qr_scan", "ios": "https://dc.lft.to/lastmile_qr_scan"}, "fusion_lat": 0.0, "lat": 38.91025, "is_disabled": 0, "lon": -77.007616, "is_reserved": 0}, {"bike_id": "5a94802c63c4dc23abf82726d11cf733", "fusion_lon": 0.0, "type": "electric_scooter", "name": "5a94802c63c4dc23abf82726d11cf733", "rental_uris": {"android": "https://dc.lft.to/lastmile_qr_scan", "ios": "https://dc.lft.to/lastmile_qr_scan"}, "fusion_lat": 0.0, "lat": 38.923888, "is_disabled": 0, "lon": -77.04088866666666, "is_reserved": 0}, {"bike_id": "7020140f9a7412b2d47e737962abe87c", "fusion_lon": 0.0, "type": "electric_scooter", "name": "7020140f9a7412b2d47e737962abe87c", "rental_uris": {"android": "https://dc.lft.to/lastmile_qr_scan", "ios": "https://dc.lft.to/lastmile_qr_scan"}, "fusion_lat": 0.0, "lat": 38.8847045, "is_disabled": 0, "lon": -77.023584, "is_reserved": 0}, {"bike_id": "d4ee79a3dd60c5091ec544d77fa93541", "fusion_lon": 0.0, "type": "electric_bike", "name": "d4ee79a3dd60c5091ec544d77fa93541", "rental_uris": {"android": "https://dc.lft.to/lastmile_qr_scan", "ios": "https://dc.lft.to/lastmile_qr_scan"}, "fusion_lat": 0.0, "lat": 38.909750333333335, "is_disabled": 0, "lon": -77.0882575, "is_reserved": 0}, {"bike_id": "896000d852a8a48a3be87dae42999a12", "fusion_lon": 0.0, "type": "electric_scooter", "name": "896000d852a8a48a3be87dae42999a12", "rental_uris": {"android": "https://dc.lft.to/lastmile_qr_scan", "ios": "https://dc.lft.to/lastmile_qr_scan"}, "fusion_lat": 0.0, "lat": 38.95845333333333, "is_disabled": 0, "lon": -77.0289975, "is_reserved": 0}, {"bike_id": "d778bd90e197b2b4326c64de01e23bc6", "fusion_lon": 0.0, "type": "electric_scooter", "name": "d778bd90e197b2b4326c64de01e23bc6", "rental_uris": {"android": "https://dc.lft.to/lastmile_qr_scan", "ios": "https://dc.lft.to/lastmile_qr_scan"}, "fusion_lat": 0.0, "lat": 38.91708416666667, "is_disabled": 0, "lon": -77.03365866666667, "is_reserved": 0}, {"bike_id": "4bb3c6cf3f08791fdabefc4dbcd6f3b2", "fusion_lon": 0.0, "type": "electric_scooter", "name": "4bb3c6cf3f08791fdabefc4dbcd6f3b2", "rental_uris": {"android": "https://dc.lft.to/lastmile_qr_scan", "ios": "https://dc.lft.to/lastmile_qr_scan"}, "fusion_lat": 0.0, "lat": 38.92443816666667, "is_disabled": 0, "lon": -77.038893, "is_reserved": 0}, {"bike_id": "b26fa0b97548d5fe307bc709877cfbc9", "fusion_lon": 0.0, "type": "electric_scooter", "name": "b26fa0b97548d5fe307bc709877cfbc9", "rental_uris": {"android": "https://dc.lft.to/lastmile_qr_scan", "ios": "https://dc.lft.to/lastmile_qr_scan"}, "fusion_lat": 0.0, "lat": 38.867000833333336, "is_disabled": 0, "lon": -76.98737766666666, "is_reserved": 0}, {"bike_id": "8e5914f974ac3b18feae75825e05b9c4", "fusion_lon": 0.0, "type": "electric_scooter", "name": "8e5914f974ac3b18feae75825e05b9c4", "rental_uris": {"android": "https://dc.lft.to/lastmile_qr_scan", "ios": "https://dc.lft.to/lastmile_qr_scan"}, "fusion_lat": 0.0, "lat": 38.8606225, "is_disabled": 0, "lon": -76.9903315, "is_reserved": 0}, {"bike_id": "b7f29bbaca8402fbff4e01ce6b0dce6c", "fusion_lon": 0.0, "type": "electric_scooter", "name": "b7f29bbaca8402fbff4e01ce6b0dce6c", "rental_uris": {"android": "https://dc.lft.to/lastmile_qr_scan", "ios": "https://dc.lft.to/lastmile_qr_scan"}, "fusion_lat": 0.0, "lat": 38.87780466666667, "is_disabled": 0, "lon": -77.01443033333334, "is_reserved": 0}, {"bike_id": "c9047cb7956d2f29868a4dab52470885", "fusion_lon": 0.0, "type": "electric_scooter", "name": "c9047cb7956d2f29868a4dab52470885", "rental_uris": {"android": "https://dc.lft.to/lastmile_qr_scan", "ios": "https://dc.lft.to/lastmile_qr_scan"}, "fusion_lat": 0.0, "lat": 38.8449575, "is_disabled": 0, "lon": -76.987676, "is_reserved": 0}, {"bike_id": "874cf69321d27172cf8be7dd4fe55c6e", "fusion_lon": 0.0, "type": "electric_bike", "name": "874cf69321d27172cf8be7dd4fe55c6e", "rental_uris": {"android": "https://dc.lft.to/lastmile_qr_scan", "ios": "https://dc.lft.to/lastmile_qr_scan"}, "fusion_lat": 0.0, "lat": 39.0534345, "is_disabled": 0, "lon": -77.13602216666666, "is_reserved": 0}, {"bike_id": "6d3e2c5c067918aa8319c2e6ce61e8e6", "fusion_lon": 0.0, "type": "electric_scooter", "name": "6d3e2c5c067918aa8319c2e6ce61e8e6", "rental_uris": {"android": "https://dc.lft.to/lastmile_qr_scan", "ios": "https://dc.lft.to/lastmile_qr_scan"}, "fusion_lat": 0.0, "lat": 38.882991833333335, "is_disabled": 0, "lon": -76.94858516666666, "is_reserved": 0}, {"bike_id": "e3f00d71a28f7d1d079f8924dd3a95bc", "fusion_lon": 0.0, "type": "electric_scooter", "name": "e3f00d71a28f7d1d079f8924dd3a95bc", "rental_uris": {"android": "https://dc.lft.to/lastmile_qr_scan", "ios": "https://dc.lft.to/lastmile_qr_scan"}, "fusion_lat": 0.0, "lat": 38.913076333333336, "is_disabled": 0, "lon": -77.03658833333333, "is_reserved": 0}, {"bike_id": "53c9ccb81cd08e55e2c7ced31f1de923", "fusion_lon": 0.0, "type": "electric_scooter", "name": "53c9ccb81cd08e55e2c7ced31f1de923", "rental_uris": {"android": "https://dc.lft.to/lastmile_qr_scan", "ios": "https://dc.lft.to/lastmile_qr_scan"}, "fusion_lat": 0.0, "lat": 38.892127, "is_disabled": 0, "lon": -77.0262985, "is_reserved": 0}, {"bike_id": "1b1d212f7c13b40fcf01b7c514d38b0a", "fusion_lon": 0.0, "type": "electric_scooter", "name": "1b1d212f7c13b40fcf01b7c514d38b0a", "rental_uris": {"android": "https://dc.lft.to/lastmile_qr_scan", "ios": "https://dc.lft.to/lastmile_qr_scan"}, "fusion_lat": 0.0, "lat": 38.9030305, "is_disabled": 0, "lon": -77.01150716666666, "is_reserved": 0}, {"bike_id": "50830ba8876bf2c9448cdbdea5a0a320", "fusion_lon": 0.0, "type": "electric_scooter", "name": "50830ba8876bf2c9448cdbdea5a0a320", "rental_uris": {"android": "https://dc.lft.to/lastmile_qr_scan", "ios": "https://dc.lft.to/lastmile_qr_scan"}, "fusion_lat": 0.0, "lat": 38.92858316666667, "is_disabled": 0, "lon": -77.034797, "is_reserved": 0}, {"bike_id": "de9845734c09ba701a8b7ccd67e65bee", "fusion_lon": 0.0, "type": "electric_scooter", "name": "de9845734c09ba701a8b7ccd67e65bee", "rental_uris": {"android": "https://dc.lft.to/lastmile_qr_scan", "ios": "https://dc.lft.to/lastmile_qr_scan"}, "fusion_lat": 0.0, "lat": 38.8764695, "is_disabled": 0, "lon": -76.9651, "is_reserved": 0}, {"bike_id": "45b7f8707ccb451e8f1fe945d4f8e278", "fusion_lon": 0.0, "type": "electric_scooter", "name": "45b7f8707ccb451e8f1fe945d4f8e278", "rental_uris": {"android": "https://dc.lft.to/lastmile_qr_scan", "ios": "https://dc.lft.to/lastmile_qr_scan"}, "fusion_lat": 0.0, "lat": 38.86171866666667, "is_disabled": 0, "lon": -76.983285, "is_reserved": 0}, {"bike_id": "dcf492d337f57624b6c3e3e45cf34e34", "fusion_lon": 0.0, "type": "electric_scooter", "name": "dcf492d337f57624b6c3e3e45cf34e34", "rental_uris": {"android": "https://dc.lft.to/lastmile_qr_scan", "ios": "https://dc.lft.to/lastmile_qr_scan"}, "fusion_lat": 0.0, "lat": 38.927030333333335, "is_disabled": 0, "lon": -77.04053833333333, "is_reserved": 0}, {"bike_id": "c153d28e4d9744e36017af50a87e6e01", "fusion_lon": 0.0, "type": "electric_scooter", "name": "c153d28e4d9744e36017af50a87e6e01", "rental_uris": {"android": "https://dc.lft.to/lastmile_qr_scan", "ios": "https://dc.lft.to/lastmile_qr_scan"}, "fusion_lat": 0.0, "lat": 38.906179333333334, "is_disabled": 0, "lon": -77.02691733333333, "is_reserved": 0}, {"bike_id": "8983b3ffae2a728604918b1794bbd821", "fusion_lon": 0.0, "type": "electric_scooter", "name": "8983b3ffae2a728604918b1794bbd821", "rental_uris": {"android": "https://dc.lft.to/lastmile_qr_scan", "ios": "https://dc.lft.to/lastmile_qr_scan"}, "fusion_lat": 0.0, "lat": 38.884244, "is_disabled": 0, "lon": -76.957578, "is_reserved": 0}, {"bike_id": "8b9f2a9e326cfce970cdcad960b5c693", "fusion_lon": 0.0, "type": "electric_bike", "name": "8b9f2a9e326cfce970cdcad960b5c693", "rental_uris": {"android": "https://dc.lft.to/lastmile_qr_scan", "ios": "https://dc.lft.to/lastmile_qr_scan"}, "fusion_lat": 0.0, "lat": 38.924436, "is_disabled": 0, "lon": -76.96848266666667, "is_reserved": 0}, {"bike_id": "4097e6c6e3862be9ac5adfab9e2e231a", "fusion_lon": 0.0, "type": "electric_scooter", "name": "4097e6c6e3862be9ac5adfab9e2e231a", "rental_uris": {"android": "https://dc.lft.to/lastmile_qr_scan", "ios": "https://dc.lft.to/lastmile_qr_scan"}, "fusion_lat": 0.0, "lat": 38.94048383333333, "is_disabled": 0, "lon": -77.0757475, "is_reserved": 0}, {"bike_id": "bcb1efaef0edd29a50caa488f7dcbbb9", "fusion_lon": 0.0, "type": "electric_scooter", "name": "bcb1efaef0edd29a50caa488f7dcbbb9", "rental_uris": {"android": "https://dc.lft.to/lastmile_qr_scan", "ios": "https://dc.lft.to/lastmile_qr_scan"}, "fusion_lat": 0.0, "lat": 38.907682333333334, "is_disabled": 0, "lon": -77.03209966666667, "is_reserved": 0}, {"bike_id": "a151da106e3b21ff4a1297425b6cfab7", "fusion_lon": 0.0, "type": "electric_scooter", "name": "a151da106e3b21ff4a1297425b6cfab7", "rental_uris": {"android": "https://dc.lft.to/lastmile_qr_scan", "ios": "https://dc.lft.to/lastmile_qr_scan"}, "fusion_lat": 0.0, "lat": 38.91840833333333, "is_disabled": 0, "lon": -77.039267, "is_reserved": 0}, {"bike_id": "1dcf46900e2249c609fcce58886373b6", "fusion_lon": 0.0, "type": "electric_bike", "name": "1dcf46900e2249c609fcce58886373b6", "rental_uris": {"android": "https://dc.lft.to/lastmile_qr_scan", "ios": "https://dc.lft.to/lastmile_qr_scan"}, "fusion_lat": 0.0, "lat": 39.10564166666666, "is_disabled": 0, "lon": -77.15269116666667, "is_reserved": 0}, {"bike_id": "4d282c26a322f239113aa246b051df81", "fusion_lon": 0.0, "type": "electric_scooter", "name": "4d282c26a322f239113aa246b051df81", "rental_uris": {"android": "https://dc.lft.to/lastmile_qr_scan", "ios": "https://dc.lft.to/lastmile_qr_scan"}, "fusion_lat": 0.0, "lat": 38.916821666666664, "is_disabled": 0, "lon": -77.0295645, "is_reserved": 0}, {"bike_id": "fb14bf2e7863a202fdaea8d5f827c596", "fusion_lon": 0.0, "type": "electric_scooter", "name": "fb14bf2e7863a202fdaea8d5f827c596", "rental_uris": {"android": "https://dc.lft.to/lastmile_qr_scan", "ios": "https://dc.lft.to/lastmile_qr_scan"}, "fusion_lat": 0.0, "lat": 38.91627233333333, "is_disabled": 0, "lon": -77.039796, "is_reserved": 0}, {"bike_id": "5128ac6328521deaca27374a4175fe2e", "fusion_lon": 0.0, "type": "electric_scooter", "name": "5128ac6328521deaca27374a4175fe2e", "rental_uris": {"android": "https://dc.lft.to/lastmile_qr_scan", "ios": "https://dc.lft.to/lastmile_qr_scan"}, "fusion_lat": 0.0, "lat": 38.902145, "is_disabled": 0, "lon": -77.0326795, "is_reserved": 0}, {"bike_id": "c6d52de08b5e5d44bcd8be3ca3aee194", "fusion_lon": 0.0, "type": "electric_scooter", "name": "c6d52de08b5e5d44bcd8be3ca3aee194", "rental_uris": {"android": "https://dc.lft.to/lastmile_qr_scan", "ios": "https://dc.lft.to/lastmile_qr_scan"}, "fusion_lat": 0.0, "lat": 38.8960165, "is_disabled": 0, "lon": -76.97823783333334, "is_reserved": 0}, {"bike_id": "cb51ef1dc2e04d2a42f1b02ee784c803", "fusion_lon": 0.0, "type": "electric_scooter", "name": "cb51ef1dc2e04d2a42f1b02ee784c803", "rental_uris": {"android": "https://dc.lft.to/lastmile_qr_scan", "ios": "https://dc.lft.to/lastmile_qr_scan"}, "fusion_lat": 0.0, "lat": 38.892144, "is_disabled": 0, "lon": -77.02778016666667, "is_reserved": 0}, {"bike_id": "22250023f63be5ed2189d362eb8f5281", "fusion_lon": 0.0, "type": "electric_scooter", "name": "22250023f63be5ed2189d362eb8f5281", "rental_uris": {"android": "https://dc.lft.to/lastmile_qr_scan", "ios": "https://dc.lft.to/lastmile_qr_scan"}, "fusion_lat": 0.0, "lat": 38.92149383333334, "is_disabled": 0, "lon": -77.03874266666666, "is_reserved": 0}, {"bike_id": "9e520003d2143d81735f765c20c0b95b", "fusion_lon": 0.0, "type": "electric_scooter", "name": "9e520003d2143d81735f765c20c0b95b", "rental_uris": {"android": "https://dc.lft.to/lastmile_qr_scan", "ios": "https://dc.lft.to/lastmile_qr_scan"}, "fusion_lat": 0.0, "lat": 38.93062966666667, "is_disabled": 0, "lon": -77.02809616666667, "is_reserved": 0}, {"bike_id": "a562861924213b6498839c8c3c8026d9", "fusion_lon": 0.0, "type": "electric_scooter", "name": "a562861924213b6498839c8c3c8026d9", "rental_uris": {"android": "https://dc.lft.to/lastmile_qr_scan", "ios": "https://dc.lft.to/lastmile_qr_scan"}, "fusion_lat": 0.0, "lat": 38.91397516666667, "is_disabled": 0, "lon": -77.04184716666667, "is_reserved": 0}, {"bike_id": "e8e8fdaba6408e94d0fb568eb5678ad2", "fusion_lon": 0.0, "type": "electric_scooter", "name": "e8e8fdaba6408e94d0fb568eb5678ad2", "rental_uris": {"android": "https://dc.lft.to/lastmile_qr_scan", "ios": "https://dc.lft.to/lastmile_qr_scan"}, "fusion_lat": 0.0, "lat": 38.91709783333334, "is_disabled": 0, "lon": -77.03176783333333, "is_reserved": 0}, {"bike_id": "a0407068c8867321e8496eebe99200f0", "fusion_lon": 0.0, "type": "electric_scooter", "name": "a0407068c8867321e8496eebe99200f0", "rental_uris": {"android": "https://dc.lft.to/lastmile_qr_scan", "ios": "https://dc.lft.to/lastmile_qr_scan"}, "fusion_lat": 0.0, "lat": 38.90342116666667, "is_disabled": 0, "lon": -76.98855383333333, "is_reserved": 0}, {"bike_id": "7ffcb0845e8b3e941a3130250f6e4022", "fusion_lon": 0.0, "type": "electric_scooter", "name": "7ffcb0845e8b3e941a3130250f6e4022", "rental_uris": {"android": "https://dc.lft.to/lastmile_qr_scan", "ios": "https://dc.lft.to/lastmile_qr_scan"}, "fusion_lat": 0.0, "lat": 38.9175765, "is_disabled": 0, "lon": -77.00375, "is_reserved": 0}, {"bike_id": "0d3e569dd7a5a082d342411036c7c67f", "fusion_lon": 0.0, "type": "electric_scooter", "name": "0d3e569dd7a5a082d342411036c7c67f", "rental_uris": {"android": "https://dc.lft.to/lastmile_qr_scan", "ios": "https://dc.lft.to/lastmile_qr_scan"}, "fusion_lat": 0.0, "lat": 38.904983, "is_disabled": 0, "lon": -77.04356566666667, "is_reserved": 0}, {"bike_id": "ce5dc9c04a8932c53d25713a829bfbf6", "fusion_lon": 0.0, "type": "electric_scooter", "name": "ce5dc9c04a8932c53d25713a829bfbf6", "rental_uris": {"android": "https://dc.lft.to/lastmile_qr_scan", "ios": "https://dc.lft.to/lastmile_qr_scan"}, "fusion_lat": 0.0, "lat": 38.851605666666664, "is_disabled": 0, "lon": -76.99463816666666, "is_reserved": 0}, {"bike_id": "bdda90e9fb5bdcb3f49721f15b42b520", "fusion_lon": 0.0, "type": "electric_scooter", "name": "bdda90e9fb5bdcb3f49721f15b42b520", "rental_uris": {"android": "https://dc.lft.to/lastmile_qr_scan", "ios": "https://dc.lft.to/lastmile_qr_scan"}, "fusion_lat": 0.0, "lat": 38.90563783333333, "is_disabled": 0, "lon": -77.006031, "is_reserved": 0}, {"bike_id": "2a5211cc6ab6e21faf6ec3f312f7fdf1", "fusion_lon": 0.0, "type": "electric_scooter", "name": "2a5211cc6ab6e21faf6ec3f312f7fdf1", "rental_uris": {"android": "https://dc.lft.to/lastmile_qr_scan", "ios": "https://dc.lft.to/lastmile_qr_scan"}, "fusion_lat": 0.0, "lat": 38.9068735, "is_disabled": 0, "lon": -76.98619516666666, "is_reserved": 0}, {"bike_id": "7ff5866e7fa4e9ed59528e76ee705c4b", "fusion_lon": 0.0, "type": "electric_bike", "name": "7ff5866e7fa4e9ed59528e76ee705c4b", "rental_uris": {"android": "https://dc.lft.to/lastmile_qr_scan", "ios": "https://dc.lft.to/lastmile_qr_scan"}, "fusion_lat": 0.0, "lat": 38.947276, "is_disabled": 0, "lon": -76.9568065, "is_reserved": 0}, {"bike_id": "7cde644210eb66f11b3078805d040044", "fusion_lon": 0.0, "type": "electric_scooter", "name": "7cde644210eb66f11b3078805d040044", "rental_uris": {"android": "https://dc.lft.to/lastmile_qr_scan", "ios": "https://dc.lft.to/lastmile_qr_scan"}, "fusion_lat": 0.0, "lat": 38.90046066666667, "is_disabled": 0, "lon": -77.01222166666666, "is_reserved": 0}, {"bike_id": "6c209f0e2eb22d88cc6a1dc34e4baba4", "fusion_lon": 0.0, "type": "electric_scooter", "name": "6c209f0e2eb22d88cc6a1dc34e4baba4", "rental_uris": {"android": "https://dc.lft.to/lastmile_qr_scan", "ios": "https://dc.lft.to/lastmile_qr_scan"}, "fusion_lat": 0.0, "lat": 38.91435466666667, "is_disabled": 0, "lon": -77.021856, "is_reserved": 0}, {"bike_id": "b9ec9e9a6cfa4372d50a649c868b21bf", "fusion_lon": 0.0, "type": "electric_scooter", "name": "b9ec9e9a6cfa4372d50a649c868b21bf", "rental_uris": {"android": "https://dc.lft.to/lastmile_qr_scan", "ios": "https://dc.lft.to/lastmile_qr_scan"}, "fusion_lat": 0.0, "lat": 38.871029, "is_disabled": 0, "lon": -77.0111345, "is_reserved": 0}, {"bike_id": "26e742f05e705682e7f3809d3d16d0d6", "fusion_lon": 0.0, "type": "electric_bike", "name": "26e742f05e705682e7f3809d3d16d0d6", "rental_uris": {"android": "https://dc.lft.to/lastmile_qr_scan", "ios": "https://dc.lft.to/lastmile_qr_scan"}, "fusion_lat": 0.0, "lat": 38.848412333333336, "is_disabled": 0, "lon": -77.08055433333334, "is_reserved": 0}, {"bike_id": "27cdcb55c8aad8bda389d8085359f655", "fusion_lon": 0.0, "type": "electric_scooter", "name": "27cdcb55c8aad8bda389d8085359f655", "rental_uris": {"android": "https://dc.lft.to/lastmile_qr_scan", "ios": "https://dc.lft.to/lastmile_qr_scan"}, "fusion_lat": 0.0, "lat": 38.91840366666667, "is_disabled": 0, "lon": -77.04832266666666, "is_reserved": 0}, {"bike_id": "a22788247d98e4c28a844fdc0886e34b", "fusion_lon": 0.0, "type": "electric_scooter", "name": "a22788247d98e4c28a844fdc0886e34b", "rental_uris": {"android": "https://dc.lft.to/lastmile_qr_scan", "ios": "https://dc.lft.to/lastmile_qr_scan"}, "fusion_lat": 0.0, "lat": 38.887889666666666, "is_disabled": 0, "lon": -76.95112933333333, "is_reserved": 0}, {"bike_id": "cdf639b4a573797ea2c11382cc1bce24", "fusion_lon": 0.0, "type": "electric_scooter", "name": "cdf639b4a573797ea2c11382cc1bce24", "rental_uris": {"android": "https://dc.lft.to/lastmile_qr_scan", "ios": "https://dc.lft.to/lastmile_qr_scan"}, "fusion_lat": 0.0, "lat": 38.91186416666667, "is_disabled": 0, "lon": -77.02111316666667, "is_reserved": 0}, {"bike_id": "ef15bc587d07b6291d5491ec5cc1cf7d", "fusion_lon": 0.0, "type": "electric_scooter", "name": "ef15bc587d07b6291d5491ec5cc1cf7d", "rental_uris": {"android": "https://dc.lft.to/lastmile_qr_scan", "ios": "https://dc.lft.to/lastmile_qr_scan"}, "fusion_lat": 0.0, "lat": 38.90917016666667, "is_disabled": 0, "lon": -77.02302466666667, "is_reserved": 0}, {"bike_id": "2b55bc54d789fad1127d3efb73eabaa8", "fusion_lon": 0.0, "type": "electric_scooter", "name": "2b55bc54d789fad1127d3efb73eabaa8", "rental_uris": {"android": "https://dc.lft.to/lastmile_qr_scan", "ios": "https://dc.lft.to/lastmile_qr_scan"}, "fusion_lat": 0.0, "lat": 38.904435166666666, "is_disabled": 0, "lon": -77.032054, "is_reserved": 0}, {"bike_id": "042778358392569b265255b7fc7546fb", "fusion_lon": 0.0, "type": "electric_scooter", "name": "042778358392569b265255b7fc7546fb", "rental_uris": {"android": "https://dc.lft.to/lastmile_qr_scan", "ios": "https://dc.lft.to/lastmile_qr_scan"}, "fusion_lat": 0.0, "lat": 38.898788, "is_disabled": 0, "lon": -76.931774, "is_reserved": 0}, {"bike_id": "a9f78d769d907cf75f8a947048ecfec7", "fusion_lon": 0.0, "type": "electric_scooter", "name": "a9f78d769d907cf75f8a947048ecfec7", "rental_uris": {"android": "https://dc.lft.to/lastmile_qr_scan", "ios": "https://dc.lft.to/lastmile_qr_scan"}, "fusion_lat": 0.0, "lat": 38.9036515, "is_disabled": 0, "lon": -77.02156033333333, "is_reserved": 0}, {"bike_id": "dd142261cb5c6b2272039867a2ad8322", "fusion_lon": 0.0, "type": "electric_scooter", "name": "dd142261cb5c6b2272039867a2ad8322", "rental_uris": {"android": "https://dc.lft.to/lastmile_qr_scan", "ios": "https://dc.lft.to/lastmile_qr_scan"}, "fusion_lat": 0.0, "lat": 38.90505066666667, "is_disabled": 0, "lon": -77.02972316666667, "is_reserved": 0}, {"bike_id": "da280717e05f0dbef21c62fb6b2998f7", "fusion_lon": 0.0, "type": "electric_scooter", "name": "da280717e05f0dbef21c62fb6b2998f7", "rental_uris": {"android": "https://dc.lft.to/lastmile_qr_scan", "ios": "https://dc.lft.to/lastmile_qr_scan"}, "fusion_lat": 0.0, "lat": 38.92310883333333, "is_disabled": 0, "lon": -77.05449116666666, "is_reserved": 0}, {"bike_id": "1de7b92387f975c94d97ddaa1fccd234", "fusion_lon": 0.0, "type": "electric_scooter", "name": "1de7b92387f975c94d97ddaa1fccd234", "rental_uris": {"android": "https://dc.lft.to/lastmile_qr_scan", "ios": "https://dc.lft.to/lastmile_qr_scan"}, "fusion_lat": 0.0, "lat": 38.8814345, "is_disabled": 0, "lon": -76.99508833333333, "is_reserved": 0}, {"bike_id": "7a9a8807355987dfdc2632549749622f", "fusion_lon": 0.0, "type": "electric_scooter", "name": "7a9a8807355987dfdc2632549749622f", "rental_uris": {"android": "https://dc.lft.to/lastmile_qr_scan", "ios": "https://dc.lft.to/lastmile_qr_scan"}, "fusion_lat": 0.0, "lat": 38.900487, "is_disabled": 0, "lon": -77.00073466666667, "is_reserved": 0}, {"bike_id": "c43729d9eecc525409db1e0421934320", "fusion_lon": 0.0, "type": "electric_scooter", "name": "c43729d9eecc525409db1e0421934320", "rental_uris": {"android": "https://dc.lft.to/lastmile_qr_scan", "ios": "https://dc.lft.to/lastmile_qr_scan"}, "fusion_lat": 0.0, "lat": 38.9513235, "is_disabled": 0, "lon": -77.02729866666667, "is_reserved": 0}, {"bike_id": "56391553dfc3d7473d9b5822a99c3197", "fusion_lon": 0.0, "type": "electric_bike", "name": "56391553dfc3d7473d9b5822a99c3197", "rental_uris": {"android": "https://dc.lft.to/lastmile_qr_scan", "ios": "https://dc.lft.to/lastmile_qr_scan"}, "fusion_lat": 0.0, "lat": 38.96019716666667, "is_disabled": 0, "lon": -77.020045, "is_reserved": 0}, {"bike_id": "0f6723a63eade298bcd7e06d2af4c30f", "fusion_lon": 0.0, "type": "electric_scooter", "name": "0f6723a63eade298bcd7e06d2af4c30f", "rental_uris": {"android": "https://dc.lft.to/lastmile_qr_scan", "ios": "https://dc.lft.to/lastmile_qr_scan"}, "fusion_lat": 0.0, "lat": 38.902710666666664, "is_disabled": 0, "lon": -77.0347, "is_reserved": 0}, {"bike_id": "ff9dbd8a5033f87199b140e79d4e16f5", "fusion_lon": 0.0, "type": "electric_bike", "name": "ff9dbd8a5033f87199b140e79d4e16f5", "rental_uris": {"android": "https://dc.lft.to/lastmile_qr_scan", "ios": "https://dc.lft.to/lastmile_qr_scan"}, "fusion_lat": 0.0, "lat": 38.94998866666667, "is_disabled": 0, "lon": -77.353098, "is_reserved": 0}, {"bike_id": "53cec2c8becee8fa8f2448d2ed784d16", "fusion_lon": 0.0, "type": "electric_scooter", "name": "53cec2c8becee8fa8f2448d2ed784d16", "rental_uris": {"android": "https://dc.lft.to/lastmile_qr_scan", "ios": "https://dc.lft.to/lastmile_qr_scan"}, "fusion_lat": 0.0, "lat": 38.896094833333336, "is_disabled": 0, "lon": -77.0092775, "is_reserved": 0}, {"bike_id": "d1a24ce23ae29edbe00c1e0ae8267829", "fusion_lon": 0.0, "type": "electric_scooter", "name": "d1a24ce23ae29edbe00c1e0ae8267829", "rental_uris": {"android": "https://dc.lft.to/lastmile_qr_scan", "ios": "https://dc.lft.to/lastmile_qr_scan"}, "fusion_lat": 0.0, "lat": 38.9385355, "is_disabled": 0, "lon": -77.02473583333334, "is_reserved": 0}, {"bike_id": "7afb9dd1bc02c2c13ee4e65df8b4b8f3", "fusion_lon": 0.0, "type": "electric_scooter", "name": "7afb9dd1bc02c2c13ee4e65df8b4b8f3", "rental_uris": {"android": "https://dc.lft.to/lastmile_qr_scan", "ios": "https://dc.lft.to/lastmile_qr_scan"}, "fusion_lat": 0.0, "lat": 38.89007933333333, "is_disabled": 0, "lon": -76.93734333333333, "is_reserved": 0}, {"bike_id": "05d543009e8f91bb1d6e43912fb4c0fa", "fusion_lon": 0.0, "type": "electric_scooter", "name": "05d543009e8f91bb1d6e43912fb4c0fa", "rental_uris": {"android": "https://dc.lft.to/lastmile_qr_scan", "ios": "https://dc.lft.to/lastmile_qr_scan"}, "fusion_lat": 0.0, "lat": 38.9167855, "is_disabled": 0, "lon": -77.03223833333334, "is_reserved": 0}, {"bike_id": "c272e90f4615d5028451e15123f89ee4", "fusion_lon": 0.0, "type": "electric_scooter", "name": "c272e90f4615d5028451e15123f89ee4", "rental_uris": {"android": "https://dc.lft.to/lastmile_qr_scan", "ios": "https://dc.lft.to/lastmile_qr_scan"}, "fusion_lat": 0.0, "lat": 38.87773716666667, "is_disabled": 0, "lon": -76.99510416666666, "is_reserved": 0}, {"bike_id": "070e604fe172456e333867f7a235ced4", "fusion_lon": 0.0, "type": "electric_scooter", "name": "070e604fe172456e333867f7a235ced4", "rental_uris": {"android": "https://dc.lft.to/lastmile_qr_scan", "ios": "https://dc.lft.to/lastmile_qr_scan"}, "fusion_lat": 0.0, "lat": 38.95764283333333, "is_disabled": 0, "lon": -77.01590366666667, "is_reserved": 0}, {"bike_id": "c5d37d23b4820349712b6b0749433c17", "fusion_lon": 0.0, "type": "electric_scooter", "name": "c5d37d23b4820349712b6b0749433c17", "rental_uris": {"android": "https://dc.lft.to/lastmile_qr_scan", "ios": "https://dc.lft.to/lastmile_qr_scan"}, "fusion_lat": 0.0, "lat": 38.92421866666667, "is_disabled": 0, "lon": -77.03631966666667, "is_reserved": 0}, {"bike_id": "e20bc561ea4b5e8a0d218ce9e2cfa76f", "fusion_lon": 0.0, "type": "electric_scooter", "name": "e20bc561ea4b5e8a0d218ce9e2cfa76f", "rental_uris": {"android": "https://dc.lft.to/lastmile_qr_scan", "ios": "https://dc.lft.to/lastmile_qr_scan"}, "fusion_lat": 0.0, "lat": 38.9270855, "is_disabled": 0, "lon": -77.02397016666667, "is_reserved": 0}, {"bike_id": "d09d0d457041613483c56d3ce2f6f7f6", "fusion_lon": 0.0, "type": "electric_scooter", "name": "d09d0d457041613483c56d3ce2f6f7f6", "rental_uris": {"android": "https://dc.lft.to/lastmile_qr_scan", "ios": "https://dc.lft.to/lastmile_qr_scan"}, "fusion_lat": 0.0, "lat": 38.920987333333336, "is_disabled": 0, "lon": -77.043687, "is_reserved": 0}, {"bike_id": "aacbdaf94cbfbd3299d876fb404e56f7", "fusion_lon": 0.0, "type": "electric_scooter", "name": "aacbdaf94cbfbd3299d876fb404e56f7", "rental_uris": {"android": "https://dc.lft.to/lastmile_qr_scan", "ios": "https://dc.lft.to/lastmile_qr_scan"}, "fusion_lat": 0.0, "lat": 38.891305833333334, "is_disabled": 0, "lon": -76.951882, "is_reserved": 0}, {"bike_id": "71c840a97435f9a294f26bae15f07d63", "fusion_lon": 0.0, "type": "electric_scooter", "name": "71c840a97435f9a294f26bae15f07d63", "rental_uris": {"android": "https://dc.lft.to/lastmile_qr_scan", "ios": "https://dc.lft.to/lastmile_qr_scan"}, "fusion_lat": 0.0, "lat": 38.8790405, "is_disabled": 0, "lon": -76.99175833333334, "is_reserved": 0}, {"bike_id": "5c0da1b0faf6f9156e3b490eecd2f215", "fusion_lon": 0.0, "type": "electric_scooter", "name": "5c0da1b0faf6f9156e3b490eecd2f215", "rental_uris": {"android": "https://dc.lft.to/lastmile_qr_scan", "ios": "https://dc.lft.to/lastmile_qr_scan"}, "fusion_lat": 0.0, "lat": 38.916861, "is_disabled": 0, "lon": -77.02957816666667, "is_reserved": 0}, {"bike_id": "7e851e3d2818c90382632f603acb21ca", "fusion_lon": 0.0, "type": "electric_scooter", "name": "7e851e3d2818c90382632f603acb21ca", "rental_uris": {"android": "https://dc.lft.to/lastmile_qr_scan", "ios": "https://dc.lft.to/lastmile_qr_scan"}, "fusion_lat": 0.0, "lat": 38.91231066666667, "is_disabled": 0, "lon": -77.04511983333333, "is_reserved": 0}, {"bike_id": "60087e570305b4bed25dc674f0184f9d", "fusion_lon": 0.0, "type": "electric_scooter", "name": "60087e570305b4bed25dc674f0184f9d", "rental_uris": {"android": "https://dc.lft.to/lastmile_qr_scan", "ios": "https://dc.lft.to/lastmile_qr_scan"}, "fusion_lat": 0.0, "lat": 38.9293895, "is_disabled": 0, "lon": -77.03421583333333, "is_reserved": 0}, {"bike_id": "4fe1b5b29ee32055459956a61dc03e3c", "fusion_lon": 0.0, "type": "electric_scooter", "name": "4fe1b5b29ee32055459956a61dc03e3c", "rental_uris": {"android": "https://dc.lft.to/lastmile_qr_scan", "ios": "https://dc.lft.to/lastmile_qr_scan"}, "fusion_lat": 0.0, "lat": 38.921271, "is_disabled": 0, "lon": -77.04427966666667, "is_reserved": 0}, {"bike_id": "a4ed368ac94f4902d4d6ed53f603223e", "fusion_lon": 0.0, "type": "electric_scooter", "name": "a4ed368ac94f4902d4d6ed53f603223e", "rental_uris": {"android": "https://dc.lft.to/lastmile_qr_scan", "ios": "https://dc.lft.to/lastmile_qr_scan"}, "fusion_lat": 0.0, "lat": 38.900463, "is_disabled": 0, "lon": -77.01702816666666, "is_reserved": 0}, {"bike_id": "c7803e950dde55a50b19cecdbac40005", "fusion_lon": 0.0, "type": "electric_scooter", "name": "c7803e950dde55a50b19cecdbac40005", "rental_uris": {"android": "https://dc.lft.to/lastmile_qr_scan", "ios": "https://dc.lft.to/lastmile_qr_scan"}, "fusion_lat": 0.0, "lat": 38.88428233333333, "is_disabled": 0, "lon": -76.95755533333333, "is_reserved": 0}, {"bike_id": "90bec7d7c90b43a8e8d11543db2de427", "fusion_lon": 0.0, "type": "electric_bike", "name": "90bec7d7c90b43a8e8d11543db2de427", "rental_uris": {"android": "https://dc.lft.to/lastmile_qr_scan", "ios": "https://dc.lft.to/lastmile_qr_scan"}, "fusion_lat": 0.0, "lat": 38.9967005, "is_disabled": 0, "lon": -77.03791933333333, "is_reserved": 0}, {"bike_id": "7dd513da87c8c0622f00d198be137dc7", "fusion_lon": 0.0, "type": "electric_bike", "name": "7dd513da87c8c0622f00d198be137dc7", "rental_uris": {"android": "https://dc.lft.to/lastmile_qr_scan", "ios": "https://dc.lft.to/lastmile_qr_scan"}, "fusion_lat": 0.0, "lat": 38.89885616666667, "is_disabled": 0, "lon": -76.98392083333333, "is_reserved": 0}, {"bike_id": "f50bcdca9158300fa31277bdac5f2ce7", "fusion_lon": 0.0, "type": "electric_scooter", "name": "f50bcdca9158300fa31277bdac5f2ce7", "rental_uris": {"android": "https://dc.lft.to/lastmile_qr_scan", "ios": "https://dc.lft.to/lastmile_qr_scan"}, "fusion_lat": 0.0, "lat": 38.915991, "is_disabled": 0, "lon": -77.04664683333333, "is_reserved": 0}, {"bike_id": "02f3d20bad0d70479881c34ad59b9885", "fusion_lon": 0.0, "type": "electric_scooter", "name": "02f3d20bad0d70479881c34ad59b9885", "rental_uris": {"android": "https://dc.lft.to/lastmile_qr_scan", "ios": "https://dc.lft.to/lastmile_qr_scan"}, "fusion_lat": 0.0, "lat": 38.893276166666666, "is_disabled": 0, "lon": -77.0121045, "is_reserved": 0}, {"bike_id": "a30f1ff7a70da915c0efb4903d31de85", "fusion_lon": 0.0, "type": "electric_scooter", "name": "a30f1ff7a70da915c0efb4903d31de85", "rental_uris": {"android": "https://dc.lft.to/lastmile_qr_scan", "ios": "https://dc.lft.to/lastmile_qr_scan"}, "fusion_lat": 0.0, "lat": 38.880446666666664, "is_disabled": 0, "lon": -77.030726, "is_reserved": 0}, {"bike_id": "73faae06cde692c7af7ae1150c54ad22", "fusion_lon": 0.0, "type": "electric_bike", "name": "73faae06cde692c7af7ae1150c54ad22", "rental_uris": {"android": "https://dc.lft.to/lastmile_qr_scan", "ios": "https://dc.lft.to/lastmile_qr_scan"}, "fusion_lat": 0.0, "lat": 38.869100333333336, "is_disabled": 0, "lon": -77.1318215, "is_reserved": 0}, {"bike_id": "02bd2ce3bcd351f8729bae818b7c2ab5", "fusion_lon": 0.0, "type": "electric_scooter", "name": "02bd2ce3bcd351f8729bae818b7c2ab5", "rental_uris": {"android": "https://dc.lft.to/lastmile_qr_scan", "ios": "https://dc.lft.to/lastmile_qr_scan"}, "fusion_lat": 0.0, "lat": 38.88184416666667, "is_disabled": 0, "lon": -77.00354866666666, "is_reserved": 0}, {"bike_id": "8ad3c9ff64db15f47369e14cc6f556a2", "fusion_lon": 0.0, "type": "electric_scooter", "name": "8ad3c9ff64db15f47369e14cc6f556a2", "rental_uris": {"android": "https://dc.lft.to/lastmile_qr_scan", "ios": "https://dc.lft.to/lastmile_qr_scan"}, "fusion_lat": 0.0, "lat": 38.915436, "is_disabled": 0, "lon": -77.024321, "is_reserved": 0}, {"bike_id": "4a3c06af87f8b85264a4c2d55caa71e0", "fusion_lon": 0.0, "type": "electric_scooter", "name": "4a3c06af87f8b85264a4c2d55caa71e0", "rental_uris": {"android": "https://dc.lft.to/lastmile_qr_scan", "ios": "https://dc.lft.to/lastmile_qr_scan"}, "fusion_lat": 0.0, "lat": 38.92370733333333, "is_disabled": 0, "lon": -77.04086683333334, "is_reserved": 0}, {"bike_id": "90470dab4147ef26034db31480c27094", "fusion_lon": 0.0, "type": "electric_scooter", "name": "90470dab4147ef26034db31480c27094", "rental_uris": {"android": "https://dc.lft.to/lastmile_qr_scan", "ios": "https://dc.lft.to/lastmile_qr_scan"}, "fusion_lat": 0.0, "lat": 38.9358875, "is_disabled": 0, "lon": -77.03367133333333, "is_reserved": 0}, {"bike_id": "98f901416e85a652c425503606ffb5fe", "fusion_lon": 0.0, "type": "electric_scooter", "name": "98f901416e85a652c425503606ffb5fe", "rental_uris": {"android": "https://dc.lft.to/lastmile_qr_scan", "ios": "https://dc.lft.to/lastmile_qr_scan"}, "fusion_lat": 0.0, "lat": 38.896139833333336, "is_disabled": 0, "lon": -76.99936633333333, "is_reserved": 0}, {"bike_id": "60be45ae05d0bb98bb1c1c2e73982e8a", "fusion_lon": 0.0, "type": "electric_scooter", "name": "60be45ae05d0bb98bb1c1c2e73982e8a", "rental_uris": {"android": "https://dc.lft.to/lastmile_qr_scan", "ios": "https://dc.lft.to/lastmile_qr_scan"}, "fusion_lat": 0.0, "lat": 38.88462, "is_disabled": 0, "lon": -76.99574266666667, "is_reserved": 0}, {"bike_id": "69011e9172b5b6263be9a86b87676ffe", "fusion_lon": 0.0, "type": "electric_scooter", "name": "69011e9172b5b6263be9a86b87676ffe", "rental_uris": {"android": "https://dc.lft.to/lastmile_qr_scan", "ios": "https://dc.lft.to/lastmile_qr_scan"}, "fusion_lat": 0.0, "lat": 38.933173, "is_disabled": 0, "lon": -77.038032, "is_reserved": 0}, {"bike_id": "e397c6b8c21e18c0336a546d5188de6c", "fusion_lon": 0.0, "type": "electric_scooter", "name": "e397c6b8c21e18c0336a546d5188de6c", "rental_uris": {"android": "https://dc.lft.to/lastmile_qr_scan", "ios": "https://dc.lft.to/lastmile_qr_scan"}, "fusion_lat": 0.0, "lat": 38.92506683333333, "is_disabled": 0, "lon": -77.02579083333333, "is_reserved": 0}, {"bike_id": "b5c7300cf6295ef013a7f8345dbc0863", "fusion_lon": 0.0, "type": "electric_scooter", "name": "b5c7300cf6295ef013a7f8345dbc0863", "rental_uris": {"android": "https://dc.lft.to/lastmile_qr_scan", "ios": "https://dc.lft.to/lastmile_qr_scan"}, "fusion_lat": 0.0, "lat": 38.904195333333334, "is_disabled": 0, "lon": -77.02875983333334, "is_reserved": 0}, {"bike_id": "27188b152ddebba0d11c329f938de19f", "fusion_lon": 0.0, "type": "electric_scooter", "name": "27188b152ddebba0d11c329f938de19f", "rental_uris": {"android": "https://dc.lft.to/lastmile_qr_scan", "ios": "https://dc.lft.to/lastmile_qr_scan"}, "fusion_lat": 0.0, "lat": 38.9029785, "is_disabled": 0, "lon": -77.04880416666667, "is_reserved": 0}, {"bike_id": "31e7db526136523dd76e460e4bc07873", "fusion_lon": 0.0, "type": "electric_scooter", "name": "31e7db526136523dd76e460e4bc07873", "rental_uris": {"android": "https://dc.lft.to/lastmile_qr_scan", "ios": "https://dc.lft.to/lastmile_qr_scan"}, "fusion_lat": 0.0, "lat": 38.919144833333334, "is_disabled": 0, "lon": -77.0214145, "is_reserved": 0}, {"bike_id": "5c34462b7c961298021f5e78cda3f702", "fusion_lon": 0.0, "type": "electric_scooter", "name": "5c34462b7c961298021f5e78cda3f702", "rental_uris": {"android": "https://dc.lft.to/lastmile_qr_scan", "ios": "https://dc.lft.to/lastmile_qr_scan"}, "fusion_lat": 0.0, "lat": 38.95125683333333, "is_disabled": 0, "lon": -77.02729083333334, "is_reserved": 0}, {"bike_id": "603b8c33d2d47676126c6d85413e650e", "fusion_lon": 0.0, "type": "electric_scooter", "name": "603b8c33d2d47676126c6d85413e650e", "rental_uris": {"android": "https://dc.lft.to/lastmile_qr_scan", "ios": "https://dc.lft.to/lastmile_qr_scan"}, "fusion_lat": 0.0, "lat": 38.9347995, "is_disabled": 0, "lon": -77.072676, "is_reserved": 0}, {"bike_id": "b270ab94ef6590367ddb307e900dc0df", "fusion_lon": 0.0, "type": "electric_scooter", "name": "b270ab94ef6590367ddb307e900dc0df", "rental_uris": {"android": "https://dc.lft.to/lastmile_qr_scan", "ios": "https://dc.lft.to/lastmile_qr_scan"}, "fusion_lat": 0.0, "lat": 38.90896633333333, "is_disabled": 0, "lon": -77.03482583333333, "is_reserved": 0}, {"bike_id": "5ecff9e11cbe4d863975727ee1476fc4", "fusion_lon": 0.0, "type": "electric_scooter", "name": "5ecff9e11cbe4d863975727ee1476fc4", "rental_uris": {"android": "https://dc.lft.to/lastmile_qr_scan", "ios": "https://dc.lft.to/lastmile_qr_scan"}, "fusion_lat": 0.0, "lat": 38.898407, "is_disabled": 0, "lon": -77.0332195, "is_reserved": 0}, {"bike_id": "01933abdb7afa0594b5834570444a5f7", "fusion_lon": 0.0, "type": "electric_scooter", "name": "01933abdb7afa0594b5834570444a5f7", "rental_uris": {"android": "https://dc.lft.to/lastmile_qr_scan", "ios": "https://dc.lft.to/lastmile_qr_scan"}, "fusion_lat": 0.0, "lat": 38.908360333333334, "is_disabled": 0, "lon": -77.036893, "is_reserved": 0}, {"bike_id": "ea20333e94e6fbadcca73838ab918207", "fusion_lon": 0.0, "type": "electric_scooter", "name": "ea20333e94e6fbadcca73838ab918207", "rental_uris": {"android": "https://dc.lft.to/lastmile_qr_scan", "ios": "https://dc.lft.to/lastmile_qr_scan"}, "fusion_lat": 0.0, "lat": 38.90001183333333, "is_disabled": 0, "lon": -77.04036366666666, "is_reserved": 0}, {"bike_id": "3ed0dc01a19e61ee6f07fe1988b104a0", "fusion_lon": 0.0, "type": "electric_scooter", "name": "3ed0dc01a19e61ee6f07fe1988b104a0", "rental_uris": {"android": "https://dc.lft.to/lastmile_qr_scan", "ios": "https://dc.lft.to/lastmile_qr_scan"}, "fusion_lat": 0.0, "lat": 38.9286595, "is_disabled": 0, "lon": -76.99031016666666, "is_reserved": 0}, {"bike_id": "065b20446cf3fff7e6149a9ff4311399", "fusion_lon": 0.0, "type": "electric_scooter", "name": "065b20446cf3fff7e6149a9ff4311399", "rental_uris": {"android": "https://dc.lft.to/lastmile_qr_scan", "ios": "https://dc.lft.to/lastmile_qr_scan"}, "fusion_lat": 0.0, "lat": 38.88025433333333, "is_disabled": 0, "lon": -77.0122825, "is_reserved": 0}, {"bike_id": "cb78ae1229cec7519ae1b6bd1285d179", "fusion_lon": 0.0, "type": "electric_scooter", "name": "cb78ae1229cec7519ae1b6bd1285d179", "rental_uris": {"android": "https://dc.lft.to/lastmile_qr_scan", "ios": "https://dc.lft.to/lastmile_qr_scan"}, "fusion_lat": 0.0, "lat": 38.943225166666664, "is_disabled": 0, "lon": -77.07369283333334, "is_reserved": 0}, {"bike_id": "0f089e0cdfc1a1838fd39b4c61a69a36", "fusion_lon": 0.0, "type": "electric_scooter", "name": "0f089e0cdfc1a1838fd39b4c61a69a36", "rental_uris": {"android": "https://dc.lft.to/lastmile_qr_scan", "ios": "https://dc.lft.to/lastmile_qr_scan"}, "fusion_lat": 0.0, "lat": 38.92738583333333, "is_disabled": 0, "lon": -77.0329715, "is_reserved": 0}, {"bike_id": "9eccd76ae9be0a8e9eda71dfb7e92751", "fusion_lon": 0.0, "type": "electric_scooter", "name": "9eccd76ae9be0a8e9eda71dfb7e92751", "rental_uris": {"android": "https://dc.lft.to/lastmile_qr_scan", "ios": "https://dc.lft.to/lastmile_qr_scan"}, "fusion_lat": 0.0, "lat": 38.90371566666666, "is_disabled": 0, "lon": -77.019221, "is_reserved": 0}, {"bike_id": "6180be1544d50fa65417430ce8c24cd5", "fusion_lon": 0.0, "type": "electric_scooter", "name": "6180be1544d50fa65417430ce8c24cd5", "rental_uris": {"android": "https://dc.lft.to/lastmile_qr_scan", "ios": "https://dc.lft.to/lastmile_qr_scan"}, "fusion_lat": 0.0, "lat": 38.875441333333335, "is_disabled": 0, "lon": -76.96491416666667, "is_reserved": 0}, {"bike_id": "414999efc89ab140f0b079bc09c7e32b", "fusion_lon": 0.0, "type": "electric_scooter", "name": "414999efc89ab140f0b079bc09c7e32b", "rental_uris": {"android": "https://dc.lft.to/lastmile_qr_scan", "ios": "https://dc.lft.to/lastmile_qr_scan"}, "fusion_lat": 0.0, "lat": 38.930982, "is_disabled": 0, "lon": -77.03838816666666, "is_reserved": 0}, {"bike_id": "013bed431bbf0dde0d0c91531b9049eb", "fusion_lon": 0.0, "type": "electric_scooter", "name": "013bed431bbf0dde0d0c91531b9049eb", "rental_uris": {"android": "https://dc.lft.to/lastmile_qr_scan", "ios": "https://dc.lft.to/lastmile_qr_scan"}, "fusion_lat": 0.0, "lat": 38.85591516666667, "is_disabled": 0, "lon": -76.985592, "is_reserved": 0}, {"bike_id": "7f7125a693851df3310cc52d8b3b840b", "fusion_lon": 0.0, "type": "electric_scooter", "name": "7f7125a693851df3310cc52d8b3b840b", "rental_uris": {"android": "https://dc.lft.to/lastmile_qr_scan", "ios": "https://dc.lft.to/lastmile_qr_scan"}, "fusion_lat": 0.0, "lat": 38.93880166666667, "is_disabled": 0, "lon": -77.02485883333334, "is_reserved": 0}, {"bike_id": "b456fcbf3e8be7857f01aa540f3ac9da", "fusion_lon": 0.0, "type": "electric_bike", "name": "b456fcbf3e8be7857f01aa540f3ac9da", "rental_uris": {"android": "https://dc.lft.to/lastmile_qr_scan", "ios": "https://dc.lft.to/lastmile_qr_scan"}, "fusion_lat": 0.0, "lat": 38.827295166666666, "is_disabled": 0, "lon": -77.00869533333334, "is_reserved": 0}, {"bike_id": "007c2f909867eb4914854ec565bb5c3f", "fusion_lon": 0.0, "type": "electric_scooter", "name": "007c2f909867eb4914854ec565bb5c3f", "rental_uris": {"android": "https://dc.lft.to/lastmile_qr_scan", "ios": "https://dc.lft.to/lastmile_qr_scan"}, "fusion_lat": 0.0, "lat": 38.93973833333333, "is_disabled": 0, "lon": -77.0271185, "is_reserved": 0}, {"bike_id": "f9f98747914577b64461f8ab796e5da9", "fusion_lon": 0.0, "type": "electric_scooter", "name": "f9f98747914577b64461f8ab796e5da9", "rental_uris": {"android": "https://dc.lft.to/lastmile_qr_scan", "ios": "https://dc.lft.to/lastmile_qr_scan"}, "fusion_lat": 0.0, "lat": 38.90483833333333, "is_disabled": 0, "lon": -77.03560133333333, "is_reserved": 0}, {"bike_id": "1618e8015eb9506c489e8b6db6bb68b1", "fusion_lon": 0.0, "type": "electric_scooter", "name": "1618e8015eb9506c489e8b6db6bb68b1", "rental_uris": {"android": "https://dc.lft.to/lastmile_qr_scan", "ios": "https://dc.lft.to/lastmile_qr_scan"}, "fusion_lat": 0.0, "lat": 38.92992816666667, "is_disabled": 0, "lon": -77.03247633333334, "is_reserved": 0}, {"bike_id": "e05b9dadbe39aa698c41cdbfe59014d5", "fusion_lon": 0.0, "type": "electric_scooter", "name": "e05b9dadbe39aa698c41cdbfe59014d5", "rental_uris": {"android": "https://dc.lft.to/lastmile_qr_scan", "ios": "https://dc.lft.to/lastmile_qr_scan"}, "fusion_lat": 0.0, "lat": 38.88737166666667, "is_disabled": 0, "lon": -77.02832716666667, "is_reserved": 0}, {"bike_id": "eac2fe5f086d2b9c2ab3d6c048be46f9", "fusion_lon": 0.0, "type": "electric_scooter", "name": "eac2fe5f086d2b9c2ab3d6c048be46f9", "rental_uris": {"android": "https://dc.lft.to/lastmile_qr_scan", "ios": "https://dc.lft.to/lastmile_qr_scan"}, "fusion_lat": 0.0, "lat": 38.867096333333336, "is_disabled": 0, "lon": -76.987279, "is_reserved": 0}, {"bike_id": "fbd4de00f4bc5bc415276d0a92547556", "fusion_lon": 0.0, "type": "electric_scooter", "name": "fbd4de00f4bc5bc415276d0a92547556", "rental_uris": {"android": "https://dc.lft.to/lastmile_qr_scan", "ios": "https://dc.lft.to/lastmile_qr_scan"}, "fusion_lat": 0.0, "lat": 38.863537666666666, "is_disabled": 0, "lon": -76.99096166666666, "is_reserved": 0}, {"bike_id": "fcba9a08ecb0fea5cbb01e4575aeaf73", "fusion_lon": 0.0, "type": "electric_scooter", "name": "fcba9a08ecb0fea5cbb01e4575aeaf73", "rental_uris": {"android": "https://dc.lft.to/lastmile_qr_scan", "ios": "https://dc.lft.to/lastmile_qr_scan"}, "fusion_lat": 0.0, "lat": 38.9003785, "is_disabled": 0, "lon": -76.99365516666667, "is_reserved": 0}, {"bike_id": "6a28f3b2c145cbc160b1250acfee3393", "fusion_lon": 0.0, "type": "electric_bike", "name": "6a28f3b2c145cbc160b1250acfee3393", "rental_uris": {"android": "https://dc.lft.to/lastmile_qr_scan", "ios": "https://dc.lft.to/lastmile_qr_scan"}, "fusion_lat": 0.0, "lat": 38.936671, "is_disabled": 0, "lon": -76.95209766666666, "is_reserved": 0}, {"bike_id": "5eb656a96b9f63db47bc11aee2f07e63", "fusion_lon": 0.0, "type": "electric_scooter", "name": "5eb656a96b9f63db47bc11aee2f07e63", "rental_uris": {"android": "https://dc.lft.to/lastmile_qr_scan", "ios": "https://dc.lft.to/lastmile_qr_scan"}, "fusion_lat": 0.0, "lat": 38.95703683333333, "is_disabled": 0, "lon": -77.02413416666667, "is_reserved": 0}, {"bike_id": "4e5ef5b65a4a13e4c1f9499bcc563821", "fusion_lon": 0.0, "type": "electric_scooter", "name": "4e5ef5b65a4a13e4c1f9499bcc563821", "rental_uris": {"android": "https://dc.lft.to/lastmile_qr_scan", "ios": "https://dc.lft.to/lastmile_qr_scan"}, "fusion_lat": 0.0, "lat": 38.935815833333336, "is_disabled": 0, "lon": -77.03535433333333, "is_reserved": 0}, {"bike_id": "8aa56f65e2b6811354f3a19e27b10558", "fusion_lon": 0.0, "type": "electric_scooter", "name": "8aa56f65e2b6811354f3a19e27b10558", "rental_uris": {"android": "https://dc.lft.to/lastmile_qr_scan", "ios": "https://dc.lft.to/lastmile_qr_scan"}, "fusion_lat": 0.0, "lat": 38.892131, "is_disabled": 0, "lon": -77.02845616666667, "is_reserved": 0}, {"bike_id": "2a9083728278a21a151f83f0a55c344e", "fusion_lon": 0.0, "type": "electric_scooter", "name": "2a9083728278a21a151f83f0a55c344e", "rental_uris": {"android": "https://dc.lft.to/lastmile_qr_scan", "ios": "https://dc.lft.to/lastmile_qr_scan"}, "fusion_lat": 0.0, "lat": 38.914007833333336, "is_disabled": 0, "lon": -77.032313, "is_reserved": 0}, {"bike_id": "4dbf04985fab9b2574babc642aff7760", "fusion_lon": 0.0, "type": "electric_scooter", "name": "4dbf04985fab9b2574babc642aff7760", "rental_uris": {"android": "https://dc.lft.to/lastmile_qr_scan", "ios": "https://dc.lft.to/lastmile_qr_scan"}, "fusion_lat": 0.0, "lat": 38.885017, "is_disabled": 0, "lon": -77.03351166666667, "is_reserved": 0}, {"bike_id": "5cc51069c3756e8612f4ed6ac7e27ed8", "fusion_lon": 0.0, "type": "electric_scooter", "name": "5cc51069c3756e8612f4ed6ac7e27ed8", "rental_uris": {"android": "https://dc.lft.to/lastmile_qr_scan", "ios": "https://dc.lft.to/lastmile_qr_scan"}, "fusion_lat": 0.0, "lat": 38.907797333333335, "is_disabled": 0, "lon": -77.011135, "is_reserved": 0}, {"bike_id": "fdce9f9633a5e08632ead75f1ca3c419", "fusion_lon": 0.0, "type": "electric_scooter", "name": "fdce9f9633a5e08632ead75f1ca3c419", "rental_uris": {"android": "https://dc.lft.to/lastmile_qr_scan", "ios": "https://dc.lft.to/lastmile_qr_scan"}, "fusion_lat": 0.0, "lat": 38.904322, "is_disabled": 0, "lon": -77.04354716666667, "is_reserved": 0}, {"bike_id": "8df686c27aaa6551d6bac93b92edf461", "fusion_lon": 0.0, "type": "electric_scooter", "name": "8df686c27aaa6551d6bac93b92edf461", "rental_uris": {"android": "https://dc.lft.to/lastmile_qr_scan", "ios": "https://dc.lft.to/lastmile_qr_scan"}, "fusion_lat": 0.0, "lat": 38.88417183333333, "is_disabled": 0, "lon": -76.99549766666667, "is_reserved": 0}, {"bike_id": "cce62253dc6a0ab833963637e7fa2be3", "fusion_lon": 0.0, "type": "electric_scooter", "name": "cce62253dc6a0ab833963637e7fa2be3", "rental_uris": {"android": "https://dc.lft.to/lastmile_qr_scan", "ios": "https://dc.lft.to/lastmile_qr_scan"}, "fusion_lat": 0.0, "lat": 38.91467683333333, "is_disabled": 0, "lon": -77.04188866666667, "is_reserved": 0}, {"bike_id": "f788ff3d08692322a95c09e3ddcad35b", "fusion_lon": 0.0, "type": "electric_scooter", "name": "f788ff3d08692322a95c09e3ddcad35b", "rental_uris": {"android": "https://dc.lft.to/lastmile_qr_scan", "ios": "https://dc.lft.to/lastmile_qr_scan"}, "fusion_lat": 0.0, "lat": 38.89369833333333, "is_disabled": 0, "lon": -76.94967833333334, "is_reserved": 0}, {"bike_id": "599873d64d4e83125e63734a6566a573", "fusion_lon": 0.0, "type": "electric_scooter", "name": "599873d64d4e83125e63734a6566a573", "rental_uris": {"android": "https://dc.lft.to/lastmile_qr_scan", "ios": "https://dc.lft.to/lastmile_qr_scan"}, "fusion_lat": 0.0, "lat": 38.92776883333333, "is_disabled": 0, "lon": -77.05583516666667, "is_reserved": 0}, {"bike_id": "8f3ae14e97f9d4c129b9793400a0895c", "fusion_lon": 0.0, "type": "electric_scooter", "name": "8f3ae14e97f9d4c129b9793400a0895c", "rental_uris": {"android": "https://dc.lft.to/lastmile_qr_scan", "ios": "https://dc.lft.to/lastmile_qr_scan"}, "fusion_lat": 0.0, "lat": 38.91037566666667, "is_disabled": 0, "lon": -77.02821416666667, "is_reserved": 0}, {"bike_id": "a43ab0dbf192a6bc04a62a004595da7a", "fusion_lon": 0.0, "type": "electric_bike", "name": "a43ab0dbf192a6bc04a62a004595da7a", "rental_uris": {"android": "https://dc.lft.to/lastmile_qr_scan", "ios": "https://dc.lft.to/lastmile_qr_scan"}, "fusion_lat": 0.0, "lat": 38.875245, "is_disabled": 0, "lon": -77.19915016666667, "is_reserved": 0}, {"bike_id": "9e75eb5754572def70148d053d0b8289", "fusion_lon": 0.0, "type": "electric_scooter", "name": "9e75eb5754572def70148d053d0b8289", "rental_uris": {"android": "https://dc.lft.to/lastmile_qr_scan", "ios": "https://dc.lft.to/lastmile_qr_scan"}, "fusion_lat": 0.0, "lat": 38.91102883333333, "is_disabled": 0, "lon": -77.07356933333334, "is_reserved": 0}, {"bike_id": "434fbf7f2ed5915bac9aec58c790a686", "fusion_lon": 0.0, "type": "electric_scooter", "name": "434fbf7f2ed5915bac9aec58c790a686", "rental_uris": {"android": "https://dc.lft.to/lastmile_qr_scan", "ios": "https://dc.lft.to/lastmile_qr_scan"}, "fusion_lat": 0.0, "lat": 38.9274285, "is_disabled": 0, "lon": -77.03337316666666, "is_reserved": 0}, {"bike_id": "5f524258335236bf1b2e93e448e5c68e", "fusion_lon": 0.0, "type": "electric_scooter", "name": "5f524258335236bf1b2e93e448e5c68e", "rental_uris": {"android": "https://dc.lft.to/lastmile_qr_scan", "ios": "https://dc.lft.to/lastmile_qr_scan"}, "fusion_lat": 0.0, "lat": 38.89155616666667, "is_disabled": 0, "lon": -77.00347433333333, "is_reserved": 0}, {"bike_id": "e40512e15425386c9e8dfee98e48bf03", "fusion_lon": 0.0, "type": "electric_scooter", "name": "e40512e15425386c9e8dfee98e48bf03", "rental_uris": {"android": "https://dc.lft.to/lastmile_qr_scan", "ios": "https://dc.lft.to/lastmile_qr_scan"}, "fusion_lat": 0.0, "lat": 38.95488833333334, "is_disabled": 0, "lon": -77.03653233333333, "is_reserved": 0}, {"bike_id": "140db6af365cceca24c5744e883338c4", "fusion_lon": 0.0, "type": "electric_scooter", "name": "140db6af365cceca24c5744e883338c4", "rental_uris": {"android": "https://dc.lft.to/lastmile_qr_scan", "ios": "https://dc.lft.to/lastmile_qr_scan"}, "fusion_lat": 0.0, "lat": 38.905028333333334, "is_disabled": 0, "lon": -77.06665316666667, "is_reserved": 0}, {"bike_id": "c2cd90f078346139f1a22d4c196f8b05", "fusion_lon": 0.0, "type": "electric_bike", "name": "c2cd90f078346139f1a22d4c196f8b05", "rental_uris": {"android": "https://dc.lft.to/lastmile_qr_scan", "ios": "https://dc.lft.to/lastmile_qr_scan"}, "fusion_lat": 0.0, "lat": 38.841235, "is_disabled": 0, "lon": -77.09027033333334, "is_reserved": 0}, {"bike_id": "3e7e47efc422a11d43e96075137aee61", "fusion_lon": 0.0, "type": "electric_bike", "name": "3e7e47efc422a11d43e96075137aee61", "rental_uris": {"android": "https://dc.lft.to/lastmile_qr_scan", "ios": "https://dc.lft.to/lastmile_qr_scan"}, "fusion_lat": 0.0, "lat": 39.09461066666667, "is_disabled": 0, "lon": -77.14990083333333, "is_reserved": 0}, {"bike_id": "0fb0d64d09fd0f6989fc0772d07f4479", "fusion_lon": 0.0, "type": "electric_scooter", "name": "0fb0d64d09fd0f6989fc0772d07f4479", "rental_uris": {"android": "https://dc.lft.to/lastmile_qr_scan", "ios": "https://dc.lft.to/lastmile_qr_scan"}, "fusion_lat": 0.0, "lat": 38.88134633333333, "is_disabled": 0, "lon": -77.027128, "is_reserved": 0}, {"bike_id": "6126edf1ec81c04c492b03ea25ffb06a", "fusion_lon": 0.0, "type": "electric_scooter", "name": "6126edf1ec81c04c492b03ea25ffb06a", "rental_uris": {"android": "https://dc.lft.to/lastmile_qr_scan", "ios": "https://dc.lft.to/lastmile_qr_scan"}, "fusion_lat": 0.0, "lat": 38.930387, "is_disabled": 0, "lon": -77.03304033333333, "is_reserved": 0}, {"bike_id": "604116ae0c2c2994fec5bc9e643c5196", "fusion_lon": 0.0, "type": "electric_scooter", "name": "604116ae0c2c2994fec5bc9e643c5196", "rental_uris": {"android": "https://dc.lft.to/lastmile_qr_scan", "ios": "https://dc.lft.to/lastmile_qr_scan"}, "fusion_lat": 0.0, "lat": 38.919149833333336, "is_disabled": 0, "lon": -77.02495033333334, "is_reserved": 0}, {"bike_id": "e1b8d759a5e2daa69eb4bb3a2d599212", "fusion_lon": 0.0, "type": "electric_scooter", "name": "e1b8d759a5e2daa69eb4bb3a2d599212", "rental_uris": {"android": "https://dc.lft.to/lastmile_qr_scan", "ios": "https://dc.lft.to/lastmile_qr_scan"}, "fusion_lat": 0.0, "lat": 38.916385166666664, "is_disabled": 0, "lon": -77.03214816666667, "is_reserved": 0}, {"bike_id": "0d58dac85aa069976547d86f6ca3d207", "fusion_lon": 0.0, "type": "electric_scooter", "name": "0d58dac85aa069976547d86f6ca3d207", "rental_uris": {"android": "https://dc.lft.to/lastmile_qr_scan", "ios": "https://dc.lft.to/lastmile_qr_scan"}, "fusion_lat": 0.0, "lat": 38.912448, "is_disabled": 0, "lon": -77.03274, "is_reserved": 0}, {"bike_id": "134dc5d9bd12677604e69bd9c86c22bc", "fusion_lon": 0.0, "type": "electric_scooter", "name": "134dc5d9bd12677604e69bd9c86c22bc", "rental_uris": {"android": "https://dc.lft.to/lastmile_qr_scan", "ios": "https://dc.lft.to/lastmile_qr_scan"}, "fusion_lat": 0.0, "lat": 38.921693, "is_disabled": 0, "lon": -77.041359, "is_reserved": 0}, {"bike_id": "e5a2e2c3c64ab926203cb05d146b7ed1", "fusion_lon": 0.0, "type": "electric_scooter", "name": "e5a2e2c3c64ab926203cb05d146b7ed1", "rental_uris": {"android": "https://dc.lft.to/lastmile_qr_scan", "ios": "https://dc.lft.to/lastmile_qr_scan"}, "fusion_lat": 0.0, "lat": 38.90348483333333, "is_disabled": 0, "lon": -77.03452633333333, "is_reserved": 0}, {"bike_id": "011efa6361bbcf037cd501d648218b8e", "fusion_lon": 0.0, "type": "electric_scooter", "name": "011efa6361bbcf037cd501d648218b8e", "rental_uris": {"android": "https://dc.lft.to/lastmile_qr_scan", "ios": "https://dc.lft.to/lastmile_qr_scan"}, "fusion_lat": 0.0, "lat": 38.97373133333333, "is_disabled": 0, "lon": -77.0312665, "is_reserved": 0}, {"bike_id": "3243f6949637e17a05172e25f2a985f3", "fusion_lon": 0.0, "type": "electric_scooter", "name": "3243f6949637e17a05172e25f2a985f3", "rental_uris": {"android": "https://dc.lft.to/lastmile_qr_scan", "ios": "https://dc.lft.to/lastmile_qr_scan"}, "fusion_lat": 0.0, "lat": 38.8929565, "is_disabled": 0, "lon": -77.046586, "is_reserved": 0}, {"bike_id": "c88f0720befcd369afe76c6cdc36cb17", "fusion_lon": 0.0, "type": "electric_scooter", "name": "c88f0720befcd369afe76c6cdc36cb17", "rental_uris": {"android": "https://dc.lft.to/lastmile_qr_scan", "ios": "https://dc.lft.to/lastmile_qr_scan"}, "fusion_lat": 0.0, "lat": 38.937591, "is_disabled": 0, "lon": -77.03283283333333, "is_reserved": 0}, {"bike_id": "da30100eed055b2ece3ee3e65dbab208", "fusion_lon": 0.0, "type": "electric_bike", "name": "da30100eed055b2ece3ee3e65dbab208", "rental_uris": {"android": "https://dc.lft.to/lastmile_qr_scan", "ios": "https://dc.lft.to/lastmile_qr_scan"}, "fusion_lat": 0.0, "lat": 38.9676115, "is_disabled": 0, "lon": -77.09163783333334, "is_reserved": 0}, {"bike_id": "62340a8530c74d774a7a69af72069ede", "fusion_lon": 0.0, "type": "electric_bike", "name": "62340a8530c74d774a7a69af72069ede", "rental_uris": {"android": "https://dc.lft.to/lastmile_qr_scan", "ios": "https://dc.lft.to/lastmile_qr_scan"}, "fusion_lat": 0.0, "lat": 38.9562365, "is_disabled": 0, "lon": -77.03624166666667, "is_reserved": 0}, {"bike_id": "d6e0b7a7ab3a35a72561d903b4fdc867", "fusion_lon": 0.0, "type": "electric_scooter", "name": "d6e0b7a7ab3a35a72561d903b4fdc867", "rental_uris": {"android": "https://dc.lft.to/lastmile_qr_scan", "ios": "https://dc.lft.to/lastmile_qr_scan"}, "fusion_lat": 0.0, "lat": 38.910306166666665, "is_disabled": 0, "lon": -77.03376466666667, "is_reserved": 0}, {"bike_id": "e889e8d4345030f6ab95f66ce9c91866", "fusion_lon": 0.0, "type": "electric_scooter", "name": "e889e8d4345030f6ab95f66ce9c91866", "rental_uris": {"android": "https://dc.lft.to/lastmile_qr_scan", "ios": "https://dc.lft.to/lastmile_qr_scan"}, "fusion_lat": 0.0, "lat": 38.918775833333335, "is_disabled": 0, "lon": -77.04179083333334, "is_reserved": 0}, {"bike_id": "2034ae4b8e59a1fe83e54b2e2bdf39d1", "fusion_lon": 0.0, "type": "electric_scooter", "name": "2034ae4b8e59a1fe83e54b2e2bdf39d1", "rental_uris": {"android": "https://dc.lft.to/lastmile_qr_scan", "ios": "https://dc.lft.to/lastmile_qr_scan"}, "fusion_lat": 0.0, "lat": 38.877017333333335, "is_disabled": 0, "lon": -77.01733166666666, "is_reserved": 0}, {"bike_id": "dd2218600ad108274a4b8cd1c647b9da", "fusion_lon": 0.0, "type": "electric_bike", "name": "dd2218600ad108274a4b8cd1c647b9da", "rental_uris": {"android": "https://dc.lft.to/lastmile_qr_scan", "ios": "https://dc.lft.to/lastmile_qr_scan"}, "fusion_lat": 0.0, "lat": 38.91613516666666, "is_disabled": 0, "lon": -77.03277433333334, "is_reserved": 0}, {"bike_id": "eb8d680ffa09669068b65d49dec7b95d", "fusion_lon": 0.0, "type": "electric_scooter", "name": "eb8d680ffa09669068b65d49dec7b95d", "rental_uris": {"android": "https://dc.lft.to/lastmile_qr_scan", "ios": "https://dc.lft.to/lastmile_qr_scan"}, "fusion_lat": 0.0, "lat": 38.91165433333333, "is_disabled": 0, "lon": -77.0384865, "is_reserved": 0}, {"bike_id": "dc2e38315f15d0e0275f60eb3e10ebbb", "fusion_lon": 0.0, "type": "electric_scooter", "name": "dc2e38315f15d0e0275f60eb3e10ebbb", "rental_uris": {"android": "https://dc.lft.to/lastmile_qr_scan", "ios": "https://dc.lft.to/lastmile_qr_scan"}, "fusion_lat": 0.0, "lat": 38.85525783333333, "is_disabled": 0, "lon": -76.9692255, "is_reserved": 0}, {"bike_id": "3cac8784066d3eaf95cefdbc0ab955ef", "fusion_lon": 0.0, "type": "electric_scooter", "name": "3cac8784066d3eaf95cefdbc0ab955ef", "rental_uris": {"android": "https://dc.lft.to/lastmile_qr_scan", "ios": "https://dc.lft.to/lastmile_qr_scan"}, "fusion_lat": 0.0, "lat": 38.91841216666667, "is_disabled": 0, "lon": -77.03540866666667, "is_reserved": 0}, {"bike_id": "bccf50e902bbbb3f30c19daf730b96ab", "fusion_lon": 0.0, "type": "electric_scooter", "name": "bccf50e902bbbb3f30c19daf730b96ab", "rental_uris": {"android": "https://dc.lft.to/lastmile_qr_scan", "ios": "https://dc.lft.to/lastmile_qr_scan"}, "fusion_lat": 0.0, "lat": 38.92379533333333, "is_disabled": 0, "lon": -77.0403575, "is_reserved": 0}, {"bike_id": "41cbc2542e00bdea873b5f89e0dd7d23", "fusion_lon": 0.0, "type": "electric_scooter", "name": "41cbc2542e00bdea873b5f89e0dd7d23", "rental_uris": {"android": "https://dc.lft.to/lastmile_qr_scan", "ios": "https://dc.lft.to/lastmile_qr_scan"}, "fusion_lat": 0.0, "lat": 38.89746566666667, "is_disabled": 0, "lon": -77.02207016666667, "is_reserved": 0}, {"bike_id": "1150d32519a867a3980f46b2fcf1ef26", "fusion_lon": 0.0, "type": "electric_scooter", "name": "1150d32519a867a3980f46b2fcf1ef26", "rental_uris": {"android": "https://dc.lft.to/lastmile_qr_scan", "ios": "https://dc.lft.to/lastmile_qr_scan"}, "fusion_lat": 0.0, "lat": 38.92261416666667, "is_disabled": 0, "lon": -76.99747766666667, "is_reserved": 0}, {"bike_id": "c63e9e39d6bea8cdb87ced5fb3927db3", "fusion_lon": 0.0, "type": "electric_scooter", "name": "c63e9e39d6bea8cdb87ced5fb3927db3", "rental_uris": {"android": "https://dc.lft.to/lastmile_qr_scan", "ios": "https://dc.lft.to/lastmile_qr_scan"}, "fusion_lat": 0.0, "lat": 38.900133833333335, "is_disabled": 0, "lon": -77.04501683333334, "is_reserved": 0}, {"bike_id": "08c0bfeff911d7acf46bf7d91f8d6924", "fusion_lon": 0.0, "type": "electric_bike", "name": "08c0bfeff911d7acf46bf7d91f8d6924", "rental_uris": {"android": "https://dc.lft.to/lastmile_qr_scan", "ios": "https://dc.lft.to/lastmile_qr_scan"}, "fusion_lat": 0.0, "lat": 38.85245283333333, "is_disabled": 0, "lon": -77.1143395, "is_reserved": 0}, {"bike_id": "7fe8baec3c225db114543f9541ca547f", "fusion_lon": 0.0, "type": "electric_scooter", "name": "7fe8baec3c225db114543f9541ca547f", "rental_uris": {"android": "https://dc.lft.to/lastmile_qr_scan", "ios": "https://dc.lft.to/lastmile_qr_scan"}, "fusion_lat": 0.0, "lat": 38.86476916666667, "is_disabled": 0, "lon": -76.9837495, "is_reserved": 0}, {"bike_id": "a10f8c4a735265ed7e59266e5fc2fb90", "fusion_lon": 0.0, "type": "electric_scooter", "name": "a10f8c4a735265ed7e59266e5fc2fb90", "rental_uris": {"android": "https://dc.lft.to/lastmile_qr_scan", "ios": "https://dc.lft.to/lastmile_qr_scan"}, "fusion_lat": 0.0, "lat": 38.920332, "is_disabled": 0, "lon": -77.03714933333333, "is_reserved": 0}, {"bike_id": "f506deb6a0583963d8f6122f76342d53", "fusion_lon": 0.0, "type": "electric_scooter", "name": "f506deb6a0583963d8f6122f76342d53", "rental_uris": {"android": "https://dc.lft.to/lastmile_qr_scan", "ios": "https://dc.lft.to/lastmile_qr_scan"}, "fusion_lat": 0.0, "lat": 38.908623, "is_disabled": 0, "lon": -77.03225316666666, "is_reserved": 0}, {"bike_id": "c5b5df187965884e38c1feec47fa0624", "fusion_lon": 0.0, "type": "electric_scooter", "name": "c5b5df187965884e38c1feec47fa0624", "rental_uris": {"android": "https://dc.lft.to/lastmile_qr_scan", "ios": "https://dc.lft.to/lastmile_qr_scan"}, "fusion_lat": 0.0, "lat": 38.904962833333336, "is_disabled": 0, "lon": -77.02978533333334, "is_reserved": 0}, {"bike_id": "3001643905d4fc1b22cfcdfe8de70ef5", "fusion_lon": 0.0, "type": "electric_scooter", "name": "3001643905d4fc1b22cfcdfe8de70ef5", "rental_uris": {"android": "https://dc.lft.to/lastmile_qr_scan", "ios": "https://dc.lft.to/lastmile_qr_scan"}, "fusion_lat": 0.0, "lat": 38.92639233333333, "is_disabled": 0, "lon": -77.02519633333333, "is_reserved": 0}, {"bike_id": "ed9b86f09dea84b398e78e50537e1b4f", "fusion_lon": 0.0, "type": "electric_scooter", "name": "ed9b86f09dea84b398e78e50537e1b4f", "rental_uris": {"android": "https://dc.lft.to/lastmile_qr_scan", "ios": "https://dc.lft.to/lastmile_qr_scan"}, "fusion_lat": 0.0, "lat": 38.899635833333335, "is_disabled": 0, "lon": -76.9376475, "is_reserved": 0}, {"bike_id": "505a4414ed582ebb78849af9e891fcea", "fusion_lon": 0.0, "type": "electric_scooter", "name": "505a4414ed582ebb78849af9e891fcea", "rental_uris": {"android": "https://dc.lft.to/lastmile_qr_scan", "ios": "https://dc.lft.to/lastmile_qr_scan"}, "fusion_lat": 0.0, "lat": 38.87468116666667, "is_disabled": 0, "lon": -77.00536383333333, "is_reserved": 0},