{"data": {"bikes": [{"lon": -77.06470683333333, "bike_id": "ceacfd888aacd4bed2ea67cd7c97909b", "lat": 38.94589333333333, "fusion_lon": 0.0, "fusion_lat": 0.0, "type": "electric_scooter", "name": "ceacfd888aacd4bed2ea67cd7c97909b", "is_disabled": 0, "rental_uris": {"ios": "https://dc.lft.to/lastmile_qr_scan", "android": "https://dc.lft.to/lastmile_qr_scan"}, "is_reserved": 0}, {"lon": -77.0318375, "bike_id": "ff7dfaff5d9c730f2c88e4d067358f26", "lat": 38.89238666666667, "fusion_lon": 0.0, "fusion_lat": 0.0, "type": "electric_scooter", "name": "ff7dfaff5d9c730f2c88e4d067358f26", "is_disabled": 0, "rental_uris": {"ios": "https://dc.lft.to/lastmile_qr_scan", "android": "https://dc.lft.to/lastmile_qr_scan"}, "is_reserved": 0}, {"lon": -77.03294616666666, "bike_id": "34666d7735a90d6e0435ab6648c39a78", "lat": 38.9565245, "fusion_lon": 0.0, "fusion_lat": 0.0, "type": "electric_scooter", "name": "34666d7735a90d6e0435ab6648c39a78", "is_disabled": 0, "rental_uris": {"ios": "https://dc.lft.to/lastmile_qr_scan", "android": "https://dc.lft.to/lastmile_qr_scan"}, "is_reserved": 0}, {"lon": -77.03201833333334, "bike_id": "a31e8d0c774f059a430873b2a4d83c96", "lat": 38.918297833333334, "fusion_lon": 0.0, "fusion_lat": 0.0, "type": "electric_scooter", "name": "a31e8d0c774f059a430873b2a4d83c96", "is_disabled": 0, "rental_uris": {"ios": "https://dc.lft.to/lastmile_qr_scan", "android": "https://dc.lft.to/lastmile_qr_scan"}, "is_reserved": 0}, {"lon": -77.01782033333333, "bike_id": "90af7ce1c3c9e1eccea7cdb81e8e561f", "lat": 38.887172666666665, "fusion_lon": 0.0, "fusion_lat": 0.0, "type": "electric_scooter", "name": "90af7ce1c3c9e1eccea7cdb81e8e561f", "is_disabled": 0, "rental_uris": {"ios": "https://dc.lft.to/lastmile_qr_scan", "android": "https://dc.lft.to/lastmile_qr_scan"}, "is_reserved": 0}, {"lon": -76.99790533333334, "bike_id": "e3e9104980fd9d76d9c10e72704a865a", "lat": 38.956499666666666, "fusion_lon": 0.0, "fusion_lat": 0.0, "type": "electric_bike", "name": "e3e9104980fd9d76d9c10e72704a865a", "is_disabled": 0, "rental_uris": {"ios": "https://dc.lft.to/lastmile_qr_scan", "android": "https://dc.lft.to/lastmile_qr_scan"}, "is_reserved": 0}, {"lon": -77.04715116666667, "bike_id": "463631f14b921348977e51cbc51cdf3d", "lat": 38.89960833333333, "fusion_lon": 0.0, "fusion_lat": 0.0, "type": "electric_scooter", "name": "463631f14b921348977e51cbc51cdf3d", "is_disabled": 0, "rental_uris": {"ios": "https://dc.lft.to/lastmile_qr_scan", "android": "https://dc.lft.to/lastmile_qr_scan"}, "is_reserved": 0}, {"lon": -77.03624983333333, "bike_id": "efdb8749b370ba50a2129d3855977f66", "lat": 38.937682833333334, "fusion_lon": 0.0, "fusion_lat": 0.0, "type": "electric_bike", "name": "efdb8749b370ba50a2129d3855977f66", "is_disabled": 0, "rental_uris": {"ios": "https://dc.lft.to/lastmile_qr_scan", "android": "https://dc.lft.to/lastmile_qr_scan"}, "is_reserved": 0}, {"lon": -77.031764, "bike_id": "f5a711f3a1553993c9158b420301e1d1", "lat": 38.892236, "fusion_lon": 0.0, "fusion_lat": 0.0, "type": "electric_scooter", "name": "f5a711f3a1553993c9158b420301e1d1", "is_disabled": 0, "rental_uris": {"ios": "https://dc.lft.to/lastmile_qr_scan", "android": "https://dc.lft.to/lastmile_qr_scan"}, "is_reserved": 0}, {"lon": -76.99470833333334, "bike_id": "1763a8716c688e6abb5302c5ea360866", "lat": 38.882747, "fusion_lon": 0.0, "fusion_lat": 0.0, "type": "electric_scooter", "name": "1763a8716c688e6abb5302c5ea360866", "is_disabled": 0, "rental_uris": {"ios": "https://dc.lft.to/lastmile_qr_scan", "android": "https://dc.lft.to/lastmile_qr_scan"}, "is_reserved": 0}, {"lon": -76.97327866666667, "bike_id": "3448b42cabce9e86e9d788b2667a05ec", "lat": 38.904822333333335, "fusion_lon": 0.0, "fusion_lat": 0.0, "type": "electric_bike", "name": "3448b42cabce9e86e9d788b2667a05ec", "is_disabled": 0, "rental_uris": {"ios": "https://dc.lft.to/lastmile_qr_scan", "android": "https://dc.lft.to/lastmile_qr_scan"}, "is_reserved": 0}, {"lon": -77.03863966666667, "bike_id": "d3bb14bd41dd07b39a8d9c5294232dd3", "lat": 38.91179183333333, "fusion_lon": 0.0, "fusion_lat": 0.0, "type": "electric_scooter", "name": "d3bb14bd41dd07b39a8d9c5294232dd3", "is_disabled": 0, "rental_uris": {"ios": "https://dc.lft.to/lastmile_qr_scan", "android": "https://dc.lft.to/lastmile_qr_scan"}, "is_reserved": 0}, {"lon": -77.03032183333333, "bike_id": "15b1acb30c84a7ef246a09eaa1b966dc", "lat": 38.93117616666667, "fusion_lon": 0.0, "fusion_lat": 0.0, "type": "electric_scooter", "name": "15b1acb30c84a7ef246a09eaa1b966dc", "is_disabled": 0, "rental_uris": {"ios": "https://dc.lft.to/lastmile_qr_scan", "android": "https://dc.lft.to/lastmile_qr_scan"}, "is_reserved": 0}, {"lon": -77.0449775, "bike_id": "494d151f9029bcd3a313fb87f78304bd", "lat": 38.91115833333333, "fusion_lon": 0.0, "fusion_lat": 0.0, "type": "electric_scooter", "name": "494d151f9029bcd3a313fb87f78304bd", "is_disabled": 0, "rental_uris": {"ios": "https://dc.lft.to/lastmile_qr_scan", "android": "https://dc.lft.to/lastmile_qr_scan"}, "is_reserved": 0}, {"lon": -77.02393416666666, "bike_id": "cf32a6e2bec50db2b632cc580960bcdd", "lat": 38.881395, "fusion_lon": 0.0, "fusion_lat": 0.0, "type": "electric_scooter", "name": "cf32a6e2bec50db2b632cc580960bcdd", "is_disabled": 0, "rental_uris": {"ios": "https://dc.lft.to/lastmile_qr_scan", "android": "https://dc.lft.to/lastmile_qr_scan"}, "is_reserved": 0}, {"lon": -77.115684, "bike_id": "33caf6db00c65975caae259dd3b347cf", "lat": 38.993474166666665, "fusion_lon": 0.0, "fusion_lat": 0.0, "type": "electric_bike", "name": "33caf6db00c65975caae259dd3b347cf", "is_disabled": 0, "rental_uris": {"ios": "https://dc.lft.to/lastmile_qr_scan", "android": "https://dc.lft.to/lastmile_qr_scan"}, "is_reserved": 0}, {"lon": -77.02712866666667, "bike_id": "cbbf6b953996e1ad053d6cdb0ea8e2bf", "lat": 38.9027525, "fusion_lon": 0.0, "fusion_lat": 0.0, "type": "electric_scooter", "name": "cbbf6b953996e1ad053d6cdb0ea8e2bf", "is_disabled": 0, "rental_uris": {"ios": "https://dc.lft.to/lastmile_qr_scan", "android": "https://dc.lft.to/lastmile_qr_scan"}, "is_reserved": 0}, {"lon": -76.98526516666666, "bike_id": "f51226420dc611880bd2f47e7f48a16a", "lat": 38.86687, "fusion_lon": 0.0, "fusion_lat": 0.0, "type": "electric_scooter", "name": "f51226420dc611880bd2f47e7f48a16a", "is_disabled": 0, "rental_uris": {"ios": "https://dc.lft.to/lastmile_qr_scan", "android": "https://dc.lft.to/lastmile_qr_scan"}, "is_reserved": 0}, {"lon": -77.0296675, "bike_id": "cc5494128e93e6e01e7355132e870fc7", "lat": 38.91661783333333, "fusion_lon": 0.0, "fusion_lat": 0.0, "type": "electric_scooter", "name": "cc5494128e93e6e01e7355132e870fc7", "is_disabled": 0, "rental_uris": {"ios": "https://dc.lft.to/lastmile_qr_scan", "android": "https://dc.lft.to/lastmile_qr_scan"}, "is_reserved": 0}, {"lon": -77.01478566666667, "bike_id": "dc7c78c635a0b928f1222371d2f87437", "lat": 38.9587115, "fusion_lon": 0.0, "fusion_lat": 0.0, "type": "electric_scooter", "name": "dc7c78c635a0b928f1222371d2f87437", "is_disabled": 0, "rental_uris": {"ios": "https://dc.lft.to/lastmile_qr_scan", "android": "https://dc.lft.to/lastmile_qr_scan"}, "is_reserved": 0}, {"lon": -77.0344945, "bike_id": "c1c9c1441c7deb6e129d1c39686dc00a", "lat": 38.93613, "fusion_lon": 0.0, "fusion_lat": 0.0, "type": "electric_scooter", "name": "c1c9c1441c7deb6e129d1c39686dc00a", "is_disabled": 0, "rental_uris": {"ios": "https://dc.lft.to/lastmile_qr_scan", "android": "https://dc.lft.to/lastmile_qr_scan"}, "is_reserved": 0}, {"lon": -77.02910616666666, "bike_id": "9d9fd73ffff7ef1ff2326f244553d342", "lat": 38.916981166666666, "fusion_lon": 0.0, "fusion_lat": 0.0, "type": "electric_scooter", "name": "9d9fd73ffff7ef1ff2326f244553d342", "is_disabled": 0, "rental_uris": {"ios": "https://dc.lft.to/lastmile_qr_scan", "android": "https://dc.lft.to/lastmile_qr_scan"}, "is_reserved": 0}, {"lon": -77.0737775, "bike_id": "6fd41f9b0088e9c2d47fc52d32d7ceb2", "lat": 38.9622485, "fusion_lon": 0.0, "fusion_lat": 0.0, "type": "electric_scooter", "name": "6fd41f9b0088e9c2d47fc52d32d7ceb2", "is_disabled": 0, "rental_uris": {"ios": "https://dc.lft.to/lastmile_qr_scan", "android": "https://dc.lft.to/lastmile_qr_scan"}, "is_reserved": 0}, {"lon": -77.02446016666667, "bike_id": "8532a8014aac2540da4f8f7a62cb5cd1", "lat": 38.914136166666665, "fusion_lon": 0.0, "fusion_lat": 0.0, "type": "electric_scooter", "name": "8532a8014aac2540da4f8f7a62cb5cd1", "is_disabled": 0, "rental_uris": {"ios": "https://dc.lft.to/lastmile_qr_scan", "android": "https://dc.lft.to/lastmile_qr_scan"}, "is_reserved": 0}, {"lon": -77.02688383333333, "bike_id": "071b3bf68446fee4905d3dff124c0923", "lat": 38.908482, "fusion_lon": 0.0, "fusion_lat": 0.0, "type": "electric_scooter", "name": "071b3bf68446fee4905d3dff124c0923", "is_disabled": 0, "rental_uris": {"ios": "https://dc.lft.to/lastmile_qr_scan", "android": "https://dc.lft.to/lastmile_qr_scan"}, "is_reserved": 0}, {"lon": -77.04435733333334, "bike_id": "fcd5958cc2430207813a87fe359cca57", "lat": 38.89737733333333, "fusion_lon": 0.0, "fusion_lat": 0.0, "type": "electric_scooter", "name": "fcd5958cc2430207813a87fe359cca57", "is_disabled": 0, "rental_uris": {"ios": "https://dc.lft.to/lastmile_qr_scan", "android": "https://dc.lft.to/lastmile_qr_scan"}, "is_reserved": 0}, {"lon": -77.046152, "bike_id": "1b4630482ab378adeb52b0ce60bcf4ba", "lat": 38.91579866666667, "fusion_lon": 0.0, "fusion_lat": 0.0, "type": "electric_scooter", "name": "1b4630482ab378adeb52b0ce60bcf4ba", "is_disabled": 0, "rental_uris": {"ios": "https://dc.lft.to/lastmile_qr_scan", "android": "https://dc.lft.to/lastmile_qr_scan"}, "is_reserved": 0}, {"lon": -77.023812, "bike_id": "2a64daa6dd4a146e4599536dc0c05a74", "lat": 38.91997766666667, "fusion_lon": 0.0, "fusion_lat": 0.0, "type": "electric_scooter", "name": "2a64daa6dd4a146e4599536dc0c05a74", "is_disabled": 0, "rental_uris": {"ios": "https://dc.lft.to/lastmile_qr_scan", "android": "https://dc.lft.to/lastmile_qr_scan"}, "is_reserved": 0}, {"lon": -77.05216833333333, "bike_id": "8c838559e58c702d0669d772aef4e346", "lat": 38.900748666666665, "fusion_lon": 0.0, "fusion_lat": 0.0, "type": "electric_scooter", "name": "8c838559e58c702d0669d772aef4e346", "is_disabled": 0, "rental_uris": {"ios": "https://dc.lft.to/lastmile_qr_scan", "android": "https://dc.lft.to/lastmile_qr_scan"}, "is_reserved": 0}, {"lon": -77.0071355, "bike_id": "5694f69c092d7cd3136226073cbb21a7", "lat": 38.9060495, "fusion_lon": 0.0, "fusion_lat": 0.0, "type": "electric_scooter", "name": "5694f69c092d7cd3136226073cbb21a7", "is_disabled": 0, "rental_uris": {"ios": "https://dc.lft.to/lastmile_qr_scan", "android": "https://dc.lft.to/lastmile_qr_scan"}, "is_reserved": 0}, {"lon": -77.02961366666666, "bike_id": "5599fd79a3a509fa0edbafdf089fcfcc", "lat": 38.923890166666666, "fusion_lon": 0.0, "fusion_lat": 0.0, "type": "electric_scooter", "name": "5599fd79a3a509fa0edbafdf089fcfcc", "is_disabled": 0, "rental_uris": {"ios": "https://dc.lft.to/lastmile_qr_scan", "android": "https://dc.lft.to/lastmile_qr_scan"}, "is_reserved": 0}, {"lon": -77.0034025, "bike_id": "8498a3b27095ba70baa5bd0ba81ce39e", "lat": 38.891985, "fusion_lon": 0.0, "fusion_lat": 0.0, "type": "electric_scooter", "name": "8498a3b27095ba70baa5bd0ba81ce39e", "is_disabled": 0, "rental_uris": {"ios": "https://dc.lft.to/lastmile_qr_scan", "android": "https://dc.lft.to/lastmile_qr_scan"}, "is_reserved": 0}, {"lon": -77.02117983333333, "bike_id": "a5c86e160b60a522257d45e852e07745", "lat": 38.937016, "fusion_lon": 0.0, "fusion_lat": 0.0, "type": "electric_scooter", "name": "a5c86e160b60a522257d45e852e07745", "is_disabled": 0, "rental_uris": {"ios": "https://dc.lft.to/lastmile_qr_scan", "android": "https://dc.lft.to/lastmile_qr_scan"}, "is_reserved": 0}, {"lon": -77.36092433333333, "bike_id": "5ac733a1f0d153dab730e3193707ea45", "lat": 38.9396665, "fusion_lon": 0.0, "fusion_lat": 0.0, "type": "electric_bike", "name": "5ac733a1f0d153dab730e3193707ea45", "is_disabled": 0, "rental_uris": {"ios": "https://dc.lft.to/lastmile_qr_scan", "android": "https://dc.lft.to/lastmile_qr_scan"}, "is_reserved": 0}, {"lon": -77.02017883333333, "bike_id": "7bc6096f1302b4500215be6ccb5f320a", "lat": 38.90166933333333, "fusion_lon": 0.0, "fusion_lat": 0.0, "type": "electric_scooter", "name": "7bc6096f1302b4500215be6ccb5f320a", "is_disabled": 0, "rental_uris": {"ios": "https://dc.lft.to/lastmile_qr_scan", "android": "https://dc.lft.to/lastmile_qr_scan"}, "is_reserved": 0}, {"lon": -77.0529835, "bike_id": "359e9e35456d1a37a472de16a9549f3d", "lat": 38.8989325, "fusion_lon": 0.0, "fusion_lat": 0.0, "type": "electric_scooter", "name": "359e9e35456d1a37a472de16a9549f3d", "is_disabled": 0, "rental_uris": {"ios": "https://dc.lft.to/lastmile_qr_scan", "android": "https://dc.lft.to/lastmile_qr_scan"}, "is_reserved": 0}, {"lon": -77.02495316666666, "bike_id": "44f1e677affcc988e4eeb9f0c1c13fe0", "lat": 38.93103816666667, "fusion_lon": 0.0, "fusion_lat": 0.0, "type": "electric_scooter", "name": "44f1e677affcc988e4eeb9f0c1c13fe0", "is_disabled": 0, "rental_uris": {"ios": "https://dc.lft.to/lastmile_qr_scan", "android": "https://dc.lft.to/lastmile_qr_scan"}, "is_reserved": 0}, {"lon": -77.03277166666666, "bike_id": "ec85d3f836427d06ebea40f9cb52d2a5", "lat": 38.939802, "fusion_lon": 0.0, "fusion_lat": 0.0, "type": "electric_scooter", "name": "ec85d3f836427d06ebea40f9cb52d2a5", "is_disabled": 0, "rental_uris": {"ios": "https://dc.lft.to/lastmile_qr_scan", "android": "https://dc.lft.to/lastmile_qr_scan"}, "is_reserved": 0}, {"lon": -77.02686916666667, "bike_id": "2f01daee249b9907486e62811d31fca4", "lat": 38.90590483333333, "fusion_lon": 0.0, "fusion_lat": 0.0, "type": "electric_scooter", "name": "2f01daee249b9907486e62811d31fca4", "is_disabled": 0, "rental_uris": {"ios": "https://dc.lft.to/lastmile_qr_scan", "android": "https://dc.lft.to/lastmile_qr_scan"}, "is_reserved": 0}, {"lon": -77.0416315, "bike_id": "fac3bf89934786125392fa996d0518e6", "lat": 38.9125455, "fusion_lon": 0.0, "fusion_lat": 0.0, "type": "electric_scooter", "name": "fac3bf89934786125392fa996d0518e6", "is_disabled": 0, "rental_uris": {"ios": "https://dc.lft.to/lastmile_qr_scan", "android": "https://dc.lft.to/lastmile_qr_scan"}, "is_reserved": 0}, {"lon": -76.99472933333334, "bike_id": "7cd156bd303356da24b2e2dba5d3f8ff", "lat": 38.88268383333333, "fusion_lon": 0.0, "fusion_lat": 0.0, "type": "electric_scooter", "name": "7cd156bd303356da24b2e2dba5d3f8ff", "is_disabled": 0, "rental_uris": {"ios": "https://dc.lft.to/lastmile_qr_scan", "android": "https://dc.lft.to/lastmile_qr_scan"}, "is_reserved": 0}, {"lon": -76.94727883333333, "bike_id": "5a25c3b808bac37fa08659859485ae5b", "lat": 38.89741033333333, "fusion_lon": 0.0, "fusion_lat": 0.0, "type": "electric_scooter", "name": "5a25c3b808bac37fa08659859485ae5b", "is_disabled": 0, "rental_uris": {"ios": "https://dc.lft.to/lastmile_qr_scan", "android": "https://dc.lft.to/lastmile_qr_scan"}, "is_reserved": 0}, {"lon": -77.02712916666667, "bike_id": "b9681008da79ffe487f9f2f5f46d942b", "lat": 38.90672266666667, "fusion_lon": 0.0, "fusion_lat": 0.0, "type": "electric_scooter", "name": "b9681008da79ffe487f9f2f5f46d942b", "is_disabled": 0, "rental_uris": {"ios": "https://dc.lft.to/lastmile_qr_scan", "android": "https://dc.lft.to/lastmile_qr_scan"}, "is_reserved": 0}, {"lon": -76.97704, "bike_id": "95ea7ff9d378a9aca1f1b549930f2de9", "lat": 38.94915266666667, "fusion_lon": 0.0, "fusion_lat": 0.0, "type": "electric_bike", "name": "95ea7ff9d378a9aca1f1b549930f2de9", "is_disabled": 0, "rental_uris": {"ios": "https://dc.lft.to/lastmile_qr_scan", "android": "https://dc.lft.to/lastmile_qr_scan"}, "is_reserved": 0}, {"lon": -77.016242, "bike_id": "c66323ac8ffe7f34c791fb41ddb6cacd", "lat": 38.9657365, "fusion_lon": 0.0, "fusion_lat": 0.0, "type": "electric_scooter", "name": "c66323ac8ffe7f34c791fb41ddb6cacd", "is_disabled": 0, "rental_uris": {"ios": "https://dc.lft.to/lastmile_qr_scan", "android": "https://dc.lft.to/lastmile_qr_scan"}, "is_reserved": 0}, {"lon": -77.02710683333333, "bike_id": "df26a2e607771c6c017fd4b8d83a4db0", "lat": 38.90874483333333, "fusion_lon": 0.0, "fusion_lat": 0.0, "type": "electric_scooter", "name": "df26a2e607771c6c017fd4b8d83a4db0", "is_disabled": 0, "rental_uris": {"ios": "https://dc.lft.to/lastmile_qr_scan", "android": "https://dc.lft.to/lastmile_qr_scan"}, "is_reserved": 0}, {"lon": -76.90473516666667, "bike_id": "791cf417a8e063acb750856312ffb1f3", "lat": 39.002931, "fusion_lon": 0.0, "fusion_lat": 0.0, "type": "electric_bike", "name": "791cf417a8e063acb750856312ffb1f3", "is_disabled": 0, "rental_uris": {"ios": "https://dc.lft.to/lastmile_qr_scan", "android": "https://dc.lft.to/lastmile_qr_scan"}, "is_reserved": 0}, {"lon": -77.01203, "bike_id": "566ddd47551885126dafdf2cb6fb79aa", "lat": 38.88553433333333, "fusion_lon": 0.0, "fusion_lat": 0.0, "type": "electric_scooter", "name": "566ddd47551885126dafdf2cb6fb79aa", "is_disabled": 0, "rental_uris": {"ios": "https://dc.lft.to/lastmile_qr_scan", "android": "https://dc.lft.to/lastmile_qr_scan"}, "is_reserved": 0}, {"lon": -76.98849066666666, "bike_id": "1a3e96e74bdb41f5f24c9fcc8f54f69c", "lat": 38.901282, "fusion_lon": 0.0, "fusion_lat": 0.0, "type": "electric_scooter", "name": "1a3e96e74bdb41f5f24c9fcc8f54f69c", "is_disabled": 0, "rental_uris": {"ios": "https://dc.lft.to/lastmile_qr_scan", "android": "https://dc.lft.to/lastmile_qr_scan"}, "is_reserved": 0}, {"lon": -77.03321816666667, "bike_id": "cfa4e64b978f8c9ad59854d98018cb0d", "lat": 38.89652566666667, "fusion_lon": 0.0, "fusion_lat": 0.0, "type": "electric_scooter", "name": "cfa4e64b978f8c9ad59854d98018cb0d", "is_disabled": 0, "rental_uris": {"ios": "https://dc.lft.to/lastmile_qr_scan", "android": "https://dc.lft.to/lastmile_qr_scan"}, "is_reserved": 0}, {"lon": -77.02204183333333, "bike_id": "4c4dbc9af918eba68abbf50eae3f8362", "lat": 38.90197366666666, "fusion_lon": 0.0, "fusion_lat": 0.0, "type": "electric_scooter", "name": "4c4dbc9af918eba68abbf50eae3f8362", "is_disabled": 0, "rental_uris": {"ios": "https://dc.lft.to/lastmile_qr_scan", "android": "https://dc.lft.to/lastmile_qr_scan"}, "is_reserved": 0}, {"lon": -77.0364325, "bike_id": "1d2959657302d24bb0903bd583a12431", "lat": 38.912902333333335, "fusion_lon": 0.0, "fusion_lat": 0.0, "type": "electric_scooter", "name": "1d2959657302d24bb0903bd583a12431", "is_disabled": 0, "rental_uris": {"ios": "https://dc.lft.to/lastmile_qr_scan", "android": "https://dc.lft.to/lastmile_qr_scan"}, "is_reserved": 0}, {"lon": -77.1222505, "bike_id": "70a15a432de0f081d909607074beeb2a", "lat": 38.853034666666666, "fusion_lon": 0.0, "fusion_lat": 0.0, "type": "electric_bike", "name": "70a15a432de0f081d909607074beeb2a", "is_disabled": 0, "rental_uris": {"ios": "https://dc.lft.to/lastmile_qr_scan", "android": "https://dc.lft.to/lastmile_qr_scan"}, "is_reserved": 0}, {"lon": -77.04264283333333, "bike_id": "24bad464ddcbc344b8f9654cf03b53de", "lat": 38.91043116666667, "fusion_lon": 0.0, "fusion_lat": 0.0, "type": "electric_scooter", "name": "24bad464ddcbc344b8f9654cf03b53de", "is_disabled": 0, "rental_uris": {"ios": "https://dc.lft.to/lastmile_qr_scan", "android": "https://dc.lft.to/lastmile_qr_scan"}, "is_reserved": 0}, {"lon": -77.01457583333334, "bike_id": "baed6c448cfe07253fb29774a6dec6c8", "lat": 38.905201, "fusion_lon": 0.0, "fusion_lat": 0.0, "type": "electric_scooter", "name": "baed6c448cfe07253fb29774a6dec6c8", "is_disabled": 0, "rental_uris": {"ios": "https://dc.lft.to/lastmile_qr_scan", "android": "https://dc.lft.to/lastmile_qr_scan"}, "is_reserved": 0}, {"lon": -77.0405085, "bike_id": "f8523c5b69b4e0c57db8e0c3bcd3c3fa", "lat": 38.914944, "fusion_lon": 0.0, "fusion_lat": 0.0, "type": "electric_scooter", "name": "f8523c5b69b4e0c57db8e0c3bcd3c3fa", "is_disabled": 0, "rental_uris": {"ios": "https://dc.lft.to/lastmile_qr_scan", "android": "https://dc.lft.to/lastmile_qr_scan"}, "is_reserved": 0}, {"lon": -77.04344683333333, "bike_id": "605244fc73808941f79f39a29dfbd209", "lat": 38.92149216666667, "fusion_lon": 0.0, "fusion_lat": 0.0, "type": "electric_scooter", "name": "605244fc73808941f79f39a29dfbd209", "is_disabled": 0, "rental_uris": {"ios": "https://dc.lft.to/lastmile_qr_scan", "android": "https://dc.lft.to/lastmile_qr_scan"}, "is_reserved": 0}, {"lon": -76.97741166666667, "bike_id": "ad6caac430748cdebba40ded02ac9278", "lat": 38.864743833333335, "fusion_lon": 0.0, "fusion_lat": 0.0, "type": "electric_scooter", "name": "ad6caac430748cdebba40ded02ac9278", "is_disabled": 0, "rental_uris": {"ios": "https://dc.lft.to/lastmile_qr_scan", "android": "https://dc.lft.to/lastmile_qr_scan"}, "is_reserved": 0}, {"lon": -77.01368183333334, "bike_id": "a865bde92ad387d5021527500e9a1164", "lat": 38.90614166666667, "fusion_lon": 0.0, "fusion_lat": 0.0, "type": "electric_scooter", "name": "a865bde92ad387d5021527500e9a1164", "is_disabled": 0, "rental_uris": {"ios": "https://dc.lft.to/lastmile_qr_scan", "android": "https://dc.lft.to/lastmile_qr_scan"}, "is_reserved": 0}, {"lon": -76.9961015, "bike_id": "8ad90bb633532b0602a13b11576ed436", "lat": 38.90223483333333, "fusion_lon": 0.0, "fusion_lat": 0.0, "type": "electric_scooter", "name": "8ad90bb633532b0602a13b11576ed436", "is_disabled": 0, "rental_uris": {"ios": "https://dc.lft.to/lastmile_qr_scan", "android": "https://dc.lft.to/lastmile_qr_scan"}, "is_reserved": 0}, {"lon": -77.01733533333334, "bike_id": "a62dd7609091bd104d269b1384d9fdce", "lat": 38.880621, "fusion_lon": 0.0, "fusion_lat": 0.0, "type": "electric_scooter", "name": "a62dd7609091bd104d269b1384d9fdce", "is_disabled": 0, "rental_uris": {"ios": "https://dc.lft.to/lastmile_qr_scan", "android": "https://dc.lft.to/lastmile_qr_scan"}, "is_reserved": 0}, {"lon": -77.0313955, "bike_id": "0b2ceaca07715b7a523a80a032d628ff", "lat": 38.90360783333333, "fusion_lon": 0.0, "fusion_lat": 0.0, "type": "electric_scooter", "name": "0b2ceaca07715b7a523a80a032d628ff", "is_disabled": 0, "rental_uris": {"ios": "https://dc.lft.to/lastmile_qr_scan", "android": "https://dc.lft.to/lastmile_qr_scan"}, "is_reserved": 0}, {"lon": -77.02176283333333, "bike_id": "e29002f6338fecbf7641d1b990746cee", "lat": 38.91426216666667, "fusion_lon": 0.0, "fusion_lat": 0.0, "type": "electric_scooter", "name": "e29002f6338fecbf7641d1b990746cee", "is_disabled": 0, "rental_uris": {"ios": "https://dc.lft.to/lastmile_qr_scan", "android": "https://dc.lft.to/lastmile_qr_scan"}, "is_reserved": 0}, {"lon": -77.02058133333334, "bike_id": "d0e2b12afaa5b733b5b9bb39f87b189f", "lat": 38.92357666666667, "fusion_lon": 0.0, "fusion_lat": 0.0, "type": "electric_scooter", "name": "d0e2b12afaa5b733b5b9bb39f87b189f", "is_disabled": 0, "rental_uris": {"ios": "https://dc.lft.to/lastmile_qr_scan", "android": "https://dc.lft.to/lastmile_qr_scan"}, "is_reserved": 0}, {"lon": -77.08588566666667, "bike_id": "890dd2cc2f93f491451bf4ab7b40dd07", "lat": 38.908818, "fusion_lon": 0.0, "fusion_lat": 0.0, "type": "electric_scooter", "name": "890dd2cc2f93f491451bf4ab7b40dd07", "is_disabled": 0, "rental_uris": {"ios": "https://dc.lft.to/lastmile_qr_scan", "android": "https://dc.lft.to/lastmile_qr_scan"}, "is_reserved": 0}, {"lon": -76.946322, "bike_id": "387ec1df3c90e0f436609c8cd1102aa3", "lat": 38.89836366666667, "fusion_lon": 0.0, "fusion_lat": 0.0, "type": "electric_scooter", "name": "387ec1df3c90e0f436609c8cd1102aa3", "is_disabled": 0, "rental_uris": {"ios": "https://dc.lft.to/lastmile_qr_scan", "android": "https://dc.lft.to/lastmile_qr_scan"}, "is_reserved": 0}, {"lon": -76.9837395, "bike_id": "f849850bd00dc88094a2c9b4e3d31633", "lat": 38.9064895, "fusion_lon": 0.0, "fusion_lat": 0.0, "type": "electric_scooter", "name": "f849850bd00dc88094a2c9b4e3d31633", "is_disabled": 0, "rental_uris": {"ios": "https://dc.lft.to/lastmile_qr_scan", "android": "https://dc.lft.to/lastmile_qr_scan"}, "is_reserved": 0}, {"lon": -77.01533666666667, "bike_id": "46d01bbaaa4bbe737cd84bb8cf64e489", "lat": 38.926838000000004, "fusion_lon": 0.0, "fusion_lat": 0.0, "type": "electric_scooter", "name": "46d01bbaaa4bbe737cd84bb8cf64e489", "is_disabled": 0, "rental_uris": {"ios": "https://dc.lft.to/lastmile_qr_scan", "android": "https://dc.lft.to/lastmile_qr_scan"}, "is_reserved": 0}, {"lon": -77.04152733333333, "bike_id": "0b6f4834262ba454ac58d5e58396893d", "lat": 38.91992166666667, "fusion_lon": 0.0, "fusion_lat": 0.0, "type": "electric_scooter", "name": "0b6f4834262ba454ac58d5e58396893d", "is_disabled": 0, "rental_uris": {"ios": "https://dc.lft.to/lastmile_qr_scan", "android": "https://dc.lft.to/lastmile_qr_scan"}, "is_reserved": 0}, {"lon": -77.04721866666667, "bike_id": "73b313311284a5dab8c96773dd006b01", "lat": 38.9019265, "fusion_lon": 0.0, "fusion_lat": 0.0, "type": "electric_scooter", "name": "73b313311284a5dab8c96773dd006b01", "is_disabled": 0, "rental_uris": {"ios": "https://dc.lft.to/lastmile_qr_scan", "android": "https://dc.lft.to/lastmile_qr_scan"}, "is_reserved": 0}, {"lon": -77.04489583333333, "bike_id": "8bdbc91f20ab34f142321072c8c516ca", "lat": 38.91712483333333, "fusion_lon": 0.0, "fusion_lat": 0.0, "type": "electric_bike", "name": "8bdbc91f20ab34f142321072c8c516ca", "is_disabled": 0, "rental_uris": {"ios": "https://dc.lft.to/lastmile_qr_scan", "android": "https://dc.lft.to/lastmile_qr_scan"}, "is_reserved": 0}, {"lon": -77.02948133333334, "bike_id": "f8f6e6116653be5f0253b1d7057ff130", "lat": 38.89657916666667, "fusion_lon": 0.0, "fusion_lat": 0.0, "type": "electric_scooter", "name": "f8f6e6116653be5f0253b1d7057ff130", "is_disabled": 0, "rental_uris": {"ios": "https://dc.lft.to/lastmile_qr_scan", "android": "https://dc.lft.to/lastmile_qr_scan"}, "is_reserved": 0}, {"lon": -77.0130405, "bike_id": "12182fadaff69dede1395f5fbabe9e39", "lat": 38.9432935, "fusion_lon": 0.0, "fusion_lat": 0.0, "type": "electric_scooter", "name": "12182fadaff69dede1395f5fbabe9e39", "is_disabled": 0, "rental_uris": {"ios": "https://dc.lft.to/lastmile_qr_scan", "android": "https://dc.lft.to/lastmile_qr_scan"}, "is_reserved": 0}, {"lon": -77.00572016666666, "bike_id": "5d045558e802ead8a1f398531e08d95d", "lat": 38.83597916666667, "fusion_lon": 0.0, "fusion_lat": 0.0, "type": "electric_scooter", "name": "5d045558e802ead8a1f398531e08d95d", "is_disabled": 0, "rental_uris": {"ios": "https://dc.lft.to/lastmile_qr_scan", "android": "https://dc.lft.to/lastmile_qr_scan"}, "is_reserved": 0}, {"lon": -77.0320385, "bike_id": "fe455d5eab3de4473805ba0e813f1a9a", "lat": 38.91928566666667, "fusion_lon": 0.0, "fusion_lat": 0.0, "type": "electric_scooter", "name": "fe455d5eab3de4473805ba0e813f1a9a", "is_disabled": 0, "rental_uris": {"ios": "https://dc.lft.to/lastmile_qr_scan", "android": "https://dc.lft.to/lastmile_qr_scan"}, "is_reserved": 0}, {"lon": -76.99376483333333, "bike_id": "281f14e507df6a534704fb05c8adda87", "lat": 38.9718885, "fusion_lon": 0.0, "fusion_lat": 0.0, "type": "electric_bike", "name": "281f14e507df6a534704fb05c8adda87", "is_disabled": 0, "rental_uris": {"ios": "https://dc.lft.to/lastmile_qr_scan", "android": "https://dc.lft.to/lastmile_qr_scan"}, "is_reserved": 0}, {"lon": -77.03434316666667, "bike_id": "6969071c60b7851dc82f5f6d6463b1b4", "lat": 38.91798983333333, "fusion_lon": 0.0, "fusion_lat": 0.0, "type": "electric_scooter", "name": "6969071c60b7851dc82f5f6d6463b1b4", "is_disabled": 0, "rental_uris": {"ios": "https://dc.lft.to/lastmile_qr_scan", "android": "https://dc.lft.to/lastmile_qr_scan"}, "is_reserved": 0}, {"lon": -77.04875683333333, "bike_id": "bd40df8cb69f38449f27a4e9a58f0991", "lat": 38.892325166666666, "fusion_lon": 0.0, "fusion_lat": 0.0, "type": "electric_scooter", "name": "bd40df8cb69f38449f27a4e9a58f0991", "is_disabled": 0, "rental_uris": {"ios": "https://dc.lft.to/lastmile_qr_scan", "android": "https://dc.lft.to/lastmile_qr_scan"}, "is_reserved": 0}, {"lon": -77.04441133333333, "bike_id": "de010f25905e8a61379522a7f3ecf24e", "lat": 38.90973, "fusion_lon": 0.0, "fusion_lat": 0.0, "type": "electric_scooter", "name": "de010f25905e8a61379522a7f3ecf24e", "is_disabled": 0, "rental_uris": {"ios": "https://dc.lft.to/lastmile_qr_scan", "android": "https://dc.lft.to/lastmile_qr_scan"}, "is_reserved": 0}, {"lon": -76.987487, "bike_id": "e92f6510e16a28768748297ff9a3db5b", "lat": 38.900324166666664, "fusion_lon": 0.0, "fusion_lat": 0.0, "type": "electric_scooter", "name": "e92f6510e16a28768748297ff9a3db5b", "is_disabled": 0, "rental_uris": {"ios": "https://dc.lft.to/lastmile_qr_scan", "android": "https://dc.lft.to/lastmile_qr_scan"}, "is_reserved": 0}, {"lon": -77.02943283333333, "bike_id": "5464b7483d9b1fefd47fe69d02329c1a", "lat": 38.886122666666665, "fusion_lon": 0.0, "fusion_lat": 0.0, "type": "electric_bike", "name": "5464b7483d9b1fefd47fe69d02329c1a", "is_disabled": 0, "rental_uris": {"ios": "https://dc.lft.to/lastmile_qr_scan", "android": "https://dc.lft.to/lastmile_qr_scan"}, "is_reserved": 0}, {"lon": -77.070074, "bike_id": "1ee2a6da6add1ae25ea5bee43f4d07da", "lat": 38.9585755, "fusion_lon": 0.0, "fusion_lat": 0.0, "type": "electric_scooter", "name": "1ee2a6da6add1ae25ea5bee43f4d07da", "is_disabled": 0, "rental_uris": {"ios": "https://dc.lft.to/lastmile_qr_scan", "android": "https://dc.lft.to/lastmile_qr_scan"}, "is_reserved": 0}, {"lon": -77.03955466666666, "bike_id": "ace83dc28dc3bd7611fe2eb72bc4c6fb", "lat": 38.90057566666667, "fusion_lon": 0.0, "fusion_lat": 0.0, "type": "electric_scooter", "name": "ace83dc28dc3bd7611fe2eb72bc4c6fb", "is_disabled": 0, "rental_uris": {"ios": "https://dc.lft.to/lastmile_qr_scan", "android": "https://dc.lft.to/lastmile_qr_scan"}, "is_reserved": 0}, {"lon": -77.00100483333334, "bike_id": "345a520df79ca9e1c78479cd3887918e", "lat": 38.917067833333334, "fusion_lon": 0.0, "fusion_lat": 0.0, "type": "electric_scooter", "name": "345a520df79ca9e1c78479cd3887918e", "is_disabled": 0, "rental_uris": {"ios": "https://dc.lft.to/lastmile_qr_scan", "android": "https://dc.lft.to/lastmile_qr_scan"}, "is_reserved": 0}, {"lon": -77.01889016666667, "bike_id": "ab399a39dda587423010e90d70563c7e", "lat": 38.874704333333334, "fusion_lon": 0.0, "fusion_lat": 0.0, "type": "electric_scooter", "name": "ab399a39dda587423010e90d70563c7e", "is_disabled": 0, "rental_uris": {"ios": "https://dc.lft.to/lastmile_qr_scan", "android": "https://dc.lft.to/lastmile_qr_scan"}, "is_reserved": 0}, {"lon": -77.03265316666666, "bike_id": "d13894e64e4520af4b913616625e19bb", "lat": 38.93267316666667, "fusion_lon": 0.0, "fusion_lat": 0.0, "type": "electric_scooter", "name": "d13894e64e4520af4b913616625e19bb", "is_disabled": 0, "rental_uris": {"ios": "https://dc.lft.to/lastmile_qr_scan", "android": "https://dc.lft.to/lastmile_qr_scan"}, "is_reserved": 0}, {"lon": -77.03716516666667, "bike_id": "01e1097d4b0ce7196a07ab8aefe871a7", "lat": 38.91491766666667, "fusion_lon": 0.0, "fusion_lat": 0.0, "type": "electric_scooter", "name": "01e1097d4b0ce7196a07ab8aefe871a7", "is_disabled": 0, "rental_uris": {"ios": "https://dc.lft.to/lastmile_qr_scan", "android": "https://dc.lft.to/lastmile_qr_scan"}, "is_reserved": 0}, {"lon": -77.03439333333333, "bike_id": "a174775006cfc2af1f55e5360466a8ac", "lat": 38.909770333333334, "fusion_lon": 0.0, "fusion_lat": 0.0, "type": "electric_scooter", "name": "a174775006cfc2af1f55e5360466a8ac", "is_disabled": 0, "rental_uris": {"ios": "https://dc.lft.to/lastmile_qr_scan", "android": "https://dc.lft.to/lastmile_qr_scan"}, "is_reserved": 0}, {"lon": -77.00258183333334, "bike_id": "075e7cc582c5df465c6c8c03a3a290c3", "lat": 38.91821633333333, "fusion_lon": 0.0, "fusion_lat": 0.0, "type": "electric_scooter", "name": "075e7cc582c5df465c6c8c03a3a290c3", "is_disabled": 0, "rental_uris": {"ios": "https://dc.lft.to/lastmile_qr_scan", "android": "https://dc.lft.to/lastmile_qr_scan"}, "is_reserved": 0}, {"lon": -77.02719283333333, "bike_id": "71e580103b206154a91ce87863268833", "lat": 38.90675133333333, "fusion_lon": 0.0, "fusion_lat": 0.0, "type": "electric_scooter", "name": "71e580103b206154a91ce87863268833", "is_disabled": 0, "rental_uris": {"ios": "https://dc.lft.to/lastmile_qr_scan", "android": "https://dc.lft.to/lastmile_qr_scan"}, "is_reserved": 0}, {"lon": -77.04023033333333, "bike_id": "f87caf97787ebe1facbefd3e3c29d845", "lat": 38.900237833333335, "fusion_lon": 0.0, "fusion_lat": 0.0, "type": "electric_scooter", "name": "f87caf97787ebe1facbefd3e3c29d845", "is_disabled": 0, "rental_uris": {"ios": "https://dc.lft.to/lastmile_qr_scan", "android": "https://dc.lft.to/lastmile_qr_scan"}, "is_reserved": 0}, {"lon": -77.00342933333333, "bike_id": "534cddef8f1fbc7cd46795a142ca1335", "lat": 38.916278166666665, "fusion_lon": 0.0, "fusion_lat": 0.0, "type": "electric_scooter", "name": "534cddef8f1fbc7cd46795a142ca1335", "is_disabled": 0, "rental_uris": {"ios": "https://dc.lft.to/lastmile_qr_scan", "android": "https://dc.lft.to/lastmile_qr_scan"}, "is_reserved": 0}, {"lon": -76.99171516666667, "bike_id": "db9b07d130d96946a19abda940d0288d", "lat": 38.889889, "fusion_lon": 0.0, "fusion_lat": 0.0, "type": "electric_scooter", "name": "db9b07d130d96946a19abda940d0288d", "is_disabled": 0, "rental_uris": {"ios": "https://dc.lft.to/lastmile_qr_scan", "android": "https://dc.lft.to/lastmile_qr_scan"}, "is_reserved": 0}, {"lon": -77.02437783333333, "bike_id": "9f6b759f3903646d71ea1235e20ea032", "lat": 38.9235185, "fusion_lon": 0.0, "fusion_lat": 0.0, "type": "electric_scooter", "name": "9f6b759f3903646d71ea1235e20ea032", "is_disabled": 0, "rental_uris": {"ios": "https://dc.lft.to/lastmile_qr_scan", "android": "https://dc.lft.to/lastmile_qr_scan"}, "is_reserved": 0}, {"lon": -77.0506105, "bike_id": "f0d9501ba0fe76a778e46bda5e8b084f", "lat": 38.92590916666666, "fusion_lon": 0.0, "fusion_lat": 0.0, "type": "electric_scooter", "name": "f0d9501ba0fe76a778e46bda5e8b084f", "is_disabled": 0, "rental_uris": {"ios": "https://dc.lft.to/lastmile_qr_scan", "android": "https://dc.lft.to/lastmile_qr_scan"}, "is_reserved": 0}, {"lon": -77.04122633333333, "bike_id": "0d27eb2bd76c0987f8a37948c7fc760a", "lat": 38.90638833333333, "fusion_lon": 0.0, "fusion_lat": 0.0, "type": "electric_scooter", "name": "0d27eb2bd76c0987f8a37948c7fc760a", "is_disabled": 0, "rental_uris": {"ios": "https://dc.lft.to/lastmile_qr_scan", "android": "https://dc.lft.to/lastmile_qr_scan"}, "is_reserved": 0}, {"lon": -77.03756416666667, "bike_id": "39de0407f0fb7ce2be144e974bc7b102", "lat": 38.9288905, "fusion_lon": 0.0, "fusion_lat": 0.0, "type": "electric_scooter", "name": "39de0407f0fb7ce2be144e974bc7b102", "is_disabled": 0, "rental_uris": {"ios": "https://dc.lft.to/lastmile_qr_scan", "android": "https://dc.lft.to/lastmile_qr_scan"}, "is_reserved": 0}, {"lon": -76.98459566666666, "bike_id": "09e41a9ded2acc04f439245c53157ab8", "lat": 38.905539, "fusion_lon": 0.0, "fusion_lat": 0.0, "type": "electric_scooter", "name": "09e41a9ded2acc04f439245c53157ab8", "is_disabled": 0, "rental_uris": {"ios": "https://dc.lft.to/lastmile_qr_scan", "android": "https://dc.lft.to/lastmile_qr_scan"}, "is_reserved": 0}, {"lon": -77.03206266666666, "bike_id": "c0433b0b08cff81c5bb8774b44e82a08", "lat": 38.919621166666666, "fusion_lon": 0.0, "fusion_lat": 0.0, "type": "electric_scooter", "name": "c0433b0b08cff81c5bb8774b44e82a08", "is_disabled": 0, "rental_uris": {"ios": "https://dc.lft.to/lastmile_qr_scan", "android": "https://dc.lft.to/lastmile_qr_scan"}, "is_reserved": 0}, {"lon": -77.02324133333333, "bike_id": "ea6f4d92a2454aa41446fc003de2c484", "lat": 38.90859733333333, "fusion_lon": 0.0, "fusion_lat": 0.0, "type": "electric_scooter", "name": "ea6f4d92a2454aa41446fc003de2c484", "is_disabled": 0, "rental_uris": {"ios": "https://dc.lft.to/lastmile_qr_scan", "android": "https://dc.lft.to/lastmile_qr_scan"}, "is_reserved": 0}, {"lon": -76.998678, "bike_id": "2569a995eec9de8b360ba0d598d9d979", "lat": 38.900321, "fusion_lon": 0.0, "fusion_lat": 0.0, "type": "electric_scooter", "name": "2569a995eec9de8b360ba0d598d9d979", "is_disabled": 0, "rental_uris": {"ios": "https://dc.lft.to/lastmile_qr_scan", "android": "https://dc.lft.to/lastmile_qr_scan"}, "is_reserved": 0}, {"lon": -77.003037, "bike_id": "e190c4d43a7d838955356f43c60959e2", "lat": 38.8952565, "fusion_lon": 0.0, "fusion_lat": 0.0, "type": "electric_scooter", "name": "e190c4d43a7d838955356f43c60959e2", "is_disabled": 0, "rental_uris": {"ios": "https://dc.lft.to/lastmile_qr_scan", "android": "https://dc.lft.to/lastmile_qr_scan"}, "is_reserved": 0}, {"lon": -77.03272816666667, "bike_id": "dec5a2f3e1b53f8a371940c1b5c23cf2", "lat": 38.92914783333333, "fusion_lon": 0.0, "fusion_lat": 0.0, "type": "electric_scooter", "name": "dec5a2f3e1b53f8a371940c1b5c23cf2", "is_disabled": 0, "rental_uris": {"ios": "https://dc.lft.to/lastmile_qr_scan", "android": "https://dc.lft.to/lastmile_qr_scan"}, "is_reserved": 0}, {"lon": -77.00954316666666, "bike_id": "4f7db8aa871b931b8f836134f2569893", "lat": 38.921460333333336, "fusion_lon": 0.0, "fusion_lat": 0.0, "type": "electric_scooter", "name": "4f7db8aa871b931b8f836134f2569893", "is_disabled": 0, "rental_uris": {"ios": "https://dc.lft.to/lastmile_qr_scan", "android": "https://dc.lft.to/lastmile_qr_scan"}, "is_reserved": 0}, {"lon": -77.03195483333333, "bike_id": "77e0a3e19e557241af2f5d1349a36ffe", "lat": 38.910916666666665, "fusion_lon": 0.0, "fusion_lat": 0.0, "type": "electric_scooter", "name": "77e0a3e19e557241af2f5d1349a36ffe", "is_disabled": 0, "rental_uris": {"ios": "https://dc.lft.to/lastmile_qr_scan", "android": "https://dc.lft.to/lastmile_qr_scan"}, "is_reserved": 0}, {"lon": -76.99783016666666, "bike_id": "fb02604f8bd1c06046eae13acc8d253b", "lat": 38.890948333333334, "fusion_lon": 0.0, "fusion_lat": 0.0, "type": "electric_scooter", "name": "fb02604f8bd1c06046eae13acc8d253b", "is_disabled": 0, "rental_uris": {"ios": "https://dc.lft.to/lastmile_qr_scan", "android": "https://dc.lft.to/lastmile_qr_scan"}, "is_reserved": 0}, {"lon": -76.99923083333333, "bike_id": "4b7a9a086e1f52fe57c293881056bbb0", "lat": 38.907708666666664, "fusion_lon": 0.0, "fusion_lat": 0.0, "type": "electric_scooter", "name": "4b7a9a086e1f52fe57c293881056bbb0", "is_disabled": 0, "rental_uris": {"ios": "https://dc.lft.to/lastmile_qr_scan", "android": "https://dc.lft.to/lastmile_qr_scan"}, "is_reserved": 0}, {"lon": -76.9810365, "bike_id": "a698c4ca1ac77cb283f65b8e617b4ddf", "lat": 38.87734116666667, "fusion_lon": 0.0, "fusion_lat": 0.0, "type": "electric_bike", "name": "a698c4ca1ac77cb283f65b8e617b4ddf", "is_disabled": 0, "rental_uris": {"ios": "https://dc.lft.to/lastmile_qr_scan", "android": "https://dc.lft.to/lastmile_qr_scan"}, "is_reserved": 0}, {"lon": -77.03343883333334, "bike_id": "ee112a5e9644f12b891fde42075e6c5a", "lat": 38.935171, "fusion_lon": 0.0, "fusion_lat": 0.0, "type": "electric_scooter", "name": "ee112a5e9644f12b891fde42075e6c5a", "is_disabled": 0, "rental_uris": {"ios": "https://dc.lft.to/lastmile_qr_scan", "android": "https://dc.lft.to/lastmile_qr_scan"}, "is_reserved": 0}, {"lon": -76.999141, "bike_id": "d48dc3cf0fcc7bc09330a8a2f5c547ed", "lat": 38.889761666666665, "fusion_lon": 0.0, "fusion_lat": 0.0, "type": "electric_scooter", "name": "d48dc3cf0fcc7bc09330a8a2f5c547ed", "is_disabled": 0, "rental_uris": {"ios": "https://dc.lft.to/lastmile_qr_scan", "android": "https://dc.lft.to/lastmile_qr_scan"}, "is_reserved": 0}, {"lon": -76.98242883333333, "bike_id": "db553289ce6e6d239d176e5d473d970d", "lat": 38.864596666666664, "fusion_lon": 0.0, "fusion_lat": 0.0, "type": "electric_scooter", "name": "db553289ce6e6d239d176e5d473d970d", "is_disabled": 0, "rental_uris": {"ios": "https://dc.lft.to/lastmile_qr_scan", "android": "https://dc.lft.to/lastmile_qr_scan"}, "is_reserved": 0}, {"lon": -77.036662, "bike_id": "14cba4bcef811e899ecf17f5bfeee16c", "lat": 38.933415333333336, "fusion_lon": 0.0, "fusion_lat": 0.0, "type": "electric_scooter", "name": "14cba4bcef811e899ecf17f5bfeee16c", "is_disabled": 0, "rental_uris": {"ios": "https://dc.lft.to/lastmile_qr_scan", "android": "https://dc.lft.to/lastmile_qr_scan"}, "is_reserved": 0}, {"lon": -77.02792083333334, "bike_id": "361164ff345c6036dc8979870bdb1bc7", "lat": 38.929662, "fusion_lon": 0.0, "fusion_lat": 0.0, "type": "electric_scooter", "name": "361164ff345c6036dc8979870bdb1bc7", "is_disabled": 0, "rental_uris": {"ios": "https://dc.lft.to/lastmile_qr_scan", "android": "https://dc.lft.to/lastmile_qr_scan"}, "is_reserved": 0}, {"lon": -77.00104683333333, "bike_id": "77a243937a8f83fd0b86821b103ae2a4", "lat": 38.91243816666667, "fusion_lon": 0.0, "fusion_lat": 0.0, "type": "electric_scooter", "name": "77a243937a8f83fd0b86821b103ae2a4", "is_disabled": 0, "rental_uris": {"ios": "https://dc.lft.to/lastmile_qr_scan", "android": "https://dc.lft.to/lastmile_qr_scan"}, "is_reserved": 0}, {"lon": -77.0257625, "bike_id": "f7b1b2a212fca79b745e960747231f65", "lat": 38.884016833333334, "fusion_lon": 0.0, "fusion_lat": 0.0, "type": "electric_scooter", "name": "f7b1b2a212fca79b745e960747231f65", "is_disabled": 0, "rental_uris": {"ios": "https://dc.lft.to/lastmile_qr_scan", "android": "https://dc.lft.to/lastmile_qr_scan"}, "is_reserved": 0}, {"lon": -77.031577, "bike_id": "f453f49934de68e4f6316abc1b54f6ee", "lat": 38.91701833333333, "fusion_lon": 0.0, "fusion_lat": 0.0, "type": "electric_scooter", "name": "f453f49934de68e4f6316abc1b54f6ee", "is_disabled": 0, "rental_uris": {"ios": "https://dc.lft.to/lastmile_qr_scan", "android": "https://dc.lft.to/lastmile_qr_scan"}, "is_reserved": 0}, {"lon": -76.97300716666666, "bike_id": "f764bbd248289931761737d11958a854", "lat": 38.916549, "fusion_lon": 0.0, "fusion_lat": 0.0, "type": "electric_bike", "name": "f764bbd248289931761737d11958a854", "is_disabled": 0, "rental_uris": {"ios": "https://dc.lft.to/lastmile_qr_scan", "android": "https://dc.lft.to/lastmile_qr_scan"}, "is_reserved": 0}, {"lon": -76.98516633333334, "bike_id": "1886ee73b1a1ff8dcad97b8cb290fbb7", "lat": 38.86691183333333, "fusion_lon": 0.0, "fusion_lat": 0.0, "type": "electric_scooter", "name": "1886ee73b1a1ff8dcad97b8cb290fbb7", "is_disabled": 0, "rental_uris": {"ios": "https://dc.lft.to/lastmile_qr_scan", "android": "https://dc.lft.to/lastmile_qr_scan"}, "is_reserved": 0}, {"lon": -77.2332915, "bike_id": "0dce05fc669340c0c877cc845a7c5ffc", "lat": 38.87282283333333, "fusion_lon": 0.0, "fusion_lat": 0.0, "type": "electric_bike", "name": "0dce05fc669340c0c877cc845a7c5ffc", "is_disabled": 0, "rental_uris": {"ios": "https://dc.lft.to/lastmile_qr_scan", "android": "https://dc.lft.to/lastmile_qr_scan"}, "is_reserved": 0}, {"lon": -77.03845066666666, "bike_id": "a16db37866e7222fff101c44110f0cbb", "lat": 38.91664733333333, "fusion_lon": 0.0, "fusion_lat": 0.0, "type": "electric_scooter", "name": "a16db37866e7222fff101c44110f0cbb", "is_disabled": 0, "rental_uris": {"ios": "https://dc.lft.to/lastmile_qr_scan", "android": "https://dc.lft.to/lastmile_qr_scan"}, "is_reserved": 0}, {"lon": -77.01578866666667, "bike_id": "b09a15e39583cb16f95905e5e3e7afd0", "lat": 38.9532395, "fusion_lon": 0.0, "fusion_lat": 0.0, "type": "electric_bike", "name": "b09a15e39583cb16f95905e5e3e7afd0", "is_disabled": 0, "rental_uris": {"ios": "https://dc.lft.to/lastmile_qr_scan", "android": "https://dc.lft.to/lastmile_qr_scan"}, "is_reserved": 0}, {"lon": -77.03181666666667, "bike_id": "310d1889393ef22cb75a32d6a67a4f05", "lat": 38.908527166666666, "fusion_lon": 0.0, "fusion_lat": 0.0, "type": "electric_scooter", "name": "310d1889393ef22cb75a32d6a67a4f05", "is_disabled": 0, "rental_uris": {"ios": "https://dc.lft.to/lastmile_qr_scan", "android": "https://dc.lft.to/lastmile_qr_scan"}, "is_reserved": 0}, {"lon": -76.965447, "bike_id": "4e3e8d2ffb7152b7f4cefb10f0a15a59", "lat": 38.9184455, "fusion_lon": 0.0, "fusion_lat": 0.0, "type": "electric_scooter", "name": "4e3e8d2ffb7152b7f4cefb10f0a15a59", "is_disabled": 0, "rental_uris": {"ios": "https://dc.lft.to/lastmile_qr_scan", "android": "https://dc.lft.to/lastmile_qr_scan"}, "is_reserved": 0}, {"lon": -76.94992066666667, "bike_id": "f5806c9e6b4b74d4ca167501b6cad2e1", "lat": 38.893841, "fusion_lon": 0.0, "fusion_lat": 0.0, "type": "electric_scooter", "name": "f5806c9e6b4b74d4ca167501b6cad2e1", "is_disabled": 0, "rental_uris": {"ios": "https://dc.lft.to/lastmile_qr_scan", "android": "https://dc.lft.to/lastmile_qr_scan"}, "is_reserved": 0}, {"lon": -76.99450183333333, "bike_id": "d43895189a50b18c4af6371adaa1e084", "lat": 38.862813833333334, "fusion_lon": 0.0, "fusion_lat": 0.0, "type": "electric_scooter", "name": "d43895189a50b18c4af6371adaa1e084", "is_disabled": 0, "rental_uris": {"ios": "https://dc.lft.to/lastmile_qr_scan", "android": "https://dc.lft.to/lastmile_qr_scan"}, "is_reserved": 0}, {"lon": -77.0269285, "bike_id": "f9588e2747dda2c7027891d48d181908", "lat": 38.908483833333335, "fusion_lon": 0.0, "fusion_lat": 0.0, "type": "electric_scooter", "name": "f9588e2747dda2c7027891d48d181908", "is_disabled": 0, "rental_uris": {"ios": "https://dc.lft.to/lastmile_qr_scan", "android": "https://dc.lft.to/lastmile_qr_scan"}, "is_reserved": 0}, {"lon": -76.98876566666667, "bike_id": "9c2bc7b0cf601e3b0f0c15f9463c08ac", "lat": 38.866671833333335, "fusion_lon": 0.0, "fusion_lat": 0.0, "type": "electric_scooter", "name": "9c2bc7b0cf601e3b0f0c15f9463c08ac", "is_disabled": 0, "rental_uris": {"ios": "https://dc.lft.to/lastmile_qr_scan", "android": "https://dc.lft.to/lastmile_qr_scan"}, "is_reserved": 0}, {"lon": -77.03975516666667, "bike_id": "151a8ecd65ae23b2a6e71dc2709cf0a0", "lat": 38.92802566666667, "fusion_lon": 0.0, "fusion_lat": 0.0, "type": "electric_scooter", "name": "151a8ecd65ae23b2a6e71dc2709cf0a0", "is_disabled": 0, "rental_uris": {"ios": "https://dc.lft.to/lastmile_qr_scan", "android": "https://dc.lft.to/lastmile_qr_scan"}, "is_reserved": 0}, {"lon": -77.02767733333333, "bike_id": "d953e93bb2a69b39885c3571cbf9e4cd", "lat": 38.89223, "fusion_lon": 0.0, "fusion_lat": 0.0, "type": "electric_scooter", "name": "d953e93bb2a69b39885c3571cbf9e4cd", "is_disabled": 0, "rental_uris": {"ios": "https://dc.lft.to/lastmile_qr_scan", "android": "https://dc.lft.to/lastmile_qr_scan"}, "is_reserved": 0}, {"lon": -77.08182416666666, "bike_id": "f5e175d014325d2f1b1984f48761ba16", "lat": 38.94973, "fusion_lon": 0.0, "fusion_lat": 0.0, "type": "electric_scooter", "name": "f5e175d014325d2f1b1984f48761ba16", "is_disabled": 0, "rental_uris": {"ios": "https://dc.lft.to/lastmile_qr_scan", "android": "https://dc.lft.to/lastmile_qr_scan"}, "is_reserved": 0}, {"lon": -76.990319, "bike_id": "f699d56c1d4b6a4d3f2b0578149aa9cf", "lat": 38.89856433333333, "fusion_lon": 0.0, "fusion_lat": 0.0, "type": "electric_scooter", "name": "f699d56c1d4b6a4d3f2b0578149aa9cf", "is_disabled": 0, "rental_uris": {"ios": "https://dc.lft.to/lastmile_qr_scan", "android": "https://dc.lft.to/lastmile_qr_scan"}, "is_reserved": 0}, {"lon": -76.99459133333333, "bike_id": "d1fd24bcab55f5c50e78f51e4d597f64", "lat": 38.966213333333336, "fusion_lon": 0.0, "fusion_lat": 0.0, "type": "electric_bike", "name": "d1fd24bcab55f5c50e78f51e4d597f64", "is_disabled": 0, "rental_uris": {"ios": "https://dc.lft.to/lastmile_qr_scan", "android": "https://dc.lft.to/lastmile_qr_scan"}, "is_reserved": 0}, {"lon": -76.97926516666666, "bike_id": "1e528e67ededd5fa08b07d70d7740f15", "lat": 38.90504983333334, "fusion_lon": 0.0, "fusion_lat": 0.0, "type": "electric_scooter", "name": "1e528e67ededd5fa08b07d70d7740f15", "is_disabled": 0, "rental_uris": {"ios": "https://dc.lft.to/lastmile_qr_scan", "android": "https://dc.lft.to/lastmile_qr_scan"}, "is_reserved": 0}, {"lon": -76.99372966666667, "bike_id": "5229748b537b1a3e1ef6c16fdabe1919", "lat": 38.8797595, "fusion_lon": 0.0, "fusion_lat": 0.0, "type": "electric_scooter", "name": "5229748b537b1a3e1ef6c16fdabe1919", "is_disabled": 0, "rental_uris": {"ios": "https://dc.lft.to/lastmile_qr_scan", "android": "https://dc.lft.to/lastmile_qr_scan"}, "is_reserved": 0}, {"lon": -76.99002683333333, "bike_id": "33e93ab454a8bb4574f21edef4b2db66", "lat": 38.86507683333333, "fusion_lon": 0.0, "fusion_lat": 0.0, "type": "electric_scooter", "name": "33e93ab454a8bb4574f21edef4b2db66", "is_disabled": 0, "rental_uris": {"ios": "https://dc.lft.to/lastmile_qr_scan", "android": "https://dc.lft.to/lastmile_qr_scan"}, "is_reserved": 0}, {"lon": -77.03740366666666, "bike_id": "8043afb52eb356f493bfb50fc2493213", "lat": 38.91808566666667, "fusion_lon": 0.0, "fusion_lat": 0.0, "type": "electric_scooter", "name": "8043afb52eb356f493bfb50fc2493213", "is_disabled": 0, "rental_uris": {"ios": "https://dc.lft.to/lastmile_qr_scan", "android": "https://dc.lft.to/lastmile_qr_scan"}, "is_reserved": 0}, {"lon": -77.0270515, "bike_id": "52bffa091e38a618f3a56506097b4440", "lat": 38.89732933333333, "fusion_lon": 0.0, "fusion_lat": 0.0, "type": "electric_scooter", "name": "52bffa091e38a618f3a56506097b4440", "is_disabled": 0, "rental_uris": {"ios": "https://dc.lft.to/lastmile_qr_scan", "android": "https://dc.lft.to/lastmile_qr_scan"}, "is_reserved": 0}, {"lon": -77.05471033333333, "bike_id": "4b0aee3018f5f20a0a73f4c7d59bcfff", "lat": 38.897348, "fusion_lon": 0.0, "fusion_lat": 0.0, "type": "electric_scooter", "name": "4b0aee3018f5f20a0a73f4c7d59bcfff", "is_disabled": 0, "rental_uris": {"ios": "https://dc.lft.to/lastmile_qr_scan", "android": "https://dc.lft.to/lastmile_qr_scan"}, "is_reserved": 0}, {"lon": -77.02723416666667, "bike_id": "a44cf0381ab701d8ace17aa212d4cf83", "lat": 38.91340233333333, "fusion_lon": 0.0, "fusion_lat": 0.0, "type": "electric_scooter", "name": "a44cf0381ab701d8ace17aa212d4cf83", "is_disabled": 0, "rental_uris": {"ios": "https://dc.lft.to/lastmile_qr_scan", "android": "https://dc.lft.to/lastmile_qr_scan"}, "is_reserved": 0}, {"lon": -77.03180883333333, "bike_id": "812e02b2fc673fb60b823d3a2b91137c", "lat": 38.89573683333333, "fusion_lon": 0.0, "fusion_lat": 0.0, "type": "electric_scooter", "name": "812e02b2fc673fb60b823d3a2b91137c", "is_disabled": 0, "rental_uris": {"ios": "https://dc.lft.to/lastmile_qr_scan", "android": "https://dc.lft.to/lastmile_qr_scan"}, "is_reserved": 0}, {"lon": -76.99498933333334, "bike_id": "9c42eded537ec9c38776726ff6365193", "lat": 38.87771383333333, "fusion_lon": 0.0, "fusion_lat": 0.0, "type": "electric_scooter", "name": "9c42eded537ec9c38776726ff6365193", "is_disabled": 0, "rental_uris": {"ios": "https://dc.lft.to/lastmile_qr_scan", "android": "https://dc.lft.to/lastmile_qr_scan"}, "is_reserved": 0}, {"lon": -77.07745733333333, "bike_id": "db46beb9b2db5300bbf288dcca5540c7", "lat": 38.84197666666667, "fusion_lon": 0.0, "fusion_lat": 0.0, "type": "electric_bike", "name": "db46beb9b2db5300bbf288dcca5540c7", "is_disabled": 0, "rental_uris": {"ios": "https://dc.lft.to/lastmile_qr_scan", "android": "https://dc.lft.to/lastmile_qr_scan"}, "is_reserved": 0}, {"lon": -77.03440733333333, "bike_id": "08c59db04d8cac5173aadde89a17a3da", "lat": 38.91011683333333, "fusion_lon": 0.0, "fusion_lat": 0.0, "type": "electric_scooter", "name": "08c59db04d8cac5173aadde89a17a3da", "is_disabled": 0, "rental_uris": {"ios": "https://dc.lft.to/lastmile_qr_scan", "android": "https://dc.lft.to/lastmile_qr_scan"}, "is_reserved": 0}, {"lon": -77.0037175, "bike_id": "ff180f2341f93fd484f2de5a24b24372", "lat": 38.89735, "fusion_lon": 0.0, "fusion_lat": 0.0, "type": "electric_scooter", "name": "ff180f2341f93fd484f2de5a24b24372", "is_disabled": 0, "rental_uris": {"ios": "https://dc.lft.to/lastmile_qr_scan", "android": "https://dc.lft.to/lastmile_qr_scan"}, "is_reserved": 0}, {"lon": -76.98037866666667, "bike_id": "0eb82e9bc38ab9c63754cc18c13efb95", "lat": 38.8897075, "fusion_lon": 0.0, "fusion_lat": 0.0, "type": "electric_scooter", "name": "0eb82e9bc38ab9c63754cc18c13efb95", "is_disabled": 0, "rental_uris": {"ios": "https://dc.lft.to/lastmile_qr_scan", "android": "https://dc.lft.to/lastmile_qr_scan"}, "is_reserved": 0}, {"lon": -77.02572366666666, "bike_id": "289ce8eb1676e1815f58192e80eacfc5", "lat": 38.914111, "fusion_lon": 0.0, "fusion_lat": 0.0, "type": "electric_scooter", "name": "289ce8eb1676e1815f58192e80eacfc5", "is_disabled": 0, "rental_uris": {"ios": "https://dc.lft.to/lastmile_qr_scan", "android": "https://dc.lft.to/lastmile_qr_scan"}, "is_reserved": 0}, {"lon": -76.98339116666666, "bike_id": "6d07fd4e0bd1924452245b45d79a9e6c", "lat": 38.866432333333336, "fusion_lon": 0.0, "fusion_lat": 0.0, "type": "electric_scooter", "name": "6d07fd4e0bd1924452245b45d79a9e6c", "is_disabled": 0, "rental_uris": {"ios": "https://dc.lft.to/lastmile_qr_scan", "android": "https://dc.lft.to/lastmile_qr_scan"}, "is_reserved": 0}, {"lon": -77.03118133333334, "bike_id": "a0e8a1edef70aa93874a47ca1b2719a3", "lat": 38.920276333333334, "fusion_lon": 0.0, "fusion_lat": 0.0, "type": "electric_scooter", "name": "a0e8a1edef70aa93874a47ca1b2719a3", "is_disabled": 0, "rental_uris": {"ios": "https://dc.lft.to/lastmile_qr_scan", "android": "https://dc.lft.to/lastmile_qr_scan"}, "is_reserved": 0}, {"lon": -77.07902033333333, "bike_id": "746559c829314334b92e3a1d652ae26e", "lat": 38.83942833333333, "fusion_lon": 0.0, "fusion_lat": 0.0, "type": "electric_bike", "name": "746559c829314334b92e3a1d652ae26e", "is_disabled": 0, "rental_uris": {"ios": "https://dc.lft.to/lastmile_qr_scan", "android": "https://dc.lft.to/lastmile_qr_scan"}, "is_reserved": 0}, {"lon": -76.93186866666667, "bike_id": "463634a945ae39cbcadbb5514270df29", "lat": 38.89880516666667, "fusion_lon": 0.0, "fusion_lat": 0.0, "type": "electric_scooter", "name": "463634a945ae39cbcadbb5514270df29", "is_disabled": 0, "rental_uris": {"ios": "https://dc.lft.to/lastmile_qr_scan", "android": "https://dc.lft.to/lastmile_qr_scan"}, "is_reserved": 0}, {"lon": -77.080083, "bike_id": "7cf6c4381f73f187342e819110e1da08", "lat": 38.96490416666666, "fusion_lon": 0.0, "fusion_lat": 0.0, "type": "electric_scooter", "name": "7cf6c4381f73f187342e819110e1da08", "is_disabled": 0, "rental_uris": {"ios": "https://dc.lft.to/lastmile_qr_scan", "android": "https://dc.lft.to/lastmile_qr_scan"}, "is_reserved": 0}, {"lon": -76.94878383333334, "bike_id": "bafd3741e2a47fe273f48f6c57919c93", "lat": 38.894305333333335, "fusion_lon": 0.0, "fusion_lat": 0.0, "type": "electric_scooter", "name": "bafd3741e2a47fe273f48f6c57919c93", "is_disabled": 0, "rental_uris": {"ios": "https://dc.lft.to/lastmile_qr_scan", "android": "https://dc.lft.to/lastmile_qr_scan"}, "is_reserved": 0}, {"lon": -77.01983916666667, "bike_id": "a2a02252c58a0c7224a4abeb807ce060", "lat": 38.925550666666666, "fusion_lon": 0.0, "fusion_lat": 0.0, "type": "electric_bike", "name": "a2a02252c58a0c7224a4abeb807ce060", "is_disabled": 0, "rental_uris": {"ios": "https://dc.lft.to/lastmile_qr_scan", "android": "https://dc.lft.to/lastmile_qr_scan"}, "is_reserved": 0}, {"lon": -77.04412533333333, "bike_id": "79c254b666f5594c744b710c4751b048", "lat": 38.911344166666666, "fusion_lon": 0.0, "fusion_lat": 0.0, "type": "electric_scooter", "name": "79c254b666f5594c744b710c4751b048", "is_disabled": 0, "rental_uris": {"ios": "https://dc.lft.to/lastmile_qr_scan", "android": "https://dc.lft.to/lastmile_qr_scan"}, "is_reserved": 0}, {"lon": -77.04489316666667, "bike_id": "90a6677be91cc04eafd2a775662f9d00", "lat": 38.919305666666666, "fusion_lon": 0.0, "fusion_lat": 0.0, "type": "electric_scooter", "name": "90a6677be91cc04eafd2a775662f9d00", "is_disabled": 0, "rental_uris": {"ios": "https://dc.lft.to/lastmile_qr_scan", "android": "https://dc.lft.to/lastmile_qr_scan"}, "is_reserved": 0}, {"lon": -76.94122183333333, "bike_id": "5789233d5a55ed519c35c50ff5df0a3f", "lat": 38.908277166666664, "fusion_lon": 0.0, "fusion_lat": 0.0, "type": "electric_scooter", "name": "5789233d5a55ed519c35c50ff5df0a3f", "is_disabled": 0, "rental_uris": {"ios": "https://dc.lft.to/lastmile_qr_scan", "android": "https://dc.lft.to/lastmile_qr_scan"}, "is_reserved": 0}, {"lon": -76.99050933333334, "bike_id": "a73a56066e80196d30b48e30c63246c5", "lat": 38.863794166666665, "fusion_lon": 0.0, "fusion_lat": 0.0, "type": "electric_scooter", "name": "a73a56066e80196d30b48e30c63246c5", "is_disabled": 0, "rental_uris": {"ios": "https://dc.lft.to/lastmile_qr_scan", "android": "https://dc.lft.to/lastmile_qr_scan"}, "is_reserved": 0}, {"lon": -77.01606966666667, "bike_id": "51dc833fa8a62073559be31bd24a2f30", "lat": 38.9176025, "fusion_lon": 0.0, "fusion_lat": 0.0, "type": "electric_scooter", "name": "51dc833fa8a62073559be31bd24a2f30", "is_disabled": 0, "rental_uris": {"ios": "https://dc.lft.to/lastmile_qr_scan", "android": "https://dc.lft.to/lastmile_qr_scan"}, "is_reserved": 0}, {"lon": -77.00015566666667, "bike_id": "f0c1583fe35c71c18c5f4eec8fd0ac5e", "lat": 38.890945333333335, "fusion_lon": 0.0, "fusion_lat": 0.0, "type": "electric_scooter", "name": "f0c1583fe35c71c18c5f4eec8fd0ac5e", "is_disabled": 0, "rental_uris": {"ios": "https://dc.lft.to/lastmile_qr_scan", "android": "https://dc.lft.to/lastmile_qr_scan"}, "is_reserved": 0}, {"lon": -77.00577666666666, "bike_id": "3b9ba4ec106e0a9928a089b5f4fa25da", "lat": 38.905563666666666, "fusion_lon": 0.0, "fusion_lat": 0.0, "type": "electric_scooter", "name": "3b9ba4ec106e0a9928a089b5f4fa25da", "is_disabled": 0, "rental_uris": {"ios": "https://dc.lft.to/lastmile_qr_scan", "android": "https://dc.lft.to/lastmile_qr_scan"}, "is_reserved": 0}, {"lon": -77.02768216666666, "bike_id": "51a5d351b1c89cd7140518f193473567", "lat": 38.892212, "fusion_lon": 0.0, "fusion_lat": 0.0, "type": "electric_scooter", "name": "51a5d351b1c89cd7140518f193473567", "is_disabled": 0, "rental_uris": {"ios": "https://dc.lft.to/lastmile_qr_scan", "android": "https://dc.lft.to/lastmile_qr_scan"}, "is_reserved": 0}, {"lon": -77.00063016666667, "bike_id": "94be6c3ff07c32839da0de5e5d237f64", "lat": 38.90081633333333, "fusion_lon": 0.0, "fusion_lat": 0.0, "type": "electric_scooter", "name": "94be6c3ff07c32839da0de5e5d237f64", "is_disabled": 0, "rental_uris": {"ios": "https://dc.lft.to/lastmile_qr_scan", "android": "https://dc.lft.to/lastmile_qr_scan"}, "is_reserved": 0}, {"lon": -77.026882, "bike_id": "c9fbd1cbe22d8f891a4f59875dbe1cb0", "lat": 38.90846783333333, "fusion_lon": 0.0, "fusion_lat": 0.0, "type": "electric_scooter", "name": "c9fbd1cbe22d8f891a4f59875dbe1cb0", "is_disabled": 0, "rental_uris": {"ios": "https://dc.lft.to/lastmile_qr_scan", "android": "https://dc.lft.to/lastmile_qr_scan"}, "is_reserved": 0}, {"lon": -77.02583416666667, "bike_id": "7e51d44f44239579a12a269422f94b82", "lat": 38.88741433333333, "fusion_lon": 0.0, "fusion_lat": 0.0, "type": "electric_scooter", "name": "7e51d44f44239579a12a269422f94b82", "is_disabled": 0, "rental_uris": {"ios": "https://dc.lft.to/lastmile_qr_scan", "android": "https://dc.lft.to/lastmile_qr_scan"}, "is_reserved": 0}, {"lon": -77.0244705, "bike_id": "af8f9e6ada54295f6d21c4f00e216507", "lat": 38.9260175, "fusion_lon": 0.0, "fusion_lat": 0.0, "type": "electric_scooter", "name": "af8f9e6ada54295f6d21c4f00e216507", "is_disabled": 0, "rental_uris": {"ios": "https://dc.lft.to/lastmile_qr_scan", "android": "https://dc.lft.to/lastmile_qr_scan"}, "is_reserved": 0}, {"lon": -77.02760883333333, "bike_id": "598533086f686d8631eba6f0c9dc93ac", "lat": 38.9578535, "fusion_lon": 0.0, "fusion_lat": 0.0, "type": "electric_scooter", "name": "598533086f686d8631eba6f0c9dc93ac", "is_disabled": 0, "rental_uris": {"ios": "https://dc.lft.to/lastmile_qr_scan", "android": "https://dc.lft.to/lastmile_qr_scan"}, "is_reserved": 0}, {"lon": -76.99364316666667, "bike_id": "6ec66083a4d550f8cc3baa49fbd72d99", "lat": 38.89375483333333, "fusion_lon": 0.0, "fusion_lat": 0.0, "type": "electric_scooter", "name": "6ec66083a4d550f8cc3baa49fbd72d99", "is_disabled": 0, "rental_uris": {"ios": "https://dc.lft.to/lastmile_qr_scan", "android": "https://dc.lft.to/lastmile_qr_scan"}, "is_reserved": 0}, {"lon": -77.006818, "bike_id": "8aca6402d3793a604f71428346b114c3", "lat": 38.834895833333334, "fusion_lon": 0.0, "fusion_lat": 0.0, "type": "electric_scooter", "name": "8aca6402d3793a604f71428346b114c3", "is_disabled": 0, "rental_uris": {"ios": "https://dc.lft.to/lastmile_qr_scan", "android": "https://dc.lft.to/lastmile_qr_scan"}, "is_reserved": 0}, {"lon": -77.02301883333334, "bike_id": "b1b5b1810e92d99b55287625f9c0a9ca", "lat": 38.91606483333333, "fusion_lon": 0.0, "fusion_lat": 0.0, "type": "electric_scooter", "name": "b1b5b1810e92d99b55287625f9c0a9ca", "is_disabled": 0, "rental_uris": {"ios": "https://dc.lft.to/lastmile_qr_scan", "android": "https://dc.lft.to/lastmile_qr_scan"}, "is_reserved": 0}, {"lon": -77.03658866666666, "bike_id": "e4896fd92ee72bc2e8802c169cbb7e6f", "lat": 38.918186, "fusion_lon": 0.0, "fusion_lat": 0.0, "type": "electric_scooter", "name": "e4896fd92ee72bc2e8802c169cbb7e6f", "is_disabled": 0, "rental_uris": {"ios": "https://dc.lft.to/lastmile_qr_scan", "android": "https://dc.lft.to/lastmile_qr_scan"}, "is_reserved": 0}, {"lon": -77.03685266666666, "bike_id": "373ee4e841e17150cbb27945e5b67a91", "lat": 38.90838083333333, "fusion_lon": 0.0, "fusion_lat": 0.0, "type": "electric_scooter", "name": "373ee4e841e17150cbb27945e5b67a91", "is_disabled": 0, "rental_uris": {"ios": "https://dc.lft.to/lastmile_qr_scan", "android": "https://dc.lft.to/lastmile_qr_scan"}, "is_reserved": 0}, {"lon": -77.05705666666667, "bike_id": "2445269c93dca9cf6e1726ed4d82f11a", "lat": 38.9053325, "fusion_lon": 0.0, "fusion_lat": 0.0, "type": "electric_scooter", "name": "2445269c93dca9cf6e1726ed4d82f11a", "is_disabled": 0, "rental_uris": {"ios": "https://dc.lft.to/lastmile_qr_scan", "android": "https://dc.lft.to/lastmile_qr_scan"}, "is_reserved": 0}, {"lon": -77.02146466666666, "bike_id": "9c7443323b2201065ec90ac96e41b21a", "lat": 38.89740166666667, "fusion_lon": 0.0, "fusion_lat": 0.0, "type": "electric_scooter", "name": "9c7443323b2201065ec90ac96e41b21a", "is_disabled": 0, "rental_uris": {"ios": "https://dc.lft.to/lastmile_qr_scan", "android": "https://dc.lft.to/lastmile_qr_scan"}, "is_reserved": 0}, {"lon": -77.02185, "bike_id": "7853bc379c22fc19699f62178972c084", "lat": 38.90950483333334, "fusion_lon": 0.0, "fusion_lat": 0.0, "type": "electric_scooter", "name": "7853bc379c22fc19699f62178972c084", "is_disabled": 0, "rental_uris": {"ios": "https://dc.lft.to/lastmile_qr_scan", "android": "https://dc.lft.to/lastmile_qr_scan"}, "is_reserved": 0}, {"lon": -77.037772, "bike_id": "f67c29c7e72005c24c7dddbb1aaedd51", "lat": 38.936006, "fusion_lon": 0.0, "fusion_lat": 0.0, "type": "electric_scooter", "name": "f67c29c7e72005c24c7dddbb1aaedd51", "is_disabled": 0, "rental_uris": {"ios": "https://dc.lft.to/lastmile_qr_scan", "android": "https://dc.lft.to/lastmile_qr_scan"}, "is_reserved": 0}, {"lon": -77.0240565, "bike_id": "a6bfbd908f9570b0be66be7d930480f5", "lat": 38.882880166666666, "fusion_lon": 0.0, "fusion_lat": 0.0, "type": "electric_scooter", "name": "a6bfbd908f9570b0be66be7d930480f5", "is_disabled": 0, "rental_uris": {"ios": "https://dc.lft.to/lastmile_qr_scan", "android": "https://dc.lft.to/lastmile_qr_scan"}, "is_reserved": 0}, {"lon": -77.02532783333334, "bike_id": "a4cbd7d15b2130e84d67e3cf9dc5b2e5", "lat": 38.92753116666667, "fusion_lon": 0.0, "fusion_lat": 0.0, "type": "electric_scooter", "name": "a4cbd7d15b2130e84d67e3cf9dc5b2e5", "is_disabled": 0, "rental_uris": {"ios": "https://dc.lft.to/lastmile_qr_scan", "android": "https://dc.lft.to/lastmile_qr_scan"}, "is_reserved": 0}, {"lon": -77.03862533333333, "bike_id": "965fdd74b223a3ea92c7e0019f8b9ce5", "lat": 38.91172433333333, "fusion_lon": 0.0, "fusion_lat": 0.0, "type": "electric_scooter", "name": "965fdd74b223a3ea92c7e0019f8b9ce5", "is_disabled": 0, "rental_uris": {"ios": "https://dc.lft.to/lastmile_qr_scan", "android": "https://dc.lft.to/lastmile_qr_scan"}, "is_reserved": 0}, {"lon": -76.99530883333334, "bike_id": "3c86ab8ddd6e27b283f727b2f431db0f", "lat": 38.88381, "fusion_lon": 0.0, "fusion_lat": 0.0, "type": "electric_scooter", "name": "3c86ab8ddd6e27b283f727b2f431db0f", "is_disabled": 0, "rental_uris": {"ios": "https://dc.lft.to/lastmile_qr_scan", "android": "https://dc.lft.to/lastmile_qr_scan"}, "is_reserved": 0}, {"lon": -77.04218666666667, "bike_id": "9d3cb0a488aed4ca79fdcc708e926ba7", "lat": 38.917034, "fusion_lon": 0.0, "fusion_lat": 0.0, "type": "electric_scooter", "name": "9d3cb0a488aed4ca79fdcc708e926ba7", "is_disabled": 0, "rental_uris": {"ios": "https://dc.lft.to/lastmile_qr_scan", "android": "https://dc.lft.to/lastmile_qr_scan"}, "is_reserved": 0}, {"lon": -77.01917483333334, "bike_id": "1b3281df0d92a165d51b19b54b467c7b", "lat": 38.886198, "fusion_lon": 0.0, "fusion_lat": 0.0, "type": "electric_scooter", "name": "1b3281df0d92a165d51b19b54b467c7b", "is_disabled": 0, "rental_uris": {"ios": "https://dc.lft.to/lastmile_qr_scan", "android": "https://dc.lft.to/lastmile_qr_scan"}, "is_reserved": 0}, {"lon": -77.03174783333333, "bike_id": "84776e85a7acd744c99d33c97e1a3631", "lat": 38.892295, "fusion_lon": 0.0, "fusion_lat": 0.0, "type": "electric_scooter", "name": "84776e85a7acd744c99d33c97e1a3631", "is_disabled": 0, "rental_uris": {"ios": "https://dc.lft.to/lastmile_qr_scan", "android": "https://dc.lft.to/lastmile_qr_scan"}, "is_reserved": 0}, {"lon": -77.02626833333333, "bike_id": "c7adf744185b1c7884d9fa3ff3f2e4da", "lat": 38.9622685, "fusion_lon": 0.0, "fusion_lat": 0.0, "type": "electric_bike", "name": "c7adf744185b1c7884d9fa3ff3f2e4da", "is_disabled": 0, "rental_uris": {"ios": "https://dc.lft.to/lastmile_qr_scan", "android": "https://dc.lft.to/lastmile_qr_scan"}, "is_reserved": 0}, {"lon": -77.00998133333333, "bike_id": "cfed229f3d796ca88a98f53edafae1e4", "lat": 38.89469733333333, "fusion_lon": 0.0, "fusion_lat": 0.0, "type": "electric_scooter", "name": "cfed229f3d796ca88a98f53edafae1e4", "is_disabled": 0, "rental_uris": {"ios": "https://dc.lft.to/lastmile_qr_scan", "android": "https://dc.lft.to/lastmile_qr_scan"}, "is_reserved": 0}, {"lon": -76.94100783333333, "bike_id": "948450b9e2d7ef010aafebd533f43eec", "lat": 38.886449999999996, "fusion_lon": 0.0, "fusion_lat": 0.0, "type": "electric_scooter", "name": "948450b9e2d7ef010aafebd533f43eec", "is_disabled": 0, "rental_uris": {"ios": "https://dc.lft.to/lastmile_qr_scan", "android": "https://dc.lft.to/lastmile_qr_scan"}, "is_reserved": 0}, {"lon": -77.04289516666667, "bike_id": "85e568fadc8940aae964bc8fdecb66af", "lat": 38.90920333333333, "fusion_lon": 0.0, "fusion_lat": 0.0, "type": "electric_scooter", "name": "85e568fadc8940aae964bc8fdecb66af", "is_disabled": 0, "rental_uris": {"ios": "https://dc.lft.to/lastmile_qr_scan", "android": "https://dc.lft.to/lastmile_qr_scan"}, "is_reserved": 0}, {"lon": -77.04850716666667, "bike_id": "d3bed607e49519cff56f6c91ebc42aa6", "lat": 38.90452333333333, "fusion_lon": 0.0, "fusion_lat": 0.0, "type": "electric_scooter", "name": "d3bed607e49519cff56f6c91ebc42aa6", "is_disabled": 0, "rental_uris": {"ios": "https://dc.lft.to/lastmile_qr_scan", "android": "https://dc.lft.to/lastmile_qr_scan"}, "is_reserved": 0}, {"lon": -76.98490416666667, "bike_id": "00b2443a0ff3f5406c0e3e2022cabc5e", "lat": 38.87841183333333, "fusion_lon": 0.0, "fusion_lat": 0.0, "type": "electric_scooter", "name": "00b2443a0ff3f5406c0e3e2022cabc5e", "is_disabled": 0, "rental_uris": {"ios": "https://dc.lft.to/lastmile_qr_scan", "android": "https://dc.lft.to/lastmile_qr_scan"}, "is_reserved": 0}, {"lon": -76.96525133333333, "bike_id": "046b7531fb7e60f3e804a2da0559b850", "lat": 38.876272166666666, "fusion_lon": 0.0, "fusion_lat": 0.0, "type": "electric_scooter", "name": "046b7531fb7e60f3e804a2da0559b850", "is_disabled": 0, "rental_uris": {"ios": "https://dc.lft.to/lastmile_qr_scan", "android": "https://dc.lft.to/lastmile_qr_scan"}, "is_reserved": 0}, {"lon": -77.04001166666667, "bike_id": "97d8a1d9869375947f97a3392e0f8100", "lat": 38.934271333333335, "fusion_lon": 0.0, "fusion_lat": 0.0, "type": "electric_scooter", "name": "97d8a1d9869375947f97a3392e0f8100", "is_disabled": 0, "rental_uris": {"ios": "https://dc.lft.to/lastmile_qr_scan", "android": "https://dc.lft.to/lastmile_qr_scan"}, "is_reserved": 0}, {"lon": -77.0326165, "bike_id": "e3293cd3a6058d463e1947ce7d580260", "lat": 38.9377945, "fusion_lon": 0.0, "fusion_lat": 0.0, "type": "electric_scooter", "name": "e3293cd3a6058d463e1947ce7d580260", "is_disabled": 0, "rental_uris": {"ios": "https://dc.lft.to/lastmile_qr_scan", "android": "https://dc.lft.to/lastmile_qr_scan"}, "is_reserved": 0}, {"lon": -77.02509983333333, "bike_id": "9e87577e674a20b2893cbefd47cfd900", "lat": 38.921037166666665, "fusion_lon": 0.0, "fusion_lat": 0.0, "type": "electric_scooter", "name": "9e87577e674a20b2893cbefd47cfd900", "is_disabled": 0, "rental_uris": {"ios": "https://dc.lft.to/lastmile_qr_scan", "android": "https://dc.lft.to/lastmile_qr_scan"}, "is_reserved": 0}, {"lon": -77.04650566666666, "bike_id": "0a18825415c79fcc8165617745e7a9d2", "lat": 38.909589, "fusion_lon": 0.0, "fusion_lat": 0.0, "type": "electric_scooter", "name": "0a18825415c79fcc8165617745e7a9d2", "is_disabled": 0, "rental_uris": {"ios": "https://dc.lft.to/lastmile_qr_scan", "android": "https://dc.lft.to/lastmile_qr_scan"}, "is_reserved": 0}, {"lon": -77.05704866666666, "bike_id": "d87d35660e2ddc58ebf2327763af023b", "lat": 38.9054785, "fusion_lon": 0.0, "fusion_lat": 0.0, "type": "electric_scooter", "name": "d87d35660e2ddc58ebf2327763af023b", "is_disabled": 0, "rental_uris": {"ios": "https://dc.lft.to/lastmile_qr_scan", "android": "https://dc.lft.to/lastmile_qr_scan"}, "is_reserved": 0}, {"lon": -77.052116, "bike_id": "3e1d63086fed87dbc81975871410622e", "lat": 38.915680333333334, "fusion_lon": 0.0, "fusion_lat": 0.0, "type": "electric_scooter", "name": "3e1d63086fed87dbc81975871410622e", "is_disabled": 0, "rental_uris": {"ios": "https://dc.lft.to/lastmile_qr_scan", "android": "https://dc.lft.to/lastmile_qr_scan"}, "is_reserved": 0}, {"lon": -77.04492466666666, "bike_id": "3c79b49e823dc248f3971d447500116a", "lat": 38.91359816666667, "fusion_lon": 0.0, "fusion_lat": 0.0, "type": "electric_scooter", "name": "3c79b49e823dc248f3971d447500116a", "is_disabled": 0, "rental_uris": {"ios": "https://dc.lft.to/lastmile_qr_scan", "android": "https://dc.lft.to/lastmile_qr_scan"}, "is_reserved": 0}, {"lon": -77.0218045, "bike_id": "d71d49ca67c1574a99b4e7a728915e78", "lat": 38.89880466666666, "fusion_lon": 0.0, "fusion_lat": 0.0, "type": "electric_scooter", "name": "d71d49ca67c1574a99b4e7a728915e78", "is_disabled": 0, "rental_uris": {"ios": "https://dc.lft.to/lastmile_qr_scan", "android": "https://dc.lft.to/lastmile_qr_scan"}, "is_reserved": 0}, {"lon": -77.02766166666666, "bike_id": "3df67f483727ebaa0a4c463dfd691372", "lat": 38.954356, "fusion_lon": 0.0, "fusion_lat": 0.0, "type": "electric_scooter", "name": "3df67f483727ebaa0a4c463dfd691372", "is_disabled": 0, "rental_uris": {"ios": "https://dc.lft.to/lastmile_qr_scan", "android": "https://dc.lft.to/lastmile_qr_scan"}, "is_reserved": 0}, {"lon": -76.98080866666666, "bike_id": "597343da2d1809c36226f7ae34f595f8", "lat": 38.907079, "fusion_lon": 0.0, "fusion_lat": 0.0, "type": "electric_scooter", "name": "597343da2d1809c36226f7ae34f595f8", "is_disabled": 0, "rental_uris": {"ios": "https://dc.lft.to/lastmile_qr_scan", "android": "https://dc.lft.to/lastmile_qr_scan"}, "is_reserved": 0}, {"lon": -77.00332916666666, "bike_id": "eb955d17e3065d32dd4bbf0a98eb079a", "lat": 38.8972975, "fusion_lon": 0.0, "fusion_lat": 0.0, "type": "electric_scooter", "name": "eb955d17e3065d32dd4bbf0a98eb079a", "is_disabled": 0, "rental_uris": {"ios": "https://dc.lft.to/lastmile_qr_scan", "android": "https://dc.lft.to/lastmile_qr_scan"}, "is_reserved": 0}, {"lon": -77.03441866666667, "bike_id": "44602f8aa685f5546a84b58c3a7762a8", "lat": 38.918062, "fusion_lon": 0.0, "fusion_lat": 0.0, "type": "electric_scooter", "name": "44602f8aa685f5546a84b58c3a7762a8", "is_disabled": 0, "rental_uris": {"ios": "https://dc.lft.to/lastmile_qr_scan", "android": "https://dc.lft.to/lastmile_qr_scan"}, "is_reserved": 0}, {"lon": -77.02805116666667, "bike_id": "2ff0c079e92a31545ec5f287a86aceac", "lat": 38.93081333333333, "fusion_lon": 0.0, "fusion_lat": 0.0, "type": "electric_scooter", "name": "2ff0c079e92a31545ec5f287a86aceac", "is_disabled": 0, "rental_uris": {"ios": "https://dc.lft.to/lastmile_qr_scan", "android": "https://dc.lft.to/lastmile_qr_scan"}, "is_reserved": 0}, {"lon": -77.02528116666667, "bike_id": "448e2747b33ef7acbac1a34f0f2e6bf3", "lat": 38.90721166666667, "fusion_lon": 0.0, "fusion_lat": 0.0, "type": "electric_scooter", "name": "448e2747b33ef7acbac1a34f0f2e6bf3", "is_disabled": 0, "rental_uris": {"ios": "https://dc.lft.to/lastmile_qr_scan", "android": "https://dc.lft.to/lastmile_qr_scan"}, "is_reserved": 0}, {"lon": -77.05238283333334, "bike_id": "34939cb7f7a32b0f91d70d5a1baa7fc1", "lat": 38.92339033333333, "fusion_lon": 0.0, "fusion_lat": 0.0, "type": "electric_scooter", "name": "34939cb7f7a32b0f91d70d5a1baa7fc1", "is_disabled": 0, "rental_uris": {"ios": "https://dc.lft.to/lastmile_qr_scan", "android": "https://dc.lft.to/lastmile_qr_scan"}, "is_reserved": 0}, {"lon": -77.04339483333334, "bike_id": "809ce9b8c0fbc488ab286bbd140c511d", "lat": 38.911176, "fusion_lon": 0.0, "fusion_lat": 0.0, "type": "electric_scooter", "name": "809ce9b8c0fbc488ab286bbd140c511d", "is_disabled": 0, "rental_uris": {"ios": "https://dc.lft.to/lastmile_qr_scan", "android": "https://dc.lft.to/lastmile_qr_scan"}, "is_reserved": 0}, {"lon": -77.10836866666666, "bike_id": "90f4a53bb58984c3472c248c73ca0f1d", "lat": 38.81211833333333, "fusion_lon": 0.0, "fusion_lat": 0.0, "type": "electric_bike", "name": "90f4a53bb58984c3472c248c73ca0f1d", "is_disabled": 0, "rental_uris": {"ios": "https://dc.lft.to/lastmile_qr_scan", "android": "https://dc.lft.to/lastmile_qr_scan"}, "is_reserved": 0}, {"lon": -77.00523416666667, "bike_id": "447fae6c8aa5a1954a8405740de9fb16", "lat": 38.875479, "fusion_lon": 0.0, "fusion_lat": 0.0, "type": "electric_scooter", "name": "447fae6c8aa5a1954a8405740de9fb16", "is_disabled": 0, "rental_uris": {"ios": "https://dc.lft.to/lastmile_qr_scan", "android": "https://dc.lft.to/lastmile_qr_scan"}, "is_reserved": 0}, {"lon": -76.98995816666667, "bike_id": "07feb97e144189893c4f3f8251cd9b8f", "lat": 38.86509133333333, "fusion_lon": 0.0, "fusion_lat": 0.0, "type": "electric_scooter", "name": "07feb97e144189893c4f3f8251cd9b8f", "is_disabled": 0, "rental_uris": {"ios": "https://dc.lft.to/lastmile_qr_scan", "android": "https://dc.lft.to/lastmile_qr_scan"}, "is_reserved": 0}, {"lon": -77.03167583333334, "bike_id": "4ba7a541f15d5d09c6ba1640fdb522f9", "lat": 38.911232, "fusion_lon": 0.0, "fusion_lat": 0.0, "type": "electric_scooter", "name": "4ba7a541f15d5d09c6ba1640fdb522f9", "is_disabled": 0, "rental_uris": {"ios": "https://dc.lft.to/lastmile_qr_scan", "android": "https://dc.lft.to/lastmile_qr_scan"}, "is_reserved": 0}, {"lon": -77.014255, "bike_id": "0060e2a24e07464ab1e5033bbd2881f1", "lat": 38.92868416666666, "fusion_lon": 0.0, "fusion_lat": 0.0, "type": "electric_scooter", "name": "0060e2a24e07464ab1e5033bbd2881f1", "is_disabled": 0, "rental_uris": {"ios": "https://dc.lft.to/lastmile_qr_scan", "android": "https://dc.lft.to/lastmile_qr_scan"}, "is_reserved": 0}, {"lon": -77.03211266666666, "bike_id": "f75a3dce44b535268b5b3bde66640824", "lat": 38.915418833333334, "fusion_lon": 0.0, "fusion_lat": 0.0, "type": "electric_scooter", "name": "f75a3dce44b535268b5b3bde66640824", "is_disabled": 0, "rental_uris": {"ios": "https://dc.lft.to/lastmile_qr_scan", "android": "https://dc.lft.to/lastmile_qr_scan"}, "is_reserved": 0}, {"lon": -77.01721383333333, "bike_id": "1ea114ec62a31c26902c7749d8f667a1", "lat": 38.91617216666667, "fusion_lon": 0.0, "fusion_lat": 0.0, "type": "electric_bike", "name": "1ea114ec62a31c26902c7749d8f667a1", "is_disabled": 0, "rental_uris": {"ios": "https://dc.lft.to/lastmile_qr_scan", "android": "https://dc.lft.to/lastmile_qr_scan"}, "is_reserved": 0}, {"lon": -77.0271375, "bike_id": "6610e874986c97403e7bbae1836ee541", "lat": 38.927757666666665, "fusion_lon": 0.0, "fusion_lat": 0.0, "type": "electric_scooter", "name": "6610e874986c97403e7bbae1836ee541", "is_disabled": 0, "rental_uris": {"ios": "https://dc.lft.to/lastmile_qr_scan", "android": "https://dc.lft.to/lastmile_qr_scan"}, "is_reserved": 0}, {"lon": -77.0322965, "bike_id": "15618b1cd69bbea0efdfc1c550b87ba1", "lat": 38.896465666666664, "fusion_lon": 0.0, "fusion_lat": 0.0, "type": "electric_scooter", "name": "15618b1cd69bbea0efdfc1c550b87ba1", "is_disabled": 0, "rental_uris": {"ios": "https://dc.lft.to/lastmile_qr_scan", "android": "https://dc.lft.to/lastmile_qr_scan"}, "is_reserved": 0}, {"lon": -77.109064, "bike_id": "206738dd7ddcba5fa97cddfe24cc57a7", "lat": 39.052088, "fusion_lon": 0.0, "fusion_lat": 0.0, "type": "electric_bike", "name": "206738dd7ddcba5fa97cddfe24cc57a7", "is_disabled": 0, "rental_uris": {"ios": "https://dc.lft.to/lastmile_qr_scan", "android": "https://dc.lft.to/lastmile_qr_scan"}, "is_reserved": 0}, {"lon": -76.92994583333333, "bike_id": "b9aadebfd91713679eabde373bfc25fa", "lat": 38.901900499999996, "fusion_lon": 0.0, "fusion_lat": 0.0, "type": "electric_scooter", "name": "b9aadebfd91713679eabde373bfc25fa", "is_disabled": 0, "rental_uris": {"ios": "https://dc.lft.to/lastmile_qr_scan", "android": "https://dc.lft.to/lastmile_qr_scan"}, "is_reserved": 0}, {"lon": -77.02163683333333, "bike_id": "9c18117be6d4ebe0d242bf66cd27d96a", "lat": 38.88328883333333, "fusion_lon": 0.0, "fusion_lat": 0.0, "type": "electric_scooter", "name": "9c18117be6d4ebe0d242bf66cd27d96a", "is_disabled": 0, "rental_uris": {"ios": "https://dc.lft.to/lastmile_qr_scan", "android": "https://dc.lft.to/lastmile_qr_scan"}, "is_reserved": 0}, {"lon": -77.04020816666667, "bike_id": "386f559cfc6cccd06f9b77fbe1547064", "lat": 38.91115583333333, "fusion_lon": 0.0, "fusion_lat": 0.0, "type": "electric_scooter", "name": "386f559cfc6cccd06f9b77fbe1547064", "is_disabled": 0, "rental_uris": {"ios": "https://dc.lft.to/lastmile_qr_scan", "android": "https://dc.lft.to/lastmile_qr_scan"}, "is_reserved": 0}, {"lon": -77.04322683333334, "bike_id": "a745b7cc619583e6f3c11c1a47de1e62", "lat": 38.90732166666667, "fusion_lon": 0.0, "fusion_lat": 0.0, "type": "electric_scooter", "name": "a745b7cc619583e6f3c11c1a47de1e62", "is_disabled": 0, "rental_uris": {"ios": "https://dc.lft.to/lastmile_qr_scan", "android": "https://dc.lft.to/lastmile_qr_scan"}, "is_reserved": 0}, {"lon": -77.05238683333333, "bike_id": "32c0dd634758f1fe7ed369bba2563b87", "lat": 38.92468183333333, "fusion_lon": 0.0, "fusion_lat": 0.0, "type": "electric_scooter", "name": "32c0dd634758f1fe7ed369bba2563b87", "is_disabled": 0, "rental_uris": {"ios": "https://dc.lft.to/lastmile_qr_scan", "android": "https://dc.lft.to/lastmile_qr_scan"}, "is_reserved": 0}, {"lon": -77.04365583333333, "bike_id": "8c81d4ac66c7c2697af8240bb3feb1ae", "lat": 38.90137566666667, "fusion_lon": 0.0, "fusion_lat": 0.0, "type": "electric_scooter", "name": "8c81d4ac66c7c2697af8240bb3feb1ae", "is_disabled": 0, "rental_uris": {"ios": "https://dc.lft.to/lastmile_qr_scan", "android": "https://dc.lft.to/lastmile_qr_scan"}, "is_reserved": 0}, {"lon": -77.0425275, "bike_id": "8e28cbc5700196443011753510d2ff09", "lat": 38.926388833333334, "fusion_lon": 0.0, "fusion_lat": 0.0, "type": "electric_scooter", "name": "8e28cbc5700196443011753510d2ff09", "is_disabled": 0, "rental_uris": {"ios": "https://dc.lft.to/lastmile_qr_scan", "android": "https://dc.lft.to/lastmile_qr_scan"}, "is_reserved": 0}, {"lon": -77.04543283333334, "bike_id": "622d9273dcb185fb7e73f4bbdf3d8ce0", "lat": 38.920573, "fusion_lon": 0.0, "fusion_lat": 0.0, "type": "electric_scooter", "name": "622d9273dcb185fb7e73f4bbdf3d8ce0", "is_disabled": 0, "rental_uris": {"ios": "https://dc.lft.to/lastmile_qr_scan", "android": "https://dc.lft.to/lastmile_qr_scan"}, "is_reserved": 0}, {"lon": -77.03324866666667, "bike_id": "8519062078c9e7be8a1e1b857dd8ce36", "lat": 38.90987766666667, "fusion_lon": 0.0, "fusion_lat": 0.0, "type": "electric_scooter", "name": "8519062078c9e7be8a1e1b857dd8ce36", "is_disabled": 0, "rental_uris": {"ios": "https://dc.lft.to/lastmile_qr_scan", "android": "https://dc.lft.to/lastmile_qr_scan"}, "is_reserved": 0}, {"lon": -77.04399766666667, "bike_id": "fdf0d97aeed857ff37a280448ed979f5", "lat": 38.93329716666667, "fusion_lon": 0.0, "fusion_lat": 0.0, "type": "electric_scooter", "name": "fdf0d97aeed857ff37a280448ed979f5", "is_disabled": 0, "rental_uris": {"ios": "https://dc.lft.to/lastmile_qr_scan", "android": "https://dc.lft.to/lastmile_qr_scan"}, "is_reserved": 0}, {"lon": -77.02802733333333, "bike_id": "b738109915d2054a4363b9d0f77fb99f", "lat": 38.92024466666667, "fusion_lon": 0.0, "fusion_lat": 0.0, "type": "electric_scooter", "name": "b738109915d2054a4363b9d0f77fb99f", "is_disabled": 0, "rental_uris": {"ios": "https://dc.lft.to/lastmile_qr_scan", "android": "https://dc.lft.to/lastmile_qr_scan"}, "is_reserved": 0}, {"lon": -77.03455033333333, "bike_id": "b1a506b5a0b8f91d928daaa1f4745ec2", "lat": 38.91707066666667, "fusion_lon": 0.0, "fusion_lat": 0.0, "type": "electric_scooter", "name": "b1a506b5a0b8f91d928daaa1f4745ec2", "is_disabled": 0, "rental_uris": {"ios": "https://dc.lft.to/lastmile_qr_scan", "android": "https://dc.lft.to/lastmile_qr_scan"}, "is_reserved": 0}, {"lon": -77.0629595, "bike_id": "6dedc635a57ddfd2f0850d5df08b3f64", "lat": 38.90602283333333, "fusion_lon": 0.0, "fusion_lat": 0.0, "type": "electric_scooter", "name": "6dedc635a57ddfd2f0850d5df08b3f64", "is_disabled": 0, "rental_uris": {"ios": "https://dc.lft.to/lastmile_qr_scan", "android": "https://dc.lft.to/lastmile_qr_scan"}, "is_reserved": 0}, {"lon": -77.03182583333333, "bike_id": "3aa6878c442a9d2340add27f68dd687b", "lat": 38.9110415, "fusion_lon": 0.0, "fusion_lat": 0.0, "type": "electric_scooter", "name": "3aa6878c442a9d2340add27f68dd687b", "is_disabled": 0, "rental_uris": {"ios": "https://dc.lft.to/lastmile_qr_scan", "android": "https://dc.lft.to/lastmile_qr_scan"}, "is_reserved": 0}, {"lon": -77.04175683333334, "bike_id": "696b312865a2b9673880ba8819613f42", "lat": 38.917342, "fusion_lon": 0.0, "fusion_lat": 0.0, "type": "electric_scooter", "name": "696b312865a2b9673880ba8819613f42", "is_disabled": 0, "rental_uris": {"ios": "https://dc.lft.to/lastmile_qr_scan", "android": "https://dc.lft.to/lastmile_qr_scan"}, "is_reserved": 0}, {"lon": -77.0278755, "bike_id": "9281cddd87ffe75f97032eb169bbb672", "lat": 38.9568805, "fusion_lon": 0.0, "fusion_lat": 0.0, "type": "electric_scooter", "name": "9281cddd87ffe75f97032eb169bbb672", "is_disabled": 0, "rental_uris": {"ios": "https://dc.lft.to/lastmile_qr_scan", "android": "https://dc.lft.to/lastmile_qr_scan"}, "is_reserved": 0}, {"lon": -77.01086833333333, "bike_id": "4b346dcf20f5a6acaea663e728df3ce0", "lat": 38.91567233333333, "fusion_lon": 0.0, "fusion_lat": 0.0, "type": "electric_scooter", "name": "4b346dcf20f5a6acaea663e728df3ce0", "is_disabled": 0, "rental_uris": {"ios": "https://dc.lft.to/lastmile_qr_scan", "android": "https://dc.lft.to/lastmile_qr_scan"}, "is_reserved": 0}, {"lon": -77.02733366666666, "bike_id": "5bfff2223b726bc691ce1ecbb3cce9e2", "lat": 38.932122, "fusion_lon": 0.0, "fusion_lat": 0.0, "type": "electric_scooter", "name": "5bfff2223b726bc691ce1ecbb3cce9e2", "is_disabled": 0, "rental_uris": {"ios": "https://dc.lft.to/lastmile_qr_scan", "android": "https://dc.lft.to/lastmile_qr_scan"}, "is_reserved": 0}, {"lon": -76.988855, "bike_id": "cd2486b9867cd510019572f88b81ecf2", "lat": 38.86661733333333, "fusion_lon": 0.0, "fusion_lat": 0.0, "type": "electric_scooter", "name": "cd2486b9867cd510019572f88b81ecf2", "is_disabled": 0, "rental_uris": {"ios": "https://dc.lft.to/lastmile_qr_scan", "android": "https://dc.lft.to/lastmile_qr_scan"}, "is_reserved": 0}, {"lon": -77.04377616666666, "bike_id": "564b83e186ecff9462b153931c972bd2", "lat": 38.88657883333333, "fusion_lon": 0.0, "fusion_lat": 0.0, "type": "electric_scooter", "name": "564b83e186ecff9462b153931c972bd2", "is_disabled": 0, "rental_uris": {"ios": "https://dc.lft.to/lastmile_qr_scan", "android": "https://dc.lft.to/lastmile_qr_scan"}, "is_reserved": 0}, {"lon": -76.98707866666666, "bike_id": "d10f2934014c1649b4633e839c1f1cfa", "lat": 38.86628283333334, "fusion_lon": 0.0, "fusion_lat": 0.0, "type": "electric_scooter", "name": "d10f2934014c1649b4633e839c1f1cfa", "is_disabled": 0, "rental_uris": {"ios": "https://dc.lft.to/lastmile_qr_scan", "android": "https://dc.lft.to/lastmile_qr_scan"}, "is_reserved": 0}, {"lon": -77.04227583333333, "bike_id": "22ecb1b794717372427e2cd6895fee88", "lat": 38.92133116666667, "fusion_lon": 0.0, "fusion_lat": 0.0, "type": "electric_bike", "name": "22ecb1b794717372427e2cd6895fee88", "is_disabled": 0, "rental_uris": {"ios": "https://dc.lft.to/lastmile_qr_scan", "android": "https://dc.lft.to/lastmile_qr_scan"}, "is_reserved": 0}, {"lon": -76.92767933333333, "bike_id": "475c09c9deaff1f12ff8b589f1b41f26", "lat": 38.9008705, "fusion_lon": 0.0, "fusion_lat": 0.0, "type": "electric_scooter", "name": "475c09c9deaff1f12ff8b589f1b41f26", "is_disabled": 0, "rental_uris": {"ios": "https://dc.lft.to/lastmile_qr_scan", "android": "https://dc.lft.to/lastmile_qr_scan"}, "is_reserved": 0}, {"lon": -77.00210633333333, "bike_id": "b3817d988e6da45e6ad1a0655496f273", "lat": 38.90042233333333, "fusion_lon": 0.0, "fusion_lat": 0.0, "type": "electric_scooter", "name": "b3817d988e6da45e6ad1a0655496f273", "is_disabled": 0, "rental_uris": {"ios": "https://dc.lft.to/lastmile_qr_scan", "android": "https://dc.lft.to/lastmile_qr_scan"}, "is_reserved": 0}, {"lon": -77.0343945, "bike_id": "060761f0b750a0e59000fe1582623bd5", "lat": 38.910161, "fusion_lon": 0.0, "fusion_lat": 0.0, "type": "electric_scooter", "name": "060761f0b750a0e59000fe1582623bd5", "is_disabled": 0, "rental_uris": {"ios": "https://dc.lft.to/lastmile_qr_scan", "android": "https://dc.lft.to/lastmile_qr_scan"}, "is_reserved": 0}, {"lon": -77.02018466666667, "bike_id": "8c9a587150fc2eb56a0f194bae93702b", "lat": 38.901655, "fusion_lon": 0.0, "fusion_lat": 0.0, "type": "electric_scooter", "name": "8c9a587150fc2eb56a0f194bae93702b", "is_disabled": 0, "rental_uris": {"ios": "https://dc.lft.to/lastmile_qr_scan", "android": "https://dc.lft.to/lastmile_qr_scan"}, "is_reserved": 0}, {"lon": -77.02159783333333, "bike_id": "5421393a496e2da7b9181537d5e3d2ea", "lat": 38.8974525, "fusion_lon": 0.0, "fusion_lat": 0.0, "type": "electric_scooter", "name": "5421393a496e2da7b9181537d5e3d2ea", "is_disabled": 0, "rental_uris": {"ios": "https://dc.lft.to/lastmile_qr_scan", "android": "https://dc.lft.to/lastmile_qr_scan"}, "is_reserved": 0}, {"lon": -77.02694766666667, "bike_id": "a865ce5f783b8b87dbfff0986163122c", "lat": 38.90433866666667, "fusion_lon": 0.0, "fusion_lat": 0.0, "type": "electric_scooter", "name": "a865ce5f783b8b87dbfff0986163122c", "is_disabled": 0, "rental_uris": {"ios": "https://dc.lft.to/lastmile_qr_scan", "android": "https://dc.lft.to/lastmile_qr_scan"}, "is_reserved": 0}, {"lon": -77.040009, "bike_id": "d2ed8995569414dfbe93ea0960947a4a", "lat": 38.934341833333335, "fusion_lon": 0.0, "fusion_lat": 0.0, "type": "electric_scooter", "name": "d2ed8995569414dfbe93ea0960947a4a", "is_disabled": 0, "rental_uris": {"ios": "https://dc.lft.to/lastmile_qr_scan", "android": "https://dc.lft.to/lastmile_qr_scan"}, "is_reserved": 0}, {"lon": -76.9739695, "bike_id": "32e45675d404fc3422493c228c53e8b7", "lat": 38.90302366666667, "fusion_lon": 0.0, "fusion_lat": 0.0, "type": "electric_scooter", "name": "32e45675d404fc3422493c228c53e8b7", "is_disabled": 0, "rental_uris": {"ios": "https://dc.lft.to/lastmile_qr_scan", "android": "https://dc.lft.to/lastmile_qr_scan"}, "is_reserved": 0}, {"lon": -77.04210733333333, "bike_id": "134881d84638f611884cf60dabdbd251", "lat": 38.91121716666667, "fusion_lon": 0.0, "fusion_lat": 0.0, "type": "electric_scooter", "name": "134881d84638f611884cf60dabdbd251", "is_disabled": 0, "rental_uris": {"ios": "https://dc.lft.to/lastmile_qr_scan", "android": "https://dc.lft.to/lastmile_qr_scan"}, "is_reserved": 0}, {"lon": -77.02382766666666, "bike_id": "6e14e5e77552f49b30c52db8beb592b9", "lat": 38.919966333333335, "fusion_lon": 0.0, "fusion_lat": 0.0, "type": "electric_scooter", "name": "6e14e5e77552f49b30c52db8beb592b9", "is_disabled": 0, "rental_uris": {"ios": "https://dc.lft.to/lastmile_qr_scan", "android": "https://dc.lft.to/lastmile_qr_scan"}, "is_reserved": 0}, {"lon": -76.989111, "bike_id": "78cf935a068bcb1bc0571627f9499d9a", "lat": 38.864952333333335, "fusion_lon": 0.0, "fusion_lat": 0.0, "type": "electric_scooter", "name": "78cf935a068bcb1bc0571627f9499d9a", "is_disabled": 0, "rental_uris": {"ios": "https://dc.lft.to/lastmile_qr_scan", "android": "https://dc.lft.to/lastmile_qr_scan"}, "is_reserved": 0}, {"lon": -77.030334, "bike_id": "fdf107ddfab9c336bc2b392dc1dc1b90", "lat": 38.93714966666667, "fusion_lon": 0.0, "fusion_lat": 0.0, "type": "electric_scooter", "name": "fdf107ddfab9c336bc2b392dc1dc1b90", "is_disabled": 0, "rental_uris": {"ios": "https://dc.lft.to/lastmile_qr_scan", "android": "https://dc.lft.to/lastmile_qr_scan"}, "is_reserved": 0}, {"lon": -77.03204833333334, "bike_id": "e3b2ddc0bea7254ef17e8cb79bf20daa", "lat": 38.9111865, "fusion_lon": 0.0, "fusion_lat": 0.0, "type": "electric_scooter", "name": "e3b2ddc0bea7254ef17e8cb79bf20daa", "is_disabled": 0, "rental_uris": {"ios": "https://dc.lft.to/lastmile_qr_scan", "android": "https://dc.lft.to/lastmile_qr_scan"}, "is_reserved": 0}, {"lon": -77.04334683333333, "bike_id": "5dc785b8df57e8a17da720c59db20a4d", "lat": 38.92225466666667, "fusion_lon": 0.0, "fusion_lat": 0.0, "type": "electric_scooter", "name": "5dc785b8df57e8a17da720c59db20a4d", "is_disabled": 0, "rental_uris": {"ios": "https://dc.lft.to/lastmile_qr_scan", "android": "https://dc.lft.to/lastmile_qr_scan"}, "is_reserved": 0}, {"lon": -77.04724133333333, "bike_id": "0639d868529ea84ca1feb2f2b2eaa1a5", "lat": 38.90318416666667, "fusion_lon": 0.0, "fusion_lat": 0.0, "type": "electric_scooter", "name": "0639d868529ea84ca1feb2f2b2eaa1a5", "is_disabled": 0, "rental_uris": {"ios": "https://dc.lft.to/lastmile_qr_scan", "android": "https://dc.lft.to/lastmile_qr_scan"}, "is_reserved": 0}, {"lon": -77.04474633333334, "bike_id": "87cb82bd51d6167ff4b8d37f86fff6ca", "lat": 38.924332166666666, "fusion_lon": 0.0, "fusion_lat": 0.0, "type": "electric_scooter", "name": "87cb82bd51d6167ff4b8d37f86fff6ca", "is_disabled": 0, "rental_uris": {"ios": "https://dc.lft.to/lastmile_qr_scan", "android": "https://dc.lft.to/lastmile_qr_scan"}, "is_reserved": 0}, {"lon": -77.02711983333333, "bike_id": "2dec1ea890a94babc0515230b9dfa1cf", "lat": 38.92469766666667, "fusion_lon": 0.0, "fusion_lat": 0.0, "type": "electric_scooter", "name": "2dec1ea890a94babc0515230b9dfa1cf", "is_disabled": 0, "rental_uris": {"ios": "https://dc.lft.to/lastmile_qr_scan", "android": "https://dc.lft.to/lastmile_qr_scan"}, "is_reserved": 0}, {"lon": -76.94595033333333, "bike_id": "c5cfbcafd43301817a0f793b76eca049", "lat": 38.9015055, "fusion_lon": 0.0, "fusion_lat": 0.0, "type": "electric_scooter", "name": "c5cfbcafd43301817a0f793b76eca049", "is_disabled": 0, "rental_uris": {"ios": "https://dc.lft.to/lastmile_qr_scan", "android": "https://dc.lft.to/lastmile_qr_scan"}, "is_reserved": 0}, {"lon": -76.9318645, "bike_id": "517272518a956fa139c564d24c757ae5", "lat": 38.89876566666667, "fusion_lon": 0.0, "fusion_lat": 0.0, "type": "electric_scooter", "name": "517272518a956fa139c564d24c757ae5", "is_disabled": 0, "rental_uris": {"ios": "https://dc.lft.to/lastmile_qr_scan", "android": "https://dc.lft.to/lastmile_qr_scan"}, "is_reserved": 0}, {"lon": -77.084903, "bike_id": "5bd6d7d36dc261fb458b2ee667bf8c5a", "lat": 38.84849716666667, "fusion_lon": 0.0, "fusion_lat": 0.0, "type": "electric_bike", "name": "5bd6d7d36dc261fb458b2ee667bf8c5a", "is_disabled": 0, "rental_uris": {"ios": "https://dc.lft.to/lastmile_qr_scan", "android": "https://dc.lft.to/lastmile_qr_scan"}, "is_reserved": 0}, {"lon": -76.99521, "bike_id": "1293fb97d8f8ac1f4cbc184b284101ba", "lat": 38.86263683333333, "fusion_lon": 0.0, "fusion_lat": 0.0, "type": "electric_scooter", "name": "1293fb97d8f8ac1f4cbc184b284101ba", "is_disabled": 0, "rental_uris": {"ios": "https://dc.lft.to/lastmile_qr_scan", "android": "https://dc.lft.to/lastmile_qr_scan"}, "is_reserved": 0}, {"lon": -76.94881166666667, "bike_id": "66aaa96308d88afd963b91dff3206d34", "lat": 38.8951365, "fusion_lon": 0.0, "fusion_lat": 0.0, "type": "electric_scooter", "name": "66aaa96308d88afd963b91dff3206d34", "is_disabled": 0, "rental_uris": {"ios": "https://dc.lft.to/lastmile_qr_scan", "android": "https://dc.lft.to/lastmile_qr_scan"}, "is_reserved": 0}, {"lon": -76.99079583333334, "bike_id": "fcf86fbf9b8b16c9307a40639a6a8a0e", "lat": 38.89813816666667, "fusion_lon": 0.0, "fusion_lat": 0.0, "type": "electric_bike", "name": "fcf86fbf9b8b16c9307a40639a6a8a0e", "is_disabled": 0, "rental_uris": {"ios": "https://dc.lft.to/lastmile_qr_scan", "android": "https://dc.lft.to/lastmile_qr_scan"}, "is_reserved": 0}, {"lon": -77.02150516666667, "bike_id": "88d3b533e3ffbff2d48be242d91282f6", "lat": 38.9508195, "fusion_lon": 0.0, "fusion_lat": 0.0, "type": "electric_scooter", "name": "88d3b533e3ffbff2d48be242d91282f6", "is_disabled": 0, "rental_uris": {"ios": "https://dc.lft.to/lastmile_qr_scan", "android": "https://dc.lft.to/lastmile_qr_scan"}, "is_reserved": 0}, {"lon": -77.020117, "bike_id": "4e208bd4bf45e69e897b3174114403a7", "lat": 38.924277333333336, "fusion_lon": 0.0, "fusion_lat": 0.0, "type": "electric_scooter", "name": "4e208bd4bf45e69e897b3174114403a7", "is_disabled": 0, "rental_uris": {"ios": "https://dc.lft.to/lastmile_qr_scan", "android": "https://dc.lft.to/lastmile_qr_scan"}, "is_reserved": 0}, {"lon": -77.034164, "bike_id": "f34cc8c66d3e3be79ae069544a3c37d3", "lat": 38.90267516666667, "fusion_lon": 0.0, "fusion_lat": 0.0, "type": "electric_scooter", "name": "f34cc8c66d3e3be79ae069544a3c37d3", "is_disabled": 0, "rental_uris": {"ios": "https://dc.lft.to/lastmile_qr_scan", "android": "https://dc.lft.to/lastmile_qr_scan"}, "is_reserved": 0}, {"lon": -77.03442566666666, "bike_id": "e9c1d967ecbf4d9e60b5361980253ff4", "lat": 38.909844, "fusion_lon": 0.0, "fusion_lat": 0.0, "type": "electric_scooter", "name": "e9c1d967ecbf4d9e60b5361980253ff4", "is_disabled": 0, "rental_uris": {"ios": "https://dc.lft.to/lastmile_qr_scan", "android": "https://dc.lft.to/lastmile_qr_scan"}, "is_reserved": 0}, {"lon": -77.037328, "bike_id": "8489b7553ac062bcb9eeb17d52752ad3", "lat": 38.9202805, "fusion_lon": 0.0, "fusion_lat": 0.0, "type": "electric_scooter", "name": "8489b7553ac062bcb9eeb17d52752ad3", "is_disabled": 0, "rental_uris": {"ios": "https://dc.lft.to/lastmile_qr_scan", "android": "https://dc.lft.to/lastmile_qr_scan"}, "is_reserved": 0}, {"lon": -77.05236483333333, "bike_id": "3d07296f00b40d47cae54fb41b5f9243", "lat": 38.924699, "fusion_lon": 0.0, "fusion_lat": 0.0, "type": "electric_scooter", "name": "3d07296f00b40d47cae54fb41b5f9243", "is_disabled": 0, "rental_uris": {"ios": "https://dc.lft.to/lastmile_qr_scan", "android": "https://dc.lft.to/lastmile_qr_scan"}, "is_reserved": 0}, {"lon": -76.99611066666667, "bike_id": "267c00670117947968c9b02f78b7fb4f", "lat": 38.88699666666667, "fusion_lon": 0.0, "fusion_lat": 0.0, "type": "electric_scooter", "name": "267c00670117947968c9b02f78b7fb4f", "is_disabled": 0, "rental_uris": {"ios": "https://dc.lft.to/lastmile_qr_scan", "android": "https://dc.lft.to/lastmile_qr_scan"}, "is_reserved": 0}, {"lon": -77.03108483333334, "bike_id": "c180274d27818abc713fd1e9a40aff4c", "lat": 38.9156155, "fusion_lon": 0.0, "fusion_lat": 0.0, "type": "electric_scooter", "name": "c180274d27818abc713fd1e9a40aff4c", "is_disabled": 0, "rental_uris": {"ios": "https://dc.lft.to/lastmile_qr_scan", "android": "https://dc.lft.to/lastmile_qr_scan"}, "is_reserved": 0}, {"lon": -76.989855, "bike_id": "16ebdfdb7793626bd2d17edb6bf1bed6", "lat": 38.933645, "fusion_lon": 0.0, "fusion_lat": 0.0, "type": "electric_scooter", "name": "16ebdfdb7793626bd2d17edb6bf1bed6", "is_disabled": 0, "rental_uris": {"ios": "https://dc.lft.to/lastmile_qr_scan", "android": "https://dc.lft.to/lastmile_qr_scan"}, "is_reserved": 0}, {"lon": -76.98020366666667, "bike_id": "e7487cfe0c0bfc31fab5d56fceea1aa7", "lat": 38.85325133333333, "fusion_lon": 0.0, "fusion_lat": 0.0, "type": "electric_bike", "name": "e7487cfe0c0bfc31fab5d56fceea1aa7", "is_disabled": 0, "rental_uris": {"ios": "https://dc.lft.to/lastmile_qr_scan", "android": "https://dc.lft.to/lastmile_qr_scan"}, "is_reserved": 0}, {"lon": -77.079633, "bike_id": "f018928ed00febe576406f72b32751a1", "lat": 38.85734333333333, "fusion_lon": 0.0, "fusion_lat": 0.0, "type": "electric_bike", "name": "f018928ed00febe576406f72b32751a1", "is_disabled": 0, "rental_uris": {"ios": "https://dc.lft.to/lastmile_qr_scan", "android": "https://dc.lft.to/lastmile_qr_scan"}, "is_reserved": 0}, {"lon": -77.03505133333333, "bike_id": "ac6436ff36c5d64b0fe2500406bbf754", "lat": 38.92351516666667, "fusion_lon": 0.0, "fusion_lat": 0.0, "type": "electric_scooter", "name": "ac6436ff36c5d64b0fe2500406bbf754", "is_disabled": 0, "rental_uris": {"ios": "https://dc.lft.to/lastmile_qr_scan", "android": "https://dc.lft.to/lastmile_qr_scan"}, "is_reserved": 0}, {"lon": -76.98083983333333, "bike_id": "157edb0043a13388e6d016c17489810d", "lat": 38.884259, "fusion_lon": 0.0, "fusion_lat": 0.0, "type": "electric_scooter", "name": "157edb0043a13388e6d016c17489810d", "is_disabled": 0, "rental_uris": {"ios": "https://dc.lft.to/lastmile_qr_scan", "android": "https://dc.lft.to/lastmile_qr_scan"}, "is_reserved": 0}, {"lon": -77.03215666666667, "bike_id": "d895d03e1619b66729a7a8b726a007a7", "lat": 38.89221916666666, "fusion_lon": 0.0, "fusion_lat": 0.0, "type": "electric_scooter", "name": "d895d03e1619b66729a7a8b726a007a7", "is_disabled": 0, "rental_uris": {"ios": "https://dc.lft.to/lastmile_qr_scan", "android": "https://dc.lft.to/lastmile_qr_scan"}, "is_reserved": 0}, {"lon": -77.03660933333333, "bike_id": "e4d73dbf2e1f5ece217680b5678cbd45", "lat": 38.91225933333333, "fusion_lon": 0.0, "fusion_lat": 0.0, "type": "electric_scooter", "name": "e4d73dbf2e1f5ece217680b5678cbd45", "is_disabled": 0, "rental_uris": {"ios": "https://dc.lft.to/lastmile_qr_scan", "android": "https://dc.lft.to/lastmile_qr_scan"}, "is_reserved": 0}, {"lon": -76.98357483333334, "bike_id": "5444dc74eed4601423c3f7d478983f65", "lat": 38.902910166666665, "fusion_lon": 0.0, "fusion_lat": 0.0, "type": "electric_scooter", "name": "5444dc74eed4601423c3f7d478983f65", "is_disabled": 0, "rental_uris": {"ios": "https://dc.lft.to/lastmile_qr_scan", "android": "https://dc.lft.to/lastmile_qr_scan"}, "is_reserved": 0}, {"lon": -77.0585695, "bike_id": "ddf214b90cfc65a9ee0abdbdef71619f", "lat": 38.936111, "fusion_lon": 0.0, "fusion_lat": 0.0, "type": "electric_scooter", "name": "ddf214b90cfc65a9ee0abdbdef71619f", "is_disabled": 0, "rental_uris": {"ios": "https://dc.lft.to/lastmile_qr_scan", "android": "https://dc.lft.to/lastmile_qr_scan"}, "is_reserved": 0}, {"lon": -77.02319916666667, "bike_id": "8203a59471e7b724059cea2ffbd3ff3c", "lat": 38.927893833333336, "fusion_lon": 0.0, "fusion_lat": 0.0, "type": "electric_scooter", "name": "8203a59471e7b724059cea2ffbd3ff3c", "is_disabled": 0, "rental_uris": {"ios": "https://dc.lft.to/lastmile_qr_scan", "android": "https://dc.lft.to/lastmile_qr_scan"}, "is_reserved": 0}, {"lon": -76.97330733333334, "bike_id": "d99756e2950cc75893b327d27a43216d", "lat": 38.865196, "fusion_lon": 0.0, "fusion_lat": 0.0, "type": "electric_bike", "name": "d99756e2950cc75893b327d27a43216d", "is_disabled": 0, "rental_uris": {"ios": "https://dc.lft.to/lastmile_qr_scan", "android": "https://dc.lft.to/lastmile_qr_scan"}, "is_reserved": 0}, {"lon": -77.02178216666667, "bike_id": "59a4552544211a0b5588da3da61c0cab", "lat": 38.8935765, "fusion_lon": 0.0, "fusion_lat": 0.0, "type": "electric_scooter", "name": "59a4552544211a0b5588da3da61c0cab", "is_disabled": 0, "rental_uris": {"ios": "https://dc.lft.to/lastmile_qr_scan", "android": "https://dc.lft.to/lastmile_qr_scan"}, "is_reserved": 0}, {"lon": -77.03532483333333, "bike_id": "6e05600da285619ba00f360505ce7aef", "lat": 38.9263345, "fusion_lon": 0.0, "fusion_lat": 0.0, "type": "electric_scooter", "name": "6e05600da285619ba00f360505ce7aef", "is_disabled": 0, "rental_uris": {"ios": "https://dc.lft.to/lastmile_qr_scan", "android": "https://dc.lft.to/lastmile_qr_scan"}, "is_reserved": 0}, {"lon": -77.00204316666667, "bike_id": "5b47bc80a45cb52b88d08484e5725311", "lat": 38.90023166666667, "fusion_lon": 0.0, "fusion_lat": 0.0, "type": "electric_scooter", "name": "5b47bc80a45cb52b88d08484e5725311", "is_disabled": 0, "rental_uris": {"ios": "https://dc.lft.to/lastmile_qr_scan", "android": "https://dc.lft.to/lastmile_qr_scan"}, "is_reserved": 0},