{"data": {"bikes": [{"bike_id": "fb165eceb974ee8b54603bd3016dded3", "type": "electric_scooter", "is_disabled": 0, "lat": 38.888482, "rental_uris": {"ios": "https://dc.lft.to/lastmile_qr_scan", "android": "https://dc.lft.to/lastmile_qr_scan"}, "is_reserved": 0, "fusion_lon": 0.0, "fusion_lat": 0.0, "lon": -76.926786, "name": "fb165eceb974ee8b54603bd3016dded3"}, {"bike_id": "c7947e8ea6d3007cc7af20963e553e01", "type": "electric_scooter", "is_disabled": 0, "lat": 38.9150525, "rental_uris": {"ios": "https://dc.lft.to/lastmile_qr_scan", "android": "https://dc.lft.to/lastmile_qr_scan"}, "is_reserved": 0, "fusion_lon": 0.0, "fusion_lat": 0.0, "lon": -77.009206, "name": "c7947e8ea6d3007cc7af20963e553e01"}, {"bike_id": "3b667421ee0540321bd1654006cabded", "type": "electric_scooter", "is_disabled": 0, "lat": 38.91251183333333, "rental_uris": {"ios": "https://dc.lft.to/lastmile_qr_scan", "android": "https://dc.lft.to/lastmile_qr_scan"}, "is_reserved": 0, "fusion_lon": 0.0, "fusion_lat": 0.0, "lon": -77.0375595, "name": "3b667421ee0540321bd1654006cabded"}, {"bike_id": "f7dcc17b4933eec3565284061398b156", "type": "electric_scooter", "is_disabled": 0, "lat": 38.86685216666667, "rental_uris": {"ios": "https://dc.lft.to/lastmile_qr_scan", "android": "https://dc.lft.to/lastmile_qr_scan"}, "is_reserved": 0, "fusion_lon": 0.0, "fusion_lat": 0.0, "lon": -76.98586, "name": "f7dcc17b4933eec3565284061398b156"}, {"bike_id": "3b3ba0afebbcfe437149cf71a78ca6e6", "type": "electric_scooter", "is_disabled": 0, "lat": 38.87413433333333, "rental_uris": {"ios": "https://dc.lft.to/lastmile_qr_scan", "android": "https://dc.lft.to/lastmile_qr_scan"}, "is_reserved": 0, "fusion_lon": 0.0, "fusion_lat": 0.0, "lon": -76.9690295, "name": "3b3ba0afebbcfe437149cf71a78ca6e6"}, {"bike_id": "07ecc35ab4d2beb6631cd9c81e4cfc63", "type": "electric_scooter", "is_disabled": 0, "lat": 38.90228916666667, "rental_uris": {"ios": "https://dc.lft.to/lastmile_qr_scan", "android": "https://dc.lft.to/lastmile_qr_scan"}, "is_reserved": 0, "fusion_lon": 0.0, "fusion_lat": 0.0, "lon": -77.0434, "name": "07ecc35ab4d2beb6631cd9c81e4cfc63"}, {"bike_id": "9eb56f9bbe0d57bbb6740c148eff0178", "type": "electric_scooter", "is_disabled": 0, "lat": 38.91642733333333, "rental_uris": {"ios": "https://dc.lft.to/lastmile_qr_scan", "android": "https://dc.lft.to/lastmile_qr_scan"}, "is_reserved": 0, "fusion_lon": 0.0, "fusion_lat": 0.0, "lon": -77.02278883333334, "name": "9eb56f9bbe0d57bbb6740c148eff0178"}, {"bike_id": "3221fac09f700176072a3f4a47b1a23a", "type": "electric_scooter", "is_disabled": 0, "lat": 38.9290795, "rental_uris": {"ios": "https://dc.lft.to/lastmile_qr_scan", "android": "https://dc.lft.to/lastmile_qr_scan"}, "is_reserved": 0, "fusion_lon": 0.0, "fusion_lat": 0.0, "lon": -77.020867, "name": "3221fac09f700176072a3f4a47b1a23a"}, {"bike_id": "0195d5a6590d9ac94a4718675a0be775", "type": "electric_scooter", "is_disabled": 0, "lat": 38.9247425, "rental_uris": {"ios": "https://dc.lft.to/lastmile_qr_scan", "android": "https://dc.lft.to/lastmile_qr_scan"}, "is_reserved": 0, "fusion_lon": 0.0, "fusion_lat": 0.0, "lon": -77.028348, "name": "0195d5a6590d9ac94a4718675a0be775"}, {"bike_id": "f6928937fd33d8236a9528b5d41dafcf", "type": "electric_scooter", "is_disabled": 0, "lat": 38.91440383333333, "rental_uris": {"ios": "https://dc.lft.to/lastmile_qr_scan", "android": "https://dc.lft.to/lastmile_qr_scan"}, "is_reserved": 0, "fusion_lon": 0.0, "fusion_lat": 0.0, "lon": -77.022908, "name": "f6928937fd33d8236a9528b5d41dafcf"}, {"bike_id": "97e1c9e03912c76fa0b84c31cb119bbf", "type": "electric_scooter", "is_disabled": 0, "lat": 38.94268533333333, "rental_uris": {"ios": "https://dc.lft.to/lastmile_qr_scan", "android": "https://dc.lft.to/lastmile_qr_scan"}, "is_reserved": 0, "fusion_lon": 0.0, "fusion_lat": 0.0, "lon": -77.0325605, "name": "97e1c9e03912c76fa0b84c31cb119bbf"}, {"bike_id": "87db3867f981f0d81d1480b79999be60", "type": "electric_scooter", "is_disabled": 0, "lat": 38.878676, "rental_uris": {"ios": "https://dc.lft.to/lastmile_qr_scan", "android": "https://dc.lft.to/lastmile_qr_scan"}, "is_reserved": 0, "fusion_lon": 0.0, "fusion_lat": 0.0, "lon": -76.96979533333334, "name": "87db3867f981f0d81d1480b79999be60"}, {"bike_id": "3fa9787155a1021b325157e5ee38848e", "type": "electric_scooter", "is_disabled": 0, "lat": 38.85321033333334, "rental_uris": {"ios": "https://dc.lft.to/lastmile_qr_scan", "android": "https://dc.lft.to/lastmile_qr_scan"}, "is_reserved": 0, "fusion_lon": 0.0, "fusion_lat": 0.0, "lon": -76.980047, "name": "3fa9787155a1021b325157e5ee38848e"}, {"bike_id": "c54262caec74e9354ede2582932d1b12", "type": "electric_scooter", "is_disabled": 0, "lat": 38.9170275, "rental_uris": {"ios": "https://dc.lft.to/lastmile_qr_scan", "android": "https://dc.lft.to/lastmile_qr_scan"}, "is_reserved": 0, "fusion_lon": 0.0, "fusion_lat": 0.0, "lon": -77.03158616666667, "name": "c54262caec74e9354ede2582932d1b12"}, {"bike_id": "e82630670c7a16060a9530ef061c5211", "type": "electric_scooter", "is_disabled": 0, "lat": 38.908463833333336, "rental_uris": {"ios": "https://dc.lft.to/lastmile_qr_scan", "android": "https://dc.lft.to/lastmile_qr_scan"}, "is_reserved": 0, "fusion_lon": 0.0, "fusion_lat": 0.0, "lon": -77.02225483333334, "name": "e82630670c7a16060a9530ef061c5211"}, {"bike_id": "61740e294df5e14bd93ac954bebe3a4e", "type": "electric_scooter", "is_disabled": 0, "lat": 38.89914683333333, "rental_uris": {"ios": "https://dc.lft.to/lastmile_qr_scan", "android": "https://dc.lft.to/lastmile_qr_scan"}, "is_reserved": 0, "fusion_lon": 0.0, "fusion_lat": 0.0, "lon": -76.93370466666667, "name": "61740e294df5e14bd93ac954bebe3a4e"}, {"bike_id": "6f5a070a232f7a7587c4e7fc9b95352f", "type": "electric_scooter", "is_disabled": 0, "lat": 38.9199025, "rental_uris": {"ios": "https://dc.lft.to/lastmile_qr_scan", "android": "https://dc.lft.to/lastmile_qr_scan"}, "is_reserved": 0, "fusion_lon": 0.0, "fusion_lat": 0.0, "lon": -77.017893, "name": "6f5a070a232f7a7587c4e7fc9b95352f"}, {"bike_id": "cc2039c14e11034b8c85ff33508d4940", "type": "electric_scooter", "is_disabled": 0, "lat": 38.934642833333335, "rental_uris": {"ios": "https://dc.lft.to/lastmile_qr_scan", "android": "https://dc.lft.to/lastmile_qr_scan"}, "is_reserved": 0, "fusion_lon": 0.0, "fusion_lat": 0.0, "lon": -77.04533983333333, "name": "cc2039c14e11034b8c85ff33508d4940"}, {"bike_id": "ad08f486fcb810f53026fcec99de1898", "type": "electric_scooter", "is_disabled": 0, "lat": 38.9023655, "rental_uris": {"ios": "https://dc.lft.to/lastmile_qr_scan", "android": "https://dc.lft.to/lastmile_qr_scan"}, "is_reserved": 0, "fusion_lon": 0.0, "fusion_lat": 0.0, "lon": -77.00205166666667, "name": "ad08f486fcb810f53026fcec99de1898"}, {"bike_id": "981ce663c4e49a81b0176d6d270f1675", "type": "electric_scooter", "is_disabled": 0, "lat": 38.9062295, "rental_uris": {"ios": "https://dc.lft.to/lastmile_qr_scan", "android": "https://dc.lft.to/lastmile_qr_scan"}, "is_reserved": 0, "fusion_lon": 0.0, "fusion_lat": 0.0, "lon": -77.05558466666666, "name": "981ce663c4e49a81b0176d6d270f1675"}, {"bike_id": "e6e8f311fca4bca731212ce19ae08f3b", "type": "electric_scooter", "is_disabled": 0, "lat": 38.902609166666664, "rental_uris": {"ios": "https://dc.lft.to/lastmile_qr_scan", "android": "https://dc.lft.to/lastmile_qr_scan"}, "is_reserved": 0, "fusion_lon": 0.0, "fusion_lat": 0.0, "lon": -77.04114616666666, "name": "e6e8f311fca4bca731212ce19ae08f3b"}, {"bike_id": "be92b22b784c058f3b545d6636ca8159", "type": "electric_scooter", "is_disabled": 0, "lat": 38.91424966666666, "rental_uris": {"ios": "https://dc.lft.to/lastmile_qr_scan", "android": "https://dc.lft.to/lastmile_qr_scan"}, "is_reserved": 0, "fusion_lon": 0.0, "fusion_lat": 0.0, "lon": -77.069265, "name": "be92b22b784c058f3b545d6636ca8159"}, {"bike_id": "6b5c6fd27f535bcdedb6576b30d0e92f", "type": "electric_bike", "is_disabled": 0, "lat": 38.85721083333333, "rental_uris": {"ios": "https://dc.lft.to/lastmile_qr_scan", "android": "https://dc.lft.to/lastmile_qr_scan"}, "is_reserved": 0, "fusion_lon": 0.0, "fusion_lat": 0.0, "lon": -77.07968266666667, "name": "6b5c6fd27f535bcdedb6576b30d0e92f"}, {"bike_id": "4adffb9c1f0337a7ab2e761a050ccad5", "type": "electric_scooter", "is_disabled": 0, "lat": 38.876943, "rental_uris": {"ios": "https://dc.lft.to/lastmile_qr_scan", "android": "https://dc.lft.to/lastmile_qr_scan"}, "is_reserved": 0, "fusion_lon": 0.0, "fusion_lat": 0.0, "lon": -77.01656916666667, "name": "4adffb9c1f0337a7ab2e761a050ccad5"}, {"bike_id": "2723cfdde90607265c26f1f649b67640", "type": "electric_scooter", "is_disabled": 0, "lat": 38.92875466666667, "rental_uris": {"ios": "https://dc.lft.to/lastmile_qr_scan", "android": "https://dc.lft.to/lastmile_qr_scan"}, "is_reserved": 0, "fusion_lon": 0.0, "fusion_lat": 0.0, "lon": -77.03353766666666, "name": "2723cfdde90607265c26f1f649b67640"}, {"bike_id": "e8dcd651d7a0ec05861b2a1fa02a3358", "type": "electric_bike", "is_disabled": 0, "lat": 38.936834833333336, "rental_uris": {"ios": "https://dc.lft.to/lastmile_qr_scan", "android": "https://dc.lft.to/lastmile_qr_scan"}, "is_reserved": 0, "fusion_lon": 0.0, "fusion_lat": 0.0, "lon": -77.0563945, "name": "e8dcd651d7a0ec05861b2a1fa02a3358"}, {"bike_id": "a53e2db5e86ca9b913b2abc4a0a0ea52", "type": "electric_scooter", "is_disabled": 0, "lat": 38.94785016666667, "rental_uris": {"ios": "https://dc.lft.to/lastmile_qr_scan", "android": "https://dc.lft.to/lastmile_qr_scan"}, "is_reserved": 0, "fusion_lon": 0.0, "fusion_lat": 0.0, "lon": -77.07936216666667, "name": "a53e2db5e86ca9b913b2abc4a0a0ea52"}, {"bike_id": "4f43abf0bccae6a36a1bc33a79b37ea3", "type": "electric_scooter", "is_disabled": 0, "lat": 38.918384, "rental_uris": {"ios": "https://dc.lft.to/lastmile_qr_scan", "android": "https://dc.lft.to/lastmile_qr_scan"}, "is_reserved": 0, "fusion_lon": 0.0, "fusion_lat": 0.0, "lon": -77.0245685, "name": "4f43abf0bccae6a36a1bc33a79b37ea3"}, {"bike_id": "7c2b701b4f8f04258410fe17e8c853cf", "type": "electric_scooter", "is_disabled": 0, "lat": 38.923309333333336, "rental_uris": {"ios": "https://dc.lft.to/lastmile_qr_scan", "android": "https://dc.lft.to/lastmile_qr_scan"}, "is_reserved": 0, "fusion_lon": 0.0, "fusion_lat": 0.0, "lon": -77.0537195, "name": "7c2b701b4f8f04258410fe17e8c853cf"}, {"bike_id": "496953494696e57b2fbce7e1e4196b4b", "type": "electric_scooter", "is_disabled": 0, "lat": 38.94206833333333, "rental_uris": {"ios": "https://dc.lft.to/lastmile_qr_scan", "android": "https://dc.lft.to/lastmile_qr_scan"}, "is_reserved": 0, "fusion_lon": 0.0, "fusion_lat": 0.0, "lon": -77.02587133333333, "name": "496953494696e57b2fbce7e1e4196b4b"}, {"bike_id": "d240c166b41eb23c5a1f9c542c277567", "type": "electric_scooter", "is_disabled": 0, "lat": 38.936932, "rental_uris": {"ios": "https://dc.lft.to/lastmile_qr_scan", "android": "https://dc.lft.to/lastmile_qr_scan"}, "is_reserved": 0, "fusion_lon": 0.0, "fusion_lat": 0.0, "lon": -77.05664883333333, "name": "d240c166b41eb23c5a1f9c542c277567"}, {"bike_id": "560481ef7fb1eb8b2688d011592ae3fb", "type": "electric_scooter", "is_disabled": 0, "lat": 38.907324333333335, "rental_uris": {"ios": "https://dc.lft.to/lastmile_qr_scan", "android": "https://dc.lft.to/lastmile_qr_scan"}, "is_reserved": 0, "fusion_lon": 0.0, "fusion_lat": 0.0, "lon": -77.0093735, "name": "560481ef7fb1eb8b2688d011592ae3fb"}, {"bike_id": "e81f4219f6472523aa934eb44922b486", "type": "electric_bike", "is_disabled": 0, "lat": 39.056339666666666, "rental_uris": {"ios": "https://dc.lft.to/lastmile_qr_scan", "android": "https://dc.lft.to/lastmile_qr_scan"}, "is_reserved": 0, "fusion_lon": 0.0, "fusion_lat": 0.0, "lon": -77.12525016666666, "name": "e81f4219f6472523aa934eb44922b486"}, {"bike_id": "06391cd7bb529b544b4cd53465b8492f", "type": "electric_scooter", "is_disabled": 0, "lat": 38.89227483333333, "rental_uris": {"ios": "https://dc.lft.to/lastmile_qr_scan", "android": "https://dc.lft.to/lastmile_qr_scan"}, "is_reserved": 0, "fusion_lon": 0.0, "fusion_lat": 0.0, "lon": -77.04994416666666, "name": "06391cd7bb529b544b4cd53465b8492f"}, {"bike_id": "c751b3ff5aa99bbed9c4e34dab095d28", "type": "electric_scooter", "is_disabled": 0, "lat": 38.911039333333335, "rental_uris": {"ios": "https://dc.lft.to/lastmile_qr_scan", "android": "https://dc.lft.to/lastmile_qr_scan"}, "is_reserved": 0, "fusion_lon": 0.0, "fusion_lat": 0.0, "lon": -77.032543, "name": "c751b3ff5aa99bbed9c4e34dab095d28"}, {"bike_id": "de26331dfc38badf84805a0f19d2db6d", "type": "electric_scooter", "is_disabled": 0, "lat": 38.89497583333333, "rental_uris": {"ios": "https://dc.lft.to/lastmile_qr_scan", "android": "https://dc.lft.to/lastmile_qr_scan"}, "is_reserved": 0, "fusion_lon": 0.0, "fusion_lat": 0.0, "lon": -77.0021155, "name": "de26331dfc38badf84805a0f19d2db6d"}, {"bike_id": "0e8a85cf58a467ff185df5041afb6f8d", "type": "electric_scooter", "is_disabled": 0, "lat": 38.910655166666665, "rental_uris": {"ios": "https://dc.lft.to/lastmile_qr_scan", "android": "https://dc.lft.to/lastmile_qr_scan"}, "is_reserved": 0, "fusion_lon": 0.0, "fusion_lat": 0.0, "lon": -77.02605833333334, "name": "0e8a85cf58a467ff185df5041afb6f8d"}, {"bike_id": "0137426360866b100c79130621ee196a", "type": "electric_bike", "is_disabled": 0, "lat": 38.87298533333333, "rental_uris": {"ios": "https://dc.lft.to/lastmile_qr_scan", "android": "https://dc.lft.to/lastmile_qr_scan"}, "is_reserved": 0, "fusion_lon": 0.0, "fusion_lat": 0.0, "lon": -77.13925366666666, "name": "0137426360866b100c79130621ee196a"}, {"bike_id": "5e8778f9228cb2d542d38a3ff1f9f9ab", "type": "electric_scooter", "is_disabled": 0, "lat": 38.9335855, "rental_uris": {"ios": "https://dc.lft.to/lastmile_qr_scan", "android": "https://dc.lft.to/lastmile_qr_scan"}, "is_reserved": 0, "fusion_lon": 0.0, "fusion_lat": 0.0, "lon": -77.06205633333333, "name": "5e8778f9228cb2d542d38a3ff1f9f9ab"}, {"bike_id": "9b4482daf0081f5efe1af4c57d8108bf", "type": "electric_scooter", "is_disabled": 0, "lat": 38.92864766666667, "rental_uris": {"ios": "https://dc.lft.to/lastmile_qr_scan", "android": "https://dc.lft.to/lastmile_qr_scan"}, "is_reserved": 0, "fusion_lon": 0.0, "fusion_lat": 0.0, "lon": -77.034308, "name": "9b4482daf0081f5efe1af4c57d8108bf"}, {"bike_id": "506011ebd4ac7ca0172318e64c11088c", "type": "electric_scooter", "is_disabled": 0, "lat": 38.92425083333333, "rental_uris": {"ios": "https://dc.lft.to/lastmile_qr_scan", "android": "https://dc.lft.to/lastmile_qr_scan"}, "is_reserved": 0, "fusion_lon": 0.0, "fusion_lat": 0.0, "lon": -77.04240583333333, "name": "506011ebd4ac7ca0172318e64c11088c"}, {"bike_id": "d0d6acc927063114469031089ee03fa3", "type": "electric_scooter", "is_disabled": 0, "lat": 38.91134733333333, "rental_uris": {"ios": "https://dc.lft.to/lastmile_qr_scan", "android": "https://dc.lft.to/lastmile_qr_scan"}, "is_reserved": 0, "fusion_lon": 0.0, "fusion_lat": 0.0, "lon": -76.9900745, "name": "d0d6acc927063114469031089ee03fa3"}, {"bike_id": "2ad3968c2e1fc8d29fc9bba5a26b4f44", "type": "electric_scooter", "is_disabled": 0, "lat": 38.953160833333335, "rental_uris": {"ios": "https://dc.lft.to/lastmile_qr_scan", "android": "https://dc.lft.to/lastmile_qr_scan"}, "is_reserved": 0, "fusion_lon": 0.0, "fusion_lat": 0.0, "lon": -77.06977, "name": "2ad3968c2e1fc8d29fc9bba5a26b4f44"}, {"bike_id": "ebc751cea2597be78e5672de4d32ac1d", "type": "electric_scooter", "is_disabled": 0, "lat": 38.895329833333335, "rental_uris": {"ios": "https://dc.lft.to/lastmile_qr_scan", "android": "https://dc.lft.to/lastmile_qr_scan"}, "is_reserved": 0, "fusion_lon": 0.0, "fusion_lat": 0.0, "lon": -77.01124083333333, "name": "ebc751cea2597be78e5672de4d32ac1d"}, {"bike_id": "bdfd6268e5dbc101c0bd344132acc866", "type": "electric_scooter", "is_disabled": 0, "lat": 38.93611966666667, "rental_uris": {"ios": "https://dc.lft.to/lastmile_qr_scan", "android": "https://dc.lft.to/lastmile_qr_scan"}, "is_reserved": 0, "fusion_lon": 0.0, "fusion_lat": 0.0, "lon": -77.03784566666667, "name": "bdfd6268e5dbc101c0bd344132acc866"}, {"bike_id": "b617d8141f2ec2ee64742095a9bc6fdb", "type": "electric_scooter", "is_disabled": 0, "lat": 38.902488166666664, "rental_uris": {"ios": "https://dc.lft.to/lastmile_qr_scan", "android": "https://dc.lft.to/lastmile_qr_scan"}, "is_reserved": 0, "fusion_lon": 0.0, "fusion_lat": 0.0, "lon": -77.02639833333333, "name": "b617d8141f2ec2ee64742095a9bc6fdb"}, {"bike_id": "32a3fc7b3a9b0845761d2dbdfc4ad842", "type": "electric_scooter", "is_disabled": 0, "lat": 38.938583666666666, "rental_uris": {"ios": "https://dc.lft.to/lastmile_qr_scan", "android": "https://dc.lft.to/lastmile_qr_scan"}, "is_reserved": 0, "fusion_lon": 0.0, "fusion_lat": 0.0, "lon": -77.02703433333333, "name": "32a3fc7b3a9b0845761d2dbdfc4ad842"}, {"bike_id": "46d6d0984f63c45578347339efde28ee", "type": "electric_scooter", "is_disabled": 0, "lat": 38.880463666666664, "rental_uris": {"ios": "https://dc.lft.to/lastmile_qr_scan", "android": "https://dc.lft.to/lastmile_qr_scan"}, "is_reserved": 0, "fusion_lon": 0.0, "fusion_lat": 0.0, "lon": -77.00534116666667, "name": "46d6d0984f63c45578347339efde28ee"}, {"bike_id": "453a2c2e04d87f65cbd3bee00469e64a", "type": "electric_scooter", "is_disabled": 0, "lat": 38.9023945, "rental_uris": {"ios": "https://dc.lft.to/lastmile_qr_scan", "android": "https://dc.lft.to/lastmile_qr_scan"}, "is_reserved": 0, "fusion_lon": 0.0, "fusion_lat": 0.0, "lon": -77.04128316666667, "name": "453a2c2e04d87f65cbd3bee00469e64a"}, {"bike_id": "e74dfcc8a242bd97d5defd9c1a36259f", "type": "electric_scooter", "is_disabled": 0, "lat": 38.88705066666667, "rental_uris": {"ios": "https://dc.lft.to/lastmile_qr_scan", "android": "https://dc.lft.to/lastmile_qr_scan"}, "is_reserved": 0, "fusion_lon": 0.0, "fusion_lat": 0.0, "lon": -77.01365383333334, "name": "e74dfcc8a242bd97d5defd9c1a36259f"}, {"bike_id": "0935523ae79b3f12c4c6d99b027f9d75", "type": "electric_scooter", "is_disabled": 0, "lat": 38.8925505, "rental_uris": {"ios": "https://dc.lft.to/lastmile_qr_scan", "android": "https://dc.lft.to/lastmile_qr_scan"}, "is_reserved": 0, "fusion_lon": 0.0, "fusion_lat": 0.0, "lon": -76.925753, "name": "0935523ae79b3f12c4c6d99b027f9d75"}, {"bike_id": "e2505aa6bbb40a1c2c580f7c300159b9", "type": "electric_scooter", "is_disabled": 0, "lat": 38.917344666666665, "rental_uris": {"ios": "https://dc.lft.to/lastmile_qr_scan", "android": "https://dc.lft.to/lastmile_qr_scan"}, "is_reserved": 0, "fusion_lon": 0.0, "fusion_lat": 0.0, "lon": -77.02606266666666, "name": "e2505aa6bbb40a1c2c580f7c300159b9"}, {"bike_id": "ee98b049dba70d2eaf79212b9e0aa792", "type": "electric_bike", "is_disabled": 0, "lat": 38.9930205, "rental_uris": {"ios": "https://dc.lft.to/lastmile_qr_scan", "android": "https://dc.lft.to/lastmile_qr_scan"}, "is_reserved": 0, "fusion_lon": 0.0, "fusion_lat": 0.0, "lon": -77.02507466666667, "name": "ee98b049dba70d2eaf79212b9e0aa792"}, {"bike_id": "52c4ec0b2790eb8dd1fec578fc1ff1dd", "type": "electric_scooter", "is_disabled": 0, "lat": 38.907184666666666, "rental_uris": {"ios": "https://dc.lft.to/lastmile_qr_scan", "android": "https://dc.lft.to/lastmile_qr_scan"}, "is_reserved": 0, "fusion_lon": 0.0, "fusion_lat": 0.0, "lon": -77.03432266666667, "name": "52c4ec0b2790eb8dd1fec578fc1ff1dd"}, {"bike_id": "4069f0a23a642d3b4c4d9459383bbd18", "type": "electric_scooter", "is_disabled": 0, "lat": 38.9231795, "rental_uris": {"ios": "https://dc.lft.to/lastmile_qr_scan", "android": "https://dc.lft.to/lastmile_qr_scan"}, "is_reserved": 0, "fusion_lon": 0.0, "fusion_lat": 0.0, "lon": -77.0389915, "name": "4069f0a23a642d3b4c4d9459383bbd18"}, {"bike_id": "8b57c5abc77a0724e862719c37b53842", "type": "electric_scooter", "is_disabled": 0, "lat": 38.921572, "rental_uris": {"ios": "https://dc.lft.to/lastmile_qr_scan", "android": "https://dc.lft.to/lastmile_qr_scan"}, "is_reserved": 0, "fusion_lon": 0.0, "fusion_lat": 0.0, "lon": -77.03377966666666, "name": "8b57c5abc77a0724e862719c37b53842"}, {"bike_id": "270741273c5a14b5276dae7ba64136c8", "type": "electric_scooter", "is_disabled": 0, "lat": 38.956564, "rental_uris": {"ios": "https://dc.lft.to/lastmile_qr_scan", "android": "https://dc.lft.to/lastmile_qr_scan"}, "is_reserved": 0, "fusion_lon": 0.0, "fusion_lat": 0.0, "lon": -77.02400133333333, "name": "270741273c5a14b5276dae7ba64136c8"}, {"bike_id": "014400a4c93dce5081b2d3f5d3057d99", "type": "electric_scooter", "is_disabled": 0, "lat": 38.8644115, "rental_uris": {"ios": "https://dc.lft.to/lastmile_qr_scan", "android": "https://dc.lft.to/lastmile_qr_scan"}, "is_reserved": 0, "fusion_lon": 0.0, "fusion_lat": 0.0, "lon": -76.9798945, "name": "014400a4c93dce5081b2d3f5d3057d99"}, {"bike_id": "55c36a6f7395dc62141067bd82484ac7", "type": "electric_scooter", "is_disabled": 0, "lat": 38.924218833333335, "rental_uris": {"ios": "https://dc.lft.to/lastmile_qr_scan", "android": "https://dc.lft.to/lastmile_qr_scan"}, "is_reserved": 0, "fusion_lon": 0.0, "fusion_lat": 0.0, "lon": -77.022653, "name": "55c36a6f7395dc62141067bd82484ac7"}, {"bike_id": "8e6016ae5da023172f7892e0230895db", "type": "electric_scooter", "is_disabled": 0, "lat": 38.91924066666667, "rental_uris": {"ios": "https://dc.lft.to/lastmile_qr_scan", "android": "https://dc.lft.to/lastmile_qr_scan"}, "is_reserved": 0, "fusion_lon": 0.0, "fusion_lat": 0.0, "lon": -77.02579783333333, "name": "8e6016ae5da023172f7892e0230895db"}, {"bike_id": "7ee343b36e050666ea9dd6064803f424", "type": "electric_scooter", "is_disabled": 0, "lat": 38.9209625, "rental_uris": {"ios": "https://dc.lft.to/lastmile_qr_scan", "android": "https://dc.lft.to/lastmile_qr_scan"}, "is_reserved": 0, "fusion_lon": 0.0, "fusion_lat": 0.0, "lon": -77.03161883333334, "name": "7ee343b36e050666ea9dd6064803f424"}, {"bike_id": "01d57612002286b4ca5bdb92ca6d7d17", "type": "electric_scooter", "is_disabled": 0, "lat": 38.9557835, "rental_uris": {"ios": "https://dc.lft.to/lastmile_qr_scan", "android": "https://dc.lft.to/lastmile_qr_scan"}, "is_reserved": 0, "fusion_lon": 0.0, "fusion_lat": 0.0, "lon": -77.08041933333334, "name": "01d57612002286b4ca5bdb92ca6d7d17"}, {"bike_id": "b8a264b50b53290239d3438413f076ad", "type": "electric_scooter", "is_disabled": 0, "lat": 38.92826383333333, "rental_uris": {"ios": "https://dc.lft.to/lastmile_qr_scan", "android": "https://dc.lft.to/lastmile_qr_scan"}, "is_reserved": 0, "fusion_lon": 0.0, "fusion_lat": 0.0, "lon": -77.0550825, "name": "b8a264b50b53290239d3438413f076ad"}, {"bike_id": "d09942dd56f73b330778eec7cf40cf32", "type": "electric_bike", "is_disabled": 0, "lat": 38.95625616666667, "rental_uris": {"ios": "https://dc.lft.to/lastmile_qr_scan", "android": "https://dc.lft.to/lastmile_qr_scan"}, "is_reserved": 0, "fusion_lon": 0.0, "fusion_lat": 0.0, "lon": -76.93870066666666, "name": "d09942dd56f73b330778eec7cf40cf32"}, {"bike_id": "1fc949a25578c98f7b3319abcd6f0465", "type": "electric_scooter", "is_disabled": 0, "lat": 38.878587333333336, "rental_uris": {"ios": "https://dc.lft.to/lastmile_qr_scan", "android": "https://dc.lft.to/lastmile_qr_scan"}, "is_reserved": 0, "fusion_lon": 0.0, "fusion_lat": 0.0, "lon": -77.00837683333333, "name": "1fc949a25578c98f7b3319abcd6f0465"}, {"bike_id": "4368935475a1d37d2836da357744734b", "type": "electric_scooter", "is_disabled": 0, "lat": 38.9843095, "rental_uris": {"ios": "https://dc.lft.to/lastmile_qr_scan", "android": "https://dc.lft.to/lastmile_qr_scan"}, "is_reserved": 0, "fusion_lon": 0.0, "fusion_lat": 0.0, "lon": -77.02671883333333, "name": "4368935475a1d37d2836da357744734b"}, {"bike_id": "3ef247d5a5088da15fe8fa90a46f414f", "type": "electric_scooter", "is_disabled": 0, "lat": 38.927953333333335, "rental_uris": {"ios": "https://dc.lft.to/lastmile_qr_scan", "android": "https://dc.lft.to/lastmile_qr_scan"}, "is_reserved": 0, "fusion_lon": 0.0, "fusion_lat": 0.0, "lon": -77.02390016666666, "name": "3ef247d5a5088da15fe8fa90a46f414f"}, {"bike_id": "cbc79d244864ac716d07523055696842", "type": "electric_bike", "is_disabled": 0, "lat": 38.80974066666667, "rental_uris": {"ios": "https://dc.lft.to/lastmile_qr_scan", "android": "https://dc.lft.to/lastmile_qr_scan"}, "is_reserved": 0, "fusion_lon": 0.0, "fusion_lat": 0.0, "lon": -77.08626633333333, "name": "cbc79d244864ac716d07523055696842"}, {"bike_id": "fa357620ae50e36d7d3865cf3438c071", "type": "electric_scooter", "is_disabled": 0, "lat": 38.92254766666667, "rental_uris": {"ios": "https://dc.lft.to/lastmile_qr_scan", "android": "https://dc.lft.to/lastmile_qr_scan"}, "is_reserved": 0, "fusion_lon": 0.0, "fusion_lat": 0.0, "lon": -77.019712, "name": "fa357620ae50e36d7d3865cf3438c071"}, {"bike_id": "221078fc4fac906e7f9094233d50f9e8", "type": "electric_scooter", "is_disabled": 0, "lat": 38.88160516666667, "rental_uris": {"ios": "https://dc.lft.to/lastmile_qr_scan", "android": "https://dc.lft.to/lastmile_qr_scan"}, "is_reserved": 0, "fusion_lon": 0.0, "fusion_lat": 0.0, "lon": -77.027643, "name": "221078fc4fac906e7f9094233d50f9e8"}, {"bike_id": "500a6c6bccf4b961224ed159f7bba2d2", "type": "electric_scooter", "is_disabled": 0, "lat": 38.8637535, "rental_uris": {"ios": "https://dc.lft.to/lastmile_qr_scan", "android": "https://dc.lft.to/lastmile_qr_scan"}, "is_reserved": 0, "fusion_lon": 0.0, "fusion_lat": 0.0, "lon": -76.99058433333333, "name": "500a6c6bccf4b961224ed159f7bba2d2"}, {"bike_id": "ea855bf628303a9f2c43ad1a0eebc289", "type": "electric_scooter", "is_disabled": 0, "lat": 38.928605, "rental_uris": {"ios": "https://dc.lft.to/lastmile_qr_scan", "android": "https://dc.lft.to/lastmile_qr_scan"}, "is_reserved": 0, "fusion_lon": 0.0, "fusion_lat": 0.0, "lon": -77.03713733333333, "name": "ea855bf628303a9f2c43ad1a0eebc289"}, {"bike_id": "3c33f4a1fb0db02de3ff51dd22117b6e", "type": "electric_scooter", "is_disabled": 0, "lat": 38.903071, "rental_uris": {"ios": "https://dc.lft.to/lastmile_qr_scan", "android": "https://dc.lft.to/lastmile_qr_scan"}, "is_reserved": 0, "fusion_lon": 0.0, "fusion_lat": 0.0, "lon": -76.9912925, "name": "3c33f4a1fb0db02de3ff51dd22117b6e"}, {"bike_id": "0be826a0db2342829bff0265419db942", "type": "electric_scooter", "is_disabled": 0, "lat": 38.91763616666667, "rental_uris": {"ios": "https://dc.lft.to/lastmile_qr_scan", "android": "https://dc.lft.to/lastmile_qr_scan"}, "is_reserved": 0, "fusion_lon": 0.0, "fusion_lat": 0.0, "lon": -77.04762466666666, "name": "0be826a0db2342829bff0265419db942"}, {"bike_id": "3e9ab5d555222d643e2c5ce5324116e6", "type": "electric_scooter", "is_disabled": 0, "lat": 38.900260333333335, "rental_uris": {"ios": "https://dc.lft.to/lastmile_qr_scan", "android": "https://dc.lft.to/lastmile_qr_scan"}, "is_reserved": 0, "fusion_lon": 0.0, "fusion_lat": 0.0, "lon": -77.0019225, "name": "3e9ab5d555222d643e2c5ce5324116e6"}, {"bike_id": "6d1b967c4ced161fe045de31f6b691ee", "type": "electric_scooter", "is_disabled": 0, "lat": 38.897048166666664, "rental_uris": {"ios": "https://dc.lft.to/lastmile_qr_scan", "android": "https://dc.lft.to/lastmile_qr_scan"}, "is_reserved": 0, "fusion_lon": 0.0, "fusion_lat": 0.0, "lon": -77.02288933333334, "name": "6d1b967c4ced161fe045de31f6b691ee"}, {"bike_id": "4eb4e499b334a0765f55bf072090aa9d", "type": "electric_scooter", "is_disabled": 0, "lat": 38.89912133333333, "rental_uris": {"ios": "https://dc.lft.to/lastmile_qr_scan", "android": "https://dc.lft.to/lastmile_qr_scan"}, "is_reserved": 0, "fusion_lon": 0.0, "fusion_lat": 0.0, "lon": -76.93365983333334, "name": "4eb4e499b334a0765f55bf072090aa9d"}, {"bike_id": "adc493f6978c49b86be2d63a94eb8edd", "type": "electric_scooter", "is_disabled": 0, "lat": 38.90813683333333, "rental_uris": {"ios": "https://dc.lft.to/lastmile_qr_scan", "android": "https://dc.lft.to/lastmile_qr_scan"}, "is_reserved": 0, "fusion_lon": 0.0, "fusion_lat": 0.0, "lon": -77.03660083333334, "name": "adc493f6978c49b86be2d63a94eb8edd"}, {"bike_id": "00315c1478fc4d290bf9d38e0a0bfab2", "type": "electric_scooter", "is_disabled": 0, "lat": 38.88278416666667, "rental_uris": {"ios": "https://dc.lft.to/lastmile_qr_scan", "android": "https://dc.lft.to/lastmile_qr_scan"}, "is_reserved": 0, "fusion_lon": 0.0, "fusion_lat": 0.0, "lon": -76.98775433333333, "name": "00315c1478fc4d290bf9d38e0a0bfab2"}, {"bike_id": "4e88f3fa402975880ea81f00dfe0b966", "type": "electric_bike", "is_disabled": 0, "lat": 38.9237585, "rental_uris": {"ios": "https://dc.lft.to/lastmile_qr_scan", "android": "https://dc.lft.to/lastmile_qr_scan"}, "is_reserved": 0, "fusion_lon": 0.0, "fusion_lat": 0.0, "lon": -77.002105, "name": "4e88f3fa402975880ea81f00dfe0b966"}, {"bike_id": "d81e1a58581df87e5c8c8f31948d0b4c", "type": "electric_scooter", "is_disabled": 0, "lat": 38.916807166666665, "rental_uris": {"ios": "https://dc.lft.to/lastmile_qr_scan", "android": "https://dc.lft.to/lastmile_qr_scan"}, "is_reserved": 0, "fusion_lon": 0.0, "fusion_lat": 0.0, "lon": -77.02976616666666, "name": "d81e1a58581df87e5c8c8f31948d0b4c"}, {"bike_id": "9519ed0caa3f41b7bd969f321b20fcd9", "type": "electric_scooter", "is_disabled": 0, "lat": 38.958516833333334, "rental_uris": {"ios": "https://dc.lft.to/lastmile_qr_scan", "android": "https://dc.lft.to/lastmile_qr_scan"}, "is_reserved": 0, "fusion_lon": 0.0, "fusion_lat": 0.0, "lon": -77.02791283333333, "name": "9519ed0caa3f41b7bd969f321b20fcd9"}, {"bike_id": "a30ffea0bd704864857f298d57fcb81c", "type": "electric_scooter", "is_disabled": 0, "lat": 38.9361175, "rental_uris": {"ios": "https://dc.lft.to/lastmile_qr_scan", "android": "https://dc.lft.to/lastmile_qr_scan"}, "is_reserved": 0, "fusion_lon": 0.0, "fusion_lat": 0.0, "lon": -77.055888, "name": "a30ffea0bd704864857f298d57fcb81c"}, {"bike_id": "a0cb6d060619b9ea2cc965c15ad92524", "type": "electric_scooter", "is_disabled": 0, "lat": 38.90800566666667, "rental_uris": {"ios": "https://dc.lft.to/lastmile_qr_scan", "android": "https://dc.lft.to/lastmile_qr_scan"}, "is_reserved": 0, "fusion_lon": 0.0, "fusion_lat": 0.0, "lon": -77.03064466666666, "name": "a0cb6d060619b9ea2cc965c15ad92524"}, {"bike_id": "78246713d129d78db03ec4ceb2a01a65", "type": "electric_scooter", "is_disabled": 0, "lat": 38.93083466666667, "rental_uris": {"ios": "https://dc.lft.to/lastmile_qr_scan", "android": "https://dc.lft.to/lastmile_qr_scan"}, "is_reserved": 0, "fusion_lon": 0.0, "fusion_lat": 0.0, "lon": -77.0373555, "name": "78246713d129d78db03ec4ceb2a01a65"}, {"bike_id": "ad5e86861c8568e5200f8ae0b997b50c", "type": "electric_scooter", "is_disabled": 0, "lat": 38.942568333333334, "rental_uris": {"ios": "https://dc.lft.to/lastmile_qr_scan", "android": "https://dc.lft.to/lastmile_qr_scan"}, "is_reserved": 0, "fusion_lon": 0.0, "fusion_lat": 0.0, "lon": -77.02527333333333, "name": "ad5e86861c8568e5200f8ae0b997b50c"}, {"bike_id": "6859fb5c3ec995a2a24f8a7c35b2c536", "type": "electric_scooter", "is_disabled": 0, "lat": 38.914903333333335, "rental_uris": {"ios": "https://dc.lft.to/lastmile_qr_scan", "android": "https://dc.lft.to/lastmile_qr_scan"}, "is_reserved": 0, "fusion_lon": 0.0, "fusion_lat": 0.0, "lon": -77.021853, "name": "6859fb5c3ec995a2a24f8a7c35b2c536"}, {"bike_id": "640a7328fae1f1a82888dbb489181a86", "type": "electric_scooter", "is_disabled": 0, "lat": 38.9280775, "rental_uris": {"ios": "https://dc.lft.to/lastmile_qr_scan", "android": "https://dc.lft.to/lastmile_qr_scan"}, "is_reserved": 0, "fusion_lon": 0.0, "fusion_lat": 0.0, "lon": -77.02809433333333, "name": "640a7328fae1f1a82888dbb489181a86"}, {"bike_id": "39aea33be32e7c585b5338e139d64be5", "type": "electric_scooter", "is_disabled": 0, "lat": 38.951762333333335, "rental_uris": {"ios": "https://dc.lft.to/lastmile_qr_scan", "android": "https://dc.lft.to/lastmile_qr_scan"}, "is_reserved": 0, "fusion_lon": 0.0, "fusion_lat": 0.0, "lon": -77.02611466666667, "name": "39aea33be32e7c585b5338e139d64be5"}, {"bike_id": "051393d05899e19ed8290630416de39f", "type": "electric_scooter", "is_disabled": 0, "lat": 38.95526066666667, "rental_uris": {"ios": "https://dc.lft.to/lastmile_qr_scan", "android": "https://dc.lft.to/lastmile_qr_scan"}, "is_reserved": 0, "fusion_lon": 0.0, "fusion_lat": 0.0, "lon": -77.02775833333334, "name": "051393d05899e19ed8290630416de39f"}, {"bike_id": "910fd473ea717c9246388363afbe1932", "type": "electric_scooter", "is_disabled": 0, "lat": 38.965523, "rental_uris": {"ios": "https://dc.lft.to/lastmile_qr_scan", "android": "https://dc.lft.to/lastmile_qr_scan"}, "is_reserved": 0, "fusion_lon": 0.0, "fusion_lat": 0.0, "lon": -77.03624366666666, "name": "910fd473ea717c9246388363afbe1932"}, {"bike_id": "f11f212717c0fcc047f31fde9da15b7d", "type": "electric_scooter", "is_disabled": 0, "lat": 38.90231766666667, "rental_uris": {"ios": "https://dc.lft.to/lastmile_qr_scan", "android": "https://dc.lft.to/lastmile_qr_scan"}, "is_reserved": 0, "fusion_lon": 0.0, "fusion_lat": 0.0, "lon": -77.04123683333333, "name": "f11f212717c0fcc047f31fde9da15b7d"}, {"bike_id": "a7e78f92a762fe9c1f78cb8c238b549c", "type": "electric_scooter", "is_disabled": 0, "lat": 38.9000725, "rental_uris": {"ios": "https://dc.lft.to/lastmile_qr_scan", "android": "https://dc.lft.to/lastmile_qr_scan"}, "is_reserved": 0, "fusion_lon": 0.0, "fusion_lat": 0.0, "lon": -76.985348, "name": "a7e78f92a762fe9c1f78cb8c238b549c"}, {"bike_id": "ba877ca78beaf05aa5d81e7ed4d4d540", "type": "electric_scooter", "is_disabled": 0, "lat": 38.9063635, "rental_uris": {"ios": "https://dc.lft.to/lastmile_qr_scan", "android": "https://dc.lft.to/lastmile_qr_scan"}, "is_reserved": 0, "fusion_lon": 0.0, "fusion_lat": 0.0, "lon": -77.029545, "name": "ba877ca78beaf05aa5d81e7ed4d4d540"}, {"bike_id": "fbfcda01a4fbeea8e8a39ed7da7d55ca", "type": "electric_scooter", "is_disabled": 0, "lat": 38.920401166666664, "rental_uris": {"ios": "https://dc.lft.to/lastmile_qr_scan", "android": "https://dc.lft.to/lastmile_qr_scan"}, "is_reserved": 0, "fusion_lon": 0.0, "fusion_lat": 0.0, "lon": -77.02424733333334, "name": "fbfcda01a4fbeea8e8a39ed7da7d55ca"}, {"bike_id": "80f65ce027a6c3edbb999e0e39ebeb07", "type": "electric_scooter", "is_disabled": 0, "lat": 38.9121015, "rental_uris": {"ios": "https://dc.lft.to/lastmile_qr_scan", "android": "https://dc.lft.to/lastmile_qr_scan"}, "is_reserved": 0, "fusion_lon": 0.0, "fusion_lat": 0.0, "lon": -77.03858, "name": "80f65ce027a6c3edbb999e0e39ebeb07"}, {"bike_id": "579250e85696df6f7766b6ff470496a3", "type": "electric_scooter", "is_disabled": 0, "lat": 38.907799, "rental_uris": {"ios": "https://dc.lft.to/lastmile_qr_scan", "android": "https://dc.lft.to/lastmile_qr_scan"}, "is_reserved": 0, "fusion_lon": 0.0, "fusion_lat": 0.0, "lon": -77.01080466666667, "name": "579250e85696df6f7766b6ff470496a3"}, {"bike_id": "6c47356e1cd5c8a7c1894f760416a8d5", "type": "electric_scooter", "is_disabled": 0, "lat": 38.917705, "rental_uris": {"ios": "https://dc.lft.to/lastmile_qr_scan", "android": "https://dc.lft.to/lastmile_qr_scan"}, "is_reserved": 0, "fusion_lon": 0.0, "fusion_lat": 0.0, "lon": -77.01503516666666, "name": "6c47356e1cd5c8a7c1894f760416a8d5"}, {"bike_id": "f6563395b33a772b3ee7455e5dc49892", "type": "electric_scooter", "is_disabled": 0, "lat": 38.906829, "rental_uris": {"ios": "https://dc.lft.to/lastmile_qr_scan", "android": "https://dc.lft.to/lastmile_qr_scan"}, "is_reserved": 0, "fusion_lon": 0.0, "fusion_lat": 0.0, "lon": -77.053268, "name": "f6563395b33a772b3ee7455e5dc49892"}, {"bike_id": "d26389c80471fa7a0a12de85bbe8cbfa", "type": "electric_scooter", "is_disabled": 0, "lat": 38.922175333333335, "rental_uris": {"ios": "https://dc.lft.to/lastmile_qr_scan", "android": "https://dc.lft.to/lastmile_qr_scan"}, "is_reserved": 0, "fusion_lon": 0.0, "fusion_lat": 0.0, "lon": -77.02212633333333, "name": "d26389c80471fa7a0a12de85bbe8cbfa"}, {"bike_id": "21d7b5c82703161a65ccf3d3ee693d80", "type": "electric_scooter", "is_disabled": 0, "lat": 38.902299166666666, "rental_uris": {"ios": "https://dc.lft.to/lastmile_qr_scan", "android": "https://dc.lft.to/lastmile_qr_scan"}, "is_reserved": 0, "fusion_lon": 0.0, "fusion_lat": 0.0, "lon": -77.04335816666666, "name": "21d7b5c82703161a65ccf3d3ee693d80"}, {"bike_id": "60b9472a6cc4280fbf3e1ac479a50b8d", "type": "electric_scooter", "is_disabled": 0, "lat": 38.92687383333333, "rental_uris": {"ios": "https://dc.lft.to/lastmile_qr_scan", "android": "https://dc.lft.to/lastmile_qr_scan"}, "is_reserved": 0, "fusion_lon": 0.0, "fusion_lat": 0.0, "lon": -77.0732835, "name": "60b9472a6cc4280fbf3e1ac479a50b8d"}, {"bike_id": "6ee6bc73cbd86ab06c1a7b5607f1c152", "type": "electric_bike", "is_disabled": 0, "lat": 38.80904566666667, "rental_uris": {"ios": "https://dc.lft.to/lastmile_qr_scan", "android": "https://dc.lft.to/lastmile_qr_scan"}, "is_reserved": 0, "fusion_lon": 0.0, "fusion_lat": 0.0, "lon": -77.08663216666666, "name": "6ee6bc73cbd86ab06c1a7b5607f1c152"}, {"bike_id": "649a02e840521a0f77a8b0dbfea9e348", "type": "electric_scooter", "is_disabled": 0, "lat": 38.89238483333333, "rental_uris": {"ios": "https://dc.lft.to/lastmile_qr_scan", "android": "https://dc.lft.to/lastmile_qr_scan"}, "is_reserved": 0, "fusion_lon": 0.0, "fusion_lat": 0.0, "lon": -76.95327683333333, "name": "649a02e840521a0f77a8b0dbfea9e348"}, {"bike_id": "4e9d5cb048b92b1f417f48cbeb10cee7", "type": "electric_scooter", "is_disabled": 0, "lat": 38.93371783333333, "rental_uris": {"ios": "https://dc.lft.to/lastmile_qr_scan", "android": "https://dc.lft.to/lastmile_qr_scan"}, "is_reserved": 0, "fusion_lon": 0.0, "fusion_lat": 0.0, "lon": -77.0572745, "name": "4e9d5cb048b92b1f417f48cbeb10cee7"}, {"bike_id": "afbe1bfe4a74b5b946b9126cc46d3134", "type": "electric_scooter", "is_disabled": 0, "lat": 38.88530016666667, "rental_uris": {"ios": "https://dc.lft.to/lastmile_qr_scan", "android": "https://dc.lft.to/lastmile_qr_scan"}, "is_reserved": 0, "fusion_lon": 0.0, "fusion_lat": 0.0, "lon": -76.99826966666667, "name": "afbe1bfe4a74b5b946b9126cc46d3134"}, {"bike_id": "ddc85ba5d6c30bf6ce9c93005552c471", "type": "electric_scooter", "is_disabled": 0, "lat": 38.909708, "rental_uris": {"ios": "https://dc.lft.to/lastmile_qr_scan", "android": "https://dc.lft.to/lastmile_qr_scan"}, "is_reserved": 0, "fusion_lon": 0.0, "fusion_lat": 0.0, "lon": -77.03342033333334, "name": "ddc85ba5d6c30bf6ce9c93005552c471"}, {"bike_id": "ba9ade43ceda5313fd46714f5380ea2f", "type": "electric_scooter", "is_disabled": 0, "lat": 38.9115365, "rental_uris": {"ios": "https://dc.lft.to/lastmile_qr_scan", "android": "https://dc.lft.to/lastmile_qr_scan"}, "is_reserved": 0, "fusion_lon": 0.0, "fusion_lat": 0.0, "lon": -77.02957133333334, "name": "ba9ade43ceda5313fd46714f5380ea2f"}, {"bike_id": "4315e1bfb427fa3408d2157e7cc2a371", "type": "electric_scooter", "is_disabled": 0, "lat": 38.90409016666667, "rental_uris": {"ios": "https://dc.lft.to/lastmile_qr_scan", "android": "https://dc.lft.to/lastmile_qr_scan"}, "is_reserved": 0, "fusion_lon": 0.0, "fusion_lat": 0.0, "lon": -76.9733235, "name": "4315e1bfb427fa3408d2157e7cc2a371"}, {"bike_id": "cbd2aaf82a3e5acec71cccca0edc4f10", "type": "electric_scooter", "is_disabled": 0, "lat": 38.90379716666666, "rental_uris": {"ios": "https://dc.lft.to/lastmile_qr_scan", "android": "https://dc.lft.to/lastmile_qr_scan"}, "is_reserved": 0, "fusion_lon": 0.0, "fusion_lat": 0.0, "lon": -77.00755066666666, "name": "cbd2aaf82a3e5acec71cccca0edc4f10"}, {"bike_id": "e9eb53e581bb9e9e1a4846b802194fb5", "type": "electric_scooter", "is_disabled": 0, "lat": 38.9308355, "rental_uris": {"ios": "https://dc.lft.to/lastmile_qr_scan", "android": "https://dc.lft.to/lastmile_qr_scan"}, "is_reserved": 0, "fusion_lon": 0.0, "fusion_lat": 0.0, "lon": -77.03656083333334, "name": "e9eb53e581bb9e9e1a4846b802194fb5"}, {"bike_id": "0182c0ef059da4f0a8635b86f6a145d4", "type": "electric_scooter", "is_disabled": 0, "lat": 38.921194, "rental_uris": {"ios": "https://dc.lft.to/lastmile_qr_scan", "android": "https://dc.lft.to/lastmile_qr_scan"}, "is_reserved": 0, "fusion_lon": 0.0, "fusion_lat": 0.0, "lon": -77.01209216666666, "name": "0182c0ef059da4f0a8635b86f6a145d4"}, {"bike_id": "1acd00b359ed25cb560da5f094994577", "type": "electric_scooter", "is_disabled": 0, "lat": 38.877507333333334, "rental_uris": {"ios": "https://dc.lft.to/lastmile_qr_scan", "android": "https://dc.lft.to/lastmile_qr_scan"}, "is_reserved": 0, "fusion_lon": 0.0, "fusion_lat": 0.0, "lon": -76.9868045, "name": "1acd00b359ed25cb560da5f094994577"}, {"bike_id": "f1ed04e22a71db8b6c33b7a41f5c12d3", "type": "electric_scooter", "is_disabled": 0, "lat": 38.915650166666666, "rental_uris": {"ios": "https://dc.lft.to/lastmile_qr_scan", "android": "https://dc.lft.to/lastmile_qr_scan"}, "is_reserved": 0, "fusion_lon": 0.0, "fusion_lat": 0.0, "lon": -77.00976566666667, "name": "f1ed04e22a71db8b6c33b7a41f5c12d3"}, {"bike_id": "05af822984f3fcd00ce19d6fd5db9113", "type": "electric_scooter", "is_disabled": 0, "lat": 38.91675466666667, "rental_uris": {"ios": "https://dc.lft.to/lastmile_qr_scan", "android": "https://dc.lft.to/lastmile_qr_scan"}, "is_reserved": 0, "fusion_lon": 0.0, "fusion_lat": 0.0, "lon": -77.03689016666667, "name": "05af822984f3fcd00ce19d6fd5db9113"}, {"bike_id": "764df05d976c61f6580a5406b0b67107", "type": "electric_bike", "is_disabled": 0, "lat": 39.050546833333335, "rental_uris": {"ios": "https://dc.lft.to/lastmile_qr_scan", "android": "https://dc.lft.to/lastmile_qr_scan"}, "is_reserved": 0, "fusion_lon": 0.0, "fusion_lat": 0.0, "lon": -77.0514345, "name": "764df05d976c61f6580a5406b0b67107"}, {"bike_id": "a7e4e93eb57fb99d731aa97aafe521c2", "type": "electric_scooter", "is_disabled": 0, "lat": 38.902589166666665, "rental_uris": {"ios": "https://dc.lft.to/lastmile_qr_scan", "android": "https://dc.lft.to/lastmile_qr_scan"}, "is_reserved": 0, "fusion_lon": 0.0, "fusion_lat": 0.0, "lon": -77.01771433333333, "name": "a7e4e93eb57fb99d731aa97aafe521c2"}, {"bike_id": "3df5fcab2c94e982757f5fe060820497", "type": "electric_scooter", "is_disabled": 0, "lat": 38.90565616666667, "rental_uris": {"ios": "https://dc.lft.to/lastmile_qr_scan", "android": "https://dc.lft.to/lastmile_qr_scan"}, "is_reserved": 0, "fusion_lon": 0.0, "fusion_lat": 0.0, "lon": -76.97785633333334, "name": "3df5fcab2c94e982757f5fe060820497"}, {"bike_id": "7911359638952517677fa82d5bb25d3a", "type": "electric_scooter", "is_disabled": 0, "lat": 38.916003, "rental_uris": {"ios": "https://dc.lft.to/lastmile_qr_scan", "android": "https://dc.lft.to/lastmile_qr_scan"}, "is_reserved": 0, "fusion_lon": 0.0, "fusion_lat": 0.0, "lon": -77.02405983333334, "name": "7911359638952517677fa82d5bb25d3a"}, {"bike_id": "e1d6a4125363e5b45ef641f4f08f9487", "type": "electric_scooter", "is_disabled": 0, "lat": 38.93989716666667, "rental_uris": {"ios": "https://dc.lft.to/lastmile_qr_scan", "android": "https://dc.lft.to/lastmile_qr_scan"}, "is_reserved": 0, "fusion_lon": 0.0, "fusion_lat": 0.0, "lon": -77.0169675, "name": "e1d6a4125363e5b45ef641f4f08f9487"}, {"bike_id": "f75ff3d4eec22b897b3606a5a53e6053", "type": "electric_bike", "is_disabled": 0, "lat": 38.832418833333335, "rental_uris": {"ios": "https://dc.lft.to/lastmile_qr_scan", "android": "https://dc.lft.to/lastmile_qr_scan"}, "is_reserved": 0, "fusion_lon": 0.0, "fusion_lat": 0.0, "lon": -76.946338, "name": "f75ff3d4eec22b897b3606a5a53e6053"}, {"bike_id": "3ed6c9d084ed1f7c56667984bf37a377", "type": "electric_scooter", "is_disabled": 0, "lat": 38.91097, "rental_uris": {"ios": "https://dc.lft.to/lastmile_qr_scan", "android": "https://dc.lft.to/lastmile_qr_scan"}, "is_reserved": 0, "fusion_lon": 0.0, "fusion_lat": 0.0, "lon": -77.03248566666667, "name": "3ed6c9d084ed1f7c56667984bf37a377"}, {"bike_id": "7e1d625e2d0a574a7b4ec50b9ababc28", "type": "electric_scooter", "is_disabled": 0, "lat": 38.895668666666666, "rental_uris": {"ios": "https://dc.lft.to/lastmile_qr_scan", "android": "https://dc.lft.to/lastmile_qr_scan"}, "is_reserved": 0, "fusion_lon": 0.0, "fusion_lat": 0.0, "lon": -76.9302555, "name": "7e1d625e2d0a574a7b4ec50b9ababc28"}, {"bike_id": "501d561b8e49f8194ae2c440750d3fd1", "type": "electric_bike", "is_disabled": 0, "lat": 38.8535465, "rental_uris": {"ios": "https://dc.lft.to/lastmile_qr_scan", "android": "https://dc.lft.to/lastmile_qr_scan"}, "is_reserved": 0, "fusion_lon": 0.0, "fusion_lat": 0.0, "lon": -77.0868755, "name": "501d561b8e49f8194ae2c440750d3fd1"}, {"bike_id": "92b1b3455ab8cd17e4481c93a65eee1f", "type": "electric_bike", "is_disabled": 0, "lat": 38.8730205, "rental_uris": {"ios": "https://dc.lft.to/lastmile_qr_scan", "android": "https://dc.lft.to/lastmile_qr_scan"}, "is_reserved": 0, "fusion_lon": 0.0, "fusion_lat": 0.0, "lon": -77.01091266666667, "name": "92b1b3455ab8cd17e4481c93a65eee1f"}, {"bike_id": "b2052915c215015cbd1886818e1b594d", "type": "electric_scooter", "is_disabled": 0, "lat": 38.91474566666667, "rental_uris": {"ios": "https://dc.lft.to/lastmile_qr_scan", "android": "https://dc.lft.to/lastmile_qr_scan"}, "is_reserved": 0, "fusion_lon": 0.0, "fusion_lat": 0.0, "lon": -77.00284966666666, "name": "b2052915c215015cbd1886818e1b594d"}, {"bike_id": "4cad771a5145c91ec88c5be305606af7", "type": "electric_scooter", "is_disabled": 0, "lat": 38.89867816666667, "rental_uris": {"ios": "https://dc.lft.to/lastmile_qr_scan", "android": "https://dc.lft.to/lastmile_qr_scan"}, "is_reserved": 0, "fusion_lon": 0.0, "fusion_lat": 0.0, "lon": -76.94662533333333, "name": "4cad771a5145c91ec88c5be305606af7"}, {"bike_id": "77dbf1b0a440a35f63a583d06d875aa0", "type": "electric_scooter", "is_disabled": 0, "lat": 38.86500516666667, "rental_uris": {"ios": "https://dc.lft.to/lastmile_qr_scan", "android": "https://dc.lft.to/lastmile_qr_scan"}, "is_reserved": 0, "fusion_lon": 0.0, "fusion_lat": 0.0, "lon": -76.99001033333333, "name": "77dbf1b0a440a35f63a583d06d875aa0"}, {"bike_id": "b66253f04966b3296824a77b18b81756", "type": "electric_scooter", "is_disabled": 0, "lat": 38.91713883333333, "rental_uris": {"ios": "https://dc.lft.to/lastmile_qr_scan", "android": "https://dc.lft.to/lastmile_qr_scan"}, "is_reserved": 0, "fusion_lon": 0.0, "fusion_lat": 0.0, "lon": -77.0260575, "name": "b66253f04966b3296824a77b18b81756"}, {"bike_id": "088406f80999f7b1a21421d185520170", "type": "electric_scooter", "is_disabled": 0, "lat": 38.91551283333333, "rental_uris": {"ios": "https://dc.lft.to/lastmile_qr_scan", "android": "https://dc.lft.to/lastmile_qr_scan"}, "is_reserved": 0, "fusion_lon": 0.0, "fusion_lat": 0.0, "lon": -77.0256715, "name": "088406f80999f7b1a21421d185520170"}, {"bike_id": "4e855d1f32d9a6cc99e48ce42f18d27d", "type": "electric_scooter", "is_disabled": 0, "lat": 38.92016133333333, "rental_uris": {"ios": "https://dc.lft.to/lastmile_qr_scan", "android": "https://dc.lft.to/lastmile_qr_scan"}, "is_reserved": 0, "fusion_lon": 0.0, "fusion_lat": 0.0, "lon": -77.01288083333333, "name": "4e855d1f32d9a6cc99e48ce42f18d27d"}, {"bike_id": "44e0d384a1fd49328753f151a54f30e0", "type": "electric_scooter", "is_disabled": 0, "lat": 38.88078216666667, "rental_uris": {"ios": "https://dc.lft.to/lastmile_qr_scan", "android": "https://dc.lft.to/lastmile_qr_scan"}, "is_reserved": 0, "fusion_lon": 0.0, "fusion_lat": 0.0, "lon": -76.99511483333333, "name": "44e0d384a1fd49328753f151a54f30e0"}, {"bike_id": "7a29e26a4ca6ee2f21f0ea47f6c0e681", "type": "electric_scooter", "is_disabled": 0, "lat": 38.939946666666664, "rental_uris": {"ios": "https://dc.lft.to/lastmile_qr_scan", "android": "https://dc.lft.to/lastmile_qr_scan"}, "is_reserved": 0, "fusion_lon": 0.0, "fusion_lat": 0.0, "lon": -77.0169135, "name": "7a29e26a4ca6ee2f21f0ea47f6c0e681"}, {"bike_id": "d2f39c3374ab5c0bc366093fd3189f8e", "type": "electric_scooter", "is_disabled": 0, "lat": 38.917811, "rental_uris": {"ios": "https://dc.lft.to/lastmile_qr_scan", "android": "https://dc.lft.to/lastmile_qr_scan"}, "is_reserved": 0, "fusion_lon": 0.0, "fusion_lat": 0.0, "lon": -77.03639716666666, "name": "d2f39c3374ab5c0bc366093fd3189f8e"}, {"bike_id": "2278f2715391961185939348570d59d6", "type": "electric_scooter", "is_disabled": 0, "lat": 38.889949666666666, "rental_uris": {"ios": "https://dc.lft.to/lastmile_qr_scan", "android": "https://dc.lft.to/lastmile_qr_scan"}, "is_reserved": 0, "fusion_lon": 0.0, "fusion_lat": 0.0, "lon": -77.04901766666667, "name": "2278f2715391961185939348570d59d6"}, {"bike_id": "557cda6f7d163447b07c6bec73ef4800", "type": "electric_scooter", "is_disabled": 0, "lat": 38.94899783333334, "rental_uris": {"ios": "https://dc.lft.to/lastmile_qr_scan", "android": "https://dc.lft.to/lastmile_qr_scan"}, "is_reserved": 0, "fusion_lon": 0.0, "fusion_lat": 0.0, "lon": -77.020726, "name": "557cda6f7d163447b07c6bec73ef4800"}, {"bike_id": "44c3d3af9664053f8aae4b5cc948ebd1", "type": "electric_scooter", "is_disabled": 0, "lat": 38.92233566666667, "rental_uris": {"ios": "https://dc.lft.to/lastmile_qr_scan", "android": "https://dc.lft.to/lastmile_qr_scan"}, "is_reserved": 0, "fusion_lon": 0.0, "fusion_lat": 0.0, "lon": -77.0351515, "name": "44c3d3af9664053f8aae4b5cc948ebd1"}, {"bike_id": "ece37899d0ff1398b9e60b9533ed5967", "type": "electric_scooter", "is_disabled": 0, "lat": 38.84427766666667, "rental_uris": {"ios": "https://dc.lft.to/lastmile_qr_scan", "android": "https://dc.lft.to/lastmile_qr_scan"}, "is_reserved": 0, "fusion_lon": 0.0, "fusion_lat": 0.0, "lon": -76.99867266666666, "name": "ece37899d0ff1398b9e60b9533ed5967"}, {"bike_id": "3d37eda768607ace2e0a453572c09acd", "type": "electric_scooter", "is_disabled": 0, "lat": 38.91552083333333, "rental_uris": {"ios": "https://dc.lft.to/lastmile_qr_scan", "android": "https://dc.lft.to/lastmile_qr_scan"}, "is_reserved": 0, "fusion_lon": 0.0, "fusion_lat": 0.0, "lon": -77.0264545, "name": "3d37eda768607ace2e0a453572c09acd"}, {"bike_id": "6d6ba0b5a1a6be22587f7089bc5413d6", "type": "electric_scooter", "is_disabled": 0, "lat": 38.91265816666667, "rental_uris": {"ios": "https://dc.lft.to/lastmile_qr_scan", "android": "https://dc.lft.to/lastmile_qr_scan"}, "is_reserved": 0, "fusion_lon": 0.0, "fusion_lat": 0.0, "lon": -77.0302305, "name": "6d6ba0b5a1a6be22587f7089bc5413d6"}, {"bike_id": "23509c783b214f075b3972b5c8375b46", "type": "electric_scooter", "is_disabled": 0, "lat": 38.90057, "rental_uris": {"ios": "https://dc.lft.to/lastmile_qr_scan", "android": "https://dc.lft.to/lastmile_qr_scan"}, "is_reserved": 0, "fusion_lon": 0.0, "fusion_lat": 0.0, "lon": -77.03099916666666, "name": "23509c783b214f075b3972b5c8375b46"}, {"bike_id": "afa74e2d1c5aa2e0c0c01608a6d67279", "type": "electric_scooter", "is_disabled": 0, "lat": 38.9025735, "rental_uris": {"ios": "https://dc.lft.to/lastmile_qr_scan", "android": "https://dc.lft.to/lastmile_qr_scan"}, "is_reserved": 0, "fusion_lon": 0.0, "fusion_lat": 0.0, "lon": -77.018404, "name": "afa74e2d1c5aa2e0c0c01608a6d67279"}, {"bike_id": "201be24e1b98e935867fa2e626fb959c", "type": "electric_scooter", "is_disabled": 0, "lat": 38.920575666666664, "rental_uris": {"ios": "https://dc.lft.to/lastmile_qr_scan", "android": "https://dc.lft.to/lastmile_qr_scan"}, "is_reserved": 0, "fusion_lon": 0.0, "fusion_lat": 0.0, "lon": -77.0340445, "name": "201be24e1b98e935867fa2e626fb959c"}, {"bike_id": "62f158e5d75898b9c02afefd87c70cb8", "type": "electric_scooter", "is_disabled": 0, "lat": 38.8985425, "rental_uris": {"ios": "https://dc.lft.to/lastmile_qr_scan", "android": "https://dc.lft.to/lastmile_qr_scan"}, "is_reserved": 0, "fusion_lon": 0.0, "fusion_lat": 0.0, "lon": -77.02215933333333, "name": "62f158e5d75898b9c02afefd87c70cb8"}, {"bike_id": "dbbfb09043ca1aa23fb82d44a5d7e6e8", "type": "electric_scooter", "is_disabled": 0, "lat": 38.92366466666667, "rental_uris": {"ios": "https://dc.lft.to/lastmile_qr_scan", "android": "https://dc.lft.to/lastmile_qr_scan"}, "is_reserved": 0, "fusion_lon": 0.0, "fusion_lat": 0.0, "lon": -77.05030433333333, "name": "dbbfb09043ca1aa23fb82d44a5d7e6e8"}, {"bike_id": "a8b96f114188e1263d8f5ced87fd3697", "type": "electric_scooter", "is_disabled": 0, "lat": 38.89742616666667, "rental_uris": {"ios": "https://dc.lft.to/lastmile_qr_scan", "android": "https://dc.lft.to/lastmile_qr_scan"}, "is_reserved": 0, "fusion_lon": 0.0, "fusion_lat": 0.0, "lon": -77.02495716666667, "name": "a8b96f114188e1263d8f5ced87fd3697"}, {"bike_id": "1b536862a4505583c48db999b49a43a3", "type": "electric_scooter", "is_disabled": 0, "lat": 38.909612, "rental_uris": {"ios": "https://dc.lft.to/lastmile_qr_scan", "android": "https://dc.lft.to/lastmile_qr_scan"}, "is_reserved": 0, "fusion_lon": 0.0, "fusion_lat": 0.0, "lon": -77.0454485, "name": "1b536862a4505583c48db999b49a43a3"}, {"bike_id": "c24c7ce7e45b7fc0bf5c7815cb694dfb", "type": "electric_scooter", "is_disabled": 0, "lat": 38.946196, "rental_uris": {"ios": "https://dc.lft.to/lastmile_qr_scan", "android": "https://dc.lft.to/lastmile_qr_scan"}, "is_reserved": 0, "fusion_lon": 0.0, "fusion_lat": 0.0, "lon": -77.07233716666667, "name": "c24c7ce7e45b7fc0bf5c7815cb694dfb"}, {"bike_id": "3bdcfa4fe3a579e678d08b6a5f38f98b", "type": "electric_scooter", "is_disabled": 0, "lat": 38.91141283333333, "rental_uris": {"ios": "https://dc.lft.to/lastmile_qr_scan", "android": "https://dc.lft.to/lastmile_qr_scan"}, "is_reserved": 0, "fusion_lon": 0.0, "fusion_lat": 0.0, "lon": -77.02956183333333, "name": "3bdcfa4fe3a579e678d08b6a5f38f98b"}, {"bike_id": "ec132e8b8d153cf8cb1cd049f9343660", "type": "electric_bike", "is_disabled": 0, "lat": 38.83157283333333, "rental_uris": {"ios": "https://dc.lft.to/lastmile_qr_scan", "android": "https://dc.lft.to/lastmile_qr_scan"}, "is_reserved": 0, "fusion_lon": 0.0, "fusion_lat": 0.0, "lon": -76.99544266666666, "name": "ec132e8b8d153cf8cb1cd049f9343660"}, {"bike_id": "ed86043376b46c47488d56b77a291b28", "type": "electric_scooter", "is_disabled": 0, "lat": 38.913402, "rental_uris": {"ios": "https://dc.lft.to/lastmile_qr_scan", "android": "https://dc.lft.to/lastmile_qr_scan"}, "is_reserved": 0, "fusion_lon": 0.0, "fusion_lat": 0.0, "lon": -77.00894916666667, "name": "ed86043376b46c47488d56b77a291b28"}, {"bike_id": "1ba8d5b100d81859bb64ef203b488bda", "type": "electric_scooter", "is_disabled": 0, "lat": 38.897172833333336, "rental_uris": {"ios": "https://dc.lft.to/lastmile_qr_scan", "android": "https://dc.lft.to/lastmile_qr_scan"}, "is_reserved": 0, "fusion_lon": 0.0, "fusion_lat": 0.0, "lon": -77.02430683333333, "name": "1ba8d5b100d81859bb64ef203b488bda"}, {"bike_id": "f9f0f7a4863b92cdd3d5ab2455731bae", "type": "electric_scooter", "is_disabled": 0, "lat": 38.918209166666664, "rental_uris": {"ios": "https://dc.lft.to/lastmile_qr_scan", "android": "https://dc.lft.to/lastmile_qr_scan"}, "is_reserved": 0, "fusion_lon": 0.0, "fusion_lat": 0.0, "lon": -77.04939133333333, "name": "f9f0f7a4863b92cdd3d5ab2455731bae"}, {"bike_id": "a25ea5b12ae8da59e67ac0b7b0eeaf79", "type": "electric_scooter", "is_disabled": 0, "lat": 38.924419, "rental_uris": {"ios": "https://dc.lft.to/lastmile_qr_scan", "android": "https://dc.lft.to/lastmile_qr_scan"}, "is_reserved": 0, "fusion_lon": 0.0, "fusion_lat": 0.0, "lon": -77.042026, "name": "a25ea5b12ae8da59e67ac0b7b0eeaf79"}, {"bike_id": "b05b1f47b84e18a141c6a58e8724d1ec", "type": "electric_scooter", "is_disabled": 0, "lat": 38.92221133333334, "rental_uris": {"ios": "https://dc.lft.to/lastmile_qr_scan", "android": "https://dc.lft.to/lastmile_qr_scan"}, "is_reserved": 0, "fusion_lon": 0.0, "fusion_lat": 0.0, "lon": -77.0329645, "name": "b05b1f47b84e18a141c6a58e8724d1ec"}, {"bike_id": "685af915e095947417f5273e35cb68f1", "type": "electric_scooter", "is_disabled": 0, "lat": 38.915619666666665, "rental_uris": {"ios": "https://dc.lft.to/lastmile_qr_scan", "android": "https://dc.lft.to/lastmile_qr_scan"}, "is_reserved": 0, "fusion_lon": 0.0, "fusion_lat": 0.0, "lon": -77.0446095, "name": "685af915e095947417f5273e35cb68f1"}, {"bike_id": "ba35a3af26d82c22dfa9d398c589d9d9", "type": "electric_scooter", "is_disabled": 0, "lat": 38.9172175, "rental_uris": {"ios": "https://dc.lft.to/lastmile_qr_scan", "android": "https://dc.lft.to/lastmile_qr_scan"}, "is_reserved": 0, "fusion_lon": 0.0, "fusion_lat": 0.0, "lon": -77.03658166666666, "name": "ba35a3af26d82c22dfa9d398c589d9d9"}, {"bike_id": "c85102777e32af6b71ac3b78be7fd0b9", "type": "electric_bike", "is_disabled": 0, "lat": 38.897387333333334, "rental_uris": {"ios": "https://dc.lft.to/lastmile_qr_scan", "android": "https://dc.lft.to/lastmile_qr_scan"}, "is_reserved": 0, "fusion_lon": 0.0, "fusion_lat": 0.0, "lon": -76.9204665, "name": "c85102777e32af6b71ac3b78be7fd0b9"}, {"bike_id": "a426db0ff72f99e610aba5f1d441d275", "type": "electric_scooter", "is_disabled": 0, "lat": 38.92785883333333, "rental_uris": {"ios": "https://dc.lft.to/lastmile_qr_scan", "android": "https://dc.lft.to/lastmile_qr_scan"}, "is_reserved": 0, "fusion_lon": 0.0, "fusion_lat": 0.0, "lon": -77.0431875, "name": "a426db0ff72f99e610aba5f1d441d275"}, {"bike_id": "a3e856c9a3ac6c30a6b12a8b63e95622", "type": "electric_scooter", "is_disabled": 0, "lat": 38.921866, "rental_uris": {"ios": "https://dc.lft.to/lastmile_qr_scan", "android": "https://dc.lft.to/lastmile_qr_scan"}, "is_reserved": 0, "fusion_lon": 0.0, "fusion_lat": 0.0, "lon": -77.019703, "name": "a3e856c9a3ac6c30a6b12a8b63e95622"}, {"bike_id": "dee0c0732198be0476df23f90c920427", "type": "electric_scooter", "is_disabled": 0, "lat": 38.904849, "rental_uris": {"ios": "https://dc.lft.to/lastmile_qr_scan", "android": "https://dc.lft.to/lastmile_qr_scan"}, "is_reserved": 0, "fusion_lon": 0.0, "fusion_lat": 0.0, "lon": -77.02716816666667, "name": "dee0c0732198be0476df23f90c920427"}, {"bike_id": "8cb47a87c973bf722917f9f1fec5810a", "type": "electric_scooter", "is_disabled": 0, "lat": 38.964171666666665, "rental_uris": {"ios": "https://dc.lft.to/lastmile_qr_scan", "android": "https://dc.lft.to/lastmile_qr_scan"}, "is_reserved": 0, "fusion_lon": 0.0, "fusion_lat": 0.0, "lon": -77.02423733333333, "name": "8cb47a87c973bf722917f9f1fec5810a"}, {"bike_id": "a8ee87a2f491086cb6d6fe886cded361", "type": "electric_scooter", "is_disabled": 0, "lat": 38.898416833333336, "rental_uris": {"ios": "https://dc.lft.to/lastmile_qr_scan", "android": "https://dc.lft.to/lastmile_qr_scan"}, "is_reserved": 0, "fusion_lon": 0.0, "fusion_lat": 0.0, "lon": -77.04658066666667, "name": "a8ee87a2f491086cb6d6fe886cded361"}, {"bike_id": "2247d94da2062b8b74e727f42ad8b9df", "type": "electric_scooter", "is_disabled": 0, "lat": 38.92722166666667, "rental_uris": {"ios": "https://dc.lft.to/lastmile_qr_scan", "android": "https://dc.lft.to/lastmile_qr_scan"}, "is_reserved": 0, "fusion_lon": 0.0, "fusion_lat": 0.0, "lon": -77.02093833333333, "name": "2247d94da2062b8b74e727f42ad8b9df"}, {"bike_id": "5be46fad61afc9c06e1f834b5692a516", "type": "electric_scooter", "is_disabled": 0, "lat": 38.907012333333334, "rental_uris": {"ios": "https://dc.lft.to/lastmile_qr_scan", "android": "https://dc.lft.to/lastmile_qr_scan"}, "is_reserved": 0, "fusion_lon": 0.0, "fusion_lat": 0.0, "lon": -76.987295, "name": "5be46fad61afc9c06e1f834b5692a516"}, {"bike_id": "29a4e5d204c9fb74bdf9a4b96dd7eff2", "type": "electric_scooter", "is_disabled": 0, "lat": 38.92363616666667, "rental_uris": {"ios": "https://dc.lft.to/lastmile_qr_scan", "android": "https://dc.lft.to/lastmile_qr_scan"}, "is_reserved": 0, "fusion_lon": 0.0, "fusion_lat": 0.0, "lon": -77.07640983333333, "name": "29a4e5d204c9fb74bdf9a4b96dd7eff2"}, {"bike_id": "250069794866a07640ec5804e7eae8dd", "type": "electric_scooter", "is_disabled": 0, "lat": 38.91976983333333, "rental_uris": {"ios": "https://dc.lft.to/lastmile_qr_scan", "android": "https://dc.lft.to/lastmile_qr_scan"}, "is_reserved": 0, "fusion_lon": 0.0, "fusion_lat": 0.0, "lon": -77.03968166666667, "name": "250069794866a07640ec5804e7eae8dd"}, {"bike_id": "0e81ebcce4bdec79d28a4e86d22969c5", "type": "electric_scooter", "is_disabled": 0, "lat": 38.9219545, "rental_uris": {"ios": "https://dc.lft.to/lastmile_qr_scan", "android": "https://dc.lft.to/lastmile_qr_scan"}, "is_reserved": 0, "fusion_lon": 0.0, "fusion_lat": 0.0, "lon": -77.04698066666667, "name": "0e81ebcce4bdec79d28a4e86d22969c5"}, {"bike_id": "54f4bf834fc11bf737585814d1a29bb4", "type": "electric_bike", "is_disabled": 0, "lat": 38.911865666666664, "rental_uris": {"ios": "https://dc.lft.to/lastmile_qr_scan", "android": "https://dc.lft.to/lastmile_qr_scan"}, "is_reserved": 0, "fusion_lon": 0.0, "fusion_lat": 0.0, "lon": -77.05938, "name": "54f4bf834fc11bf737585814d1a29bb4"}, {"bike_id": "419cf97c3f473b2e194588052eaa0f00", "type": "electric_scooter", "is_disabled": 0, "lat": 38.854605166666666, "rental_uris": {"ios": "https://dc.lft.to/lastmile_qr_scan", "android": "https://dc.lft.to/lastmile_qr_scan"}, "is_reserved": 0, "fusion_lon": 0.0, "fusion_lat": 0.0, "lon": -76.97244716666667, "name": "419cf97c3f473b2e194588052eaa0f00"}, {"bike_id": "44eb166c22ab3b766d75205afd163eed", "type": "electric_scooter", "is_disabled": 0, "lat": 38.9205395, "rental_uris": {"ios": "https://dc.lft.to/lastmile_qr_scan", "android": "https://dc.lft.to/lastmile_qr_scan"}, "is_reserved": 0, "fusion_lon": 0.0, "fusion_lat": 0.0, "lon": -76.99883583333333, "name": "44eb166c22ab3b766d75205afd163eed"}, {"bike_id": "fa3ef61e84b1a97c5ef859715ec0fd6b", "type": "electric_bike", "is_disabled": 0, "lat": 38.969561666666664, "rental_uris": {"ios": "https://dc.lft.to/lastmile_qr_scan", "android": "https://dc.lft.to/lastmile_qr_scan"}, "is_reserved": 0, "fusion_lon": 0.0, "fusion_lat": 0.0, "lon": -76.95749683333334, "name": "fa3ef61e84b1a97c5ef859715ec0fd6b"}, {"bike_id": "e461008910a2b2a4c756117a696a0d80", "type": "electric_scooter", "is_disabled": 0, "lat": 38.921487, "rental_uris": {"ios": "https://dc.lft.to/lastmile_qr_scan", "android": "https://dc.lft.to/lastmile_qr_scan"}, "is_reserved": 0, "fusion_lon": 0.0, "fusion_lat": 0.0, "lon": -77.03439233333333, "name": "e461008910a2b2a4c756117a696a0d80"}, {"bike_id": "43556fe5e089865634cd5335259d063f", "type": "electric_scooter", "is_disabled": 0, "lat": 38.92323616666667, "rental_uris": {"ios": "https://dc.lft.to/lastmile_qr_scan", "android": "https://dc.lft.to/lastmile_qr_scan"}, "is_reserved": 0, "fusion_lon": 0.0, "fusion_lat": 0.0, "lon": -77.02964616666667, "name": "43556fe5e089865634cd5335259d063f"}, {"bike_id": "d5f094c790506dfda0b993ff973bfe54", "type": "electric_scooter", "is_disabled": 0, "lat": 38.8829875, "rental_uris": {"ios": "https://dc.lft.to/lastmile_qr_scan", "android": "https://dc.lft.to/lastmile_qr_scan"}, "is_reserved": 0, "fusion_lon": 0.0, "fusion_lat": 0.0, "lon": -76.948538, "name": "d5f094c790506dfda0b993ff973bfe54"}, {"bike_id": "07d780fda433859292aff800e0b68dca", "type": "electric_scooter", "is_disabled": 0, "lat": 38.92467, "rental_uris": {"ios": "https://dc.lft.to/lastmile_qr_scan", "android": "https://dc.lft.to/lastmile_qr_scan"}, "is_reserved": 0, "fusion_lon": 0.0, "fusion_lat": 0.0, "lon": -77.02837583333333, "name": "07d780fda433859292aff800e0b68dca"}, {"bike_id": "1388bd378ccdb8de0b4d67264133b289", "type": "electric_scooter", "is_disabled": 0, "lat": 38.90465116666667, "rental_uris": {"ios": "https://dc.lft.to/lastmile_qr_scan", "android": "https://dc.lft.to/lastmile_qr_scan"}, "is_reserved": 0, "fusion_lon": 0.0, "fusion_lat": 0.0, "lon": -76.97607666666667, "name": "1388bd378ccdb8de0b4d67264133b289"}, {"bike_id": "c2a8c9d1aeb900d6e51586ced4fe496e", "type": "electric_scooter", "is_disabled": 0, "lat": 38.918382666666666, "rental_uris": {"ios": "https://dc.lft.to/lastmile_qr_scan", "android": "https://dc.lft.to/lastmile_qr_scan"}, "is_reserved": 0, "fusion_lon": 0.0, "fusion_lat": 0.0, "lon": -77.02608283333333, "name": "c2a8c9d1aeb900d6e51586ced4fe496e"}, {"bike_id": "97fd3460065666963d3fa694379f0f26", "type": "electric_scooter", "is_disabled": 0, "lat": 38.931410166666666, "rental_uris": {"ios": "https://dc.lft.to/lastmile_qr_scan", "android": "https://dc.lft.to/lastmile_qr_scan"}, "is_reserved": 0, "fusion_lon": 0.0, "fusion_lat": 0.0, "lon": -77.03353366666667, "name": "97fd3460065666963d3fa694379f0f26"}, {"bike_id": "d420f6ea19952d5c0673143a93e74953", "type": "electric_bike", "is_disabled": 0, "lat": 38.932218166666665, "rental_uris": {"ios": "https://dc.lft.to/lastmile_qr_scan", "android": "https://dc.lft.to/lastmile_qr_scan"}, "is_reserved": 0, "fusion_lon": 0.0, "fusion_lat": 0.0, "lon": -77.18118533333333, "name": "d420f6ea19952d5c0673143a93e74953"}, {"bike_id": "8eee0246e5345c1aabcb725e3f7c5af1", "type": "electric_scooter", "is_disabled": 0, "lat": 38.902521666666665, "rental_uris": {"ios": "https://dc.lft.to/lastmile_qr_scan", "android": "https://dc.lft.to/lastmile_qr_scan"}, "is_reserved": 0, "fusion_lon": 0.0, "fusion_lat": 0.0, "lon": -77.01626583333334, "name": "8eee0246e5345c1aabcb725e3f7c5af1"}, {"bike_id": "824bf91bf83db77b2cbddbfbbbe7913a", "type": "electric_scooter", "is_disabled": 0, "lat": 38.922690333333335, "rental_uris": {"ios": "https://dc.lft.to/lastmile_qr_scan", "android": "https://dc.lft.to/lastmile_qr_scan"}, "is_reserved": 0, "fusion_lon": 0.0, "fusion_lat": 0.0, "lon": -77.04205516666667, "name": "824bf91bf83db77b2cbddbfbbbe7913a"}, {"bike_id": "5b09f00a2d5ddac1a02fd12dbe7a365c", "type": "electric_scooter", "is_disabled": 0, "lat": 38.90847383333333, "rental_uris": {"ios": "https://dc.lft.to/lastmile_qr_scan", "android": "https://dc.lft.to/lastmile_qr_scan"}, "is_reserved": 0, "fusion_lon": 0.0, "fusion_lat": 0.0, "lon": -77.05487633333334, "name": "5b09f00a2d5ddac1a02fd12dbe7a365c"}, {"bike_id": "4cd37c8fe953b02ce9edfa81961f876b", "type": "electric_scooter", "is_disabled": 0, "lat": 38.9096685, "rental_uris": {"ios": "https://dc.lft.to/lastmile_qr_scan", "android": "https://dc.lft.to/lastmile_qr_scan"}, "is_reserved": 0, "fusion_lon": 0.0, "fusion_lat": 0.0, "lon": -77.02296583333333, "name": "4cd37c8fe953b02ce9edfa81961f876b"}, {"bike_id": "f0630b8d365c5d23397ec700e34cc51f", "type": "electric_scooter", "is_disabled": 0, "lat": 38.934504833333335, "rental_uris": {"ios": "https://dc.lft.to/lastmile_qr_scan", "android": "https://dc.lft.to/lastmile_qr_scan"}, "is_reserved": 0, "fusion_lon": 0.0, "fusion_lat": 0.0, "lon": -77.02798266666667, "name": "f0630b8d365c5d23397ec700e34cc51f"}, {"bike_id": "847e7dba57524e039461e1eb917cf5a0", "type": "electric_scooter", "is_disabled": 0, "lat": 38.947592, "rental_uris": {"ios": "https://dc.lft.to/lastmile_qr_scan", "android": "https://dc.lft.to/lastmile_qr_scan"}, "is_reserved": 0, "fusion_lon": 0.0, "fusion_lat": 0.0, "lon": -77.06560183333333, "name": "847e7dba57524e039461e1eb917cf5a0"}, {"bike_id": "28747f4ea9a2c051e96a19a8f1a8b7c1", "type": "electric_scooter", "is_disabled": 0, "lat": 38.929480833333336, "rental_uris": {"ios": "https://dc.lft.to/lastmile_qr_scan", "android": "https://dc.lft.to/lastmile_qr_scan"}, "is_reserved": 0, "fusion_lon": 0.0, "fusion_lat": 0.0, "lon": -77.04399366666667, "name": "28747f4ea9a2c051e96a19a8f1a8b7c1"}, {"bike_id": "584f7d13cf453260499deff3411a7d78", "type": "electric_scooter", "is_disabled": 0, "lat": 38.90007083333333, "rental_uris": {"ios": "https://dc.lft.to/lastmile_qr_scan", "android": "https://dc.lft.to/lastmile_qr_scan"}, "is_reserved": 0, "fusion_lon": 0.0, "fusion_lat": 0.0, "lon": -77.0038395, "name": "584f7d13cf453260499deff3411a7d78"}, {"bike_id": "63bcde5674ec803078f15c2cd7d7da85", "type": "electric_scooter", "is_disabled": 0, "lat": 38.882895166666664, "rental_uris": {"ios": "https://dc.lft.to/lastmile_qr_scan", "android": "https://dc.lft.to/lastmile_qr_scan"}, "is_reserved": 0, "fusion_lon": 0.0, "fusion_lat": 0.0, "lon": -77.0179515, "name": "63bcde5674ec803078f15c2cd7d7da85"}, {"bike_id": "78b98e244642079bb03df5655487d11d", "type": "electric_bike", "is_disabled": 0, "lat": 38.961304166666665, "rental_uris": {"ios": "https://dc.lft.to/lastmile_qr_scan", "android": "https://dc.lft.to/lastmile_qr_scan"}, "is_reserved": 0, "fusion_lon": 0.0, "fusion_lat": 0.0, "lon": -77.03333416666666, "name": "78b98e244642079bb03df5655487d11d"}, {"bike_id": "854681fe5ebf0a42778569c0d9fd724f", "type": "electric_bike", "is_disabled": 0, "lat": 38.8824195, "rental_uris": {"ios": "https://dc.lft.to/lastmile_qr_scan", "android": "https://dc.lft.to/lastmile_qr_scan"}, "is_reserved": 0, "fusion_lon": 0.0, "fusion_lat": 0.0, "lon": -76.96259883333333, "name": "854681fe5ebf0a42778569c0d9fd724f"}, {"bike_id": "68d7d5cbb8a862989aa40f3d8004ef34", "type": "electric_scooter", "is_disabled": 0, "lat": 38.9068215, "rental_uris": {"ios": "https://dc.lft.to/lastmile_qr_scan", "android": "https://dc.lft.to/lastmile_qr_scan"}, "is_reserved": 0, "fusion_lon": 0.0, "fusion_lat": 0.0, "lon": -76.98000833333333, "name": "68d7d5cbb8a862989aa40f3d8004ef34"}, {"bike_id": "d9a15177271e92657bba22062b998e85", "type": "electric_scooter", "is_disabled": 0, "lat": 38.9071725, "rental_uris": {"ios": "https://dc.lft.to/lastmile_qr_scan", "android": "https://dc.lft.to/lastmile_qr_scan"}, "is_reserved": 0, "fusion_lon": 0.0, "fusion_lat": 0.0, "lon": -77.05018716666666, "name": "d9a15177271e92657bba22062b998e85"}, {"bike_id": "61272acad907b94e77b691fa5ee5ad55", "type": "electric_scooter", "is_disabled": 0, "lat": 38.9568435, "rental_uris": {"ios": "https://dc.lft.to/lastmile_qr_scan", "android": "https://dc.lft.to/lastmile_qr_scan"}, "is_reserved": 0, "fusion_lon": 0.0, "fusion_lat": 0.0, "lon": -77.02393066666667, "name": "61272acad907b94e77b691fa5ee5ad55"}, {"bike_id": "c6c5ed494ede7369699a9eb6cbb116e7", "type": "electric_scooter", "is_disabled": 0, "lat": 38.92061483333333, "rental_uris": {"ios": "https://dc.lft.to/lastmile_qr_scan", "android": "https://dc.lft.to/lastmile_qr_scan"}, "is_reserved": 0, "fusion_lon": 0.0, "fusion_lat": 0.0, "lon": -77.03470033333333, "name": "c6c5ed494ede7369699a9eb6cbb116e7"}, {"bike_id": "8b01625dd8868e042426cb8f192e20fe", "type": "electric_scooter", "is_disabled": 0, "lat": 38.910964166666666, "rental_uris": {"ios": "https://dc.lft.to/lastmile_qr_scan", "android": "https://dc.lft.to/lastmile_qr_scan"}, "is_reserved": 0, "fusion_lon": 0.0, "fusion_lat": 0.0, "lon": -77.02973, "name": "8b01625dd8868e042426cb8f192e20fe"}, {"bike_id": "b2a1286d7659c3b35ed50cc79f2ae761", "type": "electric_scooter", "is_disabled": 0, "lat": 38.91777183333333, "rental_uris": {"ios": "https://dc.lft.to/lastmile_qr_scan", "android": "https://dc.lft.to/lastmile_qr_scan"}, "is_reserved": 0, "fusion_lon": 0.0, "fusion_lat": 0.0, "lon": -77.02969233333333, "name": "b2a1286d7659c3b35ed50cc79f2ae761"}, {"bike_id": "29dde8adc25e91d289529ec076dae571", "type": "electric_scooter", "is_disabled": 0, "lat": 38.9011655, "rental_uris": {"ios": "https://dc.lft.to/lastmile_qr_scan", "android": "https://dc.lft.to/lastmile_qr_scan"}, "is_reserved": 0, "fusion_lon": 0.0, "fusion_lat": 0.0, "lon": -77.03662316666667, "name": "29dde8adc25e91d289529ec076dae571"}, {"bike_id": "a7440069c65c5c51f081a793753b4ddb", "type": "electric_scooter", "is_disabled": 0, "lat": 38.90715616666667, "rental_uris": {"ios": "https://dc.lft.to/lastmile_qr_scan", "android": "https://dc.lft.to/lastmile_qr_scan"}, "is_reserved": 0, "fusion_lon": 0.0, "fusion_lat": 0.0, "lon": -77.04649666666667, "name": "a7440069c65c5c51f081a793753b4ddb"}, {"bike_id": "1b142870c6ffbd19887cd61856d684ec", "type": "electric_scooter", "is_disabled": 0, "lat": 38.9215095, "rental_uris": {"ios": "https://dc.lft.to/lastmile_qr_scan", "android": "https://dc.lft.to/lastmile_qr_scan"}, "is_reserved": 0, "fusion_lon": 0.0, "fusion_lat": 0.0, "lon": -77.03875566666666, "name": "1b142870c6ffbd19887cd61856d684ec"}, {"bike_id": "d5e640cc4ba8a4139c7f6bbfd031ae22", "type": "electric_scooter", "is_disabled": 0, "lat": 38.872826333333336, "rental_uris": {"ios": "https://dc.lft.to/lastmile_qr_scan", "android": "https://dc.lft.to/lastmile_qr_scan"}, "is_reserved": 0, "fusion_lon": 0.0, "fusion_lat": 0.0, "lon": -77.0098575, "name": "d5e640cc4ba8a4139c7f6bbfd031ae22"}, {"bike_id": "76f70daf62c91e22cdf70a849f089ec4", "type": "electric_scooter", "is_disabled": 0, "lat": 38.926840166666665, "rental_uris": {"ios": "https://dc.lft.to/lastmile_qr_scan", "android": "https://dc.lft.to/lastmile_qr_scan"}, "is_reserved": 0, "fusion_lon": 0.0, "fusion_lat": 0.0, "lon": -77.021586, "name": "76f70daf62c91e22cdf70a849f089ec4"}, {"bike_id": "de30dea708ea187888a1f82240ef160d", "type": "electric_scooter", "is_disabled": 0, "lat": 38.92389283333333, "rental_uris": {"ios": "https://dc.lft.to/lastmile_qr_scan", "android": "https://dc.lft.to/lastmile_qr_scan"}, "is_reserved": 0, "fusion_lon": 0.0, "fusion_lat": 0.0, "lon": -77.0246895, "name": "de30dea708ea187888a1f82240ef160d"}, {"bike_id": "d758b648a332ed14a2df91dbf6e5b4ee", "type": "electric_scooter", "is_disabled": 0, "lat": 38.907264166666664, "rental_uris": {"ios": "https://dc.lft.to/lastmile_qr_scan", "android": "https://dc.lft.to/lastmile_qr_scan"}, "is_reserved": 0, "fusion_lon": 0.0, "fusion_lat": 0.0, "lon": -77.05324733333333, "name": "d758b648a332ed14a2df91dbf6e5b4ee"}, {"bike_id": "3293460e6e55f7344005d848fcf07131", "type": "electric_scooter", "is_disabled": 0, "lat": 38.919238166666666, "rental_uris": {"ios": "https://dc.lft.to/lastmile_qr_scan", "android": "https://dc.lft.to/lastmile_qr_scan"}, "is_reserved": 0, "fusion_lon": 0.0, "fusion_lat": 0.0, "lon": -77.02576116666667, "name": "3293460e6e55f7344005d848fcf07131"}, {"bike_id": "99153242870c044e3d2c96e1fb467dfe", "type": "electric_scooter", "is_disabled": 0, "lat": 38.9071515, "rental_uris": {"ios": "https://dc.lft.to/lastmile_qr_scan", "android": "https://dc.lft.to/lastmile_qr_scan"}, "is_reserved": 0, "fusion_lon": 0.0, "fusion_lat": 0.0, "lon": -77.048219, "name": "99153242870c044e3d2c96e1fb467dfe"}, {"bike_id": "d0f8706b01304bdae2c61661efd94333", "type": "electric_scooter", "is_disabled": 0, "lat": 38.90526066666666, "rental_uris": {"ios": "https://dc.lft.to/lastmile_qr_scan", "android": "https://dc.lft.to/lastmile_qr_scan"}, "is_reserved": 0, "fusion_lon": 0.0, "fusion_lat": 0.0, "lon": -76.99635883333333, "name": "d0f8706b01304bdae2c61661efd94333"}, {"bike_id": "fa423c74ce81d98e609621148c76390d", "type": "electric_scooter", "is_disabled": 0, "lat": 38.9341615, "rental_uris": {"ios": "https://dc.lft.to/lastmile_qr_scan", "android": "https://dc.lft.to/lastmile_qr_scan"}, "is_reserved": 0, "fusion_lon": 0.0, "fusion_lat": 0.0, "lon": -77.03916916666667, "name": "fa423c74ce81d98e609621148c76390d"}, {"bike_id": "404e9fc7d45106355d88a6ccadaeeacb", "type": "electric_bike", "is_disabled": 0, "lat": 38.854173833333334, "rental_uris": {"ios": "https://dc.lft.to/lastmile_qr_scan", "android": "https://dc.lft.to/lastmile_qr_scan"}, "is_reserved": 0, "fusion_lon": 0.0, "fusion_lat": 0.0, "lon": -77.1207765, "name": "404e9fc7d45106355d88a6ccadaeeacb"}, {"bike_id": "6b4e348cf006b1968bfd43ef8cb0e3c1", "type": "electric_scooter", "is_disabled": 0, "lat": 38.90173166666667, "rental_uris": {"ios": "https://dc.lft.to/lastmile_qr_scan", "android": "https://dc.lft.to/lastmile_qr_scan"}, "is_reserved": 0, "fusion_lon": 0.0, "fusion_lat": 0.0, "lon": -76.98452083333333, "name": "6b4e348cf006b1968bfd43ef8cb0e3c1"}, {"bike_id": "7cea0dc2fa2bf2a126677ccf94066768", "type": "electric_scooter", "is_disabled": 0, "lat": 38.94289166666667, "rental_uris": {"ios": "https://dc.lft.to/lastmile_qr_scan", "android": "https://dc.lft.to/lastmile_qr_scan"}, "is_reserved": 0, "fusion_lon": 0.0, "fusion_lat": 0.0, "lon": -77.02167733333333, "name": "7cea0dc2fa2bf2a126677ccf94066768"}, {"bike_id": "058ab2920789e65ceff87d37f09a175a", "type": "electric_scooter", "is_disabled": 0, "lat": 38.948363, "rental_uris": {"ios": "https://dc.lft.to/lastmile_qr_scan", "android": "https://dc.lft.to/lastmile_qr_scan"}, "is_reserved": 0, "fusion_lon": 0.0, "fusion_lat": 0.0, "lon": -77.0254245, "name": "058ab2920789e65ceff87d37f09a175a"}, {"bike_id": "a06ed64044a89b027376a843ed793ecd", "type": "electric_scooter", "is_disabled": 0, "lat": 38.904199166666665, "rental_uris": {"ios": "https://dc.lft.to/lastmile_qr_scan", "android": "https://dc.lft.to/lastmile_qr_scan"}, "is_reserved": 0, "fusion_lon": 0.0, "fusion_lat": 0.0, "lon": -76.973746, "name": "a06ed64044a89b027376a843ed793ecd"}, {"bike_id": "d6105941c5992607c8adcb47a52d2ce4", "type": "electric_scooter", "is_disabled": 0, "lat": 38.924510166666664, "rental_uris": {"ios": "https://dc.lft.to/lastmile_qr_scan", "android": "https://dc.lft.to/lastmile_qr_scan"}, "is_reserved": 0, "fusion_lon": 0.0, "fusion_lat": 0.0, "lon": -77.0241025, "name": "d6105941c5992607c8adcb47a52d2ce4"}, {"bike_id": "ac3f6e687e70752a2a088a14b567a043", "type": "electric_scooter", "is_disabled": 0, "lat": 38.95475283333333, "rental_uris": {"ios": "https://dc.lft.to/lastmile_qr_scan", "android": "https://dc.lft.to/lastmile_qr_scan"}, "is_reserved": 0, "fusion_lon": 0.0, "fusion_lat": 0.0, "lon": -77.09252233333333, "name": "ac3f6e687e70752a2a088a14b567a043"}, {"bike_id": "c07c190d7b436fdf2353c4119999ea9b", "type": "electric_scooter", "is_disabled": 0, "lat": 38.90786716666667, "rental_uris": {"ios": "https://dc.lft.to/lastmile_qr_scan", "android": "https://dc.lft.to/lastmile_qr_scan"}, "is_reserved": 0, "fusion_lon": 0.0, "fusion_lat": 0.0, "lon": -77.0019915, "name": "c07c190d7b436fdf2353c4119999ea9b"}, {"bike_id": "441f02481c42fc337eba09196481c7f2", "type": "electric_scooter", "is_disabled": 0, "lat": 38.9333765, "rental_uris": {"ios": "https://dc.lft.to/lastmile_qr_scan", "android": "https://dc.lft.to/lastmile_qr_scan"}, "is_reserved": 0, "fusion_lon": 0.0, "fusion_lat": 0.0, "lon": -77.03986833333333, "name": "441f02481c42fc337eba09196481c7f2"}, {"bike_id": "cfc2eb09033421387e02b3f5f060a910", "type": "electric_scooter", "is_disabled": 0, "lat": 38.92944383333333, "rental_uris": {"ios": "https://dc.lft.to/lastmile_qr_scan", "android": "https://dc.lft.to/lastmile_qr_scan"}, "is_reserved": 0, "fusion_lon": 0.0, "fusion_lat": 0.0, "lon": -77.01843683333334, "name": "cfc2eb09033421387e02b3f5f060a910"}, {"bike_id": "16a9d08ed91f9f243389e280fccb144a", "type": "electric_scooter", "is_disabled": 0, "lat": 38.8656685, "rental_uris": {"ios": "https://dc.lft.to/lastmile_qr_scan", "android": "https://dc.lft.to/lastmile_qr_scan"}, "is_reserved": 0, "fusion_lon": 0.0, "fusion_lat": 0.0, "lon": -76.982124, "name": "16a9d08ed91f9f243389e280fccb144a"}, {"bike_id": "bbd0c0048de9750381d24b866009cb73", "type": "electric_scooter", "is_disabled": 0, "lat": 38.887410833333334, "rental_uris": {"ios": "https://dc.lft.to/lastmile_qr_scan", "android": "https://dc.lft.to/lastmile_qr_scan"}, "is_reserved": 0, "fusion_lon": 0.0, "fusion_lat": 0.0, "lon": -76.99627716666667, "name": "bbd0c0048de9750381d24b866009cb73"}, {"bike_id": "0cd8b05c6db105d164e27a30752914b6", "type": "electric_scooter", "is_disabled": 0, "lat": 38.888722666666666, "rental_uris": {"ios": "https://dc.lft.to/lastmile_qr_scan", "android": "https://dc.lft.to/lastmile_qr_scan"}, "is_reserved": 0, "fusion_lon": 0.0, "fusion_lat": 0.0, "lon": -76.99031833333333, "name": "0cd8b05c6db105d164e27a30752914b6"}, {"bike_id": "d21a24b2994ff9eefe7b264221c0af69", "type": "electric_scooter", "is_disabled": 0, "lat": 38.92242516666666, "rental_uris": {"ios": "https://dc.lft.to/lastmile_qr_scan", "android": "https://dc.lft.to/lastmile_qr_scan"}, "is_reserved": 0, "fusion_lon": 0.0, "fusion_lat": 0.0, "lon": -77.03032166666667, "name": "d21a24b2994ff9eefe7b264221c0af69"}, {"bike_id": "9f7aaf4e13b7a40ca79114c60de87891", "type": "electric_scooter", "is_disabled": 0, "lat": 38.9347785, "rental_uris": {"ios": "https://dc.lft.to/lastmile_qr_scan", "android": "https://dc.lft.to/lastmile_qr_scan"}, "is_reserved": 0, "fusion_lon": 0.0, "fusion_lat": 0.0, "lon": -77.03417066666667, "name": "9f7aaf4e13b7a40ca79114c60de87891"}, {"bike_id": "d333255288018eac54272aaab228bb50", "type": "electric_scooter", "is_disabled": 0, "lat": 38.939141666666664, "rental_uris": {"ios": "https://dc.lft.to/lastmile_qr_scan", "android": "https://dc.lft.to/lastmile_qr_scan"}, "is_reserved": 0, "fusion_lon": 0.0, "fusion_lat": 0.0, "lon": -77.060538, "name": "d333255288018eac54272aaab228bb50"}, {"bike_id": "7abfb458d3527662f34877fd17c9e7e7", "type": "electric_bike", "is_disabled": 0, "lat": 39.03698833333333, "rental_uris": {"ios": "https://dc.lft.to/lastmile_qr_scan", "android": "https://dc.lft.to/lastmile_qr_scan"}, "is_reserved": 0, "fusion_lon": 0.0, "fusion_lat": 0.0, "lon": -77.02860033333333, "name": "7abfb458d3527662f34877fd17c9e7e7"}, {"bike_id": "876b4d62b1f6e6f070c41aa41f3b8c40", "type": "electric_scooter", "is_disabled": 0, "lat": 38.90469216666666, "rental_uris": {"ios": "https://dc.lft.to/lastmile_qr_scan", "android": "https://dc.lft.to/lastmile_qr_scan"}, "is_reserved": 0, "fusion_lon": 0.0, "fusion_lat": 0.0, "lon": -77.02942983333334, "name": "876b4d62b1f6e6f070c41aa41f3b8c40"}, {"bike_id": "f0b4d1570635fe618ab7898e97570b5c", "type": "electric_scooter", "is_disabled": 0, "lat": 38.906293, "rental_uris": {"ios": "https://dc.lft.to/lastmile_qr_scan", "android": "https://dc.lft.to/lastmile_qr_scan"}, "is_reserved": 0, "fusion_lon": 0.0, "fusion_lat": 0.0, "lon": -77.0515745, "name": "f0b4d1570635fe618ab7898e97570b5c"}, {"bike_id": "c77fc0c0129ac9c91a3894087d7d1d86", "type": "electric_scooter", "is_disabled": 0, "lat": 38.90189866666667, "rental_uris": {"ios": "https://dc.lft.to/lastmile_qr_scan", "android": "https://dc.lft.to/lastmile_qr_scan"}, "is_reserved": 0, "fusion_lon": 0.0, "fusion_lat": 0.0, "lon": -77.01304116666667, "name": "c77fc0c0129ac9c91a3894087d7d1d86"}, {"bike_id": "58fc73cf071e1918605324849fcb32fa", "type": "electric_scooter", "is_disabled": 0, "lat": 38.8756075, "rental_uris": {"ios": "https://dc.lft.to/lastmile_qr_scan", "android": "https://dc.lft.to/lastmile_qr_scan"}, "is_reserved": 0, "fusion_lon": 0.0, "fusion_lat": 0.0, "lon": -76.9586825, "name": "58fc73cf071e1918605324849fcb32fa"}, {"bike_id": "0e15136d8c4db09c3300bf3e1ab8611f", "type": "electric_scooter", "is_disabled": 0, "lat": 38.91561016666667, "rental_uris": {"ios": "https://dc.lft.to/lastmile_qr_scan", "android": "https://dc.lft.to/lastmile_qr_scan"}, "is_reserved": 0, "fusion_lon": 0.0, "fusion_lat": 0.0, "lon": -77.03727933333333, "name": "0e15136d8c4db09c3300bf3e1ab8611f"}, {"bike_id": "5c0fc6b0e35759a09aa6427e0609a27c", "type": "electric_scooter", "is_disabled": 0, "lat": 38.91690083333334, "rental_uris": {"ios": "https://dc.lft.to/lastmile_qr_scan", "android": "https://dc.lft.to/lastmile_qr_scan"}, "is_reserved": 0, "fusion_lon": 0.0, "fusion_lat": 0.0, "lon": -77.02345816666667, "name": "5c0fc6b0e35759a09aa6427e0609a27c"}, {"bike_id": "b2a33ce693207958ca4183d9b0cf0961", "type": "electric_scooter", "is_disabled": 0, "lat": 38.90422433333333, "rental_uris": {"ios": "https://dc.lft.to/lastmile_qr_scan", "android": "https://dc.lft.to/lastmile_qr_scan"}, "is_reserved": 0, "fusion_lon": 0.0, "fusion_lat": 0.0, "lon": -76.99078016666667, "name": "b2a33ce693207958ca4183d9b0cf0961"}, {"bike_id": "c1b191704b88c77006eea0d4385ecc27", "type": "electric_scooter", "is_disabled": 0, "lat": 38.900741333333336, "rental_uris": {"ios": "https://dc.lft.to/lastmile_qr_scan", "android": "https://dc.lft.to/lastmile_qr_scan"}, "is_reserved": 0, "fusion_lon": 0.0, "fusion_lat": 0.0, "lon": -76.9273695, "name": "c1b191704b88c77006eea0d4385ecc27"}, {"bike_id": "9154490bf9f59417d5280b0558be744c", "type": "electric_scooter", "is_disabled": 0, "lat": 38.92063666666667, "rental_uris": {"ios": "https://dc.lft.to/lastmile_qr_scan", "android": "https://dc.lft.to/lastmile_qr_scan"}, "is_reserved": 0, "fusion_lon": 0.0, "fusion_lat": 0.0, "lon": -77.02400416666667, "name": "9154490bf9f59417d5280b0558be744c"}, {"bike_id": "10dd3a73486bc83a233ffd24a699346f", "type": "electric_scooter", "is_disabled": 0, "lat": 38.904053, "rental_uris": {"ios": "https://dc.lft.to/lastmile_qr_scan", "android": "https://dc.lft.to/lastmile_qr_scan"}, "is_reserved": 0, "fusion_lon": 0.0, "fusion_lat": 0.0, "lon": -77.06759716666667, "name": "10dd3a73486bc83a233ffd24a699346f"}, {"bike_id": "c4276c2725d48aeda689eeb8bf84d3f0", "type": "electric_scooter", "is_disabled": 0, "lat": 38.88987483333333, "rental_uris": {"ios": "https://dc.lft.to/lastmile_qr_scan", "android": "https://dc.lft.to/lastmile_qr_scan"}, "is_reserved": 0, "fusion_lon": 0.0, "fusion_lat": 0.0, "lon": -77.00111933333334, "name": "c4276c2725d48aeda689eeb8bf84d3f0"}, {"bike_id": "b0fecfa0926b330bdc028f2df429bc25", "type": "electric_scooter", "is_disabled": 0, "lat": 38.91784333333333, "rental_uris": {"ios": "https://dc.lft.to/lastmile_qr_scan", "android": "https://dc.lft.to/lastmile_qr_scan"}, "is_reserved": 0, "fusion_lon": 0.0, "fusion_lat": 0.0, "lon": -77.0405935, "name": "b0fecfa0926b330bdc028f2df429bc25"}, {"bike_id": "2b6e3997729415b842737d0e04c884f5", "type": "electric_scooter", "is_disabled": 0, "lat": 38.90607833333333, "rental_uris": {"ios": "https://dc.lft.to/lastmile_qr_scan", "android": "https://dc.lft.to/lastmile_qr_scan"}, "is_reserved": 0, "fusion_lon": 0.0, "fusion_lat": 0.0, "lon": -77.00709616666667, "name": "2b6e3997729415b842737d0e04c884f5"}, {"bike_id": "46cc5e6f0d2b7f92a25009536bc34278", "type": "electric_scooter", "is_disabled": 0, "lat": 38.9185105, "rental_uris": {"ios": "https://dc.lft.to/lastmile_qr_scan", "android": "https://dc.lft.to/lastmile_qr_scan"}, "is_reserved": 0, "fusion_lon": 0.0, "fusion_lat": 0.0, "lon": -77.0253155, "name": "46cc5e6f0d2b7f92a25009536bc34278"}, {"bike_id": "41b12fa8c1e8201c1874dadee3e39893", "type": "electric_scooter", "is_disabled": 0, "lat": 38.917751833333334, "rental_uris": {"ios": "https://dc.lft.to/lastmile_qr_scan", "android": "https://dc.lft.to/lastmile_qr_scan"}, "is_reserved": 0, "fusion_lon": 0.0, "fusion_lat": 0.0, "lon": -77.036601, "name": "41b12fa8c1e8201c1874dadee3e39893"}, {"bike_id": "90a2e7d3debf29f72ff224cf69f0c883", "type": "electric_scooter", "is_disabled": 0, "lat": 38.908262666666666, "rental_uris": {"ios": "https://dc.lft.to/lastmile_qr_scan", "android": "https://dc.lft.to/lastmile_qr_scan"}, "is_reserved": 0, "fusion_lon": 0.0, "fusion_lat": 0.0, "lon": -77.02701966666666, "name": "90a2e7d3debf29f72ff224cf69f0c883"}, {"bike_id": "7c7f4eedf7ad757efaa19c15acc22378", "type": "electric_scooter", "is_disabled": 0, "lat": 38.910911166666665, "rental_uris": {"ios": "https://dc.lft.to/lastmile_qr_scan", "android": "https://dc.lft.to/lastmile_qr_scan"}, "is_reserved": 0, "fusion_lon": 0.0, "fusion_lat": 0.0, "lon": -77.02810733333334, "name": "7c7f4eedf7ad757efaa19c15acc22378"}, {"bike_id": "fdc3deb0d57ee804c7d1ae548707f630", "type": "electric_scooter", "is_disabled": 0, "lat": 38.916413, "rental_uris": {"ios": "https://dc.lft.to/lastmile_qr_scan", "android": "https://dc.lft.to/lastmile_qr_scan"}, "is_reserved": 0, "fusion_lon": 0.0, "fusion_lat": 0.0, "lon": -77.00046216666667, "name": "fdc3deb0d57ee804c7d1ae548707f630"}, {"bike_id": "d1f78077f96c7bd01d3e6526e712deb9", "type": "electric_scooter", "is_disabled": 0, "lat": 38.91913316666667, "rental_uris": {"ios": "https://dc.lft.to/lastmile_qr_scan", "android": "https://dc.lft.to/lastmile_qr_scan"}, "is_reserved": 0, "fusion_lon": 0.0, "fusion_lat": 0.0, "lon": -77.03221533333334, "name": "d1f78077f96c7bd01d3e6526e712deb9"}, {"bike_id": "8ed15cf2886da231981896903d456675", "type": "electric_scooter", "is_disabled": 0, "lat": 38.880363833333334, "rental_uris": {"ios": "https://dc.lft.to/lastmile_qr_scan", "android": "https://dc.lft.to/lastmile_qr_scan"}, "is_reserved": 0, "fusion_lon": 0.0, "fusion_lat": 0.0, "lon": -77.00528316666667, "name": "8ed15cf2886da231981896903d456675"}, {"bike_id": "31d614a67803001ad92bb39562b088bb", "type": "electric_scooter", "is_disabled": 0, "lat": 38.8464045, "rental_uris": {"ios": "https://dc.lft.to/lastmile_qr_scan", "android": "https://dc.lft.to/lastmile_qr_scan"}, "is_reserved": 0, "fusion_lon": 0.0, "fusion_lat": 0.0, "lon": -76.99128516666667, "name": "31d614a67803001ad92bb39562b088bb"}, {"bike_id": "a6d3e55a244f0966886f077103dc79a4", "type": "electric_scooter", "is_disabled": 0, "lat": 38.919230666666664, "rental_uris": {"ios": "https://dc.lft.to/lastmile_qr_scan", "android": "https://dc.lft.to/lastmile_qr_scan"}, "is_reserved": 0, "fusion_lon": 0.0, "fusion_lat": 0.0, "lon": -77.03420633333333, "name": "a6d3e55a244f0966886f077103dc79a4"}, {"bike_id": "6f9ed4a102080cd98589a1adea201447", "type": "electric_scooter", "is_disabled": 0, "lat": 38.888600333333336, "rental_uris": {"ios": "https://dc.lft.to/lastmile_qr_scan", "android": "https://dc.lft.to/lastmile_qr_scan"}, "is_reserved": 0, "fusion_lon": 0.0, "fusion_lat": 0.0, "lon": -76.99141883333333, "name": "6f9ed4a102080cd98589a1adea201447"}, {"bike_id": "a382cfd9de4dc1b4112767d8d8f2104b", "type": "electric_scooter", "is_disabled": 0, "lat": 38.9196455, "rental_uris": {"ios": "https://dc.lft.to/lastmile_qr_scan", "android": "https://dc.lft.to/lastmile_qr_scan"}, "is_reserved": 0, "fusion_lon": 0.0, "fusion_lat": 0.0, "lon": -77.04271266666667, "name": "a382cfd9de4dc1b4112767d8d8f2104b"}, {"bike_id": "07fe720b61bdf11e4cf54a1c02264889", "type": "electric_scooter", "is_disabled": 0, "lat": 38.920460166666665, "rental_uris": {"ios": "https://dc.lft.to/lastmile_qr_scan", "android": "https://dc.lft.to/lastmile_qr_scan"}, "is_reserved": 0, "fusion_lon": 0.0, "fusion_lat": 0.0, "lon": -77.02423816666666, "name": "07fe720b61bdf11e4cf54a1c02264889"}, {"bike_id": "f127a7294c410e25e9f5afaa767cc99e", "type": "electric_scooter", "is_disabled": 0, "lat": 38.893561, "rental_uris": {"ios": "https://dc.lft.to/lastmile_qr_scan", "android": "https://dc.lft.to/lastmile_qr_scan"}, "is_reserved": 0, "fusion_lon": 0.0, "fusion_lat": 0.0, "lon": -76.94933383333333, "name": "f127a7294c410e25e9f5afaa767cc99e"}, {"bike_id": "3eb21c5ebe21c3e3b7e889b52143572a", "type": "electric_scooter", "is_disabled": 0, "lat": 38.871608, "rental_uris": {"ios": "https://dc.lft.to/lastmile_qr_scan", "android": "https://dc.lft.to/lastmile_qr_scan"}, "is_reserved": 0, "fusion_lon": 0.0, "fusion_lat": 0.0, "lon": -77.0135175, "name": "3eb21c5ebe21c3e3b7e889b52143572a"}, {"bike_id": "c3894d4022788679f0c4090a95273363", "type": "electric_scooter", "is_disabled": 0, "lat": 38.92667266666667, "rental_uris": {"ios": "https://dc.lft.to/lastmile_qr_scan", "android": "https://dc.lft.to/lastmile_qr_scan"}, "is_reserved": 0, "fusion_lon": 0.0, "fusion_lat": 0.0, "lon": -77.03028333333333, "name": "c3894d4022788679f0c4090a95273363"}, {"bike_id": "134ae514a5ed876c132b7a1160d911c2", "type": "electric_bike", "is_disabled": 0, "lat": 38.8217445, "rental_uris": {"ios": "https://dc.lft.to/lastmile_qr_scan", "android": "https://dc.lft.to/lastmile_qr_scan"}, "is_reserved": 0, "fusion_lon": 0.0, "fusion_lat": 0.0, "lon": -76.99513866666666, "name": "134ae514a5ed876c132b7a1160d911c2"}, {"bike_id": "fa32e9b3935e00342bd892cb30a7e818", "type": "electric_bike", "is_disabled": 0, "lat": 39.04306866666667, "rental_uris": {"ios": "https://dc.lft.to/lastmile_qr_scan", "android": "https://dc.lft.to/lastmile_qr_scan"}, "is_reserved": 0, "fusion_lon": 0.0, "fusion_lat": 0.0, "lon": -77.051598, "name": "fa32e9b3935e00342bd892cb30a7e818"}, {"bike_id": "7a1732fad16bc69b323f7f69497cd5ed", "type": "electric_scooter", "is_disabled": 0, "lat": 38.904248833333334, "rental_uris": {"ios": "https://dc.lft.to/lastmile_qr_scan", "android": "https://dc.lft.to/lastmile_qr_scan"}, "is_reserved": 0, "fusion_lon": 0.0, "fusion_lat": 0.0, "lon": -77.0488385, "name": "7a1732fad16bc69b323f7f69497cd5ed"}, {"bike_id": "72869669938062b922d6ea5047ab1d2f", "type": "electric_scooter", "is_disabled": 0, "lat": 38.920264833333334, "rental_uris": {"ios": "https://dc.lft.to/lastmile_qr_scan", "android": "https://dc.lft.to/lastmile_qr_scan"}, "is_reserved": 0, "fusion_lon": 0.0, "fusion_lat": 0.0, "lon": -77.04082883333334, "name": "72869669938062b922d6ea5047ab1d2f"}, {"bike_id": "e85bb0c3b436959d2f7e88de4e1c5b05", "type": "electric_scooter", "is_disabled": 0, "lat": 38.92798633333334, "rental_uris": {"ios": "https://dc.lft.to/lastmile_qr_scan", "android": "https://dc.lft.to/lastmile_qr_scan"}, "is_reserved": 0, "fusion_lon": 0.0, "fusion_lat": 0.0, "lon": -77.03201666666666, "name": "e85bb0c3b436959d2f7e88de4e1c5b05"}, {"bike_id": "25ea38ae25c75adfb8e7cb2b8b70b7ca", "type": "electric_scooter", "is_disabled": 0, "lat": 38.905535, "rental_uris": {"ios": "https://dc.lft.to/lastmile_qr_scan", "android": "https://dc.lft.to/lastmile_qr_scan"}, "is_reserved": 0, "fusion_lon": 0.0, "fusion_lat": 0.0, "lon": -77.065264, "name": "25ea38ae25c75adfb8e7cb2b8b70b7ca"}, {"bike_id": "82752ac59f1a66675a1655ad3909fa88", "type": "electric_scooter", "is_disabled": 0, "lat": 38.903677333333334, "rental_uris": {"ios": "https://dc.lft.to/lastmile_qr_scan", "android": "https://dc.lft.to/lastmile_qr_scan"}, "is_reserved": 0, "fusion_lon": 0.0, "fusion_lat": 0.0, "lon": -76.9994495, "name": "82752ac59f1a66675a1655ad3909fa88"}, {"bike_id": "fd014a2540fea9fb099f6fab8cfbaf3a", "type": "electric_scooter", "is_disabled": 0, "lat": 38.87838833333333, "rental_uris": {"ios": "https://dc.lft.to/lastmile_qr_scan", "android": "https://dc.lft.to/lastmile_qr_scan"}, "is_reserved": 0, "fusion_lon": 0.0, "fusion_lat": 0.0, "lon": -76.98618016666667, "name": "fd014a2540fea9fb099f6fab8cfbaf3a"}, {"bike_id": "a723b78f4231521fb9c7469f6d25d08e", "type": "electric_scooter", "is_disabled": 0, "lat": 38.932925, "rental_uris": {"ios": "https://dc.lft.to/lastmile_qr_scan", "android": "https://dc.lft.to/lastmile_qr_scan"}, "is_reserved": 0, "fusion_lon": 0.0, "fusion_lat": 0.0, "lon": -77.03544733333334, "name": "a723b78f4231521fb9c7469f6d25d08e"}, {"bike_id": "82e84761d6fb8e9e160fd6c55387df71", "type": "electric_scooter", "is_disabled": 0, "lat": 38.88925483333333, "rental_uris": {"ios": "https://dc.lft.to/lastmile_qr_scan", "android": "https://dc.lft.to/lastmile_qr_scan"}, "is_reserved": 0, "fusion_lon": 0.0, "fusion_lat": 0.0, "lon": -76.93580516666667, "name": "82e84761d6fb8e9e160fd6c55387df71"}, {"bike_id": "a8857912e285cd5e4b3e65eed4c0369a", "type": "electric_scooter", "is_disabled": 0, "lat": 38.9096615, "rental_uris": {"ios": "https://dc.lft.to/lastmile_qr_scan", "android": "https://dc.lft.to/lastmile_qr_scan"}, "is_reserved": 0, "fusion_lon": 0.0, "fusion_lat": 0.0, "lon": -77.04646633333333, "name": "a8857912e285cd5e4b3e65eed4c0369a"}, {"bike_id": "e42a1e728d9f8432069149bb13015cdd", "type": "electric_bike", "is_disabled": 0, "lat": 39.052818333333335, "rental_uris": {"ios": "https://dc.lft.to/lastmile_qr_scan", "android": "https://dc.lft.to/lastmile_qr_scan"}, "is_reserved": 0, "fusion_lon": 0.0, "fusion_lat": 0.0, "lon": -77.08072383333334, "name": "e42a1e728d9f8432069149bb13015cdd"}, {"bike_id": "61b96ac4363df109bff667ee5b72bf9e", "type": "electric_scooter", "is_disabled": 0, "lat": 38.9443615, "rental_uris": {"ios": "https://dc.lft.to/lastmile_qr_scan", "android": "https://dc.lft.to/lastmile_qr_scan"}, "is_reserved": 0, "fusion_lon": 0.0, "fusion_lat": 0.0, "lon": -77.01447066666667, "name": "61b96ac4363df109bff667ee5b72bf9e"}, {"bike_id": "6035eec5cea77281188181075b1b0ce4", "type": "electric_scooter", "is_disabled": 0, "lat": 38.930988166666666, "rental_uris": {"ios": "https://dc.lft.to/lastmile_qr_scan", "android": "https://dc.lft.to/lastmile_qr_scan"}, "is_reserved": 0, "fusion_lon": 0.0, "fusion_lat": 0.0, "lon": -77.024803, "name": "6035eec5cea77281188181075b1b0ce4"}, {"bike_id": "5ae3ed3f7565ef5f91b152092c191795", "type": "electric_scooter", "is_disabled": 0, "lat": 38.90166633333333, "rental_uris": {"ios": "https://dc.lft.to/lastmile_qr_scan", "android": "https://dc.lft.to/lastmile_qr_scan"}, "is_reserved": 0, "fusion_lon": 0.0, "fusion_lat": 0.0, "lon": -76.98079283333334, "name": "5ae3ed3f7565ef5f91b152092c191795"}, {"bike_id": "3a6fb6a3f84f36ca1f5b32ed2e04b5fb", "type": "electric_scooter", "is_disabled": 0, "lat": 38.9347305, "rental_uris": {"ios": "https://dc.lft.to/lastmile_qr_scan", "android": "https://dc.lft.to/lastmile_qr_scan"}, "is_reserved": 0, "fusion_lon": 0.0, "fusion_lat": 0.0, "lon": -77.03581, "name": "3a6fb6a3f84f36ca1f5b32ed2e04b5fb"}, {"bike_id": "7c8b7b0510722d01966a62c0f0fbb82a", "type": "electric_scooter", "is_disabled": 0, "lat": 38.933398833333335, "rental_uris": {"ios": "https://dc.lft.to/lastmile_qr_scan", "android": "https://dc.lft.to/lastmile_qr_scan"}, "is_reserved": 0, "fusion_lon": 0.0, "fusion_lat": 0.0, "lon": -77.02057766666667, "name": "7c8b7b0510722d01966a62c0f0fbb82a"}, {"bike_id": "821c4eb4f29024e3b10b41e3e264aa30", "type": "electric_scooter", "is_disabled": 0, "lat": 38.931326166666665, "rental_uris": {"ios": "https://dc.lft.to/lastmile_qr_scan", "android": "https://dc.lft.to/lastmile_qr_scan"}, "is_reserved": 0, "fusion_lon": 0.0, "fusion_lat": 0.0, "lon": -76.99576216666667, "name": "821c4eb4f29024e3b10b41e3e264aa30"}, {"bike_id": "78ece937f1621ab43e8421ede992152f", "type": "electric_scooter", "is_disabled": 0, "lat": 38.86698666666667, "rental_uris": {"ios": "https://dc.lft.to/lastmile_qr_scan", "android": "https://dc.lft.to/lastmile_qr_scan"}, "is_reserved": 0, "fusion_lon": 0.0, "fusion_lat": 0.0, "lon": -76.98718666666667, "name": "78ece937f1621ab43e8421ede992152f"}, {"bike_id": "be9261573f1046d132e8f4322b469d67", "type": "electric_scooter", "is_disabled": 0, "lat": 38.907086666666665, "rental_uris": {"ios": "https://dc.lft.to/lastmile_qr_scan", "android": "https://dc.lft.to/lastmile_qr_scan"}, "is_reserved": 0, "fusion_lon": 0.0, "fusion_lat": 0.0, "lon": -77.02383633333334, "name": "be9261573f1046d132e8f4322b469d67"}, {"bike_id": "154f758d5ddf811317fd7d519e697f9b", "type": "electric_scooter", "is_disabled": 0, "lat": 38.881345833333334, "rental_uris": {"ios": "https://dc.lft.to/lastmile_qr_scan", "android": "https://dc.lft.to/lastmile_qr_scan"}, "is_reserved": 0, "fusion_lon": 0.0, "fusion_lat": 0.0, "lon": -76.98351066666666, "name": "154f758d5ddf811317fd7d519e697f9b"}, {"bike_id": "bf66033745044ec1758045a24384a79f", "type": "electric_scooter", "is_disabled": 0, "lat": 38.94745533333333, "rental_uris": {"ios": "https://dc.lft.to/lastmile_qr_scan", "android": "https://dc.lft.to/lastmile_qr_scan"}, "is_reserved": 0, "fusion_lon": 0.0, "fusion_lat": 0.0, "lon": -77.07590766666667, "name": "bf66033745044ec1758045a24384a79f"}, {"bike_id": "40d1253fe425bb318326b05c46d861e6", "type": "electric_scooter", "is_disabled": 0, "lat": 38.91700083333333, "rental_uris": {"ios": "https://dc.lft.to/lastmile_qr_scan", "android": "https://dc.lft.to/lastmile_qr_scan"}, "is_reserved": 0, "fusion_lon": 0.0, "fusion_lat": 0.0, "lon": -77.00648833333334, "name": "40d1253fe425bb318326b05c46d861e6"}, {"bike_id": "a36e16a31002f84a5d3589c74c99009f", "type": "electric_scooter", "is_disabled": 0, "lat": 38.91264316666667, "rental_uris": {"ios": "https://dc.lft.to/lastmile_qr_scan", "android": "https://dc.lft.to/lastmile_qr_scan"}, "is_reserved": 0, "fusion_lon": 0.0, "fusion_lat": 0.0, "lon": -77.0176355, "name": "a36e16a31002f84a5d3589c74c99009f"}, {"bike_id": "4b60936d058c9f0ce8a012e4319c5003", "type": "electric_scooter", "is_disabled": 0, "lat": 38.918235, "rental_uris": {"ios": "https://dc.lft.to/lastmile_qr_scan", "android": "https://dc.lft.to/lastmile_qr_scan"}, "is_reserved": 0, "fusion_lon": 0.0, "fusion_lat": 0.0, "lon": -77.04941216666667, "name": "4b60936d058c9f0ce8a012e4319c5003"}, {"bike_id": "8cd4ca7441b0fa3566c479c8982b9b36", "type": "electric_scooter", "is_disabled": 0, "lat": 38.920505166666665, "rental_uris": {"ios": "https://dc.lft.to/lastmile_qr_scan", "android": "https://dc.lft.to/lastmile_qr_scan"}, "is_reserved": 0, "fusion_lon": 0.0, "fusion_lat": 0.0, "lon": -77.02381016666666, "name": "8cd4ca7441b0fa3566c479c8982b9b36"}, {"bike_id": "bc2a79ff47a81d45a29155da1f2f16dc", "type": "electric_scooter", "is_disabled": 0, "lat": 38.917019833333335, "rental_uris": {"ios": "https://dc.lft.to/lastmile_qr_scan", "android": "https://dc.lft.to/lastmile_qr_scan"}, "is_reserved": 0, "fusion_lon": 0.0, "fusion_lat": 0.0, "lon": -77.02377583333333, "name": "bc2a79ff47a81d45a29155da1f2f16dc"}, {"bike_id": "ae16f31cb2fb8b5a962085c51d17b7bb", "type": "electric_scooter", "is_disabled": 0, "lat": 38.88425816666667, "rental_uris": {"ios": "https://dc.lft.to/lastmile_qr_scan", "android": "https://dc.lft.to/lastmile_qr_scan"}, "is_reserved": 0, "fusion_lon": 0.0, "fusion_lat": 0.0, "lon": -76.9574685, "name": "ae16f31cb2fb8b5a962085c51d17b7bb"}, {"bike_id": "f9cc0fd8af21e66b2709fbe116bd6656", "type": "electric_scooter", "is_disabled": 0, "lat": 38.910484, "rental_uris": {"ios": "https://dc.lft.to/lastmile_qr_scan", "android": "https://dc.lft.to/lastmile_qr_scan"}, "is_reserved": 0, "fusion_lon": 0.0, "fusion_lat": 0.0, "lon": -77.02197633333333, "name": "f9cc0fd8af21e66b2709fbe116bd6656"},