{"data": {"bikes": [{"lat": 38.928234, "is_disabled": 0, "type": "electric_scooter", "lon": -77.05430683333333, "bike_id": "d9b1e8ad16f5a1012c18f7c09aeee4b7", "fusion_lat": 0.0, "name": "d9b1e8ad16f5a1012c18f7c09aeee4b7", "is_reserved": 0, "rental_uris": {"android": "https://dc.lft.to/lastmile_qr_scan", "ios": "https://dc.lft.to/lastmile_qr_scan"}, "fusion_lon": 0.0}, {"lat": 38.905857166666664, "is_disabled": 0, "type": "electric_scooter", "lon": -76.98622366666666, "bike_id": "ad0ba2de72adb96c23ca40b0b293143e", "fusion_lat": 0.0, "name": "ad0ba2de72adb96c23ca40b0b293143e", "is_reserved": 0, "rental_uris": {"android": "https://dc.lft.to/lastmile_qr_scan", "ios": "https://dc.lft.to/lastmile_qr_scan"}, "fusion_lon": 0.0}, {"lat": 38.91266733333333, "is_disabled": 0, "type": "electric_scooter", "lon": -77.02250183333334, "bike_id": "d84540964cbbd6953d8f4cbebd0974cb", "fusion_lat": 0.0, "name": "d84540964cbbd6953d8f4cbebd0974cb", "is_reserved": 0, "rental_uris": {"android": "https://dc.lft.to/lastmile_qr_scan", "ios": "https://dc.lft.to/lastmile_qr_scan"}, "fusion_lon": 0.0}, {"lat": 38.90716366666667, "is_disabled": 0, "type": "electric_scooter", "lon": -77.0481835, "bike_id": "ecb0658f96a9643f77a33a3d667e18bc", "fusion_lat": 0.0, "name": "ecb0658f96a9643f77a33a3d667e18bc", "is_reserved": 0, "rental_uris": {"android": "https://dc.lft.to/lastmile_qr_scan", "ios": "https://dc.lft.to/lastmile_qr_scan"}, "fusion_lon": 0.0}, {"lat": 38.867137666666665, "is_disabled": 0, "type": "electric_scooter", "lon": -76.98724866666667, "bike_id": "754ff7d31fbe313ce9bb3de637ebbdbe", "fusion_lat": 0.0, "name": "754ff7d31fbe313ce9bb3de637ebbdbe", "is_reserved": 0, "rental_uris": {"android": "https://dc.lft.to/lastmile_qr_scan", "ios": "https://dc.lft.to/lastmile_qr_scan"}, "fusion_lon": 0.0}, {"lat": 38.901407, "is_disabled": 0, "type": "electric_scooter", "lon": -77.04192516666667, "bike_id": "ae3ad016c801517ff5f3a5a200262232", "fusion_lat": 0.0, "name": "ae3ad016c801517ff5f3a5a200262232", "is_reserved": 0, "rental_uris": {"android": "https://dc.lft.to/lastmile_qr_scan", "ios": "https://dc.lft.to/lastmile_qr_scan"}, "fusion_lon": 0.0}, {"lat": 38.908646166666664, "is_disabled": 0, "type": "electric_bike", "lon": -76.94009816666667, "bike_id": "5806a8a2cfdf25b425bbc00b30cb0ab0", "fusion_lat": 0.0, "name": "5806a8a2cfdf25b425bbc00b30cb0ab0", "is_reserved": 0, "rental_uris": {"android": "https://dc.lft.to/lastmile_qr_scan", "ios": "https://dc.lft.to/lastmile_qr_scan"}, "fusion_lon": 0.0}, {"lat": 38.906692666666665, "is_disabled": 0, "type": "electric_scooter", "lon": -77.036497, "bike_id": "24ab5520d055daa6410c8c6be37e2810", "fusion_lat": 0.0, "name": "24ab5520d055daa6410c8c6be37e2810", "is_reserved": 0, "rental_uris": {"android": "https://dc.lft.to/lastmile_qr_scan", "ios": "https://dc.lft.to/lastmile_qr_scan"}, "fusion_lon": 0.0}, {"lat": 38.907781, "is_disabled": 0, "type": "electric_scooter", "lon": -77.03836116666666, "bike_id": "ce4ba0afd0ce88a56ba1cd3a7a3a13a2", "fusion_lat": 0.0, "name": "ce4ba0afd0ce88a56ba1cd3a7a3a13a2", "is_reserved": 0, "rental_uris": {"android": "https://dc.lft.to/lastmile_qr_scan", "ios": "https://dc.lft.to/lastmile_qr_scan"}, "fusion_lon": 0.0}, {"lat": 38.845082833333336, "is_disabled": 0, "type": "electric_bike", "lon": -76.99355066666666, "bike_id": "1d92c5fc45bfa9bceec5bf0dd71cf193", "fusion_lat": 0.0, "name": "1d92c5fc45bfa9bceec5bf0dd71cf193", "is_reserved": 0, "rental_uris": {"android": "https://dc.lft.to/lastmile_qr_scan", "ios": "https://dc.lft.to/lastmile_qr_scan"}, "fusion_lon": 0.0}, {"lat": 38.91279516666667, "is_disabled": 0, "type": "electric_scooter", "lon": -77.0450825, "bike_id": "303d4ce091fa3e8d15eaafa2a3211d70", "fusion_lat": 0.0, "name": "303d4ce091fa3e8d15eaafa2a3211d70", "is_reserved": 0, "rental_uris": {"android": "https://dc.lft.to/lastmile_qr_scan", "ios": "https://dc.lft.to/lastmile_qr_scan"}, "fusion_lon": 0.0}, {"lat": 38.8965595, "is_disabled": 0, "type": "electric_scooter", "lon": -77.00519683333333, "bike_id": "d1acedd40a374cbf8264863893d60e61", "fusion_lat": 0.0, "name": "d1acedd40a374cbf8264863893d60e61", "is_reserved": 0, "rental_uris": {"android": "https://dc.lft.to/lastmile_qr_scan", "ios": "https://dc.lft.to/lastmile_qr_scan"}, "fusion_lon": 0.0}, {"lat": 38.906132166666666, "is_disabled": 0, "type": "electric_scooter", "lon": -77.01880766666666, "bike_id": "4e2b370d78ae1b00de85eaef881383f9", "fusion_lat": 0.0, "name": "4e2b370d78ae1b00de85eaef881383f9", "is_reserved": 0, "rental_uris": {"android": "https://dc.lft.to/lastmile_qr_scan", "ios": "https://dc.lft.to/lastmile_qr_scan"}, "fusion_lon": 0.0}, {"lat": 39.05209466666667, "is_disabled": 0, "type": "electric_bike", "lon": -77.10907916666666, "bike_id": "040933956bfb3edb1c1036ab2c7179b7", "fusion_lat": 0.0, "name": "040933956bfb3edb1c1036ab2c7179b7", "is_reserved": 0, "rental_uris": {"android": "https://dc.lft.to/lastmile_qr_scan", "ios": "https://dc.lft.to/lastmile_qr_scan"}, "fusion_lon": 0.0}, {"lat": 38.859093, "is_disabled": 0, "type": "electric_scooter", "lon": -76.99151583333334, "bike_id": "338d762096a1a409284908ea82bedbed", "fusion_lat": 0.0, "name": "338d762096a1a409284908ea82bedbed", "is_reserved": 0, "rental_uris": {"android": "https://dc.lft.to/lastmile_qr_scan", "ios": "https://dc.lft.to/lastmile_qr_scan"}, "fusion_lon": 0.0}, {"lat": 38.919454, "is_disabled": 0, "type": "electric_scooter", "lon": -77.02447516666666, "bike_id": "4d39dd628a018715c892eea3027bc337", "fusion_lat": 0.0, "name": "4d39dd628a018715c892eea3027bc337", "is_reserved": 0, "rental_uris": {"android": "https://dc.lft.to/lastmile_qr_scan", "ios": "https://dc.lft.to/lastmile_qr_scan"}, "fusion_lon": 0.0}, {"lat": 38.9388625, "is_disabled": 0, "type": "electric_bike", "lon": -76.99502150000001, "bike_id": "47710c13a6b4ab747a23bddf79231ff7", "fusion_lat": 0.0, "name": "47710c13a6b4ab747a23bddf79231ff7", "is_reserved": 0, "rental_uris": {"android": "https://dc.lft.to/lastmile_qr_scan", "ios": "https://dc.lft.to/lastmile_qr_scan"}, "fusion_lon": 0.0}, {"lat": 38.9020825, "is_disabled": 0, "type": "electric_scooter", "lon": -77.02378983333334, "bike_id": "2d47ccc7fd73697e9b47b458b55f873a", "fusion_lat": 0.0, "name": "2d47ccc7fd73697e9b47b458b55f873a", "is_reserved": 0, "rental_uris": {"android": "https://dc.lft.to/lastmile_qr_scan", "ios": "https://dc.lft.to/lastmile_qr_scan"}, "fusion_lon": 0.0}, {"lat": 38.89901833333333, "is_disabled": 0, "type": "electric_scooter", "lon": -76.9334965, "bike_id": "e9cd105e5f07b014e7b235decda6bd45", "fusion_lat": 0.0, "name": "e9cd105e5f07b014e7b235decda6bd45", "is_reserved": 0, "rental_uris": {"android": "https://dc.lft.to/lastmile_qr_scan", "ios": "https://dc.lft.to/lastmile_qr_scan"}, "fusion_lon": 0.0}, {"lat": 38.952682, "is_disabled": 0, "type": "electric_scooter", "lon": -77.06860533333334, "bike_id": "9a34dcf75999b01c0f81275bbe31067f", "fusion_lat": 0.0, "name": "9a34dcf75999b01c0f81275bbe31067f", "is_reserved": 0, "rental_uris": {"android": "https://dc.lft.to/lastmile_qr_scan", "ios": "https://dc.lft.to/lastmile_qr_scan"}, "fusion_lon": 0.0}, {"lat": 38.86658833333333, "is_disabled": 0, "type": "electric_scooter", "lon": -76.9889605, "bike_id": "79b58899c7a40d9fbd167090be6cf50b", "fusion_lat": 0.0, "name": "79b58899c7a40d9fbd167090be6cf50b", "is_reserved": 0, "rental_uris": {"android": "https://dc.lft.to/lastmile_qr_scan", "ios": "https://dc.lft.to/lastmile_qr_scan"}, "fusion_lon": 0.0}, {"lat": 38.915562666666666, "is_disabled": 0, "type": "electric_scooter", "lon": -77.053269, "bike_id": "57dda33af524a5936cf6a19cc9273adf", "fusion_lat": 0.0, "name": "57dda33af524a5936cf6a19cc9273adf", "is_reserved": 0, "rental_uris": {"android": "https://dc.lft.to/lastmile_qr_scan", "ios": "https://dc.lft.to/lastmile_qr_scan"}, "fusion_lon": 0.0}, {"lat": 38.92363783333333, "is_disabled": 0, "type": "electric_scooter", "lon": -77.05053833333334, "bike_id": "f9220447f503df5767fb6df4f70d5d44", "fusion_lat": 0.0, "name": "f9220447f503df5767fb6df4f70d5d44", "is_reserved": 0, "rental_uris": {"android": "https://dc.lft.to/lastmile_qr_scan", "ios": "https://dc.lft.to/lastmile_qr_scan"}, "fusion_lon": 0.0}, {"lat": 38.9057125, "is_disabled": 0, "type": "electric_scooter", "lon": -77.03417266666666, "bike_id": "e964f4ffbb64227daafe90027117fe85", "fusion_lat": 0.0, "name": "e964f4ffbb64227daafe90027117fe85", "is_reserved": 0, "rental_uris": {"android": "https://dc.lft.to/lastmile_qr_scan", "ios": "https://dc.lft.to/lastmile_qr_scan"}, "fusion_lon": 0.0}, {"lat": 38.917355, "is_disabled": 0, "type": "electric_scooter", "lon": -77.03643133333334, "bike_id": "2cb1ea9d7bca109a48b0795e6a6833e2", "fusion_lat": 0.0, "name": "2cb1ea9d7bca109a48b0795e6a6833e2", "is_reserved": 0, "rental_uris": {"android": "https://dc.lft.to/lastmile_qr_scan", "ios": "https://dc.lft.to/lastmile_qr_scan"}, "fusion_lon": 0.0}, {"lat": 38.914297833333336, "is_disabled": 0, "type": "electric_scooter", "lon": -77.03186066666666, "bike_id": "732bb091fc894398da8b31d3b0e291b9", "fusion_lat": 0.0, "name": "732bb091fc894398da8b31d3b0e291b9", "is_reserved": 0, "rental_uris": {"android": "https://dc.lft.to/lastmile_qr_scan", "ios": "https://dc.lft.to/lastmile_qr_scan"}, "fusion_lon": 0.0}, {"lat": 38.92386416666667, "is_disabled": 0, "type": "electric_scooter", "lon": -77.03543083333334, "bike_id": "d49f7b3dffa9d59ec9a4b9361a67e398", "fusion_lat": 0.0, "name": "d49f7b3dffa9d59ec9a4b9361a67e398", "is_reserved": 0, "rental_uris": {"android": "https://dc.lft.to/lastmile_qr_scan", "ios": "https://dc.lft.to/lastmile_qr_scan"}, "fusion_lon": 0.0}, {"lat": 38.90534816666667, "is_disabled": 0, "type": "electric_scooter", "lon": -77.05147916666667, "bike_id": "68357fb2781af9cad81def2bcc40d6b8", "fusion_lat": 0.0, "name": "68357fb2781af9cad81def2bcc40d6b8", "is_reserved": 0, "rental_uris": {"android": "https://dc.lft.to/lastmile_qr_scan", "ios": "https://dc.lft.to/lastmile_qr_scan"}, "fusion_lon": 0.0}, {"lat": 38.858046, "is_disabled": 0, "type": "electric_scooter", "lon": -76.98711383333334, "bike_id": "5117fd2b4ce8c5f228827e7bd3ccd4e2", "fusion_lat": 0.0, "name": "5117fd2b4ce8c5f228827e7bd3ccd4e2", "is_reserved": 0, "rental_uris": {"android": "https://dc.lft.to/lastmile_qr_scan", "ios": "https://dc.lft.to/lastmile_qr_scan"}, "fusion_lon": 0.0}, {"lat": 38.880371, "is_disabled": 0, "type": "electric_scooter", "lon": -77.003719, "bike_id": "0f02768618e2890de4d9c701b2d95a64", "fusion_lat": 0.0, "name": "0f02768618e2890de4d9c701b2d95a64", "is_reserved": 0, "rental_uris": {"android": "https://dc.lft.to/lastmile_qr_scan", "ios": "https://dc.lft.to/lastmile_qr_scan"}, "fusion_lon": 0.0}, {"lat": 38.918186, "is_disabled": 0, "type": "electric_scooter", "lon": -77.02487566666667, "bike_id": "e8898c7060b1d5a252723abe7cf4e318", "fusion_lat": 0.0, "name": "e8898c7060b1d5a252723abe7cf4e318", "is_reserved": 0, "rental_uris": {"android": "https://dc.lft.to/lastmile_qr_scan", "ios": "https://dc.lft.to/lastmile_qr_scan"}, "fusion_lon": 0.0}, {"lat": 38.92155833333333, "is_disabled": 0, "type": "electric_scooter", "lon": -77.035143, "bike_id": "9ffc4b1fed537ecd8a93f304a0a7cdbe", "fusion_lat": 0.0, "name": "9ffc4b1fed537ecd8a93f304a0a7cdbe", "is_reserved": 0, "rental_uris": {"android": "https://dc.lft.to/lastmile_qr_scan", "ios": "https://dc.lft.to/lastmile_qr_scan"}, "fusion_lon": 0.0}, {"lat": 38.90942016666666, "is_disabled": 0, "type": "electric_bike", "lon": -77.04865283333334, "bike_id": "044a77f314389f23169b436b640ae149", "fusion_lat": 0.0, "name": "044a77f314389f23169b436b640ae149", "is_reserved": 0, "rental_uris": {"android": "https://dc.lft.to/lastmile_qr_scan", "ios": "https://dc.lft.to/lastmile_qr_scan"}, "fusion_lon": 0.0}, {"lat": 38.92905366666667, "is_disabled": 0, "type": "electric_scooter", "lon": -77.03733166666666, "bike_id": "7750fd307a1ea0fba90d531a0dd1c116", "fusion_lat": 0.0, "name": "7750fd307a1ea0fba90d531a0dd1c116", "is_reserved": 0, "rental_uris": {"android": "https://dc.lft.to/lastmile_qr_scan", "ios": "https://dc.lft.to/lastmile_qr_scan"}, "fusion_lon": 0.0}, {"lat": 38.913244, "is_disabled": 0, "type": "electric_scooter", "lon": -77.04001183333334, "bike_id": "74119c6381fcfbf8657c6dcabb4f18c2", "fusion_lat": 0.0, "name": "74119c6381fcfbf8657c6dcabb4f18c2", "is_reserved": 0, "rental_uris": {"android": "https://dc.lft.to/lastmile_qr_scan", "ios": "https://dc.lft.to/lastmile_qr_scan"}, "fusion_lon": 0.0}, {"lat": 38.92365683333333, "is_disabled": 0, "type": "electric_scooter", "lon": -77.05056833333333, "bike_id": "9b4ab45aac5285c378f890f43b0b29a7", "fusion_lat": 0.0, "name": "9b4ab45aac5285c378f890f43b0b29a7", "is_reserved": 0, "rental_uris": {"android": "https://dc.lft.to/lastmile_qr_scan", "ios": "https://dc.lft.to/lastmile_qr_scan"}, "fusion_lon": 0.0}, {"lat": 38.922777833333335, "is_disabled": 0, "type": "electric_scooter", "lon": -77.04481483333333, "bike_id": "0a2a39d8a3b7092819d9b7d6dc7b295a", "fusion_lat": 0.0, "name": "0a2a39d8a3b7092819d9b7d6dc7b295a", "is_reserved": 0, "rental_uris": {"android": "https://dc.lft.to/lastmile_qr_scan", "ios": "https://dc.lft.to/lastmile_qr_scan"}, "fusion_lon": 0.0}, {"lat": 38.9065855, "is_disabled": 0, "type": "electric_scooter", "lon": -77.07425366666666, "bike_id": "baadcd0a191b8a046002f90e09a1c1aa", "fusion_lat": 0.0, "name": "baadcd0a191b8a046002f90e09a1c1aa", "is_reserved": 0, "rental_uris": {"android": "https://dc.lft.to/lastmile_qr_scan", "ios": "https://dc.lft.to/lastmile_qr_scan"}, "fusion_lon": 0.0}, {"lat": 38.91185216666667, "is_disabled": 0, "type": "electric_scooter", "lon": -77.00448783333333, "bike_id": "9d660e0f8f7b45b244d4ff67fde602d9", "fusion_lat": 0.0, "name": "9d660e0f8f7b45b244d4ff67fde602d9", "is_reserved": 0, "rental_uris": {"android": "https://dc.lft.to/lastmile_qr_scan", "ios": "https://dc.lft.to/lastmile_qr_scan"}, "fusion_lon": 0.0}, {"lat": 38.90515283333333, "is_disabled": 0, "type": "electric_scooter", "lon": -77.041525, "bike_id": "b41c9503694a60ded5647d4bc32f32e8", "fusion_lat": 0.0, "name": "b41c9503694a60ded5647d4bc32f32e8", "is_reserved": 0, "rental_uris": {"android": "https://dc.lft.to/lastmile_qr_scan", "ios": "https://dc.lft.to/lastmile_qr_scan"}, "fusion_lon": 0.0}, {"lat": 38.905298333333334, "is_disabled": 0, "type": "electric_scooter", "lon": -77.029486, "bike_id": "5bb5049df27feb95e526e75ad5f1ea45", "fusion_lat": 0.0, "name": "5bb5049df27feb95e526e75ad5f1ea45", "is_reserved": 0, "rental_uris": {"android": "https://dc.lft.to/lastmile_qr_scan", "ios": "https://dc.lft.to/lastmile_qr_scan"}, "fusion_lon": 0.0}, {"lat": 38.949252333333334, "is_disabled": 0, "type": "electric_scooter", "lon": -77.01935933333333, "bike_id": "af798fad07daa3de519d46ffeaac66ce", "fusion_lat": 0.0, "name": "af798fad07daa3de519d46ffeaac66ce", "is_reserved": 0, "rental_uris": {"android": "https://dc.lft.to/lastmile_qr_scan", "ios": "https://dc.lft.to/lastmile_qr_scan"}, "fusion_lon": 0.0}, {"lat": 38.90516866666667, "is_disabled": 0, "type": "electric_scooter", "lon": -77.04166233333333, "bike_id": "4c2a5578649f50bd0584ffd1dbd95432", "fusion_lat": 0.0, "name": "4c2a5578649f50bd0584ffd1dbd95432", "is_reserved": 0, "rental_uris": {"android": "https://dc.lft.to/lastmile_qr_scan", "ios": "https://dc.lft.to/lastmile_qr_scan"}, "fusion_lon": 0.0}, {"lat": 38.926120833333336, "is_disabled": 0, "type": "electric_scooter", "lon": -76.99602366666667, "bike_id": "f2c6e25911aa9d22a3e3edc72a2a202a", "fusion_lat": 0.0, "name": "f2c6e25911aa9d22a3e3edc72a2a202a", "is_reserved": 0, "rental_uris": {"android": "https://dc.lft.to/lastmile_qr_scan", "ios": "https://dc.lft.to/lastmile_qr_scan"}, "fusion_lon": 0.0}, {"lat": 38.91556333333333, "is_disabled": 0, "type": "electric_scooter", "lon": -77.03864866666666, "bike_id": "7fb822512465bef961c2e1bce13fca42", "fusion_lat": 0.0, "name": "7fb822512465bef961c2e1bce13fca42", "is_reserved": 0, "rental_uris": {"android": "https://dc.lft.to/lastmile_qr_scan", "ios": "https://dc.lft.to/lastmile_qr_scan"}, "fusion_lon": 0.0}, {"lat": 38.892185166666664, "is_disabled": 0, "type": "electric_scooter", "lon": -77.02781, "bike_id": "73394203291d8b25c14577d20df8fe81", "fusion_lat": 0.0, "name": "73394203291d8b25c14577d20df8fe81", "is_reserved": 0, "rental_uris": {"android": "https://dc.lft.to/lastmile_qr_scan", "ios": "https://dc.lft.to/lastmile_qr_scan"}, "fusion_lon": 0.0}, {"lat": 38.889988333333335, "is_disabled": 0, "type": "electric_scooter", "lon": -76.95416466666667, "bike_id": "4494b375ce0f61781d7fa4e5b67a8f7c", "fusion_lat": 0.0, "name": "4494b375ce0f61781d7fa4e5b67a8f7c", "is_reserved": 0, "rental_uris": {"android": "https://dc.lft.to/lastmile_qr_scan", "ios": "https://dc.lft.to/lastmile_qr_scan"}, "fusion_lon": 0.0}, {"lat": 38.91268933333333, "is_disabled": 0, "type": "electric_scooter", "lon": -77.0225335, "bike_id": "c202513ad5d6edbd1baab4ca43b3f6ac", "fusion_lat": 0.0, "name": "c202513ad5d6edbd1baab4ca43b3f6ac", "is_reserved": 0, "rental_uris": {"android": "https://dc.lft.to/lastmile_qr_scan", "ios": "https://dc.lft.to/lastmile_qr_scan"}, "fusion_lon": 0.0}, {"lat": 38.895280166666666, "is_disabled": 0, "type": "electric_scooter", "lon": -77.00215933333334, "bike_id": "88106961fbb2b4d135b4461add040a1e", "fusion_lat": 0.0, "name": "88106961fbb2b4d135b4461add040a1e", "is_reserved": 0, "rental_uris": {"android": "https://dc.lft.to/lastmile_qr_scan", "ios": "https://dc.lft.to/lastmile_qr_scan"}, "fusion_lon": 0.0}, {"lat": 38.875789, "is_disabled": 0, "type": "electric_bike", "lon": -77.10562833333333, "bike_id": "c0bdccc90473ffb18f6c2d4651527be0", "fusion_lat": 0.0, "name": "c0bdccc90473ffb18f6c2d4651527be0", "is_reserved": 0, "rental_uris": {"android": "https://dc.lft.to/lastmile_qr_scan", "ios": "https://dc.lft.to/lastmile_qr_scan"}, "fusion_lon": 0.0}, {"lat": 38.913599833333336, "is_disabled": 0, "type": "electric_scooter", "lon": -77.03956116666667, "bike_id": "2d7647e4b8c79724080d4f5e7b2069d1", "fusion_lat": 0.0, "name": "2d7647e4b8c79724080d4f5e7b2069d1", "is_reserved": 0, "rental_uris": {"android": "https://dc.lft.to/lastmile_qr_scan", "ios": "https://dc.lft.to/lastmile_qr_scan"}, "fusion_lon": 0.0}, {"lat": 38.842702833333334, "is_disabled": 0, "type": "electric_bike", "lon": -76.988435, "bike_id": "7d36452fa44bfdf54246d532da0024e5", "fusion_lat": 0.0, "name": "7d36452fa44bfdf54246d532da0024e5", "is_reserved": 0, "rental_uris": {"android": "https://dc.lft.to/lastmile_qr_scan", "ios": "https://dc.lft.to/lastmile_qr_scan"}, "fusion_lon": 0.0}, {"lat": 38.8848865, "is_disabled": 0, "type": "electric_scooter", "lon": -77.0071025, "bike_id": "4faaf888b77ad86502dbd06faa74e752", "fusion_lat": 0.0, "name": "4faaf888b77ad86502dbd06faa74e752", "is_reserved": 0, "rental_uris": {"android": "https://dc.lft.to/lastmile_qr_scan", "ios": "https://dc.lft.to/lastmile_qr_scan"}, "fusion_lon": 0.0}, {"lat": 38.8663155, "is_disabled": 0, "type": "electric_scooter", "lon": -76.98695783333334, "bike_id": "f13c44b67d7be230a47f273a8316c26f", "fusion_lat": 0.0, "name": "f13c44b67d7be230a47f273a8316c26f", "is_reserved": 0, "rental_uris": {"android": "https://dc.lft.to/lastmile_qr_scan", "ios": "https://dc.lft.to/lastmile_qr_scan"}, "fusion_lon": 0.0}, {"lat": 38.905151833333335, "is_disabled": 0, "type": "electric_scooter", "lon": -77.04331433333333, "bike_id": "f1fce7ee6c55b9e2316640c58a744fc7", "fusion_lat": 0.0, "name": "f1fce7ee6c55b9e2316640c58a744fc7", "is_reserved": 0, "rental_uris": {"android": "https://dc.lft.to/lastmile_qr_scan", "ios": "https://dc.lft.to/lastmile_qr_scan"}, "fusion_lon": 0.0}, {"lat": 38.9181595, "is_disabled": 0, "type": "electric_scooter", "lon": -77.0248755, "bike_id": "8b652ce72ddd51b50739cc216649f8d0", "fusion_lat": 0.0, "name": "8b652ce72ddd51b50739cc216649f8d0", "is_reserved": 0, "rental_uris": {"android": "https://dc.lft.to/lastmile_qr_scan", "ios": "https://dc.lft.to/lastmile_qr_scan"}, "fusion_lon": 0.0}, {"lat": 38.9041665, "is_disabled": 0, "type": "electric_scooter", "lon": -77.02043216666667, "bike_id": "93e3cb129c5ae02924ed747901b0e92a", "fusion_lat": 0.0, "name": "93e3cb129c5ae02924ed747901b0e92a", "is_reserved": 0, "rental_uris": {"android": "https://dc.lft.to/lastmile_qr_scan", "ios": "https://dc.lft.to/lastmile_qr_scan"}, "fusion_lon": 0.0}, {"lat": 38.92332283333333, "is_disabled": 0, "type": "electric_scooter", "lon": -77.03205116666666, "bike_id": "ea7e6a61e190dca9b8ada8734e5288f4", "fusion_lat": 0.0, "name": "ea7e6a61e190dca9b8ada8734e5288f4", "is_reserved": 0, "rental_uris": {"android": "https://dc.lft.to/lastmile_qr_scan", "ios": "https://dc.lft.to/lastmile_qr_scan"}, "fusion_lon": 0.0}, {"lat": 38.923666833333336, "is_disabled": 0, "type": "electric_scooter", "lon": -77.05129183333334, "bike_id": "d02b18002276602adc850dfd3e218d2e", "fusion_lat": 0.0, "name": "d02b18002276602adc850dfd3e218d2e", "is_reserved": 0, "rental_uris": {"android": "https://dc.lft.to/lastmile_qr_scan", "ios": "https://dc.lft.to/lastmile_qr_scan"}, "fusion_lon": 0.0}, {"lat": 38.899382833333334, "is_disabled": 0, "type": "electric_scooter", "lon": -77.00353866666667, "bike_id": "33bcea87b223b4e7de5284ec9833a114", "fusion_lat": 0.0, "name": "33bcea87b223b4e7de5284ec9833a114", "is_reserved": 0, "rental_uris": {"android": "https://dc.lft.to/lastmile_qr_scan", "ios": "https://dc.lft.to/lastmile_qr_scan"}, "fusion_lon": 0.0}, {"lat": 38.90011416666667, "is_disabled": 0, "type": "electric_scooter", "lon": -76.922354, "bike_id": "a55f9b22bd338fa08e37d79d956f7a74", "fusion_lat": 0.0, "name": "a55f9b22bd338fa08e37d79d956f7a74", "is_reserved": 0, "rental_uris": {"android": "https://dc.lft.to/lastmile_qr_scan", "ios": "https://dc.lft.to/lastmile_qr_scan"}, "fusion_lon": 0.0}, {"lat": 38.91710916666667, "is_disabled": 0, "type": "electric_scooter", "lon": -77.02851383333334, "bike_id": "657063a72d4f8f8030c03a1a2bf1f46f", "fusion_lat": 0.0, "name": "657063a72d4f8f8030c03a1a2bf1f46f", "is_reserved": 0, "rental_uris": {"android": "https://dc.lft.to/lastmile_qr_scan", "ios": "https://dc.lft.to/lastmile_qr_scan"}, "fusion_lon": 0.0}, {"lat": 38.914561666666664, "is_disabled": 0, "type": "electric_scooter", "lon": -77.02977116666666, "bike_id": "ed8790e95f258159ed42dd8e6cd68e0e", "fusion_lat": 0.0, "name": "ed8790e95f258159ed42dd8e6cd68e0e", "is_reserved": 0, "rental_uris": {"android": "https://dc.lft.to/lastmile_qr_scan", "ios": "https://dc.lft.to/lastmile_qr_scan"}, "fusion_lon": 0.0}, {"lat": 38.933413333333334, "is_disabled": 0, "type": "electric_scooter", "lon": -76.99307583333334, "bike_id": "d9c8b5483451fd80c82c1a328374d920", "fusion_lat": 0.0, "name": "d9c8b5483451fd80c82c1a328374d920", "is_reserved": 0, "rental_uris": {"android": "https://dc.lft.to/lastmile_qr_scan", "ios": "https://dc.lft.to/lastmile_qr_scan"}, "fusion_lon": 0.0}, {"lat": 38.909619, "is_disabled": 0, "type": "electric_scooter", "lon": -77.02160016666667, "bike_id": "8476786c733514f3bca9f8da18f7b97e", "fusion_lat": 0.0, "name": "8476786c733514f3bca9f8da18f7b97e", "is_reserved": 0, "rental_uris": {"android": "https://dc.lft.to/lastmile_qr_scan", "ios": "https://dc.lft.to/lastmile_qr_scan"}, "fusion_lon": 0.0}, {"lat": 38.907104833333335, "is_disabled": 0, "type": "electric_scooter", "lon": -77.03100983333333, "bike_id": "469949ee8e5bb1f435b620f775441c6a", "fusion_lat": 0.0, "name": "469949ee8e5bb1f435b620f775441c6a", "is_reserved": 0, "rental_uris": {"android": "https://dc.lft.to/lastmile_qr_scan", "ios": "https://dc.lft.to/lastmile_qr_scan"}, "fusion_lon": 0.0}, {"lat": 38.923886333333336, "is_disabled": 0, "type": "electric_scooter", "lon": -77.05750716666667, "bike_id": "5d6bc1145c9370781bb96771f1f3e44d", "fusion_lat": 0.0, "name": "5d6bc1145c9370781bb96771f1f3e44d", "is_reserved": 0, "rental_uris": {"android": "https://dc.lft.to/lastmile_qr_scan", "ios": "https://dc.lft.to/lastmile_qr_scan"}, "fusion_lon": 0.0}, {"lat": 38.96942966666667, "is_disabled": 0, "type": "electric_bike", "lon": -77.03349833333333, "bike_id": "f03975af51bf462276061c12cccff219", "fusion_lat": 0.0, "name": "f03975af51bf462276061c12cccff219", "is_reserved": 0, "rental_uris": {"android": "https://dc.lft.to/lastmile_qr_scan", "ios": "https://dc.lft.to/lastmile_qr_scan"}, "fusion_lon": 0.0}, {"lat": 38.9088605, "is_disabled": 0, "type": "electric_scooter", "lon": -77.02271766666667, "bike_id": "d1951b167194b569059a47fc53e8fb79", "fusion_lat": 0.0, "name": "d1951b167194b569059a47fc53e8fb79", "is_reserved": 0, "rental_uris": {"android": "https://dc.lft.to/lastmile_qr_scan", "ios": "https://dc.lft.to/lastmile_qr_scan"}, "fusion_lon": 0.0}, {"lat": 38.96221516666667, "is_disabled": 0, "type": "electric_bike", "lon": -77.02630033333334, "bike_id": "5ceaeac6a09d178e1ecc92e573b2a850", "fusion_lat": 0.0, "name": "5ceaeac6a09d178e1ecc92e573b2a850", "is_reserved": 0, "rental_uris": {"android": "https://dc.lft.to/lastmile_qr_scan", "ios": "https://dc.lft.to/lastmile_qr_scan"}, "fusion_lon": 0.0}, {"lat": 38.920734833333334, "is_disabled": 0, "type": "electric_scooter", "lon": -77.02396883333333, "bike_id": "66f0b6af957d02d6c60aeb38d10a0b52", "fusion_lat": 0.0, "name": "66f0b6af957d02d6c60aeb38d10a0b52", "is_reserved": 0, "rental_uris": {"android": "https://dc.lft.to/lastmile_qr_scan", "ios": "https://dc.lft.to/lastmile_qr_scan"}, "fusion_lon": 0.0}, {"lat": 38.90265266666667, "is_disabled": 0, "type": "electric_scooter", "lon": -77.04384166666667, "bike_id": "22922c6373613990d0a89ef862f7236a", "fusion_lat": 0.0, "name": "22922c6373613990d0a89ef862f7236a", "is_reserved": 0, "rental_uris": {"android": "https://dc.lft.to/lastmile_qr_scan", "ios": "https://dc.lft.to/lastmile_qr_scan"}, "fusion_lon": 0.0}, {"lat": 38.903918166666664, "is_disabled": 0, "type": "electric_scooter", "lon": -77.00766633333333, "bike_id": "80db9a194a7e63b9542da4310e321d27", "fusion_lat": 0.0, "name": "80db9a194a7e63b9542da4310e321d27", "is_reserved": 0, "rental_uris": {"android": "https://dc.lft.to/lastmile_qr_scan", "ios": "https://dc.lft.to/lastmile_qr_scan"}, "fusion_lon": 0.0}, {"lat": 38.892189333333334, "is_disabled": 0, "type": "electric_bike", "lon": -77.10781916666667, "bike_id": "46af0152b759ec15b1205c3331f472cc", "fusion_lat": 0.0, "name": "46af0152b759ec15b1205c3331f472cc", "is_reserved": 0, "rental_uris": {"android": "https://dc.lft.to/lastmile_qr_scan", "ios": "https://dc.lft.to/lastmile_qr_scan"}, "fusion_lon": 0.0}, {"lat": 38.90240283333333, "is_disabled": 0, "type": "electric_scooter", "lon": -77.01939683333333, "bike_id": "deb08c7ac2fb364e7160d84a4d4995fa", "fusion_lat": 0.0, "name": "deb08c7ac2fb364e7160d84a4d4995fa", "is_reserved": 0, "rental_uris": {"android": "https://dc.lft.to/lastmile_qr_scan", "ios": "https://dc.lft.to/lastmile_qr_scan"}, "fusion_lon": 0.0}, {"lat": 38.90865183333333, "is_disabled": 0, "type": "electric_scooter", "lon": -77.00358383333334, "bike_id": "0a904b3287925e2ce0116c33e7722d05", "fusion_lat": 0.0, "name": "0a904b3287925e2ce0116c33e7722d05", "is_reserved": 0, "rental_uris": {"android": "https://dc.lft.to/lastmile_qr_scan", "ios": "https://dc.lft.to/lastmile_qr_scan"}, "fusion_lon": 0.0}, {"lat": 38.89494233333333, "is_disabled": 0, "type": "electric_bike", "lon": -77.0735995, "bike_id": "d223cf66dcfd19bf3221108312dae9b2", "fusion_lat": 0.0, "name": "d223cf66dcfd19bf3221108312dae9b2", "is_reserved": 0, "rental_uris": {"android": "https://dc.lft.to/lastmile_qr_scan", "ios": "https://dc.lft.to/lastmile_qr_scan"}, "fusion_lon": 0.0}, {"lat": 38.898407, "is_disabled": 0, "type": "electric_scooter", "lon": -76.99504116666667, "bike_id": "eadb9dfd3fd0f6d502af8657038302ee", "fusion_lat": 0.0, "name": "eadb9dfd3fd0f6d502af8657038302ee", "is_reserved": 0, "rental_uris": {"android": "https://dc.lft.to/lastmile_qr_scan", "ios": "https://dc.lft.to/lastmile_qr_scan"}, "fusion_lon": 0.0}, {"lat": 38.88663583333334, "is_disabled": 0, "type": "electric_scooter", "lon": -77.01382833333334, "bike_id": "f1ca7f6ab22c29f755309846a002dc53", "fusion_lat": 0.0, "name": "f1ca7f6ab22c29f755309846a002dc53", "is_reserved": 0, "rental_uris": {"android": "https://dc.lft.to/lastmile_qr_scan", "ios": "https://dc.lft.to/lastmile_qr_scan"}, "fusion_lon": 0.0}, {"lat": 38.90404983333333, "is_disabled": 0, "type": "electric_scooter", "lon": -77.04481466666667, "bike_id": "b6ea2f9b052b072be4a37c4b0b4771dd", "fusion_lat": 0.0, "name": "b6ea2f9b052b072be4a37c4b0b4771dd", "is_reserved": 0, "rental_uris": {"android": "https://dc.lft.to/lastmile_qr_scan", "ios": "https://dc.lft.to/lastmile_qr_scan"}, "fusion_lon": 0.0}, {"lat": 38.932951, "is_disabled": 0, "type": "electric_scooter", "lon": -77.02196816666667, "bike_id": "afecbe1812e97892b766fe3a029ff518", "fusion_lat": 0.0, "name": "afecbe1812e97892b766fe3a029ff518", "is_reserved": 0, "rental_uris": {"android": "https://dc.lft.to/lastmile_qr_scan", "ios": "https://dc.lft.to/lastmile_qr_scan"}, "fusion_lon": 0.0}, {"lat": 38.923678833333334, "is_disabled": 0, "type": "electric_scooter", "lon": -77.0253245, "bike_id": "1e11337e65f239f3a27a3501179f88e2", "fusion_lat": 0.0, "name": "1e11337e65f239f3a27a3501179f88e2", "is_reserved": 0, "rental_uris": {"android": "https://dc.lft.to/lastmile_qr_scan", "ios": "https://dc.lft.to/lastmile_qr_scan"}, "fusion_lon": 0.0}, {"lat": 38.9398105, "is_disabled": 0, "type": "electric_scooter", "lon": -77.0262905, "bike_id": "d3c88fb1dc1204289682102f3458bb8f", "fusion_lat": 0.0, "name": "d3c88fb1dc1204289682102f3458bb8f", "is_reserved": 0, "rental_uris": {"android": "https://dc.lft.to/lastmile_qr_scan", "ios": "https://dc.lft.to/lastmile_qr_scan"}, "fusion_lon": 0.0}, {"lat": 38.916199, "is_disabled": 0, "type": "electric_scooter", "lon": -77.02293416666667, "bike_id": "5b7f9aaa869a35027b2234724e831245", "fusion_lat": 0.0, "name": "5b7f9aaa869a35027b2234724e831245", "is_reserved": 0, "rental_uris": {"android": "https://dc.lft.to/lastmile_qr_scan", "ios": "https://dc.lft.to/lastmile_qr_scan"}, "fusion_lon": 0.0}, {"lat": 38.95191883333333, "is_disabled": 0, "type": "electric_bike", "lon": -77.02391033333333, "bike_id": "720ed83c3ec9387089150008e2b20fb4", "fusion_lat": 0.0, "name": "720ed83c3ec9387089150008e2b20fb4", "is_reserved": 0, "rental_uris": {"android": "https://dc.lft.to/lastmile_qr_scan", "ios": "https://dc.lft.to/lastmile_qr_scan"}, "fusion_lon": 0.0}, {"lat": 38.90808783333333, "is_disabled": 0, "type": "electric_scooter", "lon": -77.03433683333333, "bike_id": "cf7edb7bf951dd4e16136dfe7a9ac2a1", "fusion_lat": 0.0, "name": "cf7edb7bf951dd4e16136dfe7a9ac2a1", "is_reserved": 0, "rental_uris": {"android": "https://dc.lft.to/lastmile_qr_scan", "ios": "https://dc.lft.to/lastmile_qr_scan"}, "fusion_lon": 0.0}, {"lat": 38.916781, "is_disabled": 0, "type": "electric_scooter", "lon": -77.02971566666666, "bike_id": "b5a52da7fc5318af25e601cff6689892", "fusion_lat": 0.0, "name": "b5a52da7fc5318af25e601cff6689892", "is_reserved": 0, "rental_uris": {"android": "https://dc.lft.to/lastmile_qr_scan", "ios": "https://dc.lft.to/lastmile_qr_scan"}, "fusion_lon": 0.0}, {"lat": 38.911906333333334, "is_disabled": 0, "type": "electric_scooter", "lon": -77.0363905, "bike_id": "7c9dad28a4b58a5fb2ca98dc12b88343", "fusion_lat": 0.0, "name": "7c9dad28a4b58a5fb2ca98dc12b88343", "is_reserved": 0, "rental_uris": {"android": "https://dc.lft.to/lastmile_qr_scan", "ios": "https://dc.lft.to/lastmile_qr_scan"}, "fusion_lon": 0.0}, {"lat": 38.898921666666666, "is_disabled": 0, "type": "electric_scooter", "lon": -77.07233133333334, "bike_id": "5486b496c7336b5bbe07658cd8498cd4", "fusion_lat": 0.0, "name": "5486b496c7336b5bbe07658cd8498cd4", "is_reserved": 0, "rental_uris": {"android": "https://dc.lft.to/lastmile_qr_scan", "ios": "https://dc.lft.to/lastmile_qr_scan"}, "fusion_lon": 0.0}, {"lat": 38.9230135, "is_disabled": 0, "type": "electric_scooter", "lon": -77.02331533333333, "bike_id": "e6cb83c82786481ab139e3c935628cdd", "fusion_lat": 0.0, "name": "e6cb83c82786481ab139e3c935628cdd", "is_reserved": 0, "rental_uris": {"android": "https://dc.lft.to/lastmile_qr_scan", "ios": "https://dc.lft.to/lastmile_qr_scan"}, "fusion_lon": 0.0}, {"lat": 38.91871166666667, "is_disabled": 0, "type": "electric_scooter", "lon": -77.03667133333333, "bike_id": "d312567464f5e851fb67ff280ff8f5f5", "fusion_lat": 0.0, "name": "d312567464f5e851fb67ff280ff8f5f5", "is_reserved": 0, "rental_uris": {"android": "https://dc.lft.to/lastmile_qr_scan", "ios": "https://dc.lft.to/lastmile_qr_scan"}, "fusion_lon": 0.0}, {"lat": 38.91801016666667, "is_disabled": 0, "type": "electric_scooter", "lon": -77.03440433333333, "bike_id": "032dd4bbcc6621f05e2c99c074e96654", "fusion_lat": 0.0, "name": "032dd4bbcc6621f05e2c99c074e96654", "is_reserved": 0, "rental_uris": {"android": "https://dc.lft.to/lastmile_qr_scan", "ios": "https://dc.lft.to/lastmile_qr_scan"}, "fusion_lon": 0.0}, {"lat": 38.84444466666667, "is_disabled": 0, "type": "electric_bike", "lon": -77.06822733333334, "bike_id": "f46fbaa7d9d1f1fc0e8ecdcc1641ec6c", "fusion_lat": 0.0, "name": "f46fbaa7d9d1f1fc0e8ecdcc1641ec6c", "is_reserved": 0, "rental_uris": {"android": "https://dc.lft.to/lastmile_qr_scan", "ios": "https://dc.lft.to/lastmile_qr_scan"}, "fusion_lon": 0.0}, {"lat": 38.915498, "is_disabled": 0, "type": "electric_scooter", "lon": -77.03850483333333, "bike_id": "86e33806a0269338dcc879b457948fd4", "fusion_lat": 0.0, "name": "86e33806a0269338dcc879b457948fd4", "is_reserved": 0, "rental_uris": {"android": "https://dc.lft.to/lastmile_qr_scan", "ios": "https://dc.lft.to/lastmile_qr_scan"}, "fusion_lon": 0.0}, {"lat": 38.924745333333334, "is_disabled": 0, "type": "electric_bike", "lon": -77.20845016666667, "bike_id": "b5fe14584231d29efa04747a81f8c82f", "fusion_lat": 0.0, "name": "b5fe14584231d29efa04747a81f8c82f", "is_reserved": 0, "rental_uris": {"android": "https://dc.lft.to/lastmile_qr_scan", "ios": "https://dc.lft.to/lastmile_qr_scan"}, "fusion_lon": 0.0}, {"lat": 38.933059666666665, "is_disabled": 0, "type": "electric_scooter", "lon": -77.02803866666666, "bike_id": "170199863782a7fe8ddcb125ddd5e296", "fusion_lat": 0.0, "name": "170199863782a7fe8ddcb125ddd5e296", "is_reserved": 0, "rental_uris": {"android": "https://dc.lft.to/lastmile_qr_scan", "ios": "https://dc.lft.to/lastmile_qr_scan"}, "fusion_lon": 0.0}, {"lat": 38.905092, "is_disabled": 0, "type": "electric_scooter", "lon": -77.04139316666667, "bike_id": "b63c6f0d06ef9048499bf464a7b102a2", "fusion_lat": 0.0, "name": "b63c6f0d06ef9048499bf464a7b102a2", "is_reserved": 0, "rental_uris": {"android": "https://dc.lft.to/lastmile_qr_scan", "ios": "https://dc.lft.to/lastmile_qr_scan"}, "fusion_lon": 0.0}, {"lat": 38.91699883333333, "is_disabled": 0, "type": "electric_scooter", "lon": -77.04283083333333, "bike_id": "2712b953c242aa5fd8a4ea04a8e6830e", "fusion_lat": 0.0, "name": "2712b953c242aa5fd8a4ea04a8e6830e", "is_reserved": 0, "rental_uris": {"android": "https://dc.lft.to/lastmile_qr_scan", "ios": "https://dc.lft.to/lastmile_qr_scan"}, "fusion_lon": 0.0}, {"lat": 38.84253316666667, "is_disabled": 0, "type": "electric_bike", "lon": -77.05834733333333, "bike_id": "247e3c9e9d54e0a3af31df476a9be895", "fusion_lat": 0.0, "name": "247e3c9e9d54e0a3af31df476a9be895", "is_reserved": 0, "rental_uris": {"android": "https://dc.lft.to/lastmile_qr_scan", "ios": "https://dc.lft.to/lastmile_qr_scan"}, "fusion_lon": 0.0}, {"lat": 38.91197833333333, "is_disabled": 0, "type": "electric_scooter", "lon": -77.05977, "bike_id": "d803d19d2fc9f55ccc9162366cfbe2da", "fusion_lat": 0.0, "name": "d803d19d2fc9f55ccc9162366cfbe2da", "is_reserved": 0, "rental_uris": {"android": "https://dc.lft.to/lastmile_qr_scan", "ios": "https://dc.lft.to/lastmile_qr_scan"}, "fusion_lon": 0.0}, {"lat": 38.90685716666667, "is_disabled": 0, "type": "electric_scooter", "lon": -77.01016716666666, "bike_id": "f2a59ddc906d297b50ad4b320618e663", "fusion_lat": 0.0, "name": "f2a59ddc906d297b50ad4b320618e663", "is_reserved": 0, "rental_uris": {"android": "https://dc.lft.to/lastmile_qr_scan", "ios": "https://dc.lft.to/lastmile_qr_scan"}, "fusion_lon": 0.0}, {"lat": 38.93601316666667, "is_disabled": 0, "type": "electric_scooter", "lon": -77.03655933333333, "bike_id": "4f0468ba0e7c391fc53aa008632e9679", "fusion_lat": 0.0, "name": "4f0468ba0e7c391fc53aa008632e9679", "is_reserved": 0, "rental_uris": {"android": "https://dc.lft.to/lastmile_qr_scan", "ios": "https://dc.lft.to/lastmile_qr_scan"}, "fusion_lon": 0.0}, {"lat": 38.892223666666666, "is_disabled": 0, "type": "electric_scooter", "lon": -77.02319533333333, "bike_id": "a25b7431fa949d224013056035e1ff9b", "fusion_lat": 0.0, "name": "a25b7431fa949d224013056035e1ff9b", "is_reserved": 0, "rental_uris": {"android": "https://dc.lft.to/lastmile_qr_scan", "ios": "https://dc.lft.to/lastmile_qr_scan"}, "fusion_lon": 0.0}, {"lat": 38.91273966666667, "is_disabled": 0, "type": "electric_scooter", "lon": -77.02260383333333, "bike_id": "c3d9fee7a8f4e69ac52b50bf5137d8df", "fusion_lat": 0.0, "name": "c3d9fee7a8f4e69ac52b50bf5137d8df", "is_reserved": 0, "rental_uris": {"android": "https://dc.lft.to/lastmile_qr_scan", "ios": "https://dc.lft.to/lastmile_qr_scan"}, "fusion_lon": 0.0}, {"lat": 38.911039, "is_disabled": 0, "type": "electric_scooter", "lon": -77.04207116666667, "bike_id": "e74d3100d212d3973ea99c90fbdd0995", "fusion_lat": 0.0, "name": "e74d3100d212d3973ea99c90fbdd0995", "is_reserved": 0, "rental_uris": {"android": "https://dc.lft.to/lastmile_qr_scan", "ios": "https://dc.lft.to/lastmile_qr_scan"}, "fusion_lon": 0.0}, {"lat": 38.90241616666667, "is_disabled": 0, "type": "electric_scooter", "lon": -77.002003, "bike_id": "a8cc98275e9cc8b6ee61004834bf27b6", "fusion_lat": 0.0, "name": "a8cc98275e9cc8b6ee61004834bf27b6", "is_reserved": 0, "rental_uris": {"android": "https://dc.lft.to/lastmile_qr_scan", "ios": "https://dc.lft.to/lastmile_qr_scan"}, "fusion_lon": 0.0}, {"lat": 38.908304333333334, "is_disabled": 0, "type": "electric_scooter", "lon": -76.99703983333333, "bike_id": "79d54dd0b34d07fdafd099bfd20b1109", "fusion_lat": 0.0, "name": "79d54dd0b34d07fdafd099bfd20b1109", "is_reserved": 0, "rental_uris": {"android": "https://dc.lft.to/lastmile_qr_scan", "ios": "https://dc.lft.to/lastmile_qr_scan"}, "fusion_lon": 0.0}, {"lat": 38.917125166666665, "is_disabled": 0, "type": "electric_scooter", "lon": -77.03249866666667, "bike_id": "c43df27d3b9e66026bd7c0e80452edc6", "fusion_lat": 0.0, "name": "c43df27d3b9e66026bd7c0e80452edc6", "is_reserved": 0, "rental_uris": {"android": "https://dc.lft.to/lastmile_qr_scan", "ios": "https://dc.lft.to/lastmile_qr_scan"}, "fusion_lon": 0.0}, {"lat": 38.90043716666667, "is_disabled": 0, "type": "electric_scooter", "lon": -77.025993, "bike_id": "455df9662b214ac4cdc3de4700dfee98", "fusion_lat": 0.0, "name": "455df9662b214ac4cdc3de4700dfee98", "is_reserved": 0, "rental_uris": {"android": "https://dc.lft.to/lastmile_qr_scan", "ios": "https://dc.lft.to/lastmile_qr_scan"}, "fusion_lon": 0.0}, {"lat": 38.850372666666665, "is_disabled": 0, "type": "electric_bike", "lon": -76.97295333333334, "bike_id": "2c6d43411cfe958ebd6d349101de1827", "fusion_lat": 0.0, "name": "2c6d43411cfe958ebd6d349101de1827", "is_reserved": 0, "rental_uris": {"android": "https://dc.lft.to/lastmile_qr_scan", "ios": "https://dc.lft.to/lastmile_qr_scan"}, "fusion_lon": 0.0}, {"lat": 38.90531766666667, "is_disabled": 0, "type": "electric_scooter", "lon": -77.0576765, "bike_id": "f4ad72b079f1cbff156948a51d1c4f1d", "fusion_lat": 0.0, "name": "f4ad72b079f1cbff156948a51d1c4f1d", "is_reserved": 0, "rental_uris": {"android": "https://dc.lft.to/lastmile_qr_scan", "ios": "https://dc.lft.to/lastmile_qr_scan"}, "fusion_lon": 0.0}, {"lat": 38.89220783333333, "is_disabled": 0, "type": "electric_scooter", "lon": -77.04197433333333, "bike_id": "35d16aaac31d341edc06e24948c8c2cd", "fusion_lat": 0.0, "name": "35d16aaac31d341edc06e24948c8c2cd", "is_reserved": 0, "rental_uris": {"android": "https://dc.lft.to/lastmile_qr_scan", "ios": "https://dc.lft.to/lastmile_qr_scan"}, "fusion_lon": 0.0}, {"lat": 38.892203, "is_disabled": 0, "type": "electric_scooter", "lon": -77.04369566666666, "bike_id": "e50a1157127609b7d8ffd2761b40103a", "fusion_lat": 0.0, "name": "e50a1157127609b7d8ffd2761b40103a", "is_reserved": 0, "rental_uris": {"android": "https://dc.lft.to/lastmile_qr_scan", "ios": "https://dc.lft.to/lastmile_qr_scan"}, "fusion_lon": 0.0}, {"lat": 38.920784166666664, "is_disabled": 0, "type": "electric_scooter", "lon": -77.02395766666666, "bike_id": "f96e48cc10f40db38d460879ef984c22", "fusion_lat": 0.0, "name": "f96e48cc10f40db38d460879ef984c22", "is_reserved": 0, "rental_uris": {"android": "https://dc.lft.to/lastmile_qr_scan", "ios": "https://dc.lft.to/lastmile_qr_scan"}, "fusion_lon": 0.0}, {"lat": 38.905597, "is_disabled": 0, "type": "electric_scooter", "lon": -77.00568116666666, "bike_id": "219d19256279303fabc60cdc29fe3304", "fusion_lat": 0.0, "name": "219d19256279303fabc60cdc29fe3304", "is_reserved": 0, "rental_uris": {"android": "https://dc.lft.to/lastmile_qr_scan", "ios": "https://dc.lft.to/lastmile_qr_scan"}, "fusion_lon": 0.0}, {"lat": 38.89718283333333, "is_disabled": 0, "type": "electric_scooter", "lon": -77.00798133333333, "bike_id": "a31f7345b2d759ec2f7633bc497a0fc3", "fusion_lat": 0.0, "name": "a31f7345b2d759ec2f7633bc497a0fc3", "is_reserved": 0, "rental_uris": {"android": "https://dc.lft.to/lastmile_qr_scan", "ios": "https://dc.lft.to/lastmile_qr_scan"}, "fusion_lon": 0.0}, {"lat": 38.902699166666665, "is_disabled": 0, "type": "electric_scooter", "lon": -77.05261583333333, "bike_id": "c380167bbca0f504d0c3fa2faa9f83c7", "fusion_lat": 0.0, "name": "c380167bbca0f504d0c3fa2faa9f83c7", "is_reserved": 0, "rental_uris": {"android": "https://dc.lft.to/lastmile_qr_scan", "ios": "https://dc.lft.to/lastmile_qr_scan"}, "fusion_lon": 0.0}, {"lat": 38.91759416666667, "is_disabled": 0, "type": "electric_scooter", "lon": -77.04423033333333, "bike_id": "2f95e73f027188dadf6be3953375dc97", "fusion_lat": 0.0, "name": "2f95e73f027188dadf6be3953375dc97", "is_reserved": 0, "rental_uris": {"android": "https://dc.lft.to/lastmile_qr_scan", "ios": "https://dc.lft.to/lastmile_qr_scan"}, "fusion_lon": 0.0}, {"lat": 38.90826633333333, "is_disabled": 0, "type": "electric_scooter", "lon": -77.01838516666666, "bike_id": "361be6db7d3e7bc73f551545670db970", "fusion_lat": 0.0, "name": "361be6db7d3e7bc73f551545670db970", "is_reserved": 0, "rental_uris": {"android": "https://dc.lft.to/lastmile_qr_scan", "ios": "https://dc.lft.to/lastmile_qr_scan"}, "fusion_lon": 0.0}, {"lat": 38.922414, "is_disabled": 0, "type": "electric_scooter", "lon": -77.04575716666666, "bike_id": "4c6f7e895d1fc182875806f1210a1094", "fusion_lat": 0.0, "name": "4c6f7e895d1fc182875806f1210a1094", "is_reserved": 0, "rental_uris": {"android": "https://dc.lft.to/lastmile_qr_scan", "ios": "https://dc.lft.to/lastmile_qr_scan"}, "fusion_lon": 0.0}, {"lat": 38.91920616666667, "is_disabled": 0, "type": "electric_scooter", "lon": -77.07051683333333, "bike_id": "011fd14fed2b7f90ff74ad05b3bef32d", "fusion_lat": 0.0, "name": "011fd14fed2b7f90ff74ad05b3bef32d", "is_reserved": 0, "rental_uris": {"android": "https://dc.lft.to/lastmile_qr_scan", "ios": "https://dc.lft.to/lastmile_qr_scan"}, "fusion_lon": 0.0}, {"lat": 38.9193415, "is_disabled": 0, "type": "electric_scooter", "lon": -77.0230145, "bike_id": "77b24d4a845767bc106e8a306b95257b", "fusion_lat": 0.0, "name": "77b24d4a845767bc106e8a306b95257b", "is_reserved": 0, "rental_uris": {"android": "https://dc.lft.to/lastmile_qr_scan", "ios": "https://dc.lft.to/lastmile_qr_scan"}, "fusion_lon": 0.0}, {"lat": 38.904618166666666, "is_disabled": 0, "type": "electric_scooter", "lon": -77.03916416666667, "bike_id": "6a8e3f7678744a8b42a8f9931c425dbb", "fusion_lat": 0.0, "name": "6a8e3f7678744a8b42a8f9931c425dbb", "is_reserved": 0, "rental_uris": {"android": "https://dc.lft.to/lastmile_qr_scan", "ios": "https://dc.lft.to/lastmile_qr_scan"}, "fusion_lon": 0.0}, {"lat": 38.8022935, "is_disabled": 0, "type": "electric_bike", "lon": -77.07915033333333, "bike_id": "d8b8cbeb67588cde55c095db08d03695", "fusion_lat": 0.0, "name": "d8b8cbeb67588cde55c095db08d03695", "is_reserved": 0, "rental_uris": {"android": "https://dc.lft.to/lastmile_qr_scan", "ios": "https://dc.lft.to/lastmile_qr_scan"}, "fusion_lon": 0.0}, {"lat": 38.863669333333334, "is_disabled": 0, "type": "electric_scooter", "lon": -76.99037166666666, "bike_id": "ad3b66592b0a3f06996390d8a213b90d", "fusion_lat": 0.0, "name": "ad3b66592b0a3f06996390d8a213b90d", "is_reserved": 0, "rental_uris": {"android": "https://dc.lft.to/lastmile_qr_scan", "ios": "https://dc.lft.to/lastmile_qr_scan"}, "fusion_lon": 0.0}, {"lat": 38.88489166666667, "is_disabled": 0, "type": "electric_scooter", "lon": -77.03473483333333, "bike_id": "036983ff7f48d010d9e7e05f2b23a769", "fusion_lat": 0.0, "name": "036983ff7f48d010d9e7e05f2b23a769", "is_reserved": 0, "rental_uris": {"android": "https://dc.lft.to/lastmile_qr_scan", "ios": "https://dc.lft.to/lastmile_qr_scan"}, "fusion_lon": 0.0}, {"lat": 38.9272245, "is_disabled": 0, "type": "electric_scooter", "lon": -77.0227805, "bike_id": "b4bef577c4be9f6b121e17a5cf8e8f98", "fusion_lat": 0.0, "name": "b4bef577c4be9f6b121e17a5cf8e8f98", "is_reserved": 0, "rental_uris": {"android": "https://dc.lft.to/lastmile_qr_scan", "ios": "https://dc.lft.to/lastmile_qr_scan"}, "fusion_lon": 0.0}, {"lat": 38.9030215, "is_disabled": 0, "type": "electric_scooter", "lon": -77.0089205, "bike_id": "fa298ce7e88bfd3e3e1e496cd34289fa", "fusion_lat": 0.0, "name": "fa298ce7e88bfd3e3e1e496cd34289fa", "is_reserved": 0, "rental_uris": {"android": "https://dc.lft.to/lastmile_qr_scan", "ios": "https://dc.lft.to/lastmile_qr_scan"}, "fusion_lon": 0.0}, {"lat": 38.941432666666664, "is_disabled": 0, "type": "electric_bike", "lon": -77.03280766666667, "bike_id": "3724cbfb1d3b4083da96445de571c857", "fusion_lat": 0.0, "name": "3724cbfb1d3b4083da96445de571c857", "is_reserved": 0, "rental_uris": {"android": "https://dc.lft.to/lastmile_qr_scan", "ios": "https://dc.lft.to/lastmile_qr_scan"}, "fusion_lon": 0.0}, {"lat": 38.91939333333333, "is_disabled": 0, "type": "electric_scooter", "lon": -77.025897, "bike_id": "26a5a0c1cc9a924cde310d699ecca846", "fusion_lat": 0.0, "name": "26a5a0c1cc9a924cde310d699ecca846", "is_reserved": 0, "rental_uris": {"android": "https://dc.lft.to/lastmile_qr_scan", "ios": "https://dc.lft.to/lastmile_qr_scan"}, "fusion_lon": 0.0}, {"lat": 38.919324, "is_disabled": 0, "type": "electric_scooter", "lon": -76.97018183333333, "bike_id": "1cba9c0ae35bb3602e2bcd3cc3c50c7c", "fusion_lat": 0.0, "name": "1cba9c0ae35bb3602e2bcd3cc3c50c7c", "is_reserved": 0, "rental_uris": {"android": "https://dc.lft.to/lastmile_qr_scan", "ios": "https://dc.lft.to/lastmile_qr_scan"}, "fusion_lon": 0.0}, {"lat": 38.922371166666665, "is_disabled": 0, "type": "electric_scooter", "lon": -77.04355383333333, "bike_id": "c9ab5c1869434e7a8382ad6f6887d9d8", "fusion_lat": 0.0, "name": "c9ab5c1869434e7a8382ad6f6887d9d8", "is_reserved": 0, "rental_uris": {"android": "https://dc.lft.to/lastmile_qr_scan", "ios": "https://dc.lft.to/lastmile_qr_scan"}, "fusion_lon": 0.0}, {"lat": 38.8715335, "is_disabled": 0, "type": "electric_scooter", "lon": -77.01191666666666, "bike_id": "f3f7404dad9b104471cebb8f07de208f", "fusion_lat": 0.0, "name": "f3f7404dad9b104471cebb8f07de208f", "is_reserved": 0, "rental_uris": {"android": "https://dc.lft.to/lastmile_qr_scan", "ios": "https://dc.lft.to/lastmile_qr_scan"}, "fusion_lon": 0.0}, {"lat": 38.954019, "is_disabled": 0, "type": "electric_bike", "lon": -76.97867833333333, "bike_id": "fedea85edee5ce6dccc43690b75898b9", "fusion_lat": 0.0, "name": "fedea85edee5ce6dccc43690b75898b9", "is_reserved": 0, "rental_uris": {"android": "https://dc.lft.to/lastmile_qr_scan", "ios": "https://dc.lft.to/lastmile_qr_scan"}, "fusion_lon": 0.0}, {"lat": 38.928647166666664, "is_disabled": 0, "type": "electric_scooter", "lon": -77.01427433333333, "bike_id": "c2a75076a511240da3bccbdc4ceeb34d", "fusion_lat": 0.0, "name": "c2a75076a511240da3bccbdc4ceeb34d", "is_reserved": 0, "rental_uris": {"android": "https://dc.lft.to/lastmile_qr_scan", "ios": "https://dc.lft.to/lastmile_qr_scan"}, "fusion_lon": 0.0}, {"lat": 38.90983, "is_disabled": 0, "type": "electric_scooter", "lon": -76.98469033333333, "bike_id": "f8a84c92254d8984213c55e2f5c9f9ca", "fusion_lat": 0.0, "name": "f8a84c92254d8984213c55e2f5c9f9ca", "is_reserved": 0, "rental_uris": {"android": "https://dc.lft.to/lastmile_qr_scan", "ios": "https://dc.lft.to/lastmile_qr_scan"}, "fusion_lon": 0.0}, {"lat": 38.9084925, "is_disabled": 0, "type": "electric_scooter", "lon": -76.999634, "bike_id": "0c3ca059e3448dfda4acad1615aca895", "fusion_lat": 0.0, "name": "0c3ca059e3448dfda4acad1615aca895", "is_reserved": 0, "rental_uris": {"android": "https://dc.lft.to/lastmile_qr_scan", "ios": "https://dc.lft.to/lastmile_qr_scan"}, "fusion_lon": 0.0}, {"lat": 38.83982, "is_disabled": 0, "type": "electric_bike", "lon": -77.005693, "bike_id": "4f1a5aef3609d0083c1782bc77711361", "fusion_lat": 0.0, "name": "4f1a5aef3609d0083c1782bc77711361", "is_reserved": 0, "rental_uris": {"android": "https://dc.lft.to/lastmile_qr_scan", "ios": "https://dc.lft.to/lastmile_qr_scan"}, "fusion_lon": 0.0}, {"lat": 38.920451, "is_disabled": 0, "type": "electric_scooter", "lon": -77.03406516666666, "bike_id": "4f34a47cdb1f4b1af28cf17ea0008c56", "fusion_lat": 0.0, "name": "4f34a47cdb1f4b1af28cf17ea0008c56", "is_reserved": 0, "rental_uris": {"android": "https://dc.lft.to/lastmile_qr_scan", "ios": "https://dc.lft.to/lastmile_qr_scan"}, "fusion_lon": 0.0}, {"lat": 38.9240345, "is_disabled": 0, "type": "electric_scooter", "lon": -77.05254116666667, "bike_id": "ee173aa2be67b681c2f727ed0c570929", "fusion_lat": 0.0, "name": "ee173aa2be67b681c2f727ed0c570929", "is_reserved": 0, "rental_uris": {"android": "https://dc.lft.to/lastmile_qr_scan", "ios": "https://dc.lft.to/lastmile_qr_scan"}, "fusion_lon": 0.0}, {"lat": 38.89005133333333, "is_disabled": 0, "type": "electric_scooter", "lon": -76.93742433333334, "bike_id": "865469e3711514668733afd200674031", "fusion_lat": 0.0, "name": "865469e3711514668733afd200674031", "is_reserved": 0, "rental_uris": {"android": "https://dc.lft.to/lastmile_qr_scan", "ios": "https://dc.lft.to/lastmile_qr_scan"}, "fusion_lon": 0.0}, {"lat": 38.90045116666667, "is_disabled": 0, "type": "electric_scooter", "lon": -76.9950695, "bike_id": "58af9fe868d8f85a1e2b5e68a22e8b07", "fusion_lat": 0.0, "name": "58af9fe868d8f85a1e2b5e68a22e8b07", "is_reserved": 0, "rental_uris": {"android": "https://dc.lft.to/lastmile_qr_scan", "ios": "https://dc.lft.to/lastmile_qr_scan"}, "fusion_lon": 0.0}, {"lat": 38.876877, "is_disabled": 0, "type": "electric_bike", "lon": -77.0175885, "bike_id": "de586d3ce8331d98b358389f2a4d784d", "fusion_lat": 0.0, "name": "de586d3ce8331d98b358389f2a4d784d", "is_reserved": 0, "rental_uris": {"android": "https://dc.lft.to/lastmile_qr_scan", "ios": "https://dc.lft.to/lastmile_qr_scan"}, "fusion_lon": 0.0}, {"lat": 38.88023866666666, "is_disabled": 0, "type": "electric_scooter", "lon": -76.96016416666667, "bike_id": "3bf4793fba0f5fcb268c67094749c57c", "fusion_lat": 0.0, "name": "3bf4793fba0f5fcb268c67094749c57c", "is_reserved": 0, "rental_uris": {"android": "https://dc.lft.to/lastmile_qr_scan", "ios": "https://dc.lft.to/lastmile_qr_scan"}, "fusion_lon": 0.0}, {"lat": 38.9282655, "is_disabled": 0, "type": "electric_scooter", "lon": -77.05434116666666, "bike_id": "e883eea748d5c3e218a284e091539502", "fusion_lat": 0.0, "name": "e883eea748d5c3e218a284e091539502", "is_reserved": 0, "rental_uris": {"android": "https://dc.lft.to/lastmile_qr_scan", "ios": "https://dc.lft.to/lastmile_qr_scan"}, "fusion_lon": 0.0}, {"lat": 38.866556833333334, "is_disabled": 0, "type": "electric_scooter", "lon": -76.9888815, "bike_id": "fda24fe4122c9aaa9a8ae8cef4756a32", "fusion_lat": 0.0, "name": "fda24fe4122c9aaa9a8ae8cef4756a32", "is_reserved": 0, "rental_uris": {"android": "https://dc.lft.to/lastmile_qr_scan", "ios": "https://dc.lft.to/lastmile_qr_scan"}, "fusion_lon": 0.0}, {"lat": 38.917500833333335, "is_disabled": 0, "type": "electric_scooter", "lon": -77.04156316666666, "bike_id": "f13102a55019bf4aa1c0d3e0d2968c56", "fusion_lat": 0.0, "name": "f13102a55019bf4aa1c0d3e0d2968c56", "is_reserved": 0, "rental_uris": {"android": "https://dc.lft.to/lastmile_qr_scan", "ios": "https://dc.lft.to/lastmile_qr_scan"}, "fusion_lon": 0.0}, {"lat": 38.93863416666667, "is_disabled": 0, "type": "electric_scooter", "lon": -77.030918, "bike_id": "b9dbf3b3181d065c6ed22ad7bbb82539", "fusion_lat": 0.0, "name": "b9dbf3b3181d065c6ed22ad7bbb82539", "is_reserved": 0, "rental_uris": {"android": "https://dc.lft.to/lastmile_qr_scan", "ios": "https://dc.lft.to/lastmile_qr_scan"}, "fusion_lon": 0.0}, {"lat": 38.92191616666667, "is_disabled": 0, "type": "electric_scooter", "lon": -77.04238266666667, "bike_id": "bc127f19d7c7067387cdc9c348db4d1b", "fusion_lat": 0.0, "name": "bc127f19d7c7067387cdc9c348db4d1b", "is_reserved": 0, "rental_uris": {"android": "https://dc.lft.to/lastmile_qr_scan", "ios": "https://dc.lft.to/lastmile_qr_scan"}, "fusion_lon": 0.0}, {"lat": 38.90030383333333, "is_disabled": 0, "type": "electric_scooter", "lon": -76.98980716666667, "bike_id": "21ee998f8a6f79875eeb14bac8c861f6", "fusion_lat": 0.0, "name": "21ee998f8a6f79875eeb14bac8c861f6", "is_reserved": 0, "rental_uris": {"android": "https://dc.lft.to/lastmile_qr_scan", "ios": "https://dc.lft.to/lastmile_qr_scan"}, "fusion_lon": 0.0}, {"lat": 38.93872, "is_disabled": 0, "type": "electric_scooter", "lon": -77.031262, "bike_id": "d3147ff4c11a56bbf8c367ce6e2e0062", "fusion_lat": 0.0, "name": "d3147ff4c11a56bbf8c367ce6e2e0062", "is_reserved": 0, "rental_uris": {"android": "https://dc.lft.to/lastmile_qr_scan", "ios": "https://dc.lft.to/lastmile_qr_scan"}, "fusion_lon": 0.0}, {"lat": 38.923677833333336, "is_disabled": 0, "type": "electric_scooter", "lon": -77.0513165, "bike_id": "cae5cd909bf232d55771a265e0ba6a64", "fusion_lat": 0.0, "name": "cae5cd909bf232d55771a265e0ba6a64", "is_reserved": 0, "rental_uris": {"android": "https://dc.lft.to/lastmile_qr_scan", "ios": "https://dc.lft.to/lastmile_qr_scan"}, "fusion_lon": 0.0}, {"lat": 38.9241935, "is_disabled": 0, "type": "electric_scooter", "lon": -77.04451583333334, "bike_id": "0f6e277327f67718a7efc56f0b7cf576", "fusion_lat": 0.0, "name": "0f6e277327f67718a7efc56f0b7cf576", "is_reserved": 0, "rental_uris": {"android": "https://dc.lft.to/lastmile_qr_scan", "ios": "https://dc.lft.to/lastmile_qr_scan"}, "fusion_lon": 0.0}, {"lat": 38.89548216666667, "is_disabled": 0, "type": "electric_scooter", "lon": -77.00922766666666, "bike_id": "dd6fca5d602757b4a90f0599f326924c", "fusion_lat": 0.0, "name": "dd6fca5d602757b4a90f0599f326924c", "is_reserved": 0, "rental_uris": {"android": "https://dc.lft.to/lastmile_qr_scan", "ios": "https://dc.lft.to/lastmile_qr_scan"}, "fusion_lon": 0.0}, {"lat": 38.935228, "is_disabled": 0, "type": "electric_scooter", "lon": -77.07295583333334, "bike_id": "a484ca8b690e43b619cb7d74f7d02c60", "fusion_lat": 0.0, "name": "a484ca8b690e43b619cb7d74f7d02c60", "is_reserved": 0, "rental_uris": {"android": "https://dc.lft.to/lastmile_qr_scan", "ios": "https://dc.lft.to/lastmile_qr_scan"}, "fusion_lon": 0.0}, {"lat": 38.9037415, "is_disabled": 0, "type": "electric_scooter", "lon": -76.99228183333334, "bike_id": "aeaa7ddf121926ef1b3665408149aabb", "fusion_lat": 0.0, "name": "aeaa7ddf121926ef1b3665408149aabb", "is_reserved": 0, "rental_uris": {"android": "https://dc.lft.to/lastmile_qr_scan", "ios": "https://dc.lft.to/lastmile_qr_scan"}, "fusion_lon": 0.0}, {"lat": 38.90854683333333, "is_disabled": 0, "type": "electric_scooter", "lon": -77.01967066666667, "bike_id": "782d831d2cdd2864399a8dd05b67cf24", "fusion_lat": 0.0, "name": "782d831d2cdd2864399a8dd05b67cf24", "is_reserved": 0, "rental_uris": {"android": "https://dc.lft.to/lastmile_qr_scan", "ios": "https://dc.lft.to/lastmile_qr_scan"}, "fusion_lon": 0.0}, {"lat": 38.897468333333336, "is_disabled": 0, "type": "electric_scooter", "lon": -77.02390166666666, "bike_id": "fc418558781819b318cb2b0c8fe2f898", "fusion_lat": 0.0, "name": "fc418558781819b318cb2b0c8fe2f898", "is_reserved": 0, "rental_uris": {"android": "https://dc.lft.to/lastmile_qr_scan", "ios": "https://dc.lft.to/lastmile_qr_scan"}, "fusion_lon": 0.0}, {"lat": 38.934746, "is_disabled": 0, "type": "electric_scooter", "lon": -77.041152, "bike_id": "ff26b78673e8b8fcdd24f02a7af5e902", "fusion_lat": 0.0, "name": "ff26b78673e8b8fcdd24f02a7af5e902", "is_reserved": 0, "rental_uris": {"android": "https://dc.lft.to/lastmile_qr_scan", "ios": "https://dc.lft.to/lastmile_qr_scan"}, "fusion_lon": 0.0}, {"lat": 38.9156575, "is_disabled": 0, "type": "electric_scooter", "lon": -77.03851783333333, "bike_id": "17372f7a4a8196590c7799a307accd58", "fusion_lat": 0.0, "name": "17372f7a4a8196590c7799a307accd58", "is_reserved": 0, "rental_uris": {"android": "https://dc.lft.to/lastmile_qr_scan", "ios": "https://dc.lft.to/lastmile_qr_scan"}, "fusion_lon": 0.0}, {"lat": 38.90545783333334, "is_disabled": 0, "type": "electric_scooter", "lon": -77.022108, "bike_id": "e4b5aa674c83f6d03040ed3fad1421a1", "fusion_lat": 0.0, "name": "e4b5aa674c83f6d03040ed3fad1421a1", "is_reserved": 0, "rental_uris": {"android": "https://dc.lft.to/lastmile_qr_scan", "ios": "https://dc.lft.to/lastmile_qr_scan"}, "fusion_lon": 0.0}, {"lat": 38.936906666666665, "is_disabled": 0, "type": "electric_bike", "lon": -77.05646883333333, "bike_id": "58be7db1020724cd931a04a64a80fa5e", "fusion_lat": 0.0, "name": "58be7db1020724cd931a04a64a80fa5e", "is_reserved": 0, "rental_uris": {"android": "https://dc.lft.to/lastmile_qr_scan", "ios": "https://dc.lft.to/lastmile_qr_scan"}, "fusion_lon": 0.0}, {"lat": 38.918072333333335, "is_disabled": 0, "type": "electric_scooter", "lon": -77.04177633333333, "bike_id": "a7137c471e1372c3fbe419fac8f5ef15", "fusion_lat": 0.0, "name": "a7137c471e1372c3fbe419fac8f5ef15", "is_reserved": 0, "rental_uris": {"android": "https://dc.lft.to/lastmile_qr_scan", "ios": "https://dc.lft.to/lastmile_qr_scan"}, "fusion_lon": 0.0}, {"lat": 38.91101866666666, "is_disabled": 0, "type": "electric_scooter", "lon": -77.04207816666667, "bike_id": "5fed5525c5aa8484ba499fe778209ac4", "fusion_lat": 0.0, "name": "5fed5525c5aa8484ba499fe778209ac4", "is_reserved": 0, "rental_uris": {"android": "https://dc.lft.to/lastmile_qr_scan", "ios": "https://dc.lft.to/lastmile_qr_scan"}, "fusion_lon": 0.0}, {"lat": 38.916627, "is_disabled": 0, "type": "electric_scooter", "lon": -77.04726083333334, "bike_id": "cb18ba7ca1f5d1a0aec5b479f8ee8fff", "fusion_lat": 0.0, "name": "cb18ba7ca1f5d1a0aec5b479f8ee8fff", "is_reserved": 0, "rental_uris": {"android": "https://dc.lft.to/lastmile_qr_scan", "ios": "https://dc.lft.to/lastmile_qr_scan"}, "fusion_lon": 0.0}, {"lat": 38.89550233333333, "is_disabled": 0, "type": "electric_scooter", "lon": -77.00439016666667, "bike_id": "0fec9e8d0b9d3c8307f1db9e91704bc9", "fusion_lat": 0.0, "name": "0fec9e8d0b9d3c8307f1db9e91704bc9", "is_reserved": 0, "rental_uris": {"android": "https://dc.lft.to/lastmile_qr_scan", "ios": "https://dc.lft.to/lastmile_qr_scan"}, "fusion_lon": 0.0}, {"lat": 38.935358666666666, "is_disabled": 0, "type": "electric_scooter", "lon": -77.02344966666666, "bike_id": "330daf58694db317ad359507c409efff", "fusion_lat": 0.0, "name": "330daf58694db317ad359507c409efff", "is_reserved": 0, "rental_uris": {"android": "https://dc.lft.to/lastmile_qr_scan", "ios": "https://dc.lft.to/lastmile_qr_scan"}, "fusion_lon": 0.0}, {"lat": 38.837285666666666, "is_disabled": 0, "type": "electric_bike", "lon": -76.99767666666666, "bike_id": "89a5298b814e0ba2f5174fbe3efb244e", "fusion_lat": 0.0, "name": "89a5298b814e0ba2f5174fbe3efb244e", "is_reserved": 0, "rental_uris": {"android": "https://dc.lft.to/lastmile_qr_scan", "ios": "https://dc.lft.to/lastmile_qr_scan"}, "fusion_lon": 0.0}, {"lat": 38.90272, "is_disabled": 0, "type": "electric_scooter", "lon": -77.00349966666667, "bike_id": "b096c379700fb9489778fa9287569ff1", "fusion_lat": 0.0, "name": "b096c379700fb9489778fa9287569ff1", "is_reserved": 0, "rental_uris": {"android": "https://dc.lft.to/lastmile_qr_scan", "ios": "https://dc.lft.to/lastmile_qr_scan"}, "fusion_lon": 0.0}, {"lat": 38.86507783333333, "is_disabled": 0, "type": "electric_scooter", "lon": -76.990061, "bike_id": "a0f0c1ff3efd088ffa98918580f5a482", "fusion_lat": 0.0, "name": "a0f0c1ff3efd088ffa98918580f5a482", "is_reserved": 0, "rental_uris": {"android": "https://dc.lft.to/lastmile_qr_scan", "ios": "https://dc.lft.to/lastmile_qr_scan"}, "fusion_lon": 0.0}, {"lat": 38.929300166666664, "is_disabled": 0, "type": "electric_scooter", "lon": -77.03752466666667, "bike_id": "87ea700978cac1c285294331482f9010", "fusion_lat": 0.0, "name": "87ea700978cac1c285294331482f9010", "is_reserved": 0, "rental_uris": {"android": "https://dc.lft.to/lastmile_qr_scan", "ios": "https://dc.lft.to/lastmile_qr_scan"}, "fusion_lon": 0.0}, {"lat": 38.89974266666667, "is_disabled": 0, "type": "electric_scooter", "lon": -77.02068116666666, "bike_id": "1fa429bc8cda6e1770b922b9a39dcd09", "fusion_lat": 0.0, "name": "1fa429bc8cda6e1770b922b9a39dcd09", "is_reserved": 0, "rental_uris": {"android": "https://dc.lft.to/lastmile_qr_scan", "ios": "https://dc.lft.to/lastmile_qr_scan"}, "fusion_lon": 0.0}, {"lat": 38.917724, "is_disabled": 0, "type": "electric_scooter", "lon": -77.01879533333333, "bike_id": "7bdb21529de015913cafb5fba9af0bdd", "fusion_lat": 0.0, "name": "7bdb21529de015913cafb5fba9af0bdd", "is_reserved": 0, "rental_uris": {"android": "https://dc.lft.to/lastmile_qr_scan", "ios": "https://dc.lft.to/lastmile_qr_scan"}, "fusion_lon": 0.0}, {"lat": 38.8568455, "is_disabled": 0, "type": "electric_scooter", "lon": -76.98185466666666, "bike_id": "4457ac3809b82c3feda169aa0bd5e203", "fusion_lat": 0.0, "name": "4457ac3809b82c3feda169aa0bd5e203", "is_reserved": 0, "rental_uris": {"android": "https://dc.lft.to/lastmile_qr_scan", "ios": "https://dc.lft.to/lastmile_qr_scan"}, "fusion_lon": 0.0}, {"lat": 38.936497, "is_disabled": 0, "type": "electric_scooter", "lon": -77.02046583333333, "bike_id": "0a86a8c33ab17870aedfc580892820d2", "fusion_lat": 0.0, "name": "0a86a8c33ab17870aedfc580892820d2", "is_reserved": 0, "rental_uris": {"android": "https://dc.lft.to/lastmile_qr_scan", "ios": "https://dc.lft.to/lastmile_qr_scan"}, "fusion_lon": 0.0}, {"lat": 38.917372, "is_disabled": 0, "type": "electric_scooter", "lon": -77.036645, "bike_id": "66082cc610dccea4eb23302ca3ca4752", "fusion_lat": 0.0, "name": "66082cc610dccea4eb23302ca3ca4752", "is_reserved": 0, "rental_uris": {"android": "https://dc.lft.to/lastmile_qr_scan", "ios": "https://dc.lft.to/lastmile_qr_scan"}, "fusion_lon": 0.0}, {"lat": 39.0242985, "is_disabled": 0, "type": "electric_bike", "lon": -77.13102666666667, "bike_id": "87bc31a334e981193fba9756e175fd5a", "fusion_lat": 0.0, "name": "87bc31a334e981193fba9756e175fd5a", "is_reserved": 0, "rental_uris": {"android": "https://dc.lft.to/lastmile_qr_scan", "ios": "https://dc.lft.to/lastmile_qr_scan"}, "fusion_lon": 0.0}, {"lat": 38.895270333333336, "is_disabled": 0, "type": "electric_scooter", "lon": -76.94890716666667, "bike_id": "aeba78d81ded9fca5cbc96be5cedc141", "fusion_lat": 0.0, "name": "aeba78d81ded9fca5cbc96be5cedc141", "is_reserved": 0, "rental_uris": {"android": "https://dc.lft.to/lastmile_qr_scan", "ios": "https://dc.lft.to/lastmile_qr_scan"}, "fusion_lon": 0.0}, {"lat": 38.9131855, "is_disabled": 0, "type": "electric_scooter", "lon": -76.9864255, "bike_id": "e0d1e78745e78e41ed0dbc6c37ea4ac9", "fusion_lat": 0.0, "name": "e0d1e78745e78e41ed0dbc6c37ea4ac9", "is_reserved": 0, "rental_uris": {"android": "https://dc.lft.to/lastmile_qr_scan", "ios": "https://dc.lft.to/lastmile_qr_scan"}, "fusion_lon": 0.0}, {"lat": 38.9224825, "is_disabled": 0, "type": "electric_scooter", "lon": -77.03075566666666, "bike_id": "84bdd4301e0892919467e4321d1dbce3", "fusion_lat": 0.0, "name": "84bdd4301e0892919467e4321d1dbce3", "is_reserved": 0, "rental_uris": {"android": "https://dc.lft.to/lastmile_qr_scan", "ios": "https://dc.lft.to/lastmile_qr_scan"}, "fusion_lon": 0.0}, {"lat": 38.94973566666667, "is_disabled": 0, "type": "electric_scooter", "lon": -77.06559033333333, "bike_id": "3df93db42115355ad5e1a2afb308def4", "fusion_lat": 0.0, "name": "3df93db42115355ad5e1a2afb308def4", "is_reserved": 0, "rental_uris": {"android": "https://dc.lft.to/lastmile_qr_scan", "ios": "https://dc.lft.to/lastmile_qr_scan"}, "fusion_lon": 0.0}, {"lat": 38.89207066666667, "is_disabled": 0, "type": "electric_scooter", "lon": -76.985659, "bike_id": "50319312c6c650528293588bb40e090d", "fusion_lat": 0.0, "name": "50319312c6c650528293588bb40e090d", "is_reserved": 0, "rental_uris": {"android": "https://dc.lft.to/lastmile_qr_scan", "ios": "https://dc.lft.to/lastmile_qr_scan"}, "fusion_lon": 0.0}, {"lat": 39.030421, "is_disabled": 0, "type": "electric_bike", "lon": -77.09468733333334, "bike_id": "dd7a7bfcfdaa9f07500fbefc4d1ea50d", "fusion_lat": 0.0, "name": "dd7a7bfcfdaa9f07500fbefc4d1ea50d", "is_reserved": 0, "rental_uris": {"android": "https://dc.lft.to/lastmile_qr_scan", "ios": "https://dc.lft.to/lastmile_qr_scan"}, "fusion_lon": 0.0}, {"lat": 38.917044833333335, "is_disabled": 0, "type": "electric_scooter", "lon": -77.027306, "bike_id": "bd4fe9e13792d2639723860b7e1a926f", "fusion_lat": 0.0, "name": "bd4fe9e13792d2639723860b7e1a926f", "is_reserved": 0, "rental_uris": {"android": "https://dc.lft.to/lastmile_qr_scan", "ios": "https://dc.lft.to/lastmile_qr_scan"}, "fusion_lon": 0.0}, {"lat": 38.9000605, "is_disabled": 0, "type": "electric_scooter", "lon": -77.02085166666667, "bike_id": "08c1f0ccc944f926037d6fcf12640724", "fusion_lat": 0.0, "name": "08c1f0ccc944f926037d6fcf12640724", "is_reserved": 0, "rental_uris": {"android": "https://dc.lft.to/lastmile_qr_scan", "ios": "https://dc.lft.to/lastmile_qr_scan"}, "fusion_lon": 0.0}, {"lat": 38.938662666666666, "is_disabled": 0, "type": "electric_scooter", "lon": -77.03094583333333, "bike_id": "a638acc075e69d9cbb8eeec230897dfb", "fusion_lat": 0.0, "name": "a638acc075e69d9cbb8eeec230897dfb", "is_reserved": 0, "rental_uris": {"android": "https://dc.lft.to/lastmile_qr_scan", "ios": "https://dc.lft.to/lastmile_qr_scan"}, "fusion_lon": 0.0}, {"lat": 38.8766905, "is_disabled": 0, "type": "electric_scooter", "lon": -77.00393816666667, "bike_id": "5b9b08d04cba7f0938fa1f47dc2ee7f3", "fusion_lat": 0.0, "name": "5b9b08d04cba7f0938fa1f47dc2ee7f3", "is_reserved": 0, "rental_uris": {"android": "https://dc.lft.to/lastmile_qr_scan", "ios": "https://dc.lft.to/lastmile_qr_scan"}, "fusion_lon": 0.0}, {"lat": 38.99818066666667, "is_disabled": 0, "type": "electric_bike", "lon": -76.88372133333333, "bike_id": "b639f25b4df4ec7845fcf6bcb3261c94", "fusion_lat": 0.0, "name": "b639f25b4df4ec7845fcf6bcb3261c94", "is_reserved": 0, "rental_uris": {"android": "https://dc.lft.to/lastmile_qr_scan", "ios": "https://dc.lft.to/lastmile_qr_scan"}, "fusion_lon": 0.0}, {"lat": 38.91743433333333, "is_disabled": 0, "type": "electric_scooter", "lon": -77.03185733333333, "bike_id": "6f2b82603b6c808378ba1b5747845803", "fusion_lat": 0.0, "name": "6f2b82603b6c808378ba1b5747845803", "is_reserved": 0, "rental_uris": {"android": "https://dc.lft.to/lastmile_qr_scan", "ios": "https://dc.lft.to/lastmile_qr_scan"}, "fusion_lon": 0.0}, {"lat": 38.922497666666665, "is_disabled": 0, "type": "electric_scooter", "lon": -77.03469383333334, "bike_id": "79deb82507f3fe0a3b7a141b8b8a4e1c", "fusion_lat": 0.0, "name": "79deb82507f3fe0a3b7a141b8b8a4e1c", "is_reserved": 0, "rental_uris": {"android": "https://dc.lft.to/lastmile_qr_scan", "ios": "https://dc.lft.to/lastmile_qr_scan"}, "fusion_lon": 0.0}, {"lat": 38.91250866666667, "is_disabled": 0, "type": "electric_scooter", "lon": -77.0477065, "bike_id": "4db73a2aea69298b42c7f1a06cf13c94", "fusion_lat": 0.0, "name": "4db73a2aea69298b42c7f1a06cf13c94", "is_reserved": 0, "rental_uris": {"android": "https://dc.lft.to/lastmile_qr_scan", "ios": "https://dc.lft.to/lastmile_qr_scan"}, "fusion_lon": 0.0}, {"lat": 38.981262666666666, "is_disabled": 0, "type": "electric_bike", "lon": -77.00770916666667, "bike_id": "e9a6eee9310872c4701f6de5fd89d63e", "fusion_lat": 0.0, "name": "e9a6eee9310872c4701f6de5fd89d63e", "is_reserved": 0, "rental_uris": {"android": "https://dc.lft.to/lastmile_qr_scan", "ios": "https://dc.lft.to/lastmile_qr_scan"}, "fusion_lon": 0.0}, {"lat": 38.935147, "is_disabled": 0, "type": "electric_scooter", "lon": -77.03357133333333, "bike_id": "4e7c956e51f112592c1d34c12e396832", "fusion_lat": 0.0, "name": "4e7c956e51f112592c1d34c12e396832", "is_reserved": 0, "rental_uris": {"android": "https://dc.lft.to/lastmile_qr_scan", "ios": "https://dc.lft.to/lastmile_qr_scan"}, "fusion_lon": 0.0}, {"lat": 38.91261083333333, "is_disabled": 0, "type": "electric_scooter", "lon": -77.03876416666667, "bike_id": "1adc8c7e1ffa0ce619fd27beb913cbb4", "fusion_lat": 0.0, "name": "1adc8c7e1ffa0ce619fd27beb913cbb4", "is_reserved": 0, "rental_uris": {"android": "https://dc.lft.to/lastmile_qr_scan", "ios": "https://dc.lft.to/lastmile_qr_scan"}, "fusion_lon": 0.0}, {"lat": 38.90459516666667, "is_disabled": 0, "type": "electric_scooter", "lon": -77.06289583333333, "bike_id": "f90df0a97b32cf1d2fe45b19d02e1e54", "fusion_lat": 0.0, "name": "f90df0a97b32cf1d2fe45b19d02e1e54", "is_reserved": 0, "rental_uris": {"android": "https://dc.lft.to/lastmile_qr_scan", "ios": "https://dc.lft.to/lastmile_qr_scan"}, "fusion_lon": 0.0}, {"lat": 38.927674333333336, "is_disabled": 0, "type": "electric_scooter", "lon": -77.026116, "bike_id": "75092e2db4d111f49bede754a5fac00d", "fusion_lat": 0.0, "name": "75092e2db4d111f49bede754a5fac00d", "is_reserved": 0, "rental_uris": {"android": "https://dc.lft.to/lastmile_qr_scan", "ios": "https://dc.lft.to/lastmile_qr_scan"}, "fusion_lon": 0.0}, {"lat": 38.92290833333333, "is_disabled": 0, "type": "electric_scooter", "lon": -77.03192766666666, "bike_id": "2bcb36dc5b30aba3d5c8a686495187fc", "fusion_lat": 0.0, "name": "2bcb36dc5b30aba3d5c8a686495187fc", "is_reserved": 0, "rental_uris": {"android": "https://dc.lft.to/lastmile_qr_scan", "ios": "https://dc.lft.to/lastmile_qr_scan"}, "fusion_lon": 0.0}, {"lat": 38.863488, "is_disabled": 0, "type": "electric_scooter", "lon": -76.99, "bike_id": "9faf25fe12da15c812962e6affc1534c", "fusion_lat": 0.0, "name": "9faf25fe12da15c812962e6affc1534c", "is_reserved": 0, "rental_uris": {"android": "https://dc.lft.to/lastmile_qr_scan", "ios": "https://dc.lft.to/lastmile_qr_scan"}, "fusion_lon": 0.0}, {"lat": 38.89918316666667, "is_disabled": 0, "type": "electric_scooter", "lon": -76.93368866666667, "bike_id": "d6a16e320d382d325cb9df4a90d52210", "fusion_lat": 0.0, "name": "d6a16e320d382d325cb9df4a90d52210", "is_reserved": 0, "rental_uris": {"android": "https://dc.lft.to/lastmile_qr_scan", "ios": "https://dc.lft.to/lastmile_qr_scan"}, "fusion_lon": 0.0}, {"lat": 38.95551533333333, "is_disabled": 0, "type": "electric_bike", "lon": -76.93546533333334, "bike_id": "a52f12b39c4dfe4a97330067d6ac02e7", "fusion_lat": 0.0, "name": "a52f12b39c4dfe4a97330067d6ac02e7", "is_reserved": 0, "rental_uris": {"android": "https://dc.lft.to/lastmile_qr_scan", "ios": "https://dc.lft.to/lastmile_qr_scan"}, "fusion_lon": 0.0}, {"lat": 38.94836216666667, "is_disabled": 0, "type": "electric_bike", "lon": -77.03887716666667, "bike_id": "1d624c78809f8ace51b5ab83228465bc", "fusion_lat": 0.0, "name": "1d624c78809f8ace51b5ab83228465bc", "is_reserved": 0, "rental_uris": {"android": "https://dc.lft.to/lastmile_qr_scan", "ios": "https://dc.lft.to/lastmile_qr_scan"}, "fusion_lon": 0.0}, {"lat": 38.932062333333334, "is_disabled": 0, "type": "electric_scooter", "lon": -77.03665333333333, "bike_id": "d78529c3e0a2b7cccdb47adac1e0f54e", "fusion_lat": 0.0, "name": "d78529c3e0a2b7cccdb47adac1e0f54e", "is_reserved": 0, "rental_uris": {"android": "https://dc.lft.to/lastmile_qr_scan", "ios": "https://dc.lft.to/lastmile_qr_scan"}, "fusion_lon": 0.0}, {"lat": 38.8987995, "is_disabled": 0, "type": "electric_scooter", "lon": -77.05339083333334, "bike_id": "339445e2e94e1c2837bbb1d3025cfe9a", "fusion_lat": 0.0, "name": "339445e2e94e1c2837bbb1d3025cfe9a", "is_reserved": 0, "rental_uris": {"android": "https://dc.lft.to/lastmile_qr_scan", "ios": "https://dc.lft.to/lastmile_qr_scan"}, "fusion_lon": 0.0}, {"lat": 38.9227515, "is_disabled": 0, "type": "electric_scooter", "lon": -77.02964533333333, "bike_id": "a07ef9942d712c2fc7725ab5b58fe43e", "fusion_lat": 0.0, "name": "a07ef9942d712c2fc7725ab5b58fe43e", "is_reserved": 0, "rental_uris": {"android": "https://dc.lft.to/lastmile_qr_scan", "ios": "https://dc.lft.to/lastmile_qr_scan"}, "fusion_lon": 0.0}, {"lat": 38.906794, "is_disabled": 0, "type": "electric_scooter", "lon": -77.02712083333333, "bike_id": "6da0db552f4fad69b6ca2273033171b9", "fusion_lat": 0.0, "name": "6da0db552f4fad69b6ca2273033171b9", "is_reserved": 0, "rental_uris": {"android": "https://dc.lft.to/lastmile_qr_scan", "ios": "https://dc.lft.to/lastmile_qr_scan"}, "fusion_lon": 0.0}, {"lat": 38.92709266666667, "is_disabled": 0, "type": "electric_scooter", "lon": -77.020924, "bike_id": "c9cd4465dde04582f385eb450397f694", "fusion_lat": 0.0, "name": "c9cd4465dde04582f385eb450397f694", "is_reserved": 0, "rental_uris": {"android": "https://dc.lft.to/lastmile_qr_scan", "ios": "https://dc.lft.to/lastmile_qr_scan"}, "fusion_lon": 0.0}, {"lat": 38.9081065, "is_disabled": 0, "type": "electric_scooter", "lon": -77.03448683333333, "bike_id": "8c59f7c38a8aecc0a3daac4fd88c84e8", "fusion_lat": 0.0, "name": "8c59f7c38a8aecc0a3daac4fd88c84e8", "is_reserved": 0, "rental_uris": {"android": "https://dc.lft.to/lastmile_qr_scan", "ios": "https://dc.lft.to/lastmile_qr_scan"}, "fusion_lon": 0.0}, {"lat": 38.89499516666667, "is_disabled": 0, "type": "electric_scooter", "lon": -77.0032675, "bike_id": "641e07d9ec5faf109fa89c3461a4ca43", "fusion_lat": 0.0, "name": "641e07d9ec5faf109fa89c3461a4ca43", "is_reserved": 0, "rental_uris": {"android": "https://dc.lft.to/lastmile_qr_scan", "ios": "https://dc.lft.to/lastmile_qr_scan"}, "fusion_lon": 0.0}, {"lat": 38.91790233333333, "is_disabled": 0, "type": "electric_scooter", "lon": -77.02290566666667, "bike_id": "db0dc4ac5b52602d9caafa858a284803", "fusion_lat": 0.0, "name": "db0dc4ac5b52602d9caafa858a284803", "is_reserved": 0, "rental_uris": {"android": "https://dc.lft.to/lastmile_qr_scan", "ios": "https://dc.lft.to/lastmile_qr_scan"}, "fusion_lon": 0.0}, {"lat": 38.88193783333333, "is_disabled": 0, "type": "electric_scooter", "lon": -76.99618266666667, "bike_id": "1f6192b8342e09c49c61790348216e2f", "fusion_lat": 0.0, "name": "1f6192b8342e09c49c61790348216e2f", "is_reserved": 0, "rental_uris": {"android": "https://dc.lft.to/lastmile_qr_scan", "ios": "https://dc.lft.to/lastmile_qr_scan"}, "fusion_lon": 0.0}, {"lat": 38.87064266666667, "is_disabled": 0, "type": "electric_scooter", "lon": -77.00841483333333, "bike_id": "2084e8fc2f973c9125126ec74ee83837", "fusion_lat": 0.0, "name": "2084e8fc2f973c9125126ec74ee83837", "is_reserved": 0, "rental_uris": {"android": "https://dc.lft.to/lastmile_qr_scan", "ios": "https://dc.lft.to/lastmile_qr_scan"}, "fusion_lon": 0.0}, {"lat": 38.930989, "is_disabled": 0, "type": "electric_scooter", "lon": -77.03069133333334, "bike_id": "d0b5bbdfe9352a67512f92cd4a99f0be", "fusion_lat": 0.0, "name": "d0b5bbdfe9352a67512f92cd4a99f0be", "is_reserved": 0, "rental_uris": {"android": "https://dc.lft.to/lastmile_qr_scan", "ios": "https://dc.lft.to/lastmile_qr_scan"}, "fusion_lon": 0.0}, {"lat": 38.917311166666664, "is_disabled": 0, "type": "electric_scooter", "lon": -77.03657233333334, "bike_id": "3d8906473fa49379e35d6efff57b6f0b", "fusion_lat": 0.0, "name": "3d8906473fa49379e35d6efff57b6f0b", "is_reserved": 0, "rental_uris": {"android": "https://dc.lft.to/lastmile_qr_scan", "ios": "https://dc.lft.to/lastmile_qr_scan"}, "fusion_lon": 0.0}, {"lat": 38.918196, "is_disabled": 0, "type": "electric_scooter", "lon": -77.02953066666667, "bike_id": "8fb2a0e5a5646fba8350f8b1ab556489", "fusion_lat": 0.0, "name": "8fb2a0e5a5646fba8350f8b1ab556489", "is_reserved": 0, "rental_uris": {"android": "https://dc.lft.to/lastmile_qr_scan", "ios": "https://dc.lft.to/lastmile_qr_scan"}, "fusion_lon": 0.0}, {"lat": 38.854268833333336, "is_disabled": 0, "type": "electric_bike", "lon": -76.90971666666667, "bike_id": "b5657dfc3e304009b51dbc04070fb7b2", "fusion_lat": 0.0, "name": "b5657dfc3e304009b51dbc04070fb7b2", "is_reserved": 0, "rental_uris": {"android": "https://dc.lft.to/lastmile_qr_scan", "ios": "https://dc.lft.to/lastmile_qr_scan"}, "fusion_lon": 0.0}, {"lat": 38.92468916666667, "is_disabled": 0, "type": "electric_scooter", "lon": -77.0524105, "bike_id": "dde872640ec9cd8223b3d8a2626c9982", "fusion_lat": 0.0, "name": "dde872640ec9cd8223b3d8a2626c9982", "is_reserved": 0, "rental_uris": {"android": "https://dc.lft.to/lastmile_qr_scan", "ios": "https://dc.lft.to/lastmile_qr_scan"}, "fusion_lon": 0.0}, {"lat": 38.925615666666666, "is_disabled": 0, "type": "electric_scooter", "lon": -77.03221133333334, "bike_id": "01a3e709a707dba5b01f8ecfe2cc8d85", "fusion_lat": 0.0, "name": "01a3e709a707dba5b01f8ecfe2cc8d85", "is_reserved": 0, "rental_uris": {"android": "https://dc.lft.to/lastmile_qr_scan", "ios": "https://dc.lft.to/lastmile_qr_scan"}, "fusion_lon": 0.0}, {"lat": 38.907360833333335, "is_disabled": 0, "type": "electric_scooter", "lon": -77.00060816666667, "bike_id": "2498c18462a23b0a1da46356e977e448", "fusion_lat": 0.0, "name": "2498c18462a23b0a1da46356e977e448", "is_reserved": 0, "rental_uris": {"android": "https://dc.lft.to/lastmile_qr_scan", "ios": "https://dc.lft.to/lastmile_qr_scan"}, "fusion_lon": 0.0}, {"lat": 38.932329833333334, "is_disabled": 0, "type": "electric_scooter", "lon": -77.03889666666667, "bike_id": "5c41cd3713b686380b7191e17f134a3f", "fusion_lat": 0.0, "name": "5c41cd3713b686380b7191e17f134a3f", "is_reserved": 0, "rental_uris": {"android": "https://dc.lft.to/lastmile_qr_scan", "ios": "https://dc.lft.to/lastmile_qr_scan"}, "fusion_lon": 0.0}, {"lat": 38.844317333333336, "is_disabled": 0, "type": "electric_scooter", "lon": -76.998142, "bike_id": "79759edfa9c50cfb72e4ad39a7a81160", "fusion_lat": 0.0, "name": "79759edfa9c50cfb72e4ad39a7a81160", "is_reserved": 0, "rental_uris": {"android": "https://dc.lft.to/lastmile_qr_scan", "ios": "https://dc.lft.to/lastmile_qr_scan"}, "fusion_lon": 0.0}, {"lat": 38.9056405, "is_disabled": 0, "type": "electric_scooter", "lon": -76.98140916666667, "bike_id": "55bdbafa5679306088afb3c9ac0e2f70", "fusion_lat": 0.0, "name": "55bdbafa5679306088afb3c9ac0e2f70", "is_reserved": 0, "rental_uris": {"android": "https://dc.lft.to/lastmile_qr_scan", "ios": "https://dc.lft.to/lastmile_qr_scan"}, "fusion_lon": 0.0}, {"lat": 38.902680333333336, "is_disabled": 0, "type": "electric_scooter", "lon": -77.04390566666666, "bike_id": "61d57198369f3e8b7d14fd56a546e35d", "fusion_lat": 0.0, "name": "61d57198369f3e8b7d14fd56a546e35d", "is_reserved": 0, "rental_uris": {"android": "https://dc.lft.to/lastmile_qr_scan", "ios": "https://dc.lft.to/lastmile_qr_scan"}, "fusion_lon": 0.0}, {"lat": 38.92317366666666, "is_disabled": 0, "type": "electric_scooter", "lon": -77.04651466666667, "bike_id": "e5ee91e1d46de1f415c9b57dfdbdd390", "fusion_lat": 0.0, "name": "e5ee91e1d46de1f415c9b57dfdbdd390", "is_reserved": 0, "rental_uris": {"android": "https://dc.lft.to/lastmile_qr_scan", "ios": "https://dc.lft.to/lastmile_qr_scan"}, "fusion_lon": 0.0}, {"lat": 38.943388666666664, "is_disabled": 0, "type": "electric_bike", "lon": -77.07739616666667, "bike_id": "c08e31aeadb355656534d63be5d0d804", "fusion_lat": 0.0, "name": "c08e31aeadb355656534d63be5d0d804", "is_reserved": 0, "rental_uris": {"android": "https://dc.lft.to/lastmile_qr_scan", "ios": "https://dc.lft.to/lastmile_qr_scan"}, "fusion_lon": 0.0}, {"lat": 38.902508, "is_disabled": 0, "type": "electric_scooter", "lon": -77.01804633333333, "bike_id": "37cc58d003ce43c1fd484a76764a068b", "fusion_lat": 0.0, "name": "37cc58d003ce43c1fd484a76764a068b", "is_reserved": 0, "rental_uris": {"android": "https://dc.lft.to/lastmile_qr_scan", "ios": "https://dc.lft.to/lastmile_qr_scan"}, "fusion_lon": 0.0}, {"lat": 38.912190333333335, "is_disabled": 0, "type": "electric_scooter", "lon": -77.02798333333334, "bike_id": "d45b3142e651f99a8c4449513d3afc54", "fusion_lat": 0.0, "name": "d45b3142e651f99a8c4449513d3afc54", "is_reserved": 0, "rental_uris": {"android": "https://dc.lft.to/lastmile_qr_scan", "ios": "https://dc.lft.to/lastmile_qr_scan"}, "fusion_lon": 0.0}, {"lat": 38.89988566666667, "is_disabled": 0, "type": "electric_scooter", "lon": -77.05257933333333, "bike_id": "5dc6d3bc091f38a7e95436d45095a0d6", "fusion_lat": 0.0, "name": "5dc6d3bc091f38a7e95436d45095a0d6", "is_reserved": 0, "rental_uris": {"android": "https://dc.lft.to/lastmile_qr_scan", "ios": "https://dc.lft.to/lastmile_qr_scan"}, "fusion_lon": 0.0}, {"lat": 38.8946935, "is_disabled": 0, "type": "electric_scooter", "lon": -77.0269125, "bike_id": "666e709500f428762c80c7861ee068ec", "fusion_lat": 0.0, "name": "666e709500f428762c80c7861ee068ec", "is_reserved": 0, "rental_uris": {"android": "https://dc.lft.to/lastmile_qr_scan", "ios": "https://dc.lft.to/lastmile_qr_scan"}, "fusion_lon": 0.0}, {"lat": 38.853884666666666, "is_disabled": 0, "type": "electric_bike", "lon": -77.12435633333334, "bike_id": "f18a9d4d402b9de84fc823988707f8b4", "fusion_lat": 0.0, "name": "f18a9d4d402b9de84fc823988707f8b4", "is_reserved": 0, "rental_uris": {"android": "https://dc.lft.to/lastmile_qr_scan", "ios": "https://dc.lft.to/lastmile_qr_scan"}, "fusion_lon": 0.0}, {"lat": 38.9000245, "is_disabled": 0, "type": "electric_scooter", "lon": -77.026916, "bike_id": "56b0201e53d7210708918439fb56fee5", "fusion_lat": 0.0, "name": "56b0201e53d7210708918439fb56fee5", "is_reserved": 0, "rental_uris": {"android": "https://dc.lft.to/lastmile_qr_scan", "ios": "https://dc.lft.to/lastmile_qr_scan"}, "fusion_lon": 0.0}, {"lat": 38.895798666666664, "is_disabled": 0, "type": "electric_scooter", "lon": -76.98177583333333, "bike_id": "9bf3231bb4317ba5f9b5b49f46842355", "fusion_lat": 0.0, "name": "9bf3231bb4317ba5f9b5b49f46842355", "is_reserved": 0, "rental_uris": {"android": "https://dc.lft.to/lastmile_qr_scan", "ios": "https://dc.lft.to/lastmile_qr_scan"}, "fusion_lon": 0.0}, {"lat": 38.90039633333333, "is_disabled": 0, "type": "electric_scooter", "lon": -77.03316666666667, "bike_id": "7b808bcb93c809f72de7a69c68a4211e", "fusion_lat": 0.0, "name": "7b808bcb93c809f72de7a69c68a4211e", "is_reserved": 0, "rental_uris": {"android": "https://dc.lft.to/lastmile_qr_scan", "ios": "https://dc.lft.to/lastmile_qr_scan"}, "fusion_lon": 0.0}, {"lat": 38.90056116666667, "is_disabled": 0, "type": "electric_scooter", "lon": -77.0020705, "bike_id": "8169e700464b58ad640f80a15a0d46ed", "fusion_lat": 0.0, "name": "8169e700464b58ad640f80a15a0d46ed", "is_reserved": 0, "rental_uris": {"android": "https://dc.lft.to/lastmile_qr_scan", "ios": "https://dc.lft.to/lastmile_qr_scan"}, "fusion_lon": 0.0}, {"lat": 38.905693, "is_disabled": 0, "type": "electric_scooter", "lon": -77.0466135, "bike_id": "35362fc2b625212a9ecf62b1620b8ffe", "fusion_lat": 0.0, "name": "35362fc2b625212a9ecf62b1620b8ffe", "is_reserved": 0, "rental_uris": {"android": "https://dc.lft.to/lastmile_qr_scan", "ios": "https://dc.lft.to/lastmile_qr_scan"}, "fusion_lon": 0.0}, {"lat": 38.85083633333333, "is_disabled": 0, "type": "electric_bike", "lon": -76.9567975, "bike_id": "0d68842503c5741d4b0d5d837f0f94d9", "fusion_lat": 0.0, "name": "0d68842503c5741d4b0d5d837f0f94d9", "is_reserved": 0, "rental_uris": {"android": "https://dc.lft.to/lastmile_qr_scan", "ios": "https://dc.lft.to/lastmile_qr_scan"}, "fusion_lon": 0.0}, {"lat": 38.90403033333333, "is_disabled": 0, "type": "electric_scooter", "lon": -76.9850645, "bike_id": "200976c49f8c6be7747e0ed1a318b9a9", "fusion_lat": 0.0, "name": "200976c49f8c6be7747e0ed1a318b9a9", "is_reserved": 0, "rental_uris": {"android": "https://dc.lft.to/lastmile_qr_scan", "ios": "https://dc.lft.to/lastmile_qr_scan"}, "fusion_lon": 0.0}, {"lat": 38.925377166666664, "is_disabled": 0, "type": "electric_scooter", "lon": -77.04131883333334, "bike_id": "db9a9cfa57550d498ca8061735f8e46a", "fusion_lat": 0.0, "name": "db9a9cfa57550d498ca8061735f8e46a", "is_reserved": 0, "rental_uris": {"android": "https://dc.lft.to/lastmile_qr_scan", "ios": "https://dc.lft.to/lastmile_qr_scan"}, "fusion_lon": 0.0}, {"lat": 38.80269066666666, "is_disabled": 0, "type": "electric_bike", "lon": -77.08113433333334, "bike_id": "b929f2d408383d4c30eecf8a238b398c", "fusion_lat": 0.0, "name": "b929f2d408383d4c30eecf8a238b398c", "is_reserved": 0, "rental_uris": {"android": "https://dc.lft.to/lastmile_qr_scan", "ios": "https://dc.lft.to/lastmile_qr_scan"}, "fusion_lon": 0.0}, {"lat": 39.00385516666667, "is_disabled": 0, "type": "electric_bike", "lon": -77.01281816666666, "bike_id": "c0ef1bbaf229afbe239518e65fdfbd51", "fusion_lat": 0.0, "name": "c0ef1bbaf229afbe239518e65fdfbd51", "is_reserved": 0, "rental_uris": {"android": "https://dc.lft.to/lastmile_qr_scan", "ios": "https://dc.lft.to/lastmile_qr_scan"}, "fusion_lon": 0.0}, {"lat": 38.923526, "is_disabled": 0, "type": "electric_scooter", "lon": -77.02444316666667, "bike_id": "f39c33ee6840c9e8986ee6befe9302c7", "fusion_lat": 0.0, "name": "f39c33ee6840c9e8986ee6befe9302c7", "is_reserved": 0, "rental_uris": {"android": "https://dc.lft.to/lastmile_qr_scan", "ios": "https://dc.lft.to/lastmile_qr_scan"}, "fusion_lon": 0.0}, {"lat": 38.902401166666664, "is_disabled": 0, "type": "electric_scooter", "lon": -77.01971366666666, "bike_id": "e0bd4c56a4d42fbe625c59d71a5005b2", "fusion_lat": 0.0, "name": "e0bd4c56a4d42fbe625c59d71a5005b2", "is_reserved": 0, "rental_uris": {"android": "https://dc.lft.to/lastmile_qr_scan", "ios": "https://dc.lft.to/lastmile_qr_scan"}, "fusion_lon": 0.0}, {"lat": 38.901655166666664, "is_disabled": 0, "type": "electric_scooter", "lon": -76.9985015, "bike_id": "14e7955bc52641be34842e823acd2f03", "fusion_lat": 0.0, "name": "14e7955bc52641be34842e823acd2f03", "is_reserved": 0, "rental_uris": {"android": "https://dc.lft.to/lastmile_qr_scan", "ios": "https://dc.lft.to/lastmile_qr_scan"}, "fusion_lon": 0.0}, {"lat": 38.91283116666666, "is_disabled": 0, "type": "electric_scooter", "lon": -77.0450905, "bike_id": "29d26a5ed0479845354e967e75346a47", "fusion_lat": 0.0, "name": "29d26a5ed0479845354e967e75346a47", "is_reserved": 0, "rental_uris": {"android": "https://dc.lft.to/lastmile_qr_scan", "ios": "https://dc.lft.to/lastmile_qr_scan"}, "fusion_lon": 0.0}, {"lat": 38.859539833333336, "is_disabled": 0, "type": "electric_scooter", "lon": -76.99141483333334, "bike_id": "fce7796095aae0b989f9a8aea13f5524", "fusion_lat": 0.0, "name": "fce7796095aae0b989f9a8aea13f5524", "is_reserved": 0, "rental_uris": {"android": "https://dc.lft.to/lastmile_qr_scan", "ios": "https://dc.lft.to/lastmile_qr_scan"}, "fusion_lon": 0.0}, {"lat": 38.93356633333333, "is_disabled": 0, "type": "electric_scooter", "lon": -77.0249565, "bike_id": "6eec3573ee8f4bcb62fc1639100ebcfb", "fusion_lat": 0.0, "name": "6eec3573ee8f4bcb62fc1639100ebcfb", "is_reserved": 0, "rental_uris": {"android": "https://dc.lft.to/lastmile_qr_scan", "ios": "https://dc.lft.to/lastmile_qr_scan"}, "fusion_lon": 0.0}, {"lat": 38.9161785, "is_disabled": 0, "type": "electric_bike", "lon": -77.00294516666666, "bike_id": "22111f497ee369e08687cbc1fe072d87", "fusion_lat": 0.0, "name": "22111f497ee369e08687cbc1fe072d87", "is_reserved": 0, "rental_uris": {"android": "https://dc.lft.to/lastmile_qr_scan", "ios": "https://dc.lft.to/lastmile_qr_scan"}, "fusion_lon": 0.0}, {"lat": 38.90553333333333, "is_disabled": 0, "type": "electric_scooter", "lon": -77.0570825, "bike_id": "67600a5e7378a6972930740814d8a201", "fusion_lat": 0.0, "name": "67600a5e7378a6972930740814d8a201", "is_reserved": 0, "rental_uris": {"android": "https://dc.lft.to/lastmile_qr_scan", "ios": "https://dc.lft.to/lastmile_qr_scan"}, "fusion_lon": 0.0}, {"lat": 38.913286666666664, "is_disabled": 0, "type": "electric_scooter", "lon": -77.03262833333334, "bike_id": "86c7c86fff57af7f90240459ee3ff24e", "fusion_lat": 0.0, "name": "86c7c86fff57af7f90240459ee3ff24e", "is_reserved": 0, "rental_uris": {"android": "https://dc.lft.to/lastmile_qr_scan", "ios": "https://dc.lft.to/lastmile_qr_scan"}, "fusion_lon": 0.0}, {"lat": 38.89224816666667, "is_disabled": 0, "type": "electric_scooter", "lon": -77.0468445, "bike_id": "6eae67ffdcd5838f26f95c42f66f092d", "fusion_lat": 0.0, "name": "6eae67ffdcd5838f26f95c42f66f092d", "is_reserved": 0, "rental_uris": {"android": "https://dc.lft.to/lastmile_qr_scan", "ios": "https://dc.lft.to/lastmile_qr_scan"}, "fusion_lon": 0.0}, {"lat": 38.917938, "is_disabled": 0, "type": "electric_scooter", "lon": -77.031875, "bike_id": "af63b8d99c1e73b3e300d85b659f05a0", "fusion_lat": 0.0, "name": "af63b8d99c1e73b3e300d85b659f05a0", "is_reserved": 0, "rental_uris": {"android": "https://dc.lft.to/lastmile_qr_scan", "ios": "https://dc.lft.to/lastmile_qr_scan"}, "fusion_lon": 0.0}, {"lat": 38.923286833333336, "is_disabled": 0, "type": "electric_scooter", "lon": -77.0351295, "bike_id": "d5053db5b4bc458ac17b75a903ec2574", "fusion_lat": 0.0, "name": "d5053db5b4bc458ac17b75a903ec2574", "is_reserved": 0, "rental_uris": {"android": "https://dc.lft.to/lastmile_qr_scan", "ios": "https://dc.lft.to/lastmile_qr_scan"}, "fusion_lon": 0.0}, {"lat": 38.919188, "is_disabled": 0, "type": "electric_scooter", "lon": -77.04810933333333, "bike_id": "229a4458ecf9478887c10e0e8fb948d9", "fusion_lat": 0.0, "name": "229a4458ecf9478887c10e0e8fb948d9", "is_reserved": 0, "rental_uris": {"android": "https://dc.lft.to/lastmile_qr_scan", "ios": "https://dc.lft.to/lastmile_qr_scan"}, "fusion_lon": 0.0}, {"lat": 38.95956316666667, "is_disabled": 0, "type": "electric_scooter", "lon": -77.03312433333333, "bike_id": "98db1a1deb685f833ba2df302b4ad6d4", "fusion_lat": 0.0, "name": "98db1a1deb685f833ba2df302b4ad6d4", "is_reserved": 0, "rental_uris": {"android": "https://dc.lft.to/lastmile_qr_scan", "ios": "https://dc.lft.to/lastmile_qr_scan"}, "fusion_lon": 0.0}, {"lat": 38.900447, "is_disabled": 0, "type": "electric_scooter", "lon": -77.0186825, "bike_id": "208fcb6cc5f7286fcd8e13e96efc4130", "fusion_lat": 0.0, "name": "208fcb6cc5f7286fcd8e13e96efc4130", "is_reserved": 0, "rental_uris": {"android": "https://dc.lft.to/lastmile_qr_scan", "ios": "https://dc.lft.to/lastmile_qr_scan"}, "fusion_lon": 0.0}, {"lat": 38.8719215, "is_disabled": 0, "type": "electric_bike", "lon": -77.01222283333334, "bike_id": "ad1e943ab033d43ff230d51a8c2279c9", "fusion_lat": 0.0, "name": "ad1e943ab033d43ff230d51a8c2279c9", "is_reserved": 0, "rental_uris": {"android": "https://dc.lft.to/lastmile_qr_scan", "ios": "https://dc.lft.to/lastmile_qr_scan"}, "fusion_lon": 0.0}, {"lat": 38.9249775, "is_disabled": 0, "type": "electric_scooter", "lon": -77.02158566666667, "bike_id": "aa949d705f2478ba439876c7ecc30cf1", "fusion_lat": 0.0, "name": "aa949d705f2478ba439876c7ecc30cf1", "is_reserved": 0, "rental_uris": {"android": "https://dc.lft.to/lastmile_qr_scan", "ios": "https://dc.lft.to/lastmile_qr_scan"}, "fusion_lon": 0.0}, {"lat": 38.8848895, "is_disabled": 0, "type": "electric_scooter", "lon": -77.03475116666667, "bike_id": "d5803a6f7f77ec7aeac31304c54e0786", "fusion_lat": 0.0, "name": "d5803a6f7f77ec7aeac31304c54e0786", "is_reserved": 0, "rental_uris": {"android": "https://dc.lft.to/lastmile_qr_scan", "ios": "https://dc.lft.to/lastmile_qr_scan"}, "fusion_lon": 0.0}, {"lat": 38.959566833333334, "is_disabled": 0, "type": "electric_bike", "lon": -77.10094333333333, "bike_id": "c499706141de5942287a29c424d7167a", "fusion_lat": 0.0, "name": "c499706141de5942287a29c424d7167a", "is_reserved": 0, "rental_uris": {"android": "https://dc.lft.to/lastmile_qr_scan", "ios": "https://dc.lft.to/lastmile_qr_scan"}, "fusion_lon": 0.0}, {"lat": 38.911876666666664, "is_disabled": 0, "type": "electric_scooter", "lon": -77.01086833333333, "bike_id": "9a38666871bd43c4bf220eb85244e43f", "fusion_lat": 0.0, "name": "9a38666871bd43c4bf220eb85244e43f", "is_reserved": 0, "rental_uris": {"android": "https://dc.lft.to/lastmile_qr_scan", "ios": "https://dc.lft.to/lastmile_qr_scan"}, "fusion_lon": 0.0}, {"lat": 38.902357, "is_disabled": 0, "type": "electric_scooter", "lon": -77.0020065, "bike_id": "81f2a3b79ca383ebb1268ab875f51bb4", "fusion_lat": 0.0, "name": "81f2a3b79ca383ebb1268ab875f51bb4", "is_reserved": 0, "rental_uris": {"android": "https://dc.lft.to/lastmile_qr_scan", "ios": "https://dc.lft.to/lastmile_qr_scan"}, "fusion_lon": 0.0}, {"lat": 38.92577283333333, "is_disabled": 0, "type": "electric_scooter", "lon": -77.0283375, "bike_id": "a50c86311aff9062fc4534d4a6841bac", "fusion_lat": 0.0, "name": "a50c86311aff9062fc4534d4a6841bac", "is_reserved": 0, "rental_uris": {"android": "https://dc.lft.to/lastmile_qr_scan", "ios": "https://dc.lft.to/lastmile_qr_scan"}, "fusion_lon": 0.0}, {"lat": 38.8955235, "is_disabled": 0, "type": "electric_scooter", "lon": -77.00923483333334, "bike_id": "778cd6921b3fef5aa9b67f3484cacd5f", "fusion_lat": 0.0, "name": "778cd6921b3fef5aa9b67f3484cacd5f", "is_reserved": 0, "rental_uris": {"android": "https://dc.lft.to/lastmile_qr_scan", "ios": "https://dc.lft.to/lastmile_qr_scan"}, "fusion_lon": 0.0}, {"lat": 38.932586, "is_disabled": 0, "type": "electric_scooter", "lon": -77.03465916666667, "bike_id": "0c3e58bd1bddf4ac3e0fb845ea7da2e6", "fusion_lat": 0.0, "name": "0c3e58bd1bddf4ac3e0fb845ea7da2e6", "is_reserved": 0, "rental_uris": {"android": "https://dc.lft.to/lastmile_qr_scan", "ios": "https://dc.lft.to/lastmile_qr_scan"}, "fusion_lon": 0.0}, {"lat": 38.930204, "is_disabled": 0, "type": "electric_scooter", "lon": -77.04447366666666, "bike_id": "287b4cde41cf93136dc8393ff96588be", "fusion_lat": 0.0, "name": "287b4cde41cf93136dc8393ff96588be", "is_reserved": 0, "rental_uris": {"android": "https://dc.lft.to/lastmile_qr_scan", "ios": "https://dc.lft.to/lastmile_qr_scan"}, "fusion_lon": 0.0}, {"lat": 38.92156633333333, "is_disabled": 0, "type": "electric_scooter", "lon": -77.03513916666667, "bike_id": "f977de7d0991946d8ffb278f0b2ab63f", "fusion_lat": 0.0, "name": "f977de7d0991946d8ffb278f0b2ab63f", "is_reserved": 0, "rental_uris": {"android": "https://dc.lft.to/lastmile_qr_scan", "ios": "https://dc.lft.to/lastmile_qr_scan"}, "fusion_lon": 0.0}, {"lat": 38.914064, "is_disabled": 0, "type": "electric_scooter", "lon": -77.03159216666667, "bike_id": "a1a9a43eeb2e419766fa36e6627ff47a", "fusion_lat": 0.0, "name": "a1a9a43eeb2e419766fa36e6627ff47a", "is_reserved": 0, "rental_uris": {"android": "https://dc.lft.to/lastmile_qr_scan", "ios": "https://dc.lft.to/lastmile_qr_scan"}, "fusion_lon": 0.0}, {"lat": 38.94350983333333, "is_disabled": 0, "type": "electric_scooter", "lon": -77.00215366666667, "bike_id": "eef68b7dc789574eca3472e82f091d10", "fusion_lat": 0.0, "name": "eef68b7dc789574eca3472e82f091d10", "is_reserved": 0, "rental_uris": {"android": "https://dc.lft.to/lastmile_qr_scan", "ios": "https://dc.lft.to/lastmile_qr_scan"}, "fusion_lon": 0.0}, {"lat": 38.919202, "is_disabled": 0, "type": "electric_scooter", "lon": -77.03178366666667, "bike_id": "9c33aba8244be9911a1afcb82d170b36", "fusion_lat": 0.0, "name": "9c33aba8244be9911a1afcb82d170b36", "is_reserved": 0, "rental_uris": {"android": "https://dc.lft.to/lastmile_qr_scan", "ios": "https://dc.lft.to/lastmile_qr_scan"}, "fusion_lon": 0.0}, {"lat": 38.8971405, "is_disabled": 0, "type": "electric_scooter", "lon": -77.00834066666667, "bike_id": "2ea5fef04a5abf2db2c344d9bc9c015c", "fusion_lat": 0.0, "name": "2ea5fef04a5abf2db2c344d9bc9c015c", "is_reserved": 0, "rental_uris": {"android": "https://dc.lft.to/lastmile_qr_scan", "ios": "https://dc.lft.to/lastmile_qr_scan"}, "fusion_lon": 0.0}, {"lat": 38.89908783333333, "is_disabled": 0, "type": "electric_scooter", "lon": -76.93345633333334, "bike_id": "7f7bbf934116d6482648d22b39dd0d83", "fusion_lat": 0.0, "name": "7f7bbf934116d6482648d22b39dd0d83", "is_reserved": 0, "rental_uris": {"android": "https://dc.lft.to/lastmile_qr_scan", "ios": "https://dc.lft.to/lastmile_qr_scan"}, "fusion_lon": 0.0}, {"lat": 38.8970465, "is_disabled": 0, "type": "electric_scooter", "lon": -77.04871416666667, "bike_id": "2b87a43f69c30667e4b1c2978bd50012", "fusion_lat": 0.0, "name": "2b87a43f69c30667e4b1c2978bd50012", "is_reserved": 0, "rental_uris": {"android": "https://dc.lft.to/lastmile_qr_scan", "ios": "https://dc.lft.to/lastmile_qr_scan"}, "fusion_lon": 0.0}, {"lat": 38.922500166666666, "is_disabled": 0, "type": "electric_scooter", "lon": -77.0313815, "bike_id": "e60e6102de756430243330f976c5d6b2", "fusion_lat": 0.0, "name": "e60e6102de756430243330f976c5d6b2", "is_reserved": 0, "rental_uris": {"android": "https://dc.lft.to/lastmile_qr_scan", "ios": "https://dc.lft.to/lastmile_qr_scan"}, "fusion_lon": 0.0}, {"lat": 38.8707445, "is_disabled": 0, "type": "electric_bike", "lon": -76.97836133333334, "bike_id": "d14cdaeb58c515256d5ca07ce26e04c8", "fusion_lat": 0.0, "name": "d14cdaeb58c515256d5ca07ce26e04c8", "is_reserved": 0, "rental_uris": {"android": "https://dc.lft.to/lastmile_qr_scan", "ios": "https://dc.lft.to/lastmile_qr_scan"}, "fusion_lon": 0.0}, {"lat": 38.878566666666664, "is_disabled": 0, "type": "electric_scooter", "lon": -77.017678, "bike_id": "57ac1a26ef6f5b19bf00067a25ac6db8", "fusion_lat": 0.0, "name": "57ac1a26ef6f5b19bf00067a25ac6db8", "is_reserved": 0, "rental_uris": {"android": "https://dc.lft.to/lastmile_qr_scan", "ios": "https://dc.lft.to/lastmile_qr_scan"}, "fusion_lon": 0.0}, {"lat": 38.89223666666667, "is_disabled": 0, "type": "electric_scooter", "lon": -77.0221025, "bike_id": "5125f80aa7683339d492742e711b5d73", "fusion_lat": 0.0, "name": "5125f80aa7683339d492742e711b5d73", "is_reserved": 0, "rental_uris": {"android": "https://dc.lft.to/lastmile_qr_scan", "ios": "https://dc.lft.to/lastmile_qr_scan"}, "fusion_lon": 0.0}, {"lat": 38.89032866666667, "is_disabled": 0, "type": "electric_scooter", "lon": -76.93752583333334, "bike_id": "319cc5ba844c7312244c7b1a3b345fbe", "fusion_lat": 0.0, "name": "319cc5ba844c7312244c7b1a3b345fbe", "is_reserved": 0, "rental_uris": {"android": "https://dc.lft.to/lastmile_qr_scan", "ios": "https://dc.lft.to/lastmile_qr_scan"}, "fusion_lon": 0.0}, {"lat": 38.931274333333334, "is_disabled": 0, "type": "electric_bike", "lon": -77.0270935, "bike_id": "62581acc915efa903591851f2ee040eb", "fusion_lat": 0.0, "name": "62581acc915efa903591851f2ee040eb", "is_reserved": 0, "rental_uris": {"android": "https://dc.lft.to/lastmile_qr_scan", "ios": "https://dc.lft.to/lastmile_qr_scan"}, "fusion_lon": 0.0}, {"lat": 38.928742, "is_disabled": 0, "type": "electric_scooter", "lon": -77.0371325, "bike_id": "01f1af4f8252c7956068055ce67bdcc9", "fusion_lat": 0.0, "name": "01f1af4f8252c7956068055ce67bdcc9", "is_reserved": 0, "rental_uris": {"android": "https://dc.lft.to/lastmile_qr_scan", "ios": "https://dc.lft.to/lastmile_qr_scan"}, "fusion_lon": 0.0}, {"lat": 38.932937, "is_disabled": 0, "type": "electric_scooter", "lon": -77.04530466666667, "bike_id": "aff6a6ddc446d4ddc6cf88e3c7ae546e", "fusion_lat": 0.0, "name": "aff6a6ddc446d4ddc6cf88e3c7ae546e", "is_reserved": 0, "rental_uris": {"android": "https://dc.lft.to/lastmile_qr_scan", "ios": "https://dc.lft.to/lastmile_qr_scan"}, "fusion_lon": 0.0}, {"lat": 38.9146235, "is_disabled": 0, "type": "electric_scooter", "lon": -77.01431733333334, "bike_id": "4ce16969ec081e76366c6031cdcdce69", "fusion_lat": 0.0, "name": "4ce16969ec081e76366c6031cdcdce69", "is_reserved": 0, "rental_uris": {"android": "https://dc.lft.to/lastmile_qr_scan", "ios": "https://dc.lft.to/lastmile_qr_scan"}, "fusion_lon": 0.0}, {"lat": 38.900453166666665, "is_disabled": 0, "type": "electric_scooter", "lon": -77.03322933333334, "bike_id": "9c442b1e42fcd4d41a8603452ecd8d06", "fusion_lat": 0.0, "name": "9c442b1e42fcd4d41a8603452ecd8d06", "is_reserved": 0, "rental_uris": {"android": "https://dc.lft.to/lastmile_qr_scan", "ios": "https://dc.lft.to/lastmile_qr_scan"}, "fusion_lon": 0.0}, {"lat": 38.914561166666665, "is_disabled": 0, "type": "electric_bike", "lon": -76.972712, "bike_id": "58377399f678d5023e026d94b27b38df", "fusion_lat": 0.0, "name": "58377399f678d5023e026d94b27b38df", "is_reserved": 0, "rental_uris": {"android": "https://dc.lft.to/lastmile_qr_scan", "ios": "https://dc.lft.to/lastmile_qr_scan"}, "fusion_lon": 0.0},