{"data": {"bikes": [{"fusion_lat": 0.0, "name": "d62122264a6d848e2b0476426c6c085a", "is_disabled": 0, "rental_uris": {"android": "https://dc.lft.to/lastmile_qr_scan", "ios": "https://dc.lft.to/lastmile_qr_scan"}, "fusion_lon": 0.0, "lat": 38.898505, "bike_id": "d62122264a6d848e2b0476426c6c085a", "type": "electric_scooter", "is_reserved": 0, "lon": -76.99037716666666}, {"fusion_lat": 0.0, "name": "c6e39e11ac2b72b1553315d6e362c399", "is_disabled": 0, "rental_uris": {"android": "https://dc.lft.to/lastmile_qr_scan", "ios": "https://dc.lft.to/lastmile_qr_scan"}, "fusion_lon": 0.0, "lat": 38.91065116666667, "bike_id": "c6e39e11ac2b72b1553315d6e362c399", "type": "electric_scooter", "is_reserved": 0, "lon": -77.05272533333333}, {"fusion_lat": 0.0, "name": "b0f159f780b4acc4d78c197ede0535dc", "is_disabled": 0, "rental_uris": {"android": "https://dc.lft.to/lastmile_qr_scan", "ios": "https://dc.lft.to/lastmile_qr_scan"}, "fusion_lon": 0.0, "lat": 38.922561333333334, "bike_id": "b0f159f780b4acc4d78c197ede0535dc", "type": "electric_scooter", "is_reserved": 0, "lon": -77.01843233333334}, {"fusion_lat": 0.0, "name": "b440227c6f44b9e401732660fe0776c5", "is_disabled": 0, "rental_uris": {"android": "https://dc.lft.to/lastmile_qr_scan", "ios": "https://dc.lft.to/lastmile_qr_scan"}, "fusion_lon": 0.0, "lat": 38.928754833333336, "bike_id": "b440227c6f44b9e401732660fe0776c5", "type": "electric_scooter", "is_reserved": 0, "lon": -77.037953}, {"fusion_lat": 0.0, "name": "45910321cac567a93b5e97b556ade103", "is_disabled": 0, "rental_uris": {"android": "https://dc.lft.to/lastmile_qr_scan", "ios": "https://dc.lft.to/lastmile_qr_scan"}, "fusion_lon": 0.0, "lat": 38.91263333333333, "bike_id": "45910321cac567a93b5e97b556ade103", "type": "electric_scooter", "is_reserved": 0, "lon": -77.03141366666667}, {"fusion_lat": 0.0, "name": "be951fe343db4d8c1a50c3f75b36bc1d", "is_disabled": 0, "rental_uris": {"android": "https://dc.lft.to/lastmile_qr_scan", "ios": "https://dc.lft.to/lastmile_qr_scan"}, "fusion_lon": 0.0, "lat": 38.944049666666665, "bike_id": "be951fe343db4d8c1a50c3f75b36bc1d", "type": "electric_scooter", "is_reserved": 0, "lon": -77.036249}, {"fusion_lat": 0.0, "name": "01be9e291a844e4042b60088474ab94b", "is_disabled": 0, "rental_uris": {"android": "https://dc.lft.to/lastmile_qr_scan", "ios": "https://dc.lft.to/lastmile_qr_scan"}, "fusion_lon": 0.0, "lat": 38.91835966666667, "bike_id": "01be9e291a844e4042b60088474ab94b", "type": "electric_scooter", "is_reserved": 0, "lon": -77.041741}, {"fusion_lat": 0.0, "name": "9bd40c517218bc0dee4cb1b73d6ed090", "is_disabled": 0, "rental_uris": {"android": "https://dc.lft.to/lastmile_qr_scan", "ios": "https://dc.lft.to/lastmile_qr_scan"}, "fusion_lon": 0.0, "lat": 38.90023216666667, "bike_id": "9bd40c517218bc0dee4cb1b73d6ed090", "type": "electric_scooter", "is_reserved": 0, "lon": -77.00034033333333}, {"fusion_lat": 0.0, "name": "c90d08c16b5aeaa2970aac417fab3cda", "is_disabled": 0, "rental_uris": {"android": "https://dc.lft.to/lastmile_qr_scan", "ios": "https://dc.lft.to/lastmile_qr_scan"}, "fusion_lon": 0.0, "lat": 38.933179, "bike_id": "c90d08c16b5aeaa2970aac417fab3cda", "type": "electric_scooter", "is_reserved": 0, "lon": -77.02760133333334}, {"fusion_lat": 0.0, "name": "95a9227bbab39252ce72191c713f19e3", "is_disabled": 0, "rental_uris": {"android": "https://dc.lft.to/lastmile_qr_scan", "ios": "https://dc.lft.to/lastmile_qr_scan"}, "fusion_lon": 0.0, "lat": 38.917057, "bike_id": "95a9227bbab39252ce72191c713f19e3", "type": "electric_scooter", "is_reserved": 0, "lon": -77.00116016666666}, {"fusion_lat": 0.0, "name": "e790ec993dbe90eefae7b8dac52e69e2", "is_disabled": 0, "rental_uris": {"android": "https://dc.lft.to/lastmile_qr_scan", "ios": "https://dc.lft.to/lastmile_qr_scan"}, "fusion_lon": 0.0, "lat": 38.90059466666666, "bike_id": "e790ec993dbe90eefae7b8dac52e69e2", "type": "electric_scooter", "is_reserved": 0, "lon": -76.9855915}, {"fusion_lat": 0.0, "name": "83afb20e5f1076802fe21ee0a2e3f152", "is_disabled": 0, "rental_uris": {"android": "https://dc.lft.to/lastmile_qr_scan", "ios": "https://dc.lft.to/lastmile_qr_scan"}, "fusion_lon": 0.0, "lat": 38.920864, "bike_id": "83afb20e5f1076802fe21ee0a2e3f152", "type": "electric_scooter", "is_reserved": 0, "lon": -77.02509033333334}, {"fusion_lat": 0.0, "name": "c8e6779879a4839a6e9f73b4bd299292", "is_disabled": 0, "rental_uris": {"android": "https://dc.lft.to/lastmile_qr_scan", "ios": "https://dc.lft.to/lastmile_qr_scan"}, "fusion_lon": 0.0, "lat": 38.920915, "bike_id": "c8e6779879a4839a6e9f73b4bd299292", "type": "electric_scooter", "is_reserved": 0, "lon": -76.99786116666667}, {"fusion_lat": 0.0, "name": "4141f15a5876b3bca64cd521e38ce484", "is_disabled": 0, "rental_uris": {"android": "https://dc.lft.to/lastmile_qr_scan", "ios": "https://dc.lft.to/lastmile_qr_scan"}, "fusion_lon": 0.0, "lat": 39.010759666666665, "bike_id": "4141f15a5876b3bca64cd521e38ce484", "type": "electric_bike", "is_reserved": 0, "lon": -76.910708}, {"fusion_lat": 0.0, "name": "6663575acde11e9c589e59a381383d50", "is_disabled": 0, "rental_uris": {"android": "https://dc.lft.to/lastmile_qr_scan", "ios": "https://dc.lft.to/lastmile_qr_scan"}, "fusion_lon": 0.0, "lat": 38.901506833333336, "bike_id": "6663575acde11e9c589e59a381383d50", "type": "electric_scooter", "is_reserved": 0, "lon": -77.0331625}, {"fusion_lat": 0.0, "name": "09f479e007910c959660b098b2ad5d6a", "is_disabled": 0, "rental_uris": {"android": "https://dc.lft.to/lastmile_qr_scan", "ios": "https://dc.lft.to/lastmile_qr_scan"}, "fusion_lon": 0.0, "lat": 38.92418083333333, "bike_id": "09f479e007910c959660b098b2ad5d6a", "type": "electric_scooter", "is_reserved": 0, "lon": -77.0201115}, {"fusion_lat": 0.0, "name": "e0ef6a16d93dc9edd1373eb65e1abbd3", "is_disabled": 0, "rental_uris": {"android": "https://dc.lft.to/lastmile_qr_scan", "ios": "https://dc.lft.to/lastmile_qr_scan"}, "fusion_lon": 0.0, "lat": 38.938019833333335, "bike_id": "e0ef6a16d93dc9edd1373eb65e1abbd3", "type": "electric_scooter", "is_reserved": 0, "lon": -77.068613}, {"fusion_lat": 0.0, "name": "a4c17afd1b41d024964acb36aece2c37", "is_disabled": 0, "rental_uris": {"android": "https://dc.lft.to/lastmile_qr_scan", "ios": "https://dc.lft.to/lastmile_qr_scan"}, "fusion_lon": 0.0, "lat": 38.9168085, "bike_id": "a4c17afd1b41d024964acb36aece2c37", "type": "electric_scooter", "is_reserved": 0, "lon": -77.02966133333334}, {"fusion_lat": 0.0, "name": "0de843043e5f98f7d5516a2d2982917c", "is_disabled": 0, "rental_uris": {"android": "https://dc.lft.to/lastmile_qr_scan", "ios": "https://dc.lft.to/lastmile_qr_scan"}, "fusion_lon": 0.0, "lat": 38.928505666666666, "bike_id": "0de843043e5f98f7d5516a2d2982917c", "type": "electric_scooter", "is_reserved": 0, "lon": -76.9977195}, {"fusion_lat": 0.0, "name": "a808d4dd8f17f0f8555101b83f39eeb5", "is_disabled": 0, "rental_uris": {"android": "https://dc.lft.to/lastmile_qr_scan", "ios": "https://dc.lft.to/lastmile_qr_scan"}, "fusion_lon": 0.0, "lat": 38.92219, "bike_id": "a808d4dd8f17f0f8555101b83f39eeb5", "type": "electric_scooter", "is_reserved": 0, "lon": -77.041271}, {"fusion_lat": 0.0, "name": "a226c446ad4799f79d29106cc7dcd90d", "is_disabled": 0, "rental_uris": {"android": "https://dc.lft.to/lastmile_qr_scan", "ios": "https://dc.lft.to/lastmile_qr_scan"}, "fusion_lon": 0.0, "lat": 38.899901, "bike_id": "a226c446ad4799f79d29106cc7dcd90d", "type": "electric_scooter", "is_reserved": 0, "lon": -77.029251}, {"fusion_lat": 0.0, "name": "580d45c990e602461623f6811c0e04d3", "is_disabled": 0, "rental_uris": {"android": "https://dc.lft.to/lastmile_qr_scan", "ios": "https://dc.lft.to/lastmile_qr_scan"}, "fusion_lon": 0.0, "lat": 38.898259833333334, "bike_id": "580d45c990e602461623f6811c0e04d3", "type": "electric_scooter", "is_reserved": 0, "lon": -77.02492283333333}, {"fusion_lat": 0.0, "name": "3fbc6cebc93dc80bd9462281b2c10304", "is_disabled": 0, "rental_uris": {"android": "https://dc.lft.to/lastmile_qr_scan", "ios": "https://dc.lft.to/lastmile_qr_scan"}, "fusion_lon": 0.0, "lat": 38.923559166666664, "bike_id": "3fbc6cebc93dc80bd9462281b2c10304", "type": "electric_scooter", "is_reserved": 0, "lon": -77.01960466666667}, {"fusion_lat": 0.0, "name": "73ddfa2b8b3b94a346f31d2b245c4140", "is_disabled": 0, "rental_uris": {"android": "https://dc.lft.to/lastmile_qr_scan", "ios": "https://dc.lft.to/lastmile_qr_scan"}, "fusion_lon": 0.0, "lat": 38.898372, "bike_id": "73ddfa2b8b3b94a346f31d2b245c4140", "type": "electric_scooter", "is_reserved": 0, "lon": -77.02852666666666}, {"fusion_lat": 0.0, "name": "60e977bfc16093b9bcc4dc0ca8bc2276", "is_disabled": 0, "rental_uris": {"android": "https://dc.lft.to/lastmile_qr_scan", "ios": "https://dc.lft.to/lastmile_qr_scan"}, "fusion_lon": 0.0, "lat": 38.942257833333336, "bike_id": "60e977bfc16093b9bcc4dc0ca8bc2276", "type": "electric_scooter", "is_reserved": 0, "lon": -77.02346966666667}, {"fusion_lat": 0.0, "name": "7683e6f08a7173efe0e5d43cf7476531", "is_disabled": 0, "rental_uris": {"android": "https://dc.lft.to/lastmile_qr_scan", "ios": "https://dc.lft.to/lastmile_qr_scan"}, "fusion_lon": 0.0, "lat": 38.93114116666667, "bike_id": "7683e6f08a7173efe0e5d43cf7476531", "type": "electric_scooter", "is_reserved": 0, "lon": -77.03824166666666}, {"fusion_lat": 0.0, "name": "1dd53bc036407e76627bf5c3f278b2e0", "is_disabled": 0, "rental_uris": {"android": "https://dc.lft.to/lastmile_qr_scan", "ios": "https://dc.lft.to/lastmile_qr_scan"}, "fusion_lon": 0.0, "lat": 38.90475716666667, "bike_id": "1dd53bc036407e76627bf5c3f278b2e0", "type": "electric_scooter", "is_reserved": 0, "lon": -77.04366316666666}, {"fusion_lat": 0.0, "name": "2294020852b2141f90e0d97de9298ac4", "is_disabled": 0, "rental_uris": {"android": "https://dc.lft.to/lastmile_qr_scan", "ios": "https://dc.lft.to/lastmile_qr_scan"}, "fusion_lon": 0.0, "lat": 38.93006166666667, "bike_id": "2294020852b2141f90e0d97de9298ac4", "type": "electric_scooter", "is_reserved": 0, "lon": -77.03281316666667}, {"fusion_lat": 0.0, "name": "56b68ae5dd2056af7bee3b5d5aa412c6", "is_disabled": 0, "rental_uris": {"android": "https://dc.lft.to/lastmile_qr_scan", "ios": "https://dc.lft.to/lastmile_qr_scan"}, "fusion_lon": 0.0, "lat": 38.873338333333336, "bike_id": "56b68ae5dd2056af7bee3b5d5aa412c6", "type": "electric_bike", "is_reserved": 0, "lon": -77.0821355}, {"fusion_lat": 0.0, "name": "cc10fcfd5d9f45497937f9382cdd2eb8", "is_disabled": 0, "rental_uris": {"android": "https://dc.lft.to/lastmile_qr_scan", "ios": "https://dc.lft.to/lastmile_qr_scan"}, "fusion_lon": 0.0, "lat": 38.90723033333333, "bike_id": "cc10fcfd5d9f45497937f9382cdd2eb8", "type": "electric_scooter", "is_reserved": 0, "lon": -77.04340433333333}, {"fusion_lat": 0.0, "name": "79556c231131f2ef3ad4f635daf11b26", "is_disabled": 0, "rental_uris": {"android": "https://dc.lft.to/lastmile_qr_scan", "ios": "https://dc.lft.to/lastmile_qr_scan"}, "fusion_lon": 0.0, "lat": 38.90614466666667, "bike_id": "79556c231131f2ef3ad4f635daf11b26", "type": "electric_scooter", "is_reserved": 0, "lon": -77.024108}, {"fusion_lat": 0.0, "name": "7ccbb828f26e4c5ed6ca961034a30c70", "is_disabled": 0, "rental_uris": {"android": "https://dc.lft.to/lastmile_qr_scan", "ios": "https://dc.lft.to/lastmile_qr_scan"}, "fusion_lon": 0.0, "lat": 38.914188333333335, "bike_id": "7ccbb828f26e4c5ed6ca961034a30c70", "type": "electric_scooter", "is_reserved": 0, "lon": -77.03172416666666}, {"fusion_lat": 0.0, "name": "9e756ff57bd49941579127a8457abdda", "is_disabled": 0, "rental_uris": {"android": "https://dc.lft.to/lastmile_qr_scan", "ios": "https://dc.lft.to/lastmile_qr_scan"}, "fusion_lon": 0.0, "lat": 38.890002, "bike_id": "9e756ff57bd49941579127a8457abdda", "type": "electric_scooter", "is_reserved": 0, "lon": -77.04896616666667}, {"fusion_lat": 0.0, "name": "deeb6c02aeab787b1d6b3044606ecbd7", "is_disabled": 0, "rental_uris": {"android": "https://dc.lft.to/lastmile_qr_scan", "ios": "https://dc.lft.to/lastmile_qr_scan"}, "fusion_lon": 0.0, "lat": 38.91933566666667, "bike_id": "deeb6c02aeab787b1d6b3044606ecbd7", "type": "electric_scooter", "is_reserved": 0, "lon": -77.07063033333333}, {"fusion_lat": 0.0, "name": "ed1f1c27fbf10401ed8f834ddcd4e0ce", "is_disabled": 0, "rental_uris": {"android": "https://dc.lft.to/lastmile_qr_scan", "ios": "https://dc.lft.to/lastmile_qr_scan"}, "fusion_lon": 0.0, "lat": 38.80017816666667, "bike_id": "ed1f1c27fbf10401ed8f834ddcd4e0ce", "type": "electric_bike", "is_reserved": 0, "lon": -77.054845}, {"fusion_lat": 0.0, "name": "3ece440d5f4dbafb28533edbd5638093", "is_disabled": 0, "rental_uris": {"android": "https://dc.lft.to/lastmile_qr_scan", "ios": "https://dc.lft.to/lastmile_qr_scan"}, "fusion_lon": 0.0, "lat": 38.91711566666667, "bike_id": "3ece440d5f4dbafb28533edbd5638093", "type": "electric_scooter", "is_reserved": 0, "lon": -77.03350516666667}, {"fusion_lat": 0.0, "name": "f6d1511f82888801e1528121005c100f", "is_disabled": 0, "rental_uris": {"android": "https://dc.lft.to/lastmile_qr_scan", "ios": "https://dc.lft.to/lastmile_qr_scan"}, "fusion_lon": 0.0, "lat": 38.916423333333334, "bike_id": "f6d1511f82888801e1528121005c100f", "type": "electric_scooter", "is_reserved": 0, "lon": -77.02284866666666}, {"fusion_lat": 0.0, "name": "ec4b734b7e8dfa2375764418ab58253d", "is_disabled": 0, "rental_uris": {"android": "https://dc.lft.to/lastmile_qr_scan", "ios": "https://dc.lft.to/lastmile_qr_scan"}, "fusion_lon": 0.0, "lat": 38.915577, "bike_id": "ec4b734b7e8dfa2375764418ab58253d", "type": "electric_scooter", "is_reserved": 0, "lon": -77.0322675}, {"fusion_lat": 0.0, "name": "9a04c3fbc5b4e4f6723364e7b579f60e", "is_disabled": 0, "rental_uris": {"android": "https://dc.lft.to/lastmile_qr_scan", "ios": "https://dc.lft.to/lastmile_qr_scan"}, "fusion_lon": 0.0, "lat": 38.879142333333334, "bike_id": "9a04c3fbc5b4e4f6723364e7b579f60e", "type": "electric_scooter", "is_reserved": 0, "lon": -77.0089415}, {"fusion_lat": 0.0, "name": "aacffad408acb8d9bd1b3d57e3fad483", "is_disabled": 0, "rental_uris": {"android": "https://dc.lft.to/lastmile_qr_scan", "ios": "https://dc.lft.to/lastmile_qr_scan"}, "fusion_lon": 0.0, "lat": 38.915562, "bike_id": "aacffad408acb8d9bd1b3d57e3fad483", "type": "electric_scooter", "is_reserved": 0, "lon": -77.03229}, {"fusion_lat": 0.0, "name": "8953a0c7573570e1e467b86c8c49ae50", "is_disabled": 0, "rental_uris": {"android": "https://dc.lft.to/lastmile_qr_scan", "ios": "https://dc.lft.to/lastmile_qr_scan"}, "fusion_lon": 0.0, "lat": 38.924803, "bike_id": "8953a0c7573570e1e467b86c8c49ae50", "type": "electric_scooter", "is_reserved": 0, "lon": -77.026532}, {"fusion_lat": 0.0, "name": "7a603f8d8eb1f8318c0558fdb5a5867b", "is_disabled": 0, "rental_uris": {"android": "https://dc.lft.to/lastmile_qr_scan", "ios": "https://dc.lft.to/lastmile_qr_scan"}, "fusion_lon": 0.0, "lat": 38.914358, "bike_id": "7a603f8d8eb1f8318c0558fdb5a5867b", "type": "electric_scooter", "is_reserved": 0, "lon": -77.01570483333333}, {"fusion_lat": 0.0, "name": "c488d15a732c9a7d76fe701bcfa09157", "is_disabled": 0, "rental_uris": {"android": "https://dc.lft.to/lastmile_qr_scan", "ios": "https://dc.lft.to/lastmile_qr_scan"}, "fusion_lon": 0.0, "lat": 38.9296715, "bike_id": "c488d15a732c9a7d76fe701bcfa09157", "type": "electric_scooter", "is_reserved": 0, "lon": -77.0552295}, {"fusion_lat": 0.0, "name": "1333aeeeb457f30af81d2adecf8cf22c", "is_disabled": 0, "rental_uris": {"android": "https://dc.lft.to/lastmile_qr_scan", "ios": "https://dc.lft.to/lastmile_qr_scan"}, "fusion_lon": 0.0, "lat": 38.87657933333333, "bike_id": "1333aeeeb457f30af81d2adecf8cf22c", "type": "electric_scooter", "is_reserved": 0, "lon": -77.00917566666666}, {"fusion_lat": 0.0, "name": "0f553834dd1f508545b5bb76a2f4926a", "is_disabled": 0, "rental_uris": {"android": "https://dc.lft.to/lastmile_qr_scan", "ios": "https://dc.lft.to/lastmile_qr_scan"}, "fusion_lon": 0.0, "lat": 38.929171333333336, "bike_id": "0f553834dd1f508545b5bb76a2f4926a", "type": "electric_scooter", "is_reserved": 0, "lon": -77.02337416666667}, {"fusion_lat": 0.0, "name": "ad0ef5f8e33914ccd2091160484b666c", "is_disabled": 0, "rental_uris": {"android": "https://dc.lft.to/lastmile_qr_scan", "ios": "https://dc.lft.to/lastmile_qr_scan"}, "fusion_lon": 0.0, "lat": 38.95883216666667, "bike_id": "ad0ef5f8e33914ccd2091160484b666c", "type": "electric_scooter", "is_reserved": 0, "lon": -77.01170383333333}, {"fusion_lat": 0.0, "name": "56f24fed2cfa2955371e5629ef881156", "is_disabled": 0, "rental_uris": {"android": "https://dc.lft.to/lastmile_qr_scan", "ios": "https://dc.lft.to/lastmile_qr_scan"}, "fusion_lon": 0.0, "lat": 38.8823185, "bike_id": "56f24fed2cfa2955371e5629ef881156", "type": "electric_scooter", "is_reserved": 0, "lon": -77.02613583333333}, {"fusion_lat": 0.0, "name": "b6bb9c4f3544cada838a772104704195", "is_disabled": 0, "rental_uris": {"android": "https://dc.lft.to/lastmile_qr_scan", "ios": "https://dc.lft.to/lastmile_qr_scan"}, "fusion_lon": 0.0, "lat": 38.931856833333335, "bike_id": "b6bb9c4f3544cada838a772104704195", "type": "electric_scooter", "is_reserved": 0, "lon": -77.029742}, {"fusion_lat": 0.0, "name": "13db0de1b444c93996b4e2064df3f62f", "is_disabled": 0, "rental_uris": {"android": "https://dc.lft.to/lastmile_qr_scan", "ios": "https://dc.lft.to/lastmile_qr_scan"}, "fusion_lon": 0.0, "lat": 38.8871865, "bike_id": "13db0de1b444c93996b4e2064df3f62f", "type": "electric_scooter", "is_reserved": 0, "lon": -77.02202516666667}, {"fusion_lat": 0.0, "name": "b6c2aa2a3cc2c0e678fded314270de83", "is_disabled": 0, "rental_uris": {"android": "https://dc.lft.to/lastmile_qr_scan", "ios": "https://dc.lft.to/lastmile_qr_scan"}, "fusion_lon": 0.0, "lat": 38.9060685, "bike_id": "b6c2aa2a3cc2c0e678fded314270de83", "type": "electric_scooter", "is_reserved": 0, "lon": -77.0449755}, {"fusion_lat": 0.0, "name": "f4acc66dab56f6061b4b44c72c0f9289", "is_disabled": 0, "rental_uris": {"android": "https://dc.lft.to/lastmile_qr_scan", "ios": "https://dc.lft.to/lastmile_qr_scan"}, "fusion_lon": 0.0, "lat": 38.90423666666667, "bike_id": "f4acc66dab56f6061b4b44c72c0f9289", "type": "electric_scooter", "is_reserved": 0, "lon": -77.026692}, {"fusion_lat": 0.0, "name": "b28bfb846139ed5df22163741523198c", "is_disabled": 0, "rental_uris": {"android": "https://dc.lft.to/lastmile_qr_scan", "ios": "https://dc.lft.to/lastmile_qr_scan"}, "fusion_lon": 0.0, "lat": 38.849148166666666, "bike_id": "b28bfb846139ed5df22163741523198c", "type": "electric_bike", "is_reserved": 0, "lon": -77.0793155}, {"fusion_lat": 0.0, "name": "dd7208298584aededadbf18965728b86", "is_disabled": 0, "rental_uris": {"android": "https://dc.lft.to/lastmile_qr_scan", "ios": "https://dc.lft.to/lastmile_qr_scan"}, "fusion_lon": 0.0, "lat": 38.81608166666667, "bike_id": "dd7208298584aededadbf18965728b86", "type": "electric_bike", "is_reserved": 0, "lon": -76.99660783333333}, {"fusion_lat": 0.0, "name": "1952160feedbc0b2004f9b6e26f6d72f", "is_disabled": 0, "rental_uris": {"android": "https://dc.lft.to/lastmile_qr_scan", "ios": "https://dc.lft.to/lastmile_qr_scan"}, "fusion_lon": 0.0, "lat": 38.911217666666666, "bike_id": "1952160feedbc0b2004f9b6e26f6d72f", "type": "electric_bike", "is_reserved": 0, "lon": -77.06546016666667}, {"fusion_lat": 0.0, "name": "be74cb70546a4c3e09172f6ebe8cd186", "is_disabled": 0, "rental_uris": {"android": "https://dc.lft.to/lastmile_qr_scan", "ios": "https://dc.lft.to/lastmile_qr_scan"}, "fusion_lon": 0.0, "lat": 38.92704916666667, "bike_id": "be74cb70546a4c3e09172f6ebe8cd186", "type": "electric_scooter", "is_reserved": 0, "lon": -77.02082066666667}, {"fusion_lat": 0.0, "name": "2f301612c21f05dd54724ac6dd2250b0", "is_disabled": 0, "rental_uris": {"android": "https://dc.lft.to/lastmile_qr_scan", "ios": "https://dc.lft.to/lastmile_qr_scan"}, "fusion_lon": 0.0, "lat": 38.900583833333336, "bike_id": "2f301612c21f05dd54724ac6dd2250b0", "type": "electric_scooter", "is_reserved": 0, "lon": -76.98718083333333}, {"fusion_lat": 0.0, "name": "29ee265b0d781985d18da0fc5308b394", "is_disabled": 0, "rental_uris": {"android": "https://dc.lft.to/lastmile_qr_scan", "ios": "https://dc.lft.to/lastmile_qr_scan"}, "fusion_lon": 0.0, "lat": 38.885060333333335, "bike_id": "29ee265b0d781985d18da0fc5308b394", "type": "electric_scooter", "is_reserved": 0, "lon": -76.99755583333334}, {"fusion_lat": 0.0, "name": "16423bf0944cc7fa12771195f7e9b806", "is_disabled": 0, "rental_uris": {"android": "https://dc.lft.to/lastmile_qr_scan", "ios": "https://dc.lft.to/lastmile_qr_scan"}, "fusion_lon": 0.0, "lat": 39.01418733333333, "bike_id": "16423bf0944cc7fa12771195f7e9b806", "type": "electric_bike", "is_reserved": 0, "lon": -77.045}, {"fusion_lat": 0.0, "name": "b5105bcded48ae020945f27ff2df52f6", "is_disabled": 0, "rental_uris": {"android": "https://dc.lft.to/lastmile_qr_scan", "ios": "https://dc.lft.to/lastmile_qr_scan"}, "fusion_lon": 0.0, "lat": 38.8788035, "bike_id": "b5105bcded48ae020945f27ff2df52f6", "type": "electric_scooter", "is_reserved": 0, "lon": -77.023166}, {"fusion_lat": 0.0, "name": "65712d6ca36ceb9cfbd47dde18366e49", "is_disabled": 0, "rental_uris": {"android": "https://dc.lft.to/lastmile_qr_scan", "ios": "https://dc.lft.to/lastmile_qr_scan"}, "fusion_lon": 0.0, "lat": 38.9319135, "bike_id": "65712d6ca36ceb9cfbd47dde18366e49", "type": "electric_bike", "is_reserved": 0, "lon": -77.22924916666666}, {"fusion_lat": 0.0, "name": "40c85dd779efb24efa3cfa1b061f6155", "is_disabled": 0, "rental_uris": {"android": "https://dc.lft.to/lastmile_qr_scan", "ios": "https://dc.lft.to/lastmile_qr_scan"}, "fusion_lon": 0.0, "lat": 38.922451333333335, "bike_id": "40c85dd779efb24efa3cfa1b061f6155", "type": "electric_scooter", "is_reserved": 0, "lon": -77.074743}, {"fusion_lat": 0.0, "name": "d60cc3cbe18c5487b0e5439b7f3f8c0b", "is_disabled": 0, "rental_uris": {"android": "https://dc.lft.to/lastmile_qr_scan", "ios": "https://dc.lft.to/lastmile_qr_scan"}, "fusion_lon": 0.0, "lat": 38.92060716666667, "bike_id": "d60cc3cbe18c5487b0e5439b7f3f8c0b", "type": "electric_scooter", "is_reserved": 0, "lon": -77.0426235}, {"fusion_lat": 0.0, "name": "fd037513b2d9b033ec8f3701cd868b85", "is_disabled": 0, "rental_uris": {"android": "https://dc.lft.to/lastmile_qr_scan", "ios": "https://dc.lft.to/lastmile_qr_scan"}, "fusion_lon": 0.0, "lat": 38.90276883333333, "bike_id": "fd037513b2d9b033ec8f3701cd868b85", "type": "electric_scooter", "is_reserved": 0, "lon": -77.01879883333334}, {"fusion_lat": 0.0, "name": "0c12e8a63749fabe371a4fe5d1cf44cd", "is_disabled": 0, "rental_uris": {"android": "https://dc.lft.to/lastmile_qr_scan", "ios": "https://dc.lft.to/lastmile_qr_scan"}, "fusion_lon": 0.0, "lat": 38.93517583333333, "bike_id": "0c12e8a63749fabe371a4fe5d1cf44cd", "type": "electric_scooter", "is_reserved": 0, "lon": -77.03347416666666}, {"fusion_lat": 0.0, "name": "4c344abd7a009c87328e31a079a834d1", "is_disabled": 0, "rental_uris": {"android": "https://dc.lft.to/lastmile_qr_scan", "ios": "https://dc.lft.to/lastmile_qr_scan"}, "fusion_lon": 0.0, "lat": 38.924816, "bike_id": "4c344abd7a009c87328e31a079a834d1", "type": "electric_scooter", "is_reserved": 0, "lon": -77.02632866666667}, {"fusion_lat": 0.0, "name": "b7d89c88dcfa8769529d0dd28ec75170", "is_disabled": 0, "rental_uris": {"android": "https://dc.lft.to/lastmile_qr_scan", "ios": "https://dc.lft.to/lastmile_qr_scan"}, "fusion_lon": 0.0, "lat": 38.90272783333333, "bike_id": "b7d89c88dcfa8769529d0dd28ec75170", "type": "electric_scooter", "is_reserved": 0, "lon": -76.9767395}, {"fusion_lat": 0.0, "name": "38a611a5607d60b5b26dd207d792e6b5", "is_disabled": 0, "rental_uris": {"android": "https://dc.lft.to/lastmile_qr_scan", "ios": "https://dc.lft.to/lastmile_qr_scan"}, "fusion_lon": 0.0, "lat": 38.89222216666667, "bike_id": "38a611a5607d60b5b26dd207d792e6b5", "type": "electric_scooter", "is_reserved": 0, "lon": -77.04404016666666}, {"fusion_lat": 0.0, "name": "8f66aff4b0bc9b2b505cf2222d38f179", "is_disabled": 0, "rental_uris": {"android": "https://dc.lft.to/lastmile_qr_scan", "ios": "https://dc.lft.to/lastmile_qr_scan"}, "fusion_lon": 0.0, "lat": 38.93491, "bike_id": "8f66aff4b0bc9b2b505cf2222d38f179", "type": "electric_scooter", "is_reserved": 0, "lon": -77.045322}, {"fusion_lat": 0.0, "name": "57c61463d9c54b9be8d5ccc8c5ae6e93", "is_disabled": 0, "rental_uris": {"android": "https://dc.lft.to/lastmile_qr_scan", "ios": "https://dc.lft.to/lastmile_qr_scan"}, "fusion_lon": 0.0, "lat": 38.896669333333335, "bike_id": "57c61463d9c54b9be8d5ccc8c5ae6e93", "type": "electric_scooter", "is_reserved": 0, "lon": -76.93212633333333}, {"fusion_lat": 0.0, "name": "75521345dbd53577ef91eb15e16bdeb8", "is_disabled": 0, "rental_uris": {"android": "https://dc.lft.to/lastmile_qr_scan", "ios": "https://dc.lft.to/lastmile_qr_scan"}, "fusion_lon": 0.0, "lat": 38.92451766666667, "bike_id": "75521345dbd53577ef91eb15e16bdeb8", "type": "electric_scooter", "is_reserved": 0, "lon": -77.02405283333333}, {"fusion_lat": 0.0, "name": "6ec4b66f4e8fdf03170c73d634944c10", "is_disabled": 0, "rental_uris": {"android": "https://dc.lft.to/lastmile_qr_scan", "ios": "https://dc.lft.to/lastmile_qr_scan"}, "fusion_lon": 0.0, "lat": 38.908033, "bike_id": "6ec4b66f4e8fdf03170c73d634944c10", "type": "electric_scooter", "is_reserved": 0, "lon": -76.9969555}, {"fusion_lat": 0.0, "name": "ccbc5c69c6e788824a6d9702b1ea083f", "is_disabled": 0, "rental_uris": {"android": "https://dc.lft.to/lastmile_qr_scan", "ios": "https://dc.lft.to/lastmile_qr_scan"}, "fusion_lon": 0.0, "lat": 38.87178083333333, "bike_id": "ccbc5c69c6e788824a6d9702b1ea083f", "type": "electric_scooter", "is_reserved": 0, "lon": -77.006165}, {"fusion_lat": 0.0, "name": "6f14eae8bd82edd3ab4edb90dab5225d", "is_disabled": 0, "rental_uris": {"android": "https://dc.lft.to/lastmile_qr_scan", "ios": "https://dc.lft.to/lastmile_qr_scan"}, "fusion_lon": 0.0, "lat": 38.9537795, "bike_id": "6f14eae8bd82edd3ab4edb90dab5225d", "type": "electric_bike", "is_reserved": 0, "lon": -76.979616}, {"fusion_lat": 0.0, "name": "53300afe11d8bda8163d93d2ea4c78c3", "is_disabled": 0, "rental_uris": {"android": "https://dc.lft.to/lastmile_qr_scan", "ios": "https://dc.lft.to/lastmile_qr_scan"}, "fusion_lon": 0.0, "lat": 38.90463033333333, "bike_id": "53300afe11d8bda8163d93d2ea4c78c3", "type": "electric_scooter", "is_reserved": 0, "lon": -77.00356233333333}, {"fusion_lat": 0.0, "name": "fc53b63c9ea5b63af73e9f2cca46dcc6", "is_disabled": 0, "rental_uris": {"android": "https://dc.lft.to/lastmile_qr_scan", "ios": "https://dc.lft.to/lastmile_qr_scan"}, "fusion_lon": 0.0, "lat": 38.92702283333333, "bike_id": "fc53b63c9ea5b63af73e9f2cca46dcc6", "type": "electric_scooter", "is_reserved": 0, "lon": -77.0206825}, {"fusion_lat": 0.0, "name": "57f9c9c959d7b66e1847296b48ed35e3", "is_disabled": 0, "rental_uris": {"android": "https://dc.lft.to/lastmile_qr_scan", "ios": "https://dc.lft.to/lastmile_qr_scan"}, "fusion_lon": 0.0, "lat": 38.915239666666665, "bike_id": "57f9c9c959d7b66e1847296b48ed35e3", "type": "electric_scooter", "is_reserved": 0, "lon": -77.072749}, {"fusion_lat": 0.0, "name": "5c0806203072c96500e38404d8ef3178", "is_disabled": 0, "rental_uris": {"android": "https://dc.lft.to/lastmile_qr_scan", "ios": "https://dc.lft.to/lastmile_qr_scan"}, "fusion_lon": 0.0, "lat": 38.9234495, "bike_id": "5c0806203072c96500e38404d8ef3178", "type": "electric_scooter", "is_reserved": 0, "lon": -77.02016833333333}, {"fusion_lat": 0.0, "name": "2f607deeb38ae092838c6b11a229a8f4", "is_disabled": 0, "rental_uris": {"android": "https://dc.lft.to/lastmile_qr_scan", "ios": "https://dc.lft.to/lastmile_qr_scan"}, "fusion_lon": 0.0, "lat": 38.91355166666666, "bike_id": "2f607deeb38ae092838c6b11a229a8f4", "type": "electric_scooter", "is_reserved": 0, "lon": -77.04350066666667}, {"fusion_lat": 0.0, "name": "1e284002146efd7dfc0dab94d54cf8c0", "is_disabled": 0, "rental_uris": {"android": "https://dc.lft.to/lastmile_qr_scan", "ios": "https://dc.lft.to/lastmile_qr_scan"}, "fusion_lon": 0.0, "lat": 38.88540583333333, "bike_id": "1e284002146efd7dfc0dab94d54cf8c0", "type": "electric_scooter", "is_reserved": 0, "lon": -77.00051683333334}, {"fusion_lat": 0.0, "name": "e05960f9f972004e9a975dabd3367656", "is_disabled": 0, "rental_uris": {"android": "https://dc.lft.to/lastmile_qr_scan", "ios": "https://dc.lft.to/lastmile_qr_scan"}, "fusion_lon": 0.0, "lat": 38.937006833333335, "bike_id": "e05960f9f972004e9a975dabd3367656", "type": "electric_scooter", "is_reserved": 0, "lon": -77.05593533333334}, {"fusion_lat": 0.0, "name": "d50595dd79e5cbc533851a0f502f5da2", "is_disabled": 0, "rental_uris": {"android": "https://dc.lft.to/lastmile_qr_scan", "ios": "https://dc.lft.to/lastmile_qr_scan"}, "fusion_lon": 0.0, "lat": 38.91588083333333, "bike_id": "d50595dd79e5cbc533851a0f502f5da2", "type": "electric_scooter", "is_reserved": 0, "lon": -77.02303166666667}, {"fusion_lat": 0.0, "name": "73f065f07ee1124a51aa149e4bbcbe32", "is_disabled": 0, "rental_uris": {"android": "https://dc.lft.to/lastmile_qr_scan", "ios": "https://dc.lft.to/lastmile_qr_scan"}, "fusion_lon": 0.0, "lat": 38.917657166666665, "bike_id": "73f065f07ee1124a51aa149e4bbcbe32", "type": "electric_scooter", "is_reserved": 0, "lon": -77.03073933333333}, {"fusion_lat": 0.0, "name": "6e477b75457cd27b14ab5c960eb43504", "is_disabled": 0, "rental_uris": {"android": "https://dc.lft.to/lastmile_qr_scan", "ios": "https://dc.lft.to/lastmile_qr_scan"}, "fusion_lon": 0.0, "lat": 38.92141483333333, "bike_id": "6e477b75457cd27b14ab5c960eb43504", "type": "electric_scooter", "is_reserved": 0, "lon": -77.01795}, {"fusion_lat": 0.0, "name": "bcb2110b2d41ac657ffa572c687567a1", "is_disabled": 0, "rental_uris": {"android": "https://dc.lft.to/lastmile_qr_scan", "ios": "https://dc.lft.to/lastmile_qr_scan"}, "fusion_lon": 0.0, "lat": 38.928628, "bike_id": "bcb2110b2d41ac657ffa572c687567a1", "type": "electric_scooter", "is_reserved": 0, "lon": -77.03246266666666}, {"fusion_lat": 0.0, "name": "49cff577801baad299eaa616ea9f87c5", "is_disabled": 0, "rental_uris": {"android": "https://dc.lft.to/lastmile_qr_scan", "ios": "https://dc.lft.to/lastmile_qr_scan"}, "fusion_lon": 0.0, "lat": 38.892444, "bike_id": "49cff577801baad299eaa616ea9f87c5", "type": "electric_scooter", "is_reserved": 0, "lon": -77.03351366666666}, {"fusion_lat": 0.0, "name": "6ad97ad4892cf9d84f8448ee4703f059", "is_disabled": 0, "rental_uris": {"android": "https://dc.lft.to/lastmile_qr_scan", "ios": "https://dc.lft.to/lastmile_qr_scan"}, "fusion_lon": 0.0, "lat": 38.907643, "bike_id": "6ad97ad4892cf9d84f8448ee4703f059", "type": "electric_scooter", "is_reserved": 0, "lon": -77.056961}, {"fusion_lat": 0.0, "name": "4734a4acb1ead02eb3549a9e21289d4e", "is_disabled": 0, "rental_uris": {"android": "https://dc.lft.to/lastmile_qr_scan", "ios": "https://dc.lft.to/lastmile_qr_scan"}, "fusion_lon": 0.0, "lat": 38.896244333333335, "bike_id": "4734a4acb1ead02eb3549a9e21289d4e", "type": "electric_scooter", "is_reserved": 0, "lon": -77.02389516666666}, {"fusion_lat": 0.0, "name": "f991c7d870248b2520badfd2b79e9a0d", "is_disabled": 0, "rental_uris": {"android": "https://dc.lft.to/lastmile_qr_scan", "ios": "https://dc.lft.to/lastmile_qr_scan"}, "fusion_lon": 0.0, "lat": 38.89963916666667, "bike_id": "f991c7d870248b2520badfd2b79e9a0d", "type": "electric_scooter", "is_reserved": 0, "lon": -77.01887533333333}, {"fusion_lat": 0.0, "name": "7c7dc9a143ed8aa4d89e90bfca17c4a8", "is_disabled": 0, "rental_uris": {"android": "https://dc.lft.to/lastmile_qr_scan", "ios": "https://dc.lft.to/lastmile_qr_scan"}, "fusion_lon": 0.0, "lat": 38.89744833333334, "bike_id": "7c7dc9a143ed8aa4d89e90bfca17c4a8", "type": "electric_scooter", "is_reserved": 0, "lon": -77.023302}, {"fusion_lat": 0.0, "name": "0b67c3fac5fd95800c95f9e5c04a4d3a", "is_disabled": 0, "rental_uris": {"android": "https://dc.lft.to/lastmile_qr_scan", "ios": "https://dc.lft.to/lastmile_qr_scan"}, "fusion_lon": 0.0, "lat": 38.92590466666667, "bike_id": "0b67c3fac5fd95800c95f9e5c04a4d3a", "type": "electric_scooter", "is_reserved": 0, "lon": -77.0440055}, {"fusion_lat": 0.0, "name": "77f75e4df7e9b27bff307ebf04d7d451", "is_disabled": 0, "rental_uris": {"android": "https://dc.lft.to/lastmile_qr_scan", "ios": "https://dc.lft.to/lastmile_qr_scan"}, "fusion_lon": 0.0, "lat": 38.90949333333333, "bike_id": "77f75e4df7e9b27bff307ebf04d7d451", "type": "electric_bike", "is_reserved": 0, "lon": -76.984537}, {"fusion_lat": 0.0, "name": "c66318ad32e1a0c59a33a092fb7a86df", "is_disabled": 0, "rental_uris": {"android": "https://dc.lft.to/lastmile_qr_scan", "ios": "https://dc.lft.to/lastmile_qr_scan"}, "fusion_lon": 0.0, "lat": 38.8973605, "bike_id": "c66318ad32e1a0c59a33a092fb7a86df", "type": "electric_scooter", "is_reserved": 0, "lon": -77.02343333333333}, {"fusion_lat": 0.0, "name": "28a68e23f374ac03177c232469624006", "is_disabled": 0, "rental_uris": {"android": "https://dc.lft.to/lastmile_qr_scan", "ios": "https://dc.lft.to/lastmile_qr_scan"}, "fusion_lon": 0.0, "lat": 38.92516716666667, "bike_id": "28a68e23f374ac03177c232469624006", "type": "electric_scooter", "is_reserved": 0, "lon": -77.02360416666667}, {"fusion_lat": 0.0, "name": "4697209f286054d3d9f69290025c4c71", "is_disabled": 0, "rental_uris": {"android": "https://dc.lft.to/lastmile_qr_scan", "ios": "https://dc.lft.to/lastmile_qr_scan"}, "fusion_lon": 0.0, "lat": 38.911145166666664, "bike_id": "4697209f286054d3d9f69290025c4c71", "type": "electric_scooter", "is_reserved": 0, "lon": -77.08137666666667}, {"fusion_lat": 0.0, "name": "ed85e00a7e02f47000a403b16c1890ed", "is_disabled": 0, "rental_uris": {"android": "https://dc.lft.to/lastmile_qr_scan", "ios": "https://dc.lft.to/lastmile_qr_scan"}, "fusion_lon": 0.0, "lat": 38.920111, "bike_id": "ed85e00a7e02f47000a403b16c1890ed", "type": "electric_scooter", "is_reserved": 0, "lon": -77.03144316666666}, {"fusion_lat": 0.0, "name": "e306851c3b3a5128b9df3f03bb65f53e", "is_disabled": 0, "rental_uris": {"android": "https://dc.lft.to/lastmile_qr_scan", "ios": "https://dc.lft.to/lastmile_qr_scan"}, "fusion_lon": 0.0, "lat": 38.914216333333336, "bike_id": "e306851c3b3a5128b9df3f03bb65f53e", "type": "electric_scooter", "is_reserved": 0, "lon": -77.03171233333333}, {"fusion_lat": 0.0, "name": "d116e7a323d95e10b6aa538512c23db3", "is_disabled": 0, "rental_uris": {"android": "https://dc.lft.to/lastmile_qr_scan", "ios": "https://dc.lft.to/lastmile_qr_scan"}, "fusion_lon": 0.0, "lat": 38.98500583333333, "bike_id": "d116e7a323d95e10b6aa538512c23db3", "type": "electric_bike", "is_reserved": 0, "lon": -76.98201016666667}, {"fusion_lat": 0.0, "name": "4911aa413f8edaf351e3f0743341d63d", "is_disabled": 0, "rental_uris": {"android": "https://dc.lft.to/lastmile_qr_scan", "ios": "https://dc.lft.to/lastmile_qr_scan"}, "fusion_lon": 0.0, "lat": 38.93476033333334, "bike_id": "4911aa413f8edaf351e3f0743341d63d", "type": "electric_scooter", "is_reserved": 0, "lon": -77.0285335}, {"fusion_lat": 0.0, "name": "f55ff45abb6ba6e109fc4ff7a5c39e36", "is_disabled": 0, "rental_uris": {"android": "https://dc.lft.to/lastmile_qr_scan", "ios": "https://dc.lft.to/lastmile_qr_scan"}, "fusion_lon": 0.0, "lat": 38.920782833333334, "bike_id": "f55ff45abb6ba6e109fc4ff7a5c39e36", "type": "electric_bike", "is_reserved": 0, "lon": -76.98948283333333}, {"fusion_lat": 0.0, "name": "129f24d13b2e63da72e110603395f536", "is_disabled": 0, "rental_uris": {"android": "https://dc.lft.to/lastmile_qr_scan", "ios": "https://dc.lft.to/lastmile_qr_scan"}, "fusion_lon": 0.0, "lat": 38.89227483333333, "bike_id": "129f24d13b2e63da72e110603395f536", "type": "electric_scooter", "is_reserved": 0, "lon": -77.02825433333334}, {"fusion_lat": 0.0, "name": "310b121f32373de8cc1027b226b7fa0a", "is_disabled": 0, "rental_uris": {"android": "https://dc.lft.to/lastmile_qr_scan", "ios": "https://dc.lft.to/lastmile_qr_scan"}, "fusion_lon": 0.0, "lat": 38.86065583333333, "bike_id": "310b121f32373de8cc1027b226b7fa0a", "type": "electric_scooter", "is_reserved": 0, "lon": -76.985015}, {"fusion_lat": 0.0, "name": "028bf5b203a88bfe9c8cf7ab12342890", "is_disabled": 0, "rental_uris": {"android": "https://dc.lft.to/lastmile_qr_scan", "ios": "https://dc.lft.to/lastmile_qr_scan"}, "fusion_lon": 0.0, "lat": 38.914295, "bike_id": "028bf5b203a88bfe9c8cf7ab12342890", "type": "electric_scooter", "is_reserved": 0, "lon": -77.06422383333333}, {"fusion_lat": 0.0, "name": "b4daeb510aaa30c81fc46779928cf3f4", "is_disabled": 0, "rental_uris": {"android": "https://dc.lft.to/lastmile_qr_scan", "ios": "https://dc.lft.to/lastmile_qr_scan"}, "fusion_lon": 0.0, "lat": 38.8785185, "bike_id": "b4daeb510aaa30c81fc46779928cf3f4", "type": "electric_scooter", "is_reserved": 0, "lon": -77.0131115}, {"fusion_lat": 0.0, "name": "85d45be90cb0dc253fd50bf59992275d", "is_disabled": 0, "rental_uris": {"android": "https://dc.lft.to/lastmile_qr_scan", "ios": "https://dc.lft.to/lastmile_qr_scan"}, "fusion_lon": 0.0, "lat": 38.87466916666666, "bike_id": "85d45be90cb0dc253fd50bf59992275d", "type": "electric_scooter", "is_reserved": 0, "lon": -77.0097365}, {"fusion_lat": 0.0, "name": "b8450cd5f957f75c813cd0a1668b7fc0", "is_disabled": 0, "rental_uris": {"android": "https://dc.lft.to/lastmile_qr_scan", "ios": "https://dc.lft.to/lastmile_qr_scan"}, "fusion_lon": 0.0, "lat": 38.906036, "bike_id": "b8450cd5f957f75c813cd0a1668b7fc0", "type": "electric_scooter", "is_reserved": 0, "lon": -77.02380816666667}, {"fusion_lat": 0.0, "name": "c9e65925c583a7c16128b6a514bcc605", "is_disabled": 0, "rental_uris": {"android": "https://dc.lft.to/lastmile_qr_scan", "ios": "https://dc.lft.to/lastmile_qr_scan"}, "fusion_lon": 0.0, "lat": 38.9133085, "bike_id": "c9e65925c583a7c16128b6a514bcc605", "type": "electric_scooter", "is_reserved": 0, "lon": -77.0319805}, {"fusion_lat": 0.0, "name": "8bde136a4fe368da222aa4b8cd8b101b", "is_disabled": 0, "rental_uris": {"android": "https://dc.lft.to/lastmile_qr_scan", "ios": "https://dc.lft.to/lastmile_qr_scan"}, "fusion_lon": 0.0, "lat": 38.8787845, "bike_id": "8bde136a4fe368da222aa4b8cd8b101b", "type": "electric_scooter", "is_reserved": 0, "lon": -77.02231233333333}, {"fusion_lat": 0.0, "name": "cbe25eb66d3f050488142e3e0138b212", "is_disabled": 0, "rental_uris": {"android": "https://dc.lft.to/lastmile_qr_scan", "ios": "https://dc.lft.to/lastmile_qr_scan"}, "fusion_lon": 0.0, "lat": 38.898756666666664, "bike_id": "cbe25eb66d3f050488142e3e0138b212", "type": "electric_scooter", "is_reserved": 0, "lon": -76.93186183333333}, {"fusion_lat": 0.0, "name": "112d011227fc8c99ce5d396e0c8e6628", "is_disabled": 0, "rental_uris": {"android": "https://dc.lft.to/lastmile_qr_scan", "ios": "https://dc.lft.to/lastmile_qr_scan"}, "fusion_lon": 0.0, "lat": 38.88230883333333, "bike_id": "112d011227fc8c99ce5d396e0c8e6628", "type": "electric_scooter", "is_reserved": 0, "lon": -77.02616433333333}, {"fusion_lat": 0.0, "name": "adb9cfb2366605b62620260ca221bbe2", "is_disabled": 0, "rental_uris": {"android": "https://dc.lft.to/lastmile_qr_scan", "ios": "https://dc.lft.to/lastmile_qr_scan"}, "fusion_lon": 0.0, "lat": 38.91481683333333, "bike_id": "adb9cfb2366605b62620260ca221bbe2", "type": "electric_scooter", "is_reserved": 0, "lon": -77.02181083333333}, {"fusion_lat": 0.0, "name": "f65133eda7cacd5fe59fc5ec10c0f82b", "is_disabled": 0, "rental_uris": {"android": "https://dc.lft.to/lastmile_qr_scan", "ios": "https://dc.lft.to/lastmile_qr_scan"}, "fusion_lon": 0.0, "lat": 39.0563325, "bike_id": "f65133eda7cacd5fe59fc5ec10c0f82b", "type": "electric_bike", "is_reserved": 0, "lon": -77.12527833333333}, {"fusion_lat": 0.0, "name": "b51c1502040c6848af134d8d6fe6936d", "is_disabled": 0, "rental_uris": {"android": "https://dc.lft.to/lastmile_qr_scan", "ios": "https://dc.lft.to/lastmile_qr_scan"}, "fusion_lon": 0.0, "lat": 38.931364333333335, "bike_id": "b51c1502040c6848af134d8d6fe6936d", "type": "electric_scooter", "is_reserved": 0, "lon": -77.0280485}, {"fusion_lat": 0.0, "name": "9e38dc8d343608286a92d52eef8f6102", "is_disabled": 0, "rental_uris": {"android": "https://dc.lft.to/lastmile_qr_scan", "ios": "https://dc.lft.to/lastmile_qr_scan"}, "fusion_lon": 0.0, "lat": 38.916144333333335, "bike_id": "9e38dc8d343608286a92d52eef8f6102", "type": "electric_scooter", "is_reserved": 0, "lon": -77.029506}, {"fusion_lat": 0.0, "name": "e06fb2a389ee06a7a09632c9d05797fc", "is_disabled": 0, "rental_uris": {"android": "https://dc.lft.to/lastmile_qr_scan", "ios": "https://dc.lft.to/lastmile_qr_scan"}, "fusion_lon": 0.0, "lat": 38.9338375, "bike_id": "e06fb2a389ee06a7a09632c9d05797fc", "type": "electric_scooter", "is_reserved": 0, "lon": -77.02682466666667}, {"fusion_lat": 0.0, "name": "a7fb137dbb419863c3ed31bac4c549ec", "is_disabled": 0, "rental_uris": {"android": "https://dc.lft.to/lastmile_qr_scan", "ios": "https://dc.lft.to/lastmile_qr_scan"}, "fusion_lon": 0.0, "lat": 38.905136, "bike_id": "a7fb137dbb419863c3ed31bac4c549ec", "type": "electric_scooter", "is_reserved": 0, "lon": -77.068736}, {"fusion_lat": 0.0, "name": "a8fe6c42c6d31495dc8800228d51ed14", "is_disabled": 0, "rental_uris": {"android": "https://dc.lft.to/lastmile_qr_scan", "ios": "https://dc.lft.to/lastmile_qr_scan"}, "fusion_lon": 0.0, "lat": 38.92182583333334, "bike_id": "a8fe6c42c6d31495dc8800228d51ed14", "type": "electric_scooter", "is_reserved": 0, "lon": -76.9979505}, {"fusion_lat": 0.0, "name": "29b85a4181acb6d5494f6fe56dfdcbaa", "is_disabled": 0, "rental_uris": {"android": "https://dc.lft.to/lastmile_qr_scan", "ios": "https://dc.lft.to/lastmile_qr_scan"}, "fusion_lon": 0.0, "lat": 38.9125615, "bike_id": "29b85a4181acb6d5494f6fe56dfdcbaa", "type": "electric_scooter", "is_reserved": 0, "lon": -77.04925833333333}, {"fusion_lat": 0.0, "name": "6382ef57f804540a6c6e4dad6677f159", "is_disabled": 0, "rental_uris": {"android": "https://dc.lft.to/lastmile_qr_scan", "ios": "https://dc.lft.to/lastmile_qr_scan"}, "fusion_lon": 0.0, "lat": 38.89010116666667, "bike_id": "6382ef57f804540a6c6e4dad6677f159", "type": "electric_scooter", "is_reserved": 0, "lon": -76.93747916666666}, {"fusion_lat": 0.0, "name": "5091092bf2c2dd4d0e715247dc23864c", "is_disabled": 0, "rental_uris": {"android": "https://dc.lft.to/lastmile_qr_scan", "ios": "https://dc.lft.to/lastmile_qr_scan"}, "fusion_lon": 0.0, "lat": 38.904573, "bike_id": "5091092bf2c2dd4d0e715247dc23864c", "type": "electric_scooter", "is_reserved": 0, "lon": -77.03372033333333}, {"fusion_lat": 0.0, "name": "f10f39beeef2b0d206ca799770c7cfda", "is_disabled": 0, "rental_uris": {"android": "https://dc.lft.to/lastmile_qr_scan", "ios": "https://dc.lft.to/lastmile_qr_scan"}, "fusion_lon": 0.0, "lat": 38.9136415, "bike_id": "f10f39beeef2b0d206ca799770c7cfda", "type": "electric_scooter", "is_reserved": 0, "lon": -77.04872866666666}, {"fusion_lat": 0.0, "name": "8feb6b248649baed0f6c6c228486b296", "is_disabled": 0, "rental_uris": {"android": "https://dc.lft.to/lastmile_qr_scan", "ios": "https://dc.lft.to/lastmile_qr_scan"}, "fusion_lon": 0.0, "lat": 38.887438, "bike_id": "8feb6b248649baed0f6c6c228486b296", "type": "electric_scooter", "is_reserved": 0, "lon": -77.025717}, {"fusion_lat": 0.0, "name": "dfd60f347f9f9deb73f5340e388b635c", "is_disabled": 0, "rental_uris": {"android": "https://dc.lft.to/lastmile_qr_scan", "ios": "https://dc.lft.to/lastmile_qr_scan"}, "fusion_lon": 0.0, "lat": 38.910296, "bike_id": "dfd60f347f9f9deb73f5340e388b635c", "type": "electric_scooter", "is_reserved": 0, "lon": -77.01513783333333}, {"fusion_lat": 0.0, "name": "b3ab340431ff51c88ee19d637260dab0", "is_disabled": 0, "rental_uris": {"android": "https://dc.lft.to/lastmile_qr_scan", "ios": "https://dc.lft.to/lastmile_qr_scan"}, "fusion_lon": 0.0, "lat": 38.89868516666667, "bike_id": "b3ab340431ff51c88ee19d637260dab0", "type": "electric_scooter", "is_reserved": 0, "lon": -77.02822433333333}, {"fusion_lat": 0.0, "name": "7ec6e4e29c2cfdb03484f444a68c5939", "is_disabled": 0, "rental_uris": {"android": "https://dc.lft.to/lastmile_qr_scan", "ios": "https://dc.lft.to/lastmile_qr_scan"}, "fusion_lon": 0.0, "lat": 38.923955, "bike_id": "7ec6e4e29c2cfdb03484f444a68c5939", "type": "electric_scooter", "is_reserved": 0, "lon": -77.0241305}, {"fusion_lat": 0.0, "name": "438f7df72558349fc66d10497551aeff", "is_disabled": 0, "rental_uris": {"android": "https://dc.lft.to/lastmile_qr_scan", "ios": "https://dc.lft.to/lastmile_qr_scan"}, "fusion_lon": 0.0, "lat": 38.91695633333333, "bike_id": "438f7df72558349fc66d10497551aeff", "type": "electric_scooter", "is_reserved": 0, "lon": -77.03588466666666}, {"fusion_lat": 0.0, "name": "189787895d0b2b32caaa4e1b4cb41a8f", "is_disabled": 0, "rental_uris": {"android": "https://dc.lft.to/lastmile_qr_scan", "ios": "https://dc.lft.to/lastmile_qr_scan"}, "fusion_lon": 0.0, "lat": 38.887654833333336, "bike_id": "189787895d0b2b32caaa4e1b4cb41a8f", "type": "electric_scooter", "is_reserved": 0, "lon": -76.9964935}, {"fusion_lat": 0.0, "name": "1392b2cb42339d50843350e6a2c8aaa0", "is_disabled": 0, "rental_uris": {"android": "https://dc.lft.to/lastmile_qr_scan", "ios": "https://dc.lft.to/lastmile_qr_scan"}, "fusion_lon": 0.0, "lat": 38.90976966666667, "bike_id": "1392b2cb42339d50843350e6a2c8aaa0", "type": "electric_scooter", "is_reserved": 0, "lon": -77.0218675}, {"fusion_lat": 0.0, "name": "6f450890f4e2f39f3e13a02fd895c585", "is_disabled": 0, "rental_uris": {"android": "https://dc.lft.to/lastmile_qr_scan", "ios": "https://dc.lft.to/lastmile_qr_scan"}, "fusion_lon": 0.0, "lat": 38.95237766666666, "bike_id": "6f450890f4e2f39f3e13a02fd895c585", "type": "electric_scooter", "is_reserved": 0, "lon": -76.990056}, {"fusion_lat": 0.0, "name": "30ae6ba34d8fb1bd7aca2b37beb304e4", "is_disabled": 0, "rental_uris": {"android": "https://dc.lft.to/lastmile_qr_scan", "ios": "https://dc.lft.to/lastmile_qr_scan"}, "fusion_lon": 0.0, "lat": 38.88066283333333, "bike_id": "30ae6ba34d8fb1bd7aca2b37beb304e4", "type": "electric_scooter", "is_reserved": 0, "lon": -77.02555366666667}, {"fusion_lat": 0.0, "name": "6335ba095cad16ae03084af53a0e5bbd", "is_disabled": 0, "rental_uris": {"android": "https://dc.lft.to/lastmile_qr_scan", "ios": "https://dc.lft.to/lastmile_qr_scan"}, "fusion_lon": 0.0, "lat": 38.93079816666667, "bike_id": "6335ba095cad16ae03084af53a0e5bbd", "type": "electric_scooter", "is_reserved": 0, "lon": -77.07766516666666}, {"fusion_lat": 0.0, "name": "82425482cf7a30fbf538909840f2ea77", "is_disabled": 0, "rental_uris": {"android": "https://dc.lft.to/lastmile_qr_scan", "ios": "https://dc.lft.to/lastmile_qr_scan"}, "fusion_lon": 0.0, "lat": 38.860209166666664, "bike_id": "82425482cf7a30fbf538909840f2ea77", "type": "electric_bike", "is_reserved": 0, "lon": -77.12809066666667}, {"fusion_lat": 0.0, "name": "d0b324de97c1ab4be2da862c14a64175", "is_disabled": 0, "rental_uris": {"android": "https://dc.lft.to/lastmile_qr_scan", "ios": "https://dc.lft.to/lastmile_qr_scan"}, "fusion_lon": 0.0, "lat": 38.907289, "bike_id": "d0b324de97c1ab4be2da862c14a64175", "type": "electric_scooter", "is_reserved": 0, "lon": -77.01224466666666}, {"fusion_lat": 0.0, "name": "1ba4d0e965f2032b863b40c14b430a65", "is_disabled": 0, "rental_uris": {"android": "https://dc.lft.to/lastmile_qr_scan", "ios": "https://dc.lft.to/lastmile_qr_scan"}, "fusion_lon": 0.0, "lat": 38.90148766666667, "bike_id": "1ba4d0e965f2032b863b40c14b430a65", "type": "electric_scooter", "is_reserved": 0, "lon": -77.0332035}, {"fusion_lat": 0.0, "name": "369e1212de3f80300ebded20f804b34c", "is_disabled": 0, "rental_uris": {"android": "https://dc.lft.to/lastmile_qr_scan", "ios": "https://dc.lft.to/lastmile_qr_scan"}, "fusion_lon": 0.0, "lat": 38.904098, "bike_id": "369e1212de3f80300ebded20f804b34c", "type": "electric_scooter", "is_reserved": 0, "lon": -76.97329933333333}, {"fusion_lat": 0.0, "name": "0fe472ca16d0544f42443b7c96df21b6", "is_disabled": 0, "rental_uris": {"android": "https://dc.lft.to/lastmile_qr_scan", "ios": "https://dc.lft.to/lastmile_qr_scan"}, "fusion_lon": 0.0, "lat": 38.91483016666667, "bike_id": "0fe472ca16d0544f42443b7c96df21b6", "type": "electric_scooter", "is_reserved": 0, "lon": -77.0220425}, {"fusion_lat": 0.0, "name": "08cca7943c5285f84a890d723e0c3e49", "is_disabled": 0, "rental_uris": {"android": "https://dc.lft.to/lastmile_qr_scan", "ios": "https://dc.lft.to/lastmile_qr_scan"}, "fusion_lon": 0.0, "lat": 38.892315833333335, "bike_id": "08cca7943c5285f84a890d723e0c3e49", "type": "electric_scooter", "is_reserved": 0, "lon": -77.03178433333333}, {"fusion_lat": 0.0, "name": "23aca83d86c6a58dbc056a212c5698fb", "is_disabled": 0, "rental_uris": {"android": "https://dc.lft.to/lastmile_qr_scan", "ios": "https://dc.lft.to/lastmile_qr_scan"}, "fusion_lon": 0.0, "lat": 38.902598166666664, "bike_id": "23aca83d86c6a58dbc056a212c5698fb", "type": "electric_scooter", "is_reserved": 0, "lon": -76.97459366666666}, {"fusion_lat": 0.0, "name": "9543aad4a15b078d0a6b81a3855186e0", "is_disabled": 0, "rental_uris": {"android": "https://dc.lft.to/lastmile_qr_scan", "ios": "https://dc.lft.to/lastmile_qr_scan"}, "fusion_lon": 0.0, "lat": 38.95629516666666, "bike_id": "9543aad4a15b078d0a6b81a3855186e0", "type": "electric_scooter", "is_reserved": 0, "lon": -77.02317083333334}, {"fusion_lat": 0.0, "name": "14e808806d68babc9303d70ffd99a7d7", "is_disabled": 0, "rental_uris": {"android": "https://dc.lft.to/lastmile_qr_scan", "ios": "https://dc.lft.to/lastmile_qr_scan"}, "fusion_lon": 0.0, "lat": 38.90722316666667, "bike_id": "14e808806d68babc9303d70ffd99a7d7", "type": "electric_scooter", "is_reserved": 0, "lon": -77.02982183333333}, {"fusion_lat": 0.0, "name": "7773f06ef68950b15fefa74714e96b73", "is_disabled": 0, "rental_uris": {"android": "https://dc.lft.to/lastmile_qr_scan", "ios": "https://dc.lft.to/lastmile_qr_scan"}, "fusion_lon": 0.0, "lat": 38.887149666666666, "bike_id": "7773f06ef68950b15fefa74714e96b73", "type": "electric_scooter", "is_reserved": 0, "lon": -77.01775633333334}, {"fusion_lat": 0.0, "name": "8b3f0b21ba506afa83d890318ed01485", "is_disabled": 0, "rental_uris": {"android": "https://dc.lft.to/lastmile_qr_scan", "ios": "https://dc.lft.to/lastmile_qr_scan"}, "fusion_lon": 0.0, "lat": 38.90028016666667, "bike_id": "8b3f0b21ba506afa83d890318ed01485", "type": "electric_scooter", "is_reserved": 0, "lon": -76.9884765}, {"fusion_lat": 0.0, "name": "88aea34deb4722cd77f5a6b2a6df1386", "is_disabled": 0, "rental_uris": {"android": "https://dc.lft.to/lastmile_qr_scan", "ios": "https://dc.lft.to/lastmile_qr_scan"}, "fusion_lon": 0.0, "lat": 38.86762516666667, "bike_id": "88aea34deb4722cd77f5a6b2a6df1386", "type": "electric_scooter", "is_reserved": 0, "lon": -76.98274216666667}, {"fusion_lat": 0.0, "name": "1359a6d92a3788e7e62d7ea401587669", "is_disabled": 0, "rental_uris": {"android": "https://dc.lft.to/lastmile_qr_scan", "ios": "https://dc.lft.to/lastmile_qr_scan"}, "fusion_lon": 0.0, "lat": 38.874755666666665, "bike_id": "1359a6d92a3788e7e62d7ea401587669", "type": "electric_scooter", "is_reserved": 0, "lon": -77.00065016666667}, {"fusion_lat": 0.0, "name": "ae8f64ce8b32ed254d3c9995467cc381", "is_disabled": 0, "rental_uris": {"android": "https://dc.lft.to/lastmile_qr_scan", "ios": "https://dc.lft.to/lastmile_qr_scan"}, "fusion_lon": 0.0, "lat": 38.89674, "bike_id": "ae8f64ce8b32ed254d3c9995467cc381", "type": "electric_scooter", "is_reserved": 0, "lon": -77.03344983333334}, {"fusion_lat": 0.0, "name": "cd971ffe0fedb781e9e0def32e9ab839", "is_disabled": 0, "rental_uris": {"android": "https://dc.lft.to/lastmile_qr_scan", "ios": "https://dc.lft.to/lastmile_qr_scan"}, "fusion_lon": 0.0, "lat": 38.889074666666666, "bike_id": "cd971ffe0fedb781e9e0def32e9ab839", "type": "electric_scooter", "is_reserved": 0, "lon": -76.9773445}, {"fusion_lat": 0.0, "name": "9bbd36191d09d4307fc1efb0e76015f8", "is_disabled": 0, "rental_uris": {"android": "https://dc.lft.to/lastmile_qr_scan", "ios": "https://dc.lft.to/lastmile_qr_scan"}, "fusion_lon": 0.0, "lat": 38.92796366666666, "bike_id": "9bbd36191d09d4307fc1efb0e76015f8", "type": "electric_scooter", "is_reserved": 0, "lon": -77.02395216666666}, {"fusion_lat": 0.0, "name": "6bb036670de839cda766c0ca7bbd21c0", "is_disabled": 0, "rental_uris": {"android": "https://dc.lft.to/lastmile_qr_scan", "ios": "https://dc.lft.to/lastmile_qr_scan"}, "fusion_lon": 0.0, "lat": 38.9286475, "bike_id": "6bb036670de839cda766c0ca7bbd21c0", "type": "electric_scooter", "is_reserved": 0, "lon": -77.03226716666667}, {"fusion_lat": 0.0, "name": "ee0c8924baa3336e706b02c0490f5f74", "is_disabled": 0, "rental_uris": {"android": "https://dc.lft.to/lastmile_qr_scan", "ios": "https://dc.lft.to/lastmile_qr_scan"}, "fusion_lon": 0.0, "lat": 38.887231, "bike_id": "ee0c8924baa3336e706b02c0490f5f74", "type": "electric_scooter", "is_reserved": 0, "lon": -77.0133375}, {"fusion_lat": 0.0, "name": "412a71be0cad0eeb30f34379ace0dcf2", "is_disabled": 0, "rental_uris": {"android": "https://dc.lft.to/lastmile_qr_scan", "ios": "https://dc.lft.to/lastmile_qr_scan"}, "fusion_lon": 0.0, "lat": 38.86256783333333, "bike_id": "412a71be0cad0eeb30f34379ace0dcf2", "type": "electric_bike", "is_reserved": 0, "lon": -76.9835745}, {"fusion_lat": 0.0, "name": "bd3626f0e193aa6b332af4d5e702c671", "is_disabled": 0, "rental_uris": {"android": "https://dc.lft.to/lastmile_qr_scan", "ios": "https://dc.lft.to/lastmile_qr_scan"}, "fusion_lon": 0.0, "lat": 38.8811035, "bike_id": "bd3626f0e193aa6b332af4d5e702c671", "type": "electric_scooter", "is_reserved": 0, "lon": -76.99853916666666}, {"fusion_lat": 0.0, "name": "c56ce7eb932e18c675e9c2f65787d303", "is_disabled": 0, "rental_uris": {"android": "https://dc.lft.to/lastmile_qr_scan", "ios": "https://dc.lft.to/lastmile_qr_scan"}, "fusion_lon": 0.0, "lat": 38.99540966666667, "bike_id": "c56ce7eb932e18c675e9c2f65787d303", "type": "electric_bike", "is_reserved": 0, "lon": -77.07463216666666}, {"fusion_lat": 0.0, "name": "103e0d954af758ae9381807b18ab03ba", "is_disabled": 0, "rental_uris": {"android": "https://dc.lft.to/lastmile_qr_scan", "ios": "https://dc.lft.to/lastmile_qr_scan"}, "fusion_lon": 0.0, "lat": 38.94660666666667, "bike_id": "103e0d954af758ae9381807b18ab03ba", "type": "electric_bike", "is_reserved": 0, "lon": -77.00696266666667}, {"fusion_lat": 0.0, "name": "0026f2c1425be126d46703b6133c276d", "is_disabled": 0, "rental_uris": {"android": "https://dc.lft.to/lastmile_qr_scan", "ios": "https://dc.lft.to/lastmile_qr_scan"}, "fusion_lon": 0.0, "lat": 38.916575333333334, "bike_id": "0026f2c1425be126d46703b6133c276d", "type": "electric_scooter", "is_reserved": 0, "lon": -77.028186}, {"fusion_lat": 0.0, "name": "e7626a911728d65edc78e663faccbe66", "is_disabled": 0, "rental_uris": {"android": "https://dc.lft.to/lastmile_qr_scan", "ios": "https://dc.lft.to/lastmile_qr_scan"}, "fusion_lon": 0.0, "lat": 38.91453083333333, "bike_id": "e7626a911728d65edc78e663faccbe66", "type": "electric_scooter", "is_reserved": 0, "lon": -77.03192633333333}, {"fusion_lat": 0.0, "name": "c2844b54dc42c621d3223b83eaa98ba7", "is_disabled": 0, "rental_uris": {"android": "https://dc.lft.to/lastmile_qr_scan", "ios": "https://dc.lft.to/lastmile_qr_scan"}, "fusion_lon": 0.0, "lat": 38.9227025, "bike_id": "c2844b54dc42c621d3223b83eaa98ba7", "type": "electric_scooter", "is_reserved": 0, "lon": -76.99761816666667}, {"fusion_lat": 0.0, "name": "065f949e5b73febf8e70c045b1ba4baf", "is_disabled": 0, "rental_uris": {"android": "https://dc.lft.to/lastmile_qr_scan", "ios": "https://dc.lft.to/lastmile_qr_scan"}, "fusion_lon": 0.0, "lat": 38.92366783333333, "bike_id": "065f949e5b73febf8e70c045b1ba4baf", "type": "electric_scooter", "is_reserved": 0, "lon": -77.0425195}, {"fusion_lat": 0.0, "name": "5379344b8e43f222f977999b681628f7", "is_disabled": 0, "rental_uris": {"android": "https://dc.lft.to/lastmile_qr_scan", "ios": "https://dc.lft.to/lastmile_qr_scan"}, "fusion_lon": 0.0, "lat": 38.90679, "bike_id": "5379344b8e43f222f977999b681628f7", "type": "electric_scooter", "is_reserved": 0, "lon": -77.023874}, {"fusion_lat": 0.0, "name": "104954595ced1793ebfe8b14a4b90aa1", "is_disabled": 0, "rental_uris": {"android": "https://dc.lft.to/lastmile_qr_scan", "ios": "https://dc.lft.to/lastmile_qr_scan"}, "fusion_lon": 0.0, "lat": 38.892468, "bike_id": "104954595ced1793ebfe8b14a4b90aa1", "type": "electric_scooter", "is_reserved": 0, "lon": -77.03186283333334}, {"fusion_lat": 0.0, "name": "ca61106cea31091fa5c3a2a3cb13ec7a", "is_disabled": 0, "rental_uris": {"android": "https://dc.lft.to/lastmile_qr_scan", "ios": "https://dc.lft.to/lastmile_qr_scan"}, "fusion_lon": 0.0, "lat": 38.88623616666667, "bike_id": "ca61106cea31091fa5c3a2a3cb13ec7a", "type": "electric_scooter", "is_reserved": 0, "lon": -77.02003533333334}, {"fusion_lat": 0.0, "name": "fa67ab5b31215500c5d5f5e9d031929a", "is_disabled": 0, "rental_uris": {"android": "https://dc.lft.to/lastmile_qr_scan", "ios": "https://dc.lft.to/lastmile_qr_scan"}, "fusion_lon": 0.0, "lat": 38.92614416666667, "bike_id": "fa67ab5b31215500c5d5f5e9d031929a", "type": "electric_scooter", "is_reserved": 0, "lon": -77.02214916666667}, {"fusion_lat": 0.0, "name": "61c7b34039d74f54d99298e81d507c9e", "is_disabled": 0, "rental_uris": {"android": "https://dc.lft.to/lastmile_qr_scan", "ios": "https://dc.lft.to/lastmile_qr_scan"}, "fusion_lon": 0.0, "lat": 38.940206333333336, "bike_id": "61c7b34039d74f54d99298e81d507c9e", "type": "electric_scooter", "is_reserved": 0, "lon": -77.02784283333334}, {"fusion_lat": 0.0, "name": "534c67e88f6350bbc7a2209cb2a3afc3", "is_disabled": 0, "rental_uris": {"android": "https://dc.lft.to/lastmile_qr_scan", "ios": "https://dc.lft.to/lastmile_qr_scan"}, "fusion_lon": 0.0, "lat": 38.919237833333334, "bike_id": "534c67e88f6350bbc7a2209cb2a3afc3", "type": "electric_scooter", "is_reserved": 0, "lon": -77.02508}, {"fusion_lat": 0.0, "name": "8e15cdf7e8f48454553f012a1ceb6357", "is_disabled": 0, "rental_uris": {"android": "https://dc.lft.to/lastmile_qr_scan", "ios": "https://dc.lft.to/lastmile_qr_scan"}, "fusion_lon": 0.0, "lat": 38.900327833333336, "bike_id": "8e15cdf7e8f48454553f012a1ceb6357", "type": "electric_scooter", "is_reserved": 0, "lon": -76.988539}, {"fusion_lat": 0.0, "name": "f46cb1e765f3e4a510e1582efacb7c3c", "is_disabled": 0, "rental_uris": {"android": "https://dc.lft.to/lastmile_qr_scan", "ios": "https://dc.lft.to/lastmile_qr_scan"}, "fusion_lon": 0.0, "lat": 38.9109705, "bike_id": "f46cb1e765f3e4a510e1582efacb7c3c", "type": "electric_scooter", "is_reserved": 0, "lon": -77.00963666666667}, {"fusion_lat": 0.0, "name": "ce651db71a61f0e05e5cae4642752046", "is_disabled": 0, "rental_uris": {"android": "https://dc.lft.to/lastmile_qr_scan", "ios": "https://dc.lft.to/lastmile_qr_scan"}, "fusion_lon": 0.0, "lat": 38.89221083333333, "bike_id": "ce651db71a61f0e05e5cae4642752046", "type": "electric_scooter", "is_reserved": 0, "lon": -77.0322185}, {"fusion_lat": 0.0, "name": "674459e441c64db471508f84169d0b18", "is_disabled": 0, "rental_uris": {"android": "https://dc.lft.to/lastmile_qr_scan", "ios": "https://dc.lft.to/lastmile_qr_scan"}, "fusion_lon": 0.0, "lat": 38.926077166666666, "bike_id": "674459e441c64db471508f84169d0b18", "type": "electric_scooter", "is_reserved": 0, "lon": -77.02161966666667}, {"fusion_lat": 0.0, "name": "e4deb16aab05278935dfbad8b23a3ade", "is_disabled": 0, "rental_uris": {"android": "https://dc.lft.to/lastmile_qr_scan", "ios": "https://dc.lft.to/lastmile_qr_scan"}, "fusion_lon": 0.0, "lat": 38.876332833333336, "bike_id": "e4deb16aab05278935dfbad8b23a3ade", "type": "electric_scooter", "is_reserved": 0, "lon": -77.00949133333333}, {"fusion_lat": 0.0, "name": "de75f6ec7206074349ef2117b4717e1c", "is_disabled": 0, "rental_uris": {"android": "https://dc.lft.to/lastmile_qr_scan", "ios": "https://dc.lft.to/lastmile_qr_scan"}, "fusion_lon": 0.0, "lat": 38.91805866666667, "bike_id": "de75f6ec7206074349ef2117b4717e1c", "type": "electric_scooter", "is_reserved": 0, "lon": -77.03338733333334}, {"fusion_lat": 0.0, "name": "0712d06d60322d0453fb58d3c7b42c79", "is_disabled": 0, "rental_uris": {"android": "https://dc.lft.to/lastmile_qr_scan", "ios": "https://dc.lft.to/lastmile_qr_scan"}, "fusion_lon": 0.0, "lat": 38.919081, "bike_id": "0712d06d60322d0453fb58d3c7b42c79", "type": "electric_scooter", "is_reserved": 0, "lon": -77.012282}, {"fusion_lat": 0.0, "name": "1eed8b322b0863083f2c1699d6fcf79e", "is_disabled": 0, "rental_uris": {"android": "https://dc.lft.to/lastmile_qr_scan", "ios": "https://dc.lft.to/lastmile_qr_scan"}, "fusion_lon": 0.0, "lat": 38.9070805, "bike_id": "1eed8b322b0863083f2c1699d6fcf79e", "type": "electric_scooter", "is_reserved": 0, "lon": -77.02402133333334}, {"fusion_lat": 0.0, "name": "28df0f4b5a21fcf38e655b31b71733df", "is_disabled": 0, "rental_uris": {"android": "https://dc.lft.to/lastmile_qr_scan", "ios": "https://dc.lft.to/lastmile_qr_scan"}, "fusion_lon": 0.0, "lat": 38.955955, "bike_id": "28df0f4b5a21fcf38e655b31b71733df", "type": "electric_bike", "is_reserved": 0, "lon": -77.01009983333333}, {"fusion_lat": 0.0, "name": "95688655b7f3e8fd09e7ad3c165b9824", "is_disabled": 0, "rental_uris": {"android": "https://dc.lft.to/lastmile_qr_scan", "ios": "https://dc.lft.to/lastmile_qr_scan"}, "fusion_lon": 0.0, "lat": 38.906919, "bike_id": "95688655b7f3e8fd09e7ad3c165b9824", "type": "electric_scooter", "is_reserved": 0, "lon": -77.041739}, {"fusion_lat": 0.0, "name": "ea722291e9373b3950ffb2d28454a4b4", "is_disabled": 0, "rental_uris": {"android": "https://dc.lft.to/lastmile_qr_scan", "ios": "https://dc.lft.to/lastmile_qr_scan"}, "fusion_lon": 0.0, "lat": 38.900217166666664, "bike_id": "ea722291e9373b3950ffb2d28454a4b4", "type": "electric_scooter", "is_reserved": 0, "lon": -77.03634333333333}, {"fusion_lat": 0.0, "name": "259b67142583b3f97779e45fba55a790", "is_disabled": 0, "rental_uris": {"android": "https://dc.lft.to/lastmile_qr_scan", "ios": "https://dc.lft.to/lastmile_qr_scan"}, "fusion_lon": 0.0, "lat": 38.941533666666665, "bike_id": "259b67142583b3f97779e45fba55a790", "type": "electric_bike", "is_reserved": 0, "lon": -77.00195566666666}, {"fusion_lat": 0.0, "name": "7992c36e4ee54aa92fd9cabc1f4eb009", "is_disabled": 0, "rental_uris": {"android": "https://dc.lft.to/lastmile_qr_scan", "ios": "https://dc.lft.to/lastmile_qr_scan"}, "fusion_lon": 0.0, "lat": 38.904105, "bike_id": "7992c36e4ee54aa92fd9cabc1f4eb009", "type": "electric_scooter", "is_reserved": 0, "lon": -76.97330866666667}, {"fusion_lat": 0.0, "name": "0895f34cce5963ff5f3048ec598e3515", "is_disabled": 0, "rental_uris": {"android": "https://dc.lft.to/lastmile_qr_scan", "ios": "https://dc.lft.to/lastmile_qr_scan"}, "fusion_lon": 0.0, "lat": 38.987707666666665, "bike_id": "0895f34cce5963ff5f3048ec598e3515", "type": "electric_bike", "is_reserved": 0, "lon": -77.14054783333333}, {"fusion_lat": 0.0, "name": "73130405ccc7fc264bc40f44bf241762", "is_disabled": 0, "rental_uris": {"android": "https://dc.lft.to/lastmile_qr_scan", "ios": "https://dc.lft.to/lastmile_qr_scan"}, "fusion_lon": 0.0, "lat": 38.922609, "bike_id": "73130405ccc7fc264bc40f44bf241762", "type": "electric_bike", "is_reserved": 0, "lon": -77.07032416666667}, {"fusion_lat": 0.0, "name": "213071204164e1bd10986e67edc223a9", "is_disabled": 0, "rental_uris": {"android": "https://dc.lft.to/lastmile_qr_scan", "ios": "https://dc.lft.to/lastmile_qr_scan"}, "fusion_lon": 0.0, "lat": 38.9177175, "bike_id": "213071204164e1bd10986e67edc223a9", "type": "electric_scooter", "is_reserved": 0, "lon": -77.04058616666667}, {"fusion_lat": 0.0, "name": "9e9e80d50a4bc68954db669b7ac7750c", "is_disabled": 0, "rental_uris": {"android": "https://dc.lft.to/lastmile_qr_scan", "ios": "https://dc.lft.to/lastmile_qr_scan"}, "fusion_lon": 0.0, "lat": 38.89008183333333, "bike_id": "9e9e80d50a4bc68954db669b7ac7750c", "type": "electric_scooter", "is_reserved": 0, "lon": -76.93738166666667}, {"fusion_lat": 0.0, "name": "564bcdf8bed297584737b51c3b6b357e", "is_disabled": 0, "rental_uris": {"android": "https://dc.lft.to/lastmile_qr_scan", "ios": "https://dc.lft.to/lastmile_qr_scan"}, "fusion_lon": 0.0, "lat": 38.924589166666664, "bike_id": "564bcdf8bed297584737b51c3b6b357e", "type": "electric_scooter", "is_reserved": 0, "lon": -77.0241015}, {"fusion_lat": 0.0, "name": "70deb6e1753f6aabf95db0b213cb8e64", "is_disabled": 0, "rental_uris": {"android": "https://dc.lft.to/lastmile_qr_scan", "ios": "https://dc.lft.to/lastmile_qr_scan"}, "fusion_lon": 0.0, "lat": 38.923499, "bike_id": "70deb6e1753f6aabf95db0b213cb8e64", "type": "electric_scooter", "is_reserved": 0, "lon": -77.0245215}, {"fusion_lat": 0.0, "name": "346b6b20a920a5b68d3ff65b58024195", "is_disabled": 0, "rental_uris": {"android": "https://dc.lft.to/lastmile_qr_scan", "ios": "https://dc.lft.to/lastmile_qr_scan"}, "fusion_lon": 0.0, "lat": 38.91236816666667, "bike_id": "346b6b20a920a5b68d3ff65b58024195", "type": "electric_scooter", "is_reserved": 0, "lon": -77.04889633333333}, {"fusion_lat": 0.0, "name": "67b49d7087b542f0418a945b44216b9d", "is_disabled": 0, "rental_uris": {"android": "https://dc.lft.to/lastmile_qr_scan", "ios": "https://dc.lft.to/lastmile_qr_scan"}, "fusion_lon": 0.0, "lat": 38.920266, "bike_id": "67b49d7087b542f0418a945b44216b9d", "type": "electric_scooter", "is_reserved": 0, "lon": -77.03071783333333}, {"fusion_lat": 0.0, "name": "e8cac1a591eb42c7882f051697973c4b", "is_disabled": 0, "rental_uris": {"android": "https://dc.lft.to/lastmile_qr_scan", "ios": "https://dc.lft.to/lastmile_qr_scan"}, "fusion_lon": 0.0, "lat": 38.92106366666667, "bike_id": "e8cac1a591eb42c7882f051697973c4b", "type": "electric_scooter", "is_reserved": 0, "lon": -77.0468345}, {"fusion_lat": 0.0, "name": "6553f242fd62558ce7750b282411022c", "is_disabled": 0, "rental_uris": {"android": "https://dc.lft.to/lastmile_qr_scan", "ios": "https://dc.lft.to/lastmile_qr_scan"}, "fusion_lon": 0.0, "lat": 38.918139333333336, "bike_id": "6553f242fd62558ce7750b282411022c", "type": "electric_scooter", "is_reserved": 0, "lon": -77.03268883333334}, {"fusion_lat": 0.0, "name": "f3de599e5b9313575991b8a48130862c", "is_disabled": 0, "rental_uris": {"android": "https://dc.lft.to/lastmile_qr_scan", "ios": "https://dc.lft.to/lastmile_qr_scan"}, "fusion_lon": 0.0, "lat": 38.916557, "bike_id": "f3de599e5b9313575991b8a48130862c", "type": "electric_scooter", "is_reserved": 0, "lon": -77.041927}, {"fusion_lat": 0.0, "name": "06e280920a37fe804f483bec33cd282b", "is_disabled": 0, "rental_uris": {"android": "https://dc.lft.to/lastmile_qr_scan", "ios": "https://dc.lft.to/lastmile_qr_scan"}, "fusion_lon": 0.0, "lat": 38.901565, "bike_id": "06e280920a37fe804f483bec33cd282b", "type": "electric_scooter", "is_reserved": 0, "lon": -77.03927766666666}, {"fusion_lat": 0.0, "name": "17378b919e5574f86429479427e1f5a8", "is_disabled": 0, "rental_uris": {"android": "https://dc.lft.to/lastmile_qr_scan", "ios": "https://dc.lft.to/lastmile_qr_scan"}, "fusion_lon": 0.0, "lat": 38.920696166666666, "bike_id": "17378b919e5574f86429479427e1f5a8", "type": "electric_scooter", "is_reserved": 0, "lon": -77.028536}, {"fusion_lat": 0.0, "name": "768a9eee60fc7c17468c5bfa82e36b7c", "is_disabled": 0, "rental_uris": {"android": "https://dc.lft.to/lastmile_qr_scan", "ios": "https://dc.lft.to/lastmile_qr_scan"}, "fusion_lon": 0.0, "lat": 38.934611833333335, "bike_id": "768a9eee60fc7c17468c5bfa82e36b7c", "type": "electric_scooter", "is_reserved": 0, "lon": -77.05782466666666}, {"fusion_lat": 0.0, "name": "a4c5e86f23bd698d01c9bbe8efd6e373", "is_disabled": 0, "rental_uris": {"android": "https://dc.lft.to/lastmile_qr_scan", "ios": "https://dc.lft.to/lastmile_qr_scan"}, "fusion_lon": 0.0, "lat": 38.89741433333333, "bike_id": "a4c5e86f23bd698d01c9bbe8efd6e373", "type": "electric_scooter", "is_reserved": 0, "lon": -77.032206}, {"fusion_lat": 0.0, "name": "088c2090aba7510f33b5b963765b5d38", "is_disabled": 0, "rental_uris": {"android": "https://dc.lft.to/lastmile_qr_scan", "ios": "https://dc.lft.to/lastmile_qr_scan"}, "fusion_lon": 0.0, "lat": 38.887191666666666, "bike_id": "088c2090aba7510f33b5b963765b5d38", "type": "electric_scooter", "is_reserved": 0, "lon": -77.021982}, {"fusion_lat": 0.0, "name": "537fc20fb8edde7ad8deb55afc4cd12f", "is_disabled": 0, "rental_uris": {"android": "https://dc.lft.to/lastmile_qr_scan", "ios": "https://dc.lft.to/lastmile_qr_scan"}, "fusion_lon": 0.0, "lat": 38.917796, "bike_id": "537fc20fb8edde7ad8deb55afc4cd12f", "type": "electric_scooter", "is_reserved": 0, "lon": -77.023102}, {"fusion_lat": 0.0, "name": "c5a3db192e99c005d1e31fa716672871", "is_disabled": 0, "rental_uris": {"android": "https://dc.lft.to/lastmile_qr_scan", "ios": "https://dc.lft.to/lastmile_qr_scan"}, "fusion_lon": 0.0, "lat": 38.900350833333334, "bike_id": "c5a3db192e99c005d1e31fa716672871", "type": "electric_scooter", "is_reserved": 0, "lon": -77.00194133333333}, {"fusion_lat": 0.0, "name": "590733f581048e5c5a3e8f5702b1bf24", "is_disabled": 0, "rental_uris": {"android": "https://dc.lft.to/lastmile_qr_scan", "ios": "https://dc.lft.to/lastmile_qr_scan"}, "fusion_lon": 0.0, "lat": 38.9102375, "bike_id": "590733f581048e5c5a3e8f5702b1bf24", "type": "electric_scooter", "is_reserved": 0, "lon": -77.04291866666667}, {"fusion_lat": 0.0, "name": "b517f4eef13adc18ef3d1f61bf87fdc2", "is_disabled": 0, "rental_uris": {"android": "https://dc.lft.to/lastmile_qr_scan", "ios": "https://dc.lft.to/lastmile_qr_scan"}, "fusion_lon": 0.0, "lat": 38.9210715, "bike_id": "b517f4eef13adc18ef3d1f61bf87fdc2", "type": "electric_scooter", "is_reserved": 0, "lon": -77.04694783333333}, {"fusion_lat": 0.0, "name": "592a2f4bc9f14dc4c783ae05d2c1eb09", "is_disabled": 0, "rental_uris": {"android": "https://dc.lft.to/lastmile_qr_scan", "ios": "https://dc.lft.to/lastmile_qr_scan"}, "fusion_lon": 0.0, "lat": 38.9071955, "bike_id": "592a2f4bc9f14dc4c783ae05d2c1eb09", "type": "electric_scooter", "is_reserved": 0, "lon": -77.0434095}, {"fusion_lat": 0.0, "name": "4fd25b34db1c082b2be734da3d7b944c", "is_disabled": 0, "rental_uris": {"android": "https://dc.lft.to/lastmile_qr_scan", "ios": "https://dc.lft.to/lastmile_qr_scan"}, "fusion_lon": 0.0, "lat": 38.88451083333333, "bike_id": "4fd25b34db1c082b2be734da3d7b944c", "type": "electric_scooter", "is_reserved": 0, "lon": -76.9938995}, {"fusion_lat": 0.0, "name": "329898df6724a6cf752fc3edf877b4c4", "is_disabled": 0, "rental_uris": {"android": "https://dc.lft.to/lastmile_qr_scan", "ios": "https://dc.lft.to/lastmile_qr_scan"}, "fusion_lon": 0.0, "lat": 38.956323, "bike_id": "329898df6724a6cf752fc3edf877b4c4", "type": "electric_bike", "is_reserved": 0, "lon": -76.93870616666666}, {"fusion_lat": 0.0, "name": "70bf949dd7d96b597cb1f9785a810187", "is_disabled": 0, "rental_uris": {"android": "https://dc.lft.to/lastmile_qr_scan", "ios": "https://dc.lft.to/lastmile_qr_scan"}, "fusion_lon": 0.0, "lat": 38.902664, "bike_id": "70bf949dd7d96b597cb1f9785a810187", "type": "electric_scooter", "is_reserved": 0, "lon": -77.0178245}, {"fusion_lat": 0.0, "name": "63fb3ddf9581080e94ce825c03c74134", "is_disabled": 0, "rental_uris": {"android": "https://dc.lft.to/lastmile_qr_scan", "ios": "https://dc.lft.to/lastmile_qr_scan"}, "fusion_lon": 0.0, "lat": 38.91174066666667, "bike_id": "63fb3ddf9581080e94ce825c03c74134", "type": "electric_scooter", "is_reserved": 0, "lon": -77.032002}, {"fusion_lat": 0.0, "name": "651e23d525fc19d3d9636cf7775d8f95", "is_disabled": 0, "rental_uris": {"android": "https://dc.lft.to/lastmile_qr_scan", "ios": "https://dc.lft.to/lastmile_qr_scan"}, "fusion_lon": 0.0, "lat": 38.892294, "bike_id": "651e23d525fc19d3d9636cf7775d8f95", "type": "electric_scooter", "is_reserved": 0, "lon": -77.05000433333333}, {"fusion_lat": 0.0, "name": "fded26f55d1e964bd938bda51d3d4e62", "is_disabled": 0, "rental_uris": {"android": "https://dc.lft.to/lastmile_qr_scan", "ios": "https://dc.lft.to/lastmile_qr_scan"}, "fusion_lon": 0.0, "lat": 38.80678, "bike_id": "fded26f55d1e964bd938bda51d3d4e62", "type": "electric_bike", "is_reserved": 0, "lon": -77.06921866666667}, {"fusion_lat": 0.0, "name": "3d6433eabd65cea12a3e10fd33486ad5", "is_disabled": 0, "rental_uris": {"android": "https://dc.lft.to/lastmile_qr_scan", "ios": "https://dc.lft.to/lastmile_qr_scan"}, "fusion_lon": 0.0, "lat": 38.92558833333333, "bike_id": "3d6433eabd65cea12a3e10fd33486ad5", "type": "electric_scooter", "is_reserved": 0, "lon": -76.983062}, {"fusion_lat": 0.0, "name": "3d87dea297e392e72d2eb7587d758e0a", "is_disabled": 0, "rental_uris": {"android": "https://dc.lft.to/lastmile_qr_scan", "ios": "https://dc.lft.to/lastmile_qr_scan"}, "fusion_lon": 0.0, "lat": 38.912187833333334, "bike_id": "3d87dea297e392e72d2eb7587d758e0a", "type": "electric_scooter", "is_reserved": 0, "lon": -77.01208383333334}, {"fusion_lat": 0.0, "name": "5fc2a898232a905d2c0bdd8f4a584b29", "is_disabled": 0, "rental_uris": {"android": "https://dc.lft.to/lastmile_qr_scan", "ios": "https://dc.lft.to/lastmile_qr_scan"}, "fusion_lon": 0.0, "lat": 38.92792566666667, "bike_id": "5fc2a898232a905d2c0bdd8f4a584b29", "type": "electric_scooter", "is_reserved": 0, "lon": -77.03150333333333}, {"fusion_lat": 0.0, "name": "b96c81755ad007b46e80994581384a13", "is_disabled": 0, "rental_uris": {"android": "https://dc.lft.to/lastmile_qr_scan", "ios": "https://dc.lft.to/lastmile_qr_scan"}, "fusion_lon": 0.0, "lat": 38.8894565, "bike_id": "b96c81755ad007b46e80994581384a13", "type": "electric_scooter", "is_reserved": 0, "lon": -76.99161833333334}, {"fusion_lat": 0.0, "name": "cd3c443f68138eb5cfa5aac62c52ad82", "is_disabled": 0, "rental_uris": {"android": "https://dc.lft.to/lastmile_qr_scan", "ios": "https://dc.lft.to/lastmile_qr_scan"}, "fusion_lon": 0.0, "lat": 38.905035166666664, "bike_id": "cd3c443f68138eb5cfa5aac62c52ad82", "type": "electric_scooter", "is_reserved": 0, "lon": -77.06113683333334}, {"fusion_lat": 0.0, "name": "a287b7c35cff7e4d6b72ad90ebdf8960", "is_disabled": 0, "rental_uris": {"android": "https://dc.lft.to/lastmile_qr_scan", "ios": "https://dc.lft.to/lastmile_qr_scan"}, "fusion_lon": 0.0, "lat": 38.91828483333333, "bike_id": "a287b7c35cff7e4d6b72ad90ebdf8960", "type": "electric_scooter", "is_reserved": 0, "lon": -77.02293866666666}, {"fusion_lat": 0.0, "name": "f898abbbf50e9add591d2c416c3aa1b7", "is_disabled": 0, "rental_uris": {"android": "https://dc.lft.to/lastmile_qr_scan", "ios": "https://dc.lft.to/lastmile_qr_scan"}, "fusion_lon": 0.0, "lat": 38.93579833333333, "bike_id": "f898abbbf50e9add591d2c416c3aa1b7", "type": "electric_scooter", "is_reserved": 0, "lon": -77.02127266666666}, {"fusion_lat": 0.0, "name": "bb8bbcdf50dc6125433b6b11ce140a24", "is_disabled": 0, "rental_uris": {"android": "https://dc.lft.to/lastmile_qr_scan", "ios": "https://dc.lft.to/lastmile_qr_scan"}, "fusion_lon": 0.0, "lat": 38.91120316666667, "bike_id": "bb8bbcdf50dc6125433b6b11ce140a24", "type": "electric_scooter", "is_reserved": 0, "lon": -77.0423365}, {"fusion_lat": 0.0, "name": "266c65b51bf89af5c56ed1200c6a8b8e", "is_disabled": 0, "rental_uris": {"android": "https://dc.lft.to/lastmile_qr_scan", "ios": "https://dc.lft.to/lastmile_qr_scan"}, "fusion_lon": 0.0, "lat": 38.928714, "bike_id": "266c65b51bf89af5c56ed1200c6a8b8e", "type": "electric_scooter", "is_reserved": 0, "lon": -77.0266185}, {"fusion_lat": 0.0, "name": "e41b0ce806886069e3bd3f8f6535b327", "is_disabled": 0, "rental_uris": {"android": "https://dc.lft.to/lastmile_qr_scan", "ios": "https://dc.lft.to/lastmile_qr_scan"}, "fusion_lon": 0.0, "lat": 38.9387545, "bike_id": "e41b0ce806886069e3bd3f8f6535b327", "type": "electric_scooter", "is_reserved": 0, "lon": -77.02917266666667}, {"fusion_lat": 0.0, "name": "57f27a95b777e37113eb30835f259f84", "is_disabled": 0, "rental_uris": {"android": "https://dc.lft.to/lastmile_qr_scan", "ios": "https://dc.lft.to/lastmile_qr_scan"}, "fusion_lon": 0.0, "lat": 38.9245165, "bike_id": "57f27a95b777e37113eb30835f259f84", "type": "electric_scooter", "is_reserved": 0, "lon": -77.03407216666666}, {"fusion_lat": 0.0, "name": "532b9f4a73b8b0cb5d68985240d3ae35", "is_disabled": 0, "rental_uris": {"android": "https://dc.lft.to/lastmile_qr_scan", "ios": "https://dc.lft.to/lastmile_qr_scan"}, "fusion_lon": 0.0, "lat": 38.905681333333334, "bike_id": "532b9f4a73b8b0cb5d68985240d3ae35", "type": "electric_scooter", "is_reserved": 0, "lon": -77.02490883333333}, {"fusion_lat": 0.0, "name": "ad1653d39519c99f6bb61caabcd75931", "is_disabled": 0, "rental_uris": {"android": "https://dc.lft.to/lastmile_qr_scan", "ios": "https://dc.lft.to/lastmile_qr_scan"}, "fusion_lon": 0.0, "lat": 38.9342695, "bike_id": "ad1653d39519c99f6bb61caabcd75931", "type": "electric_scooter", "is_reserved": 0, "lon": -77.04007483333334}, {"fusion_lat": 0.0, "name": "e4025ac447939e7fe9fa828bdeefbbdd", "is_disabled": 0, "rental_uris": {"android": "https://dc.lft.to/lastmile_qr_scan", "ios": "https://dc.lft.to/lastmile_qr_scan"}, "fusion_lon": 0.0, "lat": 38.9311365, "bike_id": "e4025ac447939e7fe9fa828bdeefbbdd", "type": "electric_scooter", "is_reserved": 0, "lon": -77.0213805}, {"fusion_lat": 0.0, "name": "42e4365ecbde5024604fe827545fa28a", "is_disabled": 0, "rental_uris": {"android": "https://dc.lft.to/lastmile_qr_scan", "ios": "https://dc.lft.to/lastmile_qr_scan"}, "fusion_lon": 0.0, "lat": 38.893919833333335, "bike_id": "42e4365ecbde5024604fe827545fa28a", "type": "electric_scooter", "is_reserved": 0, "lon": -77.0245345}, {"fusion_lat": 0.0, "name": "ff124f6caa3579ecb2fb9aeeafddfde5", "is_disabled": 0, "rental_uris": {"android": "https://dc.lft.to/lastmile_qr_scan", "ios": "https://dc.lft.to/lastmile_qr_scan"}, "fusion_lon": 0.0, "lat": 38.950584166666665, "bike_id": "ff124f6caa3579ecb2fb9aeeafddfde5", "type": "electric_scooter", "is_reserved": 0, "lon": -77.08026666666666}, {"fusion_lat": 0.0, "name": "84b34a5936acc49933888313d46b3740", "is_disabled": 0, "rental_uris": {"android": "https://dc.lft.to/lastmile_qr_scan", "ios": "https://dc.lft.to/lastmile_qr_scan"}, "fusion_lon": 0.0, "lat": 38.91954283333333, "bike_id": "84b34a5936acc49933888313d46b3740", "type": "electric_scooter", "is_reserved": 0, "lon": -77.02488716666667}, {"fusion_lat": 0.0, "name": "fa417fc7c648d8439025d728247006b7", "is_disabled": 0, "rental_uris": {"android": "https://dc.lft.to/lastmile_qr_scan", "ios": "https://dc.lft.to/lastmile_qr_scan"}, "fusion_lon": 0.0, "lat": 38.90791266666667, "bike_id": "fa417fc7c648d8439025d728247006b7", "type": "electric_scooter", "is_reserved": 0, "lon": -77.04359683333334}, {"fusion_lat": 0.0, "name": "d88b1c73670fdd045a9545a9d5d5c2cf", "is_disabled": 0, "rental_uris": {"android": "https://dc.lft.to/lastmile_qr_scan", "ios": "https://dc.lft.to/lastmile_qr_scan"}, "fusion_lon": 0.0, "lat": 38.9169325, "bike_id": "d88b1c73670fdd045a9545a9d5d5c2cf", "type": "electric_scooter", "is_reserved": 0, "lon": -77.02600333333334}, {"fusion_lat": 0.0, "name": "01d2d062672ff01c7e15cf756f3293bf", "is_disabled": 0, "rental_uris": {"android": "https://dc.lft.to/lastmile_qr_scan", "ios": "https://dc.lft.to/lastmile_qr_scan"}, "fusion_lon": 0.0, "lat": 38.8991095, "bike_id": "01d2d062672ff01c7e15cf756f3293bf", "type": "electric_scooter", "is_reserved": 0, "lon": -76.94587166666666}, {"fusion_lat": 0.0, "name": "341cc82d952b4db90c148fa8e5c59a28", "is_disabled": 0, "rental_uris": {"android": "https://dc.lft.to/lastmile_qr_scan", "ios": "https://dc.lft.to/lastmile_qr_scan"}, "fusion_lon": 0.0, "lat": 38.88526783333333, "bike_id": "341cc82d952b4db90c148fa8e5c59a28", "type": "electric_scooter", "is_reserved": 0, "lon": -76.92922733333333}, {"fusion_lat": 0.0, "name": "ceb37563fd6ea8e2a0049ec1c9d1a59b", "is_disabled": 0, "rental_uris": {"android": "https://dc.lft.to/lastmile_qr_scan", "ios": "https://dc.lft.to/lastmile_qr_scan"}, "fusion_lon": 0.0, "lat": 38.9214045, "bike_id": "ceb37563fd6ea8e2a0049ec1c9d1a59b", "type": "electric_scooter", "is_reserved": 0, "lon": -77.01800066666667}, {"fusion_lat": 0.0, "name": "c44784d3ab4c31e2a2de52bbbaacf4d3", "is_disabled": 0, "rental_uris": {"android": "https://dc.lft.to/lastmile_qr_scan", "ios": "https://dc.lft.to/lastmile_qr_scan"}, "fusion_lon": 0.0, "lat": 38.875782, "bike_id": "c44784d3ab4c31e2a2de52bbbaacf4d3", "type": "electric_bike", "is_reserved": 0, "lon": -77.23409266666667}, {"fusion_lat": 0.0, "name": "8e4e29e36b7790f14b48883437446552", "is_disabled": 0, "rental_uris": {"android": "https://dc.lft.to/lastmile_qr_scan", "ios": "https://dc.lft.to/lastmile_qr_scan"}, "fusion_lon": 0.0, "lat": 38.917042, "bike_id": "8e4e29e36b7790f14b48883437446552", "type": "electric_scooter", "is_reserved": 0, "lon": -77.032428}, {"fusion_lat": 0.0, "name": "86d783855eedb0e2458222ea0e155f22", "is_disabled": 0, "rental_uris": {"android": "https://dc.lft.to/lastmile_qr_scan", "ios": "https://dc.lft.to/lastmile_qr_scan"}, "fusion_lon": 0.0, "lat": 38.89002883333333, "bike_id": "86d783855eedb0e2458222ea0e155f22", "type": "electric_scooter", "is_reserved": 0, "lon": -77.04901383333333}, {"fusion_lat": 0.0, "name": "dc8253a95c0238c29aff066a36d62949", "is_disabled": 0, "rental_uris": {"android": "https://dc.lft.to/lastmile_qr_scan", "ios": "https://dc.lft.to/lastmile_qr_scan"}, "fusion_lon": 0.0, "lat": 38.8991335, "bike_id": "dc8253a95c0238c29aff066a36d62949", "type": "electric_scooter", "is_reserved": 0, "lon": -76.93347433333334}, {"fusion_lat": 0.0, "name": "1fe747ab99e8079d31292269b217f898", "is_disabled": 0, "rental_uris": {"android": "https://dc.lft.to/lastmile_qr_scan", "ios": "https://dc.lft.to/lastmile_qr_scan"}, "fusion_lon": 0.0, "lat": 38.929663, "bike_id": "1fe747ab99e8079d31292269b217f898", "type": "electric_scooter", "is_reserved": 0, "lon": -77.0552145}, {"fusion_lat": 0.0, "name": "dda038ce794ea358a0a5ad3162ba273e", "is_disabled": 0, "rental_uris": {"android": "https://dc.lft.to/lastmile_qr_scan", "ios": "https://dc.lft.to/lastmile_qr_scan"}, "fusion_lon": 0.0, "lat": 38.89622466666667, "bike_id": "dda038ce794ea358a0a5ad3162ba273e", "type": "electric_scooter", "is_reserved": 0, "lon": -77.032026}, {"fusion_lat": 0.0, "name": "bde5a4515a8f3f049dd0dd3dfde2b7a5", "is_disabled": 0, "rental_uris": {"android": "https://dc.lft.to/lastmile_qr_scan", "ios": "https://dc.lft.to/lastmile_qr_scan"}, "fusion_lon": 0.0, "lat": 38.9055125, "bike_id": "bde5a4515a8f3f049dd0dd3dfde2b7a5", "type": "electric_scooter", "is_reserved": 0, "lon": -77.02211583333333}, {"fusion_lat": 0.0, "name": "deab0f25c9957b2f9bd170e575e11f72", "is_disabled": 0, "rental_uris": {"android": "https://dc.lft.to/lastmile_qr_scan", "ios": "https://dc.lft.to/lastmile_qr_scan"}, "fusion_lon": 0.0, "lat": 38.884717333333334, "bike_id": "deab0f25c9957b2f9bd170e575e11f72", "type": "electric_scooter", "is_reserved": 0, "lon": -77.015197}, {"fusion_lat": 0.0, "name": "9a339e032c3dd19c5e7b70db89e588a6", "is_disabled": 0, "rental_uris": {"android": "https://dc.lft.to/lastmile_qr_scan", "ios": "https://dc.lft.to/lastmile_qr_scan"}, "fusion_lon": 0.0, "lat": 38.896044333333336, "bike_id": "9a339e032c3dd19c5e7b70db89e588a6", "type": "electric_scooter", "is_reserved": 0, "lon": -77.009334}, {"fusion_lat": 0.0, "name": "9ce8546fb8b69714ae7b83ce4fa1b906", "is_disabled": 0, "rental_uris": {"android": "https://dc.lft.to/lastmile_qr_scan", "ios": "https://dc.lft.to/lastmile_qr_scan"}, "fusion_lon": 0.0, "lat": 38.9734775, "bike_id": "9ce8546fb8b69714ae7b83ce4fa1b906", "type": "electric_bike", "is_reserved": 0, "lon": -77.0179565}, {"fusion_lat": 0.0, "name": "f72b327e17db3675a0dbf2b62c840e64", "is_disabled": 0, "rental_uris": {"android": "https://dc.lft.to/lastmile_qr_scan", "ios": "https://dc.lft.to/lastmile_qr_scan"}, "fusion_lon": 0.0, "lat": 38.920674166666664, "bike_id": "f72b327e17db3675a0dbf2b62c840e64", "type": "electric_scooter", "is_reserved": 0, "lon": -77.02416983333333}, {"fusion_lat": 0.0, "name": "5678a83d60930656fce14de893181a64", "is_disabled": 0, "rental_uris": {"android": "https://dc.lft.to/lastmile_qr_scan", "ios": "https://dc.lft.to/lastmile_qr_scan"}, "fusion_lon": 0.0, "lat": 38.88492883333333, "bike_id": "5678a83d60930656fce14de893181a64", "type": "electric_scooter", "is_reserved": 0, "lon": -77.010848}, {"fusion_lat": 0.0, "name": "6b8caa3df0cbd89c200fd7395cc355ac", "is_disabled": 0, "rental_uris": {"android": "https://dc.lft.to/lastmile_qr_scan", "ios": "https://dc.lft.to/lastmile_qr_scan"}, "fusion_lon": 0.0, "lat": 38.91901216666667, "bike_id": "6b8caa3df0cbd89c200fd7395cc355ac", "type": "electric_scooter", "is_reserved": 0, "lon": -77.02485266666666}, {"fusion_lat": 0.0, "name": "a0e8894b794e3754177f38025422db84", "is_disabled": 0, "rental_uris": {"android": "https://dc.lft.to/lastmile_qr_scan", "ios": "https://dc.lft.to/lastmile_qr_scan"}, "fusion_lon": 0.0, "lat": 38.9074165, "bike_id": "a0e8894b794e3754177f38025422db84", "type": "electric_scooter", "is_reserved": 0, "lon": -77.034609}, {"fusion_lat": 0.0, "name": "8b851feb9586ed5ba99ec37d408b0ee4", "is_disabled": 0, "rental_uris": {"android": "https://dc.lft.to/lastmile_qr_scan", "ios": "https://dc.lft.to/lastmile_qr_scan"}, "fusion_lon": 0.0, "lat": 38.923740333333335, "bike_id": "8b851feb9586ed5ba99ec37d408b0ee4", "type": "electric_scooter", "is_reserved": 0, "lon": -77.0214115}, {"fusion_lat": 0.0, "name": "5571bf169686ab88d7859ce00d1b1d19", "is_disabled": 0, "rental_uris": {"android": "https://dc.lft.to/lastmile_qr_scan", "ios": "https://dc.lft.to/lastmile_qr_scan"}, "fusion_lon": 0.0, "lat": 38.91320016666667, "bike_id": "5571bf169686ab88d7859ce00d1b1d19", "type": "electric_scooter", "is_reserved": 0, "lon": -77.02140266666666}, {"fusion_lat": 0.0, "name": "5066526107ab1609d54325ce79da765e", "is_disabled": 0, "rental_uris": {"android": "https://dc.lft.to/lastmile_qr_scan", "ios": "https://dc.lft.to/lastmile_qr_scan"}, "fusion_lon": 0.0, "lat": 38.883107333333335, "bike_id": "5066526107ab1609d54325ce79da765e", "type": "electric_scooter", "is_reserved": 0, "lon": -77.01700816666667}, {"fusion_lat": 0.0, "name": "002c81fc0b49b2ae197e35659e6a3352", "is_disabled": 0, "rental_uris": {"android": "https://dc.lft.to/lastmile_qr_scan", "ios": "https://dc.lft.to/lastmile_qr_scan"}, "fusion_lon": 0.0, "lat": 38.8938435, "bike_id": "002c81fc0b49b2ae197e35659e6a3352", "type": "electric_scooter", "is_reserved": 0, "lon": -77.02454233333333}, {"fusion_lat": 0.0, "name": "f9894af8d7e530ed6558aa5bdcccbd23", "is_disabled": 0, "rental_uris": {"android": "https://dc.lft.to/lastmile_qr_scan", "ios": "https://dc.lft.to/lastmile_qr_scan"}, "fusion_lon": 0.0, "lat": 38.923359166666664, "bike_id": "f9894af8d7e530ed6558aa5bdcccbd23", "type": "electric_scooter", "is_reserved": 0, "lon": -77.05300183333334}, {"fusion_lat": 0.0, "name": "f0a90513f26eb477975b5fc0e21d6c11", "is_disabled": 0, "rental_uris": {"android": "https://dc.lft.to/lastmile_qr_scan", "ios": "https://dc.lft.to/lastmile_qr_scan"}, "fusion_lon": 0.0, "lat": 38.907475, "bike_id": "f0a90513f26eb477975b5fc0e21d6c11", "type": "electric_scooter", "is_reserved": 0, "lon": -77.03467683333334}, {"fusion_lat": 0.0, "name": "ca710baf7270cf1b79d60637b5cc32b7", "is_disabled": 0, "rental_uris": {"android": "https://dc.lft.to/lastmile_qr_scan", "ios": "https://dc.lft.to/lastmile_qr_scan"}, "fusion_lon": 0.0, "lat": 38.89613283333333, "bike_id": "ca710baf7270cf1b79d60637b5cc32b7", "type": "electric_bike", "is_reserved": 0, "lon": -76.90740633333333}, {"fusion_lat": 0.0, "name": "aebea198adfae127ee98353cf762b332", "is_disabled": 0, "rental_uris": {"android": "https://dc.lft.to/lastmile_qr_scan", "ios": "https://dc.lft.to/lastmile_qr_scan"}, "fusion_lon": 0.0, "lat": 38.916589, "bike_id": "aebea198adfae127ee98353cf762b332", "type": "electric_scooter", "is_reserved": 0, "lon": -77.0281395}, {"fusion_lat": 0.0, "name": "219857f76933579c920084112aec8f8a", "is_disabled": 0, "rental_uris": {"android": "https://dc.lft.to/lastmile_qr_scan", "ios": "https://dc.lft.to/lastmile_qr_scan"}, "fusion_lon": 0.0, "lat": 38.87880666666667, "bike_id": "219857f76933579c920084112aec8f8a", "type": "electric_scooter", "is_reserved": 0, "lon": -77.02225783333333}, {"fusion_lat": 0.0, "name": "8f69c784b007f44285a91f1ea92f586c", "is_disabled": 0, "rental_uris": {"android": "https://dc.lft.to/lastmile_qr_scan", "ios": "https://dc.lft.to/lastmile_qr_scan"}, "fusion_lon": 0.0, "lat": 38.92750816666667, "bike_id": "8f69c784b007f44285a91f1ea92f586c", "type": "electric_scooter", "is_reserved": 0, "lon": -77.02538033333333}, {"fusion_lat": 0.0, "name": "190b60d6f187fe1353b01ecdbb665205", "is_disabled": 0, "rental_uris": {"android": "https://dc.lft.to/lastmile_qr_scan", "ios": "https://dc.lft.to/lastmile_qr_scan"}, "fusion_lon": 0.0, "lat": 38.926802333333335, "bike_id": "190b60d6f187fe1353b01ecdbb665205", "type": "electric_scooter", "is_reserved": 0, "lon": -77.01484616666667}, {"fusion_lat": 0.0, "name": "0fc9888c0fe2892ccbc70e715ba53948", "is_disabled": 0, "rental_uris": {"android": "https://dc.lft.to/lastmile_qr_scan", "ios": "https://dc.lft.to/lastmile_qr_scan"}, "fusion_lon": 0.0, "lat": 38.92413366666667, "bike_id": "0fc9888c0fe2892ccbc70e715ba53948", "type": "electric_scooter", "is_reserved": 0, "lon": -77.020072}, {"fusion_lat": 0.0, "name": "6475c2846181a6cf326baedafeb65189", "is_disabled": 0, "rental_uris": {"android": "https://dc.lft.to/lastmile_qr_scan", "ios": "https://dc.lft.to/lastmile_qr_scan"}, "fusion_lon": 0.0, "lat": 38.94450633333334, "bike_id": "6475c2846181a6cf326baedafeb65189", "type": "electric_scooter", "is_reserved": 0, "lon": -77.02340983333333}, {"fusion_lat": 0.0, "name": "69050b2488b8d807589498ba22bc3455", "is_disabled": 0, "rental_uris": {"android": "https://dc.lft.to/lastmile_qr_scan", "ios": "https://dc.lft.to/lastmile_qr_scan"}, "fusion_lon": 0.0, "lat": 38.902347, "bike_id": "69050b2488b8d807589498ba22bc3455", "type": "electric_scooter", "is_reserved": 0, "lon": -77.04359533333333}, {"fusion_lat": 0.0, "name": "844135fcd01679e1c8ee013719794840", "is_disabled": 0, "rental_uris": {"android": "https://dc.lft.to/lastmile_qr_scan", "ios": "https://dc.lft.to/lastmile_qr_scan"}, "fusion_lon": 0.0, "lat": 38.93147733333333, "bike_id": "844135fcd01679e1c8ee013719794840", "type": "electric_scooter", "is_reserved": 0, "lon": -77.07855266666667}, {"fusion_lat": 0.0, "name": "eb062c3fd93ac626950f13cc48e716d1", "is_disabled": 0, "rental_uris": {"android": "https://dc.lft.to/lastmile_qr_scan", "ios": "https://dc.lft.to/lastmile_qr_scan"}, "fusion_lon": 0.0, "lat": 38.9008885, "bike_id": "eb062c3fd93ac626950f13cc48e716d1", "type": "electric_scooter", "is_reserved": 0, "lon": -77.05834633333333}, {"fusion_lat": 0.0, "name": "7c89dd740ef10f532c3a9aa96b0b3f9e", "is_disabled": 0, "rental_uris": {"android": "https://dc.lft.to/lastmile_qr_scan", "ios": "https://dc.lft.to/lastmile_qr_scan"}, "fusion_lon": 0.0, "lat": 38.91918183333333, "bike_id": "7c89dd740ef10f532c3a9aa96b0b3f9e", "type": "electric_scooter", "is_reserved": 0, "lon": -77.02506516666666}, {"fusion_lat": 0.0, "name": "52fff14895e6319f80d7d8ac59a7db62", "is_disabled": 0, "rental_uris": {"android": "https://dc.lft.to/lastmile_qr_scan", "ios": "https://dc.lft.to/lastmile_qr_scan"}, "fusion_lon": 0.0, "lat": 38.90965166666667, "bike_id": "52fff14895e6319f80d7d8ac59a7db62", "type": "electric_scooter", "is_reserved": 0, "lon": -77.02185433333334}, {"fusion_lat": 0.0, "name": "2733013ad1bd8b773a140daaffe5bff7", "is_disabled": 0, "rental_uris": {"android": "https://dc.lft.to/lastmile_qr_scan", "ios": "https://dc.lft.to/lastmile_qr_scan"}, "fusion_lon": 0.0, "lat": 38.8662755, "bike_id": "2733013ad1bd8b773a140daaffe5bff7", "type": "electric_scooter", "is_reserved": 0, "lon": -76.987173}, {"fusion_lat": 0.0, "name": "1b01a68012b916347c3fd51489cfdf7e", "is_disabled": 0, "rental_uris": {"android": "https://dc.lft.to/lastmile_qr_scan", "ios": "https://dc.lft.to/lastmile_qr_scan"}, "fusion_lon": 0.0, "lat": 38.887244333333335, "bike_id": "1b01a68012b916347c3fd51489cfdf7e", "type": "electric_scooter", "is_reserved": 0, "lon": -76.98358416666667}, {"fusion_lat": 0.0, "name": "995909fc5d8e037700f6bcbef7261bb4", "is_disabled": 0, "rental_uris": {"android": "https://dc.lft.to/lastmile_qr_scan", "ios": "https://dc.lft.to/lastmile_qr_scan"}, "fusion_lon": 0.0, "lat": 38.9013005, "bike_id": "995909fc5d8e037700f6bcbef7261bb4", "type": "electric_scooter", "is_reserved": 0, "lon": -77.0392235}, {"fusion_lat": 0.0, "name": "e8845fc224b845cd1a1a3192548e7a40", "is_disabled": 0, "rental_uris": {"android": "https://dc.lft.to/lastmile_qr_scan", "ios": "https://dc.lft.to/lastmile_qr_scan"}, "fusion_lon": 0.0, "lat": 38.9373955, "bike_id": "e8845fc224b845cd1a1a3192548e7a40", "type": "electric_bike", "is_reserved": 0, "lon": -76.97231433333333}, {"fusion_lat": 0.0, "name": "c27387694cfdbfb7906deda6c52eb2e3", "is_disabled": 0, "rental_uris": {"android": "https://dc.lft.to/lastmile_qr_scan", "ios": "https://dc.lft.to/lastmile_qr_scan"}, "fusion_lon": 0.0, "lat": 38.884299, "bike_id": "c27387694cfdbfb7906deda6c52eb2e3", "type": "electric_bike", "is_reserved": 0, "lon": -76.95414183333334}, {"fusion_lat": 0.0, "name": "7c414bc8518f6bb8447541da65ce9a15", "is_disabled": 0, "rental_uris": {"android": "https://dc.lft.to/lastmile_qr_scan", "ios": "https://dc.lft.to/lastmile_qr_scan"}, "fusion_lon": 0.0, "lat": 38.887099666666664, "bike_id": "7c414bc8518f6bb8447541da65ce9a15", "type": "electric_scooter", "is_reserved": 0, "lon": -76.99671366666666}, {"fusion_lat": 0.0, "name": "8b18023b3b223a23f201251aa764748f", "is_disabled": 0, "rental_uris": {"android": "https://dc.lft.to/lastmile_qr_scan", "ios": "https://dc.lft.to/lastmile_qr_scan"}, "fusion_lon": 0.0, "lat": 38.892299, "bike_id": "8b18023b3b223a23f201251aa764748f", "type": "electric_scooter", "is_reserved": 0, "lon": -77.02827416666666}, {"fusion_lat": 0.0, "name": "7b5ae6585a2969418056e273d4fa2393", "is_disabled": 0, "rental_uris": {"android": "https://dc.lft.to/lastmile_qr_scan", "ios": "https://dc.lft.to/lastmile_qr_scan"}, "fusion_lon": 0.0, "lat": 38.94214916666667, "bike_id": "7b5ae6585a2969418056e273d4fa2393", "type": "electric_scooter", "is_reserved": 0, "lon": -77.024991}, {"fusion_lat": 0.0, "name": "25861b9842c583ad79e1b49749df2899", "is_disabled": 0, "rental_uris": {"android": "https://dc.lft.to/lastmile_qr_scan", "ios": "https://dc.lft.to/lastmile_qr_scan"}, "fusion_lon": 0.0, "lat": 38.932907166666666, "bike_id": "25861b9842c583ad79e1b49749df2899", "type": "electric_scooter", "is_reserved": 0, "lon": -77.02356466666667}, {"fusion_lat": 0.0, "name": "f1335f1f0e7ab5141c7c08b2a274cd49", "is_disabled": 0, "rental_uris": {"android": "https://dc.lft.to/lastmile_qr_scan", "ios": "https://dc.lft.to/lastmile_qr_scan"}, "fusion_lon": 0.0, "lat": 38.8865645, "bike_id": "f1335f1f0e7ab5141c7c08b2a274cd49", "type": "electric_scooter", "is_reserved": 0, "lon": -77.033896}, {"fusion_lat": 0.0, "name": "66835e07cba2751f185bc09bd882c1fc", "is_disabled": 0, "rental_uris": {"android": "https://dc.lft.to/lastmile_qr_scan", "ios": "https://dc.lft.to/lastmile_qr_scan"}, "fusion_lon": 0.0, "lat": 38.91597983333333, "bike_id": "66835e07cba2751f185bc09bd882c1fc", "type": "electric_scooter", "is_reserved": 0, "lon": -77.02208583333334}, {"fusion_lat": 0.0, "name": "54bf9040c17c277d22be1277941858d4", "is_disabled": 0, "rental_uris": {"android": "https://dc.lft.to/lastmile_qr_scan", "ios": "https://dc.lft.to/lastmile_qr_scan"}, "fusion_lon": 0.0, "lat": 38.87944516666667, "bike_id": "54bf9040c17c277d22be1277941858d4", "type": "electric_scooter", "is_reserved": 0, "lon": -77.008807}, {"fusion_lat": 0.0, "name": "0ef8d9549faf577f087c6990c7036cb1", "is_disabled": 0, "rental_uris": {"android": "https://dc.lft.to/lastmile_qr_scan", "ios": "https://dc.lft.to/lastmile_qr_scan"}, "fusion_lon": 0.0, "lat": 38.87799916666667, "bike_id": "0ef8d9549faf577f087c6990c7036cb1", "type": "electric_scooter", "is_reserved": 0, "lon": -77.0012465}, {"fusion_lat": 0.0, "name": "1d44ececdddfd3436794fcf0f70f1283", "is_disabled": 0, "rental_uris": {"android": "https://dc.lft.to/lastmile_qr_scan", "ios": "https://dc.lft.to/lastmile_qr_scan"}, "fusion_lon": 0.0, "lat": 38.8974625, "bike_id": "1d44ececdddfd3436794fcf0f70f1283", "type": "electric_scooter", "is_reserved": 0, "lon": -77.0443105}, {"fusion_lat": 0.0, "name": "317d35b11fedb06b9aa0237e51bc42e1", "is_disabled": 0, "rental_uris": {"android": "https://dc.lft.to/lastmile_qr_scan", "ios": "https://dc.lft.to/lastmile_qr_scan"}, "fusion_lon": 0.0, "lat": 38.9420575, "bike_id": "317d35b11fedb06b9aa0237e51bc42e1", "type": "electric_bike", "is_reserved": 0, "lon": -77.01828783333333}, {"fusion_lat": 0.0, "name": "a6873dd21da9b241528432f16257257d", "is_disabled": 0, "rental_uris": {"android": "https://dc.lft.to/lastmile_qr_scan", "ios": "https://dc.lft.to/lastmile_qr_scan"}, "fusion_lon": 0.0, "lat": 38.90562166666667, "bike_id": "a6873dd21da9b241528432f16257257d", "type": "electric_scooter", "is_reserved": 0, "lon": -77.01312616666667}, {"fusion_lat": 0.0, "name": "d1b2192dba0c627d9721bf4c74a1514f", "is_disabled": 0, "rental_uris": {"android": "https://dc.lft.to/lastmile_qr_scan", "ios": "https://dc.lft.to/lastmile_qr_scan"}, "fusion_lon": 0.0, "lat": 38.92913766666667, "bike_id": "d1b2192dba0c627d9721bf4c74a1514f", "type": "electric_scooter", "is_reserved": 0, "lon": -77.03204216666667}, {"fusion_lat": 0.0, "name": "a31548109955de2722e7e454185db23b", "is_disabled": 0, "rental_uris": {"android": "https://dc.lft.to/lastmile_qr_scan", "ios": "https://dc.lft.to/lastmile_qr_scan"}, "fusion_lon": 0.0, "lat": 38.87179733333333, "bike_id": "a31548109955de2722e7e454185db23b", "type": "electric_scooter", "is_reserved": 0, "lon": -77.00614983333334}, {"fusion_lat": 0.0, "name": "8e67f533f78a195f7088d965af7332e6", "is_disabled": 0, "rental_uris": {"android": "https://dc.lft.to/lastmile_qr_scan", "ios": "https://dc.lft.to/lastmile_qr_scan"}, "fusion_lon": 0.0, "lat": 38.93063133333333, "bike_id": "8e67f533f78a195f7088d965af7332e6", "type": "electric_scooter", "is_reserved": 0, "lon": -77.02974816666666}, {"fusion_lat": 0.0, "name": "659fcce8232f56d14ead1077ac212d4a", "is_disabled": 0, "rental_uris": {"android": "https://dc.lft.to/lastmile_qr_scan", "ios": "https://dc.lft.to/lastmile_qr_scan"}, "fusion_lon": 0.0, "lat": 38.862693666666665, "bike_id": "659fcce8232f56d14ead1077ac212d4a", "type": "electric_bike", "is_reserved": 0, "lon": -76.98346016666666}, {"fusion_lat": 0.0, "name": "5ac3ba9d7d194a1d0ca05206130e6499", "is_disabled": 0, "rental_uris": {"android": "https://dc.lft.to/lastmile_qr_scan", "ios": "https://dc.lft.to/lastmile_qr_scan"}, "fusion_lon": 0.0, "lat": 38.935259333333335, "bike_id": "5ac3ba9d7d194a1d0ca05206130e6499", "type": "electric_scooter", "is_reserved": 0, "lon": -77.03082233333333}, {"fusion_lat": 0.0, "name": "46346b9cb88975970359b3ae7b083183", "is_disabled": 0, "rental_uris": {"android": "https://dc.lft.to/lastmile_qr_scan", "ios": "https://dc.lft.to/lastmile_qr_scan"}, "fusion_lon": 0.0, "lat": 38.931812, "bike_id": "46346b9cb88975970359b3ae7b083183", "type": "electric_scooter", "is_reserved": 0, "lon": -77.04297016666666}, {"fusion_lat": 0.0, "name": "7721b10acce268823001946e65b98686", "is_disabled": 0, "rental_uris": {"android": "https://dc.lft.to/lastmile_qr_scan", "ios": "https://dc.lft.to/lastmile_qr_scan"}, "fusion_lon": 0.0, "lat": 38.93139866666667, "bike_id": "7721b10acce268823001946e65b98686", "type": "electric_scooter", "is_reserved": 0, "lon": -77.03829983333334}, {"fusion_lat": 0.0, "name": "f07124db30d18e8a95c16e21c1774fcb", "is_disabled": 0, "rental_uris": {"android": "https://dc.lft.to/lastmile_qr_scan", "ios": "https://dc.lft.to/lastmile_qr_scan"}, "fusion_lon": 0.0, "lat": 38.9304615, "bike_id": "f07124db30d18e8a95c16e21c1774fcb", "type": "electric_scooter", "is_reserved": 0, "lon": -77.036086}, {"fusion_lat": 0.0, "name": "5cd9dd27e96a9f1775c6fce6553b1e2d", "is_disabled": 0, "rental_uris": {"android": "https://dc.lft.to/lastmile_qr_scan", "ios": "https://dc.lft.to/lastmile_qr_scan"}, "fusion_lon": 0.0, "lat": 38.9029835, "bike_id": "5cd9dd27e96a9f1775c6fce6553b1e2d", "type": "electric_scooter", "is_reserved": 0, "lon": -77.0652315}, {"fusion_lat": 0.0, "name": "5b012d6dc060c31d47cf8cd3d645de47", "is_disabled": 0, "rental_uris": {"android": "https://dc.lft.to/lastmile_qr_scan", "ios": "https://dc.lft.to/lastmile_qr_scan"}, "fusion_lon": 0.0, "lat": 38.85795733333333, "bike_id": "5b012d6dc060c31d47cf8cd3d645de47", "type": "electric_bike", "is_reserved": 0, "lon": -77.12015266666667}, {"fusion_lat": 0.0, "name": "4241b084d25a4e88794f4cda8375a410", "is_disabled": 0, "rental_uris": {"android": "https://dc.lft.to/lastmile_qr_scan", "ios": "https://dc.lft.to/lastmile_qr_scan"},