{"data": {"bikes": [{"type": "electric_scooter", "fusion_lon": 0.0, "bike_id": "0c0a65299e2d241dc39a17d7fafd373a", "is_disabled": 0, "lat": 38.90720316666667, "rental_uris": {"ios": "https://dc.lft.to/lastmile_qr_scan", "android": "https://dc.lft.to/lastmile_qr_scan"}, "is_reserved": 0, "lon": -77.032086, "fusion_lat": 0.0, "name": "0c0a65299e2d241dc39a17d7fafd373a"}, {"type": "electric_bike", "fusion_lon": 0.0, "bike_id": "c19d8d2fea8ce7dcb5f68d82bf056990", "is_disabled": 0, "lat": 38.94720133333333, "rental_uris": {"ios": "https://dc.lft.to/lastmile_qr_scan", "android": "https://dc.lft.to/lastmile_qr_scan"}, "is_reserved": 0, "lon": -77.02493016666666, "fusion_lat": 0.0, "name": "c19d8d2fea8ce7dcb5f68d82bf056990"}, {"type": "electric_scooter", "fusion_lon": 0.0, "bike_id": "7f5cd899f72edee810ee150d040c97ec", "is_disabled": 0, "lat": 38.89235216666667, "rental_uris": {"ios": "https://dc.lft.to/lastmile_qr_scan", "android": "https://dc.lft.to/lastmile_qr_scan"}, "is_reserved": 0, "lon": -77.00297566666667, "fusion_lat": 0.0, "name": "7f5cd899f72edee810ee150d040c97ec"}, {"type": "electric_scooter", "fusion_lon": 0.0, "bike_id": "e3396349bebc4d1c39fc17ec74f6ffcf", "is_disabled": 0, "lat": 38.92238183333333, "rental_uris": {"ios": "https://dc.lft.to/lastmile_qr_scan", "android": "https://dc.lft.to/lastmile_qr_scan"}, "is_reserved": 0, "lon": -77.04703883333333, "fusion_lat": 0.0, "name": "e3396349bebc4d1c39fc17ec74f6ffcf"}, {"type": "electric_scooter", "fusion_lon": 0.0, "bike_id": "4f508bdc7f88436564ac2950d69df746", "is_disabled": 0, "lat": 38.90408883333333, "rental_uris": {"ios": "https://dc.lft.to/lastmile_qr_scan", "android": "https://dc.lft.to/lastmile_qr_scan"}, "is_reserved": 0, "lon": -76.97330183333334, "fusion_lat": 0.0, "name": "4f508bdc7f88436564ac2950d69df746"}, {"type": "electric_bike", "fusion_lon": 0.0, "bike_id": "874850ce363684e91ff4b802a2dc8cf1", "is_disabled": 0, "lat": 38.881314833333334, "rental_uris": {"ios": "https://dc.lft.to/lastmile_qr_scan", "android": "https://dc.lft.to/lastmile_qr_scan"}, "is_reserved": 0, "lon": -77.016614, "fusion_lat": 0.0, "name": "874850ce363684e91ff4b802a2dc8cf1"}, {"type": "electric_scooter", "fusion_lon": 0.0, "bike_id": "316b9b04620f9d54a1f320ba62ecb898", "is_disabled": 0, "lat": 38.92260783333333, "rental_uris": {"ios": "https://dc.lft.to/lastmile_qr_scan", "android": "https://dc.lft.to/lastmile_qr_scan"}, "is_reserved": 0, "lon": -77.01827333333334, "fusion_lat": 0.0, "name": "316b9b04620f9d54a1f320ba62ecb898"}, {"type": "electric_scooter", "fusion_lon": 0.0, "bike_id": "eb095f91108ebe1f72eba68ba20faf48", "is_disabled": 0, "lat": 38.884021833333335, "rental_uris": {"ios": "https://dc.lft.to/lastmile_qr_scan", "android": "https://dc.lft.to/lastmile_qr_scan"}, "is_reserved": 0, "lon": -77.02951933333334, "fusion_lat": 0.0, "name": "eb095f91108ebe1f72eba68ba20faf48"}, {"type": "electric_bike", "fusion_lon": 0.0, "bike_id": "c94dd700574ef2286a9bb8a8a6390b92", "is_disabled": 0, "lat": 38.92567716666667, "rental_uris": {"ios": "https://dc.lft.to/lastmile_qr_scan", "android": "https://dc.lft.to/lastmile_qr_scan"}, "is_reserved": 0, "lon": -76.95980616666667, "fusion_lat": 0.0, "name": "c94dd700574ef2286a9bb8a8a6390b92"}, {"type": "electric_bike", "fusion_lon": 0.0, "bike_id": "39441402034ff8410261cb22a43c7659", "is_disabled": 0, "lat": 38.93502866666667, "rental_uris": {"ios": "https://dc.lft.to/lastmile_qr_scan", "android": "https://dc.lft.to/lastmile_qr_scan"}, "is_reserved": 0, "lon": -77.04225683333334, "fusion_lat": 0.0, "name": "39441402034ff8410261cb22a43c7659"}, {"type": "electric_scooter", "fusion_lon": 0.0, "bike_id": "a62386ddcc77b3ed0ec8d3c820cdd06e", "is_disabled": 0, "lat": 38.91021033333333, "rental_uris": {"ios": "https://dc.lft.to/lastmile_qr_scan", "android": "https://dc.lft.to/lastmile_qr_scan"}, "is_reserved": 0, "lon": -77.04646366666667, "fusion_lat": 0.0, "name": "a62386ddcc77b3ed0ec8d3c820cdd06e"}, {"type": "electric_scooter", "fusion_lon": 0.0, "bike_id": "192bf3c64cab8ee18be811f647cefddd", "is_disabled": 0, "lat": 38.88540666666667, "rental_uris": {"ios": "https://dc.lft.to/lastmile_qr_scan", "android": "https://dc.lft.to/lastmile_qr_scan"}, "is_reserved": 0, "lon": -77.01102633333333, "fusion_lat": 0.0, "name": "192bf3c64cab8ee18be811f647cefddd"}, {"type": "electric_scooter", "fusion_lon": 0.0, "bike_id": "7fa7e5094c5dacf1ede59c2971566f99", "is_disabled": 0, "lat": 38.88735883333333, "rental_uris": {"ios": "https://dc.lft.to/lastmile_qr_scan", "android": "https://dc.lft.to/lastmile_qr_scan"}, "is_reserved": 0, "lon": -77.0318175, "fusion_lat": 0.0, "name": "7fa7e5094c5dacf1ede59c2971566f99"}, {"type": "electric_scooter", "fusion_lon": 0.0, "bike_id": "1eeb55fa14ab04b970c1c13fe6b35e80", "is_disabled": 0, "lat": 38.9271065, "rental_uris": {"ios": "https://dc.lft.to/lastmile_qr_scan", "android": "https://dc.lft.to/lastmile_qr_scan"}, "is_reserved": 0, "lon": -77.0376245, "fusion_lat": 0.0, "name": "1eeb55fa14ab04b970c1c13fe6b35e80"}, {"type": "electric_scooter", "fusion_lon": 0.0, "bike_id": "464f74d5a88e049c1fee4992748b8a59", "is_disabled": 0, "lat": 38.89227866666667, "rental_uris": {"ios": "https://dc.lft.to/lastmile_qr_scan", "android": "https://dc.lft.to/lastmile_qr_scan"}, "is_reserved": 0, "lon": -77.02221, "fusion_lat": 0.0, "name": "464f74d5a88e049c1fee4992748b8a59"}, {"type": "electric_scooter", "fusion_lon": 0.0, "bike_id": "f7c7707893223376ec50f2bc09db2b63", "is_disabled": 0, "lat": 38.9226455, "rental_uris": {"ios": "https://dc.lft.to/lastmile_qr_scan", "android": "https://dc.lft.to/lastmile_qr_scan"}, "is_reserved": 0, "lon": -76.99450816666666, "fusion_lat": 0.0, "name": "f7c7707893223376ec50f2bc09db2b63"}, {"type": "electric_scooter", "fusion_lon": 0.0, "bike_id": "ceea872e7f053f03b4609f6112a903ba", "is_disabled": 0, "lat": 38.902097166666664, "rental_uris": {"ios": "https://dc.lft.to/lastmile_qr_scan", "android": "https://dc.lft.to/lastmile_qr_scan"}, "is_reserved": 0, "lon": -77.03582233333333, "fusion_lat": 0.0, "name": "ceea872e7f053f03b4609f6112a903ba"}, {"type": "electric_scooter", "fusion_lon": 0.0, "bike_id": "cfac08ed7f50eca858fecaabcc919a7d", "is_disabled": 0, "lat": 38.927071, "rental_uris": {"ios": "https://dc.lft.to/lastmile_qr_scan", "android": "https://dc.lft.to/lastmile_qr_scan"}, "is_reserved": 0, "lon": -76.9954835, "fusion_lat": 0.0, "name": "cfac08ed7f50eca858fecaabcc919a7d"}, {"type": "electric_scooter", "fusion_lon": 0.0, "bike_id": "44a3cf31d7927735fe75d817ab3dd142", "is_disabled": 0, "lat": 38.918121166666666, "rental_uris": {"ios": "https://dc.lft.to/lastmile_qr_scan", "android": "https://dc.lft.to/lastmile_qr_scan"}, "is_reserved": 0, "lon": -77.039969, "fusion_lat": 0.0, "name": "44a3cf31d7927735fe75d817ab3dd142"}, {"type": "electric_scooter", "fusion_lon": 0.0, "bike_id": "56a137f56df0caa9a309d65dced89fe5", "is_disabled": 0, "lat": 38.916815166666666, "rental_uris": {"ios": "https://dc.lft.to/lastmile_qr_scan", "android": "https://dc.lft.to/lastmile_qr_scan"}, "is_reserved": 0, "lon": -77.02362383333333, "fusion_lat": 0.0, "name": "56a137f56df0caa9a309d65dced89fe5"}, {"type": "electric_scooter", "fusion_lon": 0.0, "bike_id": "419f03a4ac436efa8ea443290ccf7fe1", "is_disabled": 0, "lat": 38.911240666666664, "rental_uris": {"ios": "https://dc.lft.to/lastmile_qr_scan", "android": "https://dc.lft.to/lastmile_qr_scan"}, "is_reserved": 0, "lon": -77.03832416666667, "fusion_lat": 0.0, "name": "419f03a4ac436efa8ea443290ccf7fe1"}, {"type": "electric_scooter", "fusion_lon": 0.0, "bike_id": "dd321d62994c1700b38eb226fe905e32", "is_disabled": 0, "lat": 38.907184666666666, "rental_uris": {"ios": "https://dc.lft.to/lastmile_qr_scan", "android": "https://dc.lft.to/lastmile_qr_scan"}, "is_reserved": 0, "lon": -77.02544083333333, "fusion_lat": 0.0, "name": "dd321d62994c1700b38eb226fe905e32"}, {"type": "electric_scooter", "fusion_lon": 0.0, "bike_id": "662fd13ed954de5c45305a4e1b2e99ca", "is_disabled": 0, "lat": 38.916417333333335, "rental_uris": {"ios": "https://dc.lft.to/lastmile_qr_scan", "android": "https://dc.lft.to/lastmile_qr_scan"}, "is_reserved": 0, "lon": -77.023906, "fusion_lat": 0.0, "name": "662fd13ed954de5c45305a4e1b2e99ca"}, {"type": "electric_scooter", "fusion_lon": 0.0, "bike_id": "1c02e273d1e938d7a33be67921bdcd01", "is_disabled": 0, "lat": 38.916655166666665, "rental_uris": {"ios": "https://dc.lft.to/lastmile_qr_scan", "android": "https://dc.lft.to/lastmile_qr_scan"}, "is_reserved": 0, "lon": -77.03855383333334, "fusion_lat": 0.0, "name": "1c02e273d1e938d7a33be67921bdcd01"}, {"type": "electric_scooter", "fusion_lon": 0.0, "bike_id": "4ee16e5746d4f9613ab761b7a2f825e6", "is_disabled": 0, "lat": 38.9246405, "rental_uris": {"ios": "https://dc.lft.to/lastmile_qr_scan", "android": "https://dc.lft.to/lastmile_qr_scan"}, "is_reserved": 0, "lon": -77.04033733333333, "fusion_lat": 0.0, "name": "4ee16e5746d4f9613ab761b7a2f825e6"}, {"type": "electric_scooter", "fusion_lon": 0.0, "bike_id": "e0879ad6398e541b614558e56a45de90", "is_disabled": 0, "lat": 38.91871883333334, "rental_uris": {"ios": "https://dc.lft.to/lastmile_qr_scan", "android": "https://dc.lft.to/lastmile_qr_scan"}, "is_reserved": 0, "lon": -77.035079, "fusion_lat": 0.0, "name": "e0879ad6398e541b614558e56a45de90"}, {"type": "electric_scooter", "fusion_lon": 0.0, "bike_id": "57742bc97c6ef9a030952aa11e2d7c80", "is_disabled": 0, "lat": 38.905305166666665, "rental_uris": {"ios": "https://dc.lft.to/lastmile_qr_scan", "android": "https://dc.lft.to/lastmile_qr_scan"}, "is_reserved": 0, "lon": -77.06333233333334, "fusion_lat": 0.0, "name": "57742bc97c6ef9a030952aa11e2d7c80"}, {"type": "electric_scooter", "fusion_lon": 0.0, "bike_id": "7e2a3b05b2b63c788cf4b477e5b09d51", "is_disabled": 0, "lat": 38.90035916666667, "rental_uris": {"ios": "https://dc.lft.to/lastmile_qr_scan", "android": "https://dc.lft.to/lastmile_qr_scan"}, "is_reserved": 0, "lon": -76.9855615, "fusion_lat": 0.0, "name": "7e2a3b05b2b63c788cf4b477e5b09d51"}, {"type": "electric_scooter", "fusion_lon": 0.0, "bike_id": "7ca38b539e813a3760e1df0e10cf84c8", "is_disabled": 0, "lat": 38.93068733333333, "rental_uris": {"ios": "https://dc.lft.to/lastmile_qr_scan", "android": "https://dc.lft.to/lastmile_qr_scan"}, "is_reserved": 0, "lon": -77.03991016666667, "fusion_lat": 0.0, "name": "7ca38b539e813a3760e1df0e10cf84c8"}, {"type": "electric_scooter", "fusion_lon": 0.0, "bike_id": "23495961759d65d77f2361a4100c0286", "is_disabled": 0, "lat": 38.9002795, "rental_uris": {"ios": "https://dc.lft.to/lastmile_qr_scan", "android": "https://dc.lft.to/lastmile_qr_scan"}, "is_reserved": 0, "lon": -76.9914555, "fusion_lat": 0.0, "name": "23495961759d65d77f2361a4100c0286"}, {"type": "electric_scooter", "fusion_lon": 0.0, "bike_id": "d6ac77ee921d0a30207b08ef5f1fc525", "is_disabled": 0, "lat": 38.919999833333335, "rental_uris": {"ios": "https://dc.lft.to/lastmile_qr_scan", "android": "https://dc.lft.to/lastmile_qr_scan"}, "is_reserved": 0, "lon": -77.02467316666667, "fusion_lat": 0.0, "name": "d6ac77ee921d0a30207b08ef5f1fc525"}, {"type": "electric_scooter", "fusion_lon": 0.0, "bike_id": "e3392cb8f6d4dcab17a9b653768359e0", "is_disabled": 0, "lat": 38.879235, "rental_uris": {"ios": "https://dc.lft.to/lastmile_qr_scan", "android": "https://dc.lft.to/lastmile_qr_scan"}, "is_reserved": 0, "lon": -76.94327533333333, "fusion_lat": 0.0, "name": "e3392cb8f6d4dcab17a9b653768359e0"}, {"type": "electric_scooter", "fusion_lon": 0.0, "bike_id": "0a6fe1e4f3f1eb51fbf0c848cd35f6fb", "is_disabled": 0, "lat": 38.9327665, "rental_uris": {"ios": "https://dc.lft.to/lastmile_qr_scan", "android": "https://dc.lft.to/lastmile_qr_scan"}, "is_reserved": 0, "lon": -77.02513466666667, "fusion_lat": 0.0, "name": "0a6fe1e4f3f1eb51fbf0c848cd35f6fb"}, {"type": "electric_scooter", "fusion_lon": 0.0, "bike_id": "c33facd16d619856ccb6edb9f17fe2eb", "is_disabled": 0, "lat": 38.90004616666667, "rental_uris": {"ios": "https://dc.lft.to/lastmile_qr_scan", "android": "https://dc.lft.to/lastmile_qr_scan"}, "is_reserved": 0, "lon": -77.0039605, "fusion_lat": 0.0, "name": "c33facd16d619856ccb6edb9f17fe2eb"}, {"type": "electric_scooter", "fusion_lon": 0.0, "bike_id": "ea901abfaa948dd9171af3a63af20968", "is_disabled": 0, "lat": 38.91792616666667, "rental_uris": {"ios": "https://dc.lft.to/lastmile_qr_scan", "android": "https://dc.lft.to/lastmile_qr_scan"}, "is_reserved": 0, "lon": -77.03212516666666, "fusion_lat": 0.0, "name": "ea901abfaa948dd9171af3a63af20968"}, {"type": "electric_scooter", "fusion_lon": 0.0, "bike_id": "9616a9889caa58f5dcba1cd353f90cba", "is_disabled": 0, "lat": 38.92255866666667, "rental_uris": {"ios": "https://dc.lft.to/lastmile_qr_scan", "android": "https://dc.lft.to/lastmile_qr_scan"}, "is_reserved": 0, "lon": -77.01950216666667, "fusion_lat": 0.0, "name": "9616a9889caa58f5dcba1cd353f90cba"}, {"type": "electric_scooter", "fusion_lon": 0.0, "bike_id": "83c5a7c249835ff24edca7d14cb886d5", "is_disabled": 0, "lat": 38.92616316666667, "rental_uris": {"ios": "https://dc.lft.to/lastmile_qr_scan", "android": "https://dc.lft.to/lastmile_qr_scan"}, "is_reserved": 0, "lon": -77.03963933333333, "fusion_lat": 0.0, "name": "83c5a7c249835ff24edca7d14cb886d5"}, {"type": "electric_scooter", "fusion_lon": 0.0, "bike_id": "16c8008e775425982469cfbc9e1a3fbc", "is_disabled": 0, "lat": 38.95303, "rental_uris": {"ios": "https://dc.lft.to/lastmile_qr_scan", "android": "https://dc.lft.to/lastmile_qr_scan"}, "is_reserved": 0, "lon": -77.06829066666667, "fusion_lat": 0.0, "name": "16c8008e775425982469cfbc9e1a3fbc"}, {"type": "electric_scooter", "fusion_lon": 0.0, "bike_id": "54d083cc957eefb0f9e2ddafbb382e2a", "is_disabled": 0, "lat": 38.8872045, "rental_uris": {"ios": "https://dc.lft.to/lastmile_qr_scan", "android": "https://dc.lft.to/lastmile_qr_scan"}, "is_reserved": 0, "lon": -77.02205733333334, "fusion_lat": 0.0, "name": "54d083cc957eefb0f9e2ddafbb382e2a"}, {"type": "electric_scooter", "fusion_lon": 0.0, "bike_id": "52e75bcf63dae1362ab1e992c4443e36", "is_disabled": 0, "lat": 38.8872515, "rental_uris": {"ios": "https://dc.lft.to/lastmile_qr_scan", "android": "https://dc.lft.to/lastmile_qr_scan"}, "is_reserved": 0, "lon": -76.9835895, "fusion_lat": 0.0, "name": "52e75bcf63dae1362ab1e992c4443e36"}, {"type": "electric_scooter", "fusion_lon": 0.0, "bike_id": "c82f866f2b8a975645b70b287635ee4a", "is_disabled": 0, "lat": 38.895338, "rental_uris": {"ios": "https://dc.lft.to/lastmile_qr_scan", "android": "https://dc.lft.to/lastmile_qr_scan"}, "is_reserved": 0, "lon": -76.94925366666666, "fusion_lat": 0.0, "name": "c82f866f2b8a975645b70b287635ee4a"}, {"type": "electric_scooter", "fusion_lon": 0.0, "bike_id": "77873a3defdb7eafb1187aa37a6a352d", "is_disabled": 0, "lat": 38.865066, "rental_uris": {"ios": "https://dc.lft.to/lastmile_qr_scan", "android": "https://dc.lft.to/lastmile_qr_scan"}, "is_reserved": 0, "lon": -76.9899155, "fusion_lat": 0.0, "name": "77873a3defdb7eafb1187aa37a6a352d"}, {"type": "electric_bike", "fusion_lon": 0.0, "bike_id": "68918b9661a0fe9469c2c08fb281341c", "is_disabled": 0, "lat": 38.96531216666666, "rental_uris": {"ios": "https://dc.lft.to/lastmile_qr_scan", "android": "https://dc.lft.to/lastmile_qr_scan"}, "is_reserved": 0, "lon": -77.02822283333333, "fusion_lat": 0.0, "name": "68918b9661a0fe9469c2c08fb281341c"}, {"type": "electric_scooter", "fusion_lon": 0.0, "bike_id": "8a6ca271fa985205c343ecff129b8871", "is_disabled": 0, "lat": 38.89279583333333, "rental_uris": {"ios": "https://dc.lft.to/lastmile_qr_scan", "android": "https://dc.lft.to/lastmile_qr_scan"}, "is_reserved": 0, "lon": -77.04669366666667, "fusion_lat": 0.0, "name": "8a6ca271fa985205c343ecff129b8871"}, {"type": "electric_scooter", "fusion_lon": 0.0, "bike_id": "1d8e76ed0fcd700b891c780760d390c9", "is_disabled": 0, "lat": 38.9244145, "rental_uris": {"ios": "https://dc.lft.to/lastmile_qr_scan", "android": "https://dc.lft.to/lastmile_qr_scan"}, "is_reserved": 0, "lon": -76.99064833333334, "fusion_lat": 0.0, "name": "1d8e76ed0fcd700b891c780760d390c9"}, {"type": "electric_scooter", "fusion_lon": 0.0, "bike_id": "8a8305bd55f0a14843c06044cec57ca0", "is_disabled": 0, "lat": 38.9377665, "rental_uris": {"ios": "https://dc.lft.to/lastmile_qr_scan", "android": "https://dc.lft.to/lastmile_qr_scan"}, "is_reserved": 0, "lon": -77.0245285, "fusion_lat": 0.0, "name": "8a8305bd55f0a14843c06044cec57ca0"}, {"type": "electric_scooter", "fusion_lon": 0.0, "bike_id": "cc840a2f4bc37195fc9eec530f6fdc7d", "is_disabled": 0, "lat": 38.91417333333333, "rental_uris": {"ios": "https://dc.lft.to/lastmile_qr_scan", "android": "https://dc.lft.to/lastmile_qr_scan"}, "is_reserved": 0, "lon": -77.03901683333333, "fusion_lat": 0.0, "name": "cc840a2f4bc37195fc9eec530f6fdc7d"}, {"type": "electric_scooter", "fusion_lon": 0.0, "bike_id": "609d489b3e6b973200e8d328ddeafe25", "is_disabled": 0, "lat": 38.91884, "rental_uris": {"ios": "https://dc.lft.to/lastmile_qr_scan", "android": "https://dc.lft.to/lastmile_qr_scan"}, "is_reserved": 0, "lon": -77.04177183333333, "fusion_lat": 0.0, "name": "609d489b3e6b973200e8d328ddeafe25"}, {"type": "electric_scooter", "fusion_lon": 0.0, "bike_id": "b9074bcce74cd29926f99d581071d85f", "is_disabled": 0, "lat": 38.924279166666665, "rental_uris": {"ios": "https://dc.lft.to/lastmile_qr_scan", "android": "https://dc.lft.to/lastmile_qr_scan"}, "is_reserved": 0, "lon": -77.04241833333333, "fusion_lat": 0.0, "name": "b9074bcce74cd29926f99d581071d85f"}, {"type": "electric_scooter", "fusion_lon": 0.0, "bike_id": "167fd043ccc0fe13cd50663db54fce69", "is_disabled": 0, "lat": 38.90771433333333, "rental_uris": {"ios": "https://dc.lft.to/lastmile_qr_scan", "android": "https://dc.lft.to/lastmile_qr_scan"}, "is_reserved": 0, "lon": -77.03765633333333, "fusion_lat": 0.0, "name": "167fd043ccc0fe13cd50663db54fce69"}, {"type": "electric_bike", "fusion_lon": 0.0, "bike_id": "0cfbc38bf2d0fce0d4796a5ff44f4dfa", "is_disabled": 0, "lat": 38.944076, "rental_uris": {"ios": "https://dc.lft.to/lastmile_qr_scan", "android": "https://dc.lft.to/lastmile_qr_scan"}, "is_reserved": 0, "lon": -77.055216, "fusion_lat": 0.0, "name": "0cfbc38bf2d0fce0d4796a5ff44f4dfa"}, {"type": "electric_scooter", "fusion_lon": 0.0, "bike_id": "6033f96a8ac2a32cca218cce676761a0", "is_disabled": 0, "lat": 38.901266166666666, "rental_uris": {"ios": "https://dc.lft.to/lastmile_qr_scan", "android": "https://dc.lft.to/lastmile_qr_scan"}, "is_reserved": 0, "lon": -77.02300016666666, "fusion_lat": 0.0, "name": "6033f96a8ac2a32cca218cce676761a0"}, {"type": "electric_scooter", "fusion_lon": 0.0, "bike_id": "badfff92fb4ba1db53e2e3d59e1371ed", "is_disabled": 0, "lat": 38.92237933333333, "rental_uris": {"ios": "https://dc.lft.to/lastmile_qr_scan", "android": "https://dc.lft.to/lastmile_qr_scan"}, "is_reserved": 0, "lon": -77.04489633333333, "fusion_lat": 0.0, "name": "badfff92fb4ba1db53e2e3d59e1371ed"}, {"type": "electric_scooter", "fusion_lon": 0.0, "bike_id": "44ac4b66b0843b2fd8a56ad74f113ea0", "is_disabled": 0, "lat": 38.89887916666667, "rental_uris": {"ios": "https://dc.lft.to/lastmile_qr_scan", "android": "https://dc.lft.to/lastmile_qr_scan"}, "is_reserved": 0, "lon": -76.93178266666666, "fusion_lat": 0.0, "name": "44ac4b66b0843b2fd8a56ad74f113ea0"}, {"type": "electric_scooter", "fusion_lon": 0.0, "bike_id": "6ad00a6587997598baa55731108fa3c5", "is_disabled": 0, "lat": 38.9199595, "rental_uris": {"ios": "https://dc.lft.to/lastmile_qr_scan", "android": "https://dc.lft.to/lastmile_qr_scan"}, "is_reserved": 0, "lon": -77.03969933333333, "fusion_lat": 0.0, "name": "6ad00a6587997598baa55731108fa3c5"}, {"type": "electric_scooter", "fusion_lon": 0.0, "bike_id": "43085aee8420692acf26dc526467a222", "is_disabled": 0, "lat": 38.90676416666667, "rental_uris": {"ios": "https://dc.lft.to/lastmile_qr_scan", "android": "https://dc.lft.to/lastmile_qr_scan"}, "is_reserved": 0, "lon": -77.02984033333334, "fusion_lat": 0.0, "name": "43085aee8420692acf26dc526467a222"}, {"type": "electric_scooter", "fusion_lon": 0.0, "bike_id": "69320730b9559c08c50ecb1acb53332b", "is_disabled": 0, "lat": 38.907987, "rental_uris": {"ios": "https://dc.lft.to/lastmile_qr_scan", "android": "https://dc.lft.to/lastmile_qr_scan"}, "is_reserved": 0, "lon": -77.034585, "fusion_lat": 0.0, "name": "69320730b9559c08c50ecb1acb53332b"}, {"type": "electric_scooter", "fusion_lon": 0.0, "bike_id": "4fa0e950324d7f73ffbadc28b7e81dc9", "is_disabled": 0, "lat": 38.933969833333336, "rental_uris": {"ios": "https://dc.lft.to/lastmile_qr_scan", "android": "https://dc.lft.to/lastmile_qr_scan"}, "is_reserved": 0, "lon": -77.04543616666666, "fusion_lat": 0.0, "name": "4fa0e950324d7f73ffbadc28b7e81dc9"}, {"type": "electric_scooter", "fusion_lon": 0.0, "bike_id": "b2c83f095281f9bd01000cdf56fa5aae", "is_disabled": 0, "lat": 38.927653166666666, "rental_uris": {"ios": "https://dc.lft.to/lastmile_qr_scan", "android": "https://dc.lft.to/lastmile_qr_scan"}, "is_reserved": 0, "lon": -77.03243283333333, "fusion_lat": 0.0, "name": "b2c83f095281f9bd01000cdf56fa5aae"}, {"type": "electric_scooter", "fusion_lon": 0.0, "bike_id": "ee53c50729f183ab26b750ba1563fff9", "is_disabled": 0, "lat": 38.94449933333333, "rental_uris": {"ios": "https://dc.lft.to/lastmile_qr_scan", "android": "https://dc.lft.to/lastmile_qr_scan"}, "is_reserved": 0, "lon": -77.02799783333333, "fusion_lat": 0.0, "name": "ee53c50729f183ab26b750ba1563fff9"}, {"type": "electric_scooter", "fusion_lon": 0.0, "bike_id": "2d5acaa8a900a38b15001dbe4c72d790", "is_disabled": 0, "lat": 38.911123833333335, "rental_uris": {"ios": "https://dc.lft.to/lastmile_qr_scan", "android": "https://dc.lft.to/lastmile_qr_scan"}, "is_reserved": 0, "lon": -77.03836016666666, "fusion_lat": 0.0, "name": "2d5acaa8a900a38b15001dbe4c72d790"}, {"type": "electric_scooter", "fusion_lon": 0.0, "bike_id": "a19ecbe43f19e2dc5d1ae83d2f46576c", "is_disabled": 0, "lat": 38.86366483333333, "rental_uris": {"ios": "https://dc.lft.to/lastmile_qr_scan", "android": "https://dc.lft.to/lastmile_qr_scan"}, "is_reserved": 0, "lon": -76.9905135, "fusion_lat": 0.0, "name": "a19ecbe43f19e2dc5d1ae83d2f46576c"}, {"type": "electric_scooter", "fusion_lon": 0.0, "bike_id": "3bb8990cb2059fdbd156bd11cddbc231", "is_disabled": 0, "lat": 38.891951166666665, "rental_uris": {"ios": "https://dc.lft.to/lastmile_qr_scan", "android": "https://dc.lft.to/lastmile_qr_scan"}, "is_reserved": 0, "lon": -77.02379483333333, "fusion_lat": 0.0, "name": "3bb8990cb2059fdbd156bd11cddbc231"}, {"type": "electric_scooter", "fusion_lon": 0.0, "bike_id": "e1ec052e987e4a8058e11ea0afaf779e", "is_disabled": 0, "lat": 38.9241545, "rental_uris": {"ios": "https://dc.lft.to/lastmile_qr_scan", "android": "https://dc.lft.to/lastmile_qr_scan"}, "is_reserved": 0, "lon": -77.019856, "fusion_lat": 0.0, "name": "e1ec052e987e4a8058e11ea0afaf779e"}, {"type": "electric_scooter", "fusion_lon": 0.0, "bike_id": "cd55a24c75a0de750d818e789ca63dfc", "is_disabled": 0, "lat": 38.9195145, "rental_uris": {"ios": "https://dc.lft.to/lastmile_qr_scan", "android": "https://dc.lft.to/lastmile_qr_scan"}, "is_reserved": 0, "lon": -77.01786516666667, "fusion_lat": 0.0, "name": "cd55a24c75a0de750d818e789ca63dfc"}, {"type": "electric_scooter", "fusion_lon": 0.0, "bike_id": "2905f41445fef8ed2a22b5deb072bd6b", "is_disabled": 0, "lat": 38.91124633333333, "rental_uris": {"ios": "https://dc.lft.to/lastmile_qr_scan", "android": "https://dc.lft.to/lastmile_qr_scan"}, "is_reserved": 0, "lon": -77.02199833333333, "fusion_lat": 0.0, "name": "2905f41445fef8ed2a22b5deb072bd6b"}, {"type": "electric_scooter", "fusion_lon": 0.0, "bike_id": "855ae24b40c8e0d084abc1f4f40dcbb5", "is_disabled": 0, "lat": 38.90560633333333, "rental_uris": {"ios": "https://dc.lft.to/lastmile_qr_scan", "android": "https://dc.lft.to/lastmile_qr_scan"}, "is_reserved": 0, "lon": -77.00713366666666, "fusion_lat": 0.0, "name": "855ae24b40c8e0d084abc1f4f40dcbb5"}, {"type": "electric_scooter", "fusion_lon": 0.0, "bike_id": "e0834331fadedd764d5e48596c2d4154", "is_disabled": 0, "lat": 38.92035666666666, "rental_uris": {"ios": "https://dc.lft.to/lastmile_qr_scan", "android": "https://dc.lft.to/lastmile_qr_scan"}, "is_reserved": 0, "lon": -77.012213, "fusion_lat": 0.0, "name": "e0834331fadedd764d5e48596c2d4154"}, {"type": "electric_scooter", "fusion_lon": 0.0, "bike_id": "03c7271efa51b72efa3a05b02f3859e9", "is_disabled": 0, "lat": 38.935376166666664, "rental_uris": {"ios": "https://dc.lft.to/lastmile_qr_scan", "android": "https://dc.lft.to/lastmile_qr_scan"}, "is_reserved": 0, "lon": -77.02349416666667, "fusion_lat": 0.0, "name": "03c7271efa51b72efa3a05b02f3859e9"}, {"type": "electric_scooter", "fusion_lon": 0.0, "bike_id": "a09aaded27eb7df0ccbe2f1dfc3fbee2", "is_disabled": 0, "lat": 38.89222433333333, "rental_uris": {"ios": "https://dc.lft.to/lastmile_qr_scan", "android": "https://dc.lft.to/lastmile_qr_scan"}, "is_reserved": 0, "lon": -77.04807533333333, "fusion_lat": 0.0, "name": "a09aaded27eb7df0ccbe2f1dfc3fbee2"}, {"type": "electric_scooter", "fusion_lon": 0.0, "bike_id": "0a63901393d42e9824cdd47a6309f31c", "is_disabled": 0, "lat": 38.91819816666667, "rental_uris": {"ios": "https://dc.lft.to/lastmile_qr_scan", "android": "https://dc.lft.to/lastmile_qr_scan"}, "is_reserved": 0, "lon": -77.03662166666666, "fusion_lat": 0.0, "name": "0a63901393d42e9824cdd47a6309f31c"}, {"type": "electric_scooter", "fusion_lon": 0.0, "bike_id": "1b0fb80759f995024d887e5411bbb403", "is_disabled": 0, "lat": 38.90545816666667, "rental_uris": {"ios": "https://dc.lft.to/lastmile_qr_scan", "android": "https://dc.lft.to/lastmile_qr_scan"}, "is_reserved": 0, "lon": -77.03470216666666, "fusion_lat": 0.0, "name": "1b0fb80759f995024d887e5411bbb403"}, {"type": "electric_scooter", "fusion_lon": 0.0, "bike_id": "90faa28469415cb768bf45832cdf3ea3", "is_disabled": 0, "lat": 38.8650145, "rental_uris": {"ios": "https://dc.lft.to/lastmile_qr_scan", "android": "https://dc.lft.to/lastmile_qr_scan"}, "is_reserved": 0, "lon": -76.98984733333333, "fusion_lat": 0.0, "name": "90faa28469415cb768bf45832cdf3ea3"}, {"type": "electric_scooter", "fusion_lon": 0.0, "bike_id": "4a81ed7e2b352d3eb6682260e4d5601c", "is_disabled": 0, "lat": 38.934320166666666, "rental_uris": {"ios": "https://dc.lft.to/lastmile_qr_scan", "android": "https://dc.lft.to/lastmile_qr_scan"}, "is_reserved": 0, "lon": -77.04001616666666, "fusion_lat": 0.0, "name": "4a81ed7e2b352d3eb6682260e4d5601c"}, {"type": "electric_scooter", "fusion_lon": 0.0, "bike_id": "686cf0c7abbaaf2a9b7a7ceed00afa16", "is_disabled": 0, "lat": 38.9288795, "rental_uris": {"ios": "https://dc.lft.to/lastmile_qr_scan", "android": "https://dc.lft.to/lastmile_qr_scan"}, "is_reserved": 0, "lon": -77.01395416666666, "fusion_lat": 0.0, "name": "686cf0c7abbaaf2a9b7a7ceed00afa16"}, {"type": "electric_scooter", "fusion_lon": 0.0, "bike_id": "b9dce0ae8a82b0e7d7b0698d04d70441", "is_disabled": 0, "lat": 38.9128855, "rental_uris": {"ios": "https://dc.lft.to/lastmile_qr_scan", "android": "https://dc.lft.to/lastmile_qr_scan"}, "is_reserved": 0, "lon": -77.04516083333333, "fusion_lat": 0.0, "name": "b9dce0ae8a82b0e7d7b0698d04d70441"}, {"type": "electric_scooter", "fusion_lon": 0.0, "bike_id": "ebd06baea9f0082e2e9e16071fdf7958", "is_disabled": 0, "lat": 38.90659683333333, "rental_uris": {"ios": "https://dc.lft.to/lastmile_qr_scan", "android": "https://dc.lft.to/lastmile_qr_scan"}, "is_reserved": 0, "lon": -77.02971283333333, "fusion_lat": 0.0, "name": "ebd06baea9f0082e2e9e16071fdf7958"}, {"type": "electric_scooter", "fusion_lon": 0.0, "bike_id": "1da82c72650d6c4c161984f8d24676e0", "is_disabled": 0, "lat": 38.87679116666666, "rental_uris": {"ios": "https://dc.lft.to/lastmile_qr_scan", "android": "https://dc.lft.to/lastmile_qr_scan"}, "is_reserved": 0, "lon": -77.00344433333333, "fusion_lat": 0.0, "name": "1da82c72650d6c4c161984f8d24676e0"}, {"type": "electric_scooter", "fusion_lon": 0.0, "bike_id": "bf83cc2aca622cead81c982af7089608", "is_disabled": 0, "lat": 38.86695816666667, "rental_uris": {"ios": "https://dc.lft.to/lastmile_qr_scan", "android": "https://dc.lft.to/lastmile_qr_scan"}, "is_reserved": 0, "lon": -76.98090216666667, "fusion_lat": 0.0, "name": "bf83cc2aca622cead81c982af7089608"}, {"type": "electric_scooter", "fusion_lon": 0.0, "bike_id": "7c94428bcca1a16d5daa073fa216f824", "is_disabled": 0, "lat": 38.94897, "rental_uris": {"ios": "https://dc.lft.to/lastmile_qr_scan", "android": "https://dc.lft.to/lastmile_qr_scan"}, "is_reserved": 0, "lon": -77.01862083333333, "fusion_lat": 0.0, "name": "7c94428bcca1a16d5daa073fa216f824"}, {"type": "electric_scooter", "fusion_lon": 0.0, "bike_id": "96c1aafe631ba19835ccc95279d15f08", "is_disabled": 0, "lat": 38.92299333333333, "rental_uris": {"ios": "https://dc.lft.to/lastmile_qr_scan", "android": "https://dc.lft.to/lastmile_qr_scan"}, "is_reserved": 0, "lon": -77.04206433333333, "fusion_lat": 0.0, "name": "96c1aafe631ba19835ccc95279d15f08"}, {"type": "electric_bike", "fusion_lon": 0.0, "bike_id": "326c9c81f3e6b59d0fceb246875da5c1", "is_disabled": 0, "lat": 38.849028, "rental_uris": {"ios": "https://dc.lft.to/lastmile_qr_scan", "android": "https://dc.lft.to/lastmile_qr_scan"}, "is_reserved": 0, "lon": -77.07962433333333, "fusion_lat": 0.0, "name": "326c9c81f3e6b59d0fceb246875da5c1"}, {"type": "electric_scooter", "fusion_lon": 0.0, "bike_id": "1d715fc9871eb6cbd1428952b6ca06b6", "is_disabled": 0, "lat": 38.91936466666667, "rental_uris": {"ios": "https://dc.lft.to/lastmile_qr_scan", "android": "https://dc.lft.to/lastmile_qr_scan"}, "is_reserved": 0, "lon": -77.03205066666666, "fusion_lat": 0.0, "name": "1d715fc9871eb6cbd1428952b6ca06b6"}, {"type": "electric_scooter", "fusion_lon": 0.0, "bike_id": "f05815284da34b4e4150bd2d22b0a2c2", "is_disabled": 0, "lat": 38.92747116666666, "rental_uris": {"ios": "https://dc.lft.to/lastmile_qr_scan", "android": "https://dc.lft.to/lastmile_qr_scan"}, "is_reserved": 0, "lon": -76.95555433333334, "fusion_lat": 0.0, "name": "f05815284da34b4e4150bd2d22b0a2c2"}, {"type": "electric_scooter", "fusion_lon": 0.0, "bike_id": "9495726a12353dffc0421b8bc460e3d4", "is_disabled": 0, "lat": 38.9028065, "rental_uris": {"ios": "https://dc.lft.to/lastmile_qr_scan", "android": "https://dc.lft.to/lastmile_qr_scan"}, "is_reserved": 0, "lon": -77.038511, "fusion_lat": 0.0, "name": "9495726a12353dffc0421b8bc460e3d4"}, {"type": "electric_scooter", "fusion_lon": 0.0, "bike_id": "fbeea9a7b4ce6e31b58b573776141f9b", "is_disabled": 0, "lat": 38.86287433333333, "rental_uris": {"ios": "https://dc.lft.to/lastmile_qr_scan", "android": "https://dc.lft.to/lastmile_qr_scan"}, "is_reserved": 0, "lon": -76.992297, "fusion_lat": 0.0, "name": "fbeea9a7b4ce6e31b58b573776141f9b"}, {"type": "electric_scooter", "fusion_lon": 0.0, "bike_id": "8193a9047bda1c527887bfc2f285ed12", "is_disabled": 0, "lat": 38.915369, "rental_uris": {"ios": "https://dc.lft.to/lastmile_qr_scan", "android": "https://dc.lft.to/lastmile_qr_scan"}, "is_reserved": 0, "lon": -77.04446516666667, "fusion_lat": 0.0, "name": "8193a9047bda1c527887bfc2f285ed12"}, {"type": "electric_scooter", "fusion_lon": 0.0, "bike_id": "25d0bab67d89248d33b776d97efb1413", "is_disabled": 0, "lat": 38.9055995, "rental_uris": {"ios": "https://dc.lft.to/lastmile_qr_scan", "android": "https://dc.lft.to/lastmile_qr_scan"}, "is_reserved": 0, "lon": -77.00574683333333, "fusion_lat": 0.0, "name": "25d0bab67d89248d33b776d97efb1413"}, {"type": "electric_scooter", "fusion_lon": 0.0, "bike_id": "d269a226d8aa92890a16ad2916a4eb65", "is_disabled": 0, "lat": 38.92638266666667, "rental_uris": {"ios": "https://dc.lft.to/lastmile_qr_scan", "android": "https://dc.lft.to/lastmile_qr_scan"}, "is_reserved": 0, "lon": -77.03467883333333, "fusion_lat": 0.0, "name": "d269a226d8aa92890a16ad2916a4eb65"}, {"type": "electric_scooter", "fusion_lon": 0.0, "bike_id": "731426d236e5cb39369bcf50ac9740ce", "is_disabled": 0, "lat": 38.921017166666665, "rental_uris": {"ios": "https://dc.lft.to/lastmile_qr_scan", "android": "https://dc.lft.to/lastmile_qr_scan"}, "is_reserved": 0, "lon": -77.04696766666666, "fusion_lat": 0.0, "name": "731426d236e5cb39369bcf50ac9740ce"}, {"type": "electric_scooter", "fusion_lon": 0.0, "bike_id": "2102e6cd411420fb65396180cc727bfc", "is_disabled": 0, "lat": 38.937214, "rental_uris": {"ios": "https://dc.lft.to/lastmile_qr_scan", "android": "https://dc.lft.to/lastmile_qr_scan"}, "is_reserved": 0, "lon": -77.02476383333334, "fusion_lat": 0.0, "name": "2102e6cd411420fb65396180cc727bfc"}, {"type": "electric_scooter", "fusion_lon": 0.0, "bike_id": "be40b54e84ead39e82a9350a52d3ca48", "is_disabled": 0, "lat": 38.9013145, "rental_uris": {"ios": "https://dc.lft.to/lastmile_qr_scan", "android": "https://dc.lft.to/lastmile_qr_scan"}, "is_reserved": 0, "lon": -77.04041783333334, "fusion_lat": 0.0, "name": "be40b54e84ead39e82a9350a52d3ca48"}, {"type": "electric_scooter", "fusion_lon": 0.0, "bike_id": "c72a7accc44b4fbd6247102a518b6a98", "is_disabled": 0, "lat": 38.91264683333333, "rental_uris": {"ios": "https://dc.lft.to/lastmile_qr_scan", "android": "https://dc.lft.to/lastmile_qr_scan"}, "is_reserved": 0, "lon": -77.006637, "fusion_lat": 0.0, "name": "c72a7accc44b4fbd6247102a518b6a98"}, {"type": "electric_scooter", "fusion_lon": 0.0, "bike_id": "a27582ea3a8806779fc4cc05233258fc", "is_disabled": 0, "lat": 38.8783375, "rental_uris": {"ios": "https://dc.lft.to/lastmile_qr_scan", "android": "https://dc.lft.to/lastmile_qr_scan"}, "is_reserved": 0, "lon": -77.000344, "fusion_lat": 0.0, "name": "a27582ea3a8806779fc4cc05233258fc"}, {"type": "electric_scooter", "fusion_lon": 0.0, "bike_id": "bb79d4b7753f1718e48c2bd86fb2ab47", "is_disabled": 0, "lat": 38.9011575, "rental_uris": {"ios": "https://dc.lft.to/lastmile_qr_scan", "android": "https://dc.lft.to/lastmile_qr_scan"}, "is_reserved": 0, "lon": -77.0499635, "fusion_lat": 0.0, "name": "bb79d4b7753f1718e48c2bd86fb2ab47"}, {"type": "electric_scooter", "fusion_lon": 0.0, "bike_id": "5d2a25d181381beac73535a97808cde2", "is_disabled": 0, "lat": 38.899618333333336, "rental_uris": {"ios": "https://dc.lft.to/lastmile_qr_scan", "android": "https://dc.lft.to/lastmile_qr_scan"}, "is_reserved": 0, "lon": -77.0420235, "fusion_lat": 0.0, "name": "5d2a25d181381beac73535a97808cde2"}, {"type": "electric_scooter", "fusion_lon": 0.0, "bike_id": "9f4e0e4cd87d780ef2f202861a44257e", "is_disabled": 0, "lat": 38.91996016666667, "rental_uris": {"ios": "https://dc.lft.to/lastmile_qr_scan", "android": "https://dc.lft.to/lastmile_qr_scan"}, "is_reserved": 0, "lon": -77.03217566666666, "fusion_lat": 0.0, "name": "9f4e0e4cd87d780ef2f202861a44257e"}, {"type": "electric_scooter", "fusion_lon": 0.0, "bike_id": "7d7686d5aedd3113cb96015a7421f907", "is_disabled": 0, "lat": 38.8972995, "rental_uris": {"ios": "https://dc.lft.to/lastmile_qr_scan", "android": "https://dc.lft.to/lastmile_qr_scan"}, "is_reserved": 0, "lon": -77.0551855, "fusion_lat": 0.0, "name": "7d7686d5aedd3113cb96015a7421f907"}, {"type": "electric_scooter", "fusion_lon": 0.0, "bike_id": "a16fa77b9f686418d7cf7f6bf5b5dc62", "is_disabled": 0, "lat": 38.90532183333333, "rental_uris": {"ios": "https://dc.lft.to/lastmile_qr_scan", "android": "https://dc.lft.to/lastmile_qr_scan"}, "is_reserved": 0, "lon": -77.059349, "fusion_lat": 0.0, "name": "a16fa77b9f686418d7cf7f6bf5b5dc62"}, {"type": "electric_scooter", "fusion_lon": 0.0, "bike_id": "d4da6521f28fbcf3264b433764865dc3", "is_disabled": 0, "lat": 38.918144166666664, "rental_uris": {"ios": "https://dc.lft.to/lastmile_qr_scan", "android": "https://dc.lft.to/lastmile_qr_scan"}, "is_reserved": 0, "lon": -77.02888866666666, "fusion_lat": 0.0, "name": "d4da6521f28fbcf3264b433764865dc3"}, {"type": "electric_bike", "fusion_lon": 0.0, "bike_id": "c2cf49ae9748b1ed7c39d92fad78831d", "is_disabled": 0, "lat": 38.87576516666667, "rental_uris": {"ios": "https://dc.lft.to/lastmile_qr_scan", "android": "https://dc.lft.to/lastmile_qr_scan"}, "is_reserved": 0, "lon": -77.2341125, "fusion_lat": 0.0, "name": "c2cf49ae9748b1ed7c39d92fad78831d"}, {"type": "electric_scooter", "fusion_lon": 0.0, "bike_id": "8b255d2fa863eccb33fc35bf0aab8f92", "is_disabled": 0, "lat": 38.939255333333335, "rental_uris": {"ios": "https://dc.lft.to/lastmile_qr_scan", "android": "https://dc.lft.to/lastmile_qr_scan"}, "is_reserved": 0, "lon": -77.03677216666667, "fusion_lat": 0.0, "name": "8b255d2fa863eccb33fc35bf0aab8f92"}, {"type": "electric_scooter", "fusion_lon": 0.0, "bike_id": "6a0d498a12af2315da0b0e5813769e4f", "is_disabled": 0, "lat": 38.9057695, "rental_uris": {"ios": "https://dc.lft.to/lastmile_qr_scan", "android": "https://dc.lft.to/lastmile_qr_scan"}, "is_reserved": 0, "lon": -77.00785766666667, "fusion_lat": 0.0, "name": "6a0d498a12af2315da0b0e5813769e4f"}, {"type": "electric_scooter", "fusion_lon": 0.0, "bike_id": "82278fc60cd2d5e5adba8884a7167608", "is_disabled": 0, "lat": 38.911498333333334, "rental_uris": {"ios": "https://dc.lft.to/lastmile_qr_scan", "android": "https://dc.lft.to/lastmile_qr_scan"}, "is_reserved": 0, "lon": -77.04661466666667, "fusion_lat": 0.0, "name": "82278fc60cd2d5e5adba8884a7167608"}, {"type": "electric_bike", "fusion_lon": 0.0, "bike_id": "45fa26105d0be14cea7452b73f6e5b6b", "is_disabled": 0, "lat": 38.92731033333333, "rental_uris": {"ios": "https://dc.lft.to/lastmile_qr_scan", "android": "https://dc.lft.to/lastmile_qr_scan"}, "is_reserved": 0, "lon": -76.99368883333334, "fusion_lat": 0.0, "name": "45fa26105d0be14cea7452b73f6e5b6b"}, {"type": "electric_scooter", "fusion_lon": 0.0, "bike_id": "808fa7e4c9ab5981eb3556a8db7552d9", "is_disabled": 0, "lat": 38.918187333333336, "rental_uris": {"ios": "https://dc.lft.to/lastmile_qr_scan", "android": "https://dc.lft.to/lastmile_qr_scan"}, "is_reserved": 0, "lon": -77.02295583333333, "fusion_lat": 0.0, "name": "808fa7e4c9ab5981eb3556a8db7552d9"}, {"type": "electric_scooter", "fusion_lon": 0.0, "bike_id": "323c01296e91ae3ecea637678cfd4e9a", "is_disabled": 0, "lat": 38.895072666666664, "rental_uris": {"ios": "https://dc.lft.to/lastmile_qr_scan", "android": "https://dc.lft.to/lastmile_qr_scan"}, "is_reserved": 0, "lon": -76.934782, "fusion_lat": 0.0, "name": "323c01296e91ae3ecea637678cfd4e9a"}, {"type": "electric_scooter", "fusion_lon": 0.0, "bike_id": "724d4b866aff9390a6c6e93013a4b2d1", "is_disabled": 0, "lat": 38.902332666666666, "rental_uris": {"ios": "https://dc.lft.to/lastmile_qr_scan", "android": "https://dc.lft.to/lastmile_qr_scan"}, "is_reserved": 0, "lon": -77.01765583333334, "fusion_lat": 0.0, "name": "724d4b866aff9390a6c6e93013a4b2d1"}, {"type": "electric_scooter", "fusion_lon": 0.0, "bike_id": "d38391c194a6fc545a61046830c0a0ee", "is_disabled": 0, "lat": 38.92742066666667, "rental_uris": {"ios": "https://dc.lft.to/lastmile_qr_scan", "android": "https://dc.lft.to/lastmile_qr_scan"}, "is_reserved": 0, "lon": -77.03436366666666, "fusion_lat": 0.0, "name": "d38391c194a6fc545a61046830c0a0ee"}, {"type": "electric_scooter", "fusion_lon": 0.0, "bike_id": "cb361e06e128d44474426e5db4b6a775", "is_disabled": 0, "lat": 38.90740733333333, "rental_uris": {"ios": "https://dc.lft.to/lastmile_qr_scan", "android": "https://dc.lft.to/lastmile_qr_scan"}, "is_reserved": 0, "lon": -77.029508, "fusion_lat": 0.0, "name": "cb361e06e128d44474426e5db4b6a775"}, {"type": "electric_scooter", "fusion_lon": 0.0, "bike_id": "236569b236ad76ce8e294c63eb11e99d", "is_disabled": 0, "lat": 38.900114, "rental_uris": {"ios": "https://dc.lft.to/lastmile_qr_scan", "android": "https://dc.lft.to/lastmile_qr_scan"}, "is_reserved": 0, "lon": -76.988984, "fusion_lat": 0.0, "name": "236569b236ad76ce8e294c63eb11e99d"}, {"type": "electric_scooter", "fusion_lon": 0.0, "bike_id": "bb47f0747ecdec8e864f63fac10eda7a", "is_disabled": 0, "lat": 38.921241333333334, "rental_uris": {"ios": "https://dc.lft.to/lastmile_qr_scan", "android": "https://dc.lft.to/lastmile_qr_scan"}, "is_reserved": 0, "lon": -77.04389083333334, "fusion_lat": 0.0, "name": "bb47f0747ecdec8e864f63fac10eda7a"}, {"type": "electric_bike", "fusion_lon": 0.0, "bike_id": "b581abb9e86485e06393e4e6818becbd", "is_disabled": 0, "lat": 38.9146815, "rental_uris": {"ios": "https://dc.lft.to/lastmile_qr_scan", "android": "https://dc.lft.to/lastmile_qr_scan"}, "is_reserved": 0, "lon": -76.98579133333334, "fusion_lat": 0.0, "name": "b581abb9e86485e06393e4e6818becbd"}, {"type": "electric_scooter", "fusion_lon": 0.0, "bike_id": "6ae4a2552c95a4c7eeb914efd87ceda8", "is_disabled": 0, "lat": 38.916392, "rental_uris": {"ios": "https://dc.lft.to/lastmile_qr_scan", "android": "https://dc.lft.to/lastmile_qr_scan"}, "is_reserved": 0, "lon": -77.022743, "fusion_lat": 0.0, "name": "6ae4a2552c95a4c7eeb914efd87ceda8"}, {"type": "electric_scooter", "fusion_lon": 0.0, "bike_id": "a3c952fa9097a46ec2e5b770bac0a9d0", "is_disabled": 0, "lat": 38.892591333333336, "rental_uris": {"ios": "https://dc.lft.to/lastmile_qr_scan", "android": "https://dc.lft.to/lastmile_qr_scan"}, "is_reserved": 0, "lon": -77.04509066666667, "fusion_lat": 0.0, "name": "a3c952fa9097a46ec2e5b770bac0a9d0"}, {"type": "electric_bike", "fusion_lon": 0.0, "bike_id": "c175a28751c6cc4799c00585e38e9f20", "is_disabled": 0, "lat": 38.881214666666665, "rental_uris": {"ios": "https://dc.lft.to/lastmile_qr_scan", "android": "https://dc.lft.to/lastmile_qr_scan"}, "is_reserved": 0, "lon": -76.9979935, "fusion_lat": 0.0, "name": "c175a28751c6cc4799c00585e38e9f20"}, {"type": "electric_scooter", "fusion_lon": 0.0, "bike_id": "824eee488306d9b01f5fcbac26c6939f", "is_disabled": 0, "lat": 38.937024, "rental_uris": {"ios": "https://dc.lft.to/lastmile_qr_scan", "android": "https://dc.lft.to/lastmile_qr_scan"}, "is_reserved": 0, "lon": -77.05603083333334, "fusion_lat": 0.0, "name": "824eee488306d9b01f5fcbac26c6939f"}, {"type": "electric_scooter", "fusion_lon": 0.0, "bike_id": "27299f99710ac95310c62d8853499970", "is_disabled": 0, "lat": 38.887646333333336, "rental_uris": {"ios": "https://dc.lft.to/lastmile_qr_scan", "android": "https://dc.lft.to/lastmile_qr_scan"}, "is_reserved": 0, "lon": -77.03320366666667, "fusion_lat": 0.0, "name": "27299f99710ac95310c62d8853499970"}, {"type": "electric_scooter", "fusion_lon": 0.0, "bike_id": "8f31581aa8cbe831e3849803b5a9dc16", "is_disabled": 0, "lat": 38.90022466666667, "rental_uris": {"ios": "https://dc.lft.to/lastmile_qr_scan", "android": "https://dc.lft.to/lastmile_qr_scan"}, "is_reserved": 0, "lon": -76.99866266666666, "fusion_lat": 0.0, "name": "8f31581aa8cbe831e3849803b5a9dc16"}, {"type": "electric_scooter", "fusion_lon": 0.0, "bike_id": "841a1142dc6fc219d334c5af1eae647e", "is_disabled": 0, "lat": 38.90557483333333, "rental_uris": {"ios": "https://dc.lft.to/lastmile_qr_scan", "android": "https://dc.lft.to/lastmile_qr_scan"}, "is_reserved": 0, "lon": -77.02210816666667, "fusion_lat": 0.0, "name": "841a1142dc6fc219d334c5af1eae647e"}, {"type": "electric_scooter", "fusion_lon": 0.0, "bike_id": "36a67b5797192e47aa52637979b63c96", "is_disabled": 0, "lat": 38.90986183333333, "rental_uris": {"ios": "https://dc.lft.to/lastmile_qr_scan", "android": "https://dc.lft.to/lastmile_qr_scan"}, "is_reserved": 0, "lon": -77.04014633333334, "fusion_lat": 0.0, "name": "36a67b5797192e47aa52637979b63c96"}, {"type": "electric_bike", "fusion_lon": 0.0, "bike_id": "a808d405c434e74d0a3dc4c48714e250", "is_disabled": 0, "lat": 38.95646383333333, "rental_uris": {"ios": "https://dc.lft.to/lastmile_qr_scan", "android": "https://dc.lft.to/lastmile_qr_scan"}, "is_reserved": 0, "lon": -76.997505, "fusion_lat": 0.0, "name": "a808d405c434e74d0a3dc4c48714e250"}, {"type": "electric_scooter", "fusion_lon": 0.0, "bike_id": "9b4cb9625fc4d7b3e5dde5f1cf10315f", "is_disabled": 0, "lat": 38.93152333333333, "rental_uris": {"ios": "https://dc.lft.to/lastmile_qr_scan", "android": "https://dc.lft.to/lastmile_qr_scan"}, "is_reserved": 0, "lon": -77.056029, "fusion_lat": 0.0, "name": "9b4cb9625fc4d7b3e5dde5f1cf10315f"}, {"type": "electric_scooter", "fusion_lon": 0.0, "bike_id": "c3f2f285608b05be8866ae3dd1b02666", "is_disabled": 0, "lat": 38.957627333333335, "rental_uris": {"ios": "https://dc.lft.to/lastmile_qr_scan", "android": "https://dc.lft.to/lastmile_qr_scan"}, "is_reserved": 0, "lon": -77.01497733333333, "fusion_lat": 0.0, "name": "c3f2f285608b05be8866ae3dd1b02666"}, {"type": "electric_scooter", "fusion_lon": 0.0, "bike_id": "cd8455c5cc24beff8238ddd5e059cfbf", "is_disabled": 0, "lat": 38.88658983333333, "rental_uris": {"ios": "https://dc.lft.to/lastmile_qr_scan", "android": "https://dc.lft.to/lastmile_qr_scan"}, "is_reserved": 0, "lon": -77.02847866666667, "fusion_lat": 0.0, "name": "cd8455c5cc24beff8238ddd5e059cfbf"}, {"type": "electric_scooter", "fusion_lon": 0.0, "bike_id": "2ea81b2e281cd308b7fd1d0fba604656", "is_disabled": 0, "lat": 38.897625166666664, "rental_uris": {"ios": "https://dc.lft.to/lastmile_qr_scan", "android": "https://dc.lft.to/lastmile_qr_scan"}, "is_reserved": 0, "lon": -77.0434105, "fusion_lat": 0.0, "name": "2ea81b2e281cd308b7fd1d0fba604656"}, {"type": "electric_bike", "fusion_lon": 0.0, "bike_id": "63004e481e110ecb0bf2c153e02531af", "is_disabled": 0, "lat": 38.933927, "rental_uris": {"ios": "https://dc.lft.to/lastmile_qr_scan", "android": "https://dc.lft.to/lastmile_qr_scan"}, "is_reserved": 0, "lon": -77.0221485, "fusion_lat": 0.0, "name": "63004e481e110ecb0bf2c153e02531af"}, {"type": "electric_bike", "fusion_lon": 0.0, "bike_id": "d92661ec6a7bc44a5502f23ffd09c45b", "is_disabled": 0, "lat": 38.84285533333333, "rental_uris": {"ios": "https://dc.lft.to/lastmile_qr_scan", "android": "https://dc.lft.to/lastmile_qr_scan"}, "is_reserved": 0, "lon": -77.07526683333333, "fusion_lat": 0.0, "name": "d92661ec6a7bc44a5502f23ffd09c45b"}, {"type": "electric_bike", "fusion_lon": 0.0, "bike_id": "1e67f835a5e3dce0b5cabf7e2d0312bc", "is_disabled": 0, "lat": 38.94266966666667, "rental_uris": {"ios": "https://dc.lft.to/lastmile_qr_scan", "android": "https://dc.lft.to/lastmile_qr_scan"}, "is_reserved": 0, "lon": -77.02846316666667, "fusion_lat": 0.0, "name": "1e67f835a5e3dce0b5cabf7e2d0312bc"}, {"type": "electric_scooter", "fusion_lon": 0.0, "bike_id": "b413611510032b8f3d38796989370c0c", "is_disabled": 0, "lat": 38.923912, "rental_uris": {"ios": "https://dc.lft.to/lastmile_qr_scan", "android": "https://dc.lft.to/lastmile_qr_scan"}, "is_reserved": 0, "lon": -77.036651, "fusion_lat": 0.0, "name": "b413611510032b8f3d38796989370c0c"}, {"type": "electric_bike", "fusion_lon": 0.0, "bike_id": "d3e10f9d17a8c588cf6562b1836ac959", "is_disabled": 0, "lat": 38.842846, "rental_uris": {"ios": "https://dc.lft.to/lastmile_qr_scan", "android": "https://dc.lft.to/lastmile_qr_scan"}, "is_reserved": 0, "lon": -76.988195, "fusion_lat": 0.0, "name": "d3e10f9d17a8c588cf6562b1836ac959"}, {"type": "electric_scooter", "fusion_lon": 0.0, "bike_id": "01f63877b7481f574de881b3786dcb62", "is_disabled": 0, "lat": 38.883373666666664, "rental_uris": {"ios": "https://dc.lft.to/lastmile_qr_scan", "android": "https://dc.lft.to/lastmile_qr_scan"}, "is_reserved": 0, "lon": -77.00643616666666, "fusion_lat": 0.0, "name": "01f63877b7481f574de881b3786dcb62"}, {"type": "electric_scooter", "fusion_lon": 0.0, "bike_id": "3bab5d161efc12a96e4f27d1adb3333c", "is_disabled": 0, "lat": 38.90129833333334, "rental_uris": {"ios": "https://dc.lft.to/lastmile_qr_scan", "android": "https://dc.lft.to/lastmile_qr_scan"}, "is_reserved": 0, "lon": -76.94568866666667, "fusion_lat": 0.0, "name": "3bab5d161efc12a96e4f27d1adb3333c"}, {"type": "electric_scooter", "fusion_lon": 0.0, "bike_id": "94736eda3fff5a85bd7e634b0774b2cd", "is_disabled": 0, "lat": 38.902724666666664, "rental_uris": {"ios": "https://dc.lft.to/lastmile_qr_scan", "android": "https://dc.lft.to/lastmile_qr_scan"}, "is_reserved": 0, "lon": -77.038478, "fusion_lat": 0.0, "name": "94736eda3fff5a85bd7e634b0774b2cd"}, {"type": "electric_scooter", "fusion_lon": 0.0, "bike_id": "c72f189dac604dd46fd03a2ee69e44bf", "is_disabled": 0, "lat": 38.90799666666667, "rental_uris": {"ios": "https://dc.lft.to/lastmile_qr_scan", "android": "https://dc.lft.to/lastmile_qr_scan"}, "is_reserved": 0, "lon": -77.04229666666667, "fusion_lat": 0.0, "name": "c72f189dac604dd46fd03a2ee69e44bf"}, {"type": "electric_scooter", "fusion_lon": 0.0, "bike_id": "612baf3859aea620fb399ec3dbba49ac", "is_disabled": 0, "lat": 38.87575866666667, "rental_uris": {"ios": "https://dc.lft.to/lastmile_qr_scan", "android": "https://dc.lft.to/lastmile_qr_scan"}, "is_reserved": 0, "lon": -77.00596066666667, "fusion_lat": 0.0, "name": "612baf3859aea620fb399ec3dbba49ac"}, {"type": "electric_scooter", "fusion_lon": 0.0, "bike_id": "cc909bd5824ebf08b24892471ac97b5a", "is_disabled": 0, "lat": 38.88766, "rental_uris": {"ios": "https://dc.lft.to/lastmile_qr_scan", "android": "https://dc.lft.to/lastmile_qr_scan"}, "is_reserved": 0, "lon": -77.0284355, "fusion_lat": 0.0, "name": "cc909bd5824ebf08b24892471ac97b5a"}, {"type": "electric_scooter", "fusion_lon": 0.0, "bike_id": "27d9537a41694a5b28205d911efcc19f", "is_disabled": 0, "lat": 38.93683133333333, "rental_uris": {"ios": "https://dc.lft.to/lastmile_qr_scan", "android": "https://dc.lft.to/lastmile_qr_scan"}, "is_reserved": 0, "lon": -77.03632266666666, "fusion_lat": 0.0, "name": "27d9537a41694a5b28205d911efcc19f"}, {"type": "electric_scooter", "fusion_lon": 0.0, "bike_id": "2dd571eb7dd2d4055eac0af6525fba1d", "is_disabled": 0, "lat": 38.90974933333333, "rental_uris": {"ios": "https://dc.lft.to/lastmile_qr_scan", "android": "https://dc.lft.to/lastmile_qr_scan"}, "is_reserved": 0, "lon": -77.03876533333333, "fusion_lat": 0.0, "name": "2dd571eb7dd2d4055eac0af6525fba1d"}, {"type": "electric_scooter", "fusion_lon": 0.0, "bike_id": "9c24fc4f7cc2b5eaf8de9b031bf41e98", "is_disabled": 0, "lat": 38.9419435, "rental_uris": {"ios": "https://dc.lft.to/lastmile_qr_scan", "android": "https://dc.lft.to/lastmile_qr_scan"}, "is_reserved": 0, "lon": -77.0259315, "fusion_lat": 0.0, "name": "9c24fc4f7cc2b5eaf8de9b031bf41e98"}, {"type": "electric_scooter", "fusion_lon": 0.0, "bike_id": "d6c24ed54a212917e78fb157f806483a", "is_disabled": 0, "lat": 38.900694, "rental_uris": {"ios": "https://dc.lft.to/lastmile_qr_scan", "android": "https://dc.lft.to/lastmile_qr_scan"}, "is_reserved": 0, "lon": -77.04873616666667, "fusion_lat": 0.0, "name": "d6c24ed54a212917e78fb157f806483a"}, {"type": "electric_scooter", "fusion_lon": 0.0, "bike_id": "9f062cc737a406982002ca6019e42ad3", "is_disabled": 0, "lat": 38.894937166666665, "rental_uris": {"ios": "https://dc.lft.to/lastmile_qr_scan", "android": "https://dc.lft.to/lastmile_qr_scan"}, "is_reserved": 0, "lon": -77.00945466666667, "fusion_lat": 0.0, "name": "9f062cc737a406982002ca6019e42ad3"}, {"type": "electric_scooter", "fusion_lon": 0.0, "bike_id": "9e63b7166e58f5f98803fe453c4af1ef", "is_disabled": 0, "lat": 38.927712166666666, "rental_uris": {"ios": "https://dc.lft.to/lastmile_qr_scan", "android": "https://dc.lft.to/lastmile_qr_scan"}, "is_reserved": 0, "lon": -77.02824533333333, "fusion_lat": 0.0, "name": "9e63b7166e58f5f98803fe453c4af1ef"}, {"type": "electric_scooter", "fusion_lon": 0.0, "bike_id": "b2030e58186aa10aff296297357df5d2", "is_disabled": 0, "lat": 38.9259625, "rental_uris": {"ios": "https://dc.lft.to/lastmile_qr_scan", "android": "https://dc.lft.to/lastmile_qr_scan"}, "is_reserved": 0, "lon": -77.02585316666666, "fusion_lat": 0.0, "name": "b2030e58186aa10aff296297357df5d2"}, {"type": "electric_scooter", "fusion_lon": 0.0, "bike_id": "5c57f9bd35f40458b68b4cb98aae24aa", "is_disabled": 0, "lat": 38.90981566666667, "rental_uris": {"ios": "https://dc.lft.to/lastmile_qr_scan", "android": "https://dc.lft.to/lastmile_qr_scan"}, "is_reserved": 0, "lon": -77.03447233333333, "fusion_lat": 0.0, "name": "5c57f9bd35f40458b68b4cb98aae24aa"}, {"type": "electric_scooter", "fusion_lon": 0.0, "bike_id": "8eb234eb5c40c891e96cd55b7f0cde26", "is_disabled": 0, "lat": 38.90406816666667, "rental_uris": {"ios": "https://dc.lft.to/lastmile_qr_scan", "android": "https://dc.lft.to/lastmile_qr_scan"}, "is_reserved": 0, "lon": -76.97332683333333, "fusion_lat": 0.0, "name": "8eb234eb5c40c891e96cd55b7f0cde26"}, {"type": "electric_scooter", "fusion_lon": 0.0, "bike_id": "7621148fd58b32b3b21d75ea80178b42", "is_disabled": 0, "lat": 38.92999016666667, "rental_uris": {"ios": "https://dc.lft.to/lastmile_qr_scan", "android": "https://dc.lft.to/lastmile_qr_scan"}, "is_reserved": 0, "lon": -77.02355733333333, "fusion_lat": 0.0, "name": "7621148fd58b32b3b21d75ea80178b42"}, {"type": "electric_bike", "fusion_lon": 0.0, "bike_id": "08bbe7090ef8a1ed8b092fdd69940824", "is_disabled": 0, "lat": 38.946351666666665, "rental_uris": {"ios": "https://dc.lft.to/lastmile_qr_scan", "android": "https://dc.lft.to/lastmile_qr_scan"}, "is_reserved": 0, "lon": -76.99314933333333, "fusion_lat": 0.0, "name": "08bbe7090ef8a1ed8b092fdd69940824"}, {"type": "electric_scooter", "fusion_lon": 0.0, "bike_id": "8dc849695f25dd4ef7aee8a21aed9f6f", "is_disabled": 0, "lat": 38.92509883333334, "rental_uris": {"ios": "https://dc.lft.to/lastmile_qr_scan", "android": "https://dc.lft.to/lastmile_qr_scan"}, "is_reserved": 0, "lon": -77.024079, "fusion_lat": 0.0, "name": "8dc849695f25dd4ef7aee8a21aed9f6f"}, {"type": "electric_scooter", "fusion_lon": 0.0, "bike_id": "fa158ede00c8ddad9a5d7791cc21ca46", "is_disabled": 0, "lat": 38.920681, "rental_uris": {"ios": "https://dc.lft.to/lastmile_qr_scan", "android": "https://dc.lft.to/lastmile_qr_scan"}, "is_reserved": 0, "lon": -77.02306433333334, "fusion_lat": 0.0, "name": "fa158ede00c8ddad9a5d7791cc21ca46"}, {"type": "electric_scooter", "fusion_lon": 0.0, "bike_id": "e56060215705cb64c41e281fc959f33d", "is_disabled": 0, "lat": 38.87469083333333, "rental_uris": {"ios": "https://dc.lft.to/lastmile_qr_scan", "android": "https://dc.lft.to/lastmile_qr_scan"}, "is_reserved": 0, "lon": -77.005559, "fusion_lat": 0.0, "name": "e56060215705cb64c41e281fc959f33d"}, {"type": "electric_scooter", "fusion_lon": 0.0, "bike_id": "f4b2f3d9d08cfd40693eca2a132b55bd", "is_disabled": 0, "lat": 38.898657, "rental_uris": {"ios": "https://dc.lft.to/lastmile_qr_scan", "android": "https://dc.lft.to/lastmile_qr_scan"}, "is_reserved": 0, "lon": -77.02594316666666, "fusion_lat": 0.0, "name": "f4b2f3d9d08cfd40693eca2a132b55bd"}, {"type": "electric_scooter", "fusion_lon": 0.0, "bike_id": "b65607c2582aceea267759af85838f51", "is_disabled": 0, "lat": 38.926990333333336, "rental_uris": {"ios": "https://dc.lft.to/lastmile_qr_scan", "android": "https://dc.lft.to/lastmile_qr_scan"}, "is_reserved": 0, "lon": -77.02088933333333, "fusion_lat": 0.0, "name": "b65607c2582aceea267759af85838f51"}, {"type": "electric_bike", "fusion_lon": 0.0, "bike_id": "f74d385b88092de09f2c6401b6a24116", "is_disabled": 0, "lat": 38.919987166666665, "rental_uris": {"ios": "https://dc.lft.to/lastmile_qr_scan", "android": "https://dc.lft.to/lastmile_qr_scan"}, "is_reserved": 0, "lon": -76.95823733333333, "fusion_lat": 0.0, "name": "f74d385b88092de09f2c6401b6a24116"}, {"type": "electric_scooter", "fusion_lon": 0.0, "bike_id": "0e7eddac7f9742819051e38cb3c6e924", "is_disabled": 0, "lat": 38.90733933333333, "rental_uris": {"ios": "https://dc.lft.to/lastmile_qr_scan", "android": "https://dc.lft.to/lastmile_qr_scan"}, "is_reserved": 0, "lon": -76.97990183333333, "fusion_lat": 0.0, "name": "0e7eddac7f9742819051e38cb3c6e924"}, {"type": "electric_scooter", "fusion_lon": 0.0, "bike_id": "0d90983fd9223738b18ae962eee5604b", "is_disabled": 0, "lat": 38.935050833333335, "rental_uris": {"ios": "https://dc.lft.to/lastmile_qr_scan", "android": "https://dc.lft.to/lastmile_qr_scan"}, "is_reserved": 0, "lon": -77.02424133333334, "fusion_lat": 0.0, "name": "0d90983fd9223738b18ae962eee5604b"}, {"type": "electric_scooter", "fusion_lon": 0.0, "bike_id": "5888fe7be37d1513c508bd48a42d9603", "is_disabled": 0, "lat": 38.9032445, "rental_uris": {"ios": "https://dc.lft.to/lastmile_qr_scan", "android": "https://dc.lft.to/lastmile_qr_scan"}, "is_reserved": 0, "lon": -77.0245265, "fusion_lat": 0.0, "name": "5888fe7be37d1513c508bd48a42d9603"}, {"type": "electric_scooter", "fusion_lon": 0.0, "bike_id": "60416dee2589352106a680982e72aab3", "is_disabled": 0, "lat": 38.92510016666667, "rental_uris": {"ios": "https://dc.lft.to/lastmile_qr_scan", "android": "https://dc.lft.to/lastmile_qr_scan"}, "is_reserved": 0, "lon": -77.02261033333333, "fusion_lat": 0.0, "name": "60416dee2589352106a680982e72aab3"}, {"type": "electric_scooter", "fusion_lon": 0.0, "bike_id": "d489a53e7dc7801e03e8be8413e375e1", "is_disabled": 0, "lat": 38.887233333333334, "rental_uris": {"ios": "https://dc.lft.to/lastmile_qr_scan", "android": "https://dc.lft.to/lastmile_qr_scan"}, "is_reserved": 0, "lon": -77.02213083333334, "fusion_lat": 0.0, "name": "d489a53e7dc7801e03e8be8413e375e1"}, {"type": "electric_scooter", "fusion_lon": 0.0, "bike_id": "6633e3926b68af7f9cbfafc9fac75f71", "is_disabled": 0, "lat": 38.908411, "rental_uris": {"ios": "https://dc.lft.to/lastmile_qr_scan", "android": "https://dc.lft.to/lastmile_qr_scan"}, "is_reserved": 0, "lon": -77.03847916666666, "fusion_lat": 0.0, "name": "6633e3926b68af7f9cbfafc9fac75f71"}, {"type": "electric_scooter", "fusion_lon": 0.0, "bike_id": "c7750a4e253587f224fc26ad18b4fb08", "is_disabled": 0, "lat": 38.90657183333333, "rental_uris": {"ios": "https://dc.lft.to/lastmile_qr_scan", "android": "https://dc.lft.to/lastmile_qr_scan"}, "is_reserved": 0, "lon": -76.98374516666667, "fusion_lat": 0.0, "name": "c7750a4e253587f224fc26ad18b4fb08"}, {"type": "electric_scooter", "fusion_lon": 0.0, "bike_id": "c44c6c3376852b1524da32f67615bfaf", "is_disabled": 0, "lat": 38.928718833333335, "rental_uris": {"ios": "https://dc.lft.to/lastmile_qr_scan", "android": "https://dc.lft.to/lastmile_qr_scan"}, "is_reserved": 0, "lon": -77.03111133333333, "fusion_lat": 0.0, "name": "c44c6c3376852b1524da32f67615bfaf"}, {"type": "electric_scooter", "fusion_lon": 0.0, "bike_id": "1c9e4b18f472cefec539b610aac04619", "is_disabled": 0, "lat": 38.89599666666667, "rental_uris": {"ios": "https://dc.lft.to/lastmile_qr_scan", "android": "https://dc.lft.to/lastmile_qr_scan"}, "is_reserved": 0, "lon": -77.04762866666667, "fusion_lat": 0.0, "name": "1c9e4b18f472cefec539b610aac04619"}, {"type": "electric_scooter", "fusion_lon": 0.0, "bike_id": "6b5724596fe3da8d51b467563d5d3402", "is_disabled": 0, "lat": 38.891785666666664, "rental_uris": {"ios": "https://dc.lft.to/lastmile_qr_scan", "android": "https://dc.lft.to/lastmile_qr_scan"}, "is_reserved": 0, "lon": -76.92663216666666, "fusion_lat": 0.0, "name": "6b5724596fe3da8d51b467563d5d3402"}, {"type": "electric_scooter", "fusion_lon": 0.0, "bike_id": "99fce93e342488e76c967175e76095e3", "is_disabled": 0, "lat": 38.8922365, "rental_uris": {"ios": "https://dc.lft.to/lastmile_qr_scan", "android": "https://dc.lft.to/lastmile_qr_scan"}, "is_reserved": 0, "lon": -77.03338533333333, "fusion_lat": 0.0, "name": "99fce93e342488e76c967175e76095e3"}, {"type": "electric_scooter", "fusion_lon": 0.0, "bike_id": "6f025d69a7495ed7b64d0700d3646fe2", "is_disabled": 0, "lat": 38.91200333333333, "rental_uris": {"ios": "https://dc.lft.to/lastmile_qr_scan", "android": "https://dc.lft.to/lastmile_qr_scan"}, "is_reserved": 0, "lon": -76.98775066666667, "fusion_lat": 0.0, "name": "6f025d69a7495ed7b64d0700d3646fe2"}, {"type": "electric_bike", "fusion_lon": 0.0, "bike_id": "b9db1884ba52eeb7ff61ba538cd12ffb", "is_disabled": 0, "lat": 38.8198855, "rental_uris": {"ios": "https://dc.lft.to/lastmile_qr_scan", "android": "https://dc.lft.to/lastmile_qr_scan"}, "is_reserved": 0, "lon": -76.9981815, "fusion_lat": 0.0, "name": "b9db1884ba52eeb7ff61ba538cd12ffb"}, {"type": "electric_scooter", "fusion_lon": 0.0, "bike_id": "729c72cf88e0a601963fab282b4e1a66", "is_disabled": 0, "lat": 38.87178433333333, "rental_uris": {"ios": "https://dc.lft.to/lastmile_qr_scan", "android": "https://dc.lft.to/lastmile_qr_scan"}, "is_reserved": 0, "lon": -77.00581466666667, "fusion_lat": 0.0, "name": "729c72cf88e0a601963fab282b4e1a66"}, {"type": "electric_scooter", "fusion_lon": 0.0, "bike_id": "d8970a2a8240b614a6cfabee9eb3017b", "is_disabled": 0, "lat": 38.92446566666667, "rental_uris": {"ios": "https://dc.lft.to/lastmile_qr_scan", "android": "https://dc.lft.to/lastmile_qr_scan"}, "is_reserved": 0, "lon": -76.98988033333333, "fusion_lat": 0.0, "name": "d8970a2a8240b614a6cfabee9eb3017b"}, {"type": "electric_scooter", "fusion_lon": 0.0, "bike_id": "fd0d6eb329e79954270258256a81c9d6", "is_disabled": 0, "lat": 38.902289, "rental_uris": {"ios": "https://dc.lft.to/lastmile_qr_scan", "android": "https://dc.lft.to/lastmile_qr_scan"}, "is_reserved": 0, "lon": -77.03776333333333, "fusion_lat": 0.0, "name": "fd0d6eb329e79954270258256a81c9d6"}, {"type": "electric_scooter", "fusion_lon": 0.0, "bike_id": "0d4bb54ec9361e3acc642272db36e236", "is_disabled": 0, "lat": 38.918538, "rental_uris": {"ios": "https://dc.lft.to/lastmile_qr_scan", "android": "https://dc.lft.to/lastmile_qr_scan"}, "is_reserved": 0, "lon": -77.08999533333333, "fusion_lat": 0.0, "name": "0d4bb54ec9361e3acc642272db36e236"}, {"type": "electric_scooter", "fusion_lon": 0.0, "bike_id": "e34a23ea2020da23d153458e961767b5", "is_disabled": 0, "lat": 38.917751333333335, "rental_uris": {"ios": "https://dc.lft.to/lastmile_qr_scan", "android": "https://dc.lft.to/lastmile_qr_scan"}, "is_reserved": 0, "lon": -77.0230925, "fusion_lat": 0.0, "name": "e34a23ea2020da23d153458e961767b5"}, {"type": "electric_scooter", "fusion_lon": 0.0, "bike_id": "d33e89255066c1188652abdfb101b46b", "is_disabled": 0, "lat": 38.892366, "rental_uris": {"ios": "https://dc.lft.to/lastmile_qr_scan", "android": "https://dc.lft.to/lastmile_qr_scan"}, "is_reserved": 0, "lon": -77.03211666666667, "fusion_lat": 0.0, "name": "d33e89255066c1188652abdfb101b46b"}, {"type": "electric_scooter", "fusion_lon": 0.0, "bike_id": "d9d1cc143b3554b7d05542502b54f281", "is_disabled": 0, "lat": 38.886662, "rental_uris": {"ios": "https://dc.lft.to/lastmile_qr_scan", "android": "https://dc.lft.to/lastmile_qr_scan"}, "is_reserved": 0, "lon": -77.02836183333334, "fusion_lat": 0.0, "name": "d9d1cc143b3554b7d05542502b54f281"}, {"type": "electric_scooter", "fusion_lon": 0.0, "bike_id": "6239a5ee0f66d7d07f2e55cd1f337491", "is_disabled": 0, "lat": 38.90397683333333, "rental_uris": {"ios": "https://dc.lft.to/lastmile_qr_scan", "android": "https://dc.lft.to/lastmile_qr_scan"}, "is_reserved": 0, "lon": -77.01775183333334, "fusion_lat": 0.0, "name": "6239a5ee0f66d7d07f2e55cd1f337491"}, {"type": "electric_scooter", "fusion_lon": 0.0, "bike_id": "5564ca6e97cf5f15660929f1c1dad773", "is_disabled": 0, "lat": 38.926540333333335, "rental_uris": {"ios": "https://dc.lft.to/lastmile_qr_scan", "android": "https://dc.lft.to/lastmile_qr_scan"}, "is_reserved": 0, "lon": -77.02432266666666, "fusion_lat": 0.0, "name": "5564ca6e97cf5f15660929f1c1dad773"}, {"type": "electric_scooter", "fusion_lon": 0.0, "bike_id": "15d5f5a428c5c8c97b88a6a751b8eb9d", "is_disabled": 0, "lat": 38.914206166666666, "rental_uris": {"ios": "https://dc.lft.to/lastmile_qr_scan", "android": "https://dc.lft.to/lastmile_qr_scan"}, "is_reserved": 0, "lon": -77.0107575, "fusion_lat": 0.0, "name": "15d5f5a428c5c8c97b88a6a751b8eb9d"}, {"type": "electric_scooter", "fusion_lon": 0.0, "bike_id": "95e241a8a6d40a89c96326d2e3f9a481", "is_disabled": 0, "lat": 38.89231183333333, "rental_uris": {"ios": "https://dc.lft.to/lastmile_qr_scan", "android": "https://dc.lft.to/lastmile_qr_scan"}, "is_reserved": 0, "lon": -77.04660966666667, "fusion_lat": 0.0, "name": "95e241a8a6d40a89c96326d2e3f9a481"}, {"type": "electric_scooter", "fusion_lon": 0.0, "bike_id": "1791b8cd23b61b9e38a008a7564c77d0", "is_disabled": 0, "lat": 38.904747, "rental_uris": {"ios": "https://dc.lft.to/lastmile_qr_scan", "android": "https://dc.lft.to/lastmile_qr_scan"}, "is_reserved": 0, "lon": -77.02739216666667, "fusion_lat": 0.0, "name": "1791b8cd23b61b9e38a008a7564c77d0"}, {"type": "electric_scooter", "fusion_lon": 0.0, "bike_id": "5477dc7c916c620602a31b71b219c6a1", "is_disabled": 0, "lat": 38.919584, "rental_uris": {"ios": "https://dc.lft.to/lastmile_qr_scan", "android": "https://dc.lft.to/lastmile_qr_scan"}, "is_reserved": 0, "lon": -77.02598616666667, "fusion_lat": 0.0, "name": "5477dc7c916c620602a31b71b219c6a1"}, {"type": "electric_bike", "fusion_lon": 0.0, "bike_id": "0327b37fe884a0bb7e1f3ad9a845a44b", "is_disabled": 0, "lat": 38.835909666666666, "rental_uris": {"ios": "https://dc.lft.to/lastmile_qr_scan", "android": "https://dc.lft.to/lastmile_qr_scan"}, "is_reserved": 0, "lon": -77.00143316666667, "fusion_lat": 0.0, "name": "0327b37fe884a0bb7e1f3ad9a845a44b"}, {"type": "electric_scooter", "fusion_lon": 0.0, "bike_id": "184c2e3816f8f3ce33a0647c50e200f9", "is_disabled": 0, "lat": 38.9089565, "rental_uris": {"ios": "https://dc.lft.to/lastmile_qr_scan", "android": "https://dc.lft.to/lastmile_qr_scan"}, "is_reserved": 0, "lon": -77.04502866666667, "fusion_lat": 0.0, "name": "184c2e3816f8f3ce33a0647c50e200f9"}, {"type": "electric_scooter", "fusion_lon": 0.0, "bike_id": "9850b4622b13c81e6300c8400ec18ffd", "is_disabled": 0, "lat": 38.89230516666667, "rental_uris": {"ios": "https://dc.lft.to/lastmile_qr_scan", "android": "https://dc.lft.to/lastmile_qr_scan"}, "is_reserved": 0, "lon": -77.02829833333334, "fusion_lat": 0.0, "name": "9850b4622b13c81e6300c8400ec18ffd"}, {"type": "electric_scooter", "fusion_lon": 0.0, "bike_id": "0d3f68f2062a89f7d09a77740c29de0f", "is_disabled": 0, "lat": 38.927673666666664, "rental_uris": {"ios": "https://dc.lft.to/lastmile_qr_scan", "android": "https://dc.lft.to/lastmile_qr_scan"}, "is_reserved": 0, "lon": -77.0324805, "fusion_lat": 0.0, "name": "0d3f68f2062a89f7d09a77740c29de0f"}, {"type": "electric_scooter", "fusion_lon": 0.0, "bike_id": "d51cacd6733daad065eda07bfabd684f", "is_disabled": 0, "lat": 38.878525, "rental_uris": {"ios": "https://dc.lft.to/lastmile_qr_scan", "android": "https://dc.lft.to/lastmile_qr_scan"}, "is_reserved": 0, "lon": -77.01967733333333, "fusion_lat": 0.0, "name": "d51cacd6733daad065eda07bfabd684f"}, {"type": "electric_scooter", "fusion_lon": 0.0, "bike_id": "cf5f74d5f7b3ccfa58fde980b09b349d", "is_disabled": 0, "lat": 38.913439833333335, "rental_uris": {"ios": "https://dc.lft.to/lastmile_qr_scan", "android": "https://dc.lft.to/lastmile_qr_scan"}, "is_reserved": 0, "lon": -77.06412666666667, "fusion_lat": 0.0, "name": "cf5f74d5f7b3ccfa58fde980b09b349d"}, {"type": "electric_bike", "fusion_lon": 0.0, "bike_id": "61473203eb81f35b6b5a12b81b8d37fd", "is_disabled": 0, "lat": 38.799927333333336, "rental_uris": {"ios": "https://dc.lft.to/lastmile_qr_scan", "android": "https://dc.lft.to/lastmile_qr_scan"}, "is_reserved": 0, "lon": -77.1297335, "fusion_lat": 0.0, "name": "61473203eb81f35b6b5a12b81b8d37fd"}, {"type": "electric_bike", "fusion_lon": 0.0, "bike_id": "71244d1d6a723b55b4bced1385316bc3", "is_disabled": 0, "lat": 38.8555115, "rental_uris": {"ios": "https://dc.lft.to/lastmile_qr_scan", "android": "https://dc.lft.to/lastmile_qr_scan"}, "is_reserved": 0, "lon": -76.97336083333333, "fusion_lat": 0.0, "name": "71244d1d6a723b55b4bced1385316bc3"}, {"type": "electric_scooter", "fusion_lon": 0.0, "bike_id": "d166ee1659c832dbff275d147d576de5", "is_disabled": 0, "lat": 38.917430833333334, "rental_uris": {"ios": "https://dc.lft.to/lastmile_qr_scan", "android": "https://dc.lft.to/lastmile_qr_scan"}, "is_reserved": 0, "lon": -77.02798383333334, "fusion_lat": 0.0, "name": "d166ee1659c832dbff275d147d576de5"}, {"type": "electric_scooter", "fusion_lon": 0.0, "bike_id": "1de02412ebf92bb53670ab50fb8cdf85", "is_disabled": 0, "lat": 38.929496, "rental_uris": {"ios": "https://dc.lft.to/lastmile_qr_scan", "android": "https://dc.lft.to/lastmile_qr_scan"}, "is_reserved": 0, "lon": -77.03775816666666, "fusion_lat": 0.0, "name": "1de02412ebf92bb53670ab50fb8cdf85"}, {"type": "electric_scooter", "fusion_lon": 0.0, "bike_id": "d9112494023f79bba1b4f30790abe2f1", "is_disabled": 0, "lat": 38.94271, "rental_uris": {"ios": "https://dc.lft.to/lastmile_qr_scan", "android": "https://dc.lft.to/lastmile_qr_scan"}, "is_reserved": 0, "lon": -77.0325595, "fusion_lat": 0.0, "name": "d9112494023f79bba1b4f30790abe2f1"}, {"type": "electric_scooter", "fusion_lon": 0.0, "bike_id": "99fe9d58d7402b85f6d06dd2e2c6d4f2", "is_disabled": 0, "lat": 38.9274245, "rental_uris": {"ios": "https://dc.lft.to/lastmile_qr_scan", "android": "https://dc.lft.to/lastmile_qr_scan"}, "is_reserved": 0, "lon": -77.052525, "fusion_lat": 0.0, "name": "99fe9d58d7402b85f6d06dd2e2c6d4f2"}, {"type": "electric_scooter", "fusion_lon": 0.0, "bike_id": "464188f1a2d8758384e7bddfaf95c182", "is_disabled": 0, "lat": 38.89236316666667, "rental_uris": {"ios": "https://dc.lft.to/lastmile_qr_scan", "android": "https://dc.lft.to/lastmile_qr_scan"}, "is_reserved": 0, "lon": -77.0416235, "fusion_lat": 0.0, "name": "464188f1a2d8758384e7bddfaf95c182"}, {"type": "electric_scooter", "fusion_lon": 0.0, "bike_id": "971721c0d2453fcd7005fec7ca650e3a", "is_disabled": 0, "lat": 38.953025833333335, "rental_uris": {"ios": "https://dc.lft.to/lastmile_qr_scan", "android": "https://dc.lft.to/lastmile_qr_scan"}, "is_reserved": 0, "lon": -77.06984066666666, "fusion_lat": 0.0, "name": "971721c0d2453fcd7005fec7ca650e3a"}, {"type": "electric_scooter", "fusion_lon": 0.0, "bike_id": "84ddfe1602e4f2945d16cb829ea202fe", "is_disabled": 0, "lat": 38.909819666666664, "rental_uris": {"ios": "https://dc.lft.to/lastmile_qr_scan", "android": "https://dc.lft.to/lastmile_qr_scan"}, "is_reserved": 0, "lon": -77.03442116666666, "fusion_lat": 0.0, "name": "84ddfe1602e4f2945d16cb829ea202fe"}, {"type": "electric_bike", "fusion_lon": 0.0, "bike_id": "c30e30a7e7a076d5b45504c091b3ea6a", "is_disabled": 0, "lat": 38.892517833333336, "rental_uris": {"ios": "https://dc.lft.to/lastmile_qr_scan", "android": "https://dc.lft.to/lastmile_qr_scan"}, "is_reserved": 0, "lon": -76.985449, "fusion_lat": 0.0, "name": "c30e30a7e7a076d5b45504c091b3ea6a"}, {"type": "electric_bike", "fusion_lon": 0.0, "bike_id": "a9aa5d54f980ba7c52cd5217aa645bac", "is_disabled": 0, "lat": 38.81912883333333, "rental_uris": {"ios": "https://dc.lft.to/lastmile_qr_scan", "android": "https://dc.lft.to/lastmile_qr_scan"}, "is_reserved": 0, "lon": -77.12653633333333, "fusion_lat": 0.0, "name": "a9aa5d54f980ba7c52cd5217aa645bac"}, {"type": "electric_scooter", "fusion_lon": 0.0, "bike_id": "5596a984f86387466ef655ce75c0d9c0", "is_disabled": 0, "lat": 38.9356345, "rental_uris": {"ios": "https://dc.lft.to/lastmile_qr_scan", "android": "https://dc.lft.to/lastmile_qr_scan"}, "is_reserved": 0, "lon": -77.06374166666667, "fusion_lat": 0.0, "name": "5596a984f86387466ef655ce75c0d9c0"}, {"type": "electric_scooter", "fusion_lon": 0.0, "bike_id": "24ff65bb4a4e9cd386218f682502c689", "is_disabled": 0, "lat": 38.8955425, "rental_uris": {"ios": "https://dc.lft.to/lastmile_qr_scan", "android": "https://dc.lft.to/lastmile_qr_scan"}, "is_reserved": 0, "lon": -76.94875333333333, "fusion_lat": 0.0, "name": "24ff65bb4a4e9cd386218f682502c689"}, {"type": "electric_scooter", "fusion_lon": 0.0, "bike_id": "542e40e3edf655a737d5842f96534394", "is_disabled": 0, "lat": 38.901850833333334, "rental_uris": {"ios": "https://dc.lft.to/lastmile_qr_scan", "android": "https://dc.lft.to/lastmile_qr_scan"}, "is_reserved": 0, "lon": -76.92830466666666, "fusion_lat": 0.0, "name": "542e40e3edf655a737d5842f96534394"}, {"type": "electric_scooter", "fusion_lon": 0.0, "bike_id": "0ad4dfac930178d9ead9ad9988590158", "is_disabled": 0, "lat": 38.914128, "rental_uris": {"ios": "https://dc.lft.to/lastmile_qr_scan", "android": "https://dc.lft.to/lastmile_qr_scan"}, "is_reserved": 0, "lon": -77.04152933333333, "fusion_lat": 0.0, "name": "0ad4dfac930178d9ead9ad9988590158"}, {"type": "electric_scooter", "fusion_lon": 0.0, "bike_id": "fd6efe005e3f74829a0aff83ceb5512c", "is_disabled": 0, "lat": 38.903851333333336, "rental_uris": {"ios": "https://dc.lft.to/lastmile_qr_scan", "android": "https://dc.lft.to/lastmile_qr_scan"}, "is_reserved": 0, "lon": -77.0401215, "fusion_lat": 0.0, "name": "fd6efe005e3f74829a0aff83ceb5512c"}, {"type": "electric_scooter", "fusion_lon": 0.0, "bike_id": "c3eafa609e895bce4b5f7fd421747a81", "is_disabled": 0, "lat": 38.89990566666667, "rental_uris": {"ios": "https://dc.lft.to/lastmile_qr_scan", "android": "https://dc.lft.to/lastmile_qr_scan"}, "is_reserved": 0, "lon": -77.02009183333334, "fusion_lat": 0.0, "name": "c3eafa609e895bce4b5f7fd421747a81"}, {"type": "electric_bike", "fusion_lon": 0.0, "bike_id": "0d5a837f11a267b6d2fce870e8f0fbc1", "is_disabled": 0, "lat": 38.853033333333336, "rental_uris": {"ios": "https://dc.lft.to/lastmile_qr_scan", "android": "https://dc.lft.to/lastmile_qr_scan"}, "is_reserved": 0, "lon": -77.04604066666667, "fusion_lat": 0.0, "name": "0d5a837f11a267b6d2fce870e8f0fbc1"}, {"type": "electric_scooter", "fusion_lon": 0.0, "bike_id": "30f63c97f25e02192cbe5809942b7018", "is_disabled": 0, "lat": 38.925770666666665, "rental_uris": {"ios": "https://dc.lft.to/lastmile_qr_scan", "android": "https://dc.lft.to/lastmile_qr_scan"}, "is_reserved": 0, "lon": -77.02845866666667, "fusion_lat": 0.0, "name": "30f63c97f25e02192cbe5809942b7018"}, {"type": "electric_scooter", "fusion_lon": 0.0, "bike_id": "8aae5cac989970418d6c44a473a0ae35", "is_disabled": 0, "lat": 38.88539566666667, "rental_uris": {"ios": "https://dc.lft.to/lastmile_qr_scan", "android": "https://dc.lft.to/lastmile_qr_scan"}, "is_reserved": 0, "lon": -76.9789095, "fusion_lat": 0.0, "name": "8aae5cac989970418d6c44a473a0ae35"}, {"type": "electric_scooter", "fusion_lon": 0.0, "bike_id": "3eea2b42a9c08f4a723e62cdb15b50e7", "is_disabled": 0, "lat": 38.8995695, "rental_uris": {"ios": "https://dc.lft.to/lastmile_qr_scan", "android": "https://dc.lft.to/lastmile_qr_scan"}, "is_reserved": 0, "lon": -77.01627716666667, "fusion_lat": 0.0, "name": "3eea2b42a9c08f4a723e62cdb15b50e7"}, {"type": "electric_bike", "fusion_lon": 0.0, "bike_id": "447e31aeeaa61c5911279fd6aec7f934", "is_disabled": 0, "lat": 38.86622883333333, "rental_uris": {"ios": "https://dc.lft.to/lastmile_qr_scan", "android": "https://dc.lft.to/lastmile_qr_scan"}, "is_reserved": 0, "lon": -76.94571766666667, "fusion_lat": 0.0, "name": "447e31aeeaa61c5911279fd6aec7f934"}, {"type": "electric_scooter", "fusion_lon": 0.0, "bike_id": "16cae282617c7245e3692b4b3dad50b9", "is_disabled": 0, "lat": 38.8947135, "rental_uris": {"ios": "https://dc.lft.to/lastmile_qr_scan", "android": "https://dc.lft.to/lastmile_qr_scan"}, "is_reserved": 0, "lon": -77.01862416666667, "fusion_lat": 0.0, "name": "16cae282617c7245e3692b4b3dad50b9"}, {"type": "electric_scooter", "fusion_lon": 0.0, "bike_id": "c8da8d450a0cdbfc98ab2e9d795f63eb", "is_disabled": 0, "lat": 38.90960466666667, "rental_uris": {"ios": "https://dc.lft.to/lastmile_qr_scan", "android": "https://dc.lft.to/lastmile_qr_scan"}, "is_reserved": 0, "lon": -77.04654483333333, "fusion_lat": 0.0, "name": "c8da8d450a0cdbfc98ab2e9d795f63eb"}, {"type": "electric_bike", "fusion_lon": 0.0, "bike_id": "eee6050c2edb62c622952bbeb8f28c18", "is_disabled": 0, "lat": 38.997816, "rental_uris": {"ios": "https://dc.lft.to/lastmile_qr_scan", "android": "https://dc.lft.to/lastmile_qr_scan"}, "is_reserved": 0, "lon": -77.00759666666667, "fusion_lat": 0.0, "name": "eee6050c2edb62c622952bbeb8f28c18"}, {"type": "electric_scooter", "fusion_lon": 0.0, "bike_id": "602eddce788df41cc7ed1bd2fcd058fc", "is_disabled": 0, "lat": 38.892916166666666, "rental_uris": {"ios": "https://dc.lft.to/lastmile_qr_scan", "android": "https://dc.lft.to/lastmile_qr_scan"}, "is_reserved": 0, "lon": -77.00200033333333, "fusion_lat": 0.0, "name": "602eddce788df41cc7ed1bd2fcd058fc"}, {"type": "electric_scooter", "fusion_lon": 0.0, "bike_id": "81056a9881217de336028469dd723014", "is_disabled": 0, "lat": 38.9296405, "rental_uris": {"ios": "https://dc.lft.to/lastmile_qr_scan", "android": "https://dc.lft.to/lastmile_qr_scan"}, "is_reserved": 0, "lon": -77.031056, "fusion_lat": 0.0, "name": "81056a9881217de336028469dd723014"}, {"type": "electric_scooter", "fusion_lon": 0.0, "bike_id": "faf4db32ca5471534a15b72cadd549fd", "is_disabled": 0, "lat": 38.942814166666665, "rental_uris": {"ios": "https://dc.lft.to/lastmile_qr_scan", "android": "https://dc.lft.to/lastmile_qr_scan"}, "is_reserved": 0, "lon": -77.02939566666667, "fusion_lat": 0.0, "name": "faf4db32ca5471534a15b72cadd549fd"}, {"type": "electric_scooter", "fusion_lon": 0.0, "bike_id": "51c3e1ae5180b7a4b1b10b0be891c99c", "is_disabled": 0, "lat": 38.8991415, "rental_uris": {"ios": "https://dc.lft.to/lastmile_qr_scan", "android": "https://dc.lft.to/lastmile_qr_scan"}, "is_reserved": 0, "lon": -76.93385833333333, "fusion_lat": 0.0, "name": "51c3e1ae5180b7a4b1b10b0be891c99c"}, {"type": "electric_scooter", "fusion_lon": 0.0, "bike_id": "c0fa90164de4687cfae0641efb601e47", "is_disabled": 0, "lat": 38.911240166666666, "rental_uris": {"ios": "https://dc.lft.to/lastmile_qr_scan", "android": "https://dc.lft.to/lastmile_qr_scan"}, "is_reserved": 0, "lon": -77.022003, "fusion_lat": 0.0, "name": "c0fa90164de4687cfae0641efb601e47"}, {"type": "electric_scooter", "fusion_lon": 0.0, "bike_id": "4288fc8bf4966fda623fb5a6860a759f", "is_disabled": 0, "lat": 38.91047983333333, "rental_uris": {"ios": "https://dc.lft.to/lastmile_qr_scan", "android": "https://dc.lft.to/lastmile_qr_scan"}, "is_reserved": 0, "lon": -77.07541683333334, "fusion_lat": 0.0, "name": "4288fc8bf4966fda623fb5a6860a759f"}, {"type": "electric_scooter", "fusion_lon": 0.0, "bike_id": "a9ea2718c0553ce5de59090e5b3d46fc", "is_disabled": 0, "lat": 38.92599766666667, "rental_uris": {"ios": "https://dc.lft.to/lastmile_qr_scan", "android": "https://dc.lft.to/lastmile_qr_scan"}, "is_reserved": 0, "lon": -77.02500716666667, "fusion_lat": 0.0, "name": "a9ea2718c0553ce5de59090e5b3d46fc"}, {"type": "electric_scooter", "fusion_lon": 0.0, "bike_id": "1a64d4bc8d13fcc01094df7399895f6f", "is_disabled": 0, "lat": 38.929069, "rental_uris": {"ios": "https://dc.lft.to/lastmile_qr_scan", "android": "https://dc.lft.to/lastmile_qr_scan"}, "is_reserved": 0, "lon": -77.03262066666667, "fusion_lat": 0.0, "name": "1a64d4bc8d13fcc01094df7399895f6f"}, {"type": "electric_scooter", "fusion_lon": 0.0, "bike_id": "75c9f64203cddf97387b44b0d40a3668", "is_disabled": 0, "lat": 38.90344266666666, "rental_uris": {"ios": "https://dc.lft.to/lastmile_qr_scan", "android": "https://dc.lft.to/lastmile_qr_scan"}, "is_reserved": 0, "lon": -77.02669316666666, "fusion_lat": 0.0, "name": "75c9f64203cddf97387b44b0d40a3668"}, {"type": "electric_scooter", "fusion_lon": 0.0, "bike_id": "ee0335a2ffeed4efeb0eff4e29fa6b5b", "is_disabled": 0, "lat": 38.95642866666667, "rental_uris": {"ios": "https://dc.lft.to/lastmile_qr_scan", "android": "https://dc.lft.to/lastmile_qr_scan"}, "is_reserved": 0, "lon": -77.07017233333333, "fusion_lat": 0.0, "name": "ee0335a2ffeed4efeb0eff4e29fa6b5b"}, {"type": "electric_bike", "fusion_lon": 0.0, "bike_id": "6ff434a6e17b2210a6101625a9e74a87", "is_disabled": 0, "lat": 38.931785, "rental_uris": {"ios": "https://dc.lft.to/lastmile_qr_scan", "android": "https://dc.lft.to/lastmile_qr_scan"}, "is_reserved": 0, "lon": -77.03533416666667, "fusion_lat": 0.0, "name": "6ff434a6e17b2210a6101625a9e74a87"}, {"type": "electric_scooter", "fusion_lon": 0.0, "bike_id": "d0c97e833ca952113fdc075b175cf27a", "is_disabled": 0, "lat": 38.916063666666666, "rental_uris": {"ios": "https://dc.lft.to/lastmile_qr_scan", "android": "https://dc.lft.to/lastmile_qr_scan"}, "is_reserved": 0, "lon": -77.03206583333333, "fusion_lat": 0.0, "name": "d0c97e833ca952113fdc075b175cf27a"}, {"type": "electric_scooter", "fusion_lon": 0.0, "bike_id": "ec2edac011a34f192fba2a8f588d0cf7", "is_disabled": 0, "lat": 38.87637083333333, "rental_uris": {"ios": "https://dc.lft.to/lastmile_qr_scan", "android": "https://dc.lft.to/lastmile_qr_scan"}, "is_reserved": 0, "lon": -76.99799283333333, "fusion_lat": 0.0, "name": "ec2edac011a34f192fba2a8f588d0cf7"}, {"type": "electric_scooter", "fusion_lon": 0.0, "bike_id": "882556a373d391bdfdf0feca5e837af3", "is_disabled": 0, "lat": 38.96134133333334, "rental_uris": {"ios": "https://dc.lft.to/lastmile_qr_scan", "android": "https://dc.lft.to/lastmile_qr_scan"}, "is_reserved": 0, "lon": -77.02820283333334, "fusion_lat": 0.0, "name": "882556a373d391bdfdf0feca5e837af3"}, {"type": "electric_scooter", "fusion_lon": 0.0, "bike_id": "1dc776733b3b3d4e05d5876ce7092268", "is_disabled": 0, "lat": 38.918142333333336, "rental_uris": {"ios": "https://dc.lft.to/lastmile_qr_scan", "android": "https://dc.lft.to/lastmile_qr_scan"}, "is_reserved": 0, "lon": -77.04548033333333, "fusion_lat": 0.0, "name": "1dc776733b3b3d4e05d5876ce7092268"}, {"type": "electric_scooter", "fusion_lon": 0.0, "bike_id": "11bd8541111b9256e6e3ea9eeaf5dfc1", "is_disabled": 0, "lat": 38.922674666666666, "rental_uris": {"ios": "https://dc.lft.to/lastmile_qr_scan", "android": "https://dc.lft.to/lastmile_qr_scan"}, "is_reserved": 0, "lon": -77.0224835, "fusion_lat": 0.0, "name": "11bd8541111b9256e6e3ea9eeaf5dfc1"}, {"type": "electric_bike", "fusion_lon": 0.0, "bike_id": "a50a38ae2352ba1c9b96d673c8ba387f", "is_disabled": 0, "lat": 38.980459333333336, "rental_uris": {"ios": "https://dc.lft.to/lastmile_qr_scan", "android": "https://dc.lft.to/lastmile_qr_scan"}, "is_reserved": 0, "lon": -76.95793166666667, "fusion_lat": 0.0, "name": "a50a38ae2352ba1c9b96d673c8ba387f"}, {"type": "electric_scooter", "fusion_lon": 0.0, "bike_id": "b37a277e291860b05a804a623e14da7a", "is_disabled": 0, "lat": 38.94196016666667, "rental_uris": {"ios": "https://dc.lft.to/lastmile_qr_scan", "android": "https://dc.lft.to/lastmile_qr_scan"}, "is_reserved": 0, "lon": -77.025244, "fusion_lat": 0.0, "name": "b37a277e291860b05a804a623e14da7a"}, {"type": "electric_scooter", "fusion_lon": 0.0, "bike_id": "b39e810b81d65b66961fae361ad7cf82", "is_disabled": 0, "lat": 38.873688666666666, "rental_uris": {"ios": "https://dc.lft.to/lastmile_qr_scan", "android": "https://dc.lft.to/lastmile_qr_scan"}, "is_reserved": 0, "lon": -77.00138716666666, "fusion_lat": 0.0, "name": "b39e810b81d65b66961fae361ad7cf82"}, {"type": "electric_scooter", "fusion_lon": 0.0, "bike_id": "f30cfd855435ecb5d51ed39c57531f2e", "is_disabled": 0, "lat": 38.963936, "rental_uris": {"ios": "https://dc.lft.to/lastmile_qr_scan", "android": "https://dc.lft.to/lastmile_qr_scan"}, "is_reserved": 0, "lon": -77.025909, "fusion_lat": 0.0, "name": "f30cfd855435ecb5d51ed39c57531f2e"}, {"type": "electric_scooter", "fusion_lon": 0.0, "bike_id": "a6de9bbf9e96efc306e875be8c554b59", "is_disabled": 0, "lat": 38.903761, "rental_uris": {"ios": "https://dc.lft.to/lastmile_qr_scan", "android": "https://dc.lft.to/lastmile_qr_scan"}, "is_reserved": 0, "lon": -77.00197583333333, "fusion_lat": 0.0, "name": "a6de9bbf9e96efc306e875be8c554b59"}, {"type": "electric_scooter", "fusion_lon": 0.0, "bike_id": "c196f401ffb3513ebf2458edcfee521f", "is_disabled": 0, "lat": 38.892197833333334, "rental_uris": {"ios": "https://dc.lft.to/lastmile_qr_scan", "android": "https://dc.lft.to/lastmile_qr_scan"}, "is_reserved": 0, "lon": -77.02220366666667, "fusion_lat": 0.0, "name": "c196f401ffb3513ebf2458edcfee521f"}, {"type": "electric_scooter", "fusion_lon": 0.0, "bike_id": "4cdb814aa284756b4879851d530c8dca", "is_disabled": 0, "lat": 38.927473, "rental_uris": {"ios": "https://dc.lft.to/lastmile_qr_scan", "android": "https://dc.lft.to/lastmile_qr_scan"}, "is_reserved": 0, "lon": -77.0271455, "fusion_lat": 0.0, "name": "4cdb814aa284756b4879851d530c8dca"}, {"type": "electric_scooter", "fusion_lon": 0.0, "bike_id": "7646d107928e23b521f9657f100ad944", "is_disabled": 0, "lat": 38.92072316666667, "rental_uris": {"ios": "https://dc.lft.to/lastmile_qr_scan", "android": "https://dc.lft.to/lastmile_qr_scan"}, "is_reserved": 0, "lon": -77.01446983333334, "fusion_lat": 0.0, "name": "7646d107928e23b521f9657f100ad944"}, {"type": "electric_scooter", "fusion_lon": 0.0, "bike_id": "597938d03c794aa5cd9d3b372025495c", "is_disabled": 0, "lat": 38.896355166666666, "rental_uris": {"ios": "https://dc.lft.to/lastmile_qr_scan", "android": "https://dc.lft.to/lastmile_qr_scan"}, "is_reserved": 0, "lon": -77.003505, "fusion_lat": 0.0, "name": "597938d03c794aa5cd9d3b372025495c"}, {"type": "electric_scooter", "fusion_lon": 0.0, "bike_id": "d250b8fdca9ceb4fb41a963857dffe9b", "is_disabled": 0, "lat": 38.9016685, "rental_uris": {"ios": "https://dc.lft.to/lastmile_qr_scan", "android": "https://dc.lft.to/lastmile_qr_scan"}, "is_reserved": 0, "lon": -77.039487, "fusion_lat": 0.0, "name": "d250b8fdca9ceb4fb41a963857dffe9b"}, {"type": "electric_scooter", "fusion_lon": 0.0, "bike_id": "aeca88b6ec8a892e3663415f528ccb60", "is_disabled": 0, "lat": 38.9181945, "rental_uris": {"ios": "https://dc.lft.to/lastmile_qr_scan", "android": "https://dc.lft.to/lastmile_qr_scan"}, "is_reserved": 0, "lon": -77.03183633333333, "fusion_lat": 0.0, "name": "aeca88b6ec8a892e3663415f528ccb60"}, {"type": "electric_scooter", "fusion_lon": 0.0, "bike_id": "91f35b4575b90e291a1adfbe71e78b59", "is_disabled": 0, "lat": 38.91707916666667, "rental_uris": {"ios": "https://dc.lft.to/lastmile_qr_scan", "android": "https://dc.lft.to/lastmile_qr_scan"}, "is_reserved": 0, "lon": -77.02389666666667, "fusion_lat": 0.0, "name": "91f35b4575b90e291a1adfbe71e78b59"}, {"type": "electric_scooter", "fusion_lon": 0.0, "bike_id": "deb69693b1aba264db365c1b9e9243d2", "is_disabled": 0, "lat": 38.91712016666666, "rental_uris": {"ios": "https://dc.lft.to/lastmile_qr_scan", "android": "https://dc.lft.to/lastmile_qr_scan"}, "is_reserved": 0, "lon": -77.03338466666666, "fusion_lat": 0.0, "name": "deb69693b1aba264db365c1b9e9243d2"}, {"type": "electric_scooter", "fusion_lon": 0.0, "bike_id": "3f4dec342e525617d66aeffeb9c62c39", "is_disabled": 0, "lat": 38.9379105, "rental_uris": {"ios": "https://dc.lft.to/lastmile_qr_scan", "android": "https://dc.lft.to/lastmile_qr_scan"}, "is_reserved": 0, "lon": -77.03284833333333, "fusion_lat": 0.0, "name": "3f4dec342e525617d66aeffeb9c62c39"}, {"type": "electric_scooter", "fusion_lon": 0.0, "bike_id": "a660bb71b6ceec0205d87f958bd07e86", "is_disabled": 0, "lat": 38.9214055, "rental_uris": {"ios": "https://dc.lft.to/lastmile_qr_scan", "android": "https://dc.lft.to/lastmile_qr_scan"}, "is_reserved": 0, "lon": -77.03510916666667, "fusion_lat": 0.0, "name": "a660bb71b6ceec0205d87f958bd07e86"}, {"type": "electric_scooter", "fusion_lon": 0.0, "bike_id": "0de1fb11b6b222198e1982bf951665ba", "is_disabled": 0, "lat": 38.90558766666667, "rental_uris": {"ios": "https://dc.lft.to/lastmile_qr_scan", "android": "https://dc.lft.to/lastmile_qr_scan"}, "is_reserved": 0, "lon": -77.01413533333333, "fusion_lat": 0.0, "name": "0de1fb11b6b222198e1982bf951665ba"}, {"type": "electric_bike", "fusion_lon": 0.0, "bike_id": "34d0c8005f55f6d456146c66a7b73398", "is_disabled": 0, "lat": 38.88029016666667, "rental_uris": {"ios": "https://dc.lft.to/lastmile_qr_scan", "android": "https://dc.lft.to/lastmile_qr_scan"}, "is_reserved": 0, "lon": -76.91729216666667, "fusion_lat": 0.0, "name": "34d0c8005f55f6d456146c66a7b73398"}, {"type": "electric_scooter", "fusion_lon": 0.0, "bike_id": "b3f55ad43b5205a4b7c1cf57a746d1b1", "is_disabled": 0, "lat": 38.91546183333333, "rental_uris": {"ios": "https://dc.lft.to/lastmile_qr_scan", "android": "https://dc.lft.to/lastmile_qr_scan"}, "is_reserved": 0, "lon": -77.038643, "fusion_lat": 0.0, "name": "b3f55ad43b5205a4b7c1cf57a746d1b1"}, {"type": "electric_scooter", "fusion_lon": 0.0, "bike_id": "e2626123b21da3bd1642709761ad0149", "is_disabled": 0, "lat": 38.92744116666667, "rental_uris": {"ios": "https://dc.lft.to/lastmile_qr_scan", "android": "https://dc.lft.to/lastmile_qr_scan"}, "is_reserved": 0, "lon": -77.0356635, "fusion_lat": 0.0, "name": "e2626123b21da3bd1642709761ad0149"}, {"type": "electric_scooter", "fusion_lon": 0.0, "bike_id": "3974fe9a6da205dc4a965d05b47861dd", "is_disabled": 0, "lat": 38.97369366666667, "rental_uris": {"ios": "https://dc.lft.to/lastmile_qr_scan", "android": "https://dc.lft.to/lastmile_qr_scan"}, "is_reserved": 0, "lon": -77.0185125, "fusion_lat": 0.0, "name": "3974fe9a6da205dc4a965d05b47861dd"}, {"type": "electric_scooter", "fusion_lon": 0.0, "bike_id": "32a5fce1ef493f504c3c1409ecba3700", "is_disabled": 0, "lat": 38.91521083333333, "rental_uris": {"ios": "https://dc.lft.to/lastmile_qr_scan", "android": "https://dc.lft.to/lastmile_qr_scan"}, "is_reserved": 0, "lon": -77.0122595, "fusion_lat": 0.0, "name": "32a5fce1ef493f504c3c1409ecba3700"}, {"type": "electric_scooter", "fusion_lon": 0.0, "bike_id": "71c16b303323123baed7419003667424", "is_disabled": 0, "lat": 38.892202166666664, "rental_uris": {"ios": "https://dc.lft.to/lastmile_qr_scan", "android": "https://dc.lft.to/lastmile_qr_scan"}, "is_reserved": 0, "lon": -77.031657, "fusion_lat": 0.0, "name": "71c16b303323123baed7419003667424"}, {"type": "electric_scooter", "fusion_lon": 0.0, "bike_id": "e3077b8af244d3faa74013e6c68f529a", "is_disabled": 0, "lat": 38.936060166666664, "rental_uris": {"ios": "https://dc.lft.to/lastmile_qr_scan", "android": "https://dc.lft.to/lastmile_qr_scan"}, "is_reserved": 0, "lon": -77.0380025, "fusion_lat": 0.0, "name": "e3077b8af244d3faa74013e6c68f529a"}, {"type": "electric_scooter", "fusion_lon": 0.0, "bike_id": "93e49b85fc32d7f525ce5f175b34143f", "is_disabled": 0, "lat": 38.927955833333336, "rental_uris": {"ios": "https://dc.lft.to/lastmile_qr_scan", "android": "https://dc.lft.to/lastmile_qr_scan"}, "is_reserved": 0, "lon": -77.03695, "fusion_lat": 0.0, "name": "93e49b85fc32d7f525ce5f175b34143f"}, {"type": "electric_bike", "fusion_lon": 0.0, "bike_id": "ff98ce753d93e07ed19a55d1217983b8", "is_disabled": 0, "lat": 38.807565833333335, "rental_uris": {"ios": "https://dc.lft.to/lastmile_qr_scan", "android": "https://dc.lft.to/lastmile_qr_scan"}, "is_reserved": 0, "lon": -77.09455366666667, "fusion_lat": 0.0, "name": "ff98ce753d93e07ed19a55d1217983b8"}, {"type": "electric_scooter", "fusion_lon": 0.0, "bike_id": "e7ef886f2f1eb1093f5255409c815e2d", "is_disabled": 0, "lat": 38.87659133333333, "rental_uris": {"ios": "https://dc.lft.to/lastmile_qr_scan", "android": "https://dc.lft.to/lastmile_qr_scan"}, "is_reserved": 0, "lon": -77.005744, "fusion_lat": 0.0, "name": "e7ef886f2f1eb1093f5255409c815e2d"}, {"type": "electric_scooter", "fusion_lon": 0.0, "bike_id": "ec915cb3d7e376b45a26be3d71d7ce4b", "is_disabled": 0, "lat": 38.95413816666667, "rental_uris": {"ios": "https://dc.lft.to/lastmile_qr_scan", "android": "https://dc.lft.to/lastmile_qr_scan"}, "is_reserved": 0, "lon": -77.03516633333334, "fusion_lat": 0.0, "name": "ec915cb3d7e376b45a26be3d71d7ce4b"}, {"type": "electric_scooter", "fusion_lon": 0.0, "bike_id": "e82574838f0f6bf603f9e550b1973d7d", "is_disabled": 0, "lat": 38.926048, "rental_uris": {"ios": "https://dc.lft.to/lastmile_qr_scan", "android": "https://dc.lft.to/lastmile_qr_scan"}, "is_reserved": 0, "lon": -77.021565, "fusion_lat": 0.0, "name": "e82574838f0f6bf603f9e550b1973d7d"}, {"type": "electric_scooter", "fusion_lon": 0.0, "bike_id": "a3eda6c6a8dc0541bb9b9865f3e55e4d", "is_disabled": 0, "lat": 38.946063333333335, "rental_uris": {"ios": "https://dc.lft.to/lastmile_qr_scan", "android": "https://dc.lft.to/lastmile_qr_scan"}, "is_reserved": 0, "lon": -77.07882583333334, "fusion_lat": 0.0, "name": "a3eda6c6a8dc0541bb9b9865f3e55e4d"}, {"type": "electric_scooter", "fusion_lon": 0.0, "bike_id": "2ecde152263e2807d63fdd03602d03a8", "is_disabled": 0, "lat": 38.908961166666664, "rental_uris": {"ios": "https://dc.lft.to/lastmile_qr_scan", "android": "https://dc.lft.to/lastmile_qr_scan"}, "is_reserved": 0, "lon": -77.00289083333334, "fusion_lat": 0.0, "name": "2ecde152263e2807d63fdd03602d03a8"}, {"type": "electric_scooter", "fusion_lon": 0.0, "bike_id": "2f545f6d39ae28f383a96074ee8a277a", "is_disabled": 0, "lat": 38.935941, "rental_uris": {"ios": "https://dc.lft.to/lastmile_qr_scan", "android": "https://dc.lft.to/lastmile_qr_scan"}, "is_reserved": 0, "lon": -77.037941, "fusion_lat": 0.0, "name": "2f545f6d39ae28f383a96074ee8a277a"}, {"type": "electric_scooter", "fusion_lon": 0.0, "bike_id": "ed61328c9fa64e3846a0a5c4a1519c49", "is_disabled": 0, "lat": 38.957186166666666, "rental_uris": {"ios": "https://dc.lft.to/lastmile_qr_scan", "android": "https://dc.lft.to/lastmile_qr_scan"}, "is_reserved": 0, "lon": -77.02398, "fusion_lat": 0.0, "name": "ed61328c9fa64e3846a0a5c4a1519c49"}, {"type": "electric_scooter", "fusion_lon": 0.0, "bike_id": "c742b32aa7fe908066217d7b6e2fc11b", "is_disabled": 0, "lat": 38.87655066666667, "rental_uris": {"ios": "https://dc.lft.to/lastmile_qr_scan", "android": "https://dc.lft.to/lastmile_qr_scan"}, "is_reserved": 0, "lon": -77.00066766666667, "fusion_lat": 0.0, "name": "c742b32aa7fe908066217d7b6e2fc11b"}, {"type": "electric_scooter", "fusion_lon": 0.0, "bike_id": "3086fb966ce20a3f10c23c25e6079162", "is_disabled": 0, "lat": 38.89775233333334, "rental_uris": {"ios": "https://dc.lft.to/lastmile_qr_scan", "android": "https://dc.lft.to/lastmile_qr_scan"}, "is_reserved": 0, "lon": -77.02719533333334, "fusion_lat": 0.0, "name": "3086fb966ce20a3f10c23c25e6079162"}, {"type": "electric_scooter", "fusion_lon": 0.0, "bike_id": "9ab0fdc87e04080152d35485383921b5", "is_disabled": 0, "lat": 38.93468383333333, "rental_uris": {"ios": "https://dc.lft.to/lastmile_qr_scan", "android": "https://dc.lft.to/lastmile_qr_scan"}, "is_reserved": 0, "lon": -77.04133316666666, "fusion_lat": 0.0, "name": "9ab0fdc87e04080152d35485383921b5"}, {"type": "electric_scooter", "fusion_lon": 0.0, "bike_id": "ec0702064c3c91e58071fc7fafea8f2e", "is_disabled": 0, "lat": 38.90094916666666, "rental_uris": {"ios": "https://dc.lft.to/lastmile_qr_scan", "android": "https://dc.lft.to/lastmile_qr_scan"}, "is_reserved": 0, "lon": -77.050151, "fusion_lat": 0.0, "name": "ec0702064c3c91e58071fc7fafea8f2e"}, {"type": "electric_scooter", "fusion_lon": 0.0, "bike_id": "f2f511d2373747956e440443574b0f5e", "is_disabled": 0, "lat": 38.909666, "rental_uris": {"ios": "https://dc.lft.to/lastmile_qr_scan", "android": "https://dc.lft.to/lastmile_qr_scan"}, "is_reserved": 0, "lon": -77.0446805, "fusion_lat": 0.0, "name": "f2f511d2373747956e440443574b0f5e"}, {"type": "electric_scooter", "fusion_lon": 0.0, "bike_id": "39cb0a5f3e93fb7558c5d6aa4d60c0e8", "is_disabled": 0, "lat": 38.91112733333333, "rental_uris": {"ios": "https://dc.lft.to/lastmile_qr_scan", "android": "https://dc.lft.to/lastmile_qr_scan"}, "is_reserved": 0, "lon": -77.00751116666666, "fusion_lat": 0.0, "name": "39cb0a5f3e93fb7558c5d6aa4d60c0e8"}, {"type": "electric_scooter", "fusion_lon": 0.0, "bike_id": "483121ab1acbddb79fc9f35cbe36779d", "is_disabled": 0, "lat": 38.90698666666667, "rental_uris": {"ios": "https://dc.lft.to/lastmile_qr_scan", "android": "https://dc.lft.to/lastmile_qr_scan"}, "is_reserved": 0, "lon": -77.005915, "fusion_lat": 0.0, "name": "483121ab1acbddb79fc9f35cbe36779d"}, {"type": "electric_scooter", "fusion_lon": 0.0, "bike_id": "c4317998ed844695db09e30599d519c7", "is_disabled": 0, "lat": 38.88017716666667, "rental_uris": {"ios": "https://dc.lft.to/lastmile_qr_scan", "android": "https://dc.lft.to/lastmile_qr_scan"}, "is_reserved": 0, "lon": -76.98072933333333, "fusion_lat": 0.0, "name": "c4317998ed844695db09e30599d519c7"}, {"type": "electric_scooter", "fusion_lon": 0.0, "bike_id": "5ba9be2d8499befec3cb945e70854a13", "is_disabled": 0, "lat": 38.9175195, "rental_uris": {"ios": "https://dc.lft.to/lastmile_qr_scan", "android": "https://dc.lft.to/lastmile_qr_scan"}, "is_reserved": 0, "lon": -77.04058266666667, "fusion_lat": 0.0, "name": "5ba9be2d8499befec3cb945e70854a13"}, {"type": "electric_scooter", "fusion_lon": 0.0, "bike_id": "44752651117e5356894df66f080f2481", "is_disabled": 0, "lat": 38.9041235, "rental_uris": {"ios": "https://dc.lft.to/lastmile_qr_scan", "android": "https://dc.lft.to/lastmile_qr_scan"}, "is_reserved": 0, "lon": -76.97331166666666, "fusion_lat": 0.0, "name": "44752651117e5356894df66f080f2481"}, {"type": "electric_scooter", "fusion_lon": 0.0, "bike_id": "3e8daee97702aede3a258253b1ccf767", "is_disabled": 0, "lat": 38.904499666666666, "rental_uris": {"ios": "https://dc.lft.to/lastmile_qr_scan", "android": "https://dc.lft.to/lastmile_qr_scan"}, "is_reserved": 0, "lon": -77.03438716666666, "fusion_lat": 0.0, "name": "3e8daee97702aede3a258253b1ccf767"}, {"type": "electric_scooter", "fusion_lon": 0.0, "bike_id": "308c31cb9eace909ee1c4201f8899526", "is_disabled": 0, "lat": 38.8833655, "rental_uris": {"ios": "https://dc.lft.to/lastmile_qr_scan", "android": "https://dc.lft.to/lastmile_qr_scan"}, "is_reserved": 0, "lon": -76.93498466666667, "fusion_lat": 0.0, "name": "308c31cb9eace909ee1c4201f8899526"}, {"type": "electric_scooter", "fusion_lon": 0.0, "bike_id": "a34468072fc49c7f0fabf0a9ce3f8135", "is_disabled": 0, "lat": 38.90113816666667, "rental_uris": {"ios": "https://dc.lft.to/lastmile_qr_scan", "android": "https://dc.lft.to/lastmile_qr_scan"}, "is_reserved": 0, "lon": -77.04407883333333, "fusion_lat": 0.0, "name": "a34468072fc49c7f0fabf0a9ce3f8135"}, {"type": "electric_scooter", "fusion_lon": 0.0, "bike_id": "d115ada55889f68da92cdb3aa278eb6e", "is_disabled": 0, "lat": 38.9189755, "rental_uris": {"ios": "https://dc.lft.to/lastmile_qr_scan", "android": "https://dc.lft.to/lastmile_qr_scan"}, "is_reserved": 0, "lon": -77.03824033333333, "fusion_lat": 0.0, "name": "d115ada55889f68da92cdb3aa278eb6e"}, {"type": "electric_scooter", "fusion_lon": 0.0, "bike_id": "36f7b34c5fe13a7547255f1935f6f7b2", "is_disabled": 0, "lat": 38.884086333333336, "rental_uris": {"ios": "https://dc.lft.to/lastmile_qr_scan", "android": "https://dc.lft.to/lastmile_qr_scan"}, "is_reserved": 0, "lon": -77.00449433333333, "fusion_lat": 0.0, "name": "36f7b34c5fe13a7547255f1935f6f7b2"}, {"type": "electric_scooter", "fusion_lon": 0.0, "bike_id": "63936e1fa67268b0a1764f14e4752513", "is_disabled": 0, "lat": 38.92088116666667, "rental_uris": {"ios": "https://dc.lft.to/lastmile_qr_scan", "android": "https://dc.lft.to/lastmile_qr_scan"}, "is_reserved": 0, "lon": -77.025043, "fusion_lat": 0.0, "name": "63936e1fa67268b0a1764f14e4752513"}, {"type": "electric_scooter", "fusion_lon": 0.0, "bike_id": "b35654e65cfdc84ed4b08afa56c22133", "is_disabled": 0, "lat": 38.89229316666667, "rental_uris": {"ios": "https://dc.lft.to/lastmile_qr_scan", "android": "https://dc.lft.to/lastmile_qr_scan"}, "is_reserved": 0, "lon": -77.05003033333334, "fusion_lat": 0.0, "name": "b35654e65cfdc84ed4b08afa56c22133"}, {"type": "electric_scooter", "fusion_lon": 0.0, "bike_id": "9d098597f66058fe4489c01084c99233", "is_disabled": 0, "lat": 38.92280183333333, "rental_uris": {"ios": "https://dc.lft.to/lastmile_qr_scan", "android": "https://dc.lft.to/lastmile_qr_scan"}, "is_reserved": 0, "lon": -77.03657166666666, "fusion_lat": 0.0, "name": "9d098597f66058fe4489c01084c99233"}, {"type": "electric_scooter", "fusion_lon": 0.0, "bike_id": "7b0eafc660d2662f5199359e11ca1ff1", "is_disabled": 0, "lat": 38.92043616666667, "rental_uris": {"ios": "https://dc.lft.to/lastmile_qr_scan", "android": "https://dc.lft.to/lastmile_qr_scan"}, "is_reserved": 0, "lon": -77.01670116666666, "fusion_lat": 0.0, "name": "7b0eafc660d2662f5199359e11ca1ff1"}, {"type": "electric_scooter", "fusion_lon": 0.0, "bike_id": "abd78b7fc04919db11da48e677d02a29", "is_disabled": 0, "lat": 38.9056215, "rental_uris": {"ios": "https://dc.lft.to/lastmile_qr_scan", "android": "https://dc.lft.to/lastmile_qr_scan"}, "is_reserved": 0, "lon": -77.022138, "fusion_lat": 0.0, "name": "abd78b7fc04919db11da48e677d02a29"}, {"type": "electric_scooter", "fusion_lon": 0.0, "bike_id": "2388c0bf4598a60d37404fbc263e8666", "is_disabled": 0, "lat": 38.92758333333333, "rental_uris": {"ios": "https://dc.lft.to/lastmile_qr_scan", "android": "https://dc.lft.to/lastmile_qr_scan"}, "is_reserved": 0, "lon": -77.02537383333333, "fusion_lat": 0.0, "name": "2388c0bf4598a60d37404fbc263e8666"}, {"type": "electric_bike", "fusion_lon": 0.0, "bike_id": "bfb209d4038a7d94abcadfb8a51b78d9", "is_disabled": 0, "lat": 38.857740666666665, "rental_uris": {"ios": "https://dc.lft.to/lastmile_qr_scan", "android": "https://dc.lft.to/lastmile_qr_scan"}, "is_reserved": 0, "lon": -76.97322783333334, "fusion_lat": 0.0, "name": "bfb209d4038a7d94abcadfb8a51b78d9"}, {"type": "electric_scooter", "fusion_lon": 0.0, "bike_id": "b9e8f581fb4cb486ce6a6db415882bdc", "is_disabled": 0, "lat": 38.931349166666664, "rental_uris": {"ios": "https://dc.lft.to/lastmile_qr_scan", "android": "https://dc.lft.to/lastmile_qr_scan"}, "is_reserved": 0, "lon": -77.023451, "fusion_lat": 0.0, "name": "b9e8f581fb4cb486ce6a6db415882bdc"},