{"data": {"bikes": [{"type": "electric_scooter", "rental_uris": {"ios": "https://dc.lft.to/lastmile_qr_scan", "android": "https://dc.lft.to/lastmile_qr_scan"}, "lon": -77.02718766666666, "fusion_lon": 0.0, "is_disabled": 0, "lat": 38.951805, "bike_id": "acb9c589479d65680e8f9b6edad70124", "name": "acb9c589479d65680e8f9b6edad70124", "is_reserved": 0, "fusion_lat": 0.0}, {"type": "electric_scooter", "rental_uris": {"ios": "https://dc.lft.to/lastmile_qr_scan", "android": "https://dc.lft.to/lastmile_qr_scan"}, "lon": -77.00332716666666, "fusion_lon": 0.0, "is_disabled": 0, "lat": 38.887377, "bike_id": "cf9ab13c71683fd3cd88ed592576c110", "name": "cf9ab13c71683fd3cd88ed592576c110", "is_reserved": 0, "fusion_lat": 0.0}, {"type": "electric_scooter", "rental_uris": {"ios": "https://dc.lft.to/lastmile_qr_scan", "android": "https://dc.lft.to/lastmile_qr_scan"}, "lon": -77.03657933333334, "fusion_lon": 0.0, "is_disabled": 0, "lat": 38.91720816666667, "bike_id": "9c538ba04a70cd745f54c4876f6204f0", "name": "9c538ba04a70cd745f54c4876f6204f0", "is_reserved": 0, "fusion_lat": 0.0}, {"type": "electric_scooter", "rental_uris": {"ios": "https://dc.lft.to/lastmile_qr_scan", "android": "https://dc.lft.to/lastmile_qr_scan"}, "lon": -77.0405005, "fusion_lon": 0.0, "is_disabled": 0, "lat": 38.899116, "bike_id": "d2ed5be60d764303e4d00cae523a48b9", "name": "d2ed5be60d764303e4d00cae523a48b9", "is_reserved": 0, "fusion_lat": 0.0}, {"type": "electric_scooter", "rental_uris": {"ios": "https://dc.lft.to/lastmile_qr_scan", "android": "https://dc.lft.to/lastmile_qr_scan"}, "lon": -77.03933566666667, "fusion_lon": 0.0, "is_disabled": 0, "lat": 38.9156065, "bike_id": "a2ace15dada5f53f083ff7a3dad586de", "name": "a2ace15dada5f53f083ff7a3dad586de", "is_reserved": 0, "fusion_lat": 0.0}, {"type": "electric_scooter", "rental_uris": {"ios": "https://dc.lft.to/lastmile_qr_scan", "android": "https://dc.lft.to/lastmile_qr_scan"}, "lon": -77.03632166666667, "fusion_lon": 0.0, "is_disabled": 0, "lat": 38.902739, "bike_id": "83f621382d2bd517394cb23990461683", "name": "83f621382d2bd517394cb23990461683", "is_reserved": 0, "fusion_lat": 0.0}, {"type": "electric_scooter", "rental_uris": {"ios": "https://dc.lft.to/lastmile_qr_scan", "android": "https://dc.lft.to/lastmile_qr_scan"}, "lon": -77.02165083333334, "fusion_lon": 0.0, "is_disabled": 0, "lat": 38.926150166666666, "bike_id": "c32484dc654a8fd8232d3c07f799bb36", "name": "c32484dc654a8fd8232d3c07f799bb36", "is_reserved": 0, "fusion_lat": 0.0}, {"type": "electric_scooter", "rental_uris": {"ios": "https://dc.lft.to/lastmile_qr_scan", "android": "https://dc.lft.to/lastmile_qr_scan"}, "lon": -77.07335016666667, "fusion_lon": 0.0, "is_disabled": 0, "lat": 38.92491283333333, "bike_id": "5c2f75417aac4cd67066c43d5aac44ad", "name": "5c2f75417aac4cd67066c43d5aac44ad", "is_reserved": 0, "fusion_lat": 0.0}, {"type": "electric_scooter", "rental_uris": {"ios": "https://dc.lft.to/lastmile_qr_scan", "android": "https://dc.lft.to/lastmile_qr_scan"}, "lon": -77.028044, "fusion_lon": 0.0, "is_disabled": 0, "lat": 38.917077666666664, "bike_id": "b01eae2743169b44f52332e459d3b92e", "name": "b01eae2743169b44f52332e459d3b92e", "is_reserved": 0, "fusion_lat": 0.0}, {"type": "electric_scooter", "rental_uris": {"ios": "https://dc.lft.to/lastmile_qr_scan", "android": "https://dc.lft.to/lastmile_qr_scan"}, "lon": -77.03183166666666, "fusion_lon": 0.0, "is_disabled": 0, "lat": 38.91329533333333, "bike_id": "09e3ad1d4b0e6d40ed98285a659051ed", "name": "09e3ad1d4b0e6d40ed98285a659051ed", "is_reserved": 0, "fusion_lat": 0.0}, {"type": "electric_bike", "rental_uris": {"ios": "https://dc.lft.to/lastmile_qr_scan", "android": "https://dc.lft.to/lastmile_qr_scan"}, "lon": -76.96064483333333, "fusion_lon": 0.0, "is_disabled": 0, "lat": 38.884061, "bike_id": "f82353e154b092bb30ca11037a4e5af4", "name": "f82353e154b092bb30ca11037a4e5af4", "is_reserved": 0, "fusion_lat": 0.0}, {"type": "electric_scooter", "rental_uris": {"ios": "https://dc.lft.to/lastmile_qr_scan", "android": "https://dc.lft.to/lastmile_qr_scan"}, "lon": -77.01940383333333, "fusion_lon": 0.0, "is_disabled": 0, "lat": 38.948561, "bike_id": "b21c1038c46dafa013765ab2963c9ddb", "name": "b21c1038c46dafa013765ab2963c9ddb", "is_reserved": 0, "fusion_lat": 0.0}, {"type": "electric_bike", "rental_uris": {"ios": "https://dc.lft.to/lastmile_qr_scan", "android": "https://dc.lft.to/lastmile_qr_scan"}, "lon": -77.05873133333333, "fusion_lon": 0.0, "is_disabled": 0, "lat": 38.9589065, "bike_id": "3f59f7b3f187e7776bd5d2a2b09113ff", "name": "3f59f7b3f187e7776bd5d2a2b09113ff", "is_reserved": 0, "fusion_lat": 0.0}, {"type": "electric_scooter", "rental_uris": {"ios": "https://dc.lft.to/lastmile_qr_scan", "android": "https://dc.lft.to/lastmile_qr_scan"}, "lon": -77.00070533333333, "fusion_lon": 0.0, "is_disabled": 0, "lat": 38.92553766666666, "bike_id": "62b2d60b159525ed8cfc40555c84f7a1", "name": "62b2d60b159525ed8cfc40555c84f7a1", "is_reserved": 0, "fusion_lat": 0.0}, {"type": "electric_scooter", "rental_uris": {"ios": "https://dc.lft.to/lastmile_qr_scan", "android": "https://dc.lft.to/lastmile_qr_scan"}, "lon": -77.024367, "fusion_lon": 0.0, "is_disabled": 0, "lat": 38.918593, "bike_id": "5555407fc641ff51ea64fd7a74953bdb", "name": "5555407fc641ff51ea64fd7a74953bdb", "is_reserved": 0, "fusion_lat": 0.0}, {"type": "electric_scooter", "rental_uris": {"ios": "https://dc.lft.to/lastmile_qr_scan", "android": "https://dc.lft.to/lastmile_qr_scan"}, "lon": -77.02157866666667, "fusion_lon": 0.0, "is_disabled": 0, "lat": 38.9249765, "bike_id": "a0940f23734780b3cf48751ee62134c9", "name": "a0940f23734780b3cf48751ee62134c9", "is_reserved": 0, "fusion_lat": 0.0}, {"type": "electric_scooter", "rental_uris": {"ios": "https://dc.lft.to/lastmile_qr_scan", "android": "https://dc.lft.to/lastmile_qr_scan"}, "lon": -77.0396825, "fusion_lon": 0.0, "is_disabled": 0, "lat": 38.898971833333334, "bike_id": "38c530276e92fce21717c834163b3344", "name": "38c530276e92fce21717c834163b3344", "is_reserved": 0, "fusion_lat": 0.0}, {"type": "electric_scooter", "rental_uris": {"ios": "https://dc.lft.to/lastmile_qr_scan", "android": "https://dc.lft.to/lastmile_qr_scan"}, "lon": -77.0220785, "fusion_lon": 0.0, "is_disabled": 0, "lat": 38.894956666666666, "bike_id": "c0305f55a129881b164c3bafee6d9660", "name": "c0305f55a129881b164c3bafee6d9660", "is_reserved": 0, "fusion_lat": 0.0}, {"type": "electric_bike", "rental_uris": {"ios": "https://dc.lft.to/lastmile_qr_scan", "android": "https://dc.lft.to/lastmile_qr_scan"}, "lon": -76.951927, "fusion_lon": 0.0, "is_disabled": 0, "lat": 38.9367035, "bike_id": "9e0c07556dc021797dadd2320c1c9925", "name": "9e0c07556dc021797dadd2320c1c9925", "is_reserved": 0, "fusion_lat": 0.0}, {"type": "electric_bike", "rental_uris": {"ios": "https://dc.lft.to/lastmile_qr_scan", "android": "https://dc.lft.to/lastmile_qr_scan"}, "lon": -76.97264966666667, "fusion_lon": 0.0, "is_disabled": 0, "lat": 38.9196155, "bike_id": "0e02953808ace65a9ff172f89811336c", "name": "0e02953808ace65a9ff172f89811336c", "is_reserved": 0, "fusion_lat": 0.0}, {"type": "electric_scooter", "rental_uris": {"ios": "https://dc.lft.to/lastmile_qr_scan", "android": "https://dc.lft.to/lastmile_qr_scan"}, "lon": -77.0362265, "fusion_lon": 0.0, "is_disabled": 0, "lat": 38.903017, "bike_id": "695b1c56ca85f32ca6d109b78a95b807", "name": "695b1c56ca85f32ca6d109b78a95b807", "is_reserved": 0, "fusion_lat": 0.0}, {"type": "electric_scooter", "rental_uris": {"ios": "https://dc.lft.to/lastmile_qr_scan", "android": "https://dc.lft.to/lastmile_qr_scan"}, "lon": -77.04128116666666, "fusion_lon": 0.0, "is_disabled": 0, "lat": 38.899392166666665, "bike_id": "89f00dbba5997e3d8fef78a46104e8d3", "name": "89f00dbba5997e3d8fef78a46104e8d3", "is_reserved": 0, "fusion_lat": 0.0}, {"type": "electric_scooter", "rental_uris": {"ios": "https://dc.lft.to/lastmile_qr_scan", "android": "https://dc.lft.to/lastmile_qr_scan"}, "lon": -77.0261655, "fusion_lon": 0.0, "is_disabled": 0, "lat": 38.94820716666667, "bike_id": "1d48ea0a757127f572db1627e1ee4a72", "name": "1d48ea0a757127f572db1627e1ee4a72", "is_reserved": 0, "fusion_lat": 0.0}, {"type": "electric_scooter", "rental_uris": {"ios": "https://dc.lft.to/lastmile_qr_scan", "android": "https://dc.lft.to/lastmile_qr_scan"}, "lon": -76.99497733333334, "fusion_lon": 0.0, "is_disabled": 0, "lat": 38.86246416666667, "bike_id": "5d3427f03c80c025b55ea6baa0e93a8a", "name": "5d3427f03c80c025b55ea6baa0e93a8a", "is_reserved": 0, "fusion_lat": 0.0}, {"type": "electric_bike", "rental_uris": {"ios": "https://dc.lft.to/lastmile_qr_scan", "android": "https://dc.lft.to/lastmile_qr_scan"}, "lon": -77.03153116666667, "fusion_lon": 0.0, "is_disabled": 0, "lat": 38.99435716666667, "bike_id": "6125261f4b854c5128ba62374f6e2c01", "name": "6125261f4b854c5128ba62374f6e2c01", "is_reserved": 0, "fusion_lat": 0.0}, {"type": "electric_bike", "rental_uris": {"ios": "https://dc.lft.to/lastmile_qr_scan", "android": "https://dc.lft.to/lastmile_qr_scan"}, "lon": -77.21645933333333, "fusion_lon": 0.0, "is_disabled": 0, "lat": 38.9301485, "bike_id": "f413971b6e2a338008aa8840915995a4", "name": "f413971b6e2a338008aa8840915995a4", "is_reserved": 0, "fusion_lat": 0.0}, {"type": "electric_scooter", "rental_uris": {"ios": "https://dc.lft.to/lastmile_qr_scan", "android": "https://dc.lft.to/lastmile_qr_scan"}, "lon": -77.04013466666666, "fusion_lon": 0.0, "is_disabled": 0, "lat": 38.9419165, "bike_id": "b69c91db3dd61564a481efc9a9de7e5f", "name": "b69c91db3dd61564a481efc9a9de7e5f", "is_reserved": 0, "fusion_lat": 0.0}, {"type": "electric_bike", "rental_uris": {"ios": "https://dc.lft.to/lastmile_qr_scan", "android": "https://dc.lft.to/lastmile_qr_scan"}, "lon": -76.9880725, "fusion_lon": 0.0, "is_disabled": 0, "lat": 38.9113695, "bike_id": "c5572061b3d89bc38d210366c49a0009", "name": "c5572061b3d89bc38d210366c49a0009", "is_reserved": 0, "fusion_lat": 0.0}, {"type": "electric_scooter", "rental_uris": {"ios": "https://dc.lft.to/lastmile_qr_scan", "android": "https://dc.lft.to/lastmile_qr_scan"}, "lon": -77.01561633333333, "fusion_lon": 0.0, "is_disabled": 0, "lat": 38.879916333333334, "bike_id": "959b300116591f739b33fc7a738e82d9", "name": "959b300116591f739b33fc7a738e82d9", "is_reserved": 0, "fusion_lat": 0.0}, {"type": "electric_scooter", "rental_uris": {"ios": "https://dc.lft.to/lastmile_qr_scan", "android": "https://dc.lft.to/lastmile_qr_scan"}, "lon": -77.02615816666666, "fusion_lon": 0.0, "is_disabled": 0, "lat": 38.9308685, "bike_id": "c8a7cfd71fead7c23a35690fb3b23a85", "name": "c8a7cfd71fead7c23a35690fb3b23a85", "is_reserved": 0, "fusion_lat": 0.0}, {"type": "electric_scooter", "rental_uris": {"ios": "https://dc.lft.to/lastmile_qr_scan", "android": "https://dc.lft.to/lastmile_qr_scan"}, "lon": -77.00774983333334, "fusion_lon": 0.0, "is_disabled": 0, "lat": 38.90724933333333, "bike_id": "68545560fd76b69ac78fc56f9d985f49", "name": "68545560fd76b69ac78fc56f9d985f49", "is_reserved": 0, "fusion_lat": 0.0}, {"type": "electric_scooter", "rental_uris": {"ios": "https://dc.lft.to/lastmile_qr_scan", "android": "https://dc.lft.to/lastmile_qr_scan"}, "lon": -77.03644866666667, "fusion_lon": 0.0, "is_disabled": 0, "lat": 38.916197, "bike_id": "36076b0d349325a87595aaa76db76816", "name": "36076b0d349325a87595aaa76db76816", "is_reserved": 0, "fusion_lat": 0.0}, {"type": "electric_scooter", "rental_uris": {"ios": "https://dc.lft.to/lastmile_qr_scan", "android": "https://dc.lft.to/lastmile_qr_scan"}, "lon": -77.04163983333333, "fusion_lon": 0.0, "is_disabled": 0, "lat": 38.93419016666667, "bike_id": "ac36eb49de919eebf4421b9414909113", "name": "ac36eb49de919eebf4421b9414909113", "is_reserved": 0, "fusion_lat": 0.0}, {"type": "electric_scooter", "rental_uris": {"ios": "https://dc.lft.to/lastmile_qr_scan", "android": "https://dc.lft.to/lastmile_qr_scan"}, "lon": -77.02690866666667, "fusion_lon": 0.0, "is_disabled": 0, "lat": 38.911241, "bike_id": "b17327ea6c99f35ead447b1c8c2258db", "name": "b17327ea6c99f35ead447b1c8c2258db", "is_reserved": 0, "fusion_lat": 0.0}, {"type": "electric_scooter", "rental_uris": {"ios": "https://dc.lft.to/lastmile_qr_scan", "android": "https://dc.lft.to/lastmile_qr_scan"}, "lon": -77.0215465, "fusion_lon": 0.0, "is_disabled": 0, "lat": 38.886537833333335, "bike_id": "4aa4e85da426a11074574d773bf646e6", "name": "4aa4e85da426a11074574d773bf646e6", "is_reserved": 0, "fusion_lat": 0.0}, {"type": "electric_bike", "rental_uris": {"ios": "https://dc.lft.to/lastmile_qr_scan", "android": "https://dc.lft.to/lastmile_qr_scan"}, "lon": -77.12024166666667, "fusion_lon": 0.0, "is_disabled": 0, "lat": 38.85493966666667, "bike_id": "872e8e2601043010bb0eba700540a0f1", "name": "872e8e2601043010bb0eba700540a0f1", "is_reserved": 0, "fusion_lat": 0.0}, {"type": "electric_bike", "rental_uris": {"ios": "https://dc.lft.to/lastmile_qr_scan", "android": "https://dc.lft.to/lastmile_qr_scan"}, "lon": -77.11616683333334, "fusion_lon": 0.0, "is_disabled": 0, "lat": 38.8548715, "bike_id": "56e863a4ad8904b92fafa48fd78c30ea", "name": "56e863a4ad8904b92fafa48fd78c30ea", "is_reserved": 0, "fusion_lat": 0.0}, {"type": "electric_scooter", "rental_uris": {"ios": "https://dc.lft.to/lastmile_qr_scan", "android": "https://dc.lft.to/lastmile_qr_scan"}, "lon": -77.03781616666667, "fusion_lon": 0.0, "is_disabled": 0, "lat": 38.93021933333333, "bike_id": "8febba4c85baa6fc13202f751befa96a", "name": "8febba4c85baa6fc13202f751befa96a", "is_reserved": 0, "fusion_lat": 0.0}, {"type": "electric_bike", "rental_uris": {"ios": "https://dc.lft.to/lastmile_qr_scan", "android": "https://dc.lft.to/lastmile_qr_scan"}, "lon": -77.08846566666666, "fusion_lon": 0.0, "is_disabled": 0, "lat": 38.9669575, "bike_id": "e60a537959ab7932ccc7a71c9220d444", "name": "e60a537959ab7932ccc7a71c9220d444", "is_reserved": 0, "fusion_lat": 0.0}, {"type": "electric_scooter", "rental_uris": {"ios": "https://dc.lft.to/lastmile_qr_scan", "android": "https://dc.lft.to/lastmile_qr_scan"}, "lon": -77.02007133333333, "fusion_lon": 0.0, "is_disabled": 0, "lat": 38.908298, "bike_id": "25363b16a836252794c8d14906526fb3", "name": "25363b16a836252794c8d14906526fb3", "is_reserved": 0, "fusion_lat": 0.0}, {"type": "electric_scooter", "rental_uris": {"ios": "https://dc.lft.to/lastmile_qr_scan", "android": "https://dc.lft.to/lastmile_qr_scan"}, "lon": -77.032228, "fusion_lon": 0.0, "is_disabled": 0, "lat": 38.90963216666667, "bike_id": "f87429d1f6a8a842ef07d449e1d505ba", "name": "f87429d1f6a8a842ef07d449e1d505ba", "is_reserved": 0, "fusion_lat": 0.0}, {"type": "electric_scooter", "rental_uris": {"ios": "https://dc.lft.to/lastmile_qr_scan", "android": "https://dc.lft.to/lastmile_qr_scan"}, "lon": -77.03176916666666, "fusion_lon": 0.0, "is_disabled": 0, "lat": 38.91911133333333, "bike_id": "2d3029edd150a3f69ab5ea897d274347", "name": "2d3029edd150a3f69ab5ea897d274347", "is_reserved": 0, "fusion_lat": 0.0}, {"type": "electric_scooter", "rental_uris": {"ios": "https://dc.lft.to/lastmile_qr_scan", "android": "https://dc.lft.to/lastmile_qr_scan"}, "lon": -77.02601283333334, "fusion_lon": 0.0, "is_disabled": 0, "lat": 38.901204666666665, "bike_id": "aaa5cf83ad5b942f33f75cc7842391ae", "name": "aaa5cf83ad5b942f33f75cc7842391ae", "is_reserved": 0, "fusion_lat": 0.0}, {"type": "electric_scooter", "rental_uris": {"ios": "https://dc.lft.to/lastmile_qr_scan", "android": "https://dc.lft.to/lastmile_qr_scan"}, "lon": -76.99907833333333, "fusion_lon": 0.0, "is_disabled": 0, "lat": 38.94815533333333, "bike_id": "e92e23249dd1621dae074daf8e017876", "name": "e92e23249dd1621dae074daf8e017876", "is_reserved": 0, "fusion_lat": 0.0}, {"type": "electric_bike", "rental_uris": {"ios": "https://dc.lft.to/lastmile_qr_scan", "android": "https://dc.lft.to/lastmile_qr_scan"}, "lon": -77.012855, "fusion_lon": 0.0, "is_disabled": 0, "lat": 38.95669983333333, "bike_id": "23e883a009e76c475dd113b69c0f6a89", "name": "23e883a009e76c475dd113b69c0f6a89", "is_reserved": 0, "fusion_lat": 0.0}, {"type": "electric_scooter", "rental_uris": {"ios": "https://dc.lft.to/lastmile_qr_scan", "android": "https://dc.lft.to/lastmile_qr_scan"}, "lon": -77.016105, "fusion_lon": 0.0, "is_disabled": 0, "lat": 38.9159465, "bike_id": "ff95850eadd7852c1283bbe262f1a841", "name": "ff95850eadd7852c1283bbe262f1a841", "is_reserved": 0, "fusion_lat": 0.0}, {"type": "electric_bike", "rental_uris": {"ios": "https://dc.lft.to/lastmile_qr_scan", "android": "https://dc.lft.to/lastmile_qr_scan"}, "lon": -77.11059166666666, "fusion_lon": 0.0, "is_disabled": 0, "lat": 38.870815666666665, "bike_id": "ba4627f303621a123f375224e92d89a6", "name": "ba4627f303621a123f375224e92d89a6", "is_reserved": 0, "fusion_lat": 0.0}, {"type": "electric_scooter", "rental_uris": {"ios": "https://dc.lft.to/lastmile_qr_scan", "android": "https://dc.lft.to/lastmile_qr_scan"}, "lon": -77.04896016666666, "fusion_lon": 0.0, "is_disabled": 0, "lat": 38.89227833333333, "bike_id": "f2fd87cdd634b32b94b2401848956495", "name": "f2fd87cdd634b32b94b2401848956495", "is_reserved": 0, "fusion_lat": 0.0}, {"type": "electric_scooter", "rental_uris": {"ios": "https://dc.lft.to/lastmile_qr_scan", "android": "https://dc.lft.to/lastmile_qr_scan"}, "lon": -76.97949716666666, "fusion_lon": 0.0, "is_disabled": 0, "lat": 38.91693516666667, "bike_id": "a680def0627292a7685d4a214611e4e6", "name": "a680def0627292a7685d4a214611e4e6", "is_reserved": 0, "fusion_lat": 0.0}, {"type": "electric_scooter", "rental_uris": {"ios": "https://dc.lft.to/lastmile_qr_scan", "android": "https://dc.lft.to/lastmile_qr_scan"}, "lon": -77.03464, "fusion_lon": 0.0, "is_disabled": 0, "lat": 38.9073, "bike_id": "601ea7647ed3902fa7b6c58f8439a0e7", "name": "601ea7647ed3902fa7b6c58f8439a0e7", "is_reserved": 0, "fusion_lat": 0.0}, {"type": "electric_scooter", "rental_uris": {"ios": "https://dc.lft.to/lastmile_qr_scan", "android": "https://dc.lft.to/lastmile_qr_scan"}, "lon": -77.05047283333333, "fusion_lon": 0.0, "is_disabled": 0, "lat": 38.90431266666667, "bike_id": "517f82f4643b0ea73ffddca23c943aaf", "name": "517f82f4643b0ea73ffddca23c943aaf", "is_reserved": 0, "fusion_lat": 0.0}, {"type": "electric_bike", "rental_uris": {"ios": "https://dc.lft.to/lastmile_qr_scan", "android": "https://dc.lft.to/lastmile_qr_scan"}, "lon": -76.935414, "fusion_lon": 0.0, "is_disabled": 0, "lat": 38.95184, "bike_id": "c5f44b9464ee73ac94128c7b5d76300e", "name": "c5f44b9464ee73ac94128c7b5d76300e", "is_reserved": 0, "fusion_lat": 0.0}, {"type": "electric_bike", "rental_uris": {"ios": "https://dc.lft.to/lastmile_qr_scan", "android": "https://dc.lft.to/lastmile_qr_scan"}, "lon": -77.11853683333334, "fusion_lon": 0.0, "is_disabled": 0, "lat": 38.877369, "bike_id": "a8a3923ea427db3282943b5958b1dbda", "name": "a8a3923ea427db3282943b5958b1dbda", "is_reserved": 0, "fusion_lat": 0.0}, {"type": "electric_scooter", "rental_uris": {"ios": "https://dc.lft.to/lastmile_qr_scan", "android": "https://dc.lft.to/lastmile_qr_scan"}, "lon": -77.0802995, "fusion_lon": 0.0, "is_disabled": 0, "lat": 38.9092525, "bike_id": "dc873ba80ddf11ffea7ff792c7961013", "name": "dc873ba80ddf11ffea7ff792c7961013", "is_reserved": 0, "fusion_lat": 0.0}, {"type": "electric_scooter", "rental_uris": {"ios": "https://dc.lft.to/lastmile_qr_scan", "android": "https://dc.lft.to/lastmile_qr_scan"}, "lon": -77.04522566666667, "fusion_lon": 0.0, "is_disabled": 0, "lat": 38.91821633333333, "bike_id": "f271744afec204ea16579d383509de5b", "name": "f271744afec204ea16579d383509de5b", "is_reserved": 0, "fusion_lat": 0.0}, {"type": "electric_scooter", "rental_uris": {"ios": "https://dc.lft.to/lastmile_qr_scan", "android": "https://dc.lft.to/lastmile_qr_scan"}, "lon": -77.0447155, "fusion_lon": 0.0, "is_disabled": 0, "lat": 38.919194166666664, "bike_id": "24ccea9cd6c727101bdb3dd1340f49f5", "name": "24ccea9cd6c727101bdb3dd1340f49f5", "is_reserved": 0, "fusion_lat": 0.0}, {"type": "electric_scooter", "rental_uris": {"ios": "https://dc.lft.to/lastmile_qr_scan", "android": "https://dc.lft.to/lastmile_qr_scan"}, "lon": -77.018446, "fusion_lon": 0.0, "is_disabled": 0, "lat": 38.946294333333334, "bike_id": "8d1fdff7f7696a20e9dbad2f2b6ced89", "name": "8d1fdff7f7696a20e9dbad2f2b6ced89", "is_reserved": 0, "fusion_lat": 0.0}, {"type": "electric_scooter", "rental_uris": {"ios": "https://dc.lft.to/lastmile_qr_scan", "android": "https://dc.lft.to/lastmile_qr_scan"}, "lon": -77.031292, "fusion_lon": 0.0, "is_disabled": 0, "lat": 38.89227533333333, "bike_id": "6c15e5ef6895e2e9aa7b188d1592f866", "name": "6c15e5ef6895e2e9aa7b188d1592f866", "is_reserved": 0, "fusion_lat": 0.0}, {"type": "electric_scooter", "rental_uris": {"ios": "https://dc.lft.to/lastmile_qr_scan", "android": "https://dc.lft.to/lastmile_qr_scan"}, "lon": -77.02581416666666, "fusion_lon": 0.0, "is_disabled": 0, "lat": 38.90408716666666, "bike_id": "66cb0f542e291174fa6598d866e4673b", "name": "66cb0f542e291174fa6598d866e4673b", "is_reserved": 0, "fusion_lat": 0.0}, {"type": "electric_scooter", "rental_uris": {"ios": "https://dc.lft.to/lastmile_qr_scan", "android": "https://dc.lft.to/lastmile_qr_scan"}, "lon": -77.02755633333334, "fusion_lon": 0.0, "is_disabled": 0, "lat": 38.90727233333333, "bike_id": "44cd1bbe1cb51866b85197b3cfc7f859", "name": "44cd1bbe1cb51866b85197b3cfc7f859", "is_reserved": 0, "fusion_lat": 0.0}, {"type": "electric_scooter", "rental_uris": {"ios": "https://dc.lft.to/lastmile_qr_scan", "android": "https://dc.lft.to/lastmile_qr_scan"}, "lon": -77.02763266666666, "fusion_lon": 0.0, "is_disabled": 0, "lat": 38.90726466666667, "bike_id": "1a0d16b7ec66ea43a697e9b765ede13a", "name": "1a0d16b7ec66ea43a697e9b765ede13a", "is_reserved": 0, "fusion_lat": 0.0}, {"type": "electric_scooter", "rental_uris": {"ios": "https://dc.lft.to/lastmile_qr_scan", "android": "https://dc.lft.to/lastmile_qr_scan"}, "lon": -77.03872433333333, "fusion_lon": 0.0, "is_disabled": 0, "lat": 38.91256583333333, "bike_id": "47045722cb5e752efe3c5400c9abaae2", "name": "47045722cb5e752efe3c5400c9abaae2", "is_reserved": 0, "fusion_lat": 0.0}, {"type": "electric_bike", "rental_uris": {"ios": "https://dc.lft.to/lastmile_qr_scan", "android": "https://dc.lft.to/lastmile_qr_scan"}, "lon": -76.98105316666667, "fusion_lon": 0.0, "is_disabled": 0, "lat": 38.8772885, "bike_id": "00c84f20fe296bed21dc0140391cb027", "name": "00c84f20fe296bed21dc0140391cb027", "is_reserved": 0, "fusion_lat": 0.0}, {"type": "electric_scooter", "rental_uris": {"ios": "https://dc.lft.to/lastmile_qr_scan", "android": "https://dc.lft.to/lastmile_qr_scan"}, "lon": -77.02277816666667, "fusion_lon": 0.0, "is_disabled": 0, "lat": 38.916852, "bike_id": "96073f376dc1867e08b653057d2a186a", "name": "96073f376dc1867e08b653057d2a186a", "is_reserved": 0, "fusion_lat": 0.0}, {"type": "electric_scooter", "rental_uris": {"ios": "https://dc.lft.to/lastmile_qr_scan", "android": "https://dc.lft.to/lastmile_qr_scan"}, "lon": -77.04521916666667, "fusion_lon": 0.0, "is_disabled": 0, "lat": 38.933166166666666, "bike_id": "ab7cbbc00640105ba86b413bffff0eb9", "name": "ab7cbbc00640105ba86b413bffff0eb9", "is_reserved": 0, "fusion_lat": 0.0}, {"type": "electric_scooter", "rental_uris": {"ios": "https://dc.lft.to/lastmile_qr_scan", "android": "https://dc.lft.to/lastmile_qr_scan"}, "lon": -77.040186, "fusion_lon": 0.0, "is_disabled": 0, "lat": 38.922132166666664, "bike_id": "8e2e9bbfef9e909c53edeb8c0ccec3f6", "name": "8e2e9bbfef9e909c53edeb8c0ccec3f6", "is_reserved": 0, "fusion_lat": 0.0}, {"type": "electric_scooter", "rental_uris": {"ios": "https://dc.lft.to/lastmile_qr_scan", "android": "https://dc.lft.to/lastmile_qr_scan"}, "lon": -77.0221075, "fusion_lon": 0.0, "is_disabled": 0, "lat": 38.910900833333336, "bike_id": "80b79ae5234611f4fcc1fc368d3c0a93", "name": "80b79ae5234611f4fcc1fc368d3c0a93", "is_reserved": 0, "fusion_lat": 0.0}, {"type": "electric_scooter", "rental_uris": {"ios": "https://dc.lft.to/lastmile_qr_scan", "android": "https://dc.lft.to/lastmile_qr_scan"}, "lon": -77.03161983333334, "fusion_lon": 0.0, "is_disabled": 0, "lat": 38.89224083333333, "bike_id": "16b9f146204f2be422aa68df9f1ae451", "name": "16b9f146204f2be422aa68df9f1ae451", "is_reserved": 0, "fusion_lat": 0.0}, {"type": "electric_scooter", "rental_uris": {"ios": "https://dc.lft.to/lastmile_qr_scan", "android": "https://dc.lft.to/lastmile_qr_scan"}, "lon": -77.03454033333334, "fusion_lon": 0.0, "is_disabled": 0, "lat": 38.90732933333334, "bike_id": "be814d9402dc1d05f9e72426f91bb904", "name": "be814d9402dc1d05f9e72426f91bb904", "is_reserved": 0, "fusion_lat": 0.0}, {"type": "electric_scooter", "rental_uris": {"ios": "https://dc.lft.to/lastmile_qr_scan", "android": "https://dc.lft.to/lastmile_qr_scan"}, "lon": -77.0466345, "fusion_lon": 0.0, "is_disabled": 0, "lat": 38.89244816666667, "bike_id": "fb10cc48c42744f9868fc8155db74548", "name": "fb10cc48c42744f9868fc8155db74548", "is_reserved": 0, "fusion_lat": 0.0}, {"type": "electric_scooter", "rental_uris": {"ios": "https://dc.lft.to/lastmile_qr_scan", "android": "https://dc.lft.to/lastmile_qr_scan"}, "lon": -77.02586166666667, "fusion_lon": 0.0, "is_disabled": 0, "lat": 38.94199666666667, "bike_id": "4159017fb0d76108d3b350a9793fac73", "name": "4159017fb0d76108d3b350a9793fac73", "is_reserved": 0, "fusion_lat": 0.0}, {"type": "electric_scooter", "rental_uris": {"ios": "https://dc.lft.to/lastmile_qr_scan", "android": "https://dc.lft.to/lastmile_qr_scan"}, "lon": -77.00609333333334, "fusion_lon": 0.0, "is_disabled": 0, "lat": 38.90585883333333, "bike_id": "771bf0b56e367b8c54da95e0b628b45c", "name": "771bf0b56e367b8c54da95e0b628b45c", "is_reserved": 0, "fusion_lat": 0.0}, {"type": "electric_scooter", "rental_uris": {"ios": "https://dc.lft.to/lastmile_qr_scan", "android": "https://dc.lft.to/lastmile_qr_scan"}, "lon": -77.0415615, "fusion_lon": 0.0, "is_disabled": 0, "lat": 38.915252833333334, "bike_id": "a5be063e294abcc0ba1c13b7320d73a0", "name": "a5be063e294abcc0ba1c13b7320d73a0", "is_reserved": 0, "fusion_lat": 0.0}, {"type": "electric_scooter", "rental_uris": {"ios": "https://dc.lft.to/lastmile_qr_scan", "android": "https://dc.lft.to/lastmile_qr_scan"}, "lon": -77.02330266666667, "fusion_lon": 0.0, "is_disabled": 0, "lat": 38.9360205, "bike_id": "1da72329ad01c05eebf6b7412df89104", "name": "1da72329ad01c05eebf6b7412df89104", "is_reserved": 0, "fusion_lat": 0.0}, {"type": "electric_scooter", "rental_uris": {"ios": "https://dc.lft.to/lastmile_qr_scan", "android": "https://dc.lft.to/lastmile_qr_scan"}, "lon": -77.0364095, "fusion_lon": 0.0, "is_disabled": 0, "lat": 38.90998483333333, "bike_id": "4dea3451d3da398f3ab9c5044fcd50b3", "name": "4dea3451d3da398f3ab9c5044fcd50b3", "is_reserved": 0, "fusion_lat": 0.0}, {"type": "electric_scooter", "rental_uris": {"ios": "https://dc.lft.to/lastmile_qr_scan", "android": "https://dc.lft.to/lastmile_qr_scan"}, "lon": -76.9854045, "fusion_lon": 0.0, "is_disabled": 0, "lat": 38.86675783333333, "bike_id": "041d380c088409e4e0aa88c2055a2c7d", "name": "041d380c088409e4e0aa88c2055a2c7d", "is_reserved": 0, "fusion_lat": 0.0}, {"type": "electric_scooter", "rental_uris": {"ios": "https://dc.lft.to/lastmile_qr_scan", "android": "https://dc.lft.to/lastmile_qr_scan"}, "lon": -77.02043966666666, "fusion_lon": 0.0, "is_disabled": 0, "lat": 38.8987335, "bike_id": "719b2acd23de5f13ff129f4b8c4fc7f9", "name": "719b2acd23de5f13ff129f4b8c4fc7f9", "is_reserved": 0, "fusion_lat": 0.0}, {"type": "electric_scooter", "rental_uris": {"ios": "https://dc.lft.to/lastmile_qr_scan", "android": "https://dc.lft.to/lastmile_qr_scan"}, "lon": -77.00395, "fusion_lon": 0.0, "is_disabled": 0, "lat": 38.9056605, "bike_id": "40cae2028f6336964ee5fd0c5f92ea94", "name": "40cae2028f6336964ee5fd0c5f92ea94", "is_reserved": 0, "fusion_lat": 0.0}, {"type": "electric_scooter", "rental_uris": {"ios": "https://dc.lft.to/lastmile_qr_scan", "android": "https://dc.lft.to/lastmile_qr_scan"}, "lon": -77.02333733333333, "fusion_lon": 0.0, "is_disabled": 0, "lat": 38.916791, "bike_id": "60a1e5e289e9bf52b24e7ddaa426af89", "name": "60a1e5e289e9bf52b24e7ddaa426af89", "is_reserved": 0, "fusion_lat": 0.0}, {"type": "electric_bike", "rental_uris": {"ios": "https://dc.lft.to/lastmile_qr_scan", "android": "https://dc.lft.to/lastmile_qr_scan"}, "lon": -76.97091633333334, "fusion_lon": 0.0, "is_disabled": 0, "lat": 38.85716383333333, "bike_id": "f94935c1f8f9ac3cbecf185031612b5e", "name": "f94935c1f8f9ac3cbecf185031612b5e", "is_reserved": 0, "fusion_lat": 0.0}, {"type": "electric_scooter", "rental_uris": {"ios": "https://dc.lft.to/lastmile_qr_scan", "android": "https://dc.lft.to/lastmile_qr_scan"}, "lon": -77.02419483333334, "fusion_lon": 0.0, "is_disabled": 0, "lat": 38.919172, "bike_id": "5714deb393c239a63e8c5ced537f7e96", "name": "5714deb393c239a63e8c5ced537f7e96", "is_reserved": 0, "fusion_lat": 0.0}, {"type": "electric_scooter", "rental_uris": {"ios": "https://dc.lft.to/lastmile_qr_scan", "android": "https://dc.lft.to/lastmile_qr_scan"}, "lon": -76.95758133333334, "fusion_lon": 0.0, "is_disabled": 0, "lat": 38.884275, "bike_id": "55833b47e2a0f3459ec8d5ede1aa2a3c", "name": "55833b47e2a0f3459ec8d5ede1aa2a3c", "is_reserved": 0, "fusion_lat": 0.0}, {"type": "electric_scooter", "rental_uris": {"ios": "https://dc.lft.to/lastmile_qr_scan", "android": "https://dc.lft.to/lastmile_qr_scan"}, "lon": -76.99774416666666, "fusion_lon": 0.0, "is_disabled": 0, "lat": 38.844310166666666, "bike_id": "ed136f47b314d058b3374def31f22eab", "name": "ed136f47b314d058b3374def31f22eab", "is_reserved": 0, "fusion_lat": 0.0}, {"type": "electric_scooter", "rental_uris": {"ios": "https://dc.lft.to/lastmile_qr_scan", "android": "https://dc.lft.to/lastmile_qr_scan"}, "lon": -77.02234816666666, "fusion_lon": 0.0, "is_disabled": 0, "lat": 38.961357666666665, "bike_id": "a66dba87384b3a27dd807a19249177eb", "name": "a66dba87384b3a27dd807a19249177eb", "is_reserved": 0, "fusion_lat": 0.0}, {"type": "electric_scooter", "rental_uris": {"ios": "https://dc.lft.to/lastmile_qr_scan", "android": "https://dc.lft.to/lastmile_qr_scan"}, "lon": -77.04767133333333, "fusion_lon": 0.0, "is_disabled": 0, "lat": 38.91769716666667, "bike_id": "5e95862086b0ac090cdb8b12ac8ee31f", "name": "5e95862086b0ac090cdb8b12ac8ee31f", "is_reserved": 0, "fusion_lat": 0.0}, {"type": "electric_scooter", "rental_uris": {"ios": "https://dc.lft.to/lastmile_qr_scan", "android": "https://dc.lft.to/lastmile_qr_scan"}, "lon": -76.9398835, "fusion_lon": 0.0, "is_disabled": 0, "lat": 38.899803166666665, "bike_id": "f664f6b55774856abe7d6b86a4d04025", "name": "f664f6b55774856abe7d6b86a4d04025", "is_reserved": 0, "fusion_lat": 0.0}, {"type": "electric_scooter", "rental_uris": {"ios": "https://dc.lft.to/lastmile_qr_scan", "android": "https://dc.lft.to/lastmile_qr_scan"}, "lon": -77.03006416666666, "fusion_lon": 0.0, "is_disabled": 0, "lat": 38.92244683333333, "bike_id": "e634756cf5e4559e9918a522797f87aa", "name": "e634756cf5e4559e9918a522797f87aa", "is_reserved": 0, "fusion_lat": 0.0}, {"type": "electric_scooter", "rental_uris": {"ios": "https://dc.lft.to/lastmile_qr_scan", "android": "https://dc.lft.to/lastmile_qr_scan"}, "lon": -77.03367866666666, "fusion_lon": 0.0, "is_disabled": 0, "lat": 38.89227266666666, "bike_id": "743fda92eea64680e45d0a32bc6b81f7", "name": "743fda92eea64680e45d0a32bc6b81f7", "is_reserved": 0, "fusion_lat": 0.0}, {"type": "electric_scooter", "rental_uris": {"ios": "https://dc.lft.to/lastmile_qr_scan", "android": "https://dc.lft.to/lastmile_qr_scan"}, "lon": -76.9977515, "fusion_lon": 0.0, "is_disabled": 0, "lat": 38.84428316666666, "bike_id": "2985f5b5d8e606e1db073b15dfd5c029", "name": "2985f5b5d8e606e1db073b15dfd5c029", "is_reserved": 0, "fusion_lat": 0.0}, {"type": "electric_scooter", "rental_uris": {"ios": "https://dc.lft.to/lastmile_qr_scan", "android": "https://dc.lft.to/lastmile_qr_scan"}, "lon": -77.01893883333334, "fusion_lon": 0.0, "is_disabled": 0, "lat": 38.92375333333333, "bike_id": "c6e8c71534b746e16c2895b2da35b51b", "name": "c6e8c71534b746e16c2895b2da35b51b", "is_reserved": 0, "fusion_lat": 0.0}, {"type": "electric_bike", "rental_uris": {"ios": "https://dc.lft.to/lastmile_qr_scan", "android": "https://dc.lft.to/lastmile_qr_scan"}, "lon": -76.93700266666667, "fusion_lon": 0.0, "is_disabled": 0, "lat": 38.871450833333334, "bike_id": "1a4beaf09d5216e6f966f1c7523c4ae7", "name": "1a4beaf09d5216e6f966f1c7523c4ae7", "is_reserved": 0, "fusion_lat": 0.0}, {"type": "electric_scooter", "rental_uris": {"ios": "https://dc.lft.to/lastmile_qr_scan", "android": "https://dc.lft.to/lastmile_qr_scan"}, "lon": -77.05118333333333, "fusion_lon": 0.0, "is_disabled": 0, "lat": 38.90200983333333, "bike_id": "a7cd2e37366e3443822f70d93d3240b8", "name": "a7cd2e37366e3443822f70d93d3240b8", "is_reserved": 0, "fusion_lat": 0.0}, {"type": "electric_scooter", "rental_uris": {"ios": "https://dc.lft.to/lastmile_qr_scan", "android": "https://dc.lft.to/lastmile_qr_scan"}, "lon": -77.03837183333333, "fusion_lon": 0.0, "is_disabled": 0, "lat": 38.911166, "bike_id": "f1334bf38a0f73dc4be0e14dca8c4346", "name": "f1334bf38a0f73dc4be0e14dca8c4346", "is_reserved": 0, "fusion_lat": 0.0}, {"type": "electric_scooter", "rental_uris": {"ios": "https://dc.lft.to/lastmile_qr_scan", "android": "https://dc.lft.to/lastmile_qr_scan"}, "lon": -77.02802733333333, "fusion_lon": 0.0, "is_disabled": 0, "lat": 38.907354833333336, "bike_id": "25209b726c959adfa34dd870ceb26248", "name": "25209b726c959adfa34dd870ceb26248", "is_reserved": 0, "fusion_lat": 0.0}, {"type": "electric_scooter", "rental_uris": {"ios": "https://dc.lft.to/lastmile_qr_scan", "android": "https://dc.lft.to/lastmile_qr_scan"}, "lon": -76.99515033333333, "fusion_lon": 0.0, "is_disabled": 0, "lat": 38.86256933333333, "bike_id": "5a477f00e18f8491ec33b2c8241e0e4a", "name": "5a477f00e18f8491ec33b2c8241e0e4a", "is_reserved": 0, "fusion_lat": 0.0}, {"type": "electric_scooter", "rental_uris": {"ios": "https://dc.lft.to/lastmile_qr_scan", "android": "https://dc.lft.to/lastmile_qr_scan"}, "lon": -77.02768683333333, "fusion_lon": 0.0, "is_disabled": 0, "lat": 38.898386, "bike_id": "50a1c954373a462ae48d16fb12e2e184", "name": "50a1c954373a462ae48d16fb12e2e184", "is_reserved": 0, "fusion_lat": 0.0}, {"type": "electric_scooter", "rental_uris": {"ios": "https://dc.lft.to/lastmile_qr_scan", "android": "https://dc.lft.to/lastmile_qr_scan"}, "lon": -77.03185333333333, "fusion_lon": 0.0, "is_disabled": 0, "lat": 38.8922905, "bike_id": "cea620385a35e1533a40ccbf33564c86", "name": "cea620385a35e1533a40ccbf33564c86", "is_reserved": 0, "fusion_lat": 0.0}, {"type": "electric_scooter", "rental_uris": {"ios": "https://dc.lft.to/lastmile_qr_scan", "android": "https://dc.lft.to/lastmile_qr_scan"}, "lon": -77.03601266666666, "fusion_lon": 0.0, "is_disabled": 0, "lat": 38.90755766666667, "bike_id": "ee969e3562bcf03da9d337ad07843459", "name": "ee969e3562bcf03da9d337ad07843459", "is_reserved": 0, "fusion_lat": 0.0}, {"type": "electric_scooter", "rental_uris": {"ios": "https://dc.lft.to/lastmile_qr_scan", "android": "https://dc.lft.to/lastmile_qr_scan"}, "lon": -77.03434816666666, "fusion_lon": 0.0, "is_disabled": 0, "lat": 38.90833883333333, "bike_id": "964cbbf52ff5877f80af4eaebb1b5f58", "name": "964cbbf52ff5877f80af4eaebb1b5f58", "is_reserved": 0, "fusion_lat": 0.0}, {"type": "electric_scooter", "rental_uris": {"ios": "https://dc.lft.to/lastmile_qr_scan", "android": "https://dc.lft.to/lastmile_qr_scan"}, "lon": -77.03857666666667, "fusion_lon": 0.0, "is_disabled": 0, "lat": 38.915512, "bike_id": "dcb57527ee47c84cb951ebe61a033ec7", "name": "dcb57527ee47c84cb951ebe61a033ec7", "is_reserved": 0, "fusion_lat": 0.0}, {"type": "electric_scooter", "rental_uris": {"ios": "https://dc.lft.to/lastmile_qr_scan", "android": "https://dc.lft.to/lastmile_qr_scan"}, "lon": -77.02836733333334, "fusion_lon": 0.0, "is_disabled": 0, "lat": 38.892304, "bike_id": "389d38f3d4b7316f13824fd73c1f5e22", "name": "389d38f3d4b7316f13824fd73c1f5e22", "is_reserved": 0, "fusion_lat": 0.0}, {"type": "electric_scooter", "rental_uris": {"ios": "https://dc.lft.to/lastmile_qr_scan", "android": "https://dc.lft.to/lastmile_qr_scan"}, "lon": -77.031608, "fusion_lon": 0.0, "is_disabled": 0, "lat": 38.892244, "bike_id": "7db82415bc60a031f6d6a30b062e2925", "name": "7db82415bc60a031f6d6a30b062e2925", "is_reserved": 0, "fusion_lat": 0.0}, {"type": "electric_scooter", "rental_uris": {"ios": "https://dc.lft.to/lastmile_qr_scan", "android": "https://dc.lft.to/lastmile_qr_scan"}, "lon": -77.03432633333334, "fusion_lon": 0.0, "is_disabled": 0, "lat": 38.909706666666665, "bike_id": "ee033770cda83ac8cf915175812963a4", "name": "ee033770cda83ac8cf915175812963a4", "is_reserved": 0, "fusion_lat": 0.0}, {"type": "electric_scooter", "rental_uris": {"ios": "https://dc.lft.to/lastmile_qr_scan", "android": "https://dc.lft.to/lastmile_qr_scan"}, "lon": -77.05130783333334, "fusion_lon": 0.0, "is_disabled": 0, "lat": 38.92362216666667, "bike_id": "22e5420106731b4b95d4384f1ad96d7a", "name": "22e5420106731b4b95d4384f1ad96d7a", "is_reserved": 0, "fusion_lat": 0.0}, {"type": "electric_scooter", "rental_uris": {"ios": "https://dc.lft.to/lastmile_qr_scan", "android": "https://dc.lft.to/lastmile_qr_scan"}, "lon": -77.018568, "fusion_lon": 0.0, "is_disabled": 0, "lat": 38.973704, "bike_id": "3eebc4c32118f05027cd1ad0d7c00cc3", "name": "3eebc4c32118f05027cd1ad0d7c00cc3", "is_reserved": 0, "fusion_lat": 0.0}, {"type": "electric_scooter", "rental_uris": {"ios": "https://dc.lft.to/lastmile_qr_scan", "android": "https://dc.lft.to/lastmile_qr_scan"}, "lon": -76.9949505, "fusion_lon": 0.0, "is_disabled": 0, "lat": 38.862443, "bike_id": "e2e36bb27e3260bfaa3fb11c189894a6", "name": "e2e36bb27e3260bfaa3fb11c189894a6", "is_reserved": 0, "fusion_lat": 0.0}, {"type": "electric_scooter", "rental_uris": {"ios": "https://dc.lft.to/lastmile_qr_scan", "android": "https://dc.lft.to/lastmile_qr_scan"}, "lon": -77.040774, "fusion_lon": 0.0, "is_disabled": 0, "lat": 38.905119666666664, "bike_id": "c0104bf7fca8a14487d009bfd489e269", "name": "c0104bf7fca8a14487d009bfd489e269", "is_reserved": 0, "fusion_lat": 0.0}, {"type": "electric_scooter", "rental_uris": {"ios": "https://dc.lft.to/lastmile_qr_scan", "android": "https://dc.lft.to/lastmile_qr_scan"}, "lon": -77.0412225, "fusion_lon": 0.0, "is_disabled": 0, "lat": 38.9170815, "bike_id": "823d2e081814ab015de79ae0d49d7d40", "name": "823d2e081814ab015de79ae0d49d7d40", "is_reserved": 0, "fusion_lat": 0.0}, {"type": "electric_bike", "rental_uris": {"ios": "https://dc.lft.to/lastmile_qr_scan", "android": "https://dc.lft.to/lastmile_qr_scan"}, "lon": -77.02129766666667, "fusion_lon": 0.0, "is_disabled": 0, "lat": 38.93581283333333, "bike_id": "eb7216ed82c1fca93a537abeb4773e1d", "name": "eb7216ed82c1fca93a537abeb4773e1d", "is_reserved": 0, "fusion_lat": 0.0}, {"type": "electric_scooter", "rental_uris": {"ios": "https://dc.lft.to/lastmile_qr_scan", "android": "https://dc.lft.to/lastmile_qr_scan"}, "lon": -77.0061715, "fusion_lon": 0.0, "is_disabled": 0, "lat": 38.90652133333333, "bike_id": "c07b358e960e6b2c7278d8def7a2451d", "name": "c07b358e960e6b2c7278d8def7a2451d", "is_reserved": 0, "fusion_lat": 0.0}, {"type": "electric_bike", "rental_uris": {"ios": "https://dc.lft.to/lastmile_qr_scan", "android": "https://dc.lft.to/lastmile_qr_scan"}, "lon": -77.10090383333333, "fusion_lon": 0.0, "is_disabled": 0, "lat": 38.9595555, "bike_id": "fc4854df664bb4ed6e928bfb08b0cba1", "name": "fc4854df664bb4ed6e928bfb08b0cba1", "is_reserved": 0, "fusion_lat": 0.0}, {"type": "electric_scooter", "rental_uris": {"ios": "https://dc.lft.to/lastmile_qr_scan", "android": "https://dc.lft.to/lastmile_qr_scan"}, "lon": -77.02656883333333, "fusion_lon": 0.0, "is_disabled": 0, "lat": 38.89214583333333, "bike_id": "496fe29cfd0c1a26e4acaab858439195", "name": "496fe29cfd0c1a26e4acaab858439195", "is_reserved": 0, "fusion_lat": 0.0}, {"type": "electric_scooter", "rental_uris": {"ios": "https://dc.lft.to/lastmile_qr_scan", "android": "https://dc.lft.to/lastmile_qr_scan"}, "lon": -77.017512, "fusion_lon": 0.0, "is_disabled": 0, "lat": 38.902543333333334, "bike_id": "92f44a4df9ff5de141b9f1d30a796ebe", "name": "92f44a4df9ff5de141b9f1d30a796ebe", "is_reserved": 0, "fusion_lat": 0.0}, {"type": "electric_bike", "rental_uris": {"ios": "https://dc.lft.to/lastmile_qr_scan", "android": "https://dc.lft.to/lastmile_qr_scan"}, "lon": -76.98953666666667, "fusion_lon": 0.0, "is_disabled": 0, "lat": 38.867034, "bike_id": "ca44730b52ff24f9825f4f7f898c8977", "name": "ca44730b52ff24f9825f4f7f898c8977", "is_reserved": 0, "fusion_lat": 0.0}, {"type": "electric_scooter", "rental_uris": {"ios": "https://dc.lft.to/lastmile_qr_scan", "android": "https://dc.lft.to/lastmile_qr_scan"}, "lon": -77.059544, "fusion_lon": 0.0, "is_disabled": 0, "lat": 38.9024735, "bike_id": "aed09093d8e11d657b5b9ffc888861c4", "name": "aed09093d8e11d657b5b9ffc888861c4", "is_reserved": 0, "fusion_lat": 0.0}, {"type": "electric_scooter", "rental_uris": {"ios": "https://dc.lft.to/lastmile_qr_scan", "android": "https://dc.lft.to/lastmile_qr_scan"}, "lon": -77.0326195, "fusion_lon": 0.0, "is_disabled": 0, "lat": 38.91326383333333, "bike_id": "25972642ab3978512f1da63efa0f2d3f", "name": "25972642ab3978512f1da63efa0f2d3f", "is_reserved": 0, "fusion_lat": 0.0}, {"type": "electric_scooter", "rental_uris": {"ios": "https://dc.lft.to/lastmile_qr_scan", "android": "https://dc.lft.to/lastmile_qr_scan"}, "lon": -77.03763266666667, "fusion_lon": 0.0, "is_disabled": 0, "lat": 38.92973966666667, "bike_id": "4f9782b55659eb289c5afd6b5a3d620d", "name": "4f9782b55659eb289c5afd6b5a3d620d", "is_reserved": 0, "fusion_lat": 0.0}, {"type": "electric_scooter", "rental_uris": {"ios": "https://dc.lft.to/lastmile_qr_scan", "android": "https://dc.lft.to/lastmile_qr_scan"}, "lon": -77.03867533333333, "fusion_lon": 0.0, "is_disabled": 0, "lat": 38.91261383333333, "bike_id": "fb79885e9ee529c3032ea4818daa7fd6", "name": "fb79885e9ee529c3032ea4818daa7fd6", "is_reserved": 0, "fusion_lat": 0.0}, {"type": "electric_scooter", "rental_uris": {"ios": "https://dc.lft.to/lastmile_qr_scan", "android": "https://dc.lft.to/lastmile_qr_scan"}, "lon": -77.03870083333334, "fusion_lon": 0.0, "is_disabled": 0, "lat": 38.934612, "bike_id": "cf60651c48caa80e73f1819eed7232e4", "name": "cf60651c48caa80e73f1819eed7232e4", "is_reserved": 0, "fusion_lat": 0.0}, {"type": "electric_scooter", "rental_uris": {"ios": "https://dc.lft.to/lastmile_qr_scan", "android": "https://dc.lft.to/lastmile_qr_scan"}, "lon": -77.03622866666667, "fusion_lon": 0.0, "is_disabled": 0, "lat": 38.93687283333333, "bike_id": "31728acbcc806a3a8ffa501471b70964", "name": "31728acbcc806a3a8ffa501471b70964", "is_reserved": 0, "fusion_lat": 0.0}, {"type": "electric_scooter", "rental_uris": {"ios": "https://dc.lft.to/lastmile_qr_scan", "android": "https://dc.lft.to/lastmile_qr_scan"}, "lon": -77.04682866666667, "fusion_lon": 0.0, "is_disabled": 0, "lat": 38.892259, "bike_id": "967638112ca6e4e89be60e1ecdb12104", "name": "967638112ca6e4e89be60e1ecdb12104", "is_reserved": 0, "fusion_lat": 0.0}, {"type": "electric_scooter", "rental_uris": {"ios": "https://dc.lft.to/lastmile_qr_scan", "android": "https://dc.lft.to/lastmile_qr_scan"}, "lon": -77.0426255, "fusion_lon": 0.0, "is_disabled": 0, "lat": 38.917046166666665, "bike_id": "f7bb4e596378f2d8ee477833d885ca81", "name": "f7bb4e596378f2d8ee477833d885ca81", "is_reserved": 0, "fusion_lat": 0.0}, {"type": "electric_scooter", "rental_uris": {"ios": "https://dc.lft.to/lastmile_qr_scan", "android": "https://dc.lft.to/lastmile_qr_scan"}, "lon": -77.0586015, "fusion_lon": 0.0, "is_disabled": 0, "lat": 38.936094833333335, "bike_id": "e58daf259ef00acbf060f0d0bac13ac6", "name": "e58daf259ef00acbf060f0d0bac13ac6", "is_reserved": 0, "fusion_lat": 0.0}, {"type": "electric_bike", "rental_uris": {"ios": "https://dc.lft.to/lastmile_qr_scan", "android": "https://dc.lft.to/lastmile_qr_scan"}, "lon": -76.9249565, "fusion_lon": 0.0, "is_disabled": 0, "lat": 38.9589875, "bike_id": "6c716a64d095742539701c1c5612dace", "name": "6c716a64d095742539701c1c5612dace", "is_reserved": 0, "fusion_lat": 0.0}, {"type": "electric_scooter", "rental_uris": {"ios": "https://dc.lft.to/lastmile_qr_scan", "android": "https://dc.lft.to/lastmile_qr_scan"}, "lon": -76.97624633333334, "fusion_lon": 0.0, "is_disabled": 0, "lat": 38.89875583333333, "bike_id": "5c953db1d89f141f75904816aa2121e4", "name": "5c953db1d89f141f75904816aa2121e4", "is_reserved": 0, "fusion_lat": 0.0}, {"type": "electric_scooter", "rental_uris": {"ios": "https://dc.lft.to/lastmile_qr_scan", "android": "https://dc.lft.to/lastmile_qr_scan"}, "lon": -76.96526833333333, "fusion_lon": 0.0, "is_disabled": 0, "lat": 38.876255, "bike_id": "05a0c573362f823ec48a771117d43a2c", "name": "05a0c573362f823ec48a771117d43a2c", "is_reserved": 0, "fusion_lat": 0.0}, {"type": "electric_scooter", "rental_uris": {"ios": "https://dc.lft.to/lastmile_qr_scan", "android": "https://dc.lft.to/lastmile_qr_scan"}, "lon": -76.941546, "fusion_lon": 0.0, "is_disabled": 0, "lat": 38.88364116666666, "bike_id": "d8d5fd5b386dd6fe15c239542583eb1b", "name": "d8d5fd5b386dd6fe15c239542583eb1b", "is_reserved": 0, "fusion_lat": 0.0}, {"type": "electric_scooter", "rental_uris": {"ios": "https://dc.lft.to/lastmile_qr_scan", "android": "https://dc.lft.to/lastmile_qr_scan"}, "lon": -77.0396075, "fusion_lon": 0.0, "is_disabled": 0, "lat": 38.899085, "bike_id": "4b65b3242fdfe82c7bd22803a92e6bce", "name": "4b65b3242fdfe82c7bd22803a92e6bce", "is_reserved": 0, "fusion_lat": 0.0}, {"type": "electric_scooter", "rental_uris": {"ios": "https://dc.lft.to/lastmile_qr_scan", "android": "https://dc.lft.to/lastmile_qr_scan"}, "lon": -77.0059455, "fusion_lon": 0.0, "is_disabled": 0, "lat": 38.905767166666664, "bike_id": "e4b6302a6c93fa06074a714293d56e12", "name": "e4b6302a6c93fa06074a714293d56e12", "is_reserved": 0, "fusion_lat": 0.0}, {"type": "electric_scooter", "rental_uris": {"ios": "https://dc.lft.to/lastmile_qr_scan", "android": "https://dc.lft.to/lastmile_qr_scan"}, "lon": -77.02982033333333, "fusion_lon": 0.0, "is_disabled": 0, "lat": 38.916934166666664, "bike_id": "48657bfe55630f7f5d68184631056d5d", "name": "48657bfe55630f7f5d68184631056d5d", "is_reserved": 0, "fusion_lat": 0.0}, {"type": "electric_scooter", "rental_uris": {"ios": "https://dc.lft.to/lastmile_qr_scan", "android": "https://dc.lft.to/lastmile_qr_scan"}, "lon": -77.02631633333333, "fusion_lon": 0.0, "is_disabled": 0, "lat": 38.9253425, "bike_id": "79d85f158f8a910beaf8b9c1c9b2fc64", "name": "79d85f158f8a910beaf8b9c1c9b2fc64", "is_reserved": 0, "fusion_lat": 0.0}, {"type": "electric_scooter", "rental_uris": {"ios": "https://dc.lft.to/lastmile_qr_scan", "android": "https://dc.lft.to/lastmile_qr_scan"}, "lon": -77.07888383333334, "fusion_lon": 0.0, "is_disabled": 0, "lat": 38.92065566666667, "bike_id": "4f8ebd24d4267556dbc2e4e247cb8c71", "name": "4f8ebd24d4267556dbc2e4e247cb8c71", "is_reserved": 0, "fusion_lat": 0.0}, {"type": "electric_scooter", "rental_uris": {"ios": "https://dc.lft.to/lastmile_qr_scan", "android": "https://dc.lft.to/lastmile_qr_scan"}, "lon": -77.00602133333334, "fusion_lon": 0.0, "is_disabled": 0, "lat": 38.905713, "bike_id": "a670570ce68673b21785f5b7fa18eeb7", "name": "a670570ce68673b21785f5b7fa18eeb7", "is_reserved": 0, "fusion_lat": 0.0}, {"type": "electric_scooter", "rental_uris": {"ios": "https://dc.lft.to/lastmile_qr_scan", "android": "https://dc.lft.to/lastmile_qr_scan"}, "lon": -77.02170633333333, "fusion_lon": 0.0, "is_disabled": 0, "lat": 38.9428905, "bike_id": "b3a3796067b00663950ec6c6f7fef65e", "name": "b3a3796067b00663950ec6c6f7fef65e", "is_reserved": 0, "fusion_lat": 0.0}, {"type": "electric_scooter", "rental_uris": {"ios": "https://dc.lft.to/lastmile_qr_scan", "android": "https://dc.lft.to/lastmile_qr_scan"}, "lon": -77.04142033333333, "fusion_lon": 0.0, "is_disabled": 0, "lat": 38.89221883333333, "bike_id": "7d0ea8e910c3bd04b787e3e73eb5767e", "name": "7d0ea8e910c3bd04b787e3e73eb5767e", "is_reserved": 0, "fusion_lat": 0.0}, {"type": "electric_scooter", "rental_uris": {"ios": "https://dc.lft.to/lastmile_qr_scan", "android": "https://dc.lft.to/lastmile_qr_scan"}, "lon": -77.0266685, "fusion_lon": 0.0, "is_disabled": 0, "lat": 38.91711333333333, "bike_id": "1b8e057cb4322d0d6153a513d4341053", "name": "1b8e057cb4322d0d6153a513d4341053", "is_reserved": 0, "fusion_lat": 0.0}, {"type": "electric_bike", "rental_uris": {"ios": "https://dc.lft.to/lastmile_qr_scan", "android": "https://dc.lft.to/lastmile_qr_scan"}, "lon": -77.0777425, "fusion_lon": 0.0, "is_disabled": 0, "lat": 38.930478666666666, "bike_id": "3176bee50b2df638046c80222a1cfa06", "name": "3176bee50b2df638046c80222a1cfa06", "is_reserved": 0, "fusion_lat": 0.0}, {"type": "electric_scooter", "rental_uris": {"ios": "https://dc.lft.to/lastmile_qr_scan", "android": "https://dc.lft.to/lastmile_qr_scan"}, "lon": -77.0176655, "fusion_lon": 0.0, "is_disabled": 0, "lat": 38.87721833333333, "bike_id": "3618d0bcd5b67876941dc83f128979d8", "name": "3618d0bcd5b67876941dc83f128979d8", "is_reserved": 0, "fusion_lat": 0.0}, {"type": "electric_scooter", "rental_uris": {"ios": "https://dc.lft.to/lastmile_qr_scan", "android": "https://dc.lft.to/lastmile_qr_scan"}, "lon": -77.03394866666666, "fusion_lon": 0.0, "is_disabled": 0, "lat": 38.9071535, "bike_id": "bd18ffed707ef200d85c8e9ef56362e7", "name": "bd18ffed707ef200d85c8e9ef56362e7", "is_reserved": 0, "fusion_lat": 0.0}, {"type": "electric_scooter", "rental_uris": {"ios": "https://dc.lft.to/lastmile_qr_scan", "android": "https://dc.lft.to/lastmile_qr_scan"}, "lon": -77.02691066666667, "fusion_lon": 0.0, "is_disabled": 0, "lat": 38.91820533333333, "bike_id": "89607120a5f22d3c2d36666ff2591463", "name": "89607120a5f22d3c2d36666ff2591463", "is_reserved": 0, "fusion_lat": 0.0}, {"type": "electric_scooter", "rental_uris": {"ios": "https://dc.lft.to/lastmile_qr_scan", "android": "https://dc.lft.to/lastmile_qr_scan"}, "lon": -77.026935, "fusion_lon": 0.0, "is_disabled": 0, "lat": 38.906810166666666, "bike_id": "6284bb6db89fb0927d005f1a767dbfe7", "name": "6284bb6db89fb0927d005f1a767dbfe7", "is_reserved": 0, "fusion_lat": 0.0}, {"type": "electric_scooter", "rental_uris": {"ios": "https://dc.lft.to/lastmile_qr_scan", "android": "https://dc.lft.to/lastmile_qr_scan"}, "lon": -77.0297295, "fusion_lon": 0.0, "is_disabled": 0, "lat": 38.916836333333336, "bike_id": "60bfe491f381ca7263f81fb371b624aa", "name": "60bfe491f381ca7263f81fb371b624aa", "is_reserved": 0, "fusion_lat": 0.0}, {"type": "electric_scooter", "rental_uris": {"ios": "https://dc.lft.to/lastmile_qr_scan", "android": "https://dc.lft.to/lastmile_qr_scan"}, "lon": -77.0260555, "fusion_lon": 0.0, "is_disabled": 0, "lat": 38.905596333333335, "bike_id": "f4fbf69390049ccfa8b508013f600038", "name": "f4fbf69390049ccfa8b508013f600038", "is_reserved": 0, "fusion_lat": 0.0}, {"type": "electric_scooter", "rental_uris": {"ios": "https://dc.lft.to/lastmile_qr_scan", "android": "https://dc.lft.to/lastmile_qr_scan"}, "lon": -77.01482, "fusion_lon": 0.0, "is_disabled": 0, "lat": 38.88816883333333, "bike_id": "ed763065cbdd3d0a61bcdfd59855b3c4", "name": "ed763065cbdd3d0a61bcdfd59855b3c4", "is_reserved": 0, "fusion_lat": 0.0}, {"type": "electric_scooter", "rental_uris": {"ios": "https://dc.lft.to/lastmile_qr_scan", "android": "https://dc.lft.to/lastmile_qr_scan"}, "lon": -77.0241215, "fusion_lon": 0.0, "is_disabled": 0, "lat": 38.89198416666667, "bike_id": "fd2e8162813299f9cb03ffb21b276f16", "name": "fd2e8162813299f9cb03ffb21b276f16", "is_reserved": 0, "fusion_lat": 0.0}, {"type": "electric_scooter", "rental_uris": {"ios": "https://dc.lft.to/lastmile_qr_scan", "android": "https://dc.lft.to/lastmile_qr_scan"}, "lon": -77.029077, "fusion_lon": 0.0, "is_disabled": 0, "lat": 38.925731999999996, "bike_id": "4739e0e925c85af196e4575e7afdc0bf", "name": "4739e0e925c85af196e4575e7afdc0bf", "is_reserved": 0, "fusion_lat": 0.0}, {"type": "electric_scooter", "rental_uris": {"ios": "https://dc.lft.to/lastmile_qr_scan", "android": "https://dc.lft.to/lastmile_qr_scan"}, "lon": -77.03092516666666, "fusion_lon": 0.0, "is_disabled": 0, "lat": 38.879201333333334, "bike_id": "8673136de55efdb69c9393d3c427c68b", "name": "8673136de55efdb69c9393d3c427c68b", "is_reserved": 0, "fusion_lat": 0.0}, {"type": "electric_scooter", "rental_uris": {"ios": "https://dc.lft.to/lastmile_qr_scan", "android": "https://dc.lft.to/lastmile_qr_scan"}, "lon": -76.93183583333334, "fusion_lon": 0.0, "is_disabled": 0, "lat": 38.89878916666667, "bike_id": "fc12de658a6a7bb3316cee353454e874", "name": "fc12de658a6a7bb3316cee353454e874", "is_reserved": 0, "fusion_lat": 0.0}, {"type": "electric_bike", "rental_uris": {"ios": "https://dc.lft.to/lastmile_qr_scan", "android": "https://dc.lft.to/lastmile_qr_scan"}, "lon": -77.10127516666667, "fusion_lon": 0.0, "is_disabled": 0, "lat": 38.852070833333336, "bike_id": "733927ad1fe302e85b126d6d8e9ac274", "name": "733927ad1fe302e85b126d6d8e9ac274", "is_reserved": 0, "fusion_lat": 0.0}, {"type": "electric_scooter", "rental_uris": {"ios": "https://dc.lft.to/lastmile_qr_scan", "android": "https://dc.lft.to/lastmile_qr_scan"}, "lon": -77.0481595, "fusion_lon": 0.0, "is_disabled": 0, "lat": 38.905409, "bike_id": "40af8988fdaf2db3d1e1ea607b5cb9aa", "name": "40af8988fdaf2db3d1e1ea607b5cb9aa", "is_reserved": 0, "fusion_lat": 0.0}, {"type": "electric_scooter", "rental_uris": {"ios": "https://dc.lft.to/lastmile_qr_scan", "android": "https://dc.lft.to/lastmile_qr_scan"}, "lon": -76.9905325, "fusion_lon": 0.0, "is_disabled": 0, "lat": 38.87173533333333, "bike_id": "0b746c85c40a9e8cb9ca9a538a023831", "name": "0b746c85c40a9e8cb9ca9a538a023831", "is_reserved": 0, "fusion_lat": 0.0}, {"type": "electric_scooter", "rental_uris": {"ios": "https://dc.lft.to/lastmile_qr_scan", "android": "https://dc.lft.to/lastmile_qr_scan"}, "lon": -77.03273466666667, "fusion_lon": 0.0, "is_disabled": 0, "lat": 38.932477666666664, "bike_id": "5d4f203da6e7e4a861ad446e51cf4616", "name": "5d4f203da6e7e4a861ad446e51cf4616", "is_reserved": 0, "fusion_lat": 0.0}, {"type": "electric_scooter", "rental_uris": {"ios": "https://dc.lft.to/lastmile_qr_scan", "android": "https://dc.lft.to/lastmile_qr_scan"}, "lon": -77.04333, "fusion_lon": 0.0, "is_disabled": 0, "lat": 38.89222816666667, "bike_id": "b252e01b57b9b8c2db53ecccf448e6d0", "name": "b252e01b57b9b8c2db53ecccf448e6d0", "is_reserved": 0, "fusion_lat": 0.0}, {"type": "electric_scooter", "rental_uris": {"ios": "https://dc.lft.to/lastmile_qr_scan", "android": "https://dc.lft.to/lastmile_qr_scan"}, "lon": -77.03269816666666, "fusion_lon": 0.0, "is_disabled": 0, "lat": 38.935197, "bike_id": "cb7a271cdbc0aa61b8589e615542db87", "name": "cb7a271cdbc0aa61b8589e615542db87", "is_reserved": 0, "fusion_lat": 0.0}, {"type": "electric_scooter", "rental_uris": {"ios": "https://dc.lft.to/lastmile_qr_scan", "android": "https://dc.lft.to/lastmile_qr_scan"}, "lon": -77.036392, "fusion_lon": 0.0, "is_disabled": 0, "lat": 38.9371325, "bike_id": "07cbce8a5b1fbad5f34e854a07ee56c6", "name": "07cbce8a5b1fbad5f34e854a07ee56c6", "is_reserved": 0, "fusion_lat": 0.0}, {"type": "electric_scooter", "rental_uris": {"ios": "https://dc.lft.to/lastmile_qr_scan", "android": "https://dc.lft.to/lastmile_qr_scan"}, "lon": -77.024969, "fusion_lon": 0.0, "is_disabled": 0, "lat": 38.91806866666667, "bike_id": "bb7ec5e26744c1f841c404213f9983a9", "name": "bb7ec5e26744c1f841c404213f9983a9", "is_reserved": 0, "fusion_lat": 0.0}, {"type": "electric_scooter", "rental_uris": {"ios": "https://dc.lft.to/lastmile_qr_scan", "android": "https://dc.lft.to/lastmile_qr_scan"}, "lon": -77.04418383333334, "fusion_lon": 0.0, "is_disabled": 0, "lat": 38.92524566666667, "bike_id": "a588d3863696e5394061c8fc75d55cc1", "name": "a588d3863696e5394061c8fc75d55cc1", "is_reserved": 0, "fusion_lat": 0.0}, {"type": "electric_scooter", "rental_uris": {"ios": "https://dc.lft.to/lastmile_qr_scan", "android": "https://dc.lft.to/lastmile_qr_scan"}, "lon": -76.99362083333334, "fusion_lon": 0.0, "is_disabled": 0, "lat": 38.90026966666667, "bike_id": "cf0c02a3469392032d701011a5188045", "name": "cf0c02a3469392032d701011a5188045", "is_reserved": 0, "fusion_lat": 0.0}, {"type": "electric_scooter", "rental_uris": {"ios": "https://dc.lft.to/lastmile_qr_scan", "android": "https://dc.lft.to/lastmile_qr_scan"}, "lon": -77.03260183333333, "fusion_lon": 0.0, "is_disabled": 0, "lat": 38.937751166666665, "bike_id": "cb30e028305162c92c0cae8e3ce77411", "name": "cb30e028305162c92c0cae8e3ce77411", "is_reserved": 0, "fusion_lat": 0.0}, {"type": "electric_scooter", "rental_uris": {"ios": "https://dc.lft.to/lastmile_qr_scan", "android": "https://dc.lft.to/lastmile_qr_scan"}, "lon": -77.0230875, "fusion_lon": 0.0, "is_disabled": 0, "lat": 38.9178475, "bike_id": "55ff680887487779b7c73bb50f28297c", "name": "55ff680887487779b7c73bb50f28297c", "is_reserved": 0, "fusion_lat": 0.0}, {"type": "electric_scooter", "rental_uris": {"ios": "https://dc.lft.to/lastmile_qr_scan", "android": "https://dc.lft.to/lastmile_qr_scan"}, "lon": -77.02811666666666, "fusion_lon": 0.0, "is_disabled": 0, "lat": 38.89230033333333, "bike_id": "5bf38c3407f73754e12d04676b1d5c1a", "name": "5bf38c3407f73754e12d04676b1d5c1a", "is_reserved": 0, "fusion_lat": 0.0}, {"type": "electric_scooter", "rental_uris": {"ios": "https://dc.lft.to/lastmile_qr_scan", "android": "https://dc.lft.to/lastmile_qr_scan"}, "lon": -77.02012183333333, "fusion_lon": 0.0, "is_disabled": 0, "lat": 38.91119966666667, "bike_id": "cf8a1f112f2d06791f64faba63a92c0a", "name": "cf8a1f112f2d06791f64faba63a92c0a", "is_reserved": 0, "fusion_lat": 0.0}, {"type": "electric_scooter", "rental_uris": {"ios": "https://dc.lft.to/lastmile_qr_scan", "android": "https://dc.lft.to/lastmile_qr_scan"}, "lon": -77.031818, "fusion_lon": 0.0, "is_disabled": 0, "lat": 38.91815916666667, "bike_id": "2c5dbc8713ae7acd643de6966a580d8f", "name": "2c5dbc8713ae7acd643de6966a580d8f", "is_reserved": 0, "fusion_lat": 0.0}, {"type": "electric_scooter", "rental_uris": {"ios": "https://dc.lft.to/lastmile_qr_scan", "android": "https://dc.lft.to/lastmile_qr_scan"}, "lon": -77.048411, "fusion_lon": 0.0, "is_disabled": 0, "lat": 38.91049866666667, "bike_id": "56955148ca42c080bd9f340c5a74c3a4", "name": "56955148ca42c080bd9f340c5a74c3a4", "is_reserved": 0, "fusion_lat": 0.0}, {"type": "electric_scooter", "rental_uris": {"ios": "https://dc.lft.to/lastmile_qr_scan", "android": "https://dc.lft.to/lastmile_qr_scan"}, "lon": -77.04686083333333, "fusion_lon": 0.0, "is_disabled": 0, "lat": 38.892214, "bike_id": "ac8df2409e39dc829696175eaded9176", "name": "ac8df2409e39dc829696175eaded9176", "is_reserved": 0, "fusion_lat": 0.0}, {"type": "electric_scooter", "rental_uris": {"ios": "https://dc.lft.to/lastmile_qr_scan", "android": "https://dc.lft.to/lastmile_qr_scan"}, "lon": -77.04197383333333, "fusion_lon": 0.0, "is_disabled": 0, "lat": 38.91870333333333, "bike_id": "9f73a3ab2bbdbf9ec98bd2941b6d5bab", "name": "9f73a3ab2bbdbf9ec98bd2941b6d5bab", "is_reserved": 0, "fusion_lat": 0.0}, {"type": "electric_scooter", "rental_uris": {"ios": "https://dc.lft.to/lastmile_qr_scan", "android": "https://dc.lft.to/lastmile_qr_scan"}, "lon": -77.04140416666667, "fusion_lon": 0.0, "is_disabled": 0, "lat": 38.89354483333334, "bike_id": "0cf46ed8da8e8de810c03fe1ba09a12f", "name": "0cf46ed8da8e8de810c03fe1ba09a12f", "is_reserved": 0, "fusion_lat": 0.0}, {"type": "electric_scooter", "rental_uris": {"ios": "https://dc.lft.to/lastmile_qr_scan", "android": "https://dc.lft.to/lastmile_qr_scan"}, "lon": -76.996947, "fusion_lon": 0.0, "is_disabled": 0, "lat": 38.844337, "bike_id": "504e0d8f83e52d5fbdb1a4db4e2da868", "name": "504e0d8f83e52d5fbdb1a4db4e2da868", "is_reserved": 0, "fusion_lat": 0.0}, {"type": "electric_scooter", "rental_uris": {"ios": "https://dc.lft.to/lastmile_qr_scan", "android": "https://dc.lft.to/lastmile_qr_scan"}, "lon": -77.04500266666666, "fusion_lon": 0.0, "is_disabled": 0, "lat": 38.91593366666667, "bike_id": "d248f642f722b7c75ba80b15c70b659b", "name": "d248f642f722b7c75ba80b15c70b659b", "is_reserved": 0, "fusion_lat": 0.0}, {"type": "electric_bike", "rental_uris": {"ios": "https://dc.lft.to/lastmile_qr_scan", "android": "https://dc.lft.to/lastmile_qr_scan"}, "lon": -77.020939, "fusion_lon": 0.0, "is_disabled": 0, "lat": 38.937160666666664, "bike_id": "ae34a64dd3757e223666a14598c27f5e", "name": "ae34a64dd3757e223666a14598c27f5e", "is_reserved": 0, "fusion_lat": 0.0}, {"type": "electric_bike", "rental_uris": {"ios": "https://dc.lft.to/lastmile_qr_scan", "android": "https://dc.lft.to/lastmile_qr_scan"}, "lon": -77.02618533333333, "fusion_lon": 0.0, "is_disabled": 0, "lat": 38.9693065, "bike_id": "f161d6e58ac736d437d3e8c0d8a0d83b", "name": "f161d6e58ac736d437d3e8c0d8a0d83b", "is_reserved": 0, "fusion_lat": 0.0}, {"type": "electric_scooter", "rental_uris": {"ios": "https://dc.lft.to/lastmile_qr_scan", "android": "https://dc.lft.to/lastmile_qr_scan"}, "lon": -76.96530866666667, "fusion_lon": 0.0, "is_disabled": 0, "lat": 38.87628016666667, "bike_id": "4039ed6109a1772ecef4cf6418a7c9f4", "name": "4039ed6109a1772ecef4cf6418a7c9f4", "is_reserved": 0, "fusion_lat": 0.0}, {"type": "electric_scooter", "rental_uris": {"ios": "https://dc.lft.to/lastmile_qr_scan", "android": "https://dc.lft.to/lastmile_qr_scan"}, "lon": -76.96527833333333, "fusion_lon": 0.0, "is_disabled": 0, "lat": 38.876279333333336, "bike_id": "d51b9fd442bfbd37490fc696264a45f2", "name": "d51b9fd442bfbd37490fc696264a45f2", "is_reserved": 0, "fusion_lat": 0.0}, {"type": "electric_scooter", "rental_uris": {"ios": "https://dc.lft.to/lastmile_qr_scan", "android": "https://dc.lft.to/lastmile_qr_scan"}, "lon": -77.031699, "fusion_lon": 0.0, "is_disabled": 0, "lat": 38.91603116666667, "bike_id": "843e0e7ebba5174bc7738b1cc65867f9", "name": "843e0e7ebba5174bc7738b1cc65867f9", "is_reserved": 0, "fusion_lat": 0.0}, {"type": "electric_scooter", "rental_uris": {"ios": "https://dc.lft.to/lastmile_qr_scan", "android": "https://dc.lft.to/lastmile_qr_scan"}, "lon": -77.02289533333334, "fusion_lon": 0.0, "is_disabled": 0, "lat": 38.914451666666665, "bike_id": "2f4dd789cc58c4fd11d9ddcc489fb51b", "name": "2f4dd789cc58c4fd11d9ddcc489fb51b", "is_reserved": 0, "fusion_lat": 0.0}, {"type": "electric_scooter", "rental_uris": {"ios": "https://dc.lft.to/lastmile_qr_scan", "android": "https://dc.lft.to/lastmile_qr_scan"}, "lon": -77.03662, "fusion_lon": 0.0, "is_disabled": 0, "lat": 38.9225425, "bike_id": "a16b0fb6c7362996fb7335a3cd30adcd", "name": "a16b0fb6c7362996fb7335a3cd30adcd", "is_reserved": 0, "fusion_lat": 0.0}, {"type": "electric_scooter", "rental_uris": {"ios": "https://dc.lft.to/lastmile_qr_scan", "android": "https://dc.lft.to/lastmile_qr_scan"}, "lon": -77.038732, "fusion_lon": 0.0, "is_disabled": 0, "lat": 38.906358833333336, "bike_id": "9929c715ed23a3c578a892ee44ca6ad2", "name": "9929c715ed23a3c578a892ee44ca6ad2", "is_reserved": 0, "fusion_lat": 0.0}, {"type": "electric_bike", "rental_uris": {"ios": "https://dc.lft.to/lastmile_qr_scan", "android": "https://dc.lft.to/lastmile_qr_scan"}, "lon": -77.11798416666667, "fusion_lon": 0.0, "is_disabled": 0, "lat": 38.873748166666665, "bike_id": "e98a93cb26a5fea7fa91321f1deb819a", "name": "e98a93cb26a5fea7fa91321f1deb819a", "is_reserved": 0, "fusion_lat": 0.0}, {"type": "electric_scooter", "rental_uris": {"ios": "https://dc.lft.to/lastmile_qr_scan", "android": "https://dc.lft.to/lastmile_qr_scan"}, "lon": -77.044752, "fusion_lon": 0.0, "is_disabled": 0, "lat": 38.91112283333333, "bike_id": "0db2d49653c54493e1fe2790239e45c3", "name": "0db2d49653c54493e1fe2790239e45c3", "is_reserved": 0, "fusion_lat": 0.0}, {"type": "electric_scooter", "rental_uris": {"ios": "https://dc.lft.to/lastmile_qr_scan", "android": "https://dc.lft.to/lastmile_qr_scan"}, "lon": -77.04645816666667, "fusion_lon": 0.0, "is_disabled": 0, "lat": 38.8921845, "bike_id": "bb893603a3e06a15e1c6bfc8d2b35e24", "name": "bb893603a3e06a15e1c6bfc8d2b35e24", "is_reserved": 0, "fusion_lat": 0.0}, {"type": "electric_scooter", "rental_uris": {"ios": "https://dc.lft.to/lastmile_qr_scan", "android": "https://dc.lft.to/lastmile_qr_scan"}, "lon": -77.05764066666667, "fusion_lon": 0.0, "is_disabled": 0, "lat": 38.92471333333334, "bike_id": "0e08a5e45b6f35c88919833f4e8540a3", "name": "0e08a5e45b6f35c88919833f4e8540a3", "is_reserved": 0, "fusion_lat": 0.0}, {"type": "electric_scooter", "rental_uris": {"ios": "https://dc.lft.to/lastmile_qr_scan", "android": "https://dc.lft.to/lastmile_qr_scan"}, "lon": -77.03634516666666, "fusion_lon": 0.0, "is_disabled": 0, "lat": 38.916796, "bike_id": "ac5d447bc741b36000891454866a4507", "name": "ac5d447bc741b36000891454866a4507", "is_reserved": 0, "fusion_lat": 0.0}, {"type": "electric_bike", "rental_uris": {"ios": "https://dc.lft.to/lastmile_qr_scan", "android": "https://dc.lft.to/lastmile_qr_scan"}, "lon": -77.037279, "fusion_lon": 0.0, "is_disabled": 0, "lat": 38.920313, "bike_id": "28b823506a08b227deee9230168f094b", "name": "28b823506a08b227deee9230168f094b", "is_reserved": 0, "fusion_lat": 0.0}, {"type": "electric_scooter", "rental_uris": {"ios": "https://dc.lft.to/lastmile_qr_scan", "android": "https://dc.lft.to/lastmile_qr_scan"}, "lon": -77.03865966666666, "fusion_lon": 0.0, "is_disabled": 0, "lat": 38.9103505, "bike_id": "fcf240ca652734bafd1bf4f510672c55", "name": "fcf240ca652734bafd1bf4f510672c55", "is_reserved": 0, "fusion_lat": 0.0}, {"type": "electric_scooter", "rental_uris": {"ios": "https://dc.lft.to/lastmile_qr_scan", "android": "https://dc.lft.to/lastmile_qr_scan"}, "lon": -77.02984416666666, "fusion_lon": 0.0, "is_disabled": 0, "lat": 38.905094, "bike_id": "0255d1926386e83f8cc3cda555ff282d", "name": "0255d1926386e83f8cc3cda555ff282d", "is_reserved": 0, "fusion_lat": 0.0}, {"type": "electric_scooter", "rental_uris": {"ios": "https://dc.lft.to/lastmile_qr_scan", "android": "https://dc.lft.to/lastmile_qr_scan"}, "lon": -77.05021033333334, "fusion_lon": 0.0, "is_disabled": 0, "lat": 38.9066415, "bike_id": "d0e338f4a4b98189d29ab8ac4bab2583", "name": "d0e338f4a4b98189d29ab8ac4bab2583", "is_reserved": 0, "fusion_lat": 0.0}, {"type": "electric_scooter", "rental_uris": {"ios": "https://dc.lft.to/lastmile_qr_scan", "android": "https://dc.lft.to/lastmile_qr_scan"}, "lon": -77.01768433333334, "fusion_lon": 0.0, "is_disabled": 0, "lat": 38.881438, "bike_id": "e42c6532e920ab3bac9159d3a202e567", "name": "e42c6532e920ab3bac9159d3a202e567", "is_reserved": 0, "fusion_lat": 0.0}, {"type": "electric_scooter", "rental_uris": {"ios": "https://dc.lft.to/lastmile_qr_scan", "android": "https://dc.lft.to/lastmile_qr_scan"}, "lon": -77.028194, "fusion_lon": 0.0, "is_disabled": 0, "lat": 38.887322833333336, "bike_id": "6744c7195c9fd33e59fd5849ac29b486", "name": "6744c7195c9fd33e59fd5849ac29b486", "is_reserved": 0, "fusion_lat": 0.0}, {"type": "electric_scooter", "rental_uris": {"ios": "https://dc.lft.to/lastmile_qr_scan", "android": "https://dc.lft.to/lastmile_qr_scan"}, "lon": -76.98523783333333, "fusion_lon": 0.0, "is_disabled": 0, "lat": 38.91553183333333, "bike_id": "7f47b13056e808818d7b3519ceb5af6c", "name": "7f47b13056e808818d7b3519ceb5af6c", "is_reserved": 0, "fusion_lat": 0.0}, {"type": "electric_scooter", "rental_uris": {"ios": "https://dc.lft.to/lastmile_qr_scan", "android": "https://dc.lft.to/lastmile_qr_scan"}, "lon": -77.03857533333333, "fusion_lon": 0.0, "is_disabled": 0, "lat": 38.91169816666667, "bike_id": "a1056bcd73091585eb2e06a70e86b74a", "name": "a1056bcd73091585eb2e06a70e86b74a", "is_reserved": 0, "fusion_lat": 0.0}, {"type": "electric_scooter", "rental_uris": {"ios": "https://dc.lft.to/lastmile_qr_scan", "android": "https://dc.lft.to/lastmile_qr_scan"}, "lon": -77.05470016666666, "fusion_lon": 0.0, "is_disabled": 0, "lat": 38.8960915, "bike_id": "93eee30316e1f60baa4b38ca71b558a4", "name": "93eee30316e1f60baa4b38ca71b558a4", "is_reserved": 0, "fusion_lat": 0.0}, {"type": "electric_scooter", "rental_uris": {"ios": "https://dc.lft.to/lastmile_qr_scan", "android": "https://dc.lft.to/lastmile_qr_scan"}, "lon": -77.02612566666667, "fusion_lon": 0.0, "is_disabled": 0, "lat": 38.914133666666665, "bike_id": "7706e8811bb7acf287fea088ad93bf9b", "name": "7706e8811bb7acf287fea088ad93bf9b", "is_reserved": 0, "fusion_lat": 0.0}, {"type": "electric_scooter", "rental_uris": {"ios": "https://dc.lft.to/lastmile_qr_scan", "android": "https://dc.lft.to/lastmile_qr_scan"}, "lon": -77.02287583333333, "fusion_lon": 0.0, "is_disabled": 0, "lat": 38.92417283333333, "bike_id": "43ad7d6ee79e2b10fdce44606e83530a", "name": "43ad7d6ee79e2b10fdce44606e83530a", "is_reserved": 0, "fusion_lat": 0.0}, {"type": "electric_scooter", "rental_uris": {"ios": "https://dc.lft.to/lastmile_qr_scan", "android": "https://dc.lft.to/lastmile_qr_scan"}, "lon": -77.02400233333333, "fusion_lon": 0.0, "is_disabled": 0, "lat": 38.91965533333333, "bike_id": "ad5c66b905a3783e9588bd6ee550f2c0", "name": "ad5c66b905a3783e9588bd6ee550f2c0", "is_reserved": 0, "fusion_lat": 0.0}, {"type": "electric_scooter", "rental_uris": {"ios": "https://dc.lft.to/lastmile_qr_scan", "android": "https://dc.lft.to/lastmile_qr_scan"}, "lon": -77.048983, "fusion_lon": 0.0, "is_disabled": 0, "lat": 38.8922545, "bike_id": "74089a2197c762a43b68f0a62fac0e0d", "name": "74089a2197c762a43b68f0a62fac0e0d", "is_reserved": 0, "fusion_lat": 0.0}, {"type": "electric_scooter", "rental_uris": {"ios": "https://dc.lft.to/lastmile_qr_scan", "android": "https://dc.lft.to/lastmile_qr_scan"}, "lon": -77.012242, "fusion_lon": 0.0, "is_disabled": 0, "lat": 38.91499483333333, "bike_id": "f461dd3349702f8eb53718ce25c5f3d5", "name": "f461dd3349702f8eb53718ce25c5f3d5", "is_reserved": 0, "fusion_lat": 0.0}, {"type": "electric_scooter", "rental_uris": {"ios": "https://dc.lft.to/lastmile_qr_scan", "android": "https://dc.lft.to/lastmile_qr_scan"}, "lon": -77.0256295, "fusion_lon": 0.0, "is_disabled": 0, "lat": 38.9242635, "bike_id": "9bb694907a2c9113c9d01558a0d53d18", "name": "9bb694907a2c9113c9d01558a0d53d18", "is_reserved": 0, "fusion_lat": 0.0}, {"type": "electric_scooter", "rental_uris": {"ios": "https://dc.lft.to/lastmile_qr_scan", "android": "https://dc.lft.to/lastmile_qr_scan"}, "lon": -77.03911066666667, "fusion_lon": 0.0, "is_disabled": 0, "lat": 38.924743166666666, "bike_id": "29826f556ed1c81df96a2b3df79d49b8", "name": "29826f556ed1c81df96a2b3df79d49b8", "is_reserved": 0, "fusion_lat": 0.0}, {"type": "electric_scooter", "rental_uris": {"ios": "https://dc.lft.to/lastmile_qr_scan", "android": "https://dc.lft.to/lastmile_qr_scan"}, "lon": -76.98693483333334, "fusion_lon": 0.0, "is_disabled": 0, "lat": 38.86254066666667, "bike_id": "19a64dea4ffb41b401acb89e0182a869", "name": "19a64dea4ffb41b401acb89e0182a869", "is_reserved": 0, "fusion_lat": 0.0}, {"type": "electric_scooter", "rental_uris": {"ios": "https://dc.lft.to/lastmile_qr_scan", "android": "https://dc.lft.to/lastmile_qr_scan"}, "lon": -77.04235533333333, "fusion_lon": 0.0, "is_disabled": 0, "lat": 38.922199166666665, "bike_id": "6c7b6fbb5a415b072d7b65c14db19e90", "name": "6c7b6fbb5a415b072d7b65c14db19e90", "is_reserved": 0, "fusion_lat": 0.0}, {"type": "electric_scooter", "rental_uris": {"ios": "https://dc.lft.to/lastmile_qr_scan", "android": "https://dc.lft.to/lastmile_qr_scan"}, "lon": -77.0319065, "fusion_lon": 0.0, "is_disabled": 0, "lat": 38.917448666666665, "bike_id": "ec865e8c988973010db9e4c4171cd00b", "name": "ec865e8c988973010db9e4c4171cd00b", "is_reserved": 0, "fusion_lat": 0.0}, {"type": "electric_scooter", "rental_uris": {"ios": "https://dc.lft.to/lastmile_qr_scan", "android": "https://dc.lft.to/lastmile_qr_scan"}, "lon": -76.98729616666667, "fusion_lon": 0.0, "is_disabled": 0, "lat": 38.86715266666667, "bike_id": "399a4f864de73b2c278ed50a6a4293ec", "name": "399a4f864de73b2c278ed50a6a4293ec", "is_reserved": 0, "fusion_lat": 0.0}, {"type": "electric_scooter", "rental_uris": {"ios": "https://dc.lft.to/lastmile_qr_scan", "android": "https://dc.lft.to/lastmile_qr_scan"}, "lon": -77.0266595, "fusion_lon": 0.0, "is_disabled": 0, "lat": 38.91708933333334, "bike_id": "a22f02afb82905e56cb8c4c32030783d", "name": "a22f02afb82905e56cb8c4c32030783d", "is_reserved": 0, "fusion_lat": 0.0}, {"type": "electric_scooter", "rental_uris": {"ios": "https://dc.lft.to/lastmile_qr_scan", "android": "https://dc.lft.to/lastmile_qr_scan"}, "lon": -77.00984516666666, "fusion_lon": 0.0, "is_disabled": 0, "lat": 38.872886333333334, "bike_id": "ff7076c7c7f7fb8c685ed6f9dd281c88", "name": "ff7076c7c7f7fb8c685ed6f9dd281c88", "is_reserved": 0, "fusion_lat": 0.0}, {"type": "electric_scooter", "rental_uris": {"ios": "https://dc.lft.to/lastmile_qr_scan", "android": "https://dc.lft.to/lastmile_qr_scan"}, "lon": -77.03623783333333, "fusion_lon": 0.0, "is_disabled": 0, "lat": 38.936826833333335, "bike_id": "77316b6a16900ce7764e750e4fb47172", "name": "77316b6a16900ce7764e750e4fb47172", "is_reserved": 0, "fusion_lat": 0.0}, {"type": "electric_scooter", "rental_uris": {"ios": "https://dc.lft.to/lastmile_qr_scan", "android": "https://dc.lft.to/lastmile_qr_scan"}, "lon": -77.02798816666666, "fusion_lon": 0.0, "is_disabled": 0, "lat": 38.911002333333336, "bike_id": "cdf1379f8ca8c278e13bdaadd2df468d", "name": "cdf1379f8ca8c278e13bdaadd2df468d", "is_reserved": 0, "fusion_lat": 0.0}, {"type": "electric_scooter", "rental_uris": {"ios": "https://dc.lft.to/lastmile_qr_scan", "android": "https://dc.lft.to/lastmile_qr_scan"}, "lon": -77.041918, "fusion_lon": 0.0, "is_disabled": 0, "lat": 38.920599, "bike_id": "0124b711827172e28b7a0cb750eee983", "name": "0124b711827172e28b7a0cb750eee983", "is_reserved": 0, "fusion_lat": 0.0}, {"type": "electric_scooter", "rental_uris": {"ios": "https://dc.lft.to/lastmile_qr_scan", "android": "https://dc.lft.to/lastmile_qr_scan"}, "lon": -77.03244016666666, "fusion_lon": 0.0, "is_disabled": 0, "lat": 38.92938316666667, "bike_id": "811ea9a2b3eae4ac9f7b9ef6ee145d30", "name": "811ea9a2b3eae4ac9f7b9ef6ee145d30", "is_reserved": 0, "fusion_lat": 0.0}, {"type": "electric_bike", "rental_uris": {"ios": "https://dc.lft.to/lastmile_qr_scan", "android": "https://dc.lft.to/lastmile_qr_scan"}, "lon": -77.05342183333333, "fusion_lon": 0.0, "is_disabled": 0, "lat": 38.9023045, "bike_id": "52786c7e1b4019577e2678ba15375854", "name": "52786c7e1b4019577e2678ba15375854", "is_reserved": 0, "fusion_lat": 0.0}, {"type": "electric_scooter", "rental_uris": {"ios": "https://dc.lft.to/lastmile_qr_scan", "android": "https://dc.lft.to/lastmile_qr_scan"}, "lon": -77.0319, "fusion_lon": 0.0, "is_disabled": 0, "lat": 38.897744833333334, "bike_id": "49be46ffea369f4c4e0e8001aeab7f99", "name": "49be46ffea369f4c4e0e8001aeab7f99", "is_reserved": 0, "fusion_lat": 0.0}, {"type": "electric_scooter", "rental_uris": {"ios": "https://dc.lft.to/lastmile_qr_scan", "android": "https://dc.lft.to/lastmile_qr_scan"}, "lon": -77.024967, "fusion_lon": 0.0, "is_disabled": 0, "lat": 38.919839833333334, "bike_id": "ca494dde0e5e2b94192b4bc3d0ab9a54", "name": "ca494dde0e5e2b94192b4bc3d0ab9a54", "is_reserved": 0, "fusion_lat": 0.0}, {"type": "electric_scooter", "rental_uris": {"ios": "https://dc.lft.to/lastmile_qr_scan", "android": "https://dc.lft.to/lastmile_qr_scan"}, "lon": -77.04165716666667, "fusion_lon": 0.0, "is_disabled": 0, "lat": 38.902943666666665, "bike_id": "28ad5db76211e0de93a44ed386b209e3", "name": "28ad5db76211e0de93a44ed386b209e3", "is_reserved": 0, "fusion_lat": 0.0}, {"type": "electric_scooter", "rental_uris": {"ios": "https://dc.lft.to/lastmile_qr_scan", "android": "https://dc.lft.to/lastmile_qr_scan"}, "lon": -77.03187083333333, "fusion_lon": 0.0, "is_disabled": 0, "lat": 38.892255166666665, "bike_id": "c171347e86874ec49ec756d8b253a0b2", "name": "c171347e86874ec49ec756d8b253a0b2", "is_reserved": 0, "fusion_lat": 0.0}, {"type": "electric_scooter", "rental_uris": {"ios": "https://dc.lft.to/lastmile_qr_scan", "android": "https://dc.lft.to/lastmile_qr_scan"}, "lon": -77.04367733333333, "fusion_lon": 0.0, "is_disabled": 0, "lat": 38.92146533333333, "bike_id": "16897f8b7841924304f4af6fddc9ccf8", "name": "16897f8b7841924304f4af6fddc9ccf8", "is_reserved": 0, "fusion_lat": 0.0}, {"type": "electric_scooter", "rental_uris": {"ios": "https://dc.lft.to/lastmile_qr_scan", "android": "https://dc.lft.to/lastmile_qr_scan"}, "lon": -77.0602925, "fusion_lon": 0.0, "is_disabled": 0, "lat": 38.902320833333334, "bike_id": "143124f5c997dfb87e90e483bd4b35fc", "name": "143124f5c997dfb87e90e483bd4b35fc", "is_reserved": 0, "fusion_lat": 0.0}, {"type": "electric_scooter", "rental_uris": {"ios": "https://dc.lft.to/lastmile_qr_scan", "android": "https://dc.lft.to/lastmile_qr_scan"}, "lon": -77.05260333333334, "fusion_lon": 0.0, "is_disabled": 0, "lat": 38.9254275, "bike_id": "d40028402435b086c98ea0eedab1aa56", "name": "d40028402435b086c98ea0eedab1aa56", "is_reserved": 0, "fusion_lat": 0.0}, {"type": "electric_scooter", "rental_uris": {"ios": "https://dc.lft.to/lastmile_qr_scan", "android": "https://dc.lft.to/lastmile_qr_scan"}, "lon": -77.02799383333333, "fusion_lon": 0.0, "is_disabled": 0, "lat": 38.93087166666667, "bike_id": "4e74e0676fda5c5e8b27e0106228dd59", "name": "4e74e0676fda5c5e8b27e0106228dd59", "is_reserved": 0, "fusion_lat": 0.0}, {"type": "electric_scooter", "rental_uris": {"ios": "https://dc.lft.to/lastmile_qr_scan", "android": "https://dc.lft.to/lastmile_qr_scan"}, "lon": -77.03442866666667, "fusion_lon": 0.0, "is_disabled": 0, "lat": 38.90960533333333, "bike_id": "b7026e2cfa43af174beaa606b952d18f", "name": "b7026e2cfa43af174beaa606b952d18f", "is_reserved": 0, "fusion_lat": 0.0}, {"type": "electric_bike", "rental_uris": {"ios": "https://dc.lft.to/lastmile_qr_scan", "android": "https://dc.lft.to/lastmile_qr_scan"}, "lon": -77.012051, "fusion_lon": 0.0, "is_disabled": 0, "lat": 38.87080266666667, "bike_id": "296770844873f71678f28dc4cbcfd3ae", "name": "296770844873f71678f28dc4cbcfd3ae", "is_reserved": 0, "fusion_lat": 0.0}, {"type": "electric_scooter", "rental_uris": {"ios": "https://dc.lft.to/lastmile_qr_scan", "android": "https://dc.lft.to/lastmile_qr_scan"}, "lon": -77.033, "fusion_lon": 0.0, "is_disabled": 0, "lat": 38.92065483333333, "bike_id": "eb6377040bb1775ef83ce8ac824d3a35", "name": "eb6377040bb1775ef83ce8ac824d3a35", "is_reserved": 0, "fusion_lat": 0.0}, {"type": "electric_bike", "rental_uris": {"ios": "https://dc.lft.to/lastmile_qr_scan", "android": "https://dc.lft.to/lastmile_qr_scan"}, "lon": -76.93237133333334, "fusion_lon": 0.0, "is_disabled": 0, "lat": 38.882755833333334, "bike_id": "509189f55aeb9b15e3215bb5399cc67a", "name": "509189f55aeb9b15e3215bb5399cc67a", "is_reserved": 0, "fusion_lat": 0.0}, {"type": "electric_scooter", "rental_uris": {"ios": "https://dc.lft.to/lastmile_qr_scan", "android": "https://dc.lft.to/lastmile_qr_scan"}, "lon": -77.02179966666667, "fusion_lon": 0.0, "is_disabled": 0, "lat": 38.906215, "bike_id": "2e7ea88a5f4df3a6530f36c8c996414b", "name": "2e7ea88a5f4df3a6530f36c8c996414b", "is_reserved": 0, "fusion_lat": 0.0}, {"type": "electric_bike", "rental_uris": {"ios": "https://dc.lft.to/lastmile_qr_scan", "android": "https://dc.lft.to/lastmile_qr_scan"}, "lon": -77.01193816666667, "fusion_lon": 0.0, "is_disabled": 0, "lat": 38.9507625, "bike_id": "6d789b2cc43cbe576049740b415fbbe0", "name": "6d789b2cc43cbe576049740b415fbbe0", "is_reserved": 0, "fusion_lat": 0.0}, {"type": "electric_scooter", "rental_uris": {"ios": "https://dc.lft.to/lastmile_qr_scan", "android": "https://dc.lft.to/lastmile_qr_scan"}, "lon": -77.05023016666667, "fusion_lon": 0.0, "is_disabled": 0, "lat": 38.923554833333334, "bike_id": "5a0320d05163f6245066a59dd5dd170e", "name": "5a0320d05163f6245066a59dd5dd170e", "is_reserved": 0, "fusion_lat": 0.0}, {"type": "electric_scooter", "rental_uris": {"ios": "https://dc.lft.to/lastmile_qr_scan", "android": "https://dc.lft.to/lastmile_qr_scan"}, "lon": -77.03282633333333, "fusion_lon": 0.0, "is_disabled": 0, "lat": 38.938798, "bike_id": "3dc58cc3338c647e2690040269ae6f98", "name": "3dc58cc3338c647e2690040269ae6f98", "is_reserved": 0, "fusion_lat": 0.0}, {"type": "electric_scooter", "rental_uris": {"ios": "https://dc.lft.to/lastmile_qr_scan", "android": "https://dc.lft.to/lastmile_qr_scan"}, "lon": -77.03750616666666, "fusion_lon": 0.0, "is_disabled": 0, "lat": 38.93575516666667, "bike_id": "7b7d8bac843dcf4663872b794031a9cb", "name": "7b7d8bac843dcf4663872b794031a9cb", "is_reserved": 0, "fusion_lat": 0.0}, {"type": "electric_scooter", "rental_uris": {"ios": "https://dc.lft.to/lastmile_qr_scan", "android": "https://dc.lft.to/lastmile_qr_scan"}, "lon": -77.025344, "fusion_lon": 0.0, "is_disabled": 0, "lat": 38.914876666666665, "bike_id": "21c9d0c092ddf1c66eb3cb467098a7cb", "name": "21c9d0c092ddf1c66eb3cb467098a7cb", "is_reserved": 0, "fusion_lat": 0.0}, {"type": "electric_scooter", "rental_uris": {"ios": "https://dc.lft.to/lastmile_qr_scan", "android": "https://dc.lft.to/lastmile_qr_scan"}, "lon": -77.0262315, "fusion_lon": 0.0, "is_disabled": 0, "lat": 38.892160833333335, "bike_id": "222f005103a2f286baa072c6ce792943", "name": "222f005103a2f286baa072c6ce792943", "is_reserved": 0, "fusion_lat": 0.0}, {"type": "electric_scooter", "rental_uris": {"ios": "https://dc.lft.to/lastmile_qr_scan", "android": "https://dc.lft.to/lastmile_qr_scan"}, "lon": -76.99945983333333, "fusion_lon": 0.0, "is_disabled": 0, "lat": 38.842951666666664, "bike_id": "f8c610a068f1b03fdb313fef01953599", "name": "f8c610a068f1b03fdb313fef01953599", "is_reserved": 0, "fusion_lat": 0.0}, {"type": "electric_scooter", "rental_uris": {"ios": "https://dc.lft.to/lastmile_qr_scan", "android": "https://dc.lft.to/lastmile_qr_scan"}, "lon": -77.02179516666666, "fusion_lon": 0.0, "is_disabled": 0, "lat": 38.906227333333334, "bike_id": "1dc16bebf2837069360030d239afe8f5", "name": "1dc16bebf2837069360030d239afe8f5", "is_reserved": 0, "fusion_lat": 0.0}, {"type": "electric_scooter", "rental_uris": {"ios": "https://dc.lft.to/lastmile_qr_scan", "android": "https://dc.lft.to/lastmile_qr_scan"}, "lon": -77.04249716666666, "fusion_lon": 0.0, "is_disabled": 0, "lat": 38.922006833333334, "bike_id": "d3727d77fd6b323339e6ede5734ca268", "name": "d3727d77fd6b323339e6ede5734ca268", "is_reserved": 0, "fusion_lat": 0.0}, {"type": "electric_scooter", "rental_uris": {"ios": "https://dc.lft.to/lastmile_qr_scan", "android": "https://dc.lft.to/lastmile_qr_scan"}, "lon": -77.05128083333334, "fusion_lon": 0.0, "is_disabled": 0, "lat": 38.92361866666667, "bike_id": "9a4722423fd42418d4422f6ff543db86", "name": "9a4722423fd42418d4422f6ff543db86", "is_reserved": 0, "fusion_lat": 0.0}, {"type": "electric_scooter", "rental_uris": {"ios": "https://dc.lft.to/lastmile_qr_scan", "android": "https://dc.lft.to/lastmile_qr_scan"}, "lon": -77.007091, "fusion_lon": 0.0, "is_disabled": 0, "lat": 38.905627333333335, "bike_id": "acbdbed6ce9295aed846a91c562413ab", "name": "acbdbed6ce9295aed846a91c562413ab", "is_reserved": 0, "fusion_lat": 0.0}, {"type": "electric_scooter", "rental_uris": {"ios": "https://dc.lft.to/lastmile_qr_scan", "android": "https://dc.lft.to/lastmile_qr_scan"}, "lon": -77.03149316666666, "fusion_lon": 0.0, "is_disabled": 0, "lat": 38.911138666666666, "bike_id": "470075ff78e5c1c4f90fa86d4367ac75", "name": "470075ff78e5c1c4f90fa86d4367ac75", "is_reserved": 0, "fusion_lat": 0.0}, {"type": "electric_scooter", "rental_uris": {"ios": "https://dc.lft.to/lastmile_qr_scan", "android": "https://dc.lft.to/lastmile_qr_scan"}, "lon": -77.04027, "fusion_lon": 0.0, "is_disabled": 0, "lat": 38.91805883333333, "bike_id": "a34fa681b407b8e2bacdec3cc1494e93", "name": "a34fa681b407b8e2bacdec3cc1494e93", "is_reserved": 0, "fusion_lat": 0.0}, {"type": "electric_scooter", "rental_uris": {"ios": "https://dc.lft.to/lastmile_qr_scan", "android": "https://dc.lft.to/lastmile_qr_scan"}, "lon": -77.0383675, "fusion_lon": 0.0, "is_disabled": 0, "lat": 38.917598166666664, "bike_id": "ea7ca5315fb6238401a13dbe2fee7827", "name": "ea7ca5315fb6238401a13dbe2fee7827", "is_reserved": 0, "fusion_lat": 0.0}, {"type": "electric_scooter", "rental_uris": {"ios": "https://dc.lft.to/lastmile_qr_scan", "android": "https://dc.lft.to/lastmile_qr_scan"}, "lon": -77.055196, "fusion_lon": 0.0, "is_disabled": 0, "lat": 38.9441375, "bike_id": "7dc7f2ef064d741b111efb08e3e2a58d", "name": "7dc7f2ef064d741b111efb08e3e2a58d", "is_reserved": 0, "fusion_lat": 0.0}, {"type": "electric_scooter", "rental_uris": {"ios": "https://dc.lft.to/lastmile_qr_scan", "android": "https://dc.lft.to/lastmile_qr_scan"}, "lon": -76.9499305, "fusion_lon": 0.0, "is_disabled": 0, "lat": 38.8938995, "bike_id": "36ccefffa9135dc1ba9f7a4ff3655f3e", "name": "36ccefffa9135dc1ba9f7a4ff3655f3e", "is_reserved": 0, "fusion_lat": 0.0}, {"type": "electric_scooter", "rental_uris": {"ios": "https://dc.lft.to/lastmile_qr_scan", "android": "https://dc.lft.to/lastmile_qr_scan"}, "lon": -77.0280885, "fusion_lon": 0.0, "is_disabled": 0, "lat": 38.89233566666667, "bike_id": "75ced3a04e880b6ff72b8121152ab6bb", "name": "75ced3a04e880b6ff72b8121152ab6bb", "is_reserved": 0, "fusion_lat": 0.0}, {"type": "electric_scooter", "rental_uris": {"ios": "https://dc.lft.to/lastmile_qr_scan", "android": "https://dc.lft.to/lastmile_qr_scan"}, "lon": -77.04472283333334, "fusion_lon": 0.0, "is_disabled": 0, "lat": 38.911122166666665, "bike_id": "9abe72feee1b675c18cc880e25f190d1", "name": "9abe72feee1b675c18cc880e25f190d1", "is_reserved": 0, "fusion_lat": 0.0}, {"type": "electric_scooter", "rental_uris": {"ios": "https://dc.lft.to/lastmile_qr_scan", "android": "https://dc.lft.to/lastmile_qr_scan"}, "lon": -77.0337755, "fusion_lon": 0.0, "is_disabled": 0, "lat": 38.90967966666667, "bike_id": "46cbf6a3e5bd45c6df6aa6693a13691e", "name": "46cbf6a3e5bd45c6df6aa6693a13691e", "is_reserved": 0, "fusion_lat": 0.0}, {"type": "electric_scooter", "rental_uris": {"ios": "https://dc.lft.to/lastmile_qr_scan", "android": "https://dc.lft.to/lastmile_qr_scan"}, "lon": -77.0200285, "fusion_lon": 0.0, "is_disabled": 0, "lat": 38.915617, "bike_id": "924d52bfd9e33b040d5154c02b146abd", "name": "924d52bfd9e33b040d5154c02b146abd", "is_reserved": 0, "fusion_lat": 0.0}, {"type": "electric_scooter", "rental_uris": {"ios": "https://dc.lft.to/lastmile_qr_scan", "android": "https://dc.lft.to/lastmile_qr_scan"}, "lon": -76.97725416666667, "fusion_lon": 0.0, "is_disabled": 0, "lat": 38.895164333333334, "bike_id": "68dc6c280165b6f30e92e01992fd00b3", "name": "68dc6c280165b6f30e92e01992fd00b3", "is_reserved": 0, "fusion_lat": 0.0}, {"type": "electric_scooter", "rental_uris": {"ios": "https://dc.lft.to/lastmile_qr_scan", "android": "https://dc.lft.to/lastmile_qr_scan"}, "lon": -77.022823, "fusion_lon": 0.0, "is_disabled": 0, "lat": 38.902292333333335, "bike_id": "5e053a97917b8e4076949cc186c08fa6", "name": "5e053a97917b8e4076949cc186c08fa6", "is_reserved": 0, "fusion_lat": 0.0}, {"type": "electric_scooter", "rental_uris": {"ios": "https://dc.lft.to/lastmile_qr_scan", "android": "https://dc.lft.to/lastmile_qr_scan"}, "lon": -77.00215, "fusion_lon": 0.0, "is_disabled": 0, "lat": 38.9042915, "bike_id": "5d816aa958c21fccf3bdd075bc26f392", "name": "5d816aa958c21fccf3bdd075bc26f392", "is_reserved": 0, "fusion_lat": 0.0}, {"type": "electric_bike", "rental_uris": {"ios": "https://dc.lft.to/lastmile_qr_scan", "android": "https://dc.lft.to/lastmile_qr_scan"}, "lon": -77.03515766666666, "fusion_lon": 0.0, "is_disabled": 0, "lat": 38.96207416666667, "bike_id": "f36349f06726e9ba97041d433fe48fbc", "name": "f36349f06726e9ba97041d433fe48fbc", "is_reserved": 0, "fusion_lat": 0.0}, {"type": "electric_scooter", "rental_uris": {"ios": "https://dc.lft.to/lastmile_qr_scan", "android": "https://dc.lft.to/lastmile_qr_scan"}, "lon": -77.03211216666666, "fusion_lon": 0.0, "is_disabled": 0, "lat": 38.917146833333334, "bike_id": "6f84e3ab33e807eb6315771e398e85eb", "name": "6f84e3ab33e807eb6315771e398e85eb", "is_reserved": 0, "fusion_lat": 0.0}, {"type": "electric_bike", "rental_uris": {"ios": "https://dc.lft.to/lastmile_qr_scan", "android": "https://dc.lft.to/lastmile_qr_scan"}, "lon": -77.04921883333333, "fusion_lon": 0.0, "is_disabled": 0, "lat": 38.813498333333335, "bike_id": "92f584fab4aeee1f59009c1dbf88c7a6", "name": "92f584fab4aeee1f59009c1dbf88c7a6", "is_reserved": 0, "fusion_lat": 0.0}, {"type": "electric_scooter", "rental_uris": {"ios": "https://dc.lft.to/lastmile_qr_scan", "android": "https://dc.lft.to/lastmile_qr_scan"}, "lon": -77.0239215, "fusion_lon": 0.0, "is_disabled": 0, "lat": 38.9174895, "bike_id": "24eb7a142eb72af15330e2414ae8922e", "name": "24eb7a142eb72af15330e2414ae8922e", "is_reserved": 0, "fusion_lat": 0.0}, {"type": "electric_bike", "rental_uris": {"ios": "https://dc.lft.to/lastmile_qr_scan", "android": "https://dc.lft.to/lastmile_qr_scan"}, "lon": -76.98353116666667, "fusion_lon": 0.0, "is_disabled": 0, "lat": 38.894335166666664, "bike_id": "f48217defbb33179ae311838467cc35a", "name": "f48217defbb33179ae311838467cc35a", "is_reserved": 0, "fusion_lat": 0.0}, {"type": "electric_scooter", "rental_uris": {"ios": "https://dc.lft.to/lastmile_qr_scan", "android": "https://dc.lft.to/lastmile_qr_scan"}, "lon": -77.0405275, "fusion_lon": 0.0, "is_disabled": 0, "lat": 38.899133666666664, "bike_id": "697bfa25d6364d5044412b582aa7e615", "name": "697bfa25d6364d5044412b582aa7e615", "is_reserved": 0, "fusion_lat": 0.0}, {"type": "electric_scooter", "rental_uris": {"ios": "https://dc.lft.to/lastmile_qr_scan", "android": "https://dc.lft.to/lastmile_qr_scan"}, "lon": -77.03955666666667, "fusion_lon": 0.0, "is_disabled": 0, "lat": 38.89893516666667, "bike_id": "0ce91d8a7835cd4d58246811a1027c53", "name": "0ce91d8a7835cd4d58246811a1027c53", "is_reserved": 0, "fusion_lat": 0.0}, {"type": "electric_scooter", "rental_uris": {"ios": "https://dc.lft.to/lastmile_qr_scan", "android": "https://dc.lft.to/lastmile_qr_scan"}, "lon": -77.03002183333334, "fusion_lon": 0.0, "is_disabled": 0, "lat": 38.92972416666667, "bike_id": "5fff2195b37125ace0f246ed526f5042", "name": "5fff2195b37125ace0f246ed526f5042", "is_reserved": 0, "fusion_lat": 0.0}, {"type": "electric_scooter", "rental_uris": {"ios": "https://dc.lft.to/lastmile_qr_scan", "android": "https://dc.lft.to/lastmile_qr_scan"}, "lon": -77.04167083333333, "fusion_lon": 0.0, "is_disabled": 0, "lat": 38.917638333333336, "bike_id": "5959c406148a1519bb3696d0fb81fb04", "name": "5959c406148a1519bb3696d0fb81fb04", "is_reserved": 0, "fusion_lat": 0.0}, {"type": "electric_scooter", "rental_uris": {"ios": "https://dc.lft.to/lastmile_qr_scan", "android": "https://dc.lft.to/lastmile_qr_scan"}, "lon": -77.0297935, "fusion_lon": 0.0, "is_disabled": 0, "lat": 38.915629333333335, "bike_id": "f77946e6b6f757f1a54c5a6c6be2b839", "name": "f77946e6b6f757f1a54c5a6c6be2b839", "is_reserved": 0, "fusion_lat": 0.0}, {"type": "electric_scooter", "rental_uris": {"ios": "https://dc.lft.to/lastmile_qr_scan", "android": "https://dc.lft.to/lastmile_qr_scan"}, "lon": -77.03172133333334, "fusion_lon": 0.0, "is_disabled": 0, "lat": 38.89607866666667, "bike_id": "87a8c211c775ebde15de5abdcd0494f8", "name": "87a8c211c775ebde15de5abdcd0494f8", "is_reserved": 0, "fusion_lat": 0.0}, {"type": "electric_scooter", "rental_uris": {"ios": "https://dc.lft.to/lastmile_qr_scan", "android": "https://dc.lft.to/lastmile_qr_scan"}, "lon": -77.00611166666667, "fusion_lon": 0.0, "is_disabled": 0, "lat": 38.90647416666667, "bike_id": "53c203fb8bba619258a0760ca63eddde", "name": "53c203fb8bba619258a0760ca63eddde", "is_reserved": 0, "fusion_lat": 0.0}, {"type": "electric_scooter", "rental_uris": {"ios": "https://dc.lft.to/lastmile_qr_scan", "android": "https://dc.lft.to/lastmile_qr_scan"}, "lon": -77.0328015, "fusion_lon": 0.0, "is_disabled": 0, "lat": 38.929328166666664, "bike_id": "b632b13b3ec954a7c003260ebe73d88e", "name": "b632b13b3ec954a7c003260ebe73d88e", "is_reserved": 0, "fusion_lat": 0.0}, {"type": "electric_scooter", "rental_uris": {"ios": "https://dc.lft.to/lastmile_qr_scan", "android": "https://dc.lft.to/lastmile_qr_scan"}, "lon": -77.011446, "fusion_lon": 0.0, "is_disabled": 0, "lat": 38.902956, "bike_id": "aea16f0c45639179068dd4a2e748ebe6", "name": "aea16f0c45639179068dd4a2e748ebe6", "is_reserved": 0, "fusion_lat": 0.0}, {"type": "electric_scooter", "rental_uris": {"ios": "https://dc.lft.to/lastmile_qr_scan", "android": "https://dc.lft.to/lastmile_qr_scan"}, "lon": -77.01369216666667, "fusion_lon": 0.0, "is_disabled": 0, "lat": 38.892265333333334, "bike_id": "30a9fc790c512b35c437883a074baeea", "name": "30a9fc790c512b35c437883a074baeea", "is_reserved": 0, "fusion_lat": 0.0}, {"type": "electric_scooter", "rental_uris": {"ios": "https://dc.lft.to/lastmile_qr_scan", "android": "https://dc.lft.to/lastmile_qr_scan"}, "lon": -77.005835, "fusion_lon": 0.0, "is_disabled": 0, "lat": 38.9057105, "bike_id": "4ad73fec858687810b0a7975447c1d54", "name": "4ad73fec858687810b0a7975447c1d54", "is_reserved": 0, "fusion_lat": 0.0}, {"type": "electric_scooter", "rental_uris": {"ios": "https://dc.lft.to/lastmile_qr_scan", "android": "https://dc.lft.to/lastmile_qr_scan"}, "lon": -77.018064, "fusion_lon": 0.0, "is_disabled": 0, "lat": 38.921431166666665, "bike_id": "033a4ca421f5ded8543421c650856f29", "name": "033a4ca421f5ded8543421c650856f29", "is_reserved": 0, "fusion_lat": 0.0}, {"type": "electric_bike", "rental_uris": {"ios": "https://dc.lft.to/lastmile_qr_scan", "android": "https://dc.lft.to/lastmile_qr_scan"}, "lon": -77.04981683333334, "fusion_lon": 0.0, "is_disabled": 0, "lat": 39.062949, "bike_id": "ea8e0efc8d8b0ecbcf9c5559cc7f5fb0", "name": "ea8e0efc8d8b0ecbcf9c5559cc7f5fb0", "is_reserved": 0, "fusion_lat": 0.0}, {"type": "electric_scooter", "rental_uris": {"ios": "https://dc.lft.to/lastmile_qr_scan", "android": "https://dc.lft.to/lastmile_qr_scan"}, "lon": -77.03735133333333, "fusion_lon": 0.0, "is_disabled": 0, "lat": 38.928528166666666, "bike_id": "d17cbe0fd08e400f9860b25980bf0171", "name": "d17cbe0fd08e400f9860b25980bf0171", "is_reserved": 0, "fusion_lat": 0.0}, {"type": "electric_scooter", "rental_uris": {"ios": "https://dc.lft.to/lastmile_qr_scan", "android": "https://dc.lft.to/lastmile_qr_scan"}, "lon": -77.03147416666667, "fusion_lon": 0.0, "is_disabled": 0, "lat": 38.91560033333333, "bike_id": "d356844c7c61f10641f32c6e93bd8b0d", "name": "d356844c7c61f10641f32c6e93bd8b0d", "is_reserved": 0, "fusion_lat": 0.0}, {"type": "electric_scooter", "rental_uris": {"ios": "https://dc.lft.to/lastmile_qr_scan", "android": "https://dc.lft.to/lastmile_qr_scan"}, "lon": -77.03962, "fusion_lon": 0.0, "is_disabled": 0, "lat": 38.9197705, "bike_id": "d2d44582d2612ca7044277db0a0e56ce", "name": "d2d44582d2612ca7044277db0a0e56ce", "is_reserved": 0, "fusion_lat": 0.0}, {"type": "electric_scooter", "rental_uris": {"ios": "https://dc.lft.to/lastmile_qr_scan", "android": "https://dc.lft.to/lastmile_qr_scan"}, "lon": -77.07648266666666, "fusion_lon": 0.0, "is_disabled": 0, "lat": 38.939193333333336, "bike_id": "2cbcb671743208788ce50e673c92b1e9", "name": "2cbcb671743208788ce50e673c92b1e9", "is_reserved": 0, "fusion_lat": 0.0}, {"type": "electric_scooter", "rental_uris": {"ios": "https://dc.lft.to/lastmile_qr_scan", "android": "https://dc.lft.to/lastmile_qr_scan"}, "lon": -77.03140833333333, "fusion_lon": 0.0, "is_disabled": 0, "lat": 38.887490166666666, "bike_id": "4760e02bae7a8a44c3f092070f4efd3e", "name": "4760e02bae7a8a44c3f092070f4efd3e", "is_reserved": 0, "fusion_lat": 0.0}, {"type": "electric_scooter", "rental_uris": {"ios": "https://dc.lft.to/lastmile_qr_scan", "android": "https://dc.lft.to/lastmile_qr_scan"}, "lon": -77.001146, "fusion_lon": 0.0, "is_disabled": 0, "lat": 38.91239316666667, "bike_id": "d13aacaf9fa1547496f31f65408d3490", "name": "d13aacaf9fa1547496f31f65408d3490", "is_reserved": 0, "fusion_lat": 0.0}, {"type": "electric_scooter", "rental_uris": {"ios": "https://dc.lft.to/lastmile_qr_scan", "android": "https://dc.lft.to/lastmile_qr_scan"}, "lon": -77.02391816666666, "fusion_lon": 0.0, "is_disabled": 0, "lat": 38.897364, "bike_id": "67917c7feca796fb3b8790b2cce4138b", "name": "67917c7feca796fb3b8790b2cce4138b", "is_reserved": 0, "fusion_lat": 0.0}, {"type": "electric_scooter", "rental_uris": {"ios": "https://dc.lft.to/lastmile_qr_scan", "android": "https://dc.lft.to/lastmile_qr_scan"}, "lon": -77.034525, "fusion_lon": 0.0, "is_disabled": 0, "lat": 38.93745933333334, "bike_id": "7f6a0ba2f73efcda82b2cf5f855dc428", "name": "7f6a0ba2f73efcda82b2cf5f855dc428", "is_reserved": 0, "fusion_lat": 0.0}, {"type": "electric_scooter", "rental_uris": {"ios": "https://dc.lft.to/lastmile_qr_scan", "android": "https://dc.lft.to/lastmile_qr_scan"}, "lon": -77.04334516666667, "fusion_lon": 0.0, "is_disabled": 0, "lat": 38.89225666666667, "bike_id": "fd4f73afded0dbe63444aadd9925cf02", "name": "fd4f73afded0dbe63444aadd9925cf02", "is_reserved": 0, "fusion_lat": 0.0}, {"type": "electric_scooter", "rental_uris": {"ios": "https://dc.lft.to/lastmile_qr_scan", "android": "https://dc.lft.to/lastmile_qr_scan"}, "lon": -77.06251966666666, "fusion_lon": 0.0, "is_disabled": 0, "lat": 38.944245, "bike_id": "62aa9095deaf6db9ee355a89ca7772d1", "name": "62aa9095deaf6db9ee355a89ca7772d1", "is_reserved": 0, "fusion_lat": 0.0}, {"type": "electric_scooter", "rental_uris": {"ios": "https://dc.lft.to/lastmile_qr_scan", "android": "https://dc.lft.to/lastmile_qr_scan"}, "lon": -77.033444, "fusion_lon": 0.0, "is_disabled": 0, "lat": 38.91710116666667, "bike_id": "027ae0288bc3e7d18901aa7271a07137", "name": "027ae0288bc3e7d18901aa7271a07137", "is_reserved": 0, "fusion_lat": 0.0}, {"type": "electric_scooter", "rental_uris": {"ios": "https://dc.lft.to/lastmile_qr_scan", "android": "https://dc.lft.to/lastmile_qr_scan"}, "lon": -77.03394466666667, "fusion_lon": 0.0, "is_disabled": 0, "lat": 38.920473666666666, "bike_id": "74beffe1dda7cdc3c9876c6caadae6a0", "name": "74beffe1dda7cdc3c9876c6caadae6a0", "is_reserved": 0, "fusion_lat": 0.0}, {"type": "electric_scooter", "rental_uris": {"ios": "https://dc.lft.to/lastmile_qr_scan", "android": "https://dc.lft.to/lastmile_qr_scan"}, "lon": -77.01209316666667, "fusion_lon": 0.0, "is_disabled": 0, "lat": 38.9198085, "bike_id": "5ce1aee5b7ee1cf4d48fa199964cc811", "name": "5ce1aee5b7ee1cf4d48fa199964cc811", "is_reserved": 0, "fusion_lat": 0.0}, {"type": "electric_scooter", "rental_uris": {"ios": "https://dc.lft.to/lastmile_qr_scan", "android": "https://dc.lft.to/lastmile_qr_scan"}, "lon": -77.02693916666666, "fusion_lon": 0.0, "is_disabled": 0, "lat": 38.90680566666666, "bike_id": "ea868d6902719353f89a3942dd27390d", "name": "ea868d6902719353f89a3942dd27390d", "is_reserved": 0, "fusion_lat": 0.0}, {"type": "electric_scooter", "rental_uris": {"ios": "https://dc.lft.to/lastmile_qr_scan", "android": "https://dc.lft.to/lastmile_qr_scan"}, "lon": -77.023799, "fusion_lon": 0.0, "is_disabled": 0, "lat": 38.9166705, "bike_id": "76ef25f3d62365e6a1346d61cba52bca", "name": "76ef25f3d62365e6a1346d61cba52bca", "is_reserved": 0, "fusion_lat": 0.0}, {"type": "electric_scooter", "rental_uris": {"ios": "https://dc.lft.to/lastmile_qr_scan", "android": "https://dc.lft.to/lastmile_qr_scan"}, "lon": -77.034848, "fusion_lon": 0.0, "is_disabled": 0, "lat": 38.931131, "bike_id": "02a77c27f1804492d14a4e2a7149b349", "name": "02a77c27f1804492d14a4e2a7149b349", "is_reserved": 0, "fusion_lat": 0.0}, {"type": "electric_scooter", "rental_uris": {"ios": "https://dc.lft.to/lastmile_qr_scan", "android": "https://dc.lft.to/lastmile_qr_scan"}, "lon": -77.006076, "fusion_lon": 0.0, "is_disabled": 0, "lat": 38.871824, "bike_id": "577988186f4ea409c5251092bf8c4aa4", "name": "577988186f4ea409c5251092bf8c4aa4", "is_reserved": 0, "fusion_lat": 0.0}, {"type": "electric_bike", "rental_uris": {"ios": "https://dc.lft.to/lastmile_qr_scan", "android": "https://dc.lft.to/lastmile_qr_scan"}, "lon": -77.20833266666666, "fusion_lon": 0.0, "is_disabled": 0, "lat": 38.92459683333333, "bike_id": "2ae7aa49b2c6f96d160b876b11f5acf2", "name": "2ae7aa49b2c6f96d160b876b11f5acf2", "is_reserved": 0, "fusion_lat": 0.0}, {"type": "electric_scooter", "rental_uris": {"ios": "https://dc.lft.to/lastmile_qr_scan", "android": "https://dc.lft.to/lastmile_qr_scan"}, "lon": -77.04062033333334, "fusion_lon": 0.0, "is_disabled": 0, "lat": 38.91280283333333, "bike_id": "3a080839ef0829e2cf3a8e5163d71281", "name": "3a080839ef0829e2cf3a8e5163d71281", "is_reserved": 0, "fusion_lat": 0.0}, {"type": "electric_scooter", "rental_uris": {"ios": "https://dc.lft.to/lastmile_qr_scan", "android": "https://dc.lft.to/lastmile_qr_scan"},