{"data": {"bikes": [{"name": "358804895b9bcae2e967d1dcf1e11869", "type": "electric_scooter", "lat": 38.87648983333333, "is_reserved": 0, "lon": -76.96505866666666, "fusion_lon": 0.0, "is_disabled": 0, "fusion_lat": 0.0, "bike_id": "358804895b9bcae2e967d1dcf1e11869", "rental_uris": {"ios": "https://dc.lft.to/lastmile_qr_scan", "android": "https://dc.lft.to/lastmile_qr_scan"}}, {"name": "fd3a45147becdb54f0d1d3bb5e97e8d7", "type": "electric_scooter", "lat": 38.94074083333334, "is_reserved": 0, "lon": -77.02702633333334, "fusion_lon": 0.0, "is_disabled": 0, "fusion_lat": 0.0, "bike_id": "fd3a45147becdb54f0d1d3bb5e97e8d7", "rental_uris": {"ios": "https://dc.lft.to/lastmile_qr_scan", "android": "https://dc.lft.to/lastmile_qr_scan"}}, {"name": "75775ad863f576e444461a3ae4f675b0", "type": "electric_scooter", "lat": 38.917989, "is_reserved": 0, "lon": -77.02713366666667, "fusion_lon": 0.0, "is_disabled": 0, "fusion_lat": 0.0, "bike_id": "75775ad863f576e444461a3ae4f675b0", "rental_uris": {"ios": "https://dc.lft.to/lastmile_qr_scan", "android": "https://dc.lft.to/lastmile_qr_scan"}}, {"name": "e257b23d82778ebea11af26ab2471ca2", "type": "electric_scooter", "lat": 38.9110825, "is_reserved": 0, "lon": -77.0369715, "fusion_lon": 0.0, "is_disabled": 0, "fusion_lat": 0.0, "bike_id": "e257b23d82778ebea11af26ab2471ca2", "rental_uris": {"ios": "https://dc.lft.to/lastmile_qr_scan", "android": "https://dc.lft.to/lastmile_qr_scan"}}, {"name": "e2f9fff5a1787c652d76fd22b10e79ba", "type": "electric_scooter", "lat": 38.9058715, "is_reserved": 0, "lon": -77.0060455, "fusion_lon": 0.0, "is_disabled": 0, "fusion_lat": 0.0, "bike_id": "e2f9fff5a1787c652d76fd22b10e79ba", "rental_uris": {"ios": "https://dc.lft.to/lastmile_qr_scan", "android": "https://dc.lft.to/lastmile_qr_scan"}}, {"name": "35269cbd9b00870cc2a3e9f683c2639a", "type": "electric_scooter", "lat": 38.881635, "is_reserved": 0, "lon": -77.01746616666667, "fusion_lon": 0.0, "is_disabled": 0, "fusion_lat": 0.0, "bike_id": "35269cbd9b00870cc2a3e9f683c2639a", "rental_uris": {"ios": "https://dc.lft.to/lastmile_qr_scan", "android": "https://dc.lft.to/lastmile_qr_scan"}}, {"name": "eaa166442844e9b496f5e74a96baef9f", "type": "electric_scooter", "lat": 38.937893333333335, "is_reserved": 0, "lon": -77.06001033333334, "fusion_lon": 0.0, "is_disabled": 0, "fusion_lat": 0.0, "bike_id": "eaa166442844e9b496f5e74a96baef9f", "rental_uris": {"ios": "https://dc.lft.to/lastmile_qr_scan", "android": "https://dc.lft.to/lastmile_qr_scan"}}, {"name": "17331be213f42fb85399ec69890ee391", "type": "electric_scooter", "lat": 38.862421166666664, "is_reserved": 0, "lon": -76.99495333333333, "fusion_lon": 0.0, "is_disabled": 0, "fusion_lat": 0.0, "bike_id": "17331be213f42fb85399ec69890ee391", "rental_uris": {"ios": "https://dc.lft.to/lastmile_qr_scan", "android": "https://dc.lft.to/lastmile_qr_scan"}}, {"name": "7617cce2264d4fec8b3ed406369a3411", "type": "electric_scooter", "lat": 38.9294865, "is_reserved": 0, "lon": -77.03467816666667, "fusion_lon": 0.0, "is_disabled": 0, "fusion_lat": 0.0, "bike_id": "7617cce2264d4fec8b3ed406369a3411", "rental_uris": {"ios": "https://dc.lft.to/lastmile_qr_scan", "android": "https://dc.lft.to/lastmile_qr_scan"}}, {"name": "dac47a5ccc22b2de37261d195f680aa2", "type": "electric_scooter", "lat": 38.88335266666667, "is_reserved": 0, "lon": -77.017367, "fusion_lon": 0.0, "is_disabled": 0, "fusion_lat": 0.0, "bike_id": "dac47a5ccc22b2de37261d195f680aa2", "rental_uris": {"ios": "https://dc.lft.to/lastmile_qr_scan", "android": "https://dc.lft.to/lastmile_qr_scan"}}, {"name": "fed8376067cac13a0962c301f40a39be", "type": "electric_scooter", "lat": 38.9360725, "is_reserved": 0, "lon": -77.0585895, "fusion_lon": 0.0, "is_disabled": 0, "fusion_lat": 0.0, "bike_id": "fed8376067cac13a0962c301f40a39be", "rental_uris": {"ios": "https://dc.lft.to/lastmile_qr_scan", "android": "https://dc.lft.to/lastmile_qr_scan"}}, {"name": "b3df2a4bdb66fd038d3aa363266eaf36", "type": "electric_scooter", "lat": 38.9384225, "is_reserved": 0, "lon": -77.024881, "fusion_lon": 0.0, "is_disabled": 0, "fusion_lat": 0.0, "bike_id": "b3df2a4bdb66fd038d3aa363266eaf36", "rental_uris": {"ios": "https://dc.lft.to/lastmile_qr_scan", "android": "https://dc.lft.to/lastmile_qr_scan"}}, {"name": "604539a83bba4b14cb7ed07ea2281a0e", "type": "electric_scooter", "lat": 38.92429166666667, "is_reserved": 0, "lon": -77.040111, "fusion_lon": 0.0, "is_disabled": 0, "fusion_lat": 0.0, "bike_id": "604539a83bba4b14cb7ed07ea2281a0e", "rental_uris": {"ios": "https://dc.lft.to/lastmile_qr_scan", "android": "https://dc.lft.to/lastmile_qr_scan"}}, {"name": "5d986760dc3edc7da9453c9781ecb9b6", "type": "electric_scooter", "lat": 38.902597, "is_reserved": 0, "lon": -77.0174765, "fusion_lon": 0.0, "is_disabled": 0, "fusion_lat": 0.0, "bike_id": "5d986760dc3edc7da9453c9781ecb9b6", "rental_uris": {"ios": "https://dc.lft.to/lastmile_qr_scan", "android": "https://dc.lft.to/lastmile_qr_scan"}}, {"name": "0bfb0f7c6574ad839d37b47759ada714", "type": "electric_bike", "lat": 38.9906465, "is_reserved": 0, "lon": -77.10024383333334, "fusion_lon": 0.0, "is_disabled": 0, "fusion_lat": 0.0, "bike_id": "0bfb0f7c6574ad839d37b47759ada714", "rental_uris": {"ios": "https://dc.lft.to/lastmile_qr_scan", "android": "https://dc.lft.to/lastmile_qr_scan"}}, {"name": "26a25b9a5a40c3f752d5f0e4bfbc947c", "type": "electric_scooter", "lat": 38.93949683333334, "is_reserved": 0, "lon": -77.03265566666667, "fusion_lon": 0.0, "is_disabled": 0, "fusion_lat": 0.0, "bike_id": "26a25b9a5a40c3f752d5f0e4bfbc947c", "rental_uris": {"ios": "https://dc.lft.to/lastmile_qr_scan", "android": "https://dc.lft.to/lastmile_qr_scan"}}, {"name": "41ba884fcc5e581bdd2e6d28877643fc", "type": "electric_scooter", "lat": 38.8947655, "is_reserved": 0, "lon": -76.98600616666667, "fusion_lon": 0.0, "is_disabled": 0, "fusion_lat": 0.0, "bike_id": "41ba884fcc5e581bdd2e6d28877643fc", "rental_uris": {"ios": "https://dc.lft.to/lastmile_qr_scan", "android": "https://dc.lft.to/lastmile_qr_scan"}}, {"name": "142abfb469a4365c4a6e0e8bcc284c7f", "type": "electric_scooter", "lat": 38.904002166666665, "is_reserved": 0, "lon": -77.04032433333333, "fusion_lon": 0.0, "is_disabled": 0, "fusion_lat": 0.0, "bike_id": "142abfb469a4365c4a6e0e8bcc284c7f", "rental_uris": {"ios": "https://dc.lft.to/lastmile_qr_scan", "android": "https://dc.lft.to/lastmile_qr_scan"}}, {"name": "8d27a53c45538fff2862f6f712d57323", "type": "electric_scooter", "lat": 38.896359, "is_reserved": 0, "lon": -77.027841, "fusion_lon": 0.0, "is_disabled": 0, "fusion_lat": 0.0, "bike_id": "8d27a53c45538fff2862f6f712d57323", "rental_uris": {"ios": "https://dc.lft.to/lastmile_qr_scan", "android": "https://dc.lft.to/lastmile_qr_scan"}}, {"name": "f73ebad21605b376f41daa7f4a3dce1f", "type": "electric_scooter", "lat": 38.90327966666667, "is_reserved": 0, "lon": -77.03641733333333, "fusion_lon": 0.0, "is_disabled": 0, "fusion_lat": 0.0, "bike_id": "f73ebad21605b376f41daa7f4a3dce1f", "rental_uris": {"ios": "https://dc.lft.to/lastmile_qr_scan", "android": "https://dc.lft.to/lastmile_qr_scan"}}, {"name": "7f621910f14b9a945cc87aa26541b4d3", "type": "electric_scooter", "lat": 38.94988433333333, "is_reserved": 0, "lon": -77.06696683333334, "fusion_lon": 0.0, "is_disabled": 0, "fusion_lat": 0.0, "bike_id": "7f621910f14b9a945cc87aa26541b4d3", "rental_uris": {"ios": "https://dc.lft.to/lastmile_qr_scan", "android": "https://dc.lft.to/lastmile_qr_scan"}}, {"name": "ee87b3b5f236be1d05d415f17d791a31", "type": "electric_scooter", "lat": 38.91480933333333, "is_reserved": 0, "lon": -77.02204, "fusion_lon": 0.0, "is_disabled": 0, "fusion_lat": 0.0, "bike_id": "ee87b3b5f236be1d05d415f17d791a31", "rental_uris": {"ios": "https://dc.lft.to/lastmile_qr_scan", "android": "https://dc.lft.to/lastmile_qr_scan"}}, {"name": "0b166f691e006597d53183e27373fc20", "type": "electric_scooter", "lat": 38.907243333333334, "is_reserved": 0, "lon": -76.98603533333333, "fusion_lon": 0.0, "is_disabled": 0, "fusion_lat": 0.0, "bike_id": "0b166f691e006597d53183e27373fc20", "rental_uris": {"ios": "https://dc.lft.to/lastmile_qr_scan", "android": "https://dc.lft.to/lastmile_qr_scan"}}, {"name": "2ac4cd385394e1035c01ebda56344528", "type": "electric_scooter", "lat": 38.91348883333333, "is_reserved": 0, "lon": -77.02075133333334, "fusion_lon": 0.0, "is_disabled": 0, "fusion_lat": 0.0, "bike_id": "2ac4cd385394e1035c01ebda56344528", "rental_uris": {"ios": "https://dc.lft.to/lastmile_qr_scan", "android": "https://dc.lft.to/lastmile_qr_scan"}}, {"name": "4fe2ffd2425e4284bda1521b428e10ae", "type": "electric_scooter", "lat": 38.937356, "is_reserved": 0, "lon": -77.03348483333333, "fusion_lon": 0.0, "is_disabled": 0, "fusion_lat": 0.0, "bike_id": "4fe2ffd2425e4284bda1521b428e10ae", "rental_uris": {"ios": "https://dc.lft.to/lastmile_qr_scan", "android": "https://dc.lft.to/lastmile_qr_scan"}}, {"name": "06a66c5fc019bfd7e2ab53169ea93163", "type": "electric_scooter", "lat": 38.93195166666667, "is_reserved": 0, "lon": -77.03860116666667, "fusion_lon": 0.0, "is_disabled": 0, "fusion_lat": 0.0, "bike_id": "06a66c5fc019bfd7e2ab53169ea93163", "rental_uris": {"ios": "https://dc.lft.to/lastmile_qr_scan", "android": "https://dc.lft.to/lastmile_qr_scan"}}, {"name": "a2b107ab653ba11bd7b8c969e38bfb4e", "type": "electric_bike", "lat": 38.850600166666666, "is_reserved": 0, "lon": -76.97330516666666, "fusion_lon": 0.0, "is_disabled": 0, "fusion_lat": 0.0, "bike_id": "a2b107ab653ba11bd7b8c969e38bfb4e", "rental_uris": {"ios": "https://dc.lft.to/lastmile_qr_scan", "android": "https://dc.lft.to/lastmile_qr_scan"}}, {"name": "3af0255b208321cdec553f3f3314cfc0", "type": "electric_scooter", "lat": 38.940125, "is_reserved": 0, "lon": -77.07173883333333, "fusion_lon": 0.0, "is_disabled": 0, "fusion_lat": 0.0, "bike_id": "3af0255b208321cdec553f3f3314cfc0", "rental_uris": {"ios": "https://dc.lft.to/lastmile_qr_scan", "android": "https://dc.lft.to/lastmile_qr_scan"}}, {"name": "77aa8aae98eaceeaa0ef77ed40463525", "type": "electric_scooter", "lat": 38.93773266666667, "is_reserved": 0, "lon": -77.03263966666667, "fusion_lon": 0.0, "is_disabled": 0, "fusion_lat": 0.0, "bike_id": "77aa8aae98eaceeaa0ef77ed40463525", "rental_uris": {"ios": "https://dc.lft.to/lastmile_qr_scan", "android": "https://dc.lft.to/lastmile_qr_scan"}}, {"name": "24ef2b8a57058868c57b0407fd0c9737", "type": "electric_scooter", "lat": 38.9170065, "is_reserved": 0, "lon": -77.00811416666667, "fusion_lon": 0.0, "is_disabled": 0, "fusion_lat": 0.0, "bike_id": "24ef2b8a57058868c57b0407fd0c9737", "rental_uris": {"ios": "https://dc.lft.to/lastmile_qr_scan", "android": "https://dc.lft.to/lastmile_qr_scan"}}, {"name": "16262a7188a28a9bc04d27da2908bab0", "type": "electric_scooter", "lat": 38.903370833333334, "is_reserved": 0, "lon": -77.01887266666667, "fusion_lon": 0.0, "is_disabled": 0, "fusion_lat": 0.0, "bike_id": "16262a7188a28a9bc04d27da2908bab0", "rental_uris": {"ios": "https://dc.lft.to/lastmile_qr_scan", "android": "https://dc.lft.to/lastmile_qr_scan"}}, {"name": "10c54ba328215424b8e7f18250a4bc5b", "type": "electric_scooter", "lat": 38.91180033333333, "is_reserved": 0, "lon": -77.03207366666666, "fusion_lon": 0.0, "is_disabled": 0, "fusion_lat": 0.0, "bike_id": "10c54ba328215424b8e7f18250a4bc5b", "rental_uris": {"ios": "https://dc.lft.to/lastmile_qr_scan", "android": "https://dc.lft.to/lastmile_qr_scan"}}, {"name": "81630e6d4a8b5967f6b875acbf552c63", "type": "electric_scooter", "lat": 38.91099066666666, "is_reserved": 0, "lon": -77.04673783333334, "fusion_lon": 0.0, "is_disabled": 0, "fusion_lat": 0.0, "bike_id": "81630e6d4a8b5967f6b875acbf552c63", "rental_uris": {"ios": "https://dc.lft.to/lastmile_qr_scan", "android": "https://dc.lft.to/lastmile_qr_scan"}}, {"name": "afd028a8354ccda802c0c78f43a1c067", "type": "electric_scooter", "lat": 38.94942483333333, "is_reserved": 0, "lon": -77.01611133333333, "fusion_lon": 0.0, "is_disabled": 0, "fusion_lat": 0.0, "bike_id": "afd028a8354ccda802c0c78f43a1c067", "rental_uris": {"ios": "https://dc.lft.to/lastmile_qr_scan", "android": "https://dc.lft.to/lastmile_qr_scan"}}, {"name": "4aa3e83eb7d1680c5745435b3b1eefac", "type": "electric_scooter", "lat": 38.912061, "is_reserved": 0, "lon": -77.03208683333334, "fusion_lon": 0.0, "is_disabled": 0, "fusion_lat": 0.0, "bike_id": "4aa3e83eb7d1680c5745435b3b1eefac", "rental_uris": {"ios": "https://dc.lft.to/lastmile_qr_scan", "android": "https://dc.lft.to/lastmile_qr_scan"}}, {"name": "7cb79cb8b30103f15e4c5d4c79dee53f", "type": "electric_scooter", "lat": 38.903192, "is_reserved": 0, "lon": -77.03856566666667, "fusion_lon": 0.0, "is_disabled": 0, "fusion_lat": 0.0, "bike_id": "7cb79cb8b30103f15e4c5d4c79dee53f", "rental_uris": {"ios": "https://dc.lft.to/lastmile_qr_scan", "android": "https://dc.lft.to/lastmile_qr_scan"}}, {"name": "96f0e31f5a9875849ebcfbc5883e55ef", "type": "electric_scooter", "lat": 38.92794516666667, "is_reserved": 0, "lon": -77.04356666666666, "fusion_lon": 0.0, "is_disabled": 0, "fusion_lat": 0.0, "bike_id": "96f0e31f5a9875849ebcfbc5883e55ef", "rental_uris": {"ios": "https://dc.lft.to/lastmile_qr_scan", "android": "https://dc.lft.to/lastmile_qr_scan"}}, {"name": "a10d3d40355eec47eb4d10a46e03c5b2", "type": "electric_scooter", "lat": 38.935314166666664, "is_reserved": 0, "lon": -77.02856416666667, "fusion_lon": 0.0, "is_disabled": 0, "fusion_lat": 0.0, "bike_id": "a10d3d40355eec47eb4d10a46e03c5b2", "rental_uris": {"ios": "https://dc.lft.to/lastmile_qr_scan", "android": "https://dc.lft.to/lastmile_qr_scan"}}, {"name": "d4767099594b235f24ec1ae2babaeff8", "type": "electric_scooter", "lat": 38.907238, "is_reserved": 0, "lon": -77.02512, "fusion_lon": 0.0, "is_disabled": 0, "fusion_lat": 0.0, "bike_id": "d4767099594b235f24ec1ae2babaeff8", "rental_uris": {"ios": "https://dc.lft.to/lastmile_qr_scan", "android": "https://dc.lft.to/lastmile_qr_scan"}}, {"name": "0cdbdd26f1b6d10eaf06054f5c006c78", "type": "electric_scooter", "lat": 38.895272166666665, "is_reserved": 0, "lon": -77.016197, "fusion_lon": 0.0, "is_disabled": 0, "fusion_lat": 0.0, "bike_id": "0cdbdd26f1b6d10eaf06054f5c006c78", "rental_uris": {"ios": "https://dc.lft.to/lastmile_qr_scan", "android": "https://dc.lft.to/lastmile_qr_scan"}}, {"name": "74e1a8228fe8e18e07cd23b92d092c71", "type": "electric_scooter", "lat": 38.90987783333333, "is_reserved": 0, "lon": -77.03188766666666, "fusion_lon": 0.0, "is_disabled": 0, "fusion_lat": 0.0, "bike_id": "74e1a8228fe8e18e07cd23b92d092c71", "rental_uris": {"ios": "https://dc.lft.to/lastmile_qr_scan", "android": "https://dc.lft.to/lastmile_qr_scan"}}, {"name": "c8b2a44ed26c76b97aa2588da1db45c9", "type": "electric_scooter", "lat": 38.9350405, "is_reserved": 0, "lon": -77.02851616666666, "fusion_lon": 0.0, "is_disabled": 0, "fusion_lat": 0.0, "bike_id": "c8b2a44ed26c76b97aa2588da1db45c9", "rental_uris": {"ios": "https://dc.lft.to/lastmile_qr_scan", "android": "https://dc.lft.to/lastmile_qr_scan"}}, {"name": "1977a6659855e88fa2edecd96a092e71", "type": "electric_scooter", "lat": 38.91060933333333, "is_reserved": 0, "lon": -77.03038383333333, "fusion_lon": 0.0, "is_disabled": 0, "fusion_lat": 0.0, "bike_id": "1977a6659855e88fa2edecd96a092e71", "rental_uris": {"ios": "https://dc.lft.to/lastmile_qr_scan", "android": "https://dc.lft.to/lastmile_qr_scan"}}, {"name": "a72585921b8d1a9bbd45d4df20e64aad", "type": "electric_bike", "lat": 38.85436283333333, "is_reserved": 0, "lon": -77.11707633333333, "fusion_lon": 0.0, "is_disabled": 0, "fusion_lat": 0.0, "bike_id": "a72585921b8d1a9bbd45d4df20e64aad", "rental_uris": {"ios": "https://dc.lft.to/lastmile_qr_scan", "android": "https://dc.lft.to/lastmile_qr_scan"}}, {"name": "4925ee19d39ef8db9a8758e36e2e3408", "type": "electric_scooter", "lat": 38.88720983333333, "is_reserved": 0, "lon": -77.0220035, "fusion_lon": 0.0, "is_disabled": 0, "fusion_lat": 0.0, "bike_id": "4925ee19d39ef8db9a8758e36e2e3408", "rental_uris": {"ios": "https://dc.lft.to/lastmile_qr_scan", "android": "https://dc.lft.to/lastmile_qr_scan"}}, {"name": "b7851f3f2d29a21e52dee6d94f1f98e8", "type": "electric_scooter", "lat": 38.941824833333335, "is_reserved": 0, "lon": -77.0309765, "fusion_lon": 0.0, "is_disabled": 0, "fusion_lat": 0.0, "bike_id": "b7851f3f2d29a21e52dee6d94f1f98e8", "rental_uris": {"ios": "https://dc.lft.to/lastmile_qr_scan", "android": "https://dc.lft.to/lastmile_qr_scan"}}, {"name": "af1530a571cdb43ef7038f678c61973d", "type": "electric_scooter", "lat": 38.906077, "is_reserved": 0, "lon": -77.0131825, "fusion_lon": 0.0, "is_disabled": 0, "fusion_lat": 0.0, "bike_id": "af1530a571cdb43ef7038f678c61973d", "rental_uris": {"ios": "https://dc.lft.to/lastmile_qr_scan", "android": "https://dc.lft.to/lastmile_qr_scan"}}, {"name": "ece7c4ad3f11bb43b52d070efec26915", "type": "electric_scooter", "lat": 38.90796, "is_reserved": 0, "lon": -76.99701266666666, "fusion_lon": 0.0, "is_disabled": 0, "fusion_lat": 0.0, "bike_id": "ece7c4ad3f11bb43b52d070efec26915", "rental_uris": {"ios": "https://dc.lft.to/lastmile_qr_scan", "android": "https://dc.lft.to/lastmile_qr_scan"}}, {"name": "fe5fa38993dd500f9a18b97b53f7431d", "type": "electric_scooter", "lat": 38.940559666666665, "is_reserved": 0, "lon": -77.03280466666666, "fusion_lon": 0.0, "is_disabled": 0, "fusion_lat": 0.0, "bike_id": "fe5fa38993dd500f9a18b97b53f7431d", "rental_uris": {"ios": "https://dc.lft.to/lastmile_qr_scan", "android": "https://dc.lft.to/lastmile_qr_scan"}}, {"name": "b2c5e6a586e80ac8a8a99e3a21b6399b", "type": "electric_bike", "lat": 38.89223766666667, "is_reserved": 0, "lon": -76.97024783333333, "fusion_lon": 0.0, "is_disabled": 0, "fusion_lat": 0.0, "bike_id": "b2c5e6a586e80ac8a8a99e3a21b6399b", "rental_uris": {"ios": "https://dc.lft.to/lastmile_qr_scan", "android": "https://dc.lft.to/lastmile_qr_scan"}}, {"name": "968995dec65d25b8e9bcfd70f7cbacf6", "type": "electric_scooter", "lat": 38.90355, "is_reserved": 0, "lon": -77.01732566666666, "fusion_lon": 0.0, "is_disabled": 0, "fusion_lat": 0.0, "bike_id": "968995dec65d25b8e9bcfd70f7cbacf6", "rental_uris": {"ios": "https://dc.lft.to/lastmile_qr_scan", "android": "https://dc.lft.to/lastmile_qr_scan"}}, {"name": "0111d2237218dd023a2c00974b4cec00", "type": "electric_scooter", "lat": 38.94272983333333, "is_reserved": 0, "lon": -77.03257766666667, "fusion_lon": 0.0, "is_disabled": 0, "fusion_lat": 0.0, "bike_id": "0111d2237218dd023a2c00974b4cec00", "rental_uris": {"ios": "https://dc.lft.to/lastmile_qr_scan", "android": "https://dc.lft.to/lastmile_qr_scan"}}, {"name": "bd65724756eafb34ba4074df1f4ff2ae", "type": "electric_scooter", "lat": 38.893579333333335, "is_reserved": 0, "lon": -77.01986766666667, "fusion_lon": 0.0, "is_disabled": 0, "fusion_lat": 0.0, "bike_id": "bd65724756eafb34ba4074df1f4ff2ae", "rental_uris": {"ios": "https://dc.lft.to/lastmile_qr_scan", "android": "https://dc.lft.to/lastmile_qr_scan"}}, {"name": "aee41a0787f3ac2312e6fc34bdee37aa", "type": "electric_scooter", "lat": 38.907305666666666, "is_reserved": 0, "lon": -77.04011683333333, "fusion_lon": 0.0, "is_disabled": 0, "fusion_lat": 0.0, "bike_id": "aee41a0787f3ac2312e6fc34bdee37aa", "rental_uris": {"ios": "https://dc.lft.to/lastmile_qr_scan", "android": "https://dc.lft.to/lastmile_qr_scan"}}, {"name": "72d0a8d1cab2480101e71e270b3aafcb", "type": "electric_scooter", "lat": 38.89774533333333, "is_reserved": 0, "lon": -76.9773015, "fusion_lon": 0.0, "is_disabled": 0, "fusion_lat": 0.0, "bike_id": "72d0a8d1cab2480101e71e270b3aafcb", "rental_uris": {"ios": "https://dc.lft.to/lastmile_qr_scan", "android": "https://dc.lft.to/lastmile_qr_scan"}}, {"name": "09a71b16111567ae07e4b685b874797e", "type": "electric_scooter", "lat": 38.863705833333334, "is_reserved": 0, "lon": -76.9905795, "fusion_lon": 0.0, "is_disabled": 0, "fusion_lat": 0.0, "bike_id": "09a71b16111567ae07e4b685b874797e", "rental_uris": {"ios": "https://dc.lft.to/lastmile_qr_scan", "android": "https://dc.lft.to/lastmile_qr_scan"}}, {"name": "fe889d2832090c7306d71e52d17c9dd4", "type": "electric_scooter", "lat": 38.9033335, "is_reserved": 0, "lon": -76.98973183333334, "fusion_lon": 0.0, "is_disabled": 0, "fusion_lat": 0.0, "bike_id": "fe889d2832090c7306d71e52d17c9dd4", "rental_uris": {"ios": "https://dc.lft.to/lastmile_qr_scan", "android": "https://dc.lft.to/lastmile_qr_scan"}}, {"name": "41e6808425cab80f4be83a33cb0f92bd", "type": "electric_scooter", "lat": 38.92164966666667, "is_reserved": 0, "lon": -77.0338975, "fusion_lon": 0.0, "is_disabled": 0, "fusion_lat": 0.0, "bike_id": "41e6808425cab80f4be83a33cb0f92bd", "rental_uris": {"ios": "https://dc.lft.to/lastmile_qr_scan", "android": "https://dc.lft.to/lastmile_qr_scan"}}, {"name": "bab07179264b1579122c9c1b83b3db06", "type": "electric_scooter", "lat": 38.91116933333333, "is_reserved": 0, "lon": -77.0182255, "fusion_lon": 0.0, "is_disabled": 0, "fusion_lat": 0.0, "bike_id": "bab07179264b1579122c9c1b83b3db06", "rental_uris": {"ios": "https://dc.lft.to/lastmile_qr_scan", "android": "https://dc.lft.to/lastmile_qr_scan"}}, {"name": "51d5720a42456d0a56c1e386ec515c1d", "type": "electric_scooter", "lat": 38.90716916666667, "is_reserved": 0, "lon": -77.01143733333333, "fusion_lon": 0.0, "is_disabled": 0, "fusion_lat": 0.0, "bike_id": "51d5720a42456d0a56c1e386ec515c1d", "rental_uris": {"ios": "https://dc.lft.to/lastmile_qr_scan", "android": "https://dc.lft.to/lastmile_qr_scan"}}, {"name": "f627041d160b6cc632c53a8ebc1842be", "type": "electric_scooter", "lat": 38.88217816666667, "is_reserved": 0, "lon": -76.9418, "fusion_lon": 0.0, "is_disabled": 0, "fusion_lat": 0.0, "bike_id": "f627041d160b6cc632c53a8ebc1842be", "rental_uris": {"ios": "https://dc.lft.to/lastmile_qr_scan", "android": "https://dc.lft.to/lastmile_qr_scan"}}, {"name": "5ddcb3ecd01903af678e4ae0b6e67864", "type": "electric_scooter", "lat": 38.895752333333334, "is_reserved": 0, "lon": -77.021838, "fusion_lon": 0.0, "is_disabled": 0, "fusion_lat": 0.0, "bike_id": "5ddcb3ecd01903af678e4ae0b6e67864", "rental_uris": {"ios": "https://dc.lft.to/lastmile_qr_scan", "android": "https://dc.lft.to/lastmile_qr_scan"}}, {"name": "e9ffa162b0b10d13238993fb6112e6e1", "type": "electric_scooter", "lat": 38.929693, "is_reserved": 0, "lon": -77.02346866666667, "fusion_lon": 0.0, "is_disabled": 0, "fusion_lat": 0.0, "bike_id": "e9ffa162b0b10d13238993fb6112e6e1", "rental_uris": {"ios": "https://dc.lft.to/lastmile_qr_scan", "android": "https://dc.lft.to/lastmile_qr_scan"}}, {"name": "9303bf2ccbcbed707c375d3d1448ab28", "type": "electric_scooter", "lat": 38.92928633333333, "is_reserved": 0, "lon": -77.023388, "fusion_lon": 0.0, "is_disabled": 0, "fusion_lat": 0.0, "bike_id": "9303bf2ccbcbed707c375d3d1448ab28", "rental_uris": {"ios": "https://dc.lft.to/lastmile_qr_scan", "android": "https://dc.lft.to/lastmile_qr_scan"}}, {"name": "07e5c94267dcd0d3f93a7afcd7b561ab", "type": "electric_scooter", "lat": 38.907199166666665, "is_reserved": 0, "lon": -77.02508583333334, "fusion_lon": 0.0, "is_disabled": 0, "fusion_lat": 0.0, "bike_id": "07e5c94267dcd0d3f93a7afcd7b561ab", "rental_uris": {"ios": "https://dc.lft.to/lastmile_qr_scan", "android": "https://dc.lft.to/lastmile_qr_scan"}}, {"name": "5f60efa75b1b5e41ecab878b18305678", "type": "electric_bike", "lat": 38.9483565, "is_reserved": 0, "lon": -77.039006, "fusion_lon": 0.0, "is_disabled": 0, "fusion_lat": 0.0, "bike_id": "5f60efa75b1b5e41ecab878b18305678", "rental_uris": {"ios": "https://dc.lft.to/lastmile_qr_scan", "android": "https://dc.lft.to/lastmile_qr_scan"}}, {"name": "0c3af4b44cb1c10ea38f926695c110d1", "type": "electric_scooter", "lat": 38.92999583333334, "is_reserved": 0, "lon": -77.03221683333334, "fusion_lon": 0.0, "is_disabled": 0, "fusion_lat": 0.0, "bike_id": "0c3af4b44cb1c10ea38f926695c110d1", "rental_uris": {"ios": "https://dc.lft.to/lastmile_qr_scan", "android": "https://dc.lft.to/lastmile_qr_scan"}}, {"name": "a18e1a724eb18b324f8d405d944a5db9", "type": "electric_scooter", "lat": 38.912172, "is_reserved": 0, "lon": -77.04466683333334, "fusion_lon": 0.0, "is_disabled": 0, "fusion_lat": 0.0, "bike_id": "a18e1a724eb18b324f8d405d944a5db9", "rental_uris": {"ios": "https://dc.lft.to/lastmile_qr_scan", "android": "https://dc.lft.to/lastmile_qr_scan"}}, {"name": "e895e15125f294205bd6727a0d679bf6", "type": "electric_scooter", "lat": 38.92494633333333, "is_reserved": 0, "lon": -77.0731735, "fusion_lon": 0.0, "is_disabled": 0, "fusion_lat": 0.0, "bike_id": "e895e15125f294205bd6727a0d679bf6", "rental_uris": {"ios": "https://dc.lft.to/lastmile_qr_scan", "android": "https://dc.lft.to/lastmile_qr_scan"}}, {"name": "8d9ed28c9fa77e38d7859a404988b768", "type": "electric_scooter", "lat": 38.92402766666667, "is_reserved": 0, "lon": -77.025577, "fusion_lon": 0.0, "is_disabled": 0, "fusion_lat": 0.0, "bike_id": "8d9ed28c9fa77e38d7859a404988b768", "rental_uris": {"ios": "https://dc.lft.to/lastmile_qr_scan", "android": "https://dc.lft.to/lastmile_qr_scan"}}, {"name": "08a522aead80269202c84fbaec1fddf0", "type": "electric_scooter", "lat": 38.95830516666667, "is_reserved": 0, "lon": -77.02923816666667, "fusion_lon": 0.0, "is_disabled": 0, "fusion_lat": 0.0, "bike_id": "08a522aead80269202c84fbaec1fddf0", "rental_uris": {"ios": "https://dc.lft.to/lastmile_qr_scan", "android": "https://dc.lft.to/lastmile_qr_scan"}}, {"name": "7ee5183f7b4a2ff4d63ea2836a77849c", "type": "electric_scooter", "lat": 38.900616166666666, "is_reserved": 0, "lon": -77.04536416666667, "fusion_lon": 0.0, "is_disabled": 0, "fusion_lat": 0.0, "bike_id": "7ee5183f7b4a2ff4d63ea2836a77849c", "rental_uris": {"ios": "https://dc.lft.to/lastmile_qr_scan", "android": "https://dc.lft.to/lastmile_qr_scan"}}, {"name": "df9c6536835673bd51a3db60ffb17272", "type": "electric_scooter", "lat": 38.933798333333336, "is_reserved": 0, "lon": -77.03463616666667, "fusion_lon": 0.0, "is_disabled": 0, "fusion_lat": 0.0, "bike_id": "df9c6536835673bd51a3db60ffb17272", "rental_uris": {"ios": "https://dc.lft.to/lastmile_qr_scan", "android": "https://dc.lft.to/lastmile_qr_scan"}}, {"name": "eed17fdf98cf9106ed1a2ec331b78a43", "type": "electric_scooter", "lat": 38.9342015, "is_reserved": 0, "lon": -77.07250583333334, "fusion_lon": 0.0, "is_disabled": 0, "fusion_lat": 0.0, "bike_id": "eed17fdf98cf9106ed1a2ec331b78a43", "rental_uris": {"ios": "https://dc.lft.to/lastmile_qr_scan", "android": "https://dc.lft.to/lastmile_qr_scan"}}, {"name": "1f6bb5d54c85114ff905153f892265fe", "type": "electric_scooter", "lat": 38.89475983333333, "is_reserved": 0, "lon": -77.030689, "fusion_lon": 0.0, "is_disabled": 0, "fusion_lat": 0.0, "bike_id": "1f6bb5d54c85114ff905153f892265fe", "rental_uris": {"ios": "https://dc.lft.to/lastmile_qr_scan", "android": "https://dc.lft.to/lastmile_qr_scan"}}, {"name": "122a8d70ff107eb92a10655c9875b377", "type": "electric_scooter", "lat": 38.9112725, "is_reserved": 0, "lon": -77.03182283333334, "fusion_lon": 0.0, "is_disabled": 0, "fusion_lat": 0.0, "bike_id": "122a8d70ff107eb92a10655c9875b377", "rental_uris": {"ios": "https://dc.lft.to/lastmile_qr_scan", "android": "https://dc.lft.to/lastmile_qr_scan"}}, {"name": "7facdfdc46c3e2d6f2446fb8e59c5fec", "type": "electric_scooter", "lat": 38.897371, "is_reserved": 0, "lon": -76.94720083333333, "fusion_lon": 0.0, "is_disabled": 0, "fusion_lat": 0.0, "bike_id": "7facdfdc46c3e2d6f2446fb8e59c5fec", "rental_uris": {"ios": "https://dc.lft.to/lastmile_qr_scan", "android": "https://dc.lft.to/lastmile_qr_scan"}}, {"name": "b887bc598e83200d3a61bbf24ff3ed50", "type": "electric_scooter", "lat": 38.90246583333333, "is_reserved": 0, "lon": -77.03171083333334, "fusion_lon": 0.0, "is_disabled": 0, "fusion_lat": 0.0, "bike_id": "b887bc598e83200d3a61bbf24ff3ed50", "rental_uris": {"ios": "https://dc.lft.to/lastmile_qr_scan", "android": "https://dc.lft.to/lastmile_qr_scan"}}, {"name": "95480a8b249d17cbafd0dbf09cc6381a", "type": "electric_scooter", "lat": 38.933010833333334, "is_reserved": 0, "lon": -77.02805333333333, "fusion_lon": 0.0, "is_disabled": 0, "fusion_lat": 0.0, "bike_id": "95480a8b249d17cbafd0dbf09cc6381a", "rental_uris": {"ios": "https://dc.lft.to/lastmile_qr_scan", "android": "https://dc.lft.to/lastmile_qr_scan"}}, {"name": "79ee3df65c7db3d5474cabc3c3fcbd21", "type": "electric_scooter", "lat": 38.92031566666667, "is_reserved": 0, "lon": -77.01115183333333, "fusion_lon": 0.0, "is_disabled": 0, "fusion_lat": 0.0, "bike_id": "79ee3df65c7db3d5474cabc3c3fcbd21", "rental_uris": {"ios": "https://dc.lft.to/lastmile_qr_scan", "android": "https://dc.lft.to/lastmile_qr_scan"}}, {"name": "a75d181ebbcff18b85c97198faa1f7e7", "type": "electric_scooter", "lat": 38.9155325, "is_reserved": 0, "lon": -77.0728515, "fusion_lon": 0.0, "is_disabled": 0, "fusion_lat": 0.0, "bike_id": "a75d181ebbcff18b85c97198faa1f7e7", "rental_uris": {"ios": "https://dc.lft.to/lastmile_qr_scan", "android": "https://dc.lft.to/lastmile_qr_scan"}}, {"name": "e99e8f4971decf6f2fa5f5b3684ecb2f", "type": "electric_scooter", "lat": 38.905683, "is_reserved": 0, "lon": -77.05708416666667, "fusion_lon": 0.0, "is_disabled": 0, "fusion_lat": 0.0, "bike_id": "e99e8f4971decf6f2fa5f5b3684ecb2f", "rental_uris": {"ios": "https://dc.lft.to/lastmile_qr_scan", "android": "https://dc.lft.to/lastmile_qr_scan"}}, {"name": "333dd4ed2f987a06d808b9baf68df47f", "type": "electric_scooter", "lat": 38.97475266666667, "is_reserved": 0, "lon": -77.0190025, "fusion_lon": 0.0, "is_disabled": 0, "fusion_lat": 0.0, "bike_id": "333dd4ed2f987a06d808b9baf68df47f", "rental_uris": {"ios": "https://dc.lft.to/lastmile_qr_scan", "android": "https://dc.lft.to/lastmile_qr_scan"}}, {"name": "af4ad9f30a8a75e816df5924d0037caa", "type": "electric_scooter", "lat": 38.9039165, "is_reserved": 0, "lon": -77.03992916666667, "fusion_lon": 0.0, "is_disabled": 0, "fusion_lat": 0.0, "bike_id": "af4ad9f30a8a75e816df5924d0037caa", "rental_uris": {"ios": "https://dc.lft.to/lastmile_qr_scan", "android": "https://dc.lft.to/lastmile_qr_scan"}}, {"name": "ad9f479396b3776db7c282b5209c9e2c", "type": "electric_scooter", "lat": 38.944464333333336, "is_reserved": 0, "lon": -77.06358566666667, "fusion_lon": 0.0, "is_disabled": 0, "fusion_lat": 0.0, "bike_id": "ad9f479396b3776db7c282b5209c9e2c", "rental_uris": {"ios": "https://dc.lft.to/lastmile_qr_scan", "android": "https://dc.lft.to/lastmile_qr_scan"}}, {"name": "8eb824d438fbf81fb2d3b80da1ed7ecd", "type": "electric_scooter", "lat": 38.8429525, "is_reserved": 0, "lon": -76.99947416666667, "fusion_lon": 0.0, "is_disabled": 0, "fusion_lat": 0.0, "bike_id": "8eb824d438fbf81fb2d3b80da1ed7ecd", "rental_uris": {"ios": "https://dc.lft.to/lastmile_qr_scan", "android": "https://dc.lft.to/lastmile_qr_scan"}}, {"name": "6ac9bfb623593e3b91998d9924738eab", "type": "electric_scooter", "lat": 38.901404166666666, "is_reserved": 0, "lon": -77.044357, "fusion_lon": 0.0, "is_disabled": 0, "fusion_lat": 0.0, "bike_id": "6ac9bfb623593e3b91998d9924738eab", "rental_uris": {"ios": "https://dc.lft.to/lastmile_qr_scan", "android": "https://dc.lft.to/lastmile_qr_scan"}}, {"name": "5d507c7ae1b02621d513415a4b3b9a5d", "type": "electric_scooter", "lat": 38.93762, "is_reserved": 0, "lon": -77.022697, "fusion_lon": 0.0, "is_disabled": 0, "fusion_lat": 0.0, "bike_id": "5d507c7ae1b02621d513415a4b3b9a5d", "rental_uris": {"ios": "https://dc.lft.to/lastmile_qr_scan", "android": "https://dc.lft.to/lastmile_qr_scan"}}, {"name": "a3fdadf9c18c65724040b8cbf4d53f14", "type": "electric_scooter", "lat": 38.92479016666667, "is_reserved": 0, "lon": -77.028866, "fusion_lon": 0.0, "is_disabled": 0, "fusion_lat": 0.0, "bike_id": "a3fdadf9c18c65724040b8cbf4d53f14", "rental_uris": {"ios": "https://dc.lft.to/lastmile_qr_scan", "android": "https://dc.lft.to/lastmile_qr_scan"}}, {"name": "e48b436efdc1877e59b3043f927da909", "type": "electric_scooter", "lat": 38.930659, "is_reserved": 0, "lon": -77.02980716666667, "fusion_lon": 0.0, "is_disabled": 0, "fusion_lat": 0.0, "bike_id": "e48b436efdc1877e59b3043f927da909", "rental_uris": {"ios": "https://dc.lft.to/lastmile_qr_scan", "android": "https://dc.lft.to/lastmile_qr_scan"}}, {"name": "495826fbf9a4cc7719642fa16911f98a", "type": "electric_scooter", "lat": 38.92980466666667, "is_reserved": 0, "lon": -77.014507, "fusion_lon": 0.0, "is_disabled": 0, "fusion_lat": 0.0, "bike_id": "495826fbf9a4cc7719642fa16911f98a", "rental_uris": {"ios": "https://dc.lft.to/lastmile_qr_scan", "android": "https://dc.lft.to/lastmile_qr_scan"}}, {"name": "3aaa7c17cd680f3fc78c23b696b0cf74", "type": "electric_scooter", "lat": 38.9124355, "is_reserved": 0, "lon": -77.03842283333333, "fusion_lon": 0.0, "is_disabled": 0, "fusion_lat": 0.0, "bike_id": "3aaa7c17cd680f3fc78c23b696b0cf74", "rental_uris": {"ios": "https://dc.lft.to/lastmile_qr_scan", "android": "https://dc.lft.to/lastmile_qr_scan"}}, {"name": "90985eb88b32505b9d2cb3251cbd426d", "type": "electric_scooter", "lat": 38.9006275, "is_reserved": 0, "lon": -77.05082033333333, "fusion_lon": 0.0, "is_disabled": 0, "fusion_lat": 0.0, "bike_id": "90985eb88b32505b9d2cb3251cbd426d", "rental_uris": {"ios": "https://dc.lft.to/lastmile_qr_scan", "android": "https://dc.lft.to/lastmile_qr_scan"}}, {"name": "bdf1c9ef55452bb4e65e5f8530ef7dec", "type": "electric_bike", "lat": 38.8398545, "is_reserved": 0, "lon": -77.005655, "fusion_lon": 0.0, "is_disabled": 0, "fusion_lat": 0.0, "bike_id": "bdf1c9ef55452bb4e65e5f8530ef7dec", "rental_uris": {"ios": "https://dc.lft.to/lastmile_qr_scan", "android": "https://dc.lft.to/lastmile_qr_scan"}}, {"name": "41fb9aa30b1add36799ed141ff1da80e", "type": "electric_bike", "lat": 38.92204916666667, "is_reserved": 0, "lon": -77.08209233333334, "fusion_lon": 0.0, "is_disabled": 0, "fusion_lat": 0.0, "bike_id": "41fb9aa30b1add36799ed141ff1da80e", "rental_uris": {"ios": "https://dc.lft.to/lastmile_qr_scan", "android": "https://dc.lft.to/lastmile_qr_scan"}}, {"name": "fe7e7926f541a671a9e233de6c28f402", "type": "electric_scooter", "lat": 38.86658416666667, "is_reserved": 0, "lon": -76.99017566666667, "fusion_lon": 0.0, "is_disabled": 0, "fusion_lat": 0.0, "bike_id": "fe7e7926f541a671a9e233de6c28f402", "rental_uris": {"ios": "https://dc.lft.to/lastmile_qr_scan", "android": "https://dc.lft.to/lastmile_qr_scan"}}, {"name": "73b48e38b960910c2175956f7ceae93b", "type": "electric_scooter", "lat": 38.89958, "is_reserved": 0, "lon": -76.98562966666667, "fusion_lon": 0.0, "is_disabled": 0, "fusion_lat": 0.0, "bike_id": "73b48e38b960910c2175956f7ceae93b", "rental_uris": {"ios": "https://dc.lft.to/lastmile_qr_scan", "android": "https://dc.lft.to/lastmile_qr_scan"}}, {"name": "2c6df2a4ff7431a350e0f52bafb93ad4", "type": "electric_scooter", "lat": 38.913384666666666, "is_reserved": 0, "lon": -77.03168416666666, "fusion_lon": 0.0, "is_disabled": 0, "fusion_lat": 0.0, "bike_id": "2c6df2a4ff7431a350e0f52bafb93ad4", "rental_uris": {"ios": "https://dc.lft.to/lastmile_qr_scan", "android": "https://dc.lft.to/lastmile_qr_scan"}}, {"name": "63e56cf60b8d2cb43989480b77aeb66f", "type": "electric_scooter", "lat": 38.862204, "is_reserved": 0, "lon": -76.99495966666667, "fusion_lon": 0.0, "is_disabled": 0, "fusion_lat": 0.0, "bike_id": "63e56cf60b8d2cb43989480b77aeb66f", "rental_uris": {"ios": "https://dc.lft.to/lastmile_qr_scan", "android": "https://dc.lft.to/lastmile_qr_scan"}}, {"name": "5cd229948eaca75258224d1fd022cea2", "type": "electric_scooter", "lat": 38.90626616666667, "is_reserved": 0, "lon": -76.9831595, "fusion_lon": 0.0, "is_disabled": 0, "fusion_lat": 0.0, "bike_id": "5cd229948eaca75258224d1fd022cea2", "rental_uris": {"ios": "https://dc.lft.to/lastmile_qr_scan", "android": "https://dc.lft.to/lastmile_qr_scan"}}, {"name": "8183094c4345bcfb8d61c93da325d694", "type": "electric_scooter", "lat": 38.891062833333336, "is_reserved": 0, "lon": -76.98704683333334, "fusion_lon": 0.0, "is_disabled": 0, "fusion_lat": 0.0, "bike_id": "8183094c4345bcfb8d61c93da325d694", "rental_uris": {"ios": "https://dc.lft.to/lastmile_qr_scan", "android": "https://dc.lft.to/lastmile_qr_scan"}}, {"name": "1d80109ff72af187bd55efca9c55c065", "type": "electric_scooter", "lat": 38.9128465, "is_reserved": 0, "lon": -77.027867, "fusion_lon": 0.0, "is_disabled": 0, "fusion_lat": 0.0, "bike_id": "1d80109ff72af187bd55efca9c55c065", "rental_uris": {"ios": "https://dc.lft.to/lastmile_qr_scan", "android": "https://dc.lft.to/lastmile_qr_scan"}}, {"name": "cecf553b2aca2779177994d899282edf", "type": "electric_scooter", "lat": 38.9024105, "is_reserved": 0, "lon": -77.00197016666667, "fusion_lon": 0.0, "is_disabled": 0, "fusion_lat": 0.0, "bike_id": "cecf553b2aca2779177994d899282edf", "rental_uris": {"ios": "https://dc.lft.to/lastmile_qr_scan", "android": "https://dc.lft.to/lastmile_qr_scan"}}, {"name": "39f3cc590961b1bc97dccbb44c0ab11a", "type": "electric_scooter", "lat": 38.903822, "is_reserved": 0, "lon": -77.05335133333334, "fusion_lon": 0.0, "is_disabled": 0, "fusion_lat": 0.0, "bike_id": "39f3cc590961b1bc97dccbb44c0ab11a", "rental_uris": {"ios": "https://dc.lft.to/lastmile_qr_scan", "android": "https://dc.lft.to/lastmile_qr_scan"}}, {"name": "60a7163dc6f37f575a5c826dbe18a789", "type": "electric_bike", "lat": 38.892173, "is_reserved": 0, "lon": -77.10772366666667, "fusion_lon": 0.0, "is_disabled": 0, "fusion_lat": 0.0, "bike_id": "60a7163dc6f37f575a5c826dbe18a789", "rental_uris": {"ios": "https://dc.lft.to/lastmile_qr_scan", "android": "https://dc.lft.to/lastmile_qr_scan"}}, {"name": "91d3315b75051212d2119f696dbafb0d", "type": "electric_scooter", "lat": 38.93611633333333, "is_reserved": 0, "lon": -77.05856233333333, "fusion_lon": 0.0, "is_disabled": 0, "fusion_lat": 0.0, "bike_id": "91d3315b75051212d2119f696dbafb0d", "rental_uris": {"ios": "https://dc.lft.to/lastmile_qr_scan", "android": "https://dc.lft.to/lastmile_qr_scan"}}, {"name": "0a702636b62cf290d14179f3bbb3b83c", "type": "electric_scooter", "lat": 38.905242666666666, "is_reserved": 0, "lon": -77.04143283333333, "fusion_lon": 0.0, "is_disabled": 0, "fusion_lat": 0.0, "bike_id": "0a702636b62cf290d14179f3bbb3b83c", "rental_uris": {"ios": "https://dc.lft.to/lastmile_qr_scan", "android": "https://dc.lft.to/lastmile_qr_scan"}}, {"name": "3f5f6abf757558b83c9ee732f2a971f1", "type": "electric_scooter", "lat": 38.933932166666665, "is_reserved": 0, "lon": -77.03580683333334, "fusion_lon": 0.0, "is_disabled": 0, "fusion_lat": 0.0, "bike_id": "3f5f6abf757558b83c9ee732f2a971f1", "rental_uris": {"ios": "https://dc.lft.to/lastmile_qr_scan", "android": "https://dc.lft.to/lastmile_qr_scan"}}, {"name": "d8a1fc2c2277f2e453c155bd6f84c473", "type": "electric_scooter", "lat": 38.877590166666664, "is_reserved": 0, "lon": -76.99421766666667, "fusion_lon": 0.0, "is_disabled": 0, "fusion_lat": 0.0, "bike_id": "d8a1fc2c2277f2e453c155bd6f84c473", "rental_uris": {"ios": "https://dc.lft.to/lastmile_qr_scan", "android": "https://dc.lft.to/lastmile_qr_scan"}}, {"name": "8a8f30da0b078bfd7e0b8aae1895513c", "type": "electric_scooter", "lat": 38.883250833333335, "is_reserved": 0, "lon": -77.02401016666667, "fusion_lon": 0.0, "is_disabled": 0, "fusion_lat": 0.0, "bike_id": "8a8f30da0b078bfd7e0b8aae1895513c", "rental_uris": {"ios": "https://dc.lft.to/lastmile_qr_scan", "android": "https://dc.lft.to/lastmile_qr_scan"}}, {"name": "effb6392c577c3edb04b083aec4d42d7", "type": "electric_scooter", "lat": 38.94297133333333, "is_reserved": 0, "lon": -77.02179316666667, "fusion_lon": 0.0, "is_disabled": 0, "fusion_lat": 0.0, "bike_id": "effb6392c577c3edb04b083aec4d42d7", "rental_uris": {"ios": "https://dc.lft.to/lastmile_qr_scan", "android": "https://dc.lft.to/lastmile_qr_scan"}}, {"name": "94449cc196d9567d62827a3a14047a0c", "type": "electric_scooter", "lat": 38.911175, "is_reserved": 0, "lon": -77.0435765, "fusion_lon": 0.0, "is_disabled": 0, "fusion_lat": 0.0, "bike_id": "94449cc196d9567d62827a3a14047a0c", "rental_uris": {"ios": "https://dc.lft.to/lastmile_qr_scan", "android": "https://dc.lft.to/lastmile_qr_scan"}}, {"name": "0d4970ddfe1caf345ee4f6c317de4dc6", "type": "electric_scooter", "lat": 38.924814166666664, "is_reserved": 0, "lon": -77.05217633333334, "fusion_lon": 0.0, "is_disabled": 0, "fusion_lat": 0.0, "bike_id": "0d4970ddfe1caf345ee4f6c317de4dc6", "rental_uris": {"ios": "https://dc.lft.to/lastmile_qr_scan", "android": "https://dc.lft.to/lastmile_qr_scan"}}, {"name": "16f4a2d64be3b0d7c056e72988aa1ec1", "type": "electric_scooter", "lat": 38.93751316666667, "is_reserved": 0, "lon": -77.0350255, "fusion_lon": 0.0, "is_disabled": 0, "fusion_lat": 0.0, "bike_id": "16f4a2d64be3b0d7c056e72988aa1ec1", "rental_uris": {"ios": "https://dc.lft.to/lastmile_qr_scan", "android": "https://dc.lft.to/lastmile_qr_scan"}}, {"name": "c671e933d28ce2aa54d92ce071701fd8", "type": "electric_scooter", "lat": 38.907265, "is_reserved": 0, "lon": -77.03399483333334, "fusion_lon": 0.0, "is_disabled": 0, "fusion_lat": 0.0, "bike_id": "c671e933d28ce2aa54d92ce071701fd8", "rental_uris": {"ios": "https://dc.lft.to/lastmile_qr_scan", "android": "https://dc.lft.to/lastmile_qr_scan"}}, {"name": "8f351d92878054ca0789bda647e6676c", "type": "electric_scooter", "lat": 38.84294283333333, "is_reserved": 0, "lon": -76.9994955, "fusion_lon": 0.0, "is_disabled": 0, "fusion_lat": 0.0, "bike_id": "8f351d92878054ca0789bda647e6676c", "rental_uris": {"ios": "https://dc.lft.to/lastmile_qr_scan", "android": "https://dc.lft.to/lastmile_qr_scan"}}, {"name": "4badb8e9db1d44f47bd676815b4bf8ba", "type": "electric_bike", "lat": 38.89739766666667, "is_reserved": 0, "lon": -76.99222783333333, "fusion_lon": 0.0, "is_disabled": 0, "fusion_lat": 0.0, "bike_id": "4badb8e9db1d44f47bd676815b4bf8ba", "rental_uris": {"ios": "https://dc.lft.to/lastmile_qr_scan", "android": "https://dc.lft.to/lastmile_qr_scan"}}, {"name": "581d79e77f91cc13b692d920b15ac1ba", "type": "electric_scooter", "lat": 38.902713166666665, "is_reserved": 0, "lon": -77.06115116666666, "fusion_lon": 0.0, "is_disabled": 0, "fusion_lat": 0.0, "bike_id": "581d79e77f91cc13b692d920b15ac1ba", "rental_uris": {"ios": "https://dc.lft.to/lastmile_qr_scan", "android": "https://dc.lft.to/lastmile_qr_scan"}}, {"name": "18c4dd5cf2a5968e569f17b428106384", "type": "electric_bike", "lat": 38.92212216666667, "is_reserved": 0, "lon": -76.98834183333334, "fusion_lon": 0.0, "is_disabled": 0, "fusion_lat": 0.0, "bike_id": "18c4dd5cf2a5968e569f17b428106384", "rental_uris": {"ios": "https://dc.lft.to/lastmile_qr_scan", "android": "https://dc.lft.to/lastmile_qr_scan"}}, {"name": "909e70fd04c8c91dbb277432477160e0", "type": "electric_bike", "lat": 38.968961, "is_reserved": 0, "lon": -76.9566275, "fusion_lon": 0.0, "is_disabled": 0, "fusion_lat": 0.0, "bike_id": "909e70fd04c8c91dbb277432477160e0", "rental_uris": {"ios": "https://dc.lft.to/lastmile_qr_scan", "android": "https://dc.lft.to/lastmile_qr_scan"}}, {"name": "fe23df4133f3e63eb131be644dc49f90", "type": "electric_bike", "lat": 38.99238033333334, "is_reserved": 0, "lon": -76.87817633333333, "fusion_lon": 0.0, "is_disabled": 0, "fusion_lat": 0.0, "bike_id": "fe23df4133f3e63eb131be644dc49f90", "rental_uris": {"ios": "https://dc.lft.to/lastmile_qr_scan", "android": "https://dc.lft.to/lastmile_qr_scan"}}, {"name": "edd12344315fc5caae00294f055eb238", "type": "electric_scooter", "lat": 38.905611666666665, "is_reserved": 0, "lon": -77.02402166666667, "fusion_lon": 0.0, "is_disabled": 0, "fusion_lat": 0.0, "bike_id": "edd12344315fc5caae00294f055eb238", "rental_uris": {"ios": "https://dc.lft.to/lastmile_qr_scan", "android": "https://dc.lft.to/lastmile_qr_scan"}}, {"name": "dd7ece114962d2ed99f94d1461a3bac1", "type": "electric_scooter", "lat": 38.91110333333334, "is_reserved": 0, "lon": -77.03733016666666, "fusion_lon": 0.0, "is_disabled": 0, "fusion_lat": 0.0, "bike_id": "dd7ece114962d2ed99f94d1461a3bac1", "rental_uris": {"ios": "https://dc.lft.to/lastmile_qr_scan", "android": "https://dc.lft.to/lastmile_qr_scan"}}, {"name": "2ba09bc9764ea2bc5a44ba575f0d96e3", "type": "electric_scooter", "lat": 38.90054266666667, "is_reserved": 0, "lon": -77.03212016666667, "fusion_lon": 0.0, "is_disabled": 0, "fusion_lat": 0.0, "bike_id": "2ba09bc9764ea2bc5a44ba575f0d96e3", "rental_uris": {"ios": "https://dc.lft.to/lastmile_qr_scan", "android": "https://dc.lft.to/lastmile_qr_scan"}}, {"name": "a627e81fd55dad37620518ec8aa18bdd", "type": "electric_bike", "lat": 38.911615833333336, "is_reserved": 0, "lon": -77.0026945, "fusion_lon": 0.0, "is_disabled": 0, "fusion_lat": 0.0, "bike_id": "a627e81fd55dad37620518ec8aa18bdd", "rental_uris": {"ios": "https://dc.lft.to/lastmile_qr_scan", "android": "https://dc.lft.to/lastmile_qr_scan"}}, {"name": "fd45812771314f08e7b7cd7327a09f25", "type": "electric_scooter", "lat": 38.92485816666667, "is_reserved": 0, "lon": -77.02712133333333, "fusion_lon": 0.0, "is_disabled": 0, "fusion_lat": 0.0, "bike_id": "fd45812771314f08e7b7cd7327a09f25", "rental_uris": {"ios": "https://dc.lft.to/lastmile_qr_scan", "android": "https://dc.lft.to/lastmile_qr_scan"}}, {"name": "348e9e40bfaec6a8887dee97ed495c12", "type": "electric_scooter", "lat": 38.89918016666667, "is_reserved": 0, "lon": -76.93382233333334, "fusion_lon": 0.0, "is_disabled": 0, "fusion_lat": 0.0, "bike_id": "348e9e40bfaec6a8887dee97ed495c12", "rental_uris": {"ios": "https://dc.lft.to/lastmile_qr_scan", "android": "https://dc.lft.to/lastmile_qr_scan"}}, {"name": "3ef7af4c77a33213ce712c728f1c179c", "type": "electric_scooter", "lat": 38.930953, "is_reserved": 0, "lon": -77.0366785, "fusion_lon": 0.0, "is_disabled": 0, "fusion_lat": 0.0, "bike_id": "3ef7af4c77a33213ce712c728f1c179c", "rental_uris": {"ios": "https://dc.lft.to/lastmile_qr_scan", "android": "https://dc.lft.to/lastmile_qr_scan"}}, {"name": "4511d38c6343cb20e0ab05468c3f1ebf", "type": "electric_bike", "lat": 38.8804335, "is_reserved": 0, "lon": -77.02520516666667, "fusion_lon": 0.0, "is_disabled": 0, "fusion_lat": 0.0, "bike_id": "4511d38c6343cb20e0ab05468c3f1ebf", "rental_uris": {"ios": "https://dc.lft.to/lastmile_qr_scan", "android": "https://dc.lft.to/lastmile_qr_scan"}}, {"name": "2856ce82b70b0a20e575369c2a5de4eb", "type": "electric_scooter", "lat": 38.924251166666664, "is_reserved": 0, "lon": -77.0517945, "fusion_lon": 0.0, "is_disabled": 0, "fusion_lat": 0.0, "bike_id": "2856ce82b70b0a20e575369c2a5de4eb", "rental_uris": {"ios": "https://dc.lft.to/lastmile_qr_scan", "android": "https://dc.lft.to/lastmile_qr_scan"}}, {"name": "b1889691e1ff5ff4a100cf64b3c15bdf", "type": "electric_scooter", "lat": 38.957311, "is_reserved": 0, "lon": -77.024039, "fusion_lon": 0.0, "is_disabled": 0, "fusion_lat": 0.0, "bike_id": "b1889691e1ff5ff4a100cf64b3c15bdf", "rental_uris": {"ios": "https://dc.lft.to/lastmile_qr_scan", "android": "https://dc.lft.to/lastmile_qr_scan"}}, {"name": "d7107fadff16d218903b0efadbdf81eb", "type": "electric_scooter", "lat": 38.90247166666666, "is_reserved": 0, "lon": -76.97926866666667, "fusion_lon": 0.0, "is_disabled": 0, "fusion_lat": 0.0, "bike_id": "d7107fadff16d218903b0efadbdf81eb", "rental_uris": {"ios": "https://dc.lft.to/lastmile_qr_scan", "android": "https://dc.lft.to/lastmile_qr_scan"}}, {"name": "9f11358c0b843b2f55c45a4406200c4f", "type": "electric_scooter", "lat": 38.89474583333333, "is_reserved": 0, "lon": -76.98403683333333, "fusion_lon": 0.0, "is_disabled": 0, "fusion_lat": 0.0, "bike_id": "9f11358c0b843b2f55c45a4406200c4f", "rental_uris": {"ios": "https://dc.lft.to/lastmile_qr_scan", "android": "https://dc.lft.to/lastmile_qr_scan"}}, {"name": "5567c9762706f66f4d7d75f8365fd22e", "type": "electric_scooter", "lat": 38.943154166666666, "is_reserved": 0, "lon": -77.059165, "fusion_lon": 0.0, "is_disabled": 0, "fusion_lat": 0.0, "bike_id": "5567c9762706f66f4d7d75f8365fd22e", "rental_uris": {"ios": "https://dc.lft.to/lastmile_qr_scan", "android": "https://dc.lft.to/lastmile_qr_scan"}}, {"name": "5982ede804ecb6ef49afdb0235a88b93", "type": "electric_scooter", "lat": 38.901329, "is_reserved": 0, "lon": -77.04494283333334, "fusion_lon": 0.0, "is_disabled": 0, "fusion_lat": 0.0, "bike_id": "5982ede804ecb6ef49afdb0235a88b93", "rental_uris": {"ios": "https://dc.lft.to/lastmile_qr_scan", "android": "https://dc.lft.to/lastmile_qr_scan"}}, {"name": "3fc878ad954d2b812bdab8501b3d9531", "type": "electric_bike", "lat": 38.85159, "is_reserved": 0, "lon": -77.12877166666667, "fusion_lon": 0.0, "is_disabled": 0, "fusion_lat": 0.0, "bike_id": "3fc878ad954d2b812bdab8501b3d9531", "rental_uris": {"ios": "https://dc.lft.to/lastmile_qr_scan", "android": "https://dc.lft.to/lastmile_qr_scan"}}, {"name": "d358134fc3ecfa6f8a1797c40d62215b", "type": "electric_scooter", "lat": 38.869449333333336, "is_reserved": 0, "lon": -76.97856866666666, "fusion_lon": 0.0, "is_disabled": 0, "fusion_lat": 0.0, "bike_id": "d358134fc3ecfa6f8a1797c40d62215b", "rental_uris": {"ios": "https://dc.lft.to/lastmile_qr_scan", "android": "https://dc.lft.to/lastmile_qr_scan"}}, {"name": "397e3c68caaa823fb6203f38a055d51d", "type": "electric_scooter", "lat": 38.93058516666667, "is_reserved": 0, "lon": -77.0394445, "fusion_lon": 0.0, "is_disabled": 0, "fusion_lat": 0.0, "bike_id": "397e3c68caaa823fb6203f38a055d51d", "rental_uris": {"ios": "https://dc.lft.to/lastmile_qr_scan", "android": "https://dc.lft.to/lastmile_qr_scan"}}, {"name": "cf740946a8c859bc48cd3f97dd315ab7", "type": "electric_scooter", "lat": 38.8657085, "is_reserved": 0, "lon": -76.98950216666667, "fusion_lon": 0.0, "is_disabled": 0, "fusion_lat": 0.0, "bike_id": "cf740946a8c859bc48cd3f97dd315ab7", "rental_uris": {"ios": "https://dc.lft.to/lastmile_qr_scan", "android": "https://dc.lft.to/lastmile_qr_scan"}}, {"name": "8fc4c301052416e865bf400bd40d7c6d", "type": "electric_bike", "lat": 38.884036, "is_reserved": 0, "lon": -77.04647966666667, "fusion_lon": 0.0, "is_disabled": 0, "fusion_lat": 0.0, "bike_id": "8fc4c301052416e865bf400bd40d7c6d", "rental_uris": {"ios": "https://dc.lft.to/lastmile_qr_scan", "android": "https://dc.lft.to/lastmile_qr_scan"}}, {"name": "a6adab1093ede34a6b126369441436b7", "type": "electric_scooter", "lat": 38.918115666666665, "is_reserved": 0, "lon": -77.0301935, "fusion_lon": 0.0, "is_disabled": 0, "fusion_lat": 0.0, "bike_id": "a6adab1093ede34a6b126369441436b7", "rental_uris": {"ios": "https://dc.lft.to/lastmile_qr_scan", "android": "https://dc.lft.to/lastmile_qr_scan"}}, {"name": "91ffd9af3159bfa4fd8bfcca2972514a", "type": "electric_scooter", "lat": 38.90433783333334, "is_reserved": 0, "lon": -77.0284255, "fusion_lon": 0.0, "is_disabled": 0, "fusion_lat": 0.0, "bike_id": "91ffd9af3159bfa4fd8bfcca2972514a", "rental_uris": {"ios": "https://dc.lft.to/lastmile_qr_scan", "android": "https://dc.lft.to/lastmile_qr_scan"}}, {"name": "d01f2fefbc45371c934fcce1ed2db88f", "type": "electric_scooter", "lat": 38.923193166666664, "is_reserved": 0, "lon": -77.0297325, "fusion_lon": 0.0, "is_disabled": 0, "fusion_lat": 0.0, "bike_id": "d01f2fefbc45371c934fcce1ed2db88f", "rental_uris": {"ios": "https://dc.lft.to/lastmile_qr_scan", "android": "https://dc.lft.to/lastmile_qr_scan"}}, {"name": "bd5b943c780a5799b7c152ae91a7c101", "type": "electric_scooter", "lat": 38.90546233333333, "is_reserved": 0, "lon": -77.05206516666667, "fusion_lon": 0.0, "is_disabled": 0, "fusion_lat": 0.0, "bike_id": "bd5b943c780a5799b7c152ae91a7c101", "rental_uris": {"ios": "https://dc.lft.to/lastmile_qr_scan", "android": "https://dc.lft.to/lastmile_qr_scan"}}, {"name": "aeb167f13b4b5a01009f89a13ef0b5a8", "type": "electric_scooter", "lat": 38.9184625, "is_reserved": 0, "lon": -77.06145766666667, "fusion_lon": 0.0, "is_disabled": 0, "fusion_lat": 0.0, "bike_id": "aeb167f13b4b5a01009f89a13ef0b5a8", "rental_uris": {"ios": "https://dc.lft.to/lastmile_qr_scan", "android": "https://dc.lft.to/lastmile_qr_scan"}}, {"name": "9ce80bb806068f32339cb2477297b5bb", "type": "electric_scooter", "lat": 38.92928066666666, "is_reserved": 0, "lon": -77.032546, "fusion_lon": 0.0, "is_disabled": 0, "fusion_lat": 0.0, "bike_id": "9ce80bb806068f32339cb2477297b5bb", "rental_uris": {"ios": "https://dc.lft.to/lastmile_qr_scan", "android": "https://dc.lft.to/lastmile_qr_scan"}}, {"name": "f0f316fcc3109d2786cb373d98a96099", "type": "electric_bike", "lat": 39.030420666666664, "is_reserved": 0, "lon": -77.09480466666666, "fusion_lon": 0.0, "is_disabled": 0, "fusion_lat": 0.0, "bike_id": "f0f316fcc3109d2786cb373d98a96099", "rental_uris": {"ios": "https://dc.lft.to/lastmile_qr_scan", "android": "https://dc.lft.to/lastmile_qr_scan"}}, {"name": "adfe00c4302cca0fee161f584efb0678", "type": "electric_scooter", "lat": 38.916855166666664, "is_reserved": 0, "lon": -77.0363845, "fusion_lon": 0.0, "is_disabled": 0, "fusion_lat": 0.0, "bike_id": "adfe00c4302cca0fee161f584efb0678", "rental_uris": {"ios": "https://dc.lft.to/lastmile_qr_scan", "android": "https://dc.lft.to/lastmile_qr_scan"}}, {"name": "5b6e31c6c6d0bf203e080bb809685e44", "type": "electric_bike", "lat": 38.970545, "is_reserved": 0, "lon": -76.93612266666666, "fusion_lon": 0.0, "is_disabled": 0, "fusion_lat": 0.0, "bike_id": "5b6e31c6c6d0bf203e080bb809685e44", "rental_uris": {"ios": "https://dc.lft.to/lastmile_qr_scan", "android": "https://dc.lft.to/lastmile_qr_scan"}}, {"name": "73f3f6df2670b94ffa39181da6cbda7d", "type": "electric_scooter", "lat": 38.937182666666665, "is_reserved": 0, "lon": -77.03650766666667, "fusion_lon": 0.0, "is_disabled": 0, "fusion_lat": 0.0, "bike_id": "73f3f6df2670b94ffa39181da6cbda7d", "rental_uris": {"ios": "https://dc.lft.to/lastmile_qr_scan", "android": "https://dc.lft.to/lastmile_qr_scan"}}, {"name": "07686a4419c2b935826cf7c0a0d7dff8", "type": "electric_bike", "lat": 38.913578, "is_reserved": 0, "lon": -77.02874616666666, "fusion_lon": 0.0, "is_disabled": 0, "fusion_lat": 0.0, "bike_id": "07686a4419c2b935826cf7c0a0d7dff8", "rental_uris": {"ios": "https://dc.lft.to/lastmile_qr_scan", "android": "https://dc.lft.to/lastmile_qr_scan"}}, {"name": "0075c872c919290c89ad471cb9ee13e1", "type": "electric_scooter", "lat": 38.9157425, "is_reserved": 0, "lon": -77.02198366666667, "fusion_lon": 0.0, "is_disabled": 0, "fusion_lat": 0.0, "bike_id": "0075c872c919290c89ad471cb9ee13e1", "rental_uris": {"ios": "https://dc.lft.to/lastmile_qr_scan", "android": "https://dc.lft.to/lastmile_qr_scan"}}, {"name": "3e0d736ab1ce25493a36bce89cae9d1b", "type": "electric_scooter", "lat": 38.91407566666667, "is_reserved": 0, "lon": -77.03912683333333, "fusion_lon": 0.0, "is_disabled": 0, "fusion_lat": 0.0, "bike_id": "3e0d736ab1ce25493a36bce89cae9d1b", "rental_uris": {"ios": "https://dc.lft.to/lastmile_qr_scan", "android": "https://dc.lft.to/lastmile_qr_scan"}}, {"name": "149a8c2c670857e61c4d73b80496a2f2", "type": "electric_scooter", "lat": 38.930649, "is_reserved": 0, "lon": -77.03821333333333, "fusion_lon": 0.0, "is_disabled": 0, "fusion_lat": 0.0, "bike_id": "149a8c2c670857e61c4d73b80496a2f2", "rental_uris": {"ios": "https://dc.lft.to/lastmile_qr_scan", "android": "https://dc.lft.to/lastmile_qr_scan"}}, {"name": "098deb32193c748f198d6f546b17a9c1", "type": "electric_scooter", "lat": 38.844229166666665, "is_reserved": 0, "lon": -76.997783, "fusion_lon": 0.0, "is_disabled": 0, "fusion_lat": 0.0, "bike_id": "098deb32193c748f198d6f546b17a9c1", "rental_uris": {"ios": "https://dc.lft.to/lastmile_qr_scan", "android": "https://dc.lft.to/lastmile_qr_scan"}}, {"name": "99b530284f76b4ac1199180bc5766a92", "type": "electric_scooter", "lat": 38.86244816666667, "is_reserved": 0, "lon": -76.994975, "fusion_lon": 0.0, "is_disabled": 0, "fusion_lat": 0.0, "bike_id": "99b530284f76b4ac1199180bc5766a92", "rental_uris": {"ios": "https://dc.lft.to/lastmile_qr_scan", "android": "https://dc.lft.to/lastmile_qr_scan"}}, {"name": "2b5e777d5693c29e43b84ed60ad0019e", "type": "electric_scooter", "lat": 38.9171825, "is_reserved": 0, "lon": -76.972406, "fusion_lon": 0.0, "is_disabled": 0, "fusion_lat": 0.0, "bike_id": "2b5e777d5693c29e43b84ed60ad0019e", "rental_uris": {"ios": "https://dc.lft.to/lastmile_qr_scan", "android": "https://dc.lft.to/lastmile_qr_scan"}}, {"name": "1a3cbba2a7315ec535fd9fb5e6dcbc1c", "type": "electric_scooter", "lat": 38.8719715, "is_reserved": 0, "lon": -77.00576933333333, "fusion_lon": 0.0, "is_disabled": 0, "fusion_lat": 0.0, "bike_id": "1a3cbba2a7315ec535fd9fb5e6dcbc1c", "rental_uris": {"ios": "https://dc.lft.to/lastmile_qr_scan", "android": "https://dc.lft.to/lastmile_qr_scan"}}, {"name": "78fa0cfa388137145bba3f8552a5f819", "type": "electric_scooter", "lat": 38.933718166666665, "is_reserved": 0, "lon": -77.02746466666666, "fusion_lon": 0.0, "is_disabled": 0, "fusion_lat": 0.0, "bike_id": "78fa0cfa388137145bba3f8552a5f819", "rental_uris": {"ios": "https://dc.lft.to/lastmile_qr_scan", "android": "https://dc.lft.to/lastmile_qr_scan"}}, {"name": "84c4ce8bcf407b7b7c9922d8b49fb568", "type": "electric_scooter", "lat": 38.89885816666666, "is_reserved": 0, "lon": -76.93176133333333, "fusion_lon": 0.0, "is_disabled": 0, "fusion_lat": 0.0, "bike_id": "84c4ce8bcf407b7b7c9922d8b49fb568", "rental_uris": {"ios": "https://dc.lft.to/lastmile_qr_scan", "android": "https://dc.lft.to/lastmile_qr_scan"}}, {"name": "5ba655d8395cef3de884e6d9ee13da37", "type": "electric_scooter", "lat": 38.90937916666667, "is_reserved": 0, "lon": -77.05789166666666, "fusion_lon": 0.0, "is_disabled": 0, "fusion_lat": 0.0, "bike_id": "5ba655d8395cef3de884e6d9ee13da37", "rental_uris": {"ios": "https://dc.lft.to/lastmile_qr_scan", "android": "https://dc.lft.to/lastmile_qr_scan"}}, {"name": "8105c65b89853867d1fc7d36bac3de56", "type": "electric_bike", "lat": 39.05205983333333, "is_reserved": 0, "lon": -77.109168, "fusion_lon": 0.0, "is_disabled": 0, "fusion_lat": 0.0, "bike_id": "8105c65b89853867d1fc7d36bac3de56", "rental_uris": {"ios": "https://dc.lft.to/lastmile_qr_scan", "android": "https://dc.lft.to/lastmile_qr_scan"}}, {"name": "76523ce4247820face319e3e021a5760", "type": "electric_scooter", "lat": 38.91556833333333, "is_reserved": 0, "lon": -77.0294875, "fusion_lon": 0.0, "is_disabled": 0, "fusion_lat": 0.0, "bike_id": "76523ce4247820face319e3e021a5760", "rental_uris": {"ios": "https://dc.lft.to/lastmile_qr_scan", "android": "https://dc.lft.to/lastmile_qr_scan"}}, {"name": "d7e9c8f982a26c905ebc5d71bf88e258", "type": "electric_scooter", "lat": 38.914959833333334, "is_reserved": 0, "lon": -77.01996533333333, "fusion_lon": 0.0, "is_disabled": 0, "fusion_lat": 0.0, "bike_id": "d7e9c8f982a26c905ebc5d71bf88e258", "rental_uris": {"ios": "https://dc.lft.to/lastmile_qr_scan", "android": "https://dc.lft.to/lastmile_qr_scan"}}, {"name": "250be21929dba56e2ac826d3fbc67421", "type": "electric_scooter", "lat": 38.89953633333333, "is_reserved": 0, "lon": -77.05272383333333, "fusion_lon": 0.0, "is_disabled": 0, "fusion_lat": 0.0, "bike_id": "250be21929dba56e2ac826d3fbc67421", "rental_uris": {"ios": "https://dc.lft.to/lastmile_qr_scan", "android": "https://dc.lft.to/lastmile_qr_scan"}}, {"name": "9465134b93ef3accd86367cae07bb1c3", "type": "electric_scooter", "lat": 38.901123, "is_reserved": 0, "lon": -77.03320533333333, "fusion_lon": 0.0, "is_disabled": 0, "fusion_lat": 0.0, "bike_id": "9465134b93ef3accd86367cae07bb1c3", "rental_uris": {"ios": "https://dc.lft.to/lastmile_qr_scan", "android": "https://dc.lft.to/lastmile_qr_scan"}}, {"name": "0cde43de12bd9d5075831249635ebed7", "type": "electric_scooter", "lat": 38.92721066666667, "is_reserved": 0, "lon": -77.03980116666666, "fusion_lon": 0.0, "is_disabled": 0, "fusion_lat": 0.0, "bike_id": "0cde43de12bd9d5075831249635ebed7", "rental_uris": {"ios": "https://dc.lft.to/lastmile_qr_scan", "android": "https://dc.lft.to/lastmile_qr_scan"}}, {"name": "e3c626bb6db99d2b7f17eab09d43d9c4", "type": "electric_scooter", "lat": 38.90533666666666, "is_reserved": 0, "lon": -77.06514916666667, "fusion_lon": 0.0, "is_disabled": 0, "fusion_lat": 0.0, "bike_id": "e3c626bb6db99d2b7f17eab09d43d9c4", "rental_uris": {"ios": "https://dc.lft.to/lastmile_qr_scan", "android": "https://dc.lft.to/lastmile_qr_scan"}}, {"name": "8513fa7a1a64ac797f00d542de3d19b4", "type": "electric_scooter", "lat": 38.897594166666664, "is_reserved": 0, "lon": -77.029374, "fusion_lon": 0.0, "is_disabled": 0, "fusion_lat": 0.0, "bike_id": "8513fa7a1a64ac797f00d542de3d19b4", "rental_uris": {"ios": "https://dc.lft.to/lastmile_qr_scan", "android": "https://dc.lft.to/lastmile_qr_scan"}}, {"name": "57cd2155a680b34e7f2d8f1d70f64246", "type": "electric_scooter", "lat": 38.905893166666665, "is_reserved": 0, "lon": -77.062787, "fusion_lon": 0.0, "is_disabled": 0, "fusion_lat": 0.0, "bike_id": "57cd2155a680b34e7f2d8f1d70f64246", "rental_uris": {"ios": "https://dc.lft.to/lastmile_qr_scan", "android": "https://dc.lft.to/lastmile_qr_scan"}}, {"name": "110902d93097a616e502630fd6fde25d", "type": "electric_bike", "lat": 38.954800666666664, "is_reserved": 0, "lon": -77.08239966666666, "fusion_lon": 0.0, "is_disabled": 0, "fusion_lat": 0.0, "bike_id": "110902d93097a616e502630fd6fde25d", "rental_uris": {"ios": "https://dc.lft.to/lastmile_qr_scan", "android": "https://dc.lft.to/lastmile_qr_scan"}}, {"name": "f29aaa1309c743b943849c0e27cffd49", "type": "electric_scooter", "lat": 38.90973133333333, "is_reserved": 0, "lon": -77.04544833333334, "fusion_lon": 0.0, "is_disabled": 0, "fusion_lat": 0.0, "bike_id": "f29aaa1309c743b943849c0e27cffd49", "rental_uris": {"ios": "https://dc.lft.to/lastmile_qr_scan", "android": "https://dc.lft.to/lastmile_qr_scan"}}, {"name": "b8615f282d5b65b8daef5e43db103f88", "type": "electric_scooter", "lat": 38.92422883333333, "is_reserved": 0, "lon": -77.0195185, "fusion_lon": 0.0, "is_disabled": 0, "fusion_lat": 0.0, "bike_id": "b8615f282d5b65b8daef5e43db103f88", "rental_uris": {"ios": "https://dc.lft.to/lastmile_qr_scan", "android": "https://dc.lft.to/lastmile_qr_scan"}}, {"name": "f9ba18871892d21252967c821f3dc350", "type": "electric_scooter", "lat": 38.928733333333334, "is_reserved": 0, "lon": -77.04126833333333, "fusion_lon": 0.0, "is_disabled": 0, "fusion_lat": 0.0, "bike_id": "f9ba18871892d21252967c821f3dc350", "rental_uris": {"ios": "https://dc.lft.to/lastmile_qr_scan", "android": "https://dc.lft.to/lastmile_qr_scan"}}, {"name": "c1c73997d9ce7dba710ad2f4d8f4a8c6", "type": "electric_scooter", "lat": 38.923612166666665, "is_reserved": 0, "lon": -77.05042683333333, "fusion_lon": 0.0, "is_disabled": 0, "fusion_lat": 0.0, "bike_id": "c1c73997d9ce7dba710ad2f4d8f4a8c6", "rental_uris": {"ios": "https://dc.lft.to/lastmile_qr_scan", "android": "https://dc.lft.to/lastmile_qr_scan"}}, {"name": "2f280636b1cac70603b4652bf2635207", "type": "electric_scooter", "lat": 38.93369583333333, "is_reserved": 0, "lon": -77.05723383333333, "fusion_lon": 0.0, "is_disabled": 0, "fusion_lat": 0.0, "bike_id": "2f280636b1cac70603b4652bf2635207", "rental_uris": {"ios": "https://dc.lft.to/lastmile_qr_scan", "android": "https://dc.lft.to/lastmile_qr_scan"}}, {"name": "9df573b25c334673e0c5deac7def0743", "type": "electric_scooter", "lat": 38.8635455, "is_reserved": 0, "lon": -76.99082066666666, "fusion_lon": 0.0, "is_disabled": 0, "fusion_lat": 0.0, "bike_id": "9df573b25c334673e0c5deac7def0743", "rental_uris": {"ios": "https://dc.lft.to/lastmile_qr_scan", "android": "https://dc.lft.to/lastmile_qr_scan"}}, {"name": "eb6c5aed2505831f48e16ec3fe256195", "type": "electric_scooter", "lat": 38.90478383333333, "is_reserved": 0, "lon": -77.04166583333334, "fusion_lon": 0.0, "is_disabled": 0, "fusion_lat": 0.0, "bike_id": "eb6c5aed2505831f48e16ec3fe256195", "rental_uris": {"ios": "https://dc.lft.to/lastmile_qr_scan", "android": "https://dc.lft.to/lastmile_qr_scan"}}, {"name": "19739998d88cb66a8b7be4a4eb81faf1", "type": "electric_scooter", "lat": 38.907522666666665, "is_reserved": 0, "lon": -77.02395183333333, "fusion_lon": 0.0, "is_disabled": 0, "fusion_lat": 0.0, "bike_id": "19739998d88cb66a8b7be4a4eb81faf1", "rental_uris": {"ios": "https://dc.lft.to/lastmile_qr_scan", "android": "https://dc.lft.to/lastmile_qr_scan"}}, {"name": "cf446fe407db641750d77af4c2c627cf", "type": "electric_scooter", "lat": 38.9115215, "is_reserved": 0, "lon": -77.02689583333333, "fusion_lon": 0.0, "is_disabled": 0, "fusion_lat": 0.0, "bike_id": "cf446fe407db641750d77af4c2c627cf", "rental_uris": {"ios": "https://dc.lft.to/lastmile_qr_scan", "android": "https://dc.lft.to/lastmile_qr_scan"}}, {"name": "2cc10519b5896b2adc3b4c3dd51737e1", "type": "electric_scooter", "lat": 38.9179915, "is_reserved": 0, "lon": -77.027077, "fusion_lon": 0.0, "is_disabled": 0, "fusion_lat": 0.0, "bike_id": "2cc10519b5896b2adc3b4c3dd51737e1", "rental_uris": {"ios": "https://dc.lft.to/lastmile_qr_scan", "android": "https://dc.lft.to/lastmile_qr_scan"}}, {"name": "2e079e42bfebad14f3886e9f036f065e", "type": "electric_scooter", "lat": 38.916590666666664, "is_reserved": 0, "lon": -77.02696216666666, "fusion_lon": 0.0, "is_disabled": 0, "fusion_lat": 0.0, "bike_id": "2e079e42bfebad14f3886e9f036f065e", "rental_uris": {"ios": "https://dc.lft.to/lastmile_qr_scan", "android": "https://dc.lft.to/lastmile_qr_scan"}}, {"name": "91afbaa6e772537f1849e6ffebe26498", "type": "electric_scooter", "lat": 38.9141405, "is_reserved": 0, "lon": -77.00971216666667, "fusion_lon": 0.0, "is_disabled": 0, "fusion_lat": 0.0, "bike_id": "91afbaa6e772537f1849e6ffebe26498", "rental_uris": {"ios": "https://dc.lft.to/lastmile_qr_scan", "android": "https://dc.lft.to/lastmile_qr_scan"}}, {"name": "9a3868d9578e8978a808b21b4c43a74f", "type": "electric_scooter", "lat": 38.8989655, "is_reserved": 0, "lon": -77.03997283333334, "fusion_lon": 0.0, "is_disabled": 0, "fusion_lat": 0.0, "bike_id": "9a3868d9578e8978a808b21b4c43a74f", "rental_uris": {"ios": "https://dc.lft.to/lastmile_qr_scan", "android": "https://dc.lft.to/lastmile_qr_scan"}}, {"name": "b62173fab80cb2a25f3c4c39b94b5f6d", "type": "electric_scooter", "lat": 38.919607, "is_reserved": 0, "lon": -77.02390133333333, "fusion_lon": 0.0, "is_disabled": 0, "fusion_lat": 0.0, "bike_id": "b62173fab80cb2a25f3c4c39b94b5f6d", "rental_uris": {"ios": "https://dc.lft.to/lastmile_qr_scan", "android": "https://dc.lft.to/lastmile_qr_scan"}}, {"name": "ad28f4a93c04d76fe96903a583b265ef", "type": "electric_scooter", "lat": 38.902321, "is_reserved": 0, "lon": -76.97407466666667, "fusion_lon": 0.0, "is_disabled": 0, "fusion_lat": 0.0, "bike_id": "ad28f4a93c04d76fe96903a583b265ef", "rental_uris": {"ios": "https://dc.lft.to/lastmile_qr_scan", "android": "https://dc.lft.to/lastmile_qr_scan"}}, {"name": "6318f14301b9db433d58ad6186d9c241", "type": "electric_scooter", "lat": 38.87972416666667, "is_reserved": 0, "lon": -77.02432516666667, "fusion_lon": 0.0, "is_disabled": 0, "fusion_lat": 0.0, "bike_id": "6318f14301b9db433d58ad6186d9c241", "rental_uris": {"ios": "https://dc.lft.to/lastmile_qr_scan", "android": "https://dc.lft.to/lastmile_qr_scan"}}, {"name": "21bb230b55aaf927a9db1837b02c1075", "type": "electric_scooter", "lat": 38.91486, "is_reserved": 0, "lon": -77.02443566666666, "fusion_lon": 0.0, "is_disabled": 0, "fusion_lat": 0.0, "bike_id": "21bb230b55aaf927a9db1837b02c1075", "rental_uris": {"ios": "https://dc.lft.to/lastmile_qr_scan", "android": "https://dc.lft.to/lastmile_qr_scan"}}, {"name": "af2117e7ffa5a64ccf182c7c59c1ef87", "type": "electric_scooter", "lat": 38.89669133333334, "is_reserved": 0, "lon": -76.947271, "fusion_lon": 0.0, "is_disabled": 0, "fusion_lat": 0.0, "bike_id": "af2117e7ffa5a64ccf182c7c59c1ef87", "rental_uris": {"ios": "https://dc.lft.to/lastmile_qr_scan", "android": "https://dc.lft.to/lastmile_qr_scan"}}, {"name": "3b34b55644e704007f3c672d5e5946d8", "type": "electric_scooter", "lat": 38.926727, "is_reserved": 0, "lon": -76.995399, "fusion_lon": 0.0, "is_disabled": 0, "fusion_lat": 0.0, "bike_id": "3b34b55644e704007f3c672d5e5946d8", "rental_uris": {"ios": "https://dc.lft.to/lastmile_qr_scan", "android": "https://dc.lft.to/lastmile_qr_scan"}}, {"name": "6cc314f350db21837ab032c48c90b545", "type": "electric_scooter", "lat": 38.84422966666666, "is_reserved": 0, "lon": -76.99780783333334, "fusion_lon": 0.0, "is_disabled": 0, "fusion_lat": 0.0, "bike_id": "6cc314f350db21837ab032c48c90b545", "rental_uris": {"ios": "https://dc.lft.to/lastmile_qr_scan", "android": "https://dc.lft.to/lastmile_qr_scan"}}, {"name": "308be003ae45fdae787842afee59fd81", "type": "electric_scooter", "lat": 38.89987, "is_reserved": 0, "lon": -76.98385316666666, "fusion_lon": 0.0, "is_disabled": 0, "fusion_lat": 0.0, "bike_id": "308be003ae45fdae787842afee59fd81", "rental_uris": {"ios": "https://dc.lft.to/lastmile_qr_scan", "android": "https://dc.lft.to/lastmile_qr_scan"}}, {"name": "a22d4e6733e9fffb6b44ea9c80f9f15e", "type": "electric_scooter", "lat": 38.885653833333336, "is_reserved": 0, "lon": -76.9487215, "fusion_lon": 0.0, "is_disabled": 0, "fusion_lat": 0.0, "bike_id": "a22d4e6733e9fffb6b44ea9c80f9f15e", "rental_uris": {"ios": "https://dc.lft.to/lastmile_qr_scan", "android": "https://dc.lft.to/lastmile_qr_scan"}}, {"name": "a86176eb4c9e4a7fcae6d7a9ce3feaf9", "type": "electric_scooter", "lat": 38.87836133333333, "is_reserved": 0, "lon": -77.0005165, "fusion_lon": 0.0, "is_disabled": 0, "fusion_lat": 0.0, "bike_id": "a86176eb4c9e4a7fcae6d7a9ce3feaf9", "rental_uris": {"ios": "https://dc.lft.to/lastmile_qr_scan", "android": "https://dc.lft.to/lastmile_qr_scan"}}, {"name": "46fce12e373306ec279676d7bc84f590", "type": "electric_scooter", "lat": 38.898978, "is_reserved": 0, "lon": -77.03283316666666, "fusion_lon": 0.0, "is_disabled": 0, "fusion_lat": 0.0, "bike_id": "46fce12e373306ec279676d7bc84f590", "rental_uris": {"ios": "https://dc.lft.to/lastmile_qr_scan", "android": "https://dc.lft.to/lastmile_qr_scan"}}, {"name": "169cf7342cb1c838be13ce77c355a945", "type": "electric_scooter", "lat": 38.935408333333335, "is_reserved": 0, "lon": -77.03401433333333, "fusion_lon": 0.0, "is_disabled": 0, "fusion_lat": 0.0, "bike_id": "169cf7342cb1c838be13ce77c355a945", "rental_uris": {"ios": "https://dc.lft.to/lastmile_qr_scan", "android": "https://dc.lft.to/lastmile_qr_scan"}}, {"name": "23f2f52aa3a1b17af7a55c4dc76ae87d", "type": "electric_scooter", "lat": 38.91638483333333, "is_reserved": 0, "lon": -77.0320525, "fusion_lon": 0.0, "is_disabled": 0, "fusion_lat": 0.0, "bike_id": "23f2f52aa3a1b17af7a55c4dc76ae87d", "rental_uris": {"ios": "https://dc.lft.to/lastmile_qr_scan", "android": "https://dc.lft.to/lastmile_qr_scan"}}, {"name": "644926b9059ee7d090b892e8d295e15a", "type": "electric_bike", "lat": 38.810512, "is_reserved": 0, "lon": -77.0851195, "fusion_lon": 0.0, "is_disabled": 0, "fusion_lat": 0.0, "bike_id": "644926b9059ee7d090b892e8d295e15a", "rental_uris": {"ios": "https://dc.lft.to/lastmile_qr_scan", "android": "https://dc.lft.to/lastmile_qr_scan"}}, {"name": "f904996666a79389658387ae8b8940cc", "type": "electric_bike", "lat": 38.8542665, "is_reserved": 0, "lon": -76.909648, "fusion_lon": 0.0, "is_disabled": 0, "fusion_lat": 0.0, "bike_id": "f904996666a79389658387ae8b8940cc", "rental_uris": {"ios": "https://dc.lft.to/lastmile_qr_scan", "android": "https://dc.lft.to/lastmile_qr_scan"}}, {"name": "d85cdd5650f332fd04461348eb134613", "type": "electric_scooter", "lat": 38.892255666666664, "is_reserved": 0, "lon": -77.04536833333333, "fusion_lon": 0.0, "is_disabled": 0, "fusion_lat": 0.0, "bike_id": "d85cdd5650f332fd04461348eb134613", "rental_uris": {"ios": "https://dc.lft.to/lastmile_qr_scan", "android": "https://dc.lft.to/lastmile_qr_scan"}}, {"name": "a158027d04e97dff7466803dc079443b", "type": "electric_bike", "lat": 39.02684033333333, "is_reserved": 0, "lon": -77.12603033333333, "fusion_lon": 0.0, "is_disabled": 0, "fusion_lat": 0.0, "bike_id": "a158027d04e97dff7466803dc079443b", "rental_uris": {"ios": "https://dc.lft.to/lastmile_qr_scan", "android": "https://dc.lft.to/lastmile_qr_scan"}}, {"name": "4a024fba686a5f975fc1ee1f7a30db1d", "type": "electric_scooter", "lat": 38.91675166666667, "is_reserved": 0, "lon": -77.02386216666666, "fusion_lon": 0.0, "is_disabled": 0, "fusion_lat": 0.0, "bike_id": "4a024fba686a5f975fc1ee1f7a30db1d", "rental_uris": {"ios": "https://dc.lft.to/lastmile_qr_scan", "android": "https://dc.lft.to/lastmile_qr_scan"}}, {"name": "48c5b051aac9426a0c067d64fd797494", "type": "electric_scooter", "lat": 38.929028333333335, "is_reserved": 0, "lon": -77.02163316666666, "fusion_lon": 0.0, "is_disabled": 0, "fusion_lat": 0.0, "bike_id": "48c5b051aac9426a0c067d64fd797494", "rental_uris": {"ios": "https://dc.lft.to/lastmile_qr_scan", "android": "https://dc.lft.to/lastmile_qr_scan"}}, {"name": "b61bf666759a3bf57fb95d2d5a94c66c", "type": "electric_scooter", "lat": 38.9349415, "is_reserved": 0, "lon": -77.028544, "fusion_lon": 0.0, "is_disabled": 0, "fusion_lat": 0.0, "bike_id": "b61bf666759a3bf57fb95d2d5a94c66c", "rental_uris": {"ios": "https://dc.lft.to/lastmile_qr_scan", "android": "https://dc.lft.to/lastmile_qr_scan"}}, {"name": "d92b361ef326ca20c4424863a89493b3", "type": "electric_scooter", "lat": 38.905333166666665, "is_reserved": 0, "lon": -77.059147, "fusion_lon": 0.0, "is_disabled": 0, "fusion_lat": 0.0, "bike_id": "d92b361ef326ca20c4424863a89493b3", "rental_uris": {"ios": "https://dc.lft.to/lastmile_qr_scan", "android": "https://dc.lft.to/lastmile_qr_scan"}}, {"name": "320b01feef10a777d3970e065e7a798a", "type": "electric_scooter", "lat": 38.88415283333333, "is_reserved": 0, "lon": -77.01498516666666, "fusion_lon": 0.0, "is_disabled": 0, "fusion_lat": 0.0, "bike_id": "320b01feef10a777d3970e065e7a798a", "rental_uris": {"ios": "https://dc.lft.to/lastmile_qr_scan", "android": "https://dc.lft.to/lastmile_qr_scan"}}, {"name": "97723af66cbcb73c6e2f2079c7c725fb", "type": "electric_scooter", "lat": 38.866726166666666, "is_reserved": 0, "lon": -76.984427, "fusion_lon": 0.0, "is_disabled": 0, "fusion_lat": 0.0, "bike_id": "97723af66cbcb73c6e2f2079c7c725fb", "rental_uris": {"ios": "https://dc.lft.to/lastmile_qr_scan", "android": "https://dc.lft.to/lastmile_qr_scan"}}, {"name": "d6c203b4a6b616d7c8cf4f61abd230a7", "type": "electric_scooter", "lat": 38.90674666666666, "is_reserved": 0, "lon": -77.02383783333333, "fusion_lon": 0.0, "is_disabled": 0, "fusion_lat": 0.0, "bike_id": "d6c203b4a6b616d7c8cf4f61abd230a7", "rental_uris": {"ios": "https://dc.lft.to/lastmile_qr_scan", "android": "https://dc.lft.to/lastmile_qr_scan"}}, {"name": "8a321df673d477b96576b19738da9efe", "type": "electric_scooter", "lat": 38.92445516666667, "is_reserved": 0, "lon": -77.03357516666667, "fusion_lon": 0.0, "is_disabled": 0, "fusion_lat": 0.0, "bike_id": "8a321df673d477b96576b19738da9efe", "rental_uris": {"ios": "https://dc.lft.to/lastmile_qr_scan", "android": "https://dc.lft.to/lastmile_qr_scan"}}, {"name": "706861308ceed9937a7c28450a53c6f1", "type": "electric_scooter", "lat": 38.876743833333336, "is_reserved": 0, "lon": -77.0178405, "fusion_lon": 0.0, "is_disabled": 0, "fusion_lat": 0.0, "bike_id": "706861308ceed9937a7c28450a53c6f1", "rental_uris": {"ios": "https://dc.lft.to/lastmile_qr_scan", "android": "https://dc.lft.to/lastmile_qr_scan"}}, {"name": "8950d2277c024d3023b05acae6de26bc", "type": "electric_scooter", "lat": 38.94844466666667, "is_reserved": 0, "lon": -77.02711816666667, "fusion_lon": 0.0, "is_disabled": 0, "fusion_lat": 0.0, "bike_id": "8950d2277c024d3023b05acae6de26bc", "rental_uris": {"ios": "https://dc.lft.to/lastmile_qr_scan", "android": "https://dc.lft.to/lastmile_qr_scan"}}, {"name": "70d3aa5a8c58a8b6554b42cfca5a1259", "type": "electric_scooter", "lat": 38.936065666666664, "is_reserved": 0, "lon": -77.05861666666667, "fusion_lon": 0.0, "is_disabled": 0, "fusion_lat": 0.0, "bike_id": "70d3aa5a8c58a8b6554b42cfca5a1259", "rental_uris": {"ios": "https://dc.lft.to/lastmile_qr_scan", "android": "https://dc.lft.to/lastmile_qr_scan"}}, {"name": "0843e25cecab0a03b4c9c360e9c3d35b", "type": "electric_bike", "lat": 38.99089033333333, "is_reserved": 0, "lon": -76.874955, "fusion_lon": 0.0, "is_disabled": 0, "fusion_lat": 0.0, "bike_id": "0843e25cecab0a03b4c9c360e9c3d35b", "rental_uris": {"ios": "https://dc.lft.to/lastmile_qr_scan", "android": "https://dc.lft.to/lastmile_qr_scan"}}, {"name": "0da13c4250c29c9da884b8d952bc2a09", "type": "electric_scooter", "lat": 38.892335, "is_reserved": 0, "lon": -77.02207883333334, "fusion_lon": 0.0, "is_disabled": 0, "fusion_lat": 0.0, "bike_id": "0da13c4250c29c9da884b8d952bc2a09", "rental_uris": {"ios": "https://dc.lft.to/lastmile_qr_scan", "android": "https://dc.lft.to/lastmile_qr_scan"}}, {"name": "2fba21c5e8eac0ded147712dee93fb81", "type": "electric_bike", "lat": 38.828738333333334, "is_reserved": 0, "lon": -77.11218866666667, "fusion_lon": 0.0, "is_disabled": 0, "fusion_lat": 0.0, "bike_id": "2fba21c5e8eac0ded147712dee93fb81", "rental_uris": {"ios": "https://dc.lft.to/lastmile_qr_scan", "android": "https://dc.lft.to/lastmile_qr_scan"}}, {"name": "006b606286a5487571bb299ee1750b83", "type": "electric_scooter", "lat": 38.8949425, "is_reserved": 0, "lon": -77.010133, "fusion_lon": 0.0, "is_disabled": 0, "fusion_lat": 0.0, "bike_id": "006b606286a5487571bb299ee1750b83", "rental_uris": {"ios": "https://dc.lft.to/lastmile_qr_scan", "android": "https://dc.lft.to/lastmile_qr_scan"}}, {"name": "00e90c82389aa2da1f8494ba642d2a99", "type": "electric_scooter", "lat": 38.91831, "is_reserved": 0, "lon": -77.03143566666667, "fusion_lon": 0.0, "is_disabled": 0, "fusion_lat": 0.0, "bike_id": "00e90c82389aa2da1f8494ba642d2a99", "rental_uris": {"ios": "https://dc.lft.to/lastmile_qr_scan", "android": "https://dc.lft.to/lastmile_qr_scan"}}, {"name": "566de97c125c29233664dc4acdf13f8f", "type": "electric_scooter", "lat": 38.9359035, "is_reserved": 0, "lon": -77.0240885, "fusion_lon": 0.0, "is_disabled": 0, "fusion_lat": 0.0, "bike_id": "566de97c125c29233664dc4acdf13f8f", "rental_uris": {"ios": "https://dc.lft.to/lastmile_qr_scan", "android": "https://dc.lft.to/lastmile_qr_scan"}}, {"name": "bffcc334880bd2d10c5dec049545be1f", "type": "electric_scooter", "lat": 38.914886, "is_reserved": 0, "lon": -77.041547, "fusion_lon": 0.0, "is_disabled": 0, "fusion_lat": 0.0, "bike_id": "bffcc334880bd2d10c5dec049545be1f", "rental_uris": {"ios": "https://dc.lft.to/lastmile_qr_scan", "android": "https://dc.lft.to/lastmile_qr_scan"}}, {"name": "a0114e2f5943836b7b2498a537ec8269", "type": "electric_scooter", "lat": 38.93889, "is_reserved": 0, "lon": -77.02472783333333, "fusion_lon": 0.0, "is_disabled": 0, "fusion_lat": 0.0, "bike_id": "a0114e2f5943836b7b2498a537ec8269", "rental_uris": {"ios": "https://dc.lft.to/lastmile_qr_scan", "android": "https://dc.lft.to/lastmile_qr_scan"}}, {"name": "d2cd041e89066dfc470e3ff01deff7e7", "type": "electric_scooter", "lat": 38.887544, "is_reserved": 0, "lon": -76.97982466666667, "fusion_lon": 0.0, "is_disabled": 0, "fusion_lat": 0.0, "bike_id": "d2cd041e89066dfc470e3ff01deff7e7", "rental_uris": {"ios": "https://dc.lft.to/lastmile_qr_scan", "android": "https://dc.lft.to/lastmile_qr_scan"}}, {"name": "253b9fc2759677b13b20ecc906d85475", "type": "electric_bike", "lat": 38.922107833333335, "is_reserved": 0, "lon": -76.98804833333334, "fusion_lon": 0.0, "is_disabled": 0, "fusion_lat": 0.0, "bike_id": "253b9fc2759677b13b20ecc906d85475", "rental_uris": {"ios": "https://dc.lft.to/lastmile_qr_scan", "android": "https://dc.lft.to/lastmile_qr_scan"}}, {"name": "04b3fc94c0c5ec70216e188734af623c", "type": "electric_scooter", "lat": 38.884003166666666, "is_reserved": 0, "lon": -76.93042566666666, "fusion_lon": 0.0, "is_disabled": 0, "fusion_lat": 0.0, "bike_id": "04b3fc94c0c5ec70216e188734af623c", "rental_uris": {"ios": "https://dc.lft.to/lastmile_qr_scan", "android": "https://dc.lft.to/lastmile_qr_scan"}}, {"name": "21d6d8b3bd4fc0b58c85934f5ee69cf6", "type": "electric_scooter", "lat": 38.896365833333334, "is_reserved": 0, "lon": -77.032251, "fusion_lon": 0.0, "is_disabled": 0, "fusion_lat": 0.0, "bike_id": "21d6d8b3bd4fc0b58c85934f5ee69cf6", "rental_uris": {"ios": "https://dc.lft.to/lastmile_qr_scan", "android": "https://dc.lft.to/lastmile_qr_scan"}}, {"name": "9322df4afc10b6763189efb648e482c8", "type": "electric_scooter", "lat": 38.90377466666666, "is_reserved": 0, "lon": -77.05016866666666, "fusion_lon": 0.0, "is_disabled": 0, "fusion_lat": 0.0, "bike_id": "9322df4afc10b6763189efb648e482c8", "rental_uris": {"ios": "https://dc.lft.to/lastmile_qr_scan", "android": "https://dc.lft.to/lastmile_qr_scan"}}, {"name": "f07f483ac9d73e3b435422370d3299e1", "type": "electric_scooter", "lat": 38.92325566666667, "is_reserved": 0, "lon": -77.02970583333334, "fusion_lon": 0.0, "is_disabled": 0, "fusion_lat": 0.0, "bike_id": "f07f483ac9d73e3b435422370d3299e1", "rental_uris": {"ios": "https://dc.lft.to/lastmile_qr_scan", "android": "https://dc.lft.to/lastmile_qr_scan"}}, {"name": "c37521f0eeb5f76e2e37f1feeed32e9a", "type": "electric_scooter", "lat": 38.9086755, "is_reserved": 0, "lon": -76.9995385, "fusion_lon": 0.0, "is_disabled": 0, "fusion_lat": 0.0, "bike_id": "c37521f0eeb5f76e2e37f1feeed32e9a", "rental_uris": {"ios": "https://dc.lft.to/lastmile_qr_scan", "android": "https://dc.lft.to/lastmile_qr_scan"}}, {"name": "58ebebe8f2dac947cd49a11c1a1f7c82", "type": "electric_bike", "lat": 39.029369, "is_reserved": 0, "lon": -77.04926966666666, "fusion_lon": 0.0, "is_disabled": 0, "fusion_lat": 0.0, "bike_id": "58ebebe8f2dac947cd49a11c1a1f7c82", "rental_uris": {"ios": "https://dc.lft.to/lastmile_qr_scan", "android": "https://dc.lft.to/lastmile_qr_scan"}}, {"name": "d2360da55d0c4226eb45fa0452a967ff", "type": "electric_scooter", "lat": 38.92573866666667, "is_reserved": 0, "lon": -77.05298666666667, "fusion_lon": 0.0, "is_disabled": 0, "fusion_lat": 0.0, "bike_id": "d2360da55d0c4226eb45fa0452a967ff", "rental_uris": {"ios": "https://dc.lft.to/lastmile_qr_scan", "android": "https://dc.lft.to/lastmile_qr_scan"}}, {"name": "4c3bba6f0b59e567f18be2ff998faf54", "type": "electric_scooter", "lat": 38.9369715, "is_reserved": 0, "lon": -77.05602583333334, "fusion_lon": 0.0, "is_disabled": 0, "fusion_lat": 0.0, "bike_id": "4c3bba6f0b59e567f18be2ff998faf54", "rental_uris": {"ios": "https://dc.lft.to/lastmile_qr_scan", "android": "https://dc.lft.to/lastmile_qr_scan"}}, {"name": "650b5095a7f91049407521a18c27ab16", "type": "electric_scooter", "lat": 38.9330505, "is_reserved": 0, "lon": -77.0377285, "fusion_lon": 0.0, "is_disabled": 0, "fusion_lat": 0.0, "bike_id": "650b5095a7f91049407521a18c27ab16", "rental_uris": {"ios": "https://dc.lft.to/lastmile_qr_scan", "android": "https://dc.lft.to/lastmile_qr_scan"}}, {"name": "07957807874c19bc220f3f8b8f8bd799", "type": "electric_scooter", "lat": 38.88725016666667, "is_reserved": 0, "lon": -77.02824266666667, "fusion_lon": 0.0, "is_disabled": 0, "fusion_lat": 0.0, "bike_id": "07957807874c19bc220f3f8b8f8bd799", "rental_uris": {"ios": "https://dc.lft.to/lastmile_qr_scan", "android": "https://dc.lft.to/lastmile_qr_scan"}}, {"name": "5a7fc8da35bd9ce7c3794ff94a0c0302", "type": "electric_scooter", "lat": 38.906319333333336, "is_reserved": 0, "lon": -77.0515015, "fusion_lon": 0.0, "is_disabled": 0, "fusion_lat": 0.0, "bike_id": "5a7fc8da35bd9ce7c3794ff94a0c0302", "rental_uris": {"ios": "https://dc.lft.to/lastmile_qr_scan", "android": "https://dc.lft.to/lastmile_qr_scan"}}, {"name": "151c44624f11e1ac3e136951e32f5ff7", "type": "electric_scooter", "lat": 38.93468216666667, "is_reserved": 0, "lon": -77.029293, "fusion_lon": 0.0, "is_disabled": 0, "fusion_lat": 0.0, "bike_id": "151c44624f11e1ac3e136951e32f5ff7", "rental_uris": {"ios": "https://dc.lft.to/lastmile_qr_scan", "android": "https://dc.lft.to/lastmile_qr_scan"}}, {"name": "d22edf95b83e599fc52b4934b8ce9d70", "type": "electric_scooter", "lat": 38.91249533333333, "is_reserved": 0, "lon": -77.04770266666667, "fusion_lon": 0.0, "is_disabled": 0, "fusion_lat": 0.0, "bike_id": "d22edf95b83e599fc52b4934b8ce9d70", "rental_uris": {"ios": "https://dc.lft.to/lastmile_qr_scan", "android": "https://dc.lft.to/lastmile_qr_scan"}}, {"name": "160b0edddc3eaf0a0c25f04bb916d10d", "type": "electric_scooter", "lat": 38.96822216666666, "is_reserved": 0, "lon": -77.01787033333333, "fusion_lon": 0.0, "is_disabled": 0, "fusion_lat": 0.0, "bike_id": "160b0edddc3eaf0a0c25f04bb916d10d", "rental_uris": {"ios": "https://dc.lft.to/lastmile_qr_scan", "android": "https://dc.lft.to/lastmile_qr_scan"}}, {"name": "343437136602cfad3e4065ad01d28f47", "type": "electric_scooter", "lat": 38.89855283333333, "is_reserved": 0, "lon": -77.042773, "fusion_lon": 0.0, "is_disabled": 0, "fusion_lat": 0.0, "bike_id": "343437136602cfad3e4065ad01d28f47", "rental_uris": {"ios": "https://dc.lft.to/lastmile_qr_scan", "android": "https://dc.lft.to/lastmile_qr_scan"}}, {"name": "06a731ad289ef9cd7d26f5feaea1478c", "type": "electric_scooter", "lat": 38.906631, "is_reserved": 0, "lon": -77.051386, "fusion_lon": 0.0, "is_disabled": 0, "fusion_lat": 0.0, "bike_id": "06a731ad289ef9cd7d26f5feaea1478c", "rental_uris": {"ios": "https://dc.lft.to/lastmile_qr_scan", "android": "https://dc.lft.to/lastmile_qr_scan"}}, {"name": "46f6f640e572903b8590d01b1a67ff82", "type": "electric_scooter", "lat": 38.92487033333333, "is_reserved": 0, "lon": -77.02715983333333, "fusion_lon": 0.0, "is_disabled": 0, "fusion_lat": 0.0, "bike_id": "46f6f640e572903b8590d01b1a67ff82", "rental_uris": {"ios": "https://dc.lft.to/lastmile_qr_scan", "android": "https://dc.lft.to/lastmile_qr_scan"}}, {"name": "e8806896e0ed116cb2b0b2b388f6e7f1", "type": "electric_scooter", "lat": 38.9063035, "is_reserved": 0, "lon": -77.0514655, "fusion_lon": 0.0, "is_disabled": 0, "fusion_lat": 0.0, "bike_id": "e8806896e0ed116cb2b0b2b388f6e7f1", "rental_uris": {"ios": "https://dc.lft.to/lastmile_qr_scan", "android": "https://dc.lft.to/lastmile_qr_scan"}}, {"name": "cf147911d7c1107fa09f418dbaa68993", "type": "electric_scooter", "lat": 38.89728083333333, "is_reserved": 0, "lon": -77.04336733333334, "fusion_lon": 0.0, "is_disabled": 0, "fusion_lat": 0.0, "bike_id": "cf147911d7c1107fa09f418dbaa68993", "rental_uris": {"ios": "https://dc.lft.to/lastmile_qr_scan", "android": "https://dc.lft.to/lastmile_qr_scan"}}, {"name": "b1cbefeb56943fed47945ca6f4ea94fd", "type": "electric_scooter", "lat": 38.900151, "is_reserved": 0, "lon": -77.04033666666666, "fusion_lon": 0.0, "is_disabled": 0, "fusion_lat": 0.0, "bike_id": "b1cbefeb56943fed47945ca6f4ea94fd", "rental_uris": {"ios": "https://dc.lft.to/lastmile_qr_scan", "android": "https://dc.lft.to/lastmile_qr_scan"}}, {"name": "db06f997821fcc40ca19159c26e1e7bb", "type": "electric_scooter", "lat": 38.90919266666667, "is_reserved": 0, "lon": -76.99890516666666, "fusion_lon": 0.0, "is_disabled": 0, "fusion_lat": 0.0, "bike_id": "db06f997821fcc40ca19159c26e1e7bb", "rental_uris": {"ios": "https://dc.lft.to/lastmile_qr_scan", "android": "https://dc.lft.to/lastmile_qr_scan"}}, {"name": "07bbccfb4dc25a784d6f7a0ace06edc7", "type": "electric_scooter", "lat": 38.93011033333333, "is_reserved": 0, "lon": -77.023329, "fusion_lon": 0.0, "is_disabled": 0, "fusion_lat": 0.0, "bike_id": "07bbccfb4dc25a784d6f7a0ace06edc7", "rental_uris": {"ios": "https://dc.lft.to/lastmile_qr_scan", "android": "https://dc.lft.to/lastmile_qr_scan"}}, {"name": "7ac30f51979f464e04773f6c47ca373d", "type": "electric_scooter", "lat": 38.9223885, "is_reserved": 0, "lon": -77.04255066666667, "fusion_lon": 0.0, "is_disabled": 0, "fusion_lat": 0.0, "bike_id": "7ac30f51979f464e04773f6c47ca373d", "rental_uris": {"ios": "https://dc.lft.to/lastmile_qr_scan", "android": "https://dc.lft.to/lastmile_qr_scan"}}, {"name": "2d65f0c389288c5c2148860d6df99ea1", "type": "electric_scooter", "lat": 38.922347333333335, "is_reserved": 0, "lon": -77.03360633333334, "fusion_lon": 0.0, "is_disabled": 0, "fusion_lat": 0.0, "bike_id": "2d65f0c389288c5c2148860d6df99ea1", "rental_uris": {"ios": "https://dc.lft.to/lastmile_qr_scan", "android": "https://dc.lft.to/lastmile_qr_scan"}}, {"name": "d31b3a9bd97d273a54c6beb6f2b1dbaa", "type": "electric_scooter", "lat": 38.911107333333334, "is_reserved": 0, "lon": -77.02220683333333, "fusion_lon": 0.0, "is_disabled": 0, "fusion_lat": 0.0, "bike_id": "d31b3a9bd97d273a54c6beb6f2b1dbaa", "rental_uris": {"ios": "https://dc.lft.to/lastmile_qr_scan", "android": "https://dc.lft.to/lastmile_qr_scan"}}, {"name": "1894bbfc1139bcd2f1490e59cc169f0c", "type": "electric_scooter", "lat": 38.892344, "is_reserved": 0, "lon": -77.03176416666666, "fusion_lon": 0.0, "is_disabled": 0, "fusion_lat": 0.0, "bike_id": "1894bbfc1139bcd2f1490e59cc169f0c", "rental_uris": {"ios": "https://dc.lft.to/lastmile_qr_scan", "android": "https://dc.lft.to/lastmile_qr_scan"}}, {"name": "eba042b9790ffd76b7ef7f85c005fb42", "type": "electric_scooter", "lat": 38.9357915, "is_reserved": 0, "lon": -76.991045, "fusion_lon": 0.0, "is_disabled": 0, "fusion_lat": 0.0, "bike_id": "eba042b9790ffd76b7ef7f85c005fb42", "rental_uris": {"ios": "https://dc.lft.to/lastmile_qr_scan", "android": "https://dc.lft.to/lastmile_qr_scan"}}, {"name": "491b684f7029dd6b6bb63a8faf4e8ddc", "type": "electric_scooter", "lat": 38.92526866666667, "is_reserved": 0, "lon": -77.05549183333333, "fusion_lon": 0.0, "is_disabled": 0, "fusion_lat": 0.0, "bike_id": "491b684f7029dd6b6bb63a8faf4e8ddc", "rental_uris": {"ios": "https://dc.lft.to/lastmile_qr_scan", "android": "https://dc.lft.to/lastmile_qr_scan"}}, {"name": "49c1ced476cc73af1cdb416511e4dc41", "type": "electric_scooter", "lat": 38.901494666666665, "is_reserved": 0, "lon": -76.9306845, "fusion_lon": 0.0, "is_disabled": 0, "fusion_lat": 0.0, "bike_id": "49c1ced476cc73af1cdb416511e4dc41", "rental_uris": {"ios": "https://dc.lft.to/lastmile_qr_scan", "android": "https://dc.lft.to/lastmile_qr_scan"}}, {"name": "9fce667d951badf1d40712ff090dfd33", "type": "electric_scooter", "lat": 38.924787333333335, "is_reserved": 0, "lon": -77.0376445, "fusion_lon": 0.0, "is_disabled": 0, "fusion_lat": 0.0, "bike_id": "9fce667d951badf1d40712ff090dfd33", "rental_uris": {"ios": "https://dc.lft.to/lastmile_qr_scan", "android": "https://dc.lft.to/lastmile_qr_scan"}}, {"name": "5d05b3968455ba5757ad616793a99b58", "type": "electric_scooter", "lat": 38.894028166666665, "is_reserved": 0, "lon": -76.94799683333333, "fusion_lon": 0.0, "is_disabled": 0, "fusion_lat": 0.0, "bike_id": "5d05b3968455ba5757ad616793a99b58", "rental_uris": {"ios": "https://dc.lft.to/lastmile_qr_scan", "android": "https://dc.lft.to/lastmile_qr_scan"}}, {"name": "201eac673966b11cd4d52eadd3c32a59", "type": "electric_bike", "lat": 38.91010716666667, "is_reserved": 0, "lon": -77.03451783333334, "fusion_lon": 0.0, "is_disabled": 0, "fusion_lat": 0.0, "bike_id": "201eac673966b11cd4d52eadd3c32a59", "rental_uris": {"ios": "https://dc.lft.to/lastmile_qr_scan", "android": "https://dc.lft.to/lastmile_qr_scan"}}, {"name": "d0839bab8069533e497040005935ce4b", "type": "electric_scooter", "lat": 38.857144166666664, "is_reserved": 0, "lon": -76.981338, "fusion_lon": 0.0, "is_disabled": 0, "fusion_lat": 0.0, "bike_id": "d0839bab8069533e497040005935ce4b", "rental_uris": {"ios": "https://dc.lft.to/lastmile_qr_scan", "android": "https://dc.lft.to/lastmile_qr_scan"}}, {"name": "532cb4f56678aa06e08a85142d8e3785", "type": "electric_scooter", "lat": 38.9205075, "is_reserved": 0, "lon": -77.032208, "fusion_lon": 0.0, "is_disabled": 0, "fusion_lat": 0.0, "bike_id": "532cb4f56678aa06e08a85142d8e3785", "rental_uris": {"ios": "https://dc.lft.to/lastmile_qr_scan", "android": "https://dc.lft.to/lastmile_qr_scan"}}, {"name": "b42016f73571e206d94ad863826cd6e0", "type": "electric_scooter", "lat": 38.9159535, "is_reserved": 0, "lon": -77.0446385, "fusion_lon": 0.0, "is_disabled": 0, "fusion_lat": 0.0, "bike_id": "b42016f73571e206d94ad863826cd6e0", "rental_uris": {"ios": "https://dc.lft.to/lastmile_qr_scan", "android": "https://dc.lft.to/lastmile_qr_scan"}}, {"name": "a71e149858c1c22503b429a28108ace8", "type": "electric_scooter", "lat": 38.9200265, "is_reserved": 0, "lon": -77.03967666666667, "fusion_lon": 0.0, "is_disabled": 0, "fusion_lat": 0.0, "bike_id": "a71e149858c1c22503b429a28108ace8", "rental_uris": {"ios": "https://dc.lft.to/lastmile_qr_scan", "android": "https://dc.lft.to/lastmile_qr_scan"}}, {"name": "14a106155e52903bde3c3cce03f22f99", "type": "electric_scooter", "lat": 38.92469633333333, "is_reserved": 0, "lon": -77.02833966666667, "fusion_lon": 0.0, "is_disabled": 0, "fusion_lat": 0.0, "bike_id": "14a106155e52903bde3c3cce03f22f99", "rental_uris": {"ios": "https://dc.lft.to/lastmile_qr_scan", "android": "https://dc.lft.to/lastmile_qr_scan"}}, {"name": "2dc24160ba69f40ee95a752852e2259e", "type": "electric_scooter", "lat": 38.914966166666666, "is_reserved": 0, "lon": -77.032511, "fusion_lon": 0.0, "is_disabled": 0, "fusion_lat": 0.0, "bike_id": "2dc24160ba69f40ee95a752852e2259e", "rental_uris": {"ios": "https://dc.lft.to/lastmile_qr_scan", "android": "https://dc.lft.to/lastmile_qr_scan"}}, {"name": "3adaa3f324d512f82cb91be8b19f3091", "type": "electric_scooter", "lat": 38.917184166666665, "is_reserved": 0, "lon": -77.0186545, "fusion_lon": 0.0, "is_disabled": 0, "fusion_lat": 0.0, "bike_id": "3adaa3f324d512f82cb91be8b19f3091", "rental_uris": {"ios": "https://dc.lft.to/lastmile_qr_scan", "android": "https://dc.lft.to/lastmile_qr_scan"}}, {"name": "92765ec97accc9013984c45c7b487d16", "type": "electric_scooter", "lat": 38.9096395, "is_reserved": 0, "lon": -77.0477495, "fusion_lon": 0.0, "is_disabled": 0, "fusion_lat": 0.0, "bike_id": "92765ec97accc9013984c45c7b487d16", "rental_uris": {"ios": "https://dc.lft.to/lastmile_qr_scan", "android": "https://dc.lft.to/lastmile_qr_scan"}}, {"name": "e978c0050c4299b71c2860c886e277dc", "type": "electric_scooter", "lat": 38.89727366666666, "is_reserved": 0, "lon": -77.00987733333334, "fusion_lon": 0.0, "is_disabled": 0, "fusion_lat": 0.0, "bike_id": "e978c0050c4299b71c2860c886e277dc", "rental_uris": {"ios": "https://dc.lft.to/lastmile_qr_scan", "android": "https://dc.lft.to/lastmile_qr_scan"}}, {"name": "c5ec2d10fd7bf7e4181458fff50e9e0b", "type": "electric_bike", "lat": 38.973464666666665, "is_reserved": 0, "lon": -77.1003885, "fusion_lon": 0.0, "is_disabled": 0, "fusion_lat": 0.0, "bike_id": "c5ec2d10fd7bf7e4181458fff50e9e0b", "rental_uris": {"ios": "https://dc.lft.to/lastmile_qr_scan", "android": "https://dc.lft.to/lastmile_qr_scan"}}, {"name": "b40339c05564a52d76c84b5d6698db27", "type": "electric_scooter", "lat": 38.955299833333335, "is_reserved": 0, "lon": -77.02463516666667, "fusion_lon": 0.0, "is_disabled": 0, "fusion_lat": 0.0, "bike_id": "b40339c05564a52d76c84b5d6698db27", "rental_uris": {"ios": "https://dc.lft.to/lastmile_qr_scan", "android": "https://dc.lft.to/lastmile_qr_scan"}}, {"name": "26962b9091bbf963c2bd3a0fea02a604", "type": "electric_bike", "lat": 38.89574916666667, "is_reserved": 0, "lon": -77.12711983333334, "fusion_lon": 0.0, "is_disabled": 0, "fusion_lat": 0.0, "bike_id": "26962b9091bbf963c2bd3a0fea02a604", "rental_uris": {"ios": "https://dc.lft.to/lastmile_qr_scan", "android": "https://dc.lft.to/lastmile_qr_scan"}}, {"name": "02b28f38b5a4d8533e5945a379724d89", "type": "electric_scooter", "lat": 38.944799333333336, "is_reserved": 0, "lon": -77.0640245, "fusion_lon": 0.0, "is_disabled": 0, "fusion_lat": 0.0, "bike_id": "02b28f38b5a4d8533e5945a379724d89", "rental_uris": {"ios": "https://dc.lft.to/lastmile_qr_scan", "android": "https://dc.lft.to/lastmile_qr_scan"}}, {"name": "6edd0e8ea816b3d2db84e4a06258e8dd", "type": "electric_bike", "lat": 38.90297733333333, "is_reserved": 0, "lon": -76.94440766666666, "fusion_lon": 0.0, "is_disabled": 0, "fusion_lat": 0.0, "bike_id": "6edd0e8ea816b3d2db84e4a06258e8dd", "rental_uris": {"ios": "https://dc.lft.to/lastmile_qr_scan", "android": "https://dc.lft.to/lastmile_qr_scan"}}, {"name": "8b054ebc30e8621682da406a35235727", "type": "electric_bike", "lat": 38.888580833333336, "is_reserved": 0, "lon": -77.0324455, "fusion_lon": 0.0, "is_disabled": 0, "fusion_lat": 0.0, "bike_id": "8b054ebc30e8621682da406a35235727", "rental_uris": {"ios": "https://dc.lft.to/lastmile_qr_scan", "android": "https://dc.lft.to/lastmile_qr_scan"}}, {"name": "26eea0169d6c73c5e44272523e6cd3be", "type": "electric_scooter", "lat": 38.905218833333336, "is_reserved": 0, "lon": -77.069402, "fusion_lon": 0.0, "is_disabled": 0, "fusion_lat": 0.0, "bike_id": "26eea0169d6c73c5e44272523e6cd3be", "rental_uris": {"ios": "https://dc.lft.to/lastmile_qr_scan", "android": "https://dc.lft.to/lastmile_qr_scan"}}, {"name": "40f36f1d920a0d7fc1c3a046848e35b7", "type": "electric_scooter", "lat": 38.923160833333334, "is_reserved": 0, "lon": -77.03952716666667, "fusion_lon": 0.0, "is_disabled": 0, "fusion_lat": 0.0, "bike_id": "40f36f1d920a0d7fc1c3a046848e35b7", "rental_uris": {"ios": "https://dc.lft.to/lastmile_qr_scan", "android": "https://dc.lft.to/lastmile_qr_scan"}}, {"name": "23eaea7a599a544fb63985989bfa359d", "type": "electric_scooter", "lat": 38.92039916666667, "is_reserved": 0, "lon": -77.0343095, "fusion_lon": 0.0, "is_disabled": 0, "fusion_lat": 0.0, "bike_id": "23eaea7a599a544fb63985989bfa359d", "rental_uris": {"ios": "https://dc.lft.to/lastmile_qr_scan", "android": "https://dc.lft.to/lastmile_qr_scan"}}, {"name": "c1a333f4733897a78eeb388fe1539fbc", "type": "electric_scooter", "lat": 38.9101865, "is_reserved": 0, "lon": -77.05287383333334, "fusion_lon": 0.0, "is_disabled": 0, "fusion_lat": 0.0, "bike_id": "c1a333f4733897a78eeb388fe1539fbc", "rental_uris": {"ios": "https://dc.lft.to/lastmile_qr_scan", "android": "https://dc.lft.to/lastmile_qr_scan"}}, {"name": "3e43c4eb78dbb99ab102b8418bb8925f", "type": "electric_scooter", "lat": 38.9110835, "is_reserved": 0, "lon": -77.01062783333333, "fusion_lon": 0.0, "is_disabled": 0, "fusion_lat": 0.0, "bike_id": "3e43c4eb78dbb99ab102b8418bb8925f", "rental_uris": {"ios": "https://dc.lft.to/lastmile_qr_scan", "android": "https://dc.lft.to/lastmile_qr_scan"}}, {"name": "1e75637284f54d22540c583186af5f2e", "type": "electric_scooter", "lat": 38.9008485, "is_reserved": 0, "lon": -77.0491465, "fusion_lon": 0.0, "is_disabled": 0, "fusion_lat": 0.0, "bike_id": "1e75637284f54d22540c583186af5f2e", "rental_uris": {"ios": "https://dc.lft.to/lastmile_qr_scan", "android": "https://dc.lft.to/lastmile_qr_scan"}}, {"name": "372b22d693409f3fef9b187fc18d759f", "type": "electric_scooter", "lat": 38.909350333333336, "is_reserved": 0, "lon": -77.02319116666666, "fusion_lon": 0.0, "is_disabled": 0, "fusion_lat": 0.0, "bike_id": "372b22d693409f3fef9b187fc18d759f", "rental_uris": {"ios": "https://dc.lft.to/lastmile_qr_scan", "android": "https://dc.lft.to/lastmile_qr_scan"}}, {"name": "e4c059d94ed1230af6e37d96617c71d8", "type": "electric_scooter", "lat": 38.892382833333336, "is_reserved": 0, "lon": -77.03206866666666, "fusion_lon": 0.0, "is_disabled": 0, "fusion_lat": 0.0, "bike_id": "e4c059d94ed1230af6e37d96617c71d8", "rental_uris": {"ios": "https://dc.lft.to/lastmile_qr_scan", "android": "https://dc.lft.to/lastmile_qr_scan"}}, {"name": "98ccb621a590efa3f2b9517f84205578", "type": "electric_scooter", "lat": 38.922445833333335, "is_reserved": 0, "lon": -77.03086833333333, "fusion_lon": 0.0, "is_disabled": 0, "fusion_lat": 0.0, "bike_id": "98ccb621a590efa3f2b9517f84205578", "rental_uris": {"ios": "https://dc.lft.to/lastmile_qr_scan", "android": "https://dc.lft.to/lastmile_qr_scan"}}, {"name": "f0a5869f89f355b82014028a7fb128a8", "type": "electric_bike", "lat": 38.86144433333333, "is_reserved": 0, "lon": -76.95004383333334, "fusion_lon": 0.0, "is_disabled": 0, "fusion_lat": 0.0, "bike_id": "f0a5869f89f355b82014028a7fb128a8", "rental_uris": {"ios": "https://dc.lft.to/lastmile_qr_scan", "android": "https://dc.lft.to/lastmile_qr_scan"}}, {"name": "48d8738d1c1b16690a5fbb44137fcdcd", "type": "electric_bike", "lat": 38.89466316666667, "is_reserved": 0, "lon": -77.07599233333333, "fusion_lon": 0.0, "is_disabled": 0, "fusion_lat": 0.0, "bike_id": "48d8738d1c1b16690a5fbb44137fcdcd", "rental_uris": {"ios": "https://dc.lft.to/lastmile_qr_scan", "android": "https://dc.lft.to/lastmile_qr_scan"}}, {"name": "3327855f47bbb256a21d194830cbc351", "type": "electric_scooter", "lat": 38.85634066666667, "is_reserved": 0, "lon": -76.974533, "fusion_lon": 0.0, "is_disabled": 0, "fusion_lat": 0.0, "bike_id": "3327855f47bbb256a21d194830cbc351", "rental_uris": {"ios": "https://dc.lft.to/lastmile_qr_scan", "android": "https://dc.lft.to/lastmile_qr_scan"}}, {"name": "fd5f94be2e86796d7699cefe81675c30", "type": "electric_scooter", "lat": 38.919929333333336, "is_reserved": 0, "lon": -77.03969383333333, "fusion_lon": 0.0, "is_disabled": 0, "fusion_lat": 0.0, "bike_id": "fd5f94be2e86796d7699cefe81675c30", "rental_uris": {"ios": "https://dc.lft.to/lastmile_qr_scan", "android": "https://dc.lft.to/lastmile_qr_scan"}},