{"data": {"bikes": [{"lat": 38.918176, "is_reserved": 0, "lon": -77.00291566666667, "fusion_lon": 0.0, "fusion_lat": 0.0, "is_disabled": 0, "type": "electric_scooter", "bike_id": "c2883d50806599ea8eea918ddff8049c", "rental_uris": {"android": "https://dc.lft.to/lastmile_qr_scan", "ios": "https://dc.lft.to/lastmile_qr_scan"}, "name": "c2883d50806599ea8eea918ddff8049c"}, {"lat": 38.874841833333335, "is_reserved": 0, "lon": -77.00238266666666, "fusion_lon": 0.0, "fusion_lat": 0.0, "is_disabled": 0, "type": "electric_scooter", "bike_id": "cdb4f737bf8b58f10d4ae22eec14a33a", "rental_uris": {"android": "https://dc.lft.to/lastmile_qr_scan", "ios": "https://dc.lft.to/lastmile_qr_scan"}, "name": "cdb4f737bf8b58f10d4ae22eec14a33a"}, {"lat": 38.916959, "is_reserved": 0, "lon": -77.041095, "fusion_lon": 0.0, "fusion_lat": 0.0, "is_disabled": 0, "type": "electric_scooter", "bike_id": "147551f9858d364838402750e460514b", "rental_uris": {"android": "https://dc.lft.to/lastmile_qr_scan", "ios": "https://dc.lft.to/lastmile_qr_scan"}, "name": "147551f9858d364838402750e460514b"}, {"lat": 38.92472733333334, "is_reserved": 0, "lon": -77.02217816666666, "fusion_lon": 0.0, "fusion_lat": 0.0, "is_disabled": 0, "type": "electric_scooter", "bike_id": "a6284b64d6eb3dce68c8f98f976a7db8", "rental_uris": {"android": "https://dc.lft.to/lastmile_qr_scan", "ios": "https://dc.lft.to/lastmile_qr_scan"}, "name": "a6284b64d6eb3dce68c8f98f976a7db8"}, {"lat": 38.885116333333336, "is_reserved": 0, "lon": -77.0210355, "fusion_lon": 0.0, "fusion_lat": 0.0, "is_disabled": 0, "type": "electric_scooter", "bike_id": "a1fa5c56ae32fac9a28abf2b755cf6d0", "rental_uris": {"android": "https://dc.lft.to/lastmile_qr_scan", "ios": "https://dc.lft.to/lastmile_qr_scan"}, "name": "a1fa5c56ae32fac9a28abf2b755cf6d0"}, {"lat": 38.924687166666665, "is_reserved": 0, "lon": -77.02834233333333, "fusion_lon": 0.0, "fusion_lat": 0.0, "is_disabled": 0, "type": "electric_scooter", "bike_id": "353efbaaf1cdf9af83d91b924991acb3", "rental_uris": {"android": "https://dc.lft.to/lastmile_qr_scan", "ios": "https://dc.lft.to/lastmile_qr_scan"}, "name": "353efbaaf1cdf9af83d91b924991acb3"}, {"lat": 38.851763166666665, "is_reserved": 0, "lon": -76.99583216666667, "fusion_lon": 0.0, "fusion_lat": 0.0, "is_disabled": 0, "type": "electric_scooter", "bike_id": "1bbdc37225914871f9131d5511c40a6c", "rental_uris": {"android": "https://dc.lft.to/lastmile_qr_scan", "ios": "https://dc.lft.to/lastmile_qr_scan"}, "name": "1bbdc37225914871f9131d5511c40a6c"}, {"lat": 38.906918, "is_reserved": 0, "lon": -77.060716, "fusion_lon": 0.0, "fusion_lat": 0.0, "is_disabled": 0, "type": "electric_scooter", "bike_id": "bdf3663d29379f15c63b2220c48f0d05", "rental_uris": {"android": "https://dc.lft.to/lastmile_qr_scan", "ios": "https://dc.lft.to/lastmile_qr_scan"}, "name": "bdf3663d29379f15c63b2220c48f0d05"}, {"lat": 38.91765316666667, "is_reserved": 0, "lon": -77.03857866666667, "fusion_lon": 0.0, "fusion_lat": 0.0, "is_disabled": 0, "type": "electric_scooter", "bike_id": "83d472ed7a4e8bae47e2a994e4f7e081", "rental_uris": {"android": "https://dc.lft.to/lastmile_qr_scan", "ios": "https://dc.lft.to/lastmile_qr_scan"}, "name": "83d472ed7a4e8bae47e2a994e4f7e081"}, {"lat": 38.928484, "is_reserved": 0, "lon": -77.054299, "fusion_lon": 0.0, "fusion_lat": 0.0, "is_disabled": 0, "type": "electric_scooter", "bike_id": "0780407db5ef6df15de2af2558c022b3", "rental_uris": {"android": "https://dc.lft.to/lastmile_qr_scan", "ios": "https://dc.lft.to/lastmile_qr_scan"}, "name": "0780407db5ef6df15de2af2558c022b3"}, {"lat": 38.90372516666667, "is_reserved": 0, "lon": -77.03187566666666, "fusion_lon": 0.0, "fusion_lat": 0.0, "is_disabled": 0, "type": "electric_scooter", "bike_id": "06495a5bb7568d47a2566ff1d205de82", "rental_uris": {"android": "https://dc.lft.to/lastmile_qr_scan", "ios": "https://dc.lft.to/lastmile_qr_scan"}, "name": "06495a5bb7568d47a2566ff1d205de82"}, {"lat": 38.89228766666667, "is_reserved": 0, "lon": -77.023846, "fusion_lon": 0.0, "fusion_lat": 0.0, "is_disabled": 0, "type": "electric_scooter", "bike_id": "2f6f998d7f2871a372c9748aaba96adf", "rental_uris": {"android": "https://dc.lft.to/lastmile_qr_scan", "ios": "https://dc.lft.to/lastmile_qr_scan"}, "name": "2f6f998d7f2871a372c9748aaba96adf"}, {"lat": 38.8935175, "is_reserved": 0, "lon": -76.92592533333334, "fusion_lon": 0.0, "fusion_lat": 0.0, "is_disabled": 0, "type": "electric_scooter", "bike_id": "b2c58d1beb1a317d9ebf8707d0714e8f", "rental_uris": {"android": "https://dc.lft.to/lastmile_qr_scan", "ios": "https://dc.lft.to/lastmile_qr_scan"}, "name": "b2c58d1beb1a317d9ebf8707d0714e8f"}, {"lat": 38.91110116666667, "is_reserved": 0, "lon": -77.03916666666667, "fusion_lon": 0.0, "fusion_lat": 0.0, "is_disabled": 0, "type": "electric_scooter", "bike_id": "edbc45f3320c4ef37157e0ddaadc1cde", "rental_uris": {"android": "https://dc.lft.to/lastmile_qr_scan", "ios": "https://dc.lft.to/lastmile_qr_scan"}, "name": "edbc45f3320c4ef37157e0ddaadc1cde"}, {"lat": 38.89731166666667, "is_reserved": 0, "lon": -77.0257655, "fusion_lon": 0.0, "fusion_lat": 0.0, "is_disabled": 0, "type": "electric_scooter", "bike_id": "cb13512e86e268fa0e8f563e063a3087", "rental_uris": {"android": "https://dc.lft.to/lastmile_qr_scan", "ios": "https://dc.lft.to/lastmile_qr_scan"}, "name": "cb13512e86e268fa0e8f563e063a3087"}, {"lat": 38.897578, "is_reserved": 0, "lon": -77.0300735, "fusion_lon": 0.0, "fusion_lat": 0.0, "is_disabled": 0, "type": "electric_scooter", "bike_id": "a44ab030faedf4cf1a2bf96bfcda3afa", "rental_uris": {"android": "https://dc.lft.to/lastmile_qr_scan", "ios": "https://dc.lft.to/lastmile_qr_scan"}, "name": "a44ab030faedf4cf1a2bf96bfcda3afa"}, {"lat": 38.900781, "is_reserved": 0, "lon": -76.983374, "fusion_lon": 0.0, "fusion_lat": 0.0, "is_disabled": 0, "type": "electric_scooter", "bike_id": "3ecfdd9fd9f2b1d1b5da9a0d1dbc2449", "rental_uris": {"android": "https://dc.lft.to/lastmile_qr_scan", "ios": "https://dc.lft.to/lastmile_qr_scan"}, "name": "3ecfdd9fd9f2b1d1b5da9a0d1dbc2449"}, {"lat": 38.946134, "is_reserved": 0, "lon": -77.09677866666667, "fusion_lon": 0.0, "fusion_lat": 0.0, "is_disabled": 0, "type": "electric_bike", "bike_id": "cf05c87e85f02fe1446489ea84e9133e", "rental_uris": {"android": "https://dc.lft.to/lastmile_qr_scan", "ios": "https://dc.lft.to/lastmile_qr_scan"}, "name": "cf05c87e85f02fe1446489ea84e9133e"}, {"lat": 38.9063395, "is_reserved": 0, "lon": -77.03907066666666, "fusion_lon": 0.0, "fusion_lat": 0.0, "is_disabled": 0, "type": "electric_scooter", "bike_id": "79b80a70181de916d8d9d48472101b62", "rental_uris": {"android": "https://dc.lft.to/lastmile_qr_scan", "ios": "https://dc.lft.to/lastmile_qr_scan"}, "name": "79b80a70181de916d8d9d48472101b62"}, {"lat": 38.88711766666667, "is_reserved": 0, "lon": -77.0177895, "fusion_lon": 0.0, "fusion_lat": 0.0, "is_disabled": 0, "type": "electric_scooter", "bike_id": "051fc3dc1117d9b8c0be7d5e6ba78c82", "rental_uris": {"android": "https://dc.lft.to/lastmile_qr_scan", "ios": "https://dc.lft.to/lastmile_qr_scan"}, "name": "051fc3dc1117d9b8c0be7d5e6ba78c82"}, {"lat": 38.89324716666667, "is_reserved": 0, "lon": -77.04677166666667, "fusion_lon": 0.0, "fusion_lat": 0.0, "is_disabled": 0, "type": "electric_scooter", "bike_id": "c877f334be33d2e08b5c1e3ff4d7e110", "rental_uris": {"android": "https://dc.lft.to/lastmile_qr_scan", "ios": "https://dc.lft.to/lastmile_qr_scan"}, "name": "c877f334be33d2e08b5c1e3ff4d7e110"}, {"lat": 38.8705905, "is_reserved": 0, "lon": -76.97098183333334, "fusion_lon": 0.0, "fusion_lat": 0.0, "is_disabled": 0, "type": "electric_scooter", "bike_id": "0af5eef7652c86f9fee0a3524a2bbadd", "rental_uris": {"android": "https://dc.lft.to/lastmile_qr_scan", "ios": "https://dc.lft.to/lastmile_qr_scan"}, "name": "0af5eef7652c86f9fee0a3524a2bbadd"}, {"lat": 38.92096333333333, "is_reserved": 0, "lon": -77.04202083333334, "fusion_lon": 0.0, "fusion_lat": 0.0, "is_disabled": 0, "type": "electric_scooter", "bike_id": "11592a179156bd5412f3fd7a8dcbc4c6", "rental_uris": {"android": "https://dc.lft.to/lastmile_qr_scan", "ios": "https://dc.lft.to/lastmile_qr_scan"}, "name": "11592a179156bd5412f3fd7a8dcbc4c6"}, {"lat": 38.92215316666667, "is_reserved": 0, "lon": -77.20138633333333, "fusion_lon": 0.0, "fusion_lat": 0.0, "is_disabled": 0, "type": "electric_bike", "bike_id": "3788073dc06fcecb47489eb002aa6af8", "rental_uris": {"android": "https://dc.lft.to/lastmile_qr_scan", "ios": "https://dc.lft.to/lastmile_qr_scan"}, "name": "3788073dc06fcecb47489eb002aa6af8"}, {"lat": 38.921726666666665, "is_reserved": 0, "lon": -77.03833733333333, "fusion_lon": 0.0, "fusion_lat": 0.0, "is_disabled": 0, "type": "electric_scooter", "bike_id": "0c9a7b21391e2a07df475936fdfc3302", "rental_uris": {"android": "https://dc.lft.to/lastmile_qr_scan", "ios": "https://dc.lft.to/lastmile_qr_scan"}, "name": "0c9a7b21391e2a07df475936fdfc3302"}, {"lat": 38.898695000000004, "is_reserved": 0, "lon": -76.94636683333333, "fusion_lon": 0.0, "fusion_lat": 0.0, "is_disabled": 0, "type": "electric_scooter", "bike_id": "38e54c679a64f5dba7448d80cd134624", "rental_uris": {"android": "https://dc.lft.to/lastmile_qr_scan", "ios": "https://dc.lft.to/lastmile_qr_scan"}, "name": "38e54c679a64f5dba7448d80cd134624"}, {"lat": 38.91183133333333, "is_reserved": 0, "lon": -77.04493333333333, "fusion_lon": 0.0, "fusion_lat": 0.0, "is_disabled": 0, "type": "electric_scooter", "bike_id": "5a77a387685a4776dd65d94ab0c65a2e", "rental_uris": {"android": "https://dc.lft.to/lastmile_qr_scan", "ios": "https://dc.lft.to/lastmile_qr_scan"}, "name": "5a77a387685a4776dd65d94ab0c65a2e"}, {"lat": 38.934734666666664, "is_reserved": 0, "lon": -77.02235233333333, "fusion_lon": 0.0, "fusion_lat": 0.0, "is_disabled": 0, "type": "electric_scooter", "bike_id": "36e86ebc11a257addb4286f4cd921056", "rental_uris": {"android": "https://dc.lft.to/lastmile_qr_scan", "ios": "https://dc.lft.to/lastmile_qr_scan"}, "name": "36e86ebc11a257addb4286f4cd921056"}, {"lat": 38.90083933333333, "is_reserved": 0, "lon": -77.04744433333333, "fusion_lon": 0.0, "fusion_lat": 0.0, "is_disabled": 0, "type": "electric_scooter", "bike_id": "b87135ecc84ddf992f758f79ed05f5d2", "rental_uris": {"android": "https://dc.lft.to/lastmile_qr_scan", "ios": "https://dc.lft.to/lastmile_qr_scan"}, "name": "b87135ecc84ddf992f758f79ed05f5d2"}, {"lat": 38.906906, "is_reserved": 0, "lon": -76.95256583333334, "fusion_lon": 0.0, "fusion_lat": 0.0, "is_disabled": 0, "type": "electric_bike", "bike_id": "7b459a1cf40c4c6d6c65f828802ae023", "rental_uris": {"android": "https://dc.lft.to/lastmile_qr_scan", "ios": "https://dc.lft.to/lastmile_qr_scan"}, "name": "7b459a1cf40c4c6d6c65f828802ae023"}, {"lat": 38.91496983333333, "is_reserved": 0, "lon": -77.0218685, "fusion_lon": 0.0, "fusion_lat": 0.0, "is_disabled": 0, "type": "electric_scooter", "bike_id": "1c87feefffd3b6949aa7caf0df35d0dd", "rental_uris": {"android": "https://dc.lft.to/lastmile_qr_scan", "ios": "https://dc.lft.to/lastmile_qr_scan"}, "name": "1c87feefffd3b6949aa7caf0df35d0dd"}, {"lat": 38.964380166666665, "is_reserved": 0, "lon": -77.031545, "fusion_lon": 0.0, "fusion_lat": 0.0, "is_disabled": 0, "type": "electric_bike", "bike_id": "9e69786c5ce32637c7b08be2e87ec047", "rental_uris": {"android": "https://dc.lft.to/lastmile_qr_scan", "ios": "https://dc.lft.to/lastmile_qr_scan"}, "name": "9e69786c5ce32637c7b08be2e87ec047"}, {"lat": 38.922632, "is_reserved": 0, "lon": -77.0328415, "fusion_lon": 0.0, "fusion_lat": 0.0, "is_disabled": 0, "type": "electric_scooter", "bike_id": "c92b734a2496786a53917c404f1fb7f2", "rental_uris": {"android": "https://dc.lft.to/lastmile_qr_scan", "ios": "https://dc.lft.to/lastmile_qr_scan"}, "name": "c92b734a2496786a53917c404f1fb7f2"}, {"lat": 38.97500483333334, "is_reserved": 0, "lon": -77.016937, "fusion_lon": 0.0, "fusion_lat": 0.0, "is_disabled": 0, "type": "electric_scooter", "bike_id": "8ba52a285c2af446039124fbd6a3715e", "rental_uris": {"android": "https://dc.lft.to/lastmile_qr_scan", "ios": "https://dc.lft.to/lastmile_qr_scan"}, "name": "8ba52a285c2af446039124fbd6a3715e"}, {"lat": 38.95744366666667, "is_reserved": 0, "lon": -76.97254766666667, "fusion_lon": 0.0, "fusion_lat": 0.0, "is_disabled": 0, "type": "electric_bike", "bike_id": "52ee8d947cfa855419032d175901bf1e", "rental_uris": {"android": "https://dc.lft.to/lastmile_qr_scan", "ios": "https://dc.lft.to/lastmile_qr_scan"}, "name": "52ee8d947cfa855419032d175901bf1e"}, {"lat": 38.90371483333333, "is_reserved": 0, "lon": -77.03563466666667, "fusion_lon": 0.0, "fusion_lat": 0.0, "is_disabled": 0, "type": "electric_scooter", "bike_id": "16d73a0a97ffb761521366d4daa182da", "rental_uris": {"android": "https://dc.lft.to/lastmile_qr_scan", "ios": "https://dc.lft.to/lastmile_qr_scan"}, "name": "16d73a0a97ffb761521366d4daa182da"}, {"lat": 38.89432716666666, "is_reserved": 0, "lon": -77.026335, "fusion_lon": 0.0, "fusion_lat": 0.0, "is_disabled": 0, "type": "electric_scooter", "bike_id": "777a442d8b7d5db70b758fbbac3135b2", "rental_uris": {"android": "https://dc.lft.to/lastmile_qr_scan", "ios": "https://dc.lft.to/lastmile_qr_scan"}, "name": "777a442d8b7d5db70b758fbbac3135b2"}, {"lat": 38.90958966666667, "is_reserved": 0, "lon": -77.01077433333333, "fusion_lon": 0.0, "fusion_lat": 0.0, "is_disabled": 0, "type": "electric_scooter", "bike_id": "e25b1fa983322c85f558143ee29ec34d", "rental_uris": {"android": "https://dc.lft.to/lastmile_qr_scan", "ios": "https://dc.lft.to/lastmile_qr_scan"}, "name": "e25b1fa983322c85f558143ee29ec34d"}, {"lat": 38.88718816666667, "is_reserved": 0, "lon": -77.0198435, "fusion_lon": 0.0, "fusion_lat": 0.0, "is_disabled": 0, "type": "electric_scooter", "bike_id": "f83b7ab627951fd144d6b6b778df2d0e", "rental_uris": {"android": "https://dc.lft.to/lastmile_qr_scan", "ios": "https://dc.lft.to/lastmile_qr_scan"}, "name": "f83b7ab627951fd144d6b6b778df2d0e"}, {"lat": 38.901664333333336, "is_reserved": 0, "lon": -76.9302175, "fusion_lon": 0.0, "fusion_lat": 0.0, "is_disabled": 0, "type": "electric_scooter", "bike_id": "17eabbab6a73c94c60ffaaadede67ec0", "rental_uris": {"android": "https://dc.lft.to/lastmile_qr_scan", "ios": "https://dc.lft.to/lastmile_qr_scan"}, "name": "17eabbab6a73c94c60ffaaadede67ec0"}, {"lat": 38.9512085, "is_reserved": 0, "lon": -77.01526833333334, "fusion_lon": 0.0, "fusion_lat": 0.0, "is_disabled": 0, "type": "electric_bike", "bike_id": "0d9c33b9f8bc0d59267dfb6d5ae66673", "rental_uris": {"android": "https://dc.lft.to/lastmile_qr_scan", "ios": "https://dc.lft.to/lastmile_qr_scan"}, "name": "0d9c33b9f8bc0d59267dfb6d5ae66673"}, {"lat": 38.92847233333333, "is_reserved": 0, "lon": -77.08305016666667, "fusion_lon": 0.0, "fusion_lat": 0.0, "is_disabled": 0, "type": "electric_scooter", "bike_id": "2730840757b079288f1e7f64891c4e65", "rental_uris": {"android": "https://dc.lft.to/lastmile_qr_scan", "ios": "https://dc.lft.to/lastmile_qr_scan"}, "name": "2730840757b079288f1e7f64891c4e65"}, {"lat": 38.925851333333334, "is_reserved": 0, "lon": -77.032264, "fusion_lon": 0.0, "fusion_lat": 0.0, "is_disabled": 0, "type": "electric_scooter", "bike_id": "a809d868961e56f7f7ba57ab682a6f36", "rental_uris": {"android": "https://dc.lft.to/lastmile_qr_scan", "ios": "https://dc.lft.to/lastmile_qr_scan"}, "name": "a809d868961e56f7f7ba57ab682a6f36"}, {"lat": 38.907841166666664, "is_reserved": 0, "lon": -77.03656833333334, "fusion_lon": 0.0, "fusion_lat": 0.0, "is_disabled": 0, "type": "electric_scooter", "bike_id": "6da9df764bb5bb0e13b27fc5302640fd", "rental_uris": {"android": "https://dc.lft.to/lastmile_qr_scan", "ios": "https://dc.lft.to/lastmile_qr_scan"}, "name": "6da9df764bb5bb0e13b27fc5302640fd"}, {"lat": 38.904343833333336, "is_reserved": 0, "lon": -77.034554, "fusion_lon": 0.0, "fusion_lat": 0.0, "is_disabled": 0, "type": "electric_scooter", "bike_id": "c013806fdb1ac4985dc3b3fa7edad225", "rental_uris": {"android": "https://dc.lft.to/lastmile_qr_scan", "ios": "https://dc.lft.to/lastmile_qr_scan"}, "name": "c013806fdb1ac4985dc3b3fa7edad225"}, {"lat": 38.89737933333333, "is_reserved": 0, "lon": -77.046952, "fusion_lon": 0.0, "fusion_lat": 0.0, "is_disabled": 0, "type": "electric_scooter", "bike_id": "6c910921a8f0e2e46cb5f3474485c4eb", "rental_uris": {"android": "https://dc.lft.to/lastmile_qr_scan", "ios": "https://dc.lft.to/lastmile_qr_scan"}, "name": "6c910921a8f0e2e46cb5f3474485c4eb"}, {"lat": 38.928249666666666, "is_reserved": 0, "lon": -77.02627616666666, "fusion_lon": 0.0, "fusion_lat": 0.0, "is_disabled": 0, "type": "electric_scooter", "bike_id": "75249a7d24c9cad47aa5bc2e0c7bc65a", "rental_uris": {"android": "https://dc.lft.to/lastmile_qr_scan", "ios": "https://dc.lft.to/lastmile_qr_scan"}, "name": "75249a7d24c9cad47aa5bc2e0c7bc65a"}, {"lat": 38.87308083333333, "is_reserved": 0, "lon": -77.0015065, "fusion_lon": 0.0, "fusion_lat": 0.0, "is_disabled": 0, "type": "electric_scooter", "bike_id": "f255308043c53a6f95a17ce96a65c059", "rental_uris": {"android": "https://dc.lft.to/lastmile_qr_scan", "ios": "https://dc.lft.to/lastmile_qr_scan"}, "name": "f255308043c53a6f95a17ce96a65c059"}, {"lat": 38.915601833333334, "is_reserved": 0, "lon": -77.03335933333334, "fusion_lon": 0.0, "fusion_lat": 0.0, "is_disabled": 0, "type": "electric_scooter", "bike_id": "a38da9e333f98bae48c0b7bc7772f7ca", "rental_uris": {"android": "https://dc.lft.to/lastmile_qr_scan", "ios": "https://dc.lft.to/lastmile_qr_scan"}, "name": "a38da9e333f98bae48c0b7bc7772f7ca"}, {"lat": 38.94203683333333, "is_reserved": 0, "lon": -77.025877, "fusion_lon": 0.0, "fusion_lat": 0.0, "is_disabled": 0, "type": "electric_scooter", "bike_id": "5ff9ddf1a515ceb86a8626c6774ab763", "rental_uris": {"android": "https://dc.lft.to/lastmile_qr_scan", "ios": "https://dc.lft.to/lastmile_qr_scan"}, "name": "5ff9ddf1a515ceb86a8626c6774ab763"}, {"lat": 38.963173, "is_reserved": 0, "lon": -76.9736795, "fusion_lon": 0.0, "fusion_lat": 0.0, "is_disabled": 0, "type": "electric_bike", "bike_id": "58bcc5f42fc7058c2aa04b782bf3e4c7", "rental_uris": {"android": "https://dc.lft.to/lastmile_qr_scan", "ios": "https://dc.lft.to/lastmile_qr_scan"}, "name": "58bcc5f42fc7058c2aa04b782bf3e4c7"}, {"lat": 38.885967666666666, "is_reserved": 0, "lon": -76.99791283333333, "fusion_lon": 0.0, "fusion_lat": 0.0, "is_disabled": 0, "type": "electric_scooter", "bike_id": "2f3da50ab6765cb3acb55607ec96d255", "rental_uris": {"android": "https://dc.lft.to/lastmile_qr_scan", "ios": "https://dc.lft.to/lastmile_qr_scan"}, "name": "2f3da50ab6765cb3acb55607ec96d255"}, {"lat": 38.903912166666665, "is_reserved": 0, "lon": -77.04205866666666, "fusion_lon": 0.0, "fusion_lat": 0.0, "is_disabled": 0, "type": "electric_scooter", "bike_id": "d35832099083e7d29ff21e6b789b5803", "rental_uris": {"android": "https://dc.lft.to/lastmile_qr_scan", "ios": "https://dc.lft.to/lastmile_qr_scan"}, "name": "d35832099083e7d29ff21e6b789b5803"}, {"lat": 38.9205685, "is_reserved": 0, "lon": -77.04202383333333, "fusion_lon": 0.0, "fusion_lat": 0.0, "is_disabled": 0, "type": "electric_scooter", "bike_id": "26dfa12520a5f8066a1a2ef9c07e34f4", "rental_uris": {"android": "https://dc.lft.to/lastmile_qr_scan", "ios": "https://dc.lft.to/lastmile_qr_scan"}, "name": "26dfa12520a5f8066a1a2ef9c07e34f4"}, {"lat": 38.911864, "is_reserved": 0, "lon": -77.0383195, "fusion_lon": 0.0, "fusion_lat": 0.0, "is_disabled": 0, "type": "electric_scooter", "bike_id": "3bc5782be1944b86e7f61dc5fb5eb1ae", "rental_uris": {"android": "https://dc.lft.to/lastmile_qr_scan", "ios": "https://dc.lft.to/lastmile_qr_scan"}, "name": "3bc5782be1944b86e7f61dc5fb5eb1ae"}, {"lat": 38.90693483333333, "is_reserved": 0, "lon": -77.0239685, "fusion_lon": 0.0, "fusion_lat": 0.0, "is_disabled": 0, "type": "electric_scooter", "bike_id": "9e4737c4ea686fdceedc42fd92b34cf0", "rental_uris": {"android": "https://dc.lft.to/lastmile_qr_scan", "ios": "https://dc.lft.to/lastmile_qr_scan"}, "name": "9e4737c4ea686fdceedc42fd92b34cf0"}, {"lat": 38.92253266666667, "is_reserved": 0, "lon": -77.04206683333334, "fusion_lon": 0.0, "fusion_lat": 0.0, "is_disabled": 0, "type": "electric_scooter", "bike_id": "fd0831ae3f4f4ba504313f37cd6812e7", "rental_uris": {"android": "https://dc.lft.to/lastmile_qr_scan", "ios": "https://dc.lft.to/lastmile_qr_scan"}, "name": "fd0831ae3f4f4ba504313f37cd6812e7"}, {"lat": 38.934606333333335, "is_reserved": 0, "lon": -77.04533916666666, "fusion_lon": 0.0, "fusion_lat": 0.0, "is_disabled": 0, "type": "electric_scooter", "bike_id": "abf48368fed6494bf05c959a9f8acb69", "rental_uris": {"android": "https://dc.lft.to/lastmile_qr_scan", "ios": "https://dc.lft.to/lastmile_qr_scan"}, "name": "abf48368fed6494bf05c959a9f8acb69"}, {"lat": 38.921494, "is_reserved": 0, "lon": -77.04354816666667, "fusion_lon": 0.0, "fusion_lat": 0.0, "is_disabled": 0, "type": "electric_scooter", "bike_id": "24183212c227119609b1f494105719d5", "rental_uris": {"android": "https://dc.lft.to/lastmile_qr_scan", "ios": "https://dc.lft.to/lastmile_qr_scan"}, "name": "24183212c227119609b1f494105719d5"}, {"lat": 38.91683116666667, "is_reserved": 0, "lon": -77.022862, "fusion_lon": 0.0, "fusion_lat": 0.0, "is_disabled": 0, "type": "electric_scooter", "bike_id": "2d9fa123180df0f91636a507a8c1eb52", "rental_uris": {"android": "https://dc.lft.to/lastmile_qr_scan", "ios": "https://dc.lft.to/lastmile_qr_scan"}, "name": "2d9fa123180df0f91636a507a8c1eb52"}, {"lat": 38.89624283333333, "is_reserved": 0, "lon": -76.94766233333333, "fusion_lon": 0.0, "fusion_lat": 0.0, "is_disabled": 0, "type": "electric_scooter", "bike_id": "e6685a91fb1f730c380ab565f6eed032", "rental_uris": {"android": "https://dc.lft.to/lastmile_qr_scan", "ios": "https://dc.lft.to/lastmile_qr_scan"}, "name": "e6685a91fb1f730c380ab565f6eed032"}, {"lat": 38.90031116666667, "is_reserved": 0, "lon": -76.97228616666666, "fusion_lon": 0.0, "fusion_lat": 0.0, "is_disabled": 0, "type": "electric_bike", "bike_id": "a7848157ff354b82bf80891f4249d55b", "rental_uris": {"android": "https://dc.lft.to/lastmile_qr_scan", "ios": "https://dc.lft.to/lastmile_qr_scan"}, "name": "a7848157ff354b82bf80891f4249d55b"}, {"lat": 38.910764, "is_reserved": 0, "lon": -77.0385215, "fusion_lon": 0.0, "fusion_lat": 0.0, "is_disabled": 0, "type": "electric_scooter", "bike_id": "159928dced905e0938fe34c9d3587a39", "rental_uris": {"android": "https://dc.lft.to/lastmile_qr_scan", "ios": "https://dc.lft.to/lastmile_qr_scan"}, "name": "159928dced905e0938fe34c9d3587a39"}, {"lat": 38.89608533333333, "is_reserved": 0, "lon": -77.02767266666666, "fusion_lon": 0.0, "fusion_lat": 0.0, "is_disabled": 0, "type": "electric_scooter", "bike_id": "bab8a48b2e2bbcd00b9e0f7444c8bdc7", "rental_uris": {"android": "https://dc.lft.to/lastmile_qr_scan", "ios": "https://dc.lft.to/lastmile_qr_scan"}, "name": "bab8a48b2e2bbcd00b9e0f7444c8bdc7"}, {"lat": 38.953299, "is_reserved": 0, "lon": -76.9826, "fusion_lon": 0.0, "fusion_lat": 0.0, "is_disabled": 0, "type": "electric_bike", "bike_id": "11c877392f34a006d6a845a2c8ba6346", "rental_uris": {"android": "https://dc.lft.to/lastmile_qr_scan", "ios": "https://dc.lft.to/lastmile_qr_scan"}, "name": "11c877392f34a006d6a845a2c8ba6346"}, {"lat": 38.92865316666666, "is_reserved": 0, "lon": -77.0277, "fusion_lon": 0.0, "fusion_lat": 0.0, "is_disabled": 0, "type": "electric_scooter", "bike_id": "0544dc6b8146e5fe26b5841a0d1a33a6", "rental_uris": {"android": "https://dc.lft.to/lastmile_qr_scan", "ios": "https://dc.lft.to/lastmile_qr_scan"}, "name": "0544dc6b8146e5fe26b5841a0d1a33a6"}, {"lat": 38.9230995, "is_reserved": 0, "lon": -77.04626166666667, "fusion_lon": 0.0, "fusion_lat": 0.0, "is_disabled": 0, "type": "electric_scooter", "bike_id": "c6b5ea70a32aadb249d336ad21d7e810", "rental_uris": {"android": "https://dc.lft.to/lastmile_qr_scan", "ios": "https://dc.lft.to/lastmile_qr_scan"}, "name": "c6b5ea70a32aadb249d336ad21d7e810"}, {"lat": 38.891655166666666, "is_reserved": 0, "lon": -76.99948183333333, "fusion_lon": 0.0, "fusion_lat": 0.0, "is_disabled": 0, "type": "electric_scooter", "bike_id": "af06ff4688f5afec212a79e97cb5cb5a", "rental_uris": {"android": "https://dc.lft.to/lastmile_qr_scan", "ios": "https://dc.lft.to/lastmile_qr_scan"}, "name": "af06ff4688f5afec212a79e97cb5cb5a"}, {"lat": 38.927425166666666, "is_reserved": 0, "lon": -77.02310716666666, "fusion_lon": 0.0, "fusion_lat": 0.0, "is_disabled": 0, "type": "electric_scooter", "bike_id": "ff4f84543df381d6f69de66894a22155", "rental_uris": {"android": "https://dc.lft.to/lastmile_qr_scan", "ios": "https://dc.lft.to/lastmile_qr_scan"}, "name": "ff4f84543df381d6f69de66894a22155"}, {"lat": 38.876788, "is_reserved": 0, "lon": -77.00073783333333, "fusion_lon": 0.0, "fusion_lat": 0.0, "is_disabled": 0, "type": "electric_scooter", "bike_id": "fbde3de0b789f23b0d31a38f8ce48a8f", "rental_uris": {"android": "https://dc.lft.to/lastmile_qr_scan", "ios": "https://dc.lft.to/lastmile_qr_scan"}, "name": "fbde3de0b789f23b0d31a38f8ce48a8f"}, {"lat": 38.905683, "is_reserved": 0, "lon": -76.97784516666667, "fusion_lon": 0.0, "fusion_lat": 0.0, "is_disabled": 0, "type": "electric_scooter", "bike_id": "451c70745e34607c2913a5a4e77c5ac8", "rental_uris": {"android": "https://dc.lft.to/lastmile_qr_scan", "ios": "https://dc.lft.to/lastmile_qr_scan"}, "name": "451c70745e34607c2913a5a4e77c5ac8"}, {"lat": 38.92175016666667, "is_reserved": 0, "lon": -77.038437, "fusion_lon": 0.0, "fusion_lat": 0.0, "is_disabled": 0, "type": "electric_scooter", "bike_id": "95cda3ba92781b3549f158cc890e52be", "rental_uris": {"android": "https://dc.lft.to/lastmile_qr_scan", "ios": "https://dc.lft.to/lastmile_qr_scan"}, "name": "95cda3ba92781b3549f158cc890e52be"}, {"lat": 38.92375116666667, "is_reserved": 0, "lon": -77.05151583333334, "fusion_lon": 0.0, "fusion_lat": 0.0, "is_disabled": 0, "type": "electric_scooter", "bike_id": "c14fcf29d632ff4be7f3df67f75d8bc9", "rental_uris": {"android": "https://dc.lft.to/lastmile_qr_scan", "ios": "https://dc.lft.to/lastmile_qr_scan"}, "name": "c14fcf29d632ff4be7f3df67f75d8bc9"}, {"lat": 38.910442833333335, "is_reserved": 0, "lon": -77.04358733333333, "fusion_lon": 0.0, "fusion_lat": 0.0, "is_disabled": 0, "type": "electric_scooter", "bike_id": "85aebb44935f4fc638adf6754b26445b", "rental_uris": {"android": "https://dc.lft.to/lastmile_qr_scan", "ios": "https://dc.lft.to/lastmile_qr_scan"}, "name": "85aebb44935f4fc638adf6754b26445b"}, {"lat": 38.921515, "is_reserved": 0, "lon": -77.0338525, "fusion_lon": 0.0, "fusion_lat": 0.0, "is_disabled": 0, "type": "electric_scooter", "bike_id": "fdfd6cf8962b45518833cc140019f755", "rental_uris": {"android": "https://dc.lft.to/lastmile_qr_scan", "ios": "https://dc.lft.to/lastmile_qr_scan"}, "name": "fdfd6cf8962b45518833cc140019f755"}, {"lat": 38.832388, "is_reserved": 0, "lon": -76.946292, "fusion_lon": 0.0, "fusion_lat": 0.0, "is_disabled": 0, "type": "electric_bike", "bike_id": "197f677f5f895d10a1c32a6b1b65467b", "rental_uris": {"android": "https://dc.lft.to/lastmile_qr_scan", "ios": "https://dc.lft.to/lastmile_qr_scan"}, "name": "197f677f5f895d10a1c32a6b1b65467b"}, {"lat": 38.877573, "is_reserved": 0, "lon": -76.98685133333333, "fusion_lon": 0.0, "fusion_lat": 0.0, "is_disabled": 0, "type": "electric_scooter", "bike_id": "c0b11950f432d101827c0853867d3023", "rental_uris": {"android": "https://dc.lft.to/lastmile_qr_scan", "ios": "https://dc.lft.to/lastmile_qr_scan"}, "name": "c0b11950f432d101827c0853867d3023"}, {"lat": 38.91695283333333, "is_reserved": 0, "lon": -77.04106066666667, "fusion_lon": 0.0, "fusion_lat": 0.0, "is_disabled": 0, "type": "electric_scooter", "bike_id": "2006ecadaf07bed54f835b90335efcc1", "rental_uris": {"android": "https://dc.lft.to/lastmile_qr_scan", "ios": "https://dc.lft.to/lastmile_qr_scan"}, "name": "2006ecadaf07bed54f835b90335efcc1"}, {"lat": 39.03428483333333, "is_reserved": 0, "lon": -77.04309683333334, "fusion_lon": 0.0, "fusion_lat": 0.0, "is_disabled": 0, "type": "electric_bike", "bike_id": "9b0397b0d537678a846a81a762d00e4e", "rental_uris": {"android": "https://dc.lft.to/lastmile_qr_scan", "ios": "https://dc.lft.to/lastmile_qr_scan"}, "name": "9b0397b0d537678a846a81a762d00e4e"}, {"lat": 38.884708, "is_reserved": 0, "lon": -76.95665116666666, "fusion_lon": 0.0, "fusion_lat": 0.0, "is_disabled": 0, "type": "electric_bike", "bike_id": "b86adbd5a4d0cfc0a34ae8edc972aa80", "rental_uris": {"android": "https://dc.lft.to/lastmile_qr_scan", "ios": "https://dc.lft.to/lastmile_qr_scan"}, "name": "b86adbd5a4d0cfc0a34ae8edc972aa80"}, {"lat": 38.9098135, "is_reserved": 0, "lon": -77.02187, "fusion_lon": 0.0, "fusion_lat": 0.0, "is_disabled": 0, "type": "electric_scooter", "bike_id": "6c391f92ab2f4ad94214173b5962a578", "rental_uris": {"android": "https://dc.lft.to/lastmile_qr_scan", "ios": "https://dc.lft.to/lastmile_qr_scan"}, "name": "6c391f92ab2f4ad94214173b5962a578"}, {"lat": 38.9050055, "is_reserved": 0, "lon": -77.04341266666667, "fusion_lon": 0.0, "fusion_lat": 0.0, "is_disabled": 0, "type": "electric_scooter", "bike_id": "52bdd432c09d80e3f842558af77e3a50", "rental_uris": {"android": "https://dc.lft.to/lastmile_qr_scan", "ios": "https://dc.lft.to/lastmile_qr_scan"}, "name": "52bdd432c09d80e3f842558af77e3a50"}, {"lat": 38.90226083333334, "is_reserved": 0, "lon": -77.037715, "fusion_lon": 0.0, "fusion_lat": 0.0, "is_disabled": 0, "type": "electric_scooter", "bike_id": "041505c422d57793c5e4334523ad1802", "rental_uris": {"android": "https://dc.lft.to/lastmile_qr_scan", "ios": "https://dc.lft.to/lastmile_qr_scan"}, "name": "041505c422d57793c5e4334523ad1802"}, {"lat": 38.897152, "is_reserved": 0, "lon": -77.029984, "fusion_lon": 0.0, "fusion_lat": 0.0, "is_disabled": 0, "type": "electric_scooter", "bike_id": "dc085e52e326cc2b7f01feccf1114f10", "rental_uris": {"android": "https://dc.lft.to/lastmile_qr_scan", "ios": "https://dc.lft.to/lastmile_qr_scan"}, "name": "dc085e52e326cc2b7f01feccf1114f10"}, {"lat": 38.86678766666667, "is_reserved": 0, "lon": -76.98572666666666, "fusion_lon": 0.0, "fusion_lat": 0.0, "is_disabled": 0, "type": "electric_scooter", "bike_id": "56ebad88a62c280e2d7c4f3c27af15f7", "rental_uris": {"android": "https://dc.lft.to/lastmile_qr_scan", "ios": "https://dc.lft.to/lastmile_qr_scan"}, "name": "56ebad88a62c280e2d7c4f3c27af15f7"}, {"lat": 38.924533333333336, "is_reserved": 0, "lon": -77.03995016666667, "fusion_lon": 0.0, "fusion_lat": 0.0, "is_disabled": 0, "type": "electric_scooter", "bike_id": "7474f4aaf5026be18cfd39f71dab3db6", "rental_uris": {"android": "https://dc.lft.to/lastmile_qr_scan", "ios": "https://dc.lft.to/lastmile_qr_scan"}, "name": "7474f4aaf5026be18cfd39f71dab3db6"}, {"lat": 38.896708333333336, "is_reserved": 0, "lon": -77.1043055, "fusion_lon": 0.0, "fusion_lat": 0.0, "is_disabled": 0, "type": "electric_bike", "bike_id": "6fb084cdbeef7badc6aa0155a0dc1065", "rental_uris": {"android": "https://dc.lft.to/lastmile_qr_scan", "ios": "https://dc.lft.to/lastmile_qr_scan"}, "name": "6fb084cdbeef7badc6aa0155a0dc1065"}, {"lat": 38.86624066666667, "is_reserved": 0, "lon": -76.987198, "fusion_lon": 0.0, "fusion_lat": 0.0, "is_disabled": 0, "type": "electric_scooter", "bike_id": "e09a4bb1b7262bb6de7f3c6d57e12c9b", "rental_uris": {"android": "https://dc.lft.to/lastmile_qr_scan", "ios": "https://dc.lft.to/lastmile_qr_scan"}, "name": "e09a4bb1b7262bb6de7f3c6d57e12c9b"}, {"lat": 38.91864433333333, "is_reserved": 0, "lon": -77.02709383333334, "fusion_lon": 0.0, "fusion_lat": 0.0, "is_disabled": 0, "type": "electric_scooter", "bike_id": "b0e6f4cb6398811aefbf2d30acc793ca", "rental_uris": {"android": "https://dc.lft.to/lastmile_qr_scan", "ios": "https://dc.lft.to/lastmile_qr_scan"}, "name": "b0e6f4cb6398811aefbf2d30acc793ca"}, {"lat": 38.897345, "is_reserved": 0, "lon": -76.94254183333334, "fusion_lon": 0.0, "fusion_lat": 0.0, "is_disabled": 0, "type": "electric_bike", "bike_id": "b54c5a119ca4f79406f53c317cd2e2a2", "rental_uris": {"android": "https://dc.lft.to/lastmile_qr_scan", "ios": "https://dc.lft.to/lastmile_qr_scan"}, "name": "b54c5a119ca4f79406f53c317cd2e2a2"}, {"lat": 38.9001165, "is_reserved": 0, "lon": -77.00677866666666, "fusion_lon": 0.0, "fusion_lat": 0.0, "is_disabled": 0, "type": "electric_scooter", "bike_id": "bf9801ea6d203a0021dac21cc1699c3a", "rental_uris": {"android": "https://dc.lft.to/lastmile_qr_scan", "ios": "https://dc.lft.to/lastmile_qr_scan"}, "name": "bf9801ea6d203a0021dac21cc1699c3a"}, {"lat": 38.899928, "is_reserved": 0, "lon": -77.0007305, "fusion_lon": 0.0, "fusion_lat": 0.0, "is_disabled": 0, "type": "electric_scooter", "bike_id": "7d927717e79b3c0f9a19d713fe1a6419", "rental_uris": {"android": "https://dc.lft.to/lastmile_qr_scan", "ios": "https://dc.lft.to/lastmile_qr_scan"}, "name": "7d927717e79b3c0f9a19d713fe1a6419"}, {"lat": 38.9064145, "is_reserved": 0, "lon": -77.04176983333333, "fusion_lon": 0.0, "fusion_lat": 0.0, "is_disabled": 0, "type": "electric_scooter", "bike_id": "2fe856146c258b696c5f1bc4208dc95f", "rental_uris": {"android": "https://dc.lft.to/lastmile_qr_scan", "ios": "https://dc.lft.to/lastmile_qr_scan"}, "name": "2fe856146c258b696c5f1bc4208dc95f"}, {"lat": 38.91416066666667, "is_reserved": 0, "lon": -77.02117233333334, "fusion_lon": 0.0, "fusion_lat": 0.0, "is_disabled": 0, "type": "electric_scooter", "bike_id": "bf9f81b3dbdadc51c3c16d8ad47e6010", "rental_uris": {"android": "https://dc.lft.to/lastmile_qr_scan", "ios": "https://dc.lft.to/lastmile_qr_scan"}, "name": "bf9f81b3dbdadc51c3c16d8ad47e6010"}, {"lat": 38.905127666666665, "is_reserved": 0, "lon": -77.06960816666667, "fusion_lon": 0.0, "fusion_lat": 0.0, "is_disabled": 0, "type": "electric_bike", "bike_id": "7216f53d02f35ace9b36a57879ba4aa7", "rental_uris": {"android": "https://dc.lft.to/lastmile_qr_scan", "ios": "https://dc.lft.to/lastmile_qr_scan"}, "name": "7216f53d02f35ace9b36a57879ba4aa7"}, {"lat": 38.915592833333335, "is_reserved": 0, "lon": -76.97368266666666, "fusion_lon": 0.0, "fusion_lat": 0.0, "is_disabled": 0, "type": "electric_scooter", "bike_id": "b781ca0bb092aa02ec21d2bbaa2f3e4b", "rental_uris": {"android": "https://dc.lft.to/lastmile_qr_scan", "ios": "https://dc.lft.to/lastmile_qr_scan"}, "name": "b781ca0bb092aa02ec21d2bbaa2f3e4b"}, {"lat": 38.92788133333333, "is_reserved": 0, "lon": -77.02721783333334, "fusion_lon": 0.0, "fusion_lat": 0.0, "is_disabled": 0, "type": "electric_scooter", "bike_id": "e7d8ded111bc195936d7f1255dde6aea", "rental_uris": {"android": "https://dc.lft.to/lastmile_qr_scan", "ios": "https://dc.lft.to/lastmile_qr_scan"}, "name": "e7d8ded111bc195936d7f1255dde6aea"}, {"lat": 38.905725, "is_reserved": 0, "lon": -77.051202, "fusion_lon": 0.0, "fusion_lat": 0.0, "is_disabled": 0, "type": "electric_scooter", "bike_id": "b72dd37d680d9380025c6919fca5ed33", "rental_uris": {"android": "https://dc.lft.to/lastmile_qr_scan", "ios": "https://dc.lft.to/lastmile_qr_scan"}, "name": "b72dd37d680d9380025c6919fca5ed33"}, {"lat": 38.88638433333333, "is_reserved": 0, "lon": -77.01372183333334, "fusion_lon": 0.0, "fusion_lat": 0.0, "is_disabled": 0, "type": "electric_scooter", "bike_id": "2a55086a9f1650dd5e170c9de54d0c9e", "rental_uris": {"android": "https://dc.lft.to/lastmile_qr_scan", "ios": "https://dc.lft.to/lastmile_qr_scan"}, "name": "2a55086a9f1650dd5e170c9de54d0c9e"}, {"lat": 38.895880166666664, "is_reserved": 0, "lon": -77.00757083333333, "fusion_lon": 0.0, "fusion_lat": 0.0, "is_disabled": 0, "type": "electric_scooter", "bike_id": "5fbb4a3defb595ce0d560bcaebdf3b8d", "rental_uris": {"android": "https://dc.lft.to/lastmile_qr_scan", "ios": "https://dc.lft.to/lastmile_qr_scan"}, "name": "5fbb4a3defb595ce0d560bcaebdf3b8d"}, {"lat": 38.913244666666664, "is_reserved": 0, "lon": -77.03190133333334, "fusion_lon": 0.0, "fusion_lat": 0.0, "is_disabled": 0, "type": "electric_scooter", "bike_id": "657e0ed312e1507e479959c92f295f1d", "rental_uris": {"android": "https://dc.lft.to/lastmile_qr_scan", "ios": "https://dc.lft.to/lastmile_qr_scan"}, "name": "657e0ed312e1507e479959c92f295f1d"}, {"lat": 38.9155875, "is_reserved": 0, "lon": -77.031542, "fusion_lon": 0.0, "fusion_lat": 0.0, "is_disabled": 0, "type": "electric_scooter", "bike_id": "47bb171e085a34c805033d67f45006dc", "rental_uris": {"android": "https://dc.lft.to/lastmile_qr_scan", "ios": "https://dc.lft.to/lastmile_qr_scan"}, "name": "47bb171e085a34c805033d67f45006dc"}, {"lat": 38.887357, "is_reserved": 0, "lon": -77.0153675, "fusion_lon": 0.0, "fusion_lat": 0.0, "is_disabled": 0, "type": "electric_scooter", "bike_id": "9a5d537092cbda73a404dd884cba3cdc", "rental_uris": {"android": "https://dc.lft.to/lastmile_qr_scan", "ios": "https://dc.lft.to/lastmile_qr_scan"}, "name": "9a5d537092cbda73a404dd884cba3cdc"}, {"lat": 38.919382166666665, "is_reserved": 0, "lon": -77.04805566666667, "fusion_lon": 0.0, "fusion_lat": 0.0, "is_disabled": 0, "type": "electric_scooter", "bike_id": "c71b837ce51d716e94c7553957727ca9", "rental_uris": {"android": "https://dc.lft.to/lastmile_qr_scan", "ios": "https://dc.lft.to/lastmile_qr_scan"}, "name": "c71b837ce51d716e94c7553957727ca9"}, {"lat": 38.8945835, "is_reserved": 0, "lon": -77.04676433333333, "fusion_lon": 0.0, "fusion_lat": 0.0, "is_disabled": 0, "type": "electric_scooter", "bike_id": "2d420ad4277e7afa0d05987b376c90b7", "rental_uris": {"android": "https://dc.lft.to/lastmile_qr_scan", "ios": "https://dc.lft.to/lastmile_qr_scan"}, "name": "2d420ad4277e7afa0d05987b376c90b7"}, {"lat": 38.9023285, "is_reserved": 0, "lon": -77.047631, "fusion_lon": 0.0, "fusion_lat": 0.0, "is_disabled": 0, "type": "electric_scooter", "bike_id": "445128ff3f3a81b96fc944fc594b3abd", "rental_uris": {"android": "https://dc.lft.to/lastmile_qr_scan", "ios": "https://dc.lft.to/lastmile_qr_scan"}, "name": "445128ff3f3a81b96fc944fc594b3abd"}, {"lat": 38.84523166666666, "is_reserved": 0, "lon": -76.973982, "fusion_lon": 0.0, "fusion_lat": 0.0, "is_disabled": 0, "type": "electric_bike", "bike_id": "04d35076ff99c7b141e3ce2f703a0d38", "rental_uris": {"android": "https://dc.lft.to/lastmile_qr_scan", "ios": "https://dc.lft.to/lastmile_qr_scan"}, "name": "04d35076ff99c7b141e3ce2f703a0d38"}, {"lat": 38.906568, "is_reserved": 0, "lon": -77.009893, "fusion_lon": 0.0, "fusion_lat": 0.0, "is_disabled": 0, "type": "electric_scooter", "bike_id": "812366f1fb13cac1f179c138b08873de", "rental_uris": {"android": "https://dc.lft.to/lastmile_qr_scan", "ios": "https://dc.lft.to/lastmile_qr_scan"}, "name": "812366f1fb13cac1f179c138b08873de"}, {"lat": 38.915706, "is_reserved": 0, "lon": -77.01586233333333, "fusion_lon": 0.0, "fusion_lat": 0.0, "is_disabled": 0, "type": "electric_scooter", "bike_id": "8551d2e218db911e7697334eea98fc16", "rental_uris": {"android": "https://dc.lft.to/lastmile_qr_scan", "ios": "https://dc.lft.to/lastmile_qr_scan"}, "name": "8551d2e218db911e7697334eea98fc16"}, {"lat": 38.90366733333333, "is_reserved": 0, "lon": -77.016246, "fusion_lon": 0.0, "fusion_lat": 0.0, "is_disabled": 0, "type": "electric_scooter", "bike_id": "05ebdbd09469c4708456a95692f486f9", "rental_uris": {"android": "https://dc.lft.to/lastmile_qr_scan", "ios": "https://dc.lft.to/lastmile_qr_scan"}, "name": "05ebdbd09469c4708456a95692f486f9"}, {"lat": 38.91286766666666, "is_reserved": 0, "lon": -77.0238585, "fusion_lon": 0.0, "fusion_lat": 0.0, "is_disabled": 0, "type": "electric_scooter", "bike_id": "1148ef861bc932b70242eb2b3098e3f2", "rental_uris": {"android": "https://dc.lft.to/lastmile_qr_scan", "ios": "https://dc.lft.to/lastmile_qr_scan"}, "name": "1148ef861bc932b70242eb2b3098e3f2"}, {"lat": 38.91065566666666, "is_reserved": 0, "lon": -77.00466566666667, "fusion_lon": 0.0, "fusion_lat": 0.0, "is_disabled": 0, "type": "electric_scooter", "bike_id": "c498dd2dbf3ddff06512a8bb8d931d71", "rental_uris": {"android": "https://dc.lft.to/lastmile_qr_scan", "ios": "https://dc.lft.to/lastmile_qr_scan"}, "name": "c498dd2dbf3ddff06512a8bb8d931d71"}, {"lat": 38.9173925, "is_reserved": 0, "lon": -77.0108175, "fusion_lon": 0.0, "fusion_lat": 0.0, "is_disabled": 0, "type": "electric_scooter", "bike_id": "914bee94af9310a5b40c7bee5601f8cd", "rental_uris": {"android": "https://dc.lft.to/lastmile_qr_scan", "ios": "https://dc.lft.to/lastmile_qr_scan"}, "name": "914bee94af9310a5b40c7bee5601f8cd"}, {"lat": 38.97584783333333, "is_reserved": 0, "lon": -77.01780483333333, "fusion_lon": 0.0, "fusion_lat": 0.0, "is_disabled": 0, "type": "electric_bike", "bike_id": "1c1cebfa9016f00e73c4c7db2a5429e0", "rental_uris": {"android": "https://dc.lft.to/lastmile_qr_scan", "ios": "https://dc.lft.to/lastmile_qr_scan"}, "name": "1c1cebfa9016f00e73c4c7db2a5429e0"}, {"lat": 38.921680333333335, "is_reserved": 0, "lon": -77.03833266666666, "fusion_lon": 0.0, "fusion_lat": 0.0, "is_disabled": 0, "type": "electric_scooter", "bike_id": "061a7e7f7c607e031434c82d5439c87f", "rental_uris": {"android": "https://dc.lft.to/lastmile_qr_scan", "ios": "https://dc.lft.to/lastmile_qr_scan"}, "name": "061a7e7f7c607e031434c82d5439c87f"}, {"lat": 38.9100875, "is_reserved": 0, "lon": -76.99867983333333, "fusion_lon": 0.0, "fusion_lat": 0.0, "is_disabled": 0, "type": "electric_scooter", "bike_id": "f7184bbbfc229ae07888e376a3f49897", "rental_uris": {"android": "https://dc.lft.to/lastmile_qr_scan", "ios": "https://dc.lft.to/lastmile_qr_scan"}, "name": "f7184bbbfc229ae07888e376a3f49897"}, {"lat": 38.9087505, "is_reserved": 0, "lon": -77.031865, "fusion_lon": 0.0, "fusion_lat": 0.0, "is_disabled": 0, "type": "electric_scooter", "bike_id": "6dec6dec5de10d3d638bf693fd2428f4", "rental_uris": {"android": "https://dc.lft.to/lastmile_qr_scan", "ios": "https://dc.lft.to/lastmile_qr_scan"}, "name": "6dec6dec5de10d3d638bf693fd2428f4"}, {"lat": 38.90515633333333, "is_reserved": 0, "lon": -77.052688, "fusion_lon": 0.0, "fusion_lat": 0.0, "is_disabled": 0, "type": "electric_scooter", "bike_id": "d99f5c42b5b39633cd9e4de624074ac0", "rental_uris": {"android": "https://dc.lft.to/lastmile_qr_scan", "ios": "https://dc.lft.to/lastmile_qr_scan"}, "name": "d99f5c42b5b39633cd9e4de624074ac0"}, {"lat": 38.87656483333333, "is_reserved": 0, "lon": -77.004316, "fusion_lon": 0.0, "fusion_lat": 0.0, "is_disabled": 0, "type": "electric_scooter", "bike_id": "a56159d5c7ca9a9d0baa85ef3d713a1d", "rental_uris": {"android": "https://dc.lft.to/lastmile_qr_scan", "ios": "https://dc.lft.to/lastmile_qr_scan"}, "name": "a56159d5c7ca9a9d0baa85ef3d713a1d"}, {"lat": 38.94535183333333, "is_reserved": 0, "lon": -77.07965383333334, "fusion_lon": 0.0, "fusion_lat": 0.0, "is_disabled": 0, "type": "electric_scooter", "bike_id": "211714f74eac7aca4ea3398b000bc09c", "rental_uris": {"android": "https://dc.lft.to/lastmile_qr_scan", "ios": "https://dc.lft.to/lastmile_qr_scan"}, "name": "211714f74eac7aca4ea3398b000bc09c"}, {"lat": 38.903554, "is_reserved": 0, "lon": -77.016235, "fusion_lon": 0.0, "fusion_lat": 0.0, "is_disabled": 0, "type": "electric_scooter", "bike_id": "b3f28fc822dc7ee2fd16e188dfcb51b6", "rental_uris": {"android": "https://dc.lft.to/lastmile_qr_scan", "ios": "https://dc.lft.to/lastmile_qr_scan"}, "name": "b3f28fc822dc7ee2fd16e188dfcb51b6"}, {"lat": 38.875772833333336, "is_reserved": 0, "lon": -77.23411716666666, "fusion_lon": 0.0, "fusion_lat": 0.0, "is_disabled": 0, "type": "electric_bike", "bike_id": "5126b13dc691b930ba1951db8002e6a6", "rental_uris": {"android": "https://dc.lft.to/lastmile_qr_scan", "ios": "https://dc.lft.to/lastmile_qr_scan"}, "name": "5126b13dc691b930ba1951db8002e6a6"}, {"lat": 38.88528066666667, "is_reserved": 0, "lon": -76.98269716666667, "fusion_lon": 0.0, "fusion_lat": 0.0, "is_disabled": 0, "type": "electric_scooter", "bike_id": "328dd4fb5a2705cf50a8881a9740edab", "rental_uris": {"android": "https://dc.lft.to/lastmile_qr_scan", "ios": "https://dc.lft.to/lastmile_qr_scan"}, "name": "328dd4fb5a2705cf50a8881a9740edab"}, {"lat": 38.925073, "is_reserved": 0, "lon": -77.0522755, "fusion_lon": 0.0, "fusion_lat": 0.0, "is_disabled": 0, "type": "electric_scooter", "bike_id": "94a78138e1684116cf59096060581785", "rental_uris": {"android": "https://dc.lft.to/lastmile_qr_scan", "ios": "https://dc.lft.to/lastmile_qr_scan"}, "name": "94a78138e1684116cf59096060581785"}, {"lat": 38.87488316666666, "is_reserved": 0, "lon": -77.00135883333333, "fusion_lon": 0.0, "fusion_lat": 0.0, "is_disabled": 0, "type": "electric_scooter", "bike_id": "50dd093bd04acc45806b8916cee6698d", "rental_uris": {"android": "https://dc.lft.to/lastmile_qr_scan", "ios": "https://dc.lft.to/lastmile_qr_scan"}, "name": "50dd093bd04acc45806b8916cee6698d"}, {"lat": 38.91606016666667, "is_reserved": 0, "lon": -77.031355, "fusion_lon": 0.0, "fusion_lat": 0.0, "is_disabled": 0, "type": "electric_scooter", "bike_id": "396df6542273b4ef86a6195dc8903777", "rental_uris": {"android": "https://dc.lft.to/lastmile_qr_scan", "ios": "https://dc.lft.to/lastmile_qr_scan"}, "name": "396df6542273b4ef86a6195dc8903777"}, {"lat": 38.86534233333333, "is_reserved": 0, "lon": -76.9896985, "fusion_lon": 0.0, "fusion_lat": 0.0, "is_disabled": 0, "type": "electric_scooter", "bike_id": "8a52075f8b8dd4153da7d34c0713c51b", "rental_uris": {"android": "https://dc.lft.to/lastmile_qr_scan", "ios": "https://dc.lft.to/lastmile_qr_scan"}, "name": "8a52075f8b8dd4153da7d34c0713c51b"}, {"lat": 38.918385, "is_reserved": 0, "lon": -77.0402405, "fusion_lon": 0.0, "fusion_lat": 0.0, "is_disabled": 0, "type": "electric_scooter", "bike_id": "68e2c7881f5ebda7390b0a463123a5c1", "rental_uris": {"android": "https://dc.lft.to/lastmile_qr_scan", "ios": "https://dc.lft.to/lastmile_qr_scan"}, "name": "68e2c7881f5ebda7390b0a463123a5c1"}, {"lat": 38.90235366666667, "is_reserved": 0, "lon": -77.03030383333333, "fusion_lon": 0.0, "fusion_lat": 0.0, "is_disabled": 0, "type": "electric_scooter", "bike_id": "5dc1fc044a96cf57c83182441ebed8f2", "rental_uris": {"android": "https://dc.lft.to/lastmile_qr_scan", "ios": "https://dc.lft.to/lastmile_qr_scan"}, "name": "5dc1fc044a96cf57c83182441ebed8f2"}, {"lat": 38.92615816666667, "is_reserved": 0, "lon": -77.04332433333333, "fusion_lon": 0.0, "fusion_lat": 0.0, "is_disabled": 0, "type": "electric_scooter", "bike_id": "1d66edfb8160b2c5267fdfbac91a2fa8", "rental_uris": {"android": "https://dc.lft.to/lastmile_qr_scan", "ios": "https://dc.lft.to/lastmile_qr_scan"}, "name": "1d66edfb8160b2c5267fdfbac91a2fa8"}, {"lat": 38.9226135, "is_reserved": 0, "lon": -77.0366745, "fusion_lon": 0.0, "fusion_lat": 0.0, "is_disabled": 0, "type": "electric_scooter", "bike_id": "8f1d858fa948e98dc897b6376ac60177", "rental_uris": {"android": "https://dc.lft.to/lastmile_qr_scan", "ios": "https://dc.lft.to/lastmile_qr_scan"}, "name": "8f1d858fa948e98dc897b6376ac60177"}, {"lat": 38.8936495, "is_reserved": 0, "lon": -76.94702833333334, "fusion_lon": 0.0, "fusion_lat": 0.0, "is_disabled": 0, "type": "electric_scooter", "bike_id": "ba4c3e3f404aac8cb2e9ff447f6f3187", "rental_uris": {"android": "https://dc.lft.to/lastmile_qr_scan", "ios": "https://dc.lft.to/lastmile_qr_scan"}, "name": "ba4c3e3f404aac8cb2e9ff447f6f3187"}, {"lat": 38.90470466666667, "is_reserved": 0, "lon": -77.03566016666667, "fusion_lon": 0.0, "fusion_lat": 0.0, "is_disabled": 0, "type": "electric_scooter", "bike_id": "61ccb27536074df16d4ad18f5ba1c5fe", "rental_uris": {"android": "https://dc.lft.to/lastmile_qr_scan", "ios": "https://dc.lft.to/lastmile_qr_scan"}, "name": "61ccb27536074df16d4ad18f5ba1c5fe"}, {"lat": 38.92315133333334, "is_reserved": 0, "lon": -77.04351566666666, "fusion_lon": 0.0, "fusion_lat": 0.0, "is_disabled": 0, "type": "electric_scooter", "bike_id": "63fa92b4923628bf4eface2148e9bfa9", "rental_uris": {"android": "https://dc.lft.to/lastmile_qr_scan", "ios": "https://dc.lft.to/lastmile_qr_scan"}, "name": "63fa92b4923628bf4eface2148e9bfa9"}, {"lat": 38.905615, "is_reserved": 0, "lon": -77.04895883333333, "fusion_lon": 0.0, "fusion_lat": 0.0, "is_disabled": 0, "type": "electric_scooter", "bike_id": "6cfc956fed9a62ee87ebd42d071414dd", "rental_uris": {"android": "https://dc.lft.to/lastmile_qr_scan", "ios": "https://dc.lft.to/lastmile_qr_scan"}, "name": "6cfc956fed9a62ee87ebd42d071414dd"}, {"lat": 38.91714, "is_reserved": 0, "lon": -77.033441, "fusion_lon": 0.0, "fusion_lat": 0.0, "is_disabled": 0, "type": "electric_scooter", "bike_id": "37abf10490e47b7aece02764d6cf088c", "rental_uris": {"android": "https://dc.lft.to/lastmile_qr_scan", "ios": "https://dc.lft.to/lastmile_qr_scan"}, "name": "37abf10490e47b7aece02764d6cf088c"}, {"lat": 38.923725833333336, "is_reserved": 0, "lon": -77.04128916666667, "fusion_lon": 0.0, "fusion_lat": 0.0, "is_disabled": 0, "type": "electric_scooter", "bike_id": "f5a4d88efe0d71dd20e38e218606bd77", "rental_uris": {"android": "https://dc.lft.to/lastmile_qr_scan", "ios": "https://dc.lft.to/lastmile_qr_scan"}, "name": "f5a4d88efe0d71dd20e38e218606bd77"}, {"lat": 38.9440665, "is_reserved": 0, "lon": -77.02620783333333, "fusion_lon": 0.0, "fusion_lat": 0.0, "is_disabled": 0, "type": "electric_scooter", "bike_id": "ad5a4fd00028ce5adcbd748d533af544", "rental_uris": {"android": "https://dc.lft.to/lastmile_qr_scan", "ios": "https://dc.lft.to/lastmile_qr_scan"}, "name": "ad5a4fd00028ce5adcbd748d533af544"}, {"lat": 38.90230966666667, "is_reserved": 0, "lon": -77.03711016666666, "fusion_lon": 0.0, "fusion_lat": 0.0, "is_disabled": 0, "type": "electric_scooter", "bike_id": "3aa5d625a10324e595755583b802a93f", "rental_uris": {"android": "https://dc.lft.to/lastmile_qr_scan", "ios": "https://dc.lft.to/lastmile_qr_scan"}, "name": "3aa5d625a10324e595755583b802a93f"}, {"lat": 38.9204445, "is_reserved": 0, "lon": -77.04194333333334, "fusion_lon": 0.0, "fusion_lat": 0.0, "is_disabled": 0, "type": "electric_scooter", "bike_id": "1b2a0130ef4ffe9a28dfc6954fdd91c8", "rental_uris": {"android": "https://dc.lft.to/lastmile_qr_scan", "ios": "https://dc.lft.to/lastmile_qr_scan"}, "name": "1b2a0130ef4ffe9a28dfc6954fdd91c8"}, {"lat": 38.91160683333333, "is_reserved": 0, "lon": -77.001983, "fusion_lon": 0.0, "fusion_lat": 0.0, "is_disabled": 0, "type": "electric_scooter", "bike_id": "8f5b91e81a7522297bcc5250e9f5bea4", "rental_uris": {"android": "https://dc.lft.to/lastmile_qr_scan", "ios": "https://dc.lft.to/lastmile_qr_scan"}, "name": "8f5b91e81a7522297bcc5250e9f5bea4"}, {"lat": 38.82364883333334, "is_reserved": 0, "lon": -77.00217683333334, "fusion_lon": 0.0, "fusion_lat": 0.0, "is_disabled": 0, "type": "electric_bike", "bike_id": "08cb554766ec38be4292ce12b53ac2ff", "rental_uris": {"android": "https://dc.lft.to/lastmile_qr_scan", "ios": "https://dc.lft.to/lastmile_qr_scan"}, "name": "08cb554766ec38be4292ce12b53ac2ff"}, {"lat": 38.85934183333333, "is_reserved": 0, "lon": -77.11828966666667, "fusion_lon": 0.0, "fusion_lat": 0.0, "is_disabled": 0, "type": "electric_bike", "bike_id": "ed7b0ac796d733de330ba6953ca24951", "rental_uris": {"android": "https://dc.lft.to/lastmile_qr_scan", "ios": "https://dc.lft.to/lastmile_qr_scan"}, "name": "ed7b0ac796d733de330ba6953ca24951"}, {"lat": 38.919267, "is_reserved": 0, "lon": -77.00929666666667, "fusion_lon": 0.0, "fusion_lat": 0.0, "is_disabled": 0, "type": "electric_scooter", "bike_id": "adc468cb189ae22e4550ed1cbfbecd10", "rental_uris": {"android": "https://dc.lft.to/lastmile_qr_scan", "ios": "https://dc.lft.to/lastmile_qr_scan"}, "name": "adc468cb189ae22e4550ed1cbfbecd10"}, {"lat": 38.936087666666666, "is_reserved": 0, "lon": -77.058618, "fusion_lon": 0.0, "fusion_lat": 0.0, "is_disabled": 0, "type": "electric_scooter", "bike_id": "395619611dc9898a8525d23ab7581c78", "rental_uris": {"android": "https://dc.lft.to/lastmile_qr_scan", "ios": "https://dc.lft.to/lastmile_qr_scan"}, "name": "395619611dc9898a8525d23ab7581c78"}, {"lat": 38.924421833333334, "is_reserved": 0, "lon": -77.03359883333333, "fusion_lon": 0.0, "fusion_lat": 0.0, "is_disabled": 0, "type": "electric_scooter", "bike_id": "d3586ff8fd441b0aa0e164000e0901c2", "rental_uris": {"android": "https://dc.lft.to/lastmile_qr_scan", "ios": "https://dc.lft.to/lastmile_qr_scan"}, "name": "d3586ff8fd441b0aa0e164000e0901c2"}, {"lat": 38.8748265, "is_reserved": 0, "lon": -76.999772, "fusion_lon": 0.0, "fusion_lat": 0.0, "is_disabled": 0, "type": "electric_scooter", "bike_id": "286f0d920a0372b9fbb351b0a1efddf9", "rental_uris": {"android": "https://dc.lft.to/lastmile_qr_scan", "ios": "https://dc.lft.to/lastmile_qr_scan"}, "name": "286f0d920a0372b9fbb351b0a1efddf9"}, {"lat": 38.92377666666667, "is_reserved": 0, "lon": -77.01924, "fusion_lon": 0.0, "fusion_lat": 0.0, "is_disabled": 0, "type": "electric_scooter", "bike_id": "f340cf0d71efe7393fc7f03fae5ba915", "rental_uris": {"android": "https://dc.lft.to/lastmile_qr_scan", "ios": "https://dc.lft.to/lastmile_qr_scan"}, "name": "f340cf0d71efe7393fc7f03fae5ba915"}, {"lat": 38.912498, "is_reserved": 0, "lon": -77.02428233333333, "fusion_lon": 0.0, "fusion_lat": 0.0, "is_disabled": 0, "type": "electric_scooter", "bike_id": "f2475488dfd1dfc358255185260b39f5", "rental_uris": {"android": "https://dc.lft.to/lastmile_qr_scan", "ios": "https://dc.lft.to/lastmile_qr_scan"}, "name": "f2475488dfd1dfc358255185260b39f5"}, {"lat": 38.912396, "is_reserved": 0, "lon": -77.03660016666667, "fusion_lon": 0.0, "fusion_lat": 0.0, "is_disabled": 0, "type": "electric_scooter", "bike_id": "ec1624a232b961e07b72536f1e4bef68", "rental_uris": {"android": "https://dc.lft.to/lastmile_qr_scan", "ios": "https://dc.lft.to/lastmile_qr_scan"}, "name": "ec1624a232b961e07b72536f1e4bef68"}, {"lat": 38.87179, "is_reserved": 0, "lon": -77.00611233333333, "fusion_lon": 0.0, "fusion_lat": 0.0, "is_disabled": 0, "type": "electric_scooter", "bike_id": "530df0aa57c688669b34bad6877d7454", "rental_uris": {"android": "https://dc.lft.to/lastmile_qr_scan", "ios": "https://dc.lft.to/lastmile_qr_scan"}, "name": "530df0aa57c688669b34bad6877d7454"}, {"lat": 38.9237745, "is_reserved": 0, "lon": -77.051535, "fusion_lon": 0.0, "fusion_lat": 0.0, "is_disabled": 0, "type": "electric_scooter", "bike_id": "33d030014641a05154b82f869c357064", "rental_uris": {"android": "https://dc.lft.to/lastmile_qr_scan", "ios": "https://dc.lft.to/lastmile_qr_scan"}, "name": "33d030014641a05154b82f869c357064"}, {"lat": 38.974949, "is_reserved": 0, "lon": -77.01695883333333, "fusion_lon": 0.0, "fusion_lat": 0.0, "is_disabled": 0, "type": "electric_scooter", "bike_id": "3762b854f99326436be387a1d2a17ad2", "rental_uris": {"android": "https://dc.lft.to/lastmile_qr_scan", "ios": "https://dc.lft.to/lastmile_qr_scan"}, "name": "3762b854f99326436be387a1d2a17ad2"}, {"lat": 38.893726666666666, "is_reserved": 0, "lon": -77.02835083333333, "fusion_lon": 0.0, "fusion_lat": 0.0, "is_disabled": 0, "type": "electric_scooter", "bike_id": "0bf9bcff5f70674fa47298d0c304e848", "rental_uris": {"android": "https://dc.lft.to/lastmile_qr_scan", "ios": "https://dc.lft.to/lastmile_qr_scan"}, "name": "0bf9bcff5f70674fa47298d0c304e848"}, {"lat": 38.899842666666665, "is_reserved": 0, "lon": -77.02781633333333, "fusion_lon": 0.0, "fusion_lat": 0.0, "is_disabled": 0, "type": "electric_scooter", "bike_id": "a9f21741bbffe9408bc91e6e1b034c1c", "rental_uris": {"android": "https://dc.lft.to/lastmile_qr_scan", "ios": "https://dc.lft.to/lastmile_qr_scan"}, "name": "a9f21741bbffe9408bc91e6e1b034c1c"}, {"lat": 38.919056, "is_reserved": 0, "lon": -77.0248845, "fusion_lon": 0.0, "fusion_lat": 0.0, "is_disabled": 0, "type": "electric_scooter", "bike_id": "1d870d01f2904eb5314740338d711949", "rental_uris": {"android": "https://dc.lft.to/lastmile_qr_scan", "ios": "https://dc.lft.to/lastmile_qr_scan"}, "name": "1d870d01f2904eb5314740338d711949"}, {"lat": 38.87625933333333, "is_reserved": 0, "lon": -76.96528033333334, "fusion_lon": 0.0, "fusion_lat": 0.0, "is_disabled": 0, "type": "electric_scooter", "bike_id": "36ab5f97cab0a4292224e7e1f97437f7", "rental_uris": {"android": "https://dc.lft.to/lastmile_qr_scan", "ios": "https://dc.lft.to/lastmile_qr_scan"}, "name": "36ab5f97cab0a4292224e7e1f97437f7"}, {"lat": 38.89528716666667, "is_reserved": 0, "lon": -77.021956, "fusion_lon": 0.0, "fusion_lat": 0.0, "is_disabled": 0, "type": "electric_scooter", "bike_id": "caf81eaff9e7952f031d822eb78eebdd", "rental_uris": {"android": "https://dc.lft.to/lastmile_qr_scan", "ios": "https://dc.lft.to/lastmile_qr_scan"}, "name": "caf81eaff9e7952f031d822eb78eebdd"}, {"lat": 38.9212105, "is_reserved": 0, "lon": -77.04427016666666, "fusion_lon": 0.0, "fusion_lat": 0.0, "is_disabled": 0, "type": "electric_scooter", "bike_id": "3c30aa1303010f54c7b4a6049b0544be", "rental_uris": {"android": "https://dc.lft.to/lastmile_qr_scan", "ios": "https://dc.lft.to/lastmile_qr_scan"}, "name": "3c30aa1303010f54c7b4a6049b0544be"}, {"lat": 38.927210333333335, "is_reserved": 0, "lon": -77.02271966666666, "fusion_lon": 0.0, "fusion_lat": 0.0, "is_disabled": 0, "type": "electric_scooter", "bike_id": "a544adcc038f417fb69a00e5fdbb638c", "rental_uris": {"android": "https://dc.lft.to/lastmile_qr_scan", "ios": "https://dc.lft.to/lastmile_qr_scan"}, "name": "a544adcc038f417fb69a00e5fdbb638c"}, {"lat": 38.921738500000004, "is_reserved": 0, "lon": -77.0423995, "fusion_lon": 0.0, "fusion_lat": 0.0, "is_disabled": 0, "type": "electric_scooter", "bike_id": "d58fa7dc921bcc28dbc8df23e0e163d5", "rental_uris": {"android": "https://dc.lft.to/lastmile_qr_scan", "ios": "https://dc.lft.to/lastmile_qr_scan"}, "name": "d58fa7dc921bcc28dbc8df23e0e163d5"}, {"lat": 38.876679833333334, "is_reserved": 0, "lon": -77.008181, "fusion_lon": 0.0, "fusion_lat": 0.0, "is_disabled": 0, "type": "electric_scooter", "bike_id": "ea8b6bcfef899f808490f8e0c214d9f2", "rental_uris": {"android": "https://dc.lft.to/lastmile_qr_scan", "ios": "https://dc.lft.to/lastmile_qr_scan"}, "name": "ea8b6bcfef899f808490f8e0c214d9f2"}, {"lat": 38.917236, "is_reserved": 0, "lon": -77.01926966666667, "fusion_lon": 0.0, "fusion_lat": 0.0, "is_disabled": 0, "type": "electric_scooter", "bike_id": "a7770348a2ad0949e014bb0d2e1e334b", "rental_uris": {"android": "https://dc.lft.to/lastmile_qr_scan", "ios": "https://dc.lft.to/lastmile_qr_scan"}, "name": "a7770348a2ad0949e014bb0d2e1e334b"}, {"lat": 38.874714166666664, "is_reserved": 0, "lon": -77.01211933333333, "fusion_lon": 0.0, "fusion_lat": 0.0, "is_disabled": 0, "type": "electric_scooter", "bike_id": "e5db53356fab452e32744419165cda46", "rental_uris": {"android": "https://dc.lft.to/lastmile_qr_scan", "ios": "https://dc.lft.to/lastmile_qr_scan"}, "name": "e5db53356fab452e32744419165cda46"}, {"lat": 38.928801, "is_reserved": 0, "lon": -77.03753633333334, "fusion_lon": 0.0, "fusion_lat": 0.0, "is_disabled": 0, "type": "electric_scooter", "bike_id": "292d7385d7a30518a9ad62f1f3f73bb0", "rental_uris": {"android": "https://dc.lft.to/lastmile_qr_scan", "ios": "https://dc.lft.to/lastmile_qr_scan"}, "name": "292d7385d7a30518a9ad62f1f3f73bb0"}, {"lat": 38.911067833333334, "is_reserved": 0, "lon": -77.03311083333334, "fusion_lon": 0.0, "fusion_lat": 0.0, "is_disabled": 0, "type": "electric_scooter", "bike_id": "6bb932331b62dd7f3df1ae9f6745feae", "rental_uris": {"android": "https://dc.lft.to/lastmile_qr_scan", "ios": "https://dc.lft.to/lastmile_qr_scan"}, "name": "6bb932331b62dd7f3df1ae9f6745feae"}, {"lat": 38.9210515, "is_reserved": 0, "lon": -77.06331866666666, "fusion_lon": 0.0, "fusion_lat": 0.0, "is_disabled": 0, "type": "electric_scooter", "bike_id": "2af9e2e8d91a1d8df7a700712a18a571", "rental_uris": {"android": "https://dc.lft.to/lastmile_qr_scan", "ios": "https://dc.lft.to/lastmile_qr_scan"}, "name": "2af9e2e8d91a1d8df7a700712a18a571"}, {"lat": 38.925461166666665, "is_reserved": 0, "lon": -77.04272833333333, "fusion_lon": 0.0, "fusion_lat": 0.0, "is_disabled": 0, "type": "electric_scooter", "bike_id": "42c31283600257ec3aeae5d7d14545d1", "rental_uris": {"android": "https://dc.lft.to/lastmile_qr_scan", "ios": "https://dc.lft.to/lastmile_qr_scan"}, "name": "42c31283600257ec3aeae5d7d14545d1"}, {"lat": 38.92779783333334, "is_reserved": 0, "lon": -77.02078116666667, "fusion_lon": 0.0, "fusion_lat": 0.0, "is_disabled": 0, "type": "electric_scooter", "bike_id": "66080f10d8f3b99c87d7f8154f77f1fc", "rental_uris": {"android": "https://dc.lft.to/lastmile_qr_scan", "ios": "https://dc.lft.to/lastmile_qr_scan"}, "name": "66080f10d8f3b99c87d7f8154f77f1fc"}, {"lat": 38.9083785, "is_reserved": 0, "lon": -77.04369483333333, "fusion_lon": 0.0, "fusion_lat": 0.0, "is_disabled": 0, "type": "electric_scooter", "bike_id": "62e343f608662a39b19a0b057fa11620", "rental_uris": {"android": "https://dc.lft.to/lastmile_qr_scan", "ios": "https://dc.lft.to/lastmile_qr_scan"}, "name": "62e343f608662a39b19a0b057fa11620"}, {"lat": 38.92181466666667, "is_reserved": 0, "lon": -77.03791666666666, "fusion_lon": 0.0, "fusion_lat": 0.0, "is_disabled": 0, "type": "electric_scooter", "bike_id": "2c152489761dca3100a40784ef1b3a9c", "rental_uris": {"android": "https://dc.lft.to/lastmile_qr_scan", "ios": "https://dc.lft.to/lastmile_qr_scan"}, "name": "2c152489761dca3100a40784ef1b3a9c"}, {"lat": 38.922410666666664, "is_reserved": 0, "lon": -77.04270516666666, "fusion_lon": 0.0, "fusion_lat": 0.0, "is_disabled": 0, "type": "electric_scooter", "bike_id": "f97880e336066cf50dac7e493c4b7654", "rental_uris": {"android": "https://dc.lft.to/lastmile_qr_scan", "ios": "https://dc.lft.to/lastmile_qr_scan"}, "name": "f97880e336066cf50dac7e493c4b7654"}, {"lat": 39.01221783333333, "is_reserved": 0, "lon": -77.1107865, "fusion_lon": 0.0, "fusion_lat": 0.0, "is_disabled": 0, "type": "electric_bike", "bike_id": "59c212496ec575056229b90652c027f5", "rental_uris": {"android": "https://dc.lft.to/lastmile_qr_scan", "ios": "https://dc.lft.to/lastmile_qr_scan"}, "name": "59c212496ec575056229b90652c027f5"}, {"lat": 38.8717065, "is_reserved": 0, "lon": -77.00681683333333, "fusion_lon": 0.0, "fusion_lat": 0.0, "is_disabled": 0, "type": "electric_scooter", "bike_id": "3aa06d7de646575ab685af25e20c798b", "rental_uris": {"android": "https://dc.lft.to/lastmile_qr_scan", "ios": "https://dc.lft.to/lastmile_qr_scan"}, "name": "3aa06d7de646575ab685af25e20c798b"}, {"lat": 38.905014333333334, "is_reserved": 0, "lon": -76.9795365, "fusion_lon": 0.0, "fusion_lat": 0.0, "is_disabled": 0, "type": "electric_scooter", "bike_id": "816733576b075a68d395eedca7127355", "rental_uris": {"android": "https://dc.lft.to/lastmile_qr_scan", "ios": "https://dc.lft.to/lastmile_qr_scan"}, "name": "816733576b075a68d395eedca7127355"}, {"lat": 38.9226655, "is_reserved": 0, "lon": -77.03678033333334, "fusion_lon": 0.0, "fusion_lat": 0.0, "is_disabled": 0, "type": "electric_scooter", "bike_id": "cbc8f312a76aaf2b2ec753a7c69f1220", "rental_uris": {"android": "https://dc.lft.to/lastmile_qr_scan", "ios": "https://dc.lft.to/lastmile_qr_scan"}, "name": "cbc8f312a76aaf2b2ec753a7c69f1220"}, {"lat": 38.900012833333335, "is_reserved": 0, "lon": -77.02671816666667, "fusion_lon": 0.0, "fusion_lat": 0.0, "is_disabled": 0, "type": "electric_scooter", "bike_id": "0254b0896767df188ec9900b4d8a698f", "rental_uris": {"android": "https://dc.lft.to/lastmile_qr_scan", "ios": "https://dc.lft.to/lastmile_qr_scan"}, "name": "0254b0896767df188ec9900b4d8a698f"}, {"lat": 38.920589666666665, "is_reserved": 0, "lon": -77.032407, "fusion_lon": 0.0, "fusion_lat": 0.0, "is_disabled": 0, "type": "electric_scooter", "bike_id": "085a78c910ccece8521150fdf1a00d10", "rental_uris": {"android": "https://dc.lft.to/lastmile_qr_scan", "ios": "https://dc.lft.to/lastmile_qr_scan"}, "name": "085a78c910ccece8521150fdf1a00d10"}, {"lat": 38.862408, "is_reserved": 0, "lon": -76.99501416666666, "fusion_lon": 0.0, "fusion_lat": 0.0, "is_disabled": 0, "type": "electric_scooter", "bike_id": "fdbb2815642aa05fb90e20676f7cdfad", "rental_uris": {"android": "https://dc.lft.to/lastmile_qr_scan", "ios": "https://dc.lft.to/lastmile_qr_scan"}, "name": "fdbb2815642aa05fb90e20676f7cdfad"}, {"lat": 38.945492, "is_reserved": 0, "lon": -77.02530016666667, "fusion_lon": 0.0, "fusion_lat": 0.0, "is_disabled": 0, "type": "electric_scooter", "bike_id": "2ab8d86a6eb5bba053c7eadb0c403d84", "rental_uris": {"android": "https://dc.lft.to/lastmile_qr_scan", "ios": "https://dc.lft.to/lastmile_qr_scan"}, "name": "2ab8d86a6eb5bba053c7eadb0c403d84"}, {"lat": 38.902392, "is_reserved": 0, "lon": -77.05454366666666, "fusion_lon": 0.0, "fusion_lat": 0.0, "is_disabled": 0, "type": "electric_scooter", "bike_id": "08cd7ba13415155ceeff15d8828c1766", "rental_uris": {"android": "https://dc.lft.to/lastmile_qr_scan", "ios": "https://dc.lft.to/lastmile_qr_scan"}, "name": "08cd7ba13415155ceeff15d8828c1766"}, {"lat": 38.879343166666665, "is_reserved": 0, "lon": -77.0145015, "fusion_lon": 0.0, "fusion_lat": 0.0, "is_disabled": 0, "type": "electric_scooter", "bike_id": "42b30b117e861d6c28292b438a9f885e", "rental_uris": {"android": "https://dc.lft.to/lastmile_qr_scan", "ios": "https://dc.lft.to/lastmile_qr_scan"}, "name": "42b30b117e861d6c28292b438a9f885e"}, {"lat": 38.90426883333333, "is_reserved": 0, "lon": -76.9827885, "fusion_lon": 0.0, "fusion_lat": 0.0, "is_disabled": 0, "type": "electric_scooter", "bike_id": "58878d332a322a7e954194bf2ebcb3de", "rental_uris": {"android": "https://dc.lft.to/lastmile_qr_scan", "ios": "https://dc.lft.to/lastmile_qr_scan"}, "name": "58878d332a322a7e954194bf2ebcb3de"}, {"lat": 38.93374333333333, "is_reserved": 0, "lon": -77.03805, "fusion_lon": 0.0, "fusion_lat": 0.0, "is_disabled": 0, "type": "electric_bike", "bike_id": "f6f51a8ba223ebfa8066a65d3b52f664", "rental_uris": {"android": "https://dc.lft.to/lastmile_qr_scan", "ios": "https://dc.lft.to/lastmile_qr_scan"}, "name": "f6f51a8ba223ebfa8066a65d3b52f664"}, {"lat": 38.89460316666667, "is_reserved": 0, "lon": -77.00338516666666, "fusion_lon": 0.0, "fusion_lat": 0.0, "is_disabled": 0, "type": "electric_scooter", "bike_id": "fe0c6ef8d9483d464d4ba01034439c07", "rental_uris": {"android": "https://dc.lft.to/lastmile_qr_scan", "ios": "https://dc.lft.to/lastmile_qr_scan"}, "name": "fe0c6ef8d9483d464d4ba01034439c07"}, {"lat": 38.907256333333336, "is_reserved": 0, "lon": -77.02976716666667, "fusion_lon": 0.0, "fusion_lat": 0.0, "is_disabled": 0, "type": "electric_scooter", "bike_id": "0b9778cd8977c82084c8873c9953c068", "rental_uris": {"android": "https://dc.lft.to/lastmile_qr_scan", "ios": "https://dc.lft.to/lastmile_qr_scan"}, "name": "0b9778cd8977c82084c8873c9953c068"}, {"lat": 38.90971566666666, "is_reserved": 0, "lon": -77.04239983333333, "fusion_lon": 0.0, "fusion_lat": 0.0, "is_disabled": 0, "type": "electric_scooter", "bike_id": "05e64b6ac195e0ab13da94d4e2bbecf7", "rental_uris": {"android": "https://dc.lft.to/lastmile_qr_scan", "ios": "https://dc.lft.to/lastmile_qr_scan"}, "name": "05e64b6ac195e0ab13da94d4e2bbecf7"}, {"lat": 38.9141435, "is_reserved": 0, "lon": -77.0227675, "fusion_lon": 0.0, "fusion_lat": 0.0, "is_disabled": 0, "type": "electric_scooter", "bike_id": "acf3c2e8f492dbb07e2adf52d10fa508", "rental_uris": {"android": "https://dc.lft.to/lastmile_qr_scan", "ios": "https://dc.lft.to/lastmile_qr_scan"}, "name": "acf3c2e8f492dbb07e2adf52d10fa508"}, {"lat": 38.92038816666667, "is_reserved": 0, "lon": -77.04196916666666, "fusion_lon": 0.0, "fusion_lat": 0.0, "is_disabled": 0, "type": "electric_scooter", "bike_id": "a810c37093883848cac35b1c0bc2c002", "rental_uris": {"android": "https://dc.lft.to/lastmile_qr_scan", "ios": "https://dc.lft.to/lastmile_qr_scan"}, "name": "a810c37093883848cac35b1c0bc2c002"}, {"lat": 38.925189333333336, "is_reserved": 0, "lon": -77.0513125, "fusion_lon": 0.0, "fusion_lat": 0.0, "is_disabled": 0, "type": "electric_scooter", "bike_id": "534b9de650bf7e430ad767afc9e880ca", "rental_uris": {"android": "https://dc.lft.to/lastmile_qr_scan", "ios": "https://dc.lft.to/lastmile_qr_scan"}, "name": "534b9de650bf7e430ad767afc9e880ca"}, {"lat": 38.916359, "is_reserved": 0, "lon": -77.03186933333333, "fusion_lon": 0.0, "fusion_lat": 0.0, "is_disabled": 0, "type": "electric_scooter", "bike_id": "13fccfe3ab6885b1e11764bf3e0819a6", "rental_uris": {"android": "https://dc.lft.to/lastmile_qr_scan", "ios": "https://dc.lft.to/lastmile_qr_scan"}, "name": "13fccfe3ab6885b1e11764bf3e0819a6"}, {"lat": 38.92361116666667, "is_reserved": 0, "lon": -77.01941466666666, "fusion_lon": 0.0, "fusion_lat": 0.0, "is_disabled": 0, "type": "electric_scooter", "bike_id": "34a3343590540a493f297b1e98004966", "rental_uris": {"android": "https://dc.lft.to/lastmile_qr_scan", "ios": "https://dc.lft.to/lastmile_qr_scan"}, "name": "34a3343590540a493f297b1e98004966"}, {"lat": 38.8942345, "is_reserved": 0, "lon": -77.02099483333333, "fusion_lon": 0.0, "fusion_lat": 0.0, "is_disabled": 0, "type": "electric_scooter", "bike_id": "8bc676b1f20b4907067fc12e6de7ba38", "rental_uris": {"android": "https://dc.lft.to/lastmile_qr_scan", "ios": "https://dc.lft.to/lastmile_qr_scan"}, "name": "8bc676b1f20b4907067fc12e6de7ba38"}, {"lat": 38.942781833333335, "is_reserved": 0, "lon": -77.03281316666667, "fusion_lon": 0.0, "fusion_lat": 0.0, "is_disabled": 0, "type": "electric_scooter", "bike_id": "550f66a840bb2b38b94982f92fbfd50a", "rental_uris": {"android": "https://dc.lft.to/lastmile_qr_scan", "ios": "https://dc.lft.to/lastmile_qr_scan"}, "name": "550f66a840bb2b38b94982f92fbfd50a"}, {"lat": 38.897391166666665, "is_reserved": 0, "lon": -77.02456683333334, "fusion_lon": 0.0, "fusion_lat": 0.0, "is_disabled": 0, "type": "electric_scooter", "bike_id": "362a34e8bf38a40c5ee1b46b2792d79c", "rental_uris": {"android": "https://dc.lft.to/lastmile_qr_scan", "ios": "https://dc.lft.to/lastmile_qr_scan"}, "name": "362a34e8bf38a40c5ee1b46b2792d79c"}, {"lat": 38.9283705, "is_reserved": 0, "lon": -77.055077, "fusion_lon": 0.0, "fusion_lat": 0.0, "is_disabled": 0, "type": "electric_scooter", "bike_id": "8c0808fe39a54d730cda5de7f0d6b64d", "rental_uris": {"android": "https://dc.lft.to/lastmile_qr_scan", "ios": "https://dc.lft.to/lastmile_qr_scan"}, "name": "8c0808fe39a54d730cda5de7f0d6b64d"}, {"lat": 38.921279, "is_reserved": 0, "lon": -77.0321695, "fusion_lon": 0.0, "fusion_lat": 0.0, "is_disabled": 0, "type": "electric_scooter", "bike_id": "1624ba5a72af3762939dd6133e323ddd", "rental_uris": {"android": "https://dc.lft.to/lastmile_qr_scan", "ios": "https://dc.lft.to/lastmile_qr_scan"}, "name": "1624ba5a72af3762939dd6133e323ddd"}, {"lat": 38.95789716666667, "is_reserved": 0, "lon": -77.032233, "fusion_lon": 0.0, "fusion_lat": 0.0, "is_disabled": 0, "type": "electric_scooter", "bike_id": "de779d639cadc9f5b5966e58ce66a79e", "rental_uris": {"android": "https://dc.lft.to/lastmile_qr_scan", "ios": "https://dc.lft.to/lastmile_qr_scan"}, "name": "de779d639cadc9f5b5966e58ce66a79e"}, {"lat": 38.89869816666667, "is_reserved": 0, "lon": -76.94634733333334, "fusion_lon": 0.0, "fusion_lat": 0.0, "is_disabled": 0, "type": "electric_scooter", "bike_id": "9f19a93d2e351c6657d45e6ef97fafee", "rental_uris": {"android": "https://dc.lft.to/lastmile_qr_scan", "ios": "https://dc.lft.to/lastmile_qr_scan"}, "name": "9f19a93d2e351c6657d45e6ef97fafee"}, {"lat": 38.9245735, "is_reserved": 0, "lon": -77.0271585, "fusion_lon": 0.0, "fusion_lat": 0.0, "is_disabled": 0, "type": "electric_scooter", "bike_id": "8159fc6a4f5adb38ee12d8fb90e75a65", "rental_uris": {"android": "https://dc.lft.to/lastmile_qr_scan", "ios": "https://dc.lft.to/lastmile_qr_scan"}, "name": "8159fc6a4f5adb38ee12d8fb90e75a65"}, {"lat": 38.91743, "is_reserved": 0, "lon": -77.01714616666666, "fusion_lon": 0.0, "fusion_lat": 0.0, "is_disabled": 0, "type": "electric_scooter", "bike_id": "34dca687e0cb2bd7ba07f64685de67b8", "rental_uris": {"android": "https://dc.lft.to/lastmile_qr_scan", "ios": "https://dc.lft.to/lastmile_qr_scan"}, "name": "34dca687e0cb2bd7ba07f64685de67b8"}, {"lat": 38.90535233333333, "is_reserved": 0, "lon": -77.0324975, "fusion_lon": 0.0, "fusion_lat": 0.0, "is_disabled": 0, "type": "electric_scooter", "bike_id": "ce0540238afe5e8c560700624f1d4bb3", "rental_uris": {"android": "https://dc.lft.to/lastmile_qr_scan", "ios": "https://dc.lft.to/lastmile_qr_scan"}, "name": "ce0540238afe5e8c560700624f1d4bb3"}, {"lat": 38.8992775, "is_reserved": 0, "lon": -77.01631783333333, "fusion_lon": 0.0, "fusion_lat": 0.0, "is_disabled": 0, "type": "electric_scooter", "bike_id": "1e4417f09b724df70ec684cc30e50878", "rental_uris": {"android": "https://dc.lft.to/lastmile_qr_scan", "ios": "https://dc.lft.to/lastmile_qr_scan"}, "name": "1e4417f09b724df70ec684cc30e50878"}, {"lat": 38.97380416666667, "is_reserved": 0, "lon": -77.064741, "fusion_lon": 0.0, "fusion_lat": 0.0, "is_disabled": 0, "type": "electric_bike", "bike_id": "81bbd218b7098ac04f3d9e31605142a9", "rental_uris": {"android": "https://dc.lft.to/lastmile_qr_scan", "ios": "https://dc.lft.to/lastmile_qr_scan"}, "name": "81bbd218b7098ac04f3d9e31605142a9"}, {"lat": 38.873766833333335, "is_reserved": 0, "lon": -77.00068483333334, "fusion_lon": 0.0, "fusion_lat": 0.0, "is_disabled": 0, "type": "electric_scooter", "bike_id": "803ee40e0e7711ed839fb7193628b745", "rental_uris": {"android": "https://dc.lft.to/lastmile_qr_scan", "ios": "https://dc.lft.to/lastmile_qr_scan"}, "name": "803ee40e0e7711ed839fb7193628b745"}, {"lat": 38.91698016666667, "is_reserved": 0, "lon": -77.02890233333333, "fusion_lon": 0.0, "fusion_lat": 0.0, "is_disabled": 0, "type": "electric_scooter", "bike_id": "7de6f09f8fd04bcb11672b02cca18bc6", "rental_uris": {"android": "https://dc.lft.to/lastmile_qr_scan", "ios": "https://dc.lft.to/lastmile_qr_scan"}, "name": "7de6f09f8fd04bcb11672b02cca18bc6"}, {"lat": 38.92374816666667, "is_reserved": 0, "lon": -77.0517895, "fusion_lon": 0.0, "fusion_lat": 0.0, "is_disabled": 0, "type": "electric_scooter", "bike_id": "8849c755d68b9d6d961cadb8355927d8", "rental_uris": {"android": "https://dc.lft.to/lastmile_qr_scan", "ios": "https://dc.lft.to/lastmile_qr_scan"}, "name": "8849c755d68b9d6d961cadb8355927d8"}, {"lat": 38.901142166666666, "is_reserved": 0, "lon": -77.0280665, "fusion_lon": 0.0, "fusion_lat": 0.0, "is_disabled": 0, "type": "electric_scooter", "bike_id": "6603878c63c007a3c8bc88cee9b129df", "rental_uris": {"android": "https://dc.lft.to/lastmile_qr_scan", "ios": "https://dc.lft.to/lastmile_qr_scan"}, "name": "6603878c63c007a3c8bc88cee9b129df"}, {"lat": 38.91271016666666, "is_reserved": 0, "lon": -77.02388333333333, "fusion_lon": 0.0, "fusion_lat": 0.0, "is_disabled": 0, "type": "electric_scooter", "bike_id": "69b4c469903555ec601123dd9cf81a6d", "rental_uris": {"android": "https://dc.lft.to/lastmile_qr_scan", "ios": "https://dc.lft.to/lastmile_qr_scan"}, "name": "69b4c469903555ec601123dd9cf81a6d"}, {"lat": 38.86244333333333, "is_reserved": 0, "lon": -76.99506216666667, "fusion_lon": 0.0, "fusion_lat": 0.0, "is_disabled": 0, "type": "electric_scooter", "bike_id": "53ef05318d35661a9853453128b113df", "rental_uris": {"android": "https://dc.lft.to/lastmile_qr_scan", "ios": "https://dc.lft.to/lastmile_qr_scan"}, "name": "53ef05318d35661a9853453128b113df"}, {"lat": 38.885321833333336, "is_reserved": 0, "lon": -76.99827416666666, "fusion_lon": 0.0, "fusion_lat": 0.0, "is_disabled": 0, "type": "electric_scooter", "bike_id": "312ec0a3afecf8ced6c9870d117d9c2c", "rental_uris": {"android": "https://dc.lft.to/lastmile_qr_scan", "ios": "https://dc.lft.to/lastmile_qr_scan"}, "name": "312ec0a3afecf8ced6c9870d117d9c2c"}, {"lat": 38.900186166666664, "is_reserved": 0, "lon": -76.98674866666667, "fusion_lon": 0.0, "fusion_lat": 0.0, "is_disabled": 0, "type": "electric_bike", "bike_id": "e3d37a823ec8e6ea622a0fb9c383bd10", "rental_uris": {"android": "https://dc.lft.to/lastmile_qr_scan", "ios": "https://dc.lft.to/lastmile_qr_scan"}, "name": "e3d37a823ec8e6ea622a0fb9c383bd10"}, {"lat": 38.884415833333335, "is_reserved": 0, "lon": -77.024561, "fusion_lon": 0.0, "fusion_lat": 0.0, "is_disabled": 0, "type": "electric_scooter", "bike_id": "a68668e5495485047e57e691eaaefdea", "rental_uris": {"android": "https://dc.lft.to/lastmile_qr_scan", "ios": "https://dc.lft.to/lastmile_qr_scan"}, "name": "a68668e5495485047e57e691eaaefdea"}, {"lat": 38.912652333333334, "is_reserved": 0, "lon": -77.031464, "fusion_lon": 0.0, "fusion_lat": 0.0, "is_disabled": 0, "type": "electric_scooter", "bike_id": "1bd2a67ab1bc2c85d0366ee0d9861bf3", "rental_uris": {"android": "https://dc.lft.to/lastmile_qr_scan", "ios": "https://dc.lft.to/lastmile_qr_scan"}, "name": "1bd2a67ab1bc2c85d0366ee0d9861bf3"}, {"lat": 38.892725166666665, "is_reserved": 0, "lon": -77.0013095, "fusion_lon": 0.0, "fusion_lat": 0.0, "is_disabled": 0, "type": "electric_scooter", "bike_id": "1a62701370a94fcb7a089dfbdc33405a", "rental_uris": {"android": "https://dc.lft.to/lastmile_qr_scan", "ios": "https://dc.lft.to/lastmile_qr_scan"}, "name": "1a62701370a94fcb7a089dfbdc33405a"}, {"lat": 38.90178816666667, "is_reserved": 0, "lon": -77.01630533333334, "fusion_lon": 0.0, "fusion_lat": 0.0, "is_disabled": 0, "type": "electric_scooter", "bike_id": "381ba241a18cfb9f9be7947238d7c2af", "rental_uris": {"android": "https://dc.lft.to/lastmile_qr_scan", "ios": "https://dc.lft.to/lastmile_qr_scan"}, "name": "381ba241a18cfb9f9be7947238d7c2af"}, {"lat": 38.914114166666664, "is_reserved": 0, "lon": -77.01482833333333, "fusion_lon": 0.0, "fusion_lat": 0.0, "is_disabled": 0, "type": "electric_scooter", "bike_id": "6303fdbd35edf4a3f8ca5355f06330c3", "rental_uris": {"android": "https://dc.lft.to/lastmile_qr_scan", "ios": "https://dc.lft.to/lastmile_qr_scan"}, "name": "6303fdbd35edf4a3f8ca5355f06330c3"}, {"lat": 38.9155855, "is_reserved": 0, "lon": -77.037099, "fusion_lon": 0.0, "fusion_lat": 0.0, "is_disabled": 0, "type": "electric_scooter", "bike_id": "fac90b961299e8531859162ba59b1ddf", "rental_uris": {"android": "https://dc.lft.to/lastmile_qr_scan", "ios": "https://dc.lft.to/lastmile_qr_scan"}, "name": "fac90b961299e8531859162ba59b1ddf"}, {"lat": 38.9170305, "is_reserved": 0, "lon": -77.02309216666667, "fusion_lon": 0.0, "fusion_lat": 0.0, "is_disabled": 0, "type": "electric_scooter", "bike_id": "9ef19d34a653a7eb4928c15c2f568308", "rental_uris": {"android": "https://dc.lft.to/lastmile_qr_scan", "ios": "https://dc.lft.to/lastmile_qr_scan"}, "name": "9ef19d34a653a7eb4928c15c2f568308"}, {"lat": 38.919168166666665, "is_reserved": 0, "lon": -77.02515033333333, "fusion_lon": 0.0, "fusion_lat": 0.0, "is_disabled": 0, "type": "electric_scooter", "bike_id": "6aa0abe2cd9f8ea1d5ecfeee160c2992", "rental_uris": {"android": "https://dc.lft.to/lastmile_qr_scan", "ios": "https://dc.lft.to/lastmile_qr_scan"}, "name": "6aa0abe2cd9f8ea1d5ecfeee160c2992"}, {"lat": 38.90223683333333, "is_reserved": 0, "lon": -77.04548816666667, "fusion_lon": 0.0, "fusion_lat": 0.0, "is_disabled": 0, "type": "electric_scooter", "bike_id": "35a8ad5c8111d2ae24b5ee4642024557", "rental_uris": {"android": "https://dc.lft.to/lastmile_qr_scan", "ios": "https://dc.lft.to/lastmile_qr_scan"}, "name": "35a8ad5c8111d2ae24b5ee4642024557"}, {"lat": 38.902621, "is_reserved": 0, "lon": -77.03852783333333, "fusion_lon": 0.0, "fusion_lat": 0.0, "is_disabled": 0, "type": "electric_scooter", "bike_id": "d7796ef17509e4a5b12ddcfa12183eef", "rental_uris": {"android": "https://dc.lft.to/lastmile_qr_scan", "ios": "https://dc.lft.to/lastmile_qr_scan"}, "name": "d7796ef17509e4a5b12ddcfa12183eef"}, {"lat": 38.924792333333336, "is_reserved": 0, "lon": -77.03181983333333, "fusion_lon": 0.0, "fusion_lat": 0.0, "is_disabled": 0, "type": "electric_scooter", "bike_id": "d3593ce9f45b68b8ba5a7c7d929483b9", "rental_uris": {"android": "https://dc.lft.to/lastmile_qr_scan", "ios": "https://dc.lft.to/lastmile_qr_scan"}, "name": "d3593ce9f45b68b8ba5a7c7d929483b9"}, {"lat": 38.864298833333336, "is_reserved": 0, "lon": -76.98007283333334, "fusion_lon": 0.0, "fusion_lat": 0.0, "is_disabled": 0, "type": "electric_scooter", "bike_id": "3e05cb319bdc9abbcf67c9ca7be5c2d4", "rental_uris": {"android": "https://dc.lft.to/lastmile_qr_scan", "ios": "https://dc.lft.to/lastmile_qr_scan"}, "name": "3e05cb319bdc9abbcf67c9ca7be5c2d4"}, {"lat": 38.923569, "is_reserved": 0, "lon": -77.000496, "fusion_lon": 0.0, "fusion_lat": 0.0, "is_disabled": 0, "type": "electric_scooter", "bike_id": "ec8964bc293eb7af65c492bdb45e2f10", "rental_uris": {"android": "https://dc.lft.to/lastmile_qr_scan", "ios": "https://dc.lft.to/lastmile_qr_scan"}, "name": "ec8964bc293eb7af65c492bdb45e2f10"}, {"lat": 38.9000895, "is_reserved": 0, "lon": -77.0068265, "fusion_lon": 0.0, "fusion_lat": 0.0, "is_disabled": 0, "type": "electric_scooter", "bike_id": "7102e206e8e1117496dc1b8d52f85322", "rental_uris": {"android": "https://dc.lft.to/lastmile_qr_scan", "ios": "https://dc.lft.to/lastmile_qr_scan"}, "name": "7102e206e8e1117496dc1b8d52f85322"}, {"lat": 38.8748375, "is_reserved": 0, "lon": -76.99990566666666, "fusion_lon": 0.0, "fusion_lat": 0.0, "is_disabled": 0, "type": "electric_scooter", "bike_id": "d4c17ef2bbf1dc60786387fec5422b83", "rental_uris": {"android": "https://dc.lft.to/lastmile_qr_scan", "ios": "https://dc.lft.to/lastmile_qr_scan"}, "name": "d4c17ef2bbf1dc60786387fec5422b83"}, {"lat": 38.90840933333333, "is_reserved": 0, "lon": -77.012599, "fusion_lon": 0.0, "fusion_lat": 0.0, "is_disabled": 0, "type": "electric_scooter", "bike_id": "729b688c118940c5858faf4f01dcad7b", "rental_uris": {"android": "https://dc.lft.to/lastmile_qr_scan", "ios": "https://dc.lft.to/lastmile_qr_scan"}, "name": "729b688c118940c5858faf4f01dcad7b"}, {"lat": 38.953723833333335, "is_reserved": 0, "lon": -76.97970033333333, "fusion_lon": 0.0, "fusion_lat": 0.0, "is_disabled": 0, "type": "electric_bike", "bike_id": "a797f1453401d6a09acc0e643c920993", "rental_uris": {"android": "https://dc.lft.to/lastmile_qr_scan", "ios": "https://dc.lft.to/lastmile_qr_scan"}, "name": "a797f1453401d6a09acc0e643c920993"}, {"lat": 38.90157466666667, "is_reserved": 0, "lon": -76.97629883333333, "fusion_lon": 0.0, "fusion_lat": 0.0, "is_disabled": 0, "type": "electric_scooter", "bike_id": "5133e780b4cde218ab25e8b7e62f8b23", "rental_uris": {"android": "https://dc.lft.to/lastmile_qr_scan", "ios": "https://dc.lft.to/lastmile_qr_scan"}, "name": "5133e780b4cde218ab25e8b7e62f8b23"}, {"lat": 38.88024633333333, "is_reserved": 0, "lon": -77.02231533333334, "fusion_lon": 0.0, "fusion_lat": 0.0, "is_disabled": 0, "type": "electric_scooter", "bike_id": "d2fe5b607cf866f55bd670e0051d9ea1", "rental_uris": {"android": "https://dc.lft.to/lastmile_qr_scan", "ios": "https://dc.lft.to/lastmile_qr_scan"}, "name": "d2fe5b607cf866f55bd670e0051d9ea1"}, {"lat": 38.896030333333336, "is_reserved": 0, "lon": -76.98746716666666, "fusion_lon": 0.0, "fusion_lat": 0.0, "is_disabled": 0, "type": "electric_bike", "bike_id": "bd58adc1ff58b4c03b91358ea598a0c6", "rental_uris": {"android": "https://dc.lft.to/lastmile_qr_scan", "ios": "https://dc.lft.to/lastmile_qr_scan"}, "name": "bd58adc1ff58b4c03b91358ea598a0c6"}, {"lat": 38.908721, "is_reserved": 0, "lon": -77.04104283333334, "fusion_lon": 0.0, "fusion_lat": 0.0, "is_disabled": 0, "type": "electric_scooter", "bike_id": "1f5e8afdb20744f0e991db94e002dc2e", "rental_uris": {"android": "https://dc.lft.to/lastmile_qr_scan", "ios": "https://dc.lft.to/lastmile_qr_scan"}, "name": "1f5e8afdb20744f0e991db94e002dc2e"}, {"lat": 38.91493883333333, "is_reserved": 0, "lon": -77.03711916666667, "fusion_lon": 0.0, "fusion_lat": 0.0, "is_disabled": 0, "type": "electric_scooter", "bike_id": "34f063aa311234111aa989d98c970f99", "rental_uris": {"android": "https://dc.lft.to/lastmile_qr_scan", "ios": "https://dc.lft.to/lastmile_qr_scan"}, "name": "34f063aa311234111aa989d98c970f99"}, {"lat": 38.813325666666664, "is_reserved": 0, "lon": -77.05118816666666, "fusion_lon": 0.0, "fusion_lat": 0.0, "is_disabled": 0, "type": "electric_bike", "bike_id": "66316b9f8aa453081aefa484ab61aa64", "rental_uris": {"android": "https://dc.lft.to/lastmile_qr_scan", "ios": "https://dc.lft.to/lastmile_qr_scan"}, "name": "66316b9f8aa453081aefa484ab61aa64"}, {"lat": 38.898196666666664, "is_reserved": 0, "lon": -77.0449695, "fusion_lon": 0.0, "fusion_lat": 0.0, "is_disabled": 0, "type": "electric_scooter", "bike_id": "e8c3a44cf72871cad0a6edfd8ac6baa4", "rental_uris": {"android": "https://dc.lft.to/lastmile_qr_scan", "ios": "https://dc.lft.to/lastmile_qr_scan"}, "name": "e8c3a44cf72871cad0a6edfd8ac6baa4"}, {"lat": 38.87296683333334, "is_reserved": 0, "lon": -76.96905133333334, "fusion_lon": 0.0, "fusion_lat": 0.0, "is_disabled": 0, "type": "electric_scooter", "bike_id": "76a33625c8fb8aa38cbcacd7bb0c6f28", "rental_uris": {"android": "https://dc.lft.to/lastmile_qr_scan", "ios": "https://dc.lft.to/lastmile_qr_scan"}, "name": "76a33625c8fb8aa38cbcacd7bb0c6f28"}, {"lat": 38.88467716666667, "is_reserved": 0, "lon": -77.03218983333333, "fusion_lon": 0.0, "fusion_lat": 0.0, "is_disabled": 0, "type": "electric_scooter", "bike_id": "d7719c525b474dbd267ee28f7e0c79c2", "rental_uris": {"android": "https://dc.lft.to/lastmile_qr_scan", "ios": "https://dc.lft.to/lastmile_qr_scan"}, "name": "d7719c525b474dbd267ee28f7e0c79c2"}, {"lat": 38.875021833333335, "is_reserved": 0, "lon": -77.00937883333333, "fusion_lon": 0.0, "fusion_lat": 0.0, "is_disabled": 0, "type": "electric_scooter", "bike_id": "fe9de1efb46069a71279220326a7204c", "rental_uris": {"android": "https://dc.lft.to/lastmile_qr_scan", "ios": "https://dc.lft.to/lastmile_qr_scan"}, "name": "fe9de1efb46069a71279220326a7204c"}, {"lat": 38.89512166666667, "is_reserved": 0, "lon": -77.02299416666666, "fusion_lon": 0.0, "fusion_lat": 0.0, "is_disabled": 0, "type": "electric_scooter", "bike_id": "5acc7e2e576b5da73c049c603bf6699c", "rental_uris": {"android": "https://dc.lft.to/lastmile_qr_scan", "ios": "https://dc.lft.to/lastmile_qr_scan"}, "name": "5acc7e2e576b5da73c049c603bf6699c"}, {"lat": 38.928223833333334, "is_reserved": 0, "lon": -77.02260616666666, "fusion_lon": 0.0, "fusion_lat": 0.0, "is_disabled": 0, "type": "electric_scooter", "bike_id": "7d8fed2351ff64c0a8ecaf4a8f87d1b0", "rental_uris": {"android": "https://dc.lft.to/lastmile_qr_scan", "ios": "https://dc.lft.to/lastmile_qr_scan"}, "name": "7d8fed2351ff64c0a8ecaf4a8f87d1b0"}, {"lat": 38.877182166666664, "is_reserved": 0, "lon": -77.01757116666667, "fusion_lon": 0.0, "fusion_lat": 0.0, "is_disabled": 0, "type": "electric_scooter", "bike_id": "f8fed846d0ea748e10d7de73027b0de6", "rental_uris": {"android": "https://dc.lft.to/lastmile_qr_scan", "ios": "https://dc.lft.to/lastmile_qr_scan"}, "name": "f8fed846d0ea748e10d7de73027b0de6"}, {"lat": 38.9285175, "is_reserved": 0, "lon": -77.03284183333334, "fusion_lon": 0.0, "fusion_lat": 0.0, "is_disabled": 0, "type": "electric_scooter", "bike_id": "7cd09e64c05af04aeea59f4cd749c2d0", "rental_uris": {"android": "https://dc.lft.to/lastmile_qr_scan", "ios": "https://dc.lft.to/lastmile_qr_scan"}, "name": "7cd09e64c05af04aeea59f4cd749c2d0"}, {"lat": 38.920402833333334, "is_reserved": 0, "lon": -77.04200416666667, "fusion_lon": 0.0, "fusion_lat": 0.0, "is_disabled": 0, "type": "electric_scooter", "bike_id": "a0c9da98ed96b03cfaabc1a84b937c18", "rental_uris": {"android": "https://dc.lft.to/lastmile_qr_scan", "ios": "https://dc.lft.to/lastmile_qr_scan"}, "name": "a0c9da98ed96b03cfaabc1a84b937c18"}, {"lat": 38.905206166666666, "is_reserved": 0, "lon": -77.06155983333333, "fusion_lon": 0.0, "fusion_lat": 0.0, "is_disabled": 0, "type": "electric_scooter", "bike_id": "7a050ce4605121d1d0839e021f6f8ae6", "rental_uris": {"android": "https://dc.lft.to/lastmile_qr_scan", "ios": "https://dc.lft.to/lastmile_qr_scan"}, "name": "7a050ce4605121d1d0839e021f6f8ae6"}, {"lat": 38.921259, "is_reserved": 0, "lon": -77.031847, "fusion_lon": 0.0, "fusion_lat": 0.0, "is_disabled": 0, "type": "electric_scooter", "bike_id": "b6a1e8c39a87890c101bea49e682399d", "rental_uris": {"android": "https://dc.lft.to/lastmile_qr_scan", "ios": "https://dc.lft.to/lastmile_qr_scan"}, "name": "b6a1e8c39a87890c101bea49e682399d"}, {"lat": 38.90969116666667, "is_reserved": 0, "lon": -77.011067, "fusion_lon": 0.0, "fusion_lat": 0.0, "is_disabled": 0, "type": "electric_scooter", "bike_id": "d9c57670f2d390f10e8f4c87e444bc53", "rental_uris": {"android": "https://dc.lft.to/lastmile_qr_scan", "ios": "https://dc.lft.to/lastmile_qr_scan"}, "name": "d9c57670f2d390f10e8f4c87e444bc53"}, {"lat": 38.8983505, "is_reserved": 0, "lon": -77.04983933333334, "fusion_lon": 0.0, "fusion_lat": 0.0, "is_disabled": 0, "type": "electric_scooter", "bike_id": "93e69357b025b06ef380a9861d756e3b", "rental_uris": {"android": "https://dc.lft.to/lastmile_qr_scan", "ios": "https://dc.lft.to/lastmile_qr_scan"}, "name": "93e69357b025b06ef380a9861d756e3b"}, {"lat": 38.89962416666667, "is_reserved": 0, "lon": -77.044801, "fusion_lon": 0.0, "fusion_lat": 0.0, "is_disabled": 0, "type": "electric_scooter", "bike_id": "327a97405ba634abd2f6b14d5c3988a9", "rental_uris": {"android": "https://dc.lft.to/lastmile_qr_scan", "ios": "https://dc.lft.to/lastmile_qr_scan"}, "name": "327a97405ba634abd2f6b14d5c3988a9"}, {"lat": 38.9170775, "is_reserved": 0, "lon": -77.02309516666666, "fusion_lon": 0.0, "fusion_lat": 0.0, "is_disabled": 0, "type": "electric_scooter", "bike_id": "d323f14061f1f6fc42461b22e583d5bd", "rental_uris": {"android": "https://dc.lft.to/lastmile_qr_scan", "ios": "https://dc.lft.to/lastmile_qr_scan"}, "name": "d323f14061f1f6fc42461b22e583d5bd"}, {"lat": 38.924068166666665, "is_reserved": 0, "lon": -77.03643933333333, "fusion_lon": 0.0, "fusion_lat": 0.0, "is_disabled": 0, "type": "electric_scooter", "bike_id": "d360843aa514e8e834948aa6e3dc2174", "rental_uris": {"android": "https://dc.lft.to/lastmile_qr_scan", "ios": "https://dc.lft.to/lastmile_qr_scan"}, "name": "d360843aa514e8e834948aa6e3dc2174"}, {"lat": 38.91908166666666, "is_reserved": 0, "lon": -77.02560066666666, "fusion_lon": 0.0, "fusion_lat": 0.0, "is_disabled": 0, "type": "electric_scooter", "bike_id": "ab0314fbcfcced459c8141fc5ebc9d58", "rental_uris": {"android": "https://dc.lft.to/lastmile_qr_scan", "ios": "https://dc.lft.to/lastmile_qr_scan"}, "name": "ab0314fbcfcced459c8141fc5ebc9d58"}, {"lat": 38.91104416666667, "is_reserved": 0, "lon": -77.00213033333333, "fusion_lon": 0.0, "fusion_lat": 0.0, "is_disabled": 0, "type": "electric_scooter", "bike_id": "d95523a570e7467d5d78c653d19de781", "rental_uris": {"android": "https://dc.lft.to/lastmile_qr_scan", "ios": "https://dc.lft.to/lastmile_qr_scan"}, "name": "d95523a570e7467d5d78c653d19de781"}, {"lat": 38.88579083333333, "is_reserved": 0, "lon": -77.01554216666666, "fusion_lon": 0.0, "fusion_lat": 0.0, "is_disabled": 0, "type": "electric_scooter", "bike_id": "92d46c1167ca403c6b0e29757458014b", "rental_uris": {"android": "https://dc.lft.to/lastmile_qr_scan", "ios": "https://dc.lft.to/lastmile_qr_scan"}, "name": "92d46c1167ca403c6b0e29757458014b"}, {"lat": 38.87479033333334, "is_reserved": 0, "lon": -77.00238566666667, "fusion_lon": 0.0, "fusion_lat": 0.0, "is_disabled": 0, "type": "electric_scooter", "bike_id": "b7afc04ceff589b7db0a6258bda9a92e", "rental_uris": {"android": "https://dc.lft.to/lastmile_qr_scan", "ios": "https://dc.lft.to/lastmile_qr_scan"}, "name": "b7afc04ceff589b7db0a6258bda9a92e"}, {"lat": 38.899684, "is_reserved": 0, "lon": -76.98374933333334, "fusion_lon": 0.0, "fusion_lat": 0.0, "is_disabled": 0, "type": "electric_scooter", "bike_id": "2af6debd13607bb50dd6450edde93072", "rental_uris": {"android": "https://dc.lft.to/lastmile_qr_scan", "ios": "https://dc.lft.to/lastmile_qr_scan"}, "name": "2af6debd13607bb50dd6450edde93072"}, {"lat": 38.92044416666667, "is_reserved": 0, "lon": -77.03390666666667, "fusion_lon": 0.0, "fusion_lat": 0.0, "is_disabled": 0, "type": "electric_scooter", "bike_id": "7ee87e13ca1fe999e4be847c80f3e8d3", "rental_uris": {"android": "https://dc.lft.to/lastmile_qr_scan", "ios": "https://dc.lft.to/lastmile_qr_scan"}, "name": "7ee87e13ca1fe999e4be847c80f3e8d3"}, {"lat": 38.899222, "is_reserved": 0, "lon": -76.93373233333334, "fusion_lon": 0.0, "fusion_lat": 0.0, "is_disabled": 0, "type": "electric_scooter", "bike_id": "bce1a5473f600ddc13af19b8de09a009", "rental_uris": {"android": "https://dc.lft.to/lastmile_qr_scan", "ios": "https://dc.lft.to/lastmile_qr_scan"}, "name": "bce1a5473f600ddc13af19b8de09a009"}, {"lat": 38.931749333333336, "is_reserved": 0, "lon": -77.04295016666667, "fusion_lon": 0.0, "fusion_lat": 0.0, "is_disabled": 0, "type": "electric_scooter", "bike_id": "f1b84578b0419362f008389073d6e19d", "rental_uris": {"android": "https://dc.lft.to/lastmile_qr_scan", "ios": "https://dc.lft.to/lastmile_qr_scan"}, "name": "f1b84578b0419362f008389073d6e19d"}, {"lat": 38.905811, "is_reserved": 0, "lon": -77.04191183333333, "fusion_lon": 0.0, "fusion_lat": 0.0, "is_disabled": 0, "type": "electric_scooter", "bike_id": "ea24c87087759ff25d31ffcc70de963a", "rental_uris": {"android": "https://dc.lft.to/lastmile_qr_scan", "ios": "https://dc.lft.to/lastmile_qr_scan"}, "name": "ea24c87087759ff25d31ffcc70de963a"}, {"lat": 38.844671, "is_reserved": 0, "lon": -77.00181433333333, "fusion_lon": 0.0, "fusion_lat": 0.0, "is_disabled": 0, "type": "electric_bike", "bike_id": "487231bf22940c8b854a2e3b9753efe5", "rental_uris": {"android": "https://dc.lft.to/lastmile_qr_scan", "ios": "https://dc.lft.to/lastmile_qr_scan"}, "name": "487231bf22940c8b854a2e3b9753efe5"}, {"lat": 38.87358283333333, "is_reserved": 0, "lon": -76.97029533333334, "fusion_lon": 0.0, "fusion_lat": 0.0, "is_disabled": 0, "type": "electric_scooter", "bike_id": "9f4e3601a233ccf2bf6959301974c1d2", "rental_uris": {"android": "https://dc.lft.to/lastmile_qr_scan", "ios": "https://dc.lft.to/lastmile_qr_scan"}, "name": "9f4e3601a233ccf2bf6959301974c1d2"}, {"lat": 38.918122833333335, "is_reserved": 0, "lon": -77.02720216666667, "fusion_lon": 0.0, "fusion_lat": 0.0, "is_disabled": 0, "type": "electric_scooter", "bike_id": "49425faeeaee0d571829c7650d07f089", "rental_uris": {"android": "https://dc.lft.to/lastmile_qr_scan", "ios": "https://dc.lft.to/lastmile_qr_scan"}, "name": "49425faeeaee0d571829c7650d07f089"}, {"lat": 38.9156925, "is_reserved": 0, "lon": -77.015909, "fusion_lon": 0.0, "fusion_lat": 0.0, "is_disabled": 0, "type": "electric_scooter", "bike_id": "b7ff1b5ee593849fb0c6d0cb57f7bf53", "rental_uris": {"android": "https://dc.lft.to/lastmile_qr_scan", "ios": "https://dc.lft.to/lastmile_qr_scan"}, "name": "b7ff1b5ee593849fb0c6d0cb57f7bf53"}, {"lat": 38.921354666666666, "is_reserved": 0, "lon": -77.01809816666666, "fusion_lon": 0.0, "fusion_lat": 0.0, "is_disabled": 0, "type": "electric_scooter", "bike_id": "1a5a3d0fba2a36a1870fa077851631a4", "rental_uris": {"android": "https://dc.lft.to/lastmile_qr_scan", "ios": "https://dc.lft.to/lastmile_qr_scan"}, "name": "1a5a3d0fba2a36a1870fa077851631a4"}, {"lat": 38.93308833333333, "is_reserved": 0, "lon": -77.02913533333333, "fusion_lon": 0.0, "fusion_lat": 0.0, "is_disabled": 0, "type": "electric_scooter", "bike_id": "fe04452d492c9f44d48ece554483c9f1", "rental_uris": {"android": "https://dc.lft.to/lastmile_qr_scan", "ios": "https://dc.lft.to/lastmile_qr_scan"}, "name": "fe04452d492c9f44d48ece554483c9f1"}, {"lat": 38.887108833333336, "is_reserved": 0, "lon": -77.017768, "fusion_lon": 0.0, "fusion_lat": 0.0, "is_disabled": 0, "type": "electric_scooter", "bike_id": "b6b67f1901693906f2e77966c34a37a7", "rental_uris": {"android": "https://dc.lft.to/lastmile_qr_scan", "ios": "https://dc.lft.to/lastmile_qr_scan"}, "name": "b6b67f1901693906f2e77966c34a37a7"}, {"lat": 38.88739066666667, "is_reserved": 0, "lon": -77.01532016666667, "fusion_lon": 0.0, "fusion_lat": 0.0, "is_disabled": 0, "type": "electric_scooter", "bike_id": "d046b77fac5af8ba82da571f7fd7eefb", "rental_uris": {"android": "https://dc.lft.to/lastmile_qr_scan", "ios": "https://dc.lft.to/lastmile_qr_scan"}, "name": "d046b77fac5af8ba82da571f7fd7eefb"}, {"lat": 38.903921833333335, "is_reserved": 0, "lon": -76.98945683333334, "fusion_lon": 0.0, "fusion_lat": 0.0, "is_disabled": 0, "type": "electric_scooter", "bike_id": "4a93d8b119a732b00e15fef225d65aaf", "rental_uris": {"android": "https://dc.lft.to/lastmile_qr_scan", "ios": "https://dc.lft.to/lastmile_qr_scan"}, "name": "4a93d8b119a732b00e15fef225d65aaf"}, {"lat": 38.90464466666667, "is_reserved": 0, "lon": -77.01951316666667, "fusion_lon": 0.0, "fusion_lat": 0.0, "is_disabled": 0, "type": "electric_scooter", "bike_id": "cfbb82b5296f8fe344f3673596e8efe1", "rental_uris": {"android": "https://dc.lft.to/lastmile_qr_scan", "ios": "https://dc.lft.to/lastmile_qr_scan"}, "name": "cfbb82b5296f8fe344f3673596e8efe1"}, {"lat": 38.91420933333333, "is_reserved": 0, "lon": -77.01989283333333, "fusion_lon": 0.0, "fusion_lat": 0.0, "is_disabled": 0, "type": "electric_scooter", "bike_id": "f5f98be48b5c0dd9a0fee332e285d13a", "rental_uris": {"android": "https://dc.lft.to/lastmile_qr_scan", "ios": "https://dc.lft.to/lastmile_qr_scan"}, "name": "f5f98be48b5c0dd9a0fee332e285d13a"}, {"lat": 38.9305665, "is_reserved": 0, "lon": -77.03635766666666, "fusion_lon": 0.0, "fusion_lat": 0.0, "is_disabled": 0, "type": "electric_scooter", "bike_id": "ebbb09b410cc92fee6a8c3d6f5f2ad2c", "rental_uris": {"android": "https://dc.lft.to/lastmile_qr_scan", "ios": "https://dc.lft.to/lastmile_qr_scan"}, "name": "ebbb09b410cc92fee6a8c3d6f5f2ad2c"}, {"lat": 38.8802845, "is_reserved": 0, "lon": -77.01982183333334, "fusion_lon": 0.0, "fusion_lat": 0.0, "is_disabled": 0, "type": "electric_scooter", "bike_id": "ea3e7237ee20476811920dc441282f7e", "rental_uris": {"android": "https://dc.lft.to/lastmile_qr_scan", "ios": "https://dc.lft.to/lastmile_qr_scan"}, "name": "ea3e7237ee20476811920dc441282f7e"}, {"lat": 38.88727683333333, "is_reserved": 0, "lon": -77.0017295, "fusion_lon": 0.0, "fusion_lat": 0.0, "is_disabled": 0, "type": "electric_scooter", "bike_id": "25f53a26eb20170bad976f3435df9c51", "rental_uris": {"android": "https://dc.lft.to/lastmile_qr_scan", "ios": "https://dc.lft.to/lastmile_qr_scan"}, "name": "25f53a26eb20170bad976f3435df9c51"}, {"lat": 38.9210865, "is_reserved": 0, "lon": -77.01806116666667, "fusion_lon": 0.0, "fusion_lat": 0.0, "is_disabled": 0, "type": "electric_scooter", "bike_id": "f14913d7572a835a51049b757209556e", "rental_uris": {"android": "https://dc.lft.to/lastmile_qr_scan", "ios": "https://dc.lft.to/lastmile_qr_scan"}, "name": "f14913d7572a835a51049b757209556e"}, {"lat": 38.914118333333334, "is_reserved": 0, "lon": -77.02114733333333, "fusion_lon": 0.0, "fusion_lat": 0.0, "is_disabled": 0, "type": "electric_scooter", "bike_id": "d50304013044997273656b2d180879a4", "rental_uris": {"android": "https://dc.lft.to/lastmile_qr_scan", "ios": "https://dc.lft.to/lastmile_qr_scan"}, "name": "d50304013044997273656b2d180879a4"}, {"lat": 38.8636985, "is_reserved": 0, "lon": -76.99060466666667, "fusion_lon": 0.0, "fusion_lat": 0.0, "is_disabled": 0, "type": "electric_scooter", "bike_id": "5335cb43132186334247a239b7722271", "rental_uris": {"android": "https://dc.lft.to/lastmile_qr_scan", "ios": "https://dc.lft.to/lastmile_qr_scan"}, "name": "5335cb43132186334247a239b7722271"}, {"lat": 38.903105, "is_reserved": 0, "lon": -77.04879216666667, "fusion_lon": 0.0, "fusion_lat": 0.0, "is_disabled": 0, "type": "electric_scooter", "bike_id": "6a17fbf595eb85d53611771a1f41ed85", "rental_uris": {"android": "https://dc.lft.to/lastmile_qr_scan", "ios": "https://dc.lft.to/lastmile_qr_scan"}, "name": "6a17fbf595eb85d53611771a1f41ed85"}, {"lat": 38.9673395, "is_reserved": 0, "lon": -76.9604885, "fusion_lon": 0.0, "fusion_lat": 0.0, "is_disabled": 0, "type": "electric_bike", "bike_id": "ebe6371439262b3c891f1bf4972efb89", "rental_uris": {"android": "https://dc.lft.to/lastmile_qr_scan", "ios": "https://dc.lft.to/lastmile_qr_scan"}, "name": "ebe6371439262b3c891f1bf4972efb89"}, {"lat": 38.923303, "is_reserved": 0, "lon": -77.0536155, "fusion_lon": 0.0, "fusion_lat": 0.0, "is_disabled": 0, "type": "electric_bike", "bike_id": "b062f163a7f74b3c1657be6c879167a7", "rental_uris": {"android": "https://dc.lft.to/lastmile_qr_scan", "ios": "https://dc.lft.to/lastmile_qr_scan"}, "name": "b062f163a7f74b3c1657be6c879167a7"}, {"lat": 38.934280333333334, "is_reserved": 0, "lon": -77.0400095, "fusion_lon": 0.0, "fusion_lat": 0.0, "is_disabled": 0, "type": "electric_scooter", "bike_id": "649ab4342de0f3ffdee9699e534406b3", "rental_uris": {"android": "https://dc.lft.to/lastmile_qr_scan", "ios": "https://dc.lft.to/lastmile_qr_scan"}, "name": "649ab4342de0f3ffdee9699e534406b3"}, {"lat": 38.9024515, "is_reserved": 0, "lon": -77.02477566666667, "fusion_lon": 0.0, "fusion_lat": 0.0, "is_disabled": 0, "type": "electric_scooter", "bike_id": "53faac0d700e6bbf43fd401b20fd5228", "rental_uris": {"android": "https://dc.lft.to/lastmile_qr_scan", "ios": "https://dc.lft.to/lastmile_qr_scan"}, "name": "53faac0d700e6bbf43fd401b20fd5228"},