{"data": {"bikes": [{"fusion_lon": 0.0, "name": "1436d0a2656a15fbcba4824b74e89c91", "rental_uris": {"android": "https://dc.lft.to/lastmile_qr_scan", "ios": "https://dc.lft.to/lastmile_qr_scan"}, "lat": 38.950583333333334, "bike_id": "1436d0a2656a15fbcba4824b74e89c91", "is_disabled": 0, "lon": -77.066377, "is_reserved": 0, "fusion_lat": 0.0, "type": "electric_bike"}, {"fusion_lon": 0.0, "name": "02004aece9d4c2c0e6d12ae02952452e", "rental_uris": {"android": "https://dc.lft.to/lastmile_qr_scan", "ios": "https://dc.lft.to/lastmile_qr_scan"}, "lat": 38.91477183333333, "bike_id": "02004aece9d4c2c0e6d12ae02952452e", "is_disabled": 0, "lon": -77.02188483333333, "is_reserved": 0, "fusion_lat": 0.0, "type": "electric_scooter"}, {"fusion_lon": 0.0, "name": "d31dcbef6bde20d230bd91a9ab8ea925", "rental_uris": {"android": "https://dc.lft.to/lastmile_qr_scan", "ios": "https://dc.lft.to/lastmile_qr_scan"}, "lat": 38.910187666666666, "bike_id": "d31dcbef6bde20d230bd91a9ab8ea925", "is_disabled": 0, "lon": -77.03864033333333, "is_reserved": 0, "fusion_lat": 0.0, "type": "electric_scooter"}, {"fusion_lon": 0.0, "name": "a20a279ef510b2c41f29269df84925b0", "rental_uris": {"android": "https://dc.lft.to/lastmile_qr_scan", "ios": "https://dc.lft.to/lastmile_qr_scan"}, "lat": 38.92373, "bike_id": "a20a279ef510b2c41f29269df84925b0", "is_disabled": 0, "lon": -77.0190485, "is_reserved": 0, "fusion_lat": 0.0, "type": "electric_scooter"}, {"fusion_lon": 0.0, "name": "73a52e7ed382b8964efddc9bc60fd6d4", "rental_uris": {"android": "https://dc.lft.to/lastmile_qr_scan", "ios": "https://dc.lft.to/lastmile_qr_scan"}, "lat": 38.90347716666667, "bike_id": "73a52e7ed382b8964efddc9bc60fd6d4", "is_disabled": 0, "lon": -77.06198133333334, "is_reserved": 0, "fusion_lat": 0.0, "type": "electric_scooter"}, {"fusion_lon": 0.0, "name": "cf1f9fa7e8b160b9afff7a0b6bfb71c1", "rental_uris": {"android": "https://dc.lft.to/lastmile_qr_scan", "ios": "https://dc.lft.to/lastmile_qr_scan"}, "lat": 38.936822666666664, "bike_id": "cf1f9fa7e8b160b9afff7a0b6bfb71c1", "is_disabled": 0, "lon": -77.01944216666666, "is_reserved": 0, "fusion_lat": 0.0, "type": "electric_scooter"}, {"fusion_lon": 0.0, "name": "85428848696e89e5d2caa9634edd2caf", "rental_uris": {"android": "https://dc.lft.to/lastmile_qr_scan", "ios": "https://dc.lft.to/lastmile_qr_scan"}, "lat": 38.908806, "bike_id": "85428848696e89e5d2caa9634edd2caf", "is_disabled": 0, "lon": -77.043291, "is_reserved": 0, "fusion_lat": 0.0, "type": "electric_scooter"}, {"fusion_lon": 0.0, "name": "232f361603e8495f7b033620b58ea4af", "rental_uris": {"android": "https://dc.lft.to/lastmile_qr_scan", "ios": "https://dc.lft.to/lastmile_qr_scan"}, "lat": 38.91408766666667, "bike_id": "232f361603e8495f7b033620b58ea4af", "is_disabled": 0, "lon": -77.01841316666666, "is_reserved": 0, "fusion_lat": 0.0, "type": "electric_scooter"}, {"fusion_lon": 0.0, "name": "d1f539b552ddd3916c1a5bb881ec2bc7", "rental_uris": {"android": "https://dc.lft.to/lastmile_qr_scan", "ios": "https://dc.lft.to/lastmile_qr_scan"}, "lat": 38.896970833333334, "bike_id": "d1f539b552ddd3916c1a5bb881ec2bc7", "is_disabled": 0, "lon": -77.04341033333333, "is_reserved": 0, "fusion_lat": 0.0, "type": "electric_scooter"}, {"fusion_lon": 0.0, "name": "5f42dde39849214a2db5c3bdb43187d5", "rental_uris": {"android": "https://dc.lft.to/lastmile_qr_scan", "ios": "https://dc.lft.to/lastmile_qr_scan"}, "lat": 38.93507666666667, "bike_id": "5f42dde39849214a2db5c3bdb43187d5", "is_disabled": 0, "lon": -77.03721833333333, "is_reserved": 0, "fusion_lat": 0.0, "type": "electric_scooter"}, {"fusion_lon": 0.0, "name": "d386d92261c67b72a1121aaa562c5ca4", "rental_uris": {"android": "https://dc.lft.to/lastmile_qr_scan", "ios": "https://dc.lft.to/lastmile_qr_scan"}, "lat": 38.91127866666667, "bike_id": "d386d92261c67b72a1121aaa562c5ca4", "is_disabled": 0, "lon": -77.0219915, "is_reserved": 0, "fusion_lat": 0.0, "type": "electric_scooter"}, {"fusion_lon": 0.0, "name": "65e7329d33ceba351f1033a8c4152213", "rental_uris": {"android": "https://dc.lft.to/lastmile_qr_scan", "ios": "https://dc.lft.to/lastmile_qr_scan"}, "lat": 38.9266105, "bike_id": "65e7329d33ceba351f1033a8c4152213", "is_disabled": 0, "lon": -77.0408605, "is_reserved": 0, "fusion_lat": 0.0, "type": "electric_scooter"}, {"fusion_lon": 0.0, "name": "6fa8131661dacb31675f544885d71afa", "rental_uris": {"android": "https://dc.lft.to/lastmile_qr_scan", "ios": "https://dc.lft.to/lastmile_qr_scan"}, "lat": 38.9245005, "bike_id": "6fa8131661dacb31675f544885d71afa", "is_disabled": 0, "lon": -77.03969833333333, "is_reserved": 0, "fusion_lat": 0.0, "type": "electric_scooter"}, {"fusion_lon": 0.0, "name": "c7648226916de4c9fb9fcecb15b2e7d5", "rental_uris": {"android": "https://dc.lft.to/lastmile_qr_scan", "ios": "https://dc.lft.to/lastmile_qr_scan"}, "lat": 38.89402183333333, "bike_id": "c7648226916de4c9fb9fcecb15b2e7d5", "is_disabled": 0, "lon": -76.86846616666666, "is_reserved": 0, "fusion_lat": 0.0, "type": "electric_bike"}, {"fusion_lon": 0.0, "name": "926aac07ccf7874448e44f04773362dd", "rental_uris": {"android": "https://dc.lft.to/lastmile_qr_scan", "ios": "https://dc.lft.to/lastmile_qr_scan"}, "lat": 38.927984333333335, "bike_id": "926aac07ccf7874448e44f04773362dd", "is_disabled": 0, "lon": -77.05528016666666, "is_reserved": 0, "fusion_lat": 0.0, "type": "electric_scooter"}, {"fusion_lon": 0.0, "name": "34c21e9ac6627ec0a2ce81d80cbc287f", "rental_uris": {"android": "https://dc.lft.to/lastmile_qr_scan", "ios": "https://dc.lft.to/lastmile_qr_scan"}, "lat": 38.876712, "bike_id": "34c21e9ac6627ec0a2ce81d80cbc287f", "is_disabled": 0, "lon": -77.01995316666667, "is_reserved": 0, "fusion_lat": 0.0, "type": "electric_scooter"}, {"fusion_lon": 0.0, "name": "87aae496ead548faab5e2f96817a49e3", "rental_uris": {"android": "https://dc.lft.to/lastmile_qr_scan", "ios": "https://dc.lft.to/lastmile_qr_scan"}, "lat": 38.921278666666666, "bike_id": "87aae496ead548faab5e2f96817a49e3", "is_disabled": 0, "lon": -77.02096716666667, "is_reserved": 0, "fusion_lat": 0.0, "type": "electric_scooter"}, {"fusion_lon": 0.0, "name": "170a863ad8f113156e88e8624d5246b2", "rental_uris": {"android": "https://dc.lft.to/lastmile_qr_scan", "ios": "https://dc.lft.to/lastmile_qr_scan"}, "lat": 38.920606666666664, "bike_id": "170a863ad8f113156e88e8624d5246b2", "is_disabled": 0, "lon": -77.0231325, "is_reserved": 0, "fusion_lat": 0.0, "type": "electric_scooter"}, {"fusion_lon": 0.0, "name": "5caccec932b657c2187fb98deefbca62", "rental_uris": {"android": "https://dc.lft.to/lastmile_qr_scan", "ios": "https://dc.lft.to/lastmile_qr_scan"}, "lat": 38.90769233333333, "bike_id": "5caccec932b657c2187fb98deefbca62", "is_disabled": 0, "lon": -77.024581, "is_reserved": 0, "fusion_lat": 0.0, "type": "electric_scooter"}, {"fusion_lon": 0.0, "name": "2f4d8f7e41852db00b3d3cfc3453bb27", "rental_uris": {"android": "https://dc.lft.to/lastmile_qr_scan", "ios": "https://dc.lft.to/lastmile_qr_scan"}, "lat": 38.91017316666667, "bike_id": "2f4d8f7e41852db00b3d3cfc3453bb27", "is_disabled": 0, "lon": -77.03195616666666, "is_reserved": 0, "fusion_lat": 0.0, "type": "electric_scooter"}, {"fusion_lon": 0.0, "name": "f2059e2ef1292cb5e8d45b9a4c9e2cc6", "rental_uris": {"android": "https://dc.lft.to/lastmile_qr_scan", "ios": "https://dc.lft.to/lastmile_qr_scan"}, "lat": 38.903968, "bike_id": "f2059e2ef1292cb5e8d45b9a4c9e2cc6", "is_disabled": 0, "lon": -76.98108383333333, "is_reserved": 0, "fusion_lat": 0.0, "type": "electric_scooter"}, {"fusion_lon": 0.0, "name": "d2dd0eec240ef5e1f567ae1c2cda94bf", "rental_uris": {"android": "https://dc.lft.to/lastmile_qr_scan", "ios": "https://dc.lft.to/lastmile_qr_scan"}, "lat": 38.90039516666667, "bike_id": "d2dd0eec240ef5e1f567ae1c2cda94bf", "is_disabled": 0, "lon": -77.033025, "is_reserved": 0, "fusion_lat": 0.0, "type": "electric_scooter"}, {"fusion_lon": 0.0, "name": "531b5cea4834ce95b31a93daa69cf2bf", "rental_uris": {"android": "https://dc.lft.to/lastmile_qr_scan", "ios": "https://dc.lft.to/lastmile_qr_scan"}, "lat": 38.905618, "bike_id": "531b5cea4834ce95b31a93daa69cf2bf", "is_disabled": 0, "lon": -77.027985, "is_reserved": 0, "fusion_lat": 0.0, "type": "electric_scooter"}, {"fusion_lon": 0.0, "name": "604254211eb064bc487d6b689f1a264e", "rental_uris": {"android": "https://dc.lft.to/lastmile_qr_scan", "ios": "https://dc.lft.to/lastmile_qr_scan"}, "lat": 38.95116183333333, "bike_id": "604254211eb064bc487d6b689f1a264e", "is_disabled": 0, "lon": -77.08871766666667, "is_reserved": 0, "fusion_lat": 0.0, "type": "electric_bike"}, {"fusion_lon": 0.0, "name": "89d0f6cf3cf8c651727461056e68f7ef", "rental_uris": {"android": "https://dc.lft.to/lastmile_qr_scan", "ios": "https://dc.lft.to/lastmile_qr_scan"}, "lat": 38.934667166666664, "bike_id": "89d0f6cf3cf8c651727461056e68f7ef", "is_disabled": 0, "lon": -77.058117, "is_reserved": 0, "fusion_lat": 0.0, "type": "electric_scooter"}, {"fusion_lon": 0.0, "name": "872a3027ca5bf91fb436d4a8fbb90696", "rental_uris": {"android": "https://dc.lft.to/lastmile_qr_scan", "ios": "https://dc.lft.to/lastmile_qr_scan"}, "lat": 38.905117, "bike_id": "872a3027ca5bf91fb436d4a8fbb90696", "is_disabled": 0, "lon": -76.98484566666667, "is_reserved": 0, "fusion_lat": 0.0, "type": "electric_scooter"}, {"fusion_lon": 0.0, "name": "cc4f7af5d1cc9bd9f1581ba868f1475a", "rental_uris": {"android": "https://dc.lft.to/lastmile_qr_scan", "ios": "https://dc.lft.to/lastmile_qr_scan"}, "lat": 38.924201833333335, "bike_id": "cc4f7af5d1cc9bd9f1581ba868f1475a", "is_disabled": 0, "lon": -77.020896, "is_reserved": 0, "fusion_lat": 0.0, "type": "electric_scooter"}, {"fusion_lon": 0.0, "name": "82b5bd6f58b2dd40ac48c0cba9c2ed24", "rental_uris": {"android": "https://dc.lft.to/lastmile_qr_scan", "ios": "https://dc.lft.to/lastmile_qr_scan"}, "lat": 38.93408316666667, "bike_id": "82b5bd6f58b2dd40ac48c0cba9c2ed24", "is_disabled": 0, "lon": -77.03832033333333, "is_reserved": 0, "fusion_lat": 0.0, "type": "electric_scooter"}, {"fusion_lon": 0.0, "name": "70e4604cdd224236112ff297a01ab349", "rental_uris": {"android": "https://dc.lft.to/lastmile_qr_scan", "ios": "https://dc.lft.to/lastmile_qr_scan"}, "lat": 38.903701, "bike_id": "70e4604cdd224236112ff297a01ab349", "is_disabled": 0, "lon": -77.03217333333333, "is_reserved": 0, "fusion_lat": 0.0, "type": "electric_scooter"}, {"fusion_lon": 0.0, "name": "ffee0b9c3a7bc3796634bc981f2ebc9e", "rental_uris": {"android": "https://dc.lft.to/lastmile_qr_scan", "ios": "https://dc.lft.to/lastmile_qr_scan"}, "lat": 38.90561066666667, "bike_id": "ffee0b9c3a7bc3796634bc981f2ebc9e", "is_disabled": 0, "lon": -77.04548416666667, "is_reserved": 0, "fusion_lat": 0.0, "type": "electric_scooter"}, {"fusion_lon": 0.0, "name": "d86d07bd80514ce5ebca5ed0cbcb26e0", "rental_uris": {"android": "https://dc.lft.to/lastmile_qr_scan", "ios": "https://dc.lft.to/lastmile_qr_scan"}, "lat": 38.89856, "bike_id": "d86d07bd80514ce5ebca5ed0cbcb26e0", "is_disabled": 0, "lon": -77.05413383333334, "is_reserved": 0, "fusion_lat": 0.0, "type": "electric_scooter"}, {"fusion_lon": 0.0, "name": "78836dbd1df0d439cd1af1ccbd5b01a2", "rental_uris": {"android": "https://dc.lft.to/lastmile_qr_scan", "ios": "https://dc.lft.to/lastmile_qr_scan"}, "lat": 38.95087733333333, "bike_id": "78836dbd1df0d439cd1af1ccbd5b01a2", "is_disabled": 0, "lon": -76.99798583333333, "is_reserved": 0, "fusion_lat": 0.0, "type": "electric_bike"}, {"fusion_lon": 0.0, "name": "537e877d3365006dc0991ae4b8b312bf", "rental_uris": {"android": "https://dc.lft.to/lastmile_qr_scan", "ios": "https://dc.lft.to/lastmile_qr_scan"}, "lat": 38.937044666666665, "bike_id": "537e877d3365006dc0991ae4b8b312bf", "is_disabled": 0, "lon": -77.05601733333333, "is_reserved": 0, "fusion_lat": 0.0, "type": "electric_scooter"}, {"fusion_lon": 0.0, "name": "bdd2c4019c549df54ec34a0e3538b89a", "rental_uris": {"android": "https://dc.lft.to/lastmile_qr_scan", "ios": "https://dc.lft.to/lastmile_qr_scan"}, "lat": 38.894922333333334, "bike_id": "bdd2c4019c549df54ec34a0e3538b89a", "is_disabled": 0, "lon": -76.948923, "is_reserved": 0, "fusion_lat": 0.0, "type": "electric_scooter"}, {"fusion_lon": 0.0, "name": "4f9cd0e7494c9330773f7398c8d08a58", "rental_uris": {"android": "https://dc.lft.to/lastmile_qr_scan", "ios": "https://dc.lft.to/lastmile_qr_scan"}, "lat": 38.90848916666667, "bike_id": "4f9cd0e7494c9330773f7398c8d08a58", "is_disabled": 0, "lon": -77.0217385, "is_reserved": 0, "fusion_lat": 0.0, "type": "electric_scooter"}, {"fusion_lon": 0.0, "name": "95c8e3696403a6b0f8d27beae87fecb5", "rental_uris": {"android": "https://dc.lft.to/lastmile_qr_scan", "ios": "https://dc.lft.to/lastmile_qr_scan"}, "lat": 38.96417, "bike_id": "95c8e3696403a6b0f8d27beae87fecb5", "is_disabled": 0, "lon": -77.03255133333333, "is_reserved": 0, "fusion_lat": 0.0, "type": "electric_scooter"}, {"fusion_lon": 0.0, "name": "329d58b3364549a0cd25912d5572aac5", "rental_uris": {"android": "https://dc.lft.to/lastmile_qr_scan", "ios": "https://dc.lft.to/lastmile_qr_scan"}, "lat": 38.93833016666667, "bike_id": "329d58b3364549a0cd25912d5572aac5", "is_disabled": 0, "lon": -77.02484166666666, "is_reserved": 0, "fusion_lat": 0.0, "type": "electric_scooter"}, {"fusion_lon": 0.0, "name": "0f5c1fb57d069f959b2f88da8b0ac960", "rental_uris": {"android": "https://dc.lft.to/lastmile_qr_scan", "ios": "https://dc.lft.to/lastmile_qr_scan"}, "lat": 38.90949633333334, "bike_id": "0f5c1fb57d069f959b2f88da8b0ac960", "is_disabled": 0, "lon": -77.03184116666667, "is_reserved": 0, "fusion_lat": 0.0, "type": "electric_scooter"}, {"fusion_lon": 0.0, "name": "78d9455ab2fef9e3335c3cdb5e084b53", "rental_uris": {"android": "https://dc.lft.to/lastmile_qr_scan", "ios": "https://dc.lft.to/lastmile_qr_scan"}, "lat": 38.911866833333335, "bike_id": "78d9455ab2fef9e3335c3cdb5e084b53", "is_disabled": 0, "lon": -77.03137183333334, "is_reserved": 0, "fusion_lat": 0.0, "type": "electric_scooter"}, {"fusion_lon": 0.0, "name": "bfd11ba005cc0be3d8a493e2be751f6d", "rental_uris": {"android": "https://dc.lft.to/lastmile_qr_scan", "ios": "https://dc.lft.to/lastmile_qr_scan"}, "lat": 38.909671333333335, "bike_id": "bfd11ba005cc0be3d8a493e2be751f6d", "is_disabled": 0, "lon": -77.02444516666667, "is_reserved": 0, "fusion_lat": 0.0, "type": "electric_scooter"}, {"fusion_lon": 0.0, "name": "812d1f677647d940381f67a1c6d5459f", "rental_uris": {"android": "https://dc.lft.to/lastmile_qr_scan", "ios": "https://dc.lft.to/lastmile_qr_scan"}, "lat": 38.906089333333334, "bike_id": "812d1f677647d940381f67a1c6d5459f", "is_disabled": 0, "lon": -77.0132045, "is_reserved": 0, "fusion_lat": 0.0, "type": "electric_scooter"}, {"fusion_lon": 0.0, "name": "6c952faafa560d01eb7c511d7827041c", "rental_uris": {"android": "https://dc.lft.to/lastmile_qr_scan", "ios": "https://dc.lft.to/lastmile_qr_scan"}, "lat": 38.90197533333333, "bike_id": "6c952faafa560d01eb7c511d7827041c", "is_disabled": 0, "lon": -77.0611815, "is_reserved": 0, "fusion_lat": 0.0, "type": "electric_scooter"}, {"fusion_lon": 0.0, "name": "595a883b547bbdacc5e230bb47e840ec", "rental_uris": {"android": "https://dc.lft.to/lastmile_qr_scan", "ios": "https://dc.lft.to/lastmile_qr_scan"}, "lat": 38.9220005, "bike_id": "595a883b547bbdacc5e230bb47e840ec", "is_disabled": 0, "lon": -76.98369916666667, "is_reserved": 0, "fusion_lat": 0.0, "type": "electric_scooter"}, {"fusion_lon": 0.0, "name": "fdb9e71e163e8e65d9d5254ae96a0c46", "rental_uris": {"android": "https://dc.lft.to/lastmile_qr_scan", "ios": "https://dc.lft.to/lastmile_qr_scan"}, "lat": 38.89729366666667, "bike_id": "fdb9e71e163e8e65d9d5254ae96a0c46", "is_disabled": 0, "lon": -77.02553766666666, "is_reserved": 0, "fusion_lat": 0.0, "type": "electric_scooter"}, {"fusion_lon": 0.0, "name": "20803841dd2d352841825bff2cf777bc", "rental_uris": {"android": "https://dc.lft.to/lastmile_qr_scan", "ios": "https://dc.lft.to/lastmile_qr_scan"}, "lat": 38.860146, "bike_id": "20803841dd2d352841825bff2cf777bc", "is_disabled": 0, "lon": -77.06532966666667, "is_reserved": 0, "fusion_lat": 0.0, "type": "electric_bike"}, {"fusion_lon": 0.0, "name": "160d5349a3b58815aa943b24f41b93eb", "rental_uris": {"android": "https://dc.lft.to/lastmile_qr_scan", "ios": "https://dc.lft.to/lastmile_qr_scan"}, "lat": 38.90261116666667, "bike_id": "160d5349a3b58815aa943b24f41b93eb", "is_disabled": 0, "lon": -77.017971, "is_reserved": 0, "fusion_lat": 0.0, "type": "electric_scooter"}, {"fusion_lon": 0.0, "name": "1fd862dbd7a5248a7ef6598abdcf50c4", "rental_uris": {"android": "https://dc.lft.to/lastmile_qr_scan", "ios": "https://dc.lft.to/lastmile_qr_scan"}, "lat": 38.88054416666667, "bike_id": "1fd862dbd7a5248a7ef6598abdcf50c4", "is_disabled": 0, "lon": -77.00519983333334, "is_reserved": 0, "fusion_lat": 0.0, "type": "electric_scooter"}, {"fusion_lon": 0.0, "name": "f9c84e343f2e06802301af64e43934b1", "rental_uris": {"android": "https://dc.lft.to/lastmile_qr_scan", "ios": "https://dc.lft.to/lastmile_qr_scan"}, "lat": 38.941828, "bike_id": "f9c84e343f2e06802301af64e43934b1", "is_disabled": 0, "lon": -77.02492066666667, "is_reserved": 0, "fusion_lat": 0.0, "type": "electric_scooter"}, {"fusion_lon": 0.0, "name": "f6b81d27be8d067d6a03c7c67e953702", "rental_uris": {"android": "https://dc.lft.to/lastmile_qr_scan", "ios": "https://dc.lft.to/lastmile_qr_scan"}, "lat": 38.907337166666665, "bike_id": "f6b81d27be8d067d6a03c7c67e953702", "is_disabled": 0, "lon": -77.03211516666667, "is_reserved": 0, "fusion_lat": 0.0, "type": "electric_scooter"}, {"fusion_lon": 0.0, "name": "4cb0b66b9ff5c2cb4ffa2289bf34c3ec", "rental_uris": {"android": "https://dc.lft.to/lastmile_qr_scan", "ios": "https://dc.lft.to/lastmile_qr_scan"}, "lat": 38.873402, "bike_id": "4cb0b66b9ff5c2cb4ffa2289bf34c3ec", "is_disabled": 0, "lon": -76.99168916666666, "is_reserved": 0, "fusion_lat": 0.0, "type": "electric_scooter"}, {"fusion_lon": 0.0, "name": "62e8c1b3a18c220435f346600d971507", "rental_uris": {"android": "https://dc.lft.to/lastmile_qr_scan", "ios": "https://dc.lft.to/lastmile_qr_scan"}, "lat": 38.909529666666664, "bike_id": "62e8c1b3a18c220435f346600d971507", "is_disabled": 0, "lon": -77.034485, "is_reserved": 0, "fusion_lat": 0.0, "type": "electric_scooter"}, {"fusion_lon": 0.0, "name": "21b922a3048a98f104bd146c84e83f25", "rental_uris": {"android": "https://dc.lft.to/lastmile_qr_scan", "ios": "https://dc.lft.to/lastmile_qr_scan"}, "lat": 38.8945705, "bike_id": "21b922a3048a98f104bd146c84e83f25", "is_disabled": 0, "lon": -77.02191366666666, "is_reserved": 0, "fusion_lat": 0.0, "type": "electric_scooter"}, {"fusion_lon": 0.0, "name": "07f4fe6a284f3c34b38d220d4f83976c", "rental_uris": {"android": "https://dc.lft.to/lastmile_qr_scan", "ios": "https://dc.lft.to/lastmile_qr_scan"}, "lat": 38.915608166666665, "bike_id": "07f4fe6a284f3c34b38d220d4f83976c", "is_disabled": 0, "lon": -77.00681516666667, "is_reserved": 0, "fusion_lat": 0.0, "type": "electric_scooter"}, {"fusion_lon": 0.0, "name": "6ab5c6c2d81f6beb53e3b772e9f812db", "rental_uris": {"android": "https://dc.lft.to/lastmile_qr_scan", "ios": "https://dc.lft.to/lastmile_qr_scan"}, "lat": 38.9008175, "bike_id": "6ab5c6c2d81f6beb53e3b772e9f812db", "is_disabled": 0, "lon": -77.04943833333333, "is_reserved": 0, "fusion_lat": 0.0, "type": "electric_scooter"}, {"fusion_lon": 0.0, "name": "42220a3dd78d53d35e2ab704274d6652", "rental_uris": {"android": "https://dc.lft.to/lastmile_qr_scan", "ios": "https://dc.lft.to/lastmile_qr_scan"}, "lat": 38.891315, "bike_id": "42220a3dd78d53d35e2ab704274d6652", "is_disabled": 0, "lon": -76.94062583333333, "is_reserved": 0, "fusion_lat": 0.0, "type": "electric_bike"}, {"fusion_lon": 0.0, "name": "ca7634bed7026d34d7042b8f957fdf26", "rental_uris": {"android": "https://dc.lft.to/lastmile_qr_scan", "ios": "https://dc.lft.to/lastmile_qr_scan"}, "lat": 38.916302, "bike_id": "ca7634bed7026d34d7042b8f957fdf26", "is_disabled": 0, "lon": -77.04876516666667, "is_reserved": 0, "fusion_lat": 0.0, "type": "electric_scooter"}, {"fusion_lon": 0.0, "name": "0d0c18c02b603dab44fb827f8399d128", "rental_uris": {"android": "https://dc.lft.to/lastmile_qr_scan", "ios": "https://dc.lft.to/lastmile_qr_scan"}, "lat": 38.924718166666665, "bike_id": "0d0c18c02b603dab44fb827f8399d128", "is_disabled": 0, "lon": -77.0382425, "is_reserved": 0, "fusion_lat": 0.0, "type": "electric_scooter"}, {"fusion_lon": 0.0, "name": "740b2b92337d82bfa11d56aacc2fc070", "rental_uris": {"android": "https://dc.lft.to/lastmile_qr_scan", "ios": "https://dc.lft.to/lastmile_qr_scan"}, "lat": 38.911029166666665, "bike_id": "740b2b92337d82bfa11d56aacc2fc070", "is_disabled": 0, "lon": -77.01996766666667, "is_reserved": 0, "fusion_lat": 0.0, "type": "electric_scooter"}, {"fusion_lon": 0.0, "name": "b9302ee05bc4e737bd32a0f2c0b704dd", "rental_uris": {"android": "https://dc.lft.to/lastmile_qr_scan", "ios": "https://dc.lft.to/lastmile_qr_scan"}, "lat": 38.92334133333333, "bike_id": "b9302ee05bc4e737bd32a0f2c0b704dd", "is_disabled": 0, "lon": -77.056794, "is_reserved": 0, "fusion_lat": 0.0, "type": "electric_scooter"}, {"fusion_lon": 0.0, "name": "2a4f8aad27dabab5645ee82eda6e07d8", "rental_uris": {"android": "https://dc.lft.to/lastmile_qr_scan", "ios": "https://dc.lft.to/lastmile_qr_scan"}, "lat": 38.913578333333334, "bike_id": "2a4f8aad27dabab5645ee82eda6e07d8", "is_disabled": 0, "lon": -77.033501, "is_reserved": 0, "fusion_lat": 0.0, "type": "electric_scooter"}, {"fusion_lon": 0.0, "name": "86d7e1857ea5fbc18ad029d8a538d2da", "rental_uris": {"android": "https://dc.lft.to/lastmile_qr_scan", "ios": "https://dc.lft.to/lastmile_qr_scan"}, "lat": 38.90791333333333, "bike_id": "86d7e1857ea5fbc18ad029d8a538d2da", "is_disabled": 0, "lon": -77.009716, "is_reserved": 0, "fusion_lat": 0.0, "type": "electric_scooter"}, {"fusion_lon": 0.0, "name": "8d4143ff7f2dc55ab8d68603a11dd3e6", "rental_uris": {"android": "https://dc.lft.to/lastmile_qr_scan", "ios": "https://dc.lft.to/lastmile_qr_scan"}, "lat": 38.91584983333333, "bike_id": "8d4143ff7f2dc55ab8d68603a11dd3e6", "is_disabled": 0, "lon": -77.02951766666666, "is_reserved": 0, "fusion_lat": 0.0, "type": "electric_scooter"}, {"fusion_lon": 0.0, "name": "9e62f5fb174c946f4000592ad9a35a11", "rental_uris": {"android": "https://dc.lft.to/lastmile_qr_scan", "ios": "https://dc.lft.to/lastmile_qr_scan"}, "lat": 38.909918, "bike_id": "9e62f5fb174c946f4000592ad9a35a11", "is_disabled": 0, "lon": -77.02205516666666, "is_reserved": 0, "fusion_lat": 0.0, "type": "electric_scooter"}, {"fusion_lon": 0.0, "name": "c2daeb6f8ceb98957563f0a0bb786ce4", "rental_uris": {"android": "https://dc.lft.to/lastmile_qr_scan", "ios": "https://dc.lft.to/lastmile_qr_scan"}, "lat": 38.886928833333336, "bike_id": "c2daeb6f8ceb98957563f0a0bb786ce4", "is_disabled": 0, "lon": -76.97633766666667, "is_reserved": 0, "fusion_lat": 0.0, "type": "electric_scooter"}, {"fusion_lon": 0.0, "name": "f920b024a21de34caa318387d74be33e", "rental_uris": {"android": "https://dc.lft.to/lastmile_qr_scan", "ios": "https://dc.lft.to/lastmile_qr_scan"}, "lat": 38.909585, "bike_id": "f920b024a21de34caa318387d74be33e", "is_disabled": 0, "lon": -77.022825, "is_reserved": 0, "fusion_lat": 0.0, "type": "electric_scooter"}, {"fusion_lon": 0.0, "name": "d7baaaf6c844820ef1553fd97a992ec5", "rental_uris": {"android": "https://dc.lft.to/lastmile_qr_scan", "ios": "https://dc.lft.to/lastmile_qr_scan"}, "lat": 38.926862, "bike_id": "d7baaaf6c844820ef1553fd97a992ec5", "is_disabled": 0, "lon": -77.01569483333333, "is_reserved": 0, "fusion_lat": 0.0, "type": "electric_scooter"}, {"fusion_lon": 0.0, "name": "fad02f2fa9a7b73d0ad1ddead7981bac", "rental_uris": {"android": "https://dc.lft.to/lastmile_qr_scan", "ios": "https://dc.lft.to/lastmile_qr_scan"}, "lat": 38.919265, "bike_id": "fad02f2fa9a7b73d0ad1ddead7981bac", "is_disabled": 0, "lon": -77.03105933333333, "is_reserved": 0, "fusion_lat": 0.0, "type": "electric_scooter"}, {"fusion_lon": 0.0, "name": "da7318f97bad4b632b9de18a7f706799", "rental_uris": {"android": "https://dc.lft.to/lastmile_qr_scan", "ios": "https://dc.lft.to/lastmile_qr_scan"}, "lat": 38.944975666666664, "bike_id": "da7318f97bad4b632b9de18a7f706799", "is_disabled": 0, "lon": -77.0637725, "is_reserved": 0, "fusion_lat": 0.0, "type": "electric_scooter"}, {"fusion_lon": 0.0, "name": "21c8445828b46ec2ce20e6b1a94d9218", "rental_uris": {"android": "https://dc.lft.to/lastmile_qr_scan", "ios": "https://dc.lft.to/lastmile_qr_scan"}, "lat": 38.8951025, "bike_id": "21c8445828b46ec2ce20e6b1a94d9218", "is_disabled": 0, "lon": -76.9922235, "is_reserved": 0, "fusion_lat": 0.0, "type": "electric_scooter"}, {"fusion_lon": 0.0, "name": "58da913592d2c4320b26cb8e7dcd8983", "rental_uris": {"android": "https://dc.lft.to/lastmile_qr_scan", "ios": "https://dc.lft.to/lastmile_qr_scan"}, "lat": 38.91325066666667, "bike_id": "58da913592d2c4320b26cb8e7dcd8983", "is_disabled": 0, "lon": -77.02252766666666, "is_reserved": 0, "fusion_lat": 0.0, "type": "electric_scooter"}, {"fusion_lon": 0.0, "name": "8f51e22882c4b61890dad0b0c082c316", "rental_uris": {"android": "https://dc.lft.to/lastmile_qr_scan", "ios": "https://dc.lft.to/lastmile_qr_scan"}, "lat": 38.914177333333335, "bike_id": "8f51e22882c4b61890dad0b0c082c316", "is_disabled": 0, "lon": -77.03998566666667, "is_reserved": 0, "fusion_lat": 0.0, "type": "electric_scooter"}, {"fusion_lon": 0.0, "name": "f14a485e783f896c8d269e0db9e0cf13", "rental_uris": {"android": "https://dc.lft.to/lastmile_qr_scan", "ios": "https://dc.lft.to/lastmile_qr_scan"}, "lat": 38.9155695, "bike_id": "f14a485e783f896c8d269e0db9e0cf13", "is_disabled": 0, "lon": -77.0446775, "is_reserved": 0, "fusion_lat": 0.0, "type": "electric_scooter"}, {"fusion_lon": 0.0, "name": "3cc3748cbc1714438e1b68f307461641", "rental_uris": {"android": "https://dc.lft.to/lastmile_qr_scan", "ios": "https://dc.lft.to/lastmile_qr_scan"}, "lat": 38.89934983333333, "bike_id": "3cc3748cbc1714438e1b68f307461641", "is_disabled": 0, "lon": -77.045553, "is_reserved": 0, "fusion_lat": 0.0, "type": "electric_scooter"}, {"fusion_lon": 0.0, "name": "318a15d49a46ee9e7b3ae9fa14e3dcac", "rental_uris": {"android": "https://dc.lft.to/lastmile_qr_scan", "ios": "https://dc.lft.to/lastmile_qr_scan"}, "lat": 38.91264533333333, "bike_id": "318a15d49a46ee9e7b3ae9fa14e3dcac", "is_disabled": 0, "lon": -76.97208183333333, "is_reserved": 0, "fusion_lat": 0.0, "type": "electric_scooter"}, {"fusion_lon": 0.0, "name": "f13110917fffd8a6435c02a050803353", "rental_uris": {"android": "https://dc.lft.to/lastmile_qr_scan", "ios": "https://dc.lft.to/lastmile_qr_scan"}, "lat": 38.939091, "bike_id": "f13110917fffd8a6435c02a050803353", "is_disabled": 0, "lon": -77.032609, "is_reserved": 0, "fusion_lat": 0.0, "type": "electric_scooter"}, {"fusion_lon": 0.0, "name": "e3600889b386a5154281406a598a71a8", "rental_uris": {"android": "https://dc.lft.to/lastmile_qr_scan", "ios": "https://dc.lft.to/lastmile_qr_scan"}, "lat": 38.927913, "bike_id": "e3600889b386a5154281406a598a71a8", "is_disabled": 0, "lon": -77.053335, "is_reserved": 0, "fusion_lat": 0.0, "type": "electric_scooter"}, {"fusion_lon": 0.0, "name": "30f98fd2248d2f0d9a8e8e55a31da38f", "rental_uris": {"android": "https://dc.lft.to/lastmile_qr_scan", "ios": "https://dc.lft.to/lastmile_qr_scan"}, "lat": 38.9533535, "bike_id": "30f98fd2248d2f0d9a8e8e55a31da38f", "is_disabled": 0, "lon": -76.98252266666667, "is_reserved": 0, "fusion_lat": 0.0, "type": "electric_bike"}, {"fusion_lon": 0.0, "name": "3d9cf795dbe29d39a19fb789d5f9fdb3", "rental_uris": {"android": "https://dc.lft.to/lastmile_qr_scan", "ios": "https://dc.lft.to/lastmile_qr_scan"}, "lat": 38.922390166666666, "bike_id": "3d9cf795dbe29d39a19fb789d5f9fdb3", "is_disabled": 0, "lon": -77.021452, "is_reserved": 0, "fusion_lat": 0.0, "type": "electric_scooter"}, {"fusion_lon": 0.0, "name": "b06929cdd7a77bc9ffb1adffb03e165e", "rental_uris": {"android": "https://dc.lft.to/lastmile_qr_scan", "ios": "https://dc.lft.to/lastmile_qr_scan"}, "lat": 38.920518666666666, "bike_id": "b06929cdd7a77bc9ffb1adffb03e165e", "is_disabled": 0, "lon": -77.023757, "is_reserved": 0, "fusion_lat": 0.0, "type": "electric_scooter"}, {"fusion_lon": 0.0, "name": "3d2728ca32ebc88ad8ab7466bcd21502", "rental_uris": {"android": "https://dc.lft.to/lastmile_qr_scan", "ios": "https://dc.lft.to/lastmile_qr_scan"}, "lat": 38.9002975, "bike_id": "3d2728ca32ebc88ad8ab7466bcd21502", "is_disabled": 0, "lon": -76.987533, "is_reserved": 0, "fusion_lat": 0.0, "type": "electric_scooter"}, {"fusion_lon": 0.0, "name": "ab388f539ffd4eadc7e87a4155365b5b", "rental_uris": {"android": "https://dc.lft.to/lastmile_qr_scan", "ios": "https://dc.lft.to/lastmile_qr_scan"}, "lat": 38.90669, "bike_id": "ab388f539ffd4eadc7e87a4155365b5b", "is_disabled": 0, "lon": -76.9802395, "is_reserved": 0, "fusion_lat": 0.0, "type": "electric_scooter"}, {"fusion_lon": 0.0, "name": "fbba37e31128b59a0ae91377df3be1c6", "rental_uris": {"android": "https://dc.lft.to/lastmile_qr_scan", "ios": "https://dc.lft.to/lastmile_qr_scan"}, "lat": 38.91622816666667, "bike_id": "fbba37e31128b59a0ae91377df3be1c6", "is_disabled": 0, "lon": -77.03936833333333, "is_reserved": 0, "fusion_lat": 0.0, "type": "electric_scooter"}, {"fusion_lon": 0.0, "name": "4b3584fb7b38154549ab0a5cd1d2b9c4", "rental_uris": {"android": "https://dc.lft.to/lastmile_qr_scan", "ios": "https://dc.lft.to/lastmile_qr_scan"}, "lat": 38.9133085, "bike_id": "4b3584fb7b38154549ab0a5cd1d2b9c4", "is_disabled": 0, "lon": -77.0318095, "is_reserved": 0, "fusion_lat": 0.0, "type": "electric_scooter"}, {"fusion_lon": 0.0, "name": "0de0c8f0627fd09b4a1eaf847274af07", "rental_uris": {"android": "https://dc.lft.to/lastmile_qr_scan", "ios": "https://dc.lft.to/lastmile_qr_scan"}, "lat": 38.916803333333334, "bike_id": "0de0c8f0627fd09b4a1eaf847274af07", "is_disabled": 0, "lon": -77.02971916666667, "is_reserved": 0, "fusion_lat": 0.0, "type": "electric_scooter"}, {"fusion_lon": 0.0, "name": "5ac8fbb2fa18cc40a07a4612d5ddddb2", "rental_uris": {"android": "https://dc.lft.to/lastmile_qr_scan", "ios": "https://dc.lft.to/lastmile_qr_scan"}, "lat": 38.920316, "bike_id": "5ac8fbb2fa18cc40a07a4612d5ddddb2", "is_disabled": 0, "lon": -77.01029983333333, "is_reserved": 0, "fusion_lat": 0.0, "type": "electric_scooter"}, {"fusion_lon": 0.0, "name": "af63315e006248f355058d09db7f826a", "rental_uris": {"android": "https://dc.lft.to/lastmile_qr_scan", "ios": "https://dc.lft.to/lastmile_qr_scan"}, "lat": 38.90775383333333, "bike_id": "af63315e006248f355058d09db7f826a", "is_disabled": 0, "lon": -77.04541, "is_reserved": 0, "fusion_lat": 0.0, "type": "electric_scooter"}, {"fusion_lon": 0.0, "name": "d8e391af2699c25dc1f89854c65f73dd", "rental_uris": {"android": "https://dc.lft.to/lastmile_qr_scan", "ios": "https://dc.lft.to/lastmile_qr_scan"}, "lat": 38.943330833333334, "bike_id": "d8e391af2699c25dc1f89854c65f73dd", "is_disabled": 0, "lon": -77.02685883333334, "is_reserved": 0, "fusion_lat": 0.0, "type": "electric_scooter"}, {"fusion_lon": 0.0, "name": "0149e311512e25d969c0e1e755293609", "rental_uris": {"android": "https://dc.lft.to/lastmile_qr_scan", "ios": "https://dc.lft.to/lastmile_qr_scan"}, "lat": 38.896066, "bike_id": "0149e311512e25d969c0e1e755293609", "is_disabled": 0, "lon": -77.0451335, "is_reserved": 0, "fusion_lat": 0.0, "type": "electric_scooter"}, {"fusion_lon": 0.0, "name": "95729d2bc8cb9b777bccafb7139f4fd6", "rental_uris": {"android": "https://dc.lft.to/lastmile_qr_scan", "ios": "https://dc.lft.to/lastmile_qr_scan"}, "lat": 38.90521016666667, "bike_id": "95729d2bc8cb9b777bccafb7139f4fd6", "is_disabled": 0, "lon": -77.02973066666667, "is_reserved": 0, "fusion_lat": 0.0, "type": "electric_scooter"}, {"fusion_lon": 0.0, "name": "e8428b9d0cec339809b818f0739bd9e5", "rental_uris": {"android": "https://dc.lft.to/lastmile_qr_scan", "ios": "https://dc.lft.to/lastmile_qr_scan"}, "lat": 38.929962, "bike_id": "e8428b9d0cec339809b818f0739bd9e5", "is_disabled": 0, "lon": -77.02212666666667, "is_reserved": 0, "fusion_lat": 0.0, "type": "electric_scooter"}, {"fusion_lon": 0.0, "name": "890d649d74ccfd6e73d068ac7eba4daf", "rental_uris": {"android": "https://dc.lft.to/lastmile_qr_scan", "ios": "https://dc.lft.to/lastmile_qr_scan"}, "lat": 38.924895666666664, "bike_id": "890d649d74ccfd6e73d068ac7eba4daf", "is_disabled": 0, "lon": -77.02243633333333, "is_reserved": 0, "fusion_lat": 0.0, "type": "electric_scooter"}, {"fusion_lon": 0.0, "name": "444c4ec391f8ec3f9d3a1d0ef736452d", "rental_uris": {"android": "https://dc.lft.to/lastmile_qr_scan", "ios": "https://dc.lft.to/lastmile_qr_scan"}, "lat": 38.92471166666667, "bike_id": "444c4ec391f8ec3f9d3a1d0ef736452d", "is_disabled": 0, "lon": -77.02218633333334, "is_reserved": 0, "fusion_lat": 0.0, "type": "electric_scooter"}, {"fusion_lon": 0.0, "name": "0531eb9028c7f4c8bce64dca6cc4d3c3", "rental_uris": {"android": "https://dc.lft.to/lastmile_qr_scan", "ios": "https://dc.lft.to/lastmile_qr_scan"}, "lat": 38.9060555, "bike_id": "0531eb9028c7f4c8bce64dca6cc4d3c3", "is_disabled": 0, "lon": -77.12893316666667, "is_reserved": 0, "fusion_lat": 0.0, "type": "electric_bike"}, {"fusion_lon": 0.0, "name": "f7f48f2c951b277697c7743aacdab12d", "rental_uris": {"android": "https://dc.lft.to/lastmile_qr_scan", "ios": "https://dc.lft.to/lastmile_qr_scan"}, "lat": 38.9243835, "bike_id": "f7f48f2c951b277697c7743aacdab12d", "is_disabled": 0, "lon": -77.03795783333334, "is_reserved": 0, "fusion_lat": 0.0, "type": "electric_scooter"}, {"fusion_lon": 0.0, "name": "acb03ffdbf016fbf281b8809fc00308f", "rental_uris": {"android": "https://dc.lft.to/lastmile_qr_scan", "ios": "https://dc.lft.to/lastmile_qr_scan"}, "lat": 38.9257025, "bike_id": "acb03ffdbf016fbf281b8809fc00308f", "is_disabled": 0, "lon": -76.9995775, "is_reserved": 0, "fusion_lat": 0.0, "type": "electric_scooter"}, {"fusion_lon": 0.0, "name": "75b853c722ef13bc16048829fdf52250", "rental_uris": {"android": "https://dc.lft.to/lastmile_qr_scan", "ios": "https://dc.lft.to/lastmile_qr_scan"}, "lat": 38.88300383333333, "bike_id": "75b853c722ef13bc16048829fdf52250", "is_disabled": 0, "lon": -77.02571416666666, "is_reserved": 0, "fusion_lat": 0.0, "type": "electric_scooter"}, {"fusion_lon": 0.0, "name": "8aff19807e402fa18291335f598f0a89", "rental_uris": {"android": "https://dc.lft.to/lastmile_qr_scan", "ios": "https://dc.lft.to/lastmile_qr_scan"}, "lat": 38.90061983333333, "bike_id": "8aff19807e402fa18291335f598f0a89", "is_disabled": 0, "lon": -76.98697833333334, "is_reserved": 0, "fusion_lat": 0.0, "type": "electric_scooter"}, {"fusion_lon": 0.0, "name": "7de586da6bb681c368cd74b1b1657686", "rental_uris": {"android": "https://dc.lft.to/lastmile_qr_scan", "ios": "https://dc.lft.to/lastmile_qr_scan"}, "lat": 38.899629166666664, "bike_id": "7de586da6bb681c368cd74b1b1657686", "is_disabled": 0, "lon": -77.05024833333333, "is_reserved": 0, "fusion_lat": 0.0, "type": "electric_scooter"}, {"fusion_lon": 0.0, "name": "e1ec5485a70c579d5cf2fc737f726701", "rental_uris": {"android": "https://dc.lft.to/lastmile_qr_scan", "ios": "https://dc.lft.to/lastmile_qr_scan"}, "lat": 38.912682833333335, "bike_id": "e1ec5485a70c579d5cf2fc737f726701", "is_disabled": 0, "lon": -77.03867216666667, "is_reserved": 0, "fusion_lat": 0.0, "type": "electric_scooter"}, {"fusion_lon": 0.0, "name": "aa9aac9c07ca9d6d4b0b88a207cd9e7a", "rental_uris": {"android": "https://dc.lft.to/lastmile_qr_scan", "ios": "https://dc.lft.to/lastmile_qr_scan"}, "lat": 38.88072533333333, "bike_id": "aa9aac9c07ca9d6d4b0b88a207cd9e7a", "is_disabled": 0, "lon": -77.01181883333334, "is_reserved": 0, "fusion_lat": 0.0, "type": "electric_scooter"}, {"fusion_lon": 0.0, "name": "ef4ec54f1757f6af5add72646cfc0964", "rental_uris": {"android": "https://dc.lft.to/lastmile_qr_scan", "ios": "https://dc.lft.to/lastmile_qr_scan"}, "lat": 38.901544666666666, "bike_id": "ef4ec54f1757f6af5add72646cfc0964", "is_disabled": 0, "lon": -77.05893333333333, "is_reserved": 0, "fusion_lat": 0.0, "type": "electric_scooter"}, {"fusion_lon": 0.0, "name": "335c2ecbfab7d35bd2bc3d60104740c1", "rental_uris": {"android": "https://dc.lft.to/lastmile_qr_scan", "ios": "https://dc.lft.to/lastmile_qr_scan"}, "lat": 38.92385733333333, "bike_id": "335c2ecbfab7d35bd2bc3d60104740c1", "is_disabled": 0, "lon": -77.03050666666667, "is_reserved": 0, "fusion_lat": 0.0, "type": "electric_scooter"}, {"fusion_lon": 0.0, "name": "f7c2c1d874871cf4d2e22391001d2eac", "rental_uris": {"android": "https://dc.lft.to/lastmile_qr_scan", "ios": "https://dc.lft.to/lastmile_qr_scan"}, "lat": 38.896373, "bike_id": "f7c2c1d874871cf4d2e22391001d2eac", "is_disabled": 0, "lon": -77.03212366666666, "is_reserved": 0, "fusion_lat": 0.0, "type": "electric_scooter"}, {"fusion_lon": 0.0, "name": "f3740a957cdb55f68f8c578f4735db74", "rental_uris": {"android": "https://dc.lft.to/lastmile_qr_scan", "ios": "https://dc.lft.to/lastmile_qr_scan"}, "lat": 38.91569966666667, "bike_id": "f3740a957cdb55f68f8c578f4735db74", "is_disabled": 0, "lon": -77.05020633333334, "is_reserved": 0, "fusion_lat": 0.0, "type": "electric_scooter"}, {"fusion_lon": 0.0, "name": "d690d7941de15be6bb4574ae2c787fb7", "rental_uris": {"android": "https://dc.lft.to/lastmile_qr_scan", "ios": "https://dc.lft.to/lastmile_qr_scan"}, "lat": 38.899862, "bike_id": "d690d7941de15be6bb4574ae2c787fb7", "is_disabled": 0, "lon": -77.02202183333333, "is_reserved": 0, "fusion_lat": 0.0, "type": "electric_scooter"}, {"fusion_lon": 0.0, "name": "9b517462cefad610ecf0dc705bf0d5d1", "rental_uris": {"android": "https://dc.lft.to/lastmile_qr_scan", "ios": "https://dc.lft.to/lastmile_qr_scan"}, "lat": 38.923771333333335, "bike_id": "9b517462cefad610ecf0dc705bf0d5d1", "is_disabled": 0, "lon": -77.0212545, "is_reserved": 0, "fusion_lat": 0.0, "type": "electric_scooter"}, {"fusion_lon": 0.0, "name": "38aeb404b4270f88751ce68be2689183", "rental_uris": {"android": "https://dc.lft.to/lastmile_qr_scan", "ios": "https://dc.lft.to/lastmile_qr_scan"}, "lat": 38.90077466666666, "bike_id": "38aeb404b4270f88751ce68be2689183", "is_disabled": 0, "lon": -77.012917, "is_reserved": 0, "fusion_lat": 0.0, "type": "electric_scooter"}, {"fusion_lon": 0.0, "name": "e92228365bdc1e693e0b14f00e1f2b7d", "rental_uris": {"android": "https://dc.lft.to/lastmile_qr_scan", "ios": "https://dc.lft.to/lastmile_qr_scan"}, "lat": 38.8949785, "bike_id": "e92228365bdc1e693e0b14f00e1f2b7d", "is_disabled": 0, "lon": -77.02185266666666, "is_reserved": 0, "fusion_lat": 0.0, "type": "electric_scooter"}, {"fusion_lon": 0.0, "name": "df98e04e7b6126f7bc2ba57f4100cd4c", "rental_uris": {"android": "https://dc.lft.to/lastmile_qr_scan", "ios": "https://dc.lft.to/lastmile_qr_scan"}, "lat": 38.91270433333333, "bike_id": "df98e04e7b6126f7bc2ba57f4100cd4c", "is_disabled": 0, "lon": -77.02209416666666, "is_reserved": 0, "fusion_lat": 0.0, "type": "electric_scooter"}, {"fusion_lon": 0.0, "name": "ba929269a99a81812570ae0ee9665925", "rental_uris": {"android": "https://dc.lft.to/lastmile_qr_scan", "ios": "https://dc.lft.to/lastmile_qr_scan"}, "lat": 38.90010766666666, "bike_id": "ba929269a99a81812570ae0ee9665925", "is_disabled": 0, "lon": -77.0217795, "is_reserved": 0, "fusion_lat": 0.0, "type": "electric_scooter"}, {"fusion_lon": 0.0, "name": "93376ce8e2b9d30db23088dc8e255a73", "rental_uris": {"android": "https://dc.lft.to/lastmile_qr_scan", "ios": "https://dc.lft.to/lastmile_qr_scan"}, "lat": 38.898905, "bike_id": "93376ce8e2b9d30db23088dc8e255a73", "is_disabled": 0, "lon": -77.03285266666667, "is_reserved": 0, "fusion_lat": 0.0, "type": "electric_scooter"}, {"fusion_lon": 0.0, "name": "50ae2a350401b70fc93721e0ba82d0c0", "rental_uris": {"android": "https://dc.lft.to/lastmile_qr_scan", "ios": "https://dc.lft.to/lastmile_qr_scan"}, "lat": 38.897103, "bike_id": "50ae2a350401b70fc93721e0ba82d0c0", "is_disabled": 0, "lon": -76.99118083333333, "is_reserved": 0, "fusion_lat": 0.0, "type": "electric_scooter"}, {"fusion_lon": 0.0, "name": "c59a464cd22d5a5ebed72fa85856f883", "rental_uris": {"android": "https://dc.lft.to/lastmile_qr_scan", "ios": "https://dc.lft.to/lastmile_qr_scan"}, "lat": 39.09439183333333, "bike_id": "c59a464cd22d5a5ebed72fa85856f883", "is_disabled": 0, "lon": -77.13460366666666, "is_reserved": 0, "fusion_lat": 0.0, "type": "electric_bike"}, {"fusion_lon": 0.0, "name": "bcb45aaf8a37ac9977096f199cb5dc89", "rental_uris": {"android": "https://dc.lft.to/lastmile_qr_scan", "ios": "https://dc.lft.to/lastmile_qr_scan"}, "lat": 38.9426205, "bike_id": "bcb45aaf8a37ac9977096f199cb5dc89", "is_disabled": 0, "lon": -77.02837983333333, "is_reserved": 0, "fusion_lat": 0.0, "type": "electric_scooter"}, {"fusion_lon": 0.0, "name": "93c57b39d9a2c0fc7c484afc8a063061", "rental_uris": {"android": "https://dc.lft.to/lastmile_qr_scan", "ios": "https://dc.lft.to/lastmile_qr_scan"}, "lat": 38.88389433333333, "bike_id": "93c57b39d9a2c0fc7c484afc8a063061", "is_disabled": 0, "lon": -76.98556266666667, "is_reserved": 0, "fusion_lat": 0.0, "type": "electric_scooter"}, {"fusion_lon": 0.0, "name": "88c5399766df08e74105fdb3cc06263f", "rental_uris": {"android": "https://dc.lft.to/lastmile_qr_scan", "ios": "https://dc.lft.to/lastmile_qr_scan"}, "lat": 38.916925, "bike_id": "88c5399766df08e74105fdb3cc06263f", "is_disabled": 0, "lon": -77.0383075, "is_reserved": 0, "fusion_lat": 0.0, "type": "electric_scooter"}, {"fusion_lon": 0.0, "name": "eaf287eb02b9f027fcade555bc83a6b2", "rental_uris": {"android": "https://dc.lft.to/lastmile_qr_scan", "ios": "https://dc.lft.to/lastmile_qr_scan"}, "lat": 38.919073833333336, "bike_id": "eaf287eb02b9f027fcade555bc83a6b2", "is_disabled": 0, "lon": -77.01362766666666, "is_reserved": 0, "fusion_lat": 0.0, "type": "electric_scooter"}, {"fusion_lon": 0.0, "name": "b1be76f4783baabc8e87291b755fd4ab", "rental_uris": {"android": "https://dc.lft.to/lastmile_qr_scan", "ios": "https://dc.lft.to/lastmile_qr_scan"}, "lat": 38.9364185, "bike_id": "b1be76f4783baabc8e87291b755fd4ab", "is_disabled": 0, "lon": -77.06012333333334, "is_reserved": 0, "fusion_lat": 0.0, "type": "electric_scooter"}, {"fusion_lon": 0.0, "name": "9879e83f10d5c72186cfc9c0aed0d64c", "rental_uris": {"android": "https://dc.lft.to/lastmile_qr_scan", "ios": "https://dc.lft.to/lastmile_qr_scan"}, "lat": 39.00383266666667, "bike_id": "9879e83f10d5c72186cfc9c0aed0d64c", "is_disabled": 0, "lon": -77.01298716666666, "is_reserved": 0, "fusion_lat": 0.0, "type": "electric_bike"}, {"fusion_lon": 0.0, "name": "a0540a6abc2176d00af6be41af311667", "rental_uris": {"android": "https://dc.lft.to/lastmile_qr_scan", "ios": "https://dc.lft.to/lastmile_qr_scan"}, "lat": 38.90337233333333, "bike_id": "a0540a6abc2176d00af6be41af311667", "is_disabled": 0, "lon": -76.9757565, "is_reserved": 0, "fusion_lat": 0.0, "type": "electric_scooter"}, {"fusion_lon": 0.0, "name": "4f4835799615a5422da1658ee71be41c", "rental_uris": {"android": "https://dc.lft.to/lastmile_qr_scan", "ios": "https://dc.lft.to/lastmile_qr_scan"}, "lat": 38.919302, "bike_id": "4f4835799615a5422da1658ee71be41c", "is_disabled": 0, "lon": -77.0248065, "is_reserved": 0, "fusion_lat": 0.0, "type": "electric_scooter"}, {"fusion_lon": 0.0, "name": "5a1a673bc6767157c0f1d8eb8fb2545e", "rental_uris": {"android": "https://dc.lft.to/lastmile_qr_scan", "ios": "https://dc.lft.to/lastmile_qr_scan"}, "lat": 38.9144865, "bike_id": "5a1a673bc6767157c0f1d8eb8fb2545e", "is_disabled": 0, "lon": -76.97271783333333, "is_reserved": 0, "fusion_lat": 0.0, "type": "electric_scooter"}, {"fusion_lon": 0.0, "name": "1aab69ed581c874471baed40bf01fb96", "rental_uris": {"android": "https://dc.lft.to/lastmile_qr_scan", "ios": "https://dc.lft.to/lastmile_qr_scan"}, "lat": 38.876859833333334, "bike_id": "1aab69ed581c874471baed40bf01fb96", "is_disabled": 0, "lon": -76.99609966666667, "is_reserved": 0, "fusion_lat": 0.0, "type": "electric_scooter"}, {"fusion_lon": 0.0, "name": "bc8c6c1855a6663139651cda3e08c37e", "rental_uris": {"android": "https://dc.lft.to/lastmile_qr_scan", "ios": "https://dc.lft.to/lastmile_qr_scan"}, "lat": 38.883757333333335, "bike_id": "bc8c6c1855a6663139651cda3e08c37e", "is_disabled": 0, "lon": -76.99516283333334, "is_reserved": 0, "fusion_lat": 0.0, "type": "electric_scooter"}, {"fusion_lon": 0.0, "name": "ee0d805736bc7315ea64136b1427251e", "rental_uris": {"android": "https://dc.lft.to/lastmile_qr_scan", "ios": "https://dc.lft.to/lastmile_qr_scan"}, "lat": 38.895453833333335, "bike_id": "ee0d805736bc7315ea64136b1427251e", "is_disabled": 0, "lon": -76.98336533333334, "is_reserved": 0, "fusion_lat": 0.0, "type": "electric_scooter"}, {"fusion_lon": 0.0, "name": "320d10975a4a2d6b6b203f2cc787a972", "rental_uris": {"android": "https://dc.lft.to/lastmile_qr_scan", "ios": "https://dc.lft.to/lastmile_qr_scan"}, "lat": 38.89469183333333, "bike_id": "320d10975a4a2d6b6b203f2cc787a972", "is_disabled": 0, "lon": -76.9971155, "is_reserved": 0, "fusion_lat": 0.0, "type": "electric_scooter"}, {"fusion_lon": 0.0, "name": "8ac53e02f8d4540ee44dcf5299fc1292", "rental_uris": {"android": "https://dc.lft.to/lastmile_qr_scan", "ios": "https://dc.lft.to/lastmile_qr_scan"}, "lat": 38.88065916666667, "bike_id": "8ac53e02f8d4540ee44dcf5299fc1292", "is_disabled": 0, "lon": -77.025482, "is_reserved": 0, "fusion_lat": 0.0, "type": "electric_scooter"}, {"fusion_lon": 0.0, "name": "821bcb426a7378fb7d55fba0ff72dec4", "rental_uris": {"android": "https://dc.lft.to/lastmile_qr_scan", "ios": "https://dc.lft.to/lastmile_qr_scan"}, "lat": 38.918159333333335, "bike_id": "821bcb426a7378fb7d55fba0ff72dec4", "is_disabled": 0, "lon": -77.03658616666667, "is_reserved": 0, "fusion_lat": 0.0, "type": "electric_scooter"}, {"fusion_lon": 0.0, "name": "23553b68467434259c4018978e86d7f3", "rental_uris": {"android": "https://dc.lft.to/lastmile_qr_scan", "ios": "https://dc.lft.to/lastmile_qr_scan"}, "lat": 38.805581333333336, "bike_id": "23553b68467434259c4018978e86d7f3", "is_disabled": 0, "lon": -77.13219483333333, "is_reserved": 0, "fusion_lat": 0.0, "type": "electric_bike"}, {"fusion_lon": 0.0, "name": "1bc38c92c3e82237877e3455ecd6dba4", "rental_uris": {"android": "https://dc.lft.to/lastmile_qr_scan", "ios": "https://dc.lft.to/lastmile_qr_scan"}, "lat": 38.9143195, "bike_id": "1bc38c92c3e82237877e3455ecd6dba4", "is_disabled": 0, "lon": -77.02814083333334, "is_reserved": 0, "fusion_lat": 0.0, "type": "electric_scooter"}, {"fusion_lon": 0.0, "name": "3e48cb97b2c16284fde46f3fbb4329a1", "rental_uris": {"android": "https://dc.lft.to/lastmile_qr_scan", "ios": "https://dc.lft.to/lastmile_qr_scan"}, "lat": 38.93107666666667, "bike_id": "3e48cb97b2c16284fde46f3fbb4329a1", "is_disabled": 0, "lon": -77.041279, "is_reserved": 0, "fusion_lat": 0.0, "type": "electric_scooter"}, {"fusion_lon": 0.0, "name": "8e0d9e5b2fb22f72de22417fda12f25b", "rental_uris": {"android": "https://dc.lft.to/lastmile_qr_scan", "ios": "https://dc.lft.to/lastmile_qr_scan"}, "lat": 38.90958533333333, "bike_id": "8e0d9e5b2fb22f72de22417fda12f25b", "is_disabled": 0, "lon": -77.02278533333333, "is_reserved": 0, "fusion_lat": 0.0, "type": "electric_scooter"}, {"fusion_lon": 0.0, "name": "cea895756fb6b25e4d88624e916a5d5f", "rental_uris": {"android": "https://dc.lft.to/lastmile_qr_scan", "ios": "https://dc.lft.to/lastmile_qr_scan"}, "lat": 38.898857, "bike_id": "cea895756fb6b25e4d88624e916a5d5f", "is_disabled": 0, "lon": -76.93173116666667, "is_reserved": 0, "fusion_lat": 0.0, "type": "electric_scooter"}, {"fusion_lon": 0.0, "name": "38cd25d2cecd53a7e966badeb4026281", "rental_uris": {"android": "https://dc.lft.to/lastmile_qr_scan", "ios": "https://dc.lft.to/lastmile_qr_scan"}, "lat": 38.92494966666667, "bike_id": "38cd25d2cecd53a7e966badeb4026281", "is_disabled": 0, "lon": -77.03931866666667, "is_reserved": 0, "fusion_lat": 0.0, "type": "electric_scooter"}, {"fusion_lon": 0.0, "name": "255f2f6f5446327165f2d34ca0fd25c3", "rental_uris": {"android": "https://dc.lft.to/lastmile_qr_scan", "ios": "https://dc.lft.to/lastmile_qr_scan"}, "lat": 38.8996685, "bike_id": "255f2f6f5446327165f2d34ca0fd25c3", "is_disabled": 0, "lon": -77.01613283333333, "is_reserved": 0, "fusion_lat": 0.0, "type": "electric_scooter"}, {"fusion_lon": 0.0, "name": "3e057f45772729ff92204262b9e59e01", "rental_uris": {"android": "https://dc.lft.to/lastmile_qr_scan", "ios": "https://dc.lft.to/lastmile_qr_scan"}, "lat": 38.89954766666666, "bike_id": "3e057f45772729ff92204262b9e59e01", "is_disabled": 0, "lon": -77.04848066666666, "is_reserved": 0, "fusion_lat": 0.0, "type": "electric_scooter"}, {"fusion_lon": 0.0, "name": "ac01d8b867b3e24b3137cb87b19ed920", "rental_uris": {"android": "https://dc.lft.to/lastmile_qr_scan", "ios": "https://dc.lft.to/lastmile_qr_scan"}, "lat": 38.90053116666667, "bike_id": "ac01d8b867b3e24b3137cb87b19ed920", "is_disabled": 0, "lon": -77.04831366666667, "is_reserved": 0, "fusion_lat": 0.0, "type": "electric_scooter"}, {"fusion_lon": 0.0, "name": "daf64f39d1f0e6a9ce09dc8bcf03587a", "rental_uris": {"android": "https://dc.lft.to/lastmile_qr_scan", "ios": "https://dc.lft.to/lastmile_qr_scan"}, "lat": 38.907977833333334, "bike_id": "daf64f39d1f0e6a9ce09dc8bcf03587a", "is_disabled": 0, "lon": -77.0838205, "is_reserved": 0, "fusion_lat": 0.0, "type": "electric_scooter"}, {"fusion_lon": 0.0, "name": "5c64e2ba792a0d4545bd4c54accaff04", "rental_uris": {"android": "https://dc.lft.to/lastmile_qr_scan", "ios": "https://dc.lft.to/lastmile_qr_scan"}, "lat": 38.89861233333333, "bike_id": "5c64e2ba792a0d4545bd4c54accaff04", "is_disabled": 0, "lon": -77.02954566666666, "is_reserved": 0, "fusion_lat": 0.0, "type": "electric_scooter"}, {"fusion_lon": 0.0, "name": "0f619feacdd90a6023ce034aa9547eb9", "rental_uris": {"android": "https://dc.lft.to/lastmile_qr_scan", "ios": "https://dc.lft.to/lastmile_qr_scan"}, "lat": 38.92099783333333, "bike_id": "0f619feacdd90a6023ce034aa9547eb9", "is_disabled": 0, "lon": -77.036489, "is_reserved": 0, "fusion_lat": 0.0, "type": "electric_scooter"}, {"fusion_lon": 0.0, "name": "9ca957e4f51aab749f1871dd17644972", "rental_uris": {"android": "https://dc.lft.to/lastmile_qr_scan", "ios": "https://dc.lft.to/lastmile_qr_scan"}, "lat": 38.92054666666667, "bike_id": "9ca957e4f51aab749f1871dd17644972", "is_disabled": 0, "lon": -77.02422266666666, "is_reserved": 0, "fusion_lat": 0.0, "type": "electric_scooter"}, {"fusion_lon": 0.0, "name": "6286ec00c87032904c58316df4998a3a", "rental_uris": {"android": "https://dc.lft.to/lastmile_qr_scan", "ios": "https://dc.lft.to/lastmile_qr_scan"}, "lat": 38.93306833333333, "bike_id": "6286ec00c87032904c58316df4998a3a", "is_disabled": 0, "lon": -77.03075183333333, "is_reserved": 0, "fusion_lat": 0.0, "type": "electric_scooter"}, {"fusion_lon": 0.0, "name": "58c1bf3c7e05dbbcfbe0b56820b313e6", "rental_uris": {"android": "https://dc.lft.to/lastmile_qr_scan", "ios": "https://dc.lft.to/lastmile_qr_scan"}, "lat": 38.91922233333333, "bike_id": "58c1bf3c7e05dbbcfbe0b56820b313e6", "is_disabled": 0, "lon": -77.01768766666666, "is_reserved": 0, "fusion_lat": 0.0, "type": "electric_scooter"}, {"fusion_lon": 0.0, "name": "536895018f7010c54ed378ec79a6aaa2", "rental_uris": {"android": "https://dc.lft.to/lastmile_qr_scan", "ios": "https://dc.lft.to/lastmile_qr_scan"}, "lat": 38.9083755, "bike_id": "536895018f7010c54ed378ec79a6aaa2", "is_disabled": 0, "lon": -77.03835766666667, "is_reserved": 0, "fusion_lat": 0.0, "type": "electric_scooter"}, {"fusion_lon": 0.0, "name": "bad8ab169a5b2e090762d41443cb136b", "rental_uris": {"android": "https://dc.lft.to/lastmile_qr_scan", "ios": "https://dc.lft.to/lastmile_qr_scan"}, "lat": 38.921376333333335, "bike_id": "bad8ab169a5b2e090762d41443cb136b", "is_disabled": 0, "lon": -77.02134183333334, "is_reserved": 0, "fusion_lat": 0.0, "type": "electric_scooter"}, {"fusion_lon": 0.0, "name": "e1eb181bca6ec9c48d1d9254347d9e4f", "rental_uris": {"android": "https://dc.lft.to/lastmile_qr_scan", "ios": "https://dc.lft.to/lastmile_qr_scan"}, "lat": 38.90831933333333, "bike_id": "e1eb181bca6ec9c48d1d9254347d9e4f", "is_disabled": 0, "lon": -76.941565, "is_reserved": 0, "fusion_lat": 0.0, "type": "electric_bike"}, {"fusion_lon": 0.0, "name": "8d8afc39053d4fb19ffe73f61903612b", "rental_uris": {"android": "https://dc.lft.to/lastmile_qr_scan", "ios": "https://dc.lft.to/lastmile_qr_scan"}, "lat": 38.907301833333335, "bike_id": "8d8afc39053d4fb19ffe73f61903612b", "is_disabled": 0, "lon": -77.02978516666667, "is_reserved": 0, "fusion_lat": 0.0, "type": "electric_scooter"}, {"fusion_lon": 0.0, "name": "df38a3fe378790dabf07df28a860a43c", "rental_uris": {"android": "https://dc.lft.to/lastmile_qr_scan", "ios": "https://dc.lft.to/lastmile_qr_scan"}, "lat": 38.89172416666667, "bike_id": "df38a3fe378790dabf07df28a860a43c", "is_disabled": 0, "lon": -77.015522, "is_reserved": 0, "fusion_lat": 0.0, "type": "electric_scooter"}, {"fusion_lon": 0.0, "name": "731f98817674dc6af674b27cdaf2d397", "rental_uris": {"android": "https://dc.lft.to/lastmile_qr_scan", "ios": "https://dc.lft.to/lastmile_qr_scan"}, "lat": 38.9311745, "bike_id": "731f98817674dc6af674b27cdaf2d397", "is_disabled": 0, "lon": -77.02095383333334, "is_reserved": 0, "fusion_lat": 0.0, "type": "electric_scooter"}, {"fusion_lon": 0.0, "name": "680e35899973f6f3dc6ff4f3200c5458", "rental_uris": {"android": "https://dc.lft.to/lastmile_qr_scan", "ios": "https://dc.lft.to/lastmile_qr_scan"}, "lat": 38.906118, "bike_id": "680e35899973f6f3dc6ff4f3200c5458", "is_disabled": 0, "lon": -77.04131366666667, "is_reserved": 0, "fusion_lat": 0.0, "type": "electric_scooter"}, {"fusion_lon": 0.0, "name": "152012f2cad49128e82c9932c14eeedc", "rental_uris": {"android": "https://dc.lft.to/lastmile_qr_scan", "ios": "https://dc.lft.to/lastmile_qr_scan"}, "lat": 38.9242305, "bike_id": "152012f2cad49128e82c9932c14eeedc", "is_disabled": 0, "lon": -77.0227145, "is_reserved": 0, "fusion_lat": 0.0, "type": "electric_scooter"}, {"fusion_lon": 0.0, "name": "b33993ea5b3e066a6f86d8d0f69793a3", "rental_uris": {"android": "https://dc.lft.to/lastmile_qr_scan", "ios": "https://dc.lft.to/lastmile_qr_scan"}, "lat": 38.92174516666667, "bike_id": "b33993ea5b3e066a6f86d8d0f69793a3", "is_disabled": 0, "lon": -77.026702, "is_reserved": 0, "fusion_lat": 0.0, "type": "electric_scooter"}, {"fusion_lon": 0.0, "name": "5c6dc5fb686f78d2db493412129c09e6", "rental_uris": {"android": "https://dc.lft.to/lastmile_qr_scan", "ios": "https://dc.lft.to/lastmile_qr_scan"}, "lat": 38.957602333333334, "bike_id": "5c6dc5fb686f78d2db493412129c09e6", "is_disabled": 0, "lon": -77.00913583333333, "is_reserved": 0, "fusion_lat": 0.0, "type": "electric_scooter"}, {"fusion_lon": 0.0, "name": "41c62c87ae9ff1ad398407156b803f0c", "rental_uris": {"android": "https://dc.lft.to/lastmile_qr_scan", "ios": "https://dc.lft.to/lastmile_qr_scan"}, "lat": 38.92054316666667, "bike_id": "41c62c87ae9ff1ad398407156b803f0c", "is_disabled": 0, "lon": -77.02364416666667, "is_reserved": 0, "fusion_lat": 0.0, "type": "electric_scooter"}, {"fusion_lon": 0.0, "name": "0108865dc97d2049e1eb0e3a7555ab41", "rental_uris": {"android": "https://dc.lft.to/lastmile_qr_scan", "ios": "https://dc.lft.to/lastmile_qr_scan"}, "lat": 38.91711866666667, "bike_id": "0108865dc97d2049e1eb0e3a7555ab41", "is_disabled": 0, "lon": -77.02586933333333, "is_reserved": 0, "fusion_lat": 0.0, "type": "electric_scooter"}, {"fusion_lon": 0.0, "name": "584f1b74563a937efe7256f248bfd4dd", "rental_uris": {"android": "https://dc.lft.to/lastmile_qr_scan", "ios": "https://dc.lft.to/lastmile_qr_scan"}, "lat": 38.920551, "bike_id": "584f1b74563a937efe7256f248bfd4dd", "is_disabled": 0, "lon": -76.99117366666667, "is_reserved": 0, "fusion_lat": 0.0, "type": "electric_bike"}, {"fusion_lon": 0.0, "name": "d2b238e063de71909b6ba31a77ab1f02", "rental_uris": {"android": "https://dc.lft.to/lastmile_qr_scan", "ios": "https://dc.lft.to/lastmile_qr_scan"}, "lat": 38.92051516666667, "bike_id": "d2b238e063de71909b6ba31a77ab1f02", "is_disabled": 0, "lon": -77.02425683333334, "is_reserved": 0, "fusion_lat": 0.0, "type": "electric_scooter"}, {"fusion_lon": 0.0, "name": "da8aabc96d6ee9cc947c64887c98fbd5", "rental_uris": {"android": "https://dc.lft.to/lastmile_qr_scan", "ios": "https://dc.lft.to/lastmile_qr_scan"}, "lat": 38.89533, "bike_id": "da8aabc96d6ee9cc947c64887c98fbd5", "is_disabled": 0, "lon": -77.00346116666667, "is_reserved": 0, "fusion_lat": 0.0, "type": "electric_scooter"}, {"fusion_lon": 0.0, "name": "285a31cf47c87ce80136cbba98ccb922", "rental_uris": {"android": "https://dc.lft.to/lastmile_qr_scan", "ios": "https://dc.lft.to/lastmile_qr_scan"}, "lat": 38.91508183333333, "bike_id": "285a31cf47c87ce80136cbba98ccb922", "is_disabled": 0, "lon": -77.00624, "is_reserved": 0, "fusion_lat": 0.0, "type": "electric_scooter"}, {"fusion_lon": 0.0, "name": "a979696ef7ec48cf64b74350ed8b76f8", "rental_uris": {"android": "https://dc.lft.to/lastmile_qr_scan", "ios": "https://dc.lft.to/lastmile_qr_scan"}, "lat": 38.91873283333334, "bike_id": "a979696ef7ec48cf64b74350ed8b76f8", "is_disabled": 0, "lon": -77.04476766666667, "is_reserved": 0, "fusion_lat": 0.0, "type": "electric_scooter"}, {"fusion_lon": 0.0, "name": "ea58b161b87d735a6ee47b6c8c7eda4c", "rental_uris": {"android": "https://dc.lft.to/lastmile_qr_scan", "ios": "https://dc.lft.to/lastmile_qr_scan"}, "lat": 38.92161883333333, "bike_id": "ea58b161b87d735a6ee47b6c8c7eda4c", "is_disabled": 0, "lon": -77.03381133333333, "is_reserved": 0, "fusion_lat": 0.0, "type": "electric_scooter"}, {"fusion_lon": 0.0, "name": "608c9ee10331a2e8874e29af9502cdd6", "rental_uris": {"android": "https://dc.lft.to/lastmile_qr_scan", "ios": "https://dc.lft.to/lastmile_qr_scan"}, "lat": 38.89230883333333, "bike_id": "608c9ee10331a2e8874e29af9502cdd6", "is_disabled": 0, "lon": -77.0238395, "is_reserved": 0, "fusion_lat": 0.0, "type": "electric_scooter"}, {"fusion_lon": 0.0, "name": "c3fce147b08e7511ab042421bbf13bad", "rental_uris": {"android": "https://dc.lft.to/lastmile_qr_scan", "ios": "https://dc.lft.to/lastmile_qr_scan"}, "lat": 38.94353783333333, "bike_id": "c3fce147b08e7511ab042421bbf13bad", "is_disabled": 0, "lon": -77.06125383333334, "is_reserved": 0, "fusion_lat": 0.0, "type": "electric_scooter"}, {"fusion_lon": 0.0, "name": "c90e447690f0ee2ee7e20ab49baf28c3", "rental_uris": {"android": "https://dc.lft.to/lastmile_qr_scan", "ios": "https://dc.lft.to/lastmile_qr_scan"}, "lat": 38.9551835, "bike_id": "c90e447690f0ee2ee7e20ab49baf28c3", "is_disabled": 0, "lon": -77.010425, "is_reserved": 0, "fusion_lat": 0.0, "type": "electric_scooter"}, {"fusion_lon": 0.0, "name": "9e0808511ecab3f519bfec6ad3efa117", "rental_uris": {"android": "https://dc.lft.to/lastmile_qr_scan", "ios": "https://dc.lft.to/lastmile_qr_scan"}, "lat": 38.922665, "bike_id": "9e0808511ecab3f519bfec6ad3efa117", "is_disabled": 0, "lon": -77.03399166666667, "is_reserved": 0, "fusion_lat": 0.0, "type": "electric_scooter"}, {"fusion_lon": 0.0, "name": "13700ebdd6e2d2cbc84704ad06d1f30b", "rental_uris": {"android": "https://dc.lft.to/lastmile_qr_scan", "ios": "https://dc.lft.to/lastmile_qr_scan"}, "lat": 38.840528666666664, "bike_id": "13700ebdd6e2d2cbc84704ad06d1f30b", "is_disabled": 0, "lon": -76.97667766666666, "is_reserved": 0, "fusion_lat": 0.0, "type": "electric_scooter"}, {"fusion_lon": 0.0, "name": "752d71c4899cc652ac0afa13cb015e01", "rental_uris": {"android": "https://dc.lft.to/lastmile_qr_scan", "ios": "https://dc.lft.to/lastmile_qr_scan"}, "lat": 38.80686333333333, "bike_id": "752d71c4899cc652ac0afa13cb015e01", "is_disabled": 0, "lon": -77.13386783333333, "is_reserved": 0, "fusion_lat": 0.0, "type": "electric_bike"}, {"fusion_lon": 0.0, "name": "01e463a44d69bc64529ecd3d2da03232", "rental_uris": {"android": "https://dc.lft.to/lastmile_qr_scan", "ios": "https://dc.lft.to/lastmile_qr_scan"}, "lat": 38.917077, "bike_id": "01e463a44d69bc64529ecd3d2da03232", "is_disabled": 0, "lon": -77.04223016666667, "is_reserved": 0, "fusion_lat": 0.0, "type": "electric_scooter"}, {"fusion_lon": 0.0, "name": "dafb3d9fc25fcb6a2ef6b5f06a6aff71", "rental_uris": {"android": "https://dc.lft.to/lastmile_qr_scan", "ios": "https://dc.lft.to/lastmile_qr_scan"}, "lat": 38.91674233333333, "bike_id": "dafb3d9fc25fcb6a2ef6b5f06a6aff71", "is_disabled": 0, "lon": -77.027148, "is_reserved": 0, "fusion_lat": 0.0, "type": "electric_scooter"}, {"fusion_lon": 0.0, "name": "184afb00c793615602bab934bd1827c1", "rental_uris": {"android": "https://dc.lft.to/lastmile_qr_scan", "ios": "https://dc.lft.to/lastmile_qr_scan"}, "lat": 38.922516, "bike_id": "184afb00c793615602bab934bd1827c1", "is_disabled": 0, "lon": -77.03086666666667, "is_reserved": 0, "fusion_lat": 0.0, "type": "electric_scooter"}, {"fusion_lon": 0.0, "name": "6d6d5acc8cd0e23b62c5d49310398213", "rental_uris": {"android": "https://dc.lft.to/lastmile_qr_scan", "ios": "https://dc.lft.to/lastmile_qr_scan"}, "lat": 38.900352166666664, "bike_id": "6d6d5acc8cd0e23b62c5d49310398213", "is_disabled": 0, "lon": -76.98842016666667, "is_reserved": 0, "fusion_lat": 0.0, "type": "electric_scooter"}, {"fusion_lon": 0.0, "name": "1e10c68b586b18b44abd174023612fd9", "rental_uris": {"android": "https://dc.lft.to/lastmile_qr_scan", "ios": "https://dc.lft.to/lastmile_qr_scan"}, "lat": 38.90179783333333, "bike_id": "1e10c68b586b18b44abd174023612fd9", "is_disabled": 0, "lon": -77.02402883333333, "is_reserved": 0, "fusion_lat": 0.0, "type": "electric_scooter"}, {"fusion_lon": 0.0, "name": "97eed2a52818b9498675a37929a5c73e", "rental_uris": {"android": "https://dc.lft.to/lastmile_qr_scan", "ios": "https://dc.lft.to/lastmile_qr_scan"}, "lat": 38.96401083333333, "bike_id": "97eed2a52818b9498675a37929a5c73e", "is_disabled": 0, "lon": -77.0277085, "is_reserved": 0, "fusion_lat": 0.0, "type": "electric_scooter"}, {"fusion_lon": 0.0, "name": "431be39f8b09ab891237b3a3bb4de736", "rental_uris": {"android": "https://dc.lft.to/lastmile_qr_scan", "ios": "https://dc.lft.to/lastmile_qr_scan"}, "lat": 38.898786666666666, "bike_id": "431be39f8b09ab891237b3a3bb4de736", "is_disabled": 0, "lon": -77.032761, "is_reserved": 0, "fusion_lat": 0.0, "type": "electric_scooter"}, {"fusion_lon": 0.0, "name": "7226bd4d5b780712b6eea1a5b38b98a4", "rental_uris": {"android": "https://dc.lft.to/lastmile_qr_scan", "ios": "https://dc.lft.to/lastmile_qr_scan"}, "lat": 38.90392666666666, "bike_id": "7226bd4d5b780712b6eea1a5b38b98a4", "is_disabled": 0, "lon": -77.01773083333333, "is_reserved": 0, "fusion_lat": 0.0, "type": "electric_scooter"}, {"fusion_lon": 0.0, "name": "3c90af6b2936875ea9cc1c8ac8980745", "rental_uris": {"android": "https://dc.lft.to/lastmile_qr_scan", "ios": "https://dc.lft.to/lastmile_qr_scan"}, "lat": 38.91677083333333, "bike_id": "3c90af6b2936875ea9cc1c8ac8980745", "is_disabled": 0, "lon": -77.04610516666666, "is_reserved": 0, "fusion_lat": 0.0, "type": "electric_scooter"}, {"fusion_lon": 0.0, "name": "1e0c2448fe400fc50ac06c5732db0b1d", "rental_uris": {"android": "https://dc.lft.to/lastmile_qr_scan", "ios": "https://dc.lft.to/lastmile_qr_scan"}, "lat": 38.89191433333333, "bike_id": "1e0c2448fe400fc50ac06c5732db0b1d", "is_disabled": 0, "lon": -76.98818966666667, "is_reserved": 0, "fusion_lat": 0.0, "type": "electric_scooter"}, {"fusion_lon": 0.0, "name": "c6814311048453befecc2ac599a9e2c8", "rental_uris": {"android": "https://dc.lft.to/lastmile_qr_scan", "ios": "https://dc.lft.to/lastmile_qr_scan"}, "lat": 38.99414683333333, "bike_id": "c6814311048453befecc2ac599a9e2c8", "is_disabled": 0, "lon": -77.01799683333333, "is_reserved": 0, "fusion_lat": 0.0, "type": "electric_bike"}, {"fusion_lon": 0.0, "name": "dabc731a139f8c652df62d2d0c370346", "rental_uris": {"android": "https://dc.lft.to/lastmile_qr_scan", "ios": "https://dc.lft.to/lastmile_qr_scan"}, "lat": 38.92502233333333, "bike_id": "dabc731a139f8c652df62d2d0c370346", "is_disabled": 0, "lon": -77.02402566666666, "is_reserved": 0, "fusion_lat": 0.0, "type": "electric_scooter"}, {"fusion_lon": 0.0, "name": "b1ab047661545e4c20c7d30941dbc10c", "rental_uris": {"android": "https://dc.lft.to/lastmile_qr_scan", "ios": "https://dc.lft.to/lastmile_qr_scan"}, "lat": 38.90744333333333, "bike_id": "b1ab047661545e4c20c7d30941dbc10c", "is_disabled": 0, "lon": -77.0153485, "is_reserved": 0, "fusion_lat": 0.0, "type": "electric_scooter"}, {"fusion_lon": 0.0, "name": "e774b6c4d963ea0169b55faf805d179e", "rental_uris": {"android": "https://dc.lft.to/lastmile_qr_scan", "ios": "https://dc.lft.to/lastmile_qr_scan"}, "lat": 38.926516666666664, "bike_id": "e774b6c4d963ea0169b55faf805d179e", "is_disabled": 0, "lon": -77.03844433333333, "is_reserved": 0, "fusion_lat": 0.0, "type": "electric_scooter"}, {"fusion_lon": 0.0, "name": "66231148dfdf91ff4c2c4daf61ec8477", "rental_uris": {"android": "https://dc.lft.to/lastmile_qr_scan", "ios": "https://dc.lft.to/lastmile_qr_scan"}, "lat": 38.90134166666667, "bike_id": "66231148dfdf91ff4c2c4daf61ec8477", "is_disabled": 0, "lon": -77.03392866666667, "is_reserved": 0, "fusion_lat": 0.0, "type": "electric_scooter"}, {"fusion_lon": 0.0, "name": "173d04ca18163a76c273153927ae7623", "rental_uris": {"android": "https://dc.lft.to/lastmile_qr_scan", "ios": "https://dc.lft.to/lastmile_qr_scan"}, "lat": 38.9228085, "bike_id": "173d04ca18163a76c273153927ae7623", "is_disabled": 0, "lon": -77.042342, "is_reserved": 0, "fusion_lat": 0.0, "type": "electric_scooter"}, {"fusion_lon": 0.0, "name": "ffb7cc4b30df33cdb7f3bed13bb6ac22", "rental_uris": {"android": "https://dc.lft.to/lastmile_qr_scan", "ios": "https://dc.lft.to/lastmile_qr_scan"}, "lat": 38.842823833333334, "bike_id": "ffb7cc4b30df33cdb7f3bed13bb6ac22", "is_disabled": 0, "lon": -76.988419, "is_reserved": 0, "fusion_lat": 0.0, "type": "electric_bike"}, {"fusion_lon": 0.0, "name": "1ee76fb97354b76076ff4aaf697b53e8", "rental_uris": {"android": "https://dc.lft.to/lastmile_qr_scan", "ios": "https://dc.lft.to/lastmile_qr_scan"}, "lat": 38.91685366666667, "bike_id": "1ee76fb97354b76076ff4aaf697b53e8", "is_disabled": 0, "lon": -77.02694783333334, "is_reserved": 0, "fusion_lat": 0.0, "type": "electric_scooter"}, {"fusion_lon": 0.0, "name": "d719e7a77004d3005235d729a59d7c07", "rental_uris": {"android": "https://dc.lft.to/lastmile_qr_scan", "ios": "https://dc.lft.to/lastmile_qr_scan"}, "lat": 38.9447475, "bike_id": "d719e7a77004d3005235d729a59d7c07", "is_disabled": 0, "lon": -76.98690566666667, "is_reserved": 0, "fusion_lat": 0.0, "type": "electric_bike"}, {"fusion_lon": 0.0, "name": "c6c9d06234294e08203b83e692da856f", "rental_uris": {"android": "https://dc.lft.to/lastmile_qr_scan", "ios": "https://dc.lft.to/lastmile_qr_scan"}, "lat": 38.9084015, "bike_id": "c6c9d06234294e08203b83e692da856f", "is_disabled": 0, "lon": -77.0007655, "is_reserved": 0, "fusion_lat": 0.0, "type": "electric_scooter"}, {"fusion_lon": 0.0, "name": "4061b087a73c9c4babf5f8bdb37dd6aa", "rental_uris": {"android": "https://dc.lft.to/lastmile_qr_scan", "ios": "https://dc.lft.to/lastmile_qr_scan"}, "lat": 38.9289835, "bike_id": "4061b087a73c9c4babf5f8bdb37dd6aa", "is_disabled": 0, "lon": -77.02402016666667, "is_reserved": 0, "fusion_lat": 0.0, "type": "electric_bike"}, {"fusion_lon": 0.0, "name": "a045df029ed3b3539bffa131e59cfb9a", "rental_uris": {"android": "https://dc.lft.to/lastmile_qr_scan", "ios": "https://dc.lft.to/lastmile_qr_scan"}, "lat": 38.92252466666667, "bike_id": "a045df029ed3b3539bffa131e59cfb9a", "is_disabled": 0, "lon": -77.03706716666667, "is_reserved": 0, "fusion_lat": 0.0, "type": "electric_scooter"}, {"fusion_lon": 0.0, "name": "ee1273cd7a999773471c57c80a84b09f", "rental_uris": {"android": "https://dc.lft.to/lastmile_qr_scan", "ios": "https://dc.lft.to/lastmile_qr_scan"}, "lat": 38.936293, "bike_id": "ee1273cd7a999773471c57c80a84b09f", "is_disabled": 0, "lon": -77.03657566666666, "is_reserved": 0, "fusion_lat": 0.0, "type": "electric_scooter"}, {"fusion_lon": 0.0, "name": "8f2f12a913c94dac2470b224783eccaf", "rental_uris": {"android": "https://dc.lft.to/lastmile_qr_scan", "ios": "https://dc.lft.to/lastmile_qr_scan"}, "lat": 38.92751166666667, "bike_id": "8f2f12a913c94dac2470b224783eccaf", "is_disabled": 0, "lon": -77.02964266666666, "is_reserved": 0, "fusion_lat": 0.0, "type": "electric_scooter"}, {"fusion_lon": 0.0, "name": "20d65f5d7ff0970779217c2ffcf2e6fd", "rental_uris": {"android": "https://dc.lft.to/lastmile_qr_scan", "ios": "https://dc.lft.to/lastmile_qr_scan"}, "lat": 38.905801333333336, "bike_id": "20d65f5d7ff0970779217c2ffcf2e6fd", "is_disabled": 0, "lon": -77.0307535, "is_reserved": 0, "fusion_lat": 0.0, "type": "electric_scooter"}, {"fusion_lon": 0.0, "name": "ce1272a06a3ba60c62fb516ebc8d7955", "rental_uris": {"android": "https://dc.lft.to/lastmile_qr_scan", "ios": "https://dc.lft.to/lastmile_qr_scan"}, "lat": 38.89283866666667, "bike_id": "ce1272a06a3ba60c62fb516ebc8d7955", "is_disabled": 0, "lon": -77.05043466666666, "is_reserved": 0, "fusion_lat": 0.0, "type": "electric_bike"}, {"fusion_lon": 0.0, "name": "d90947a942cea2e77bcd6090cf3c92c0", "rental_uris": {"android": "https://dc.lft.to/lastmile_qr_scan", "ios": "https://dc.lft.to/lastmile_qr_scan"}, "lat": 38.92813133333333, "bike_id": "d90947a942cea2e77bcd6090cf3c92c0", "is_disabled": 0, "lon": -77.01952483333334, "is_reserved": 0, "fusion_lat": 0.0, "type": "electric_scooter"}, {"fusion_lon": 0.0, "name": "bf7ed9a714a5c1ee929887bc2922399b", "rental_uris": {"android": "https://dc.lft.to/lastmile_qr_scan", "ios": "https://dc.lft.to/lastmile_qr_scan"}, "lat": 38.91914216666667, "bike_id": "bf7ed9a714a5c1ee929887bc2922399b", "is_disabled": 0, "lon": -77.04468416666667, "is_reserved": 0, "fusion_lat": 0.0, "type": "electric_scooter"}, {"fusion_lon": 0.0, "name": "b971b3ffeb0847846ad7be39d273ea68", "rental_uris": {"android": "https://dc.lft.to/lastmile_qr_scan", "ios": "https://dc.lft.to/lastmile_qr_scan"}, "lat": 38.88731766666667, "bike_id": "b971b3ffeb0847846ad7be39d273ea68", "is_disabled": 0, "lon": -77.01344716666667, "is_reserved": 0, "fusion_lat": 0.0, "type": "electric_scooter"}, {"fusion_lon": 0.0, "name": "0208c06160a040da52f171ad2c71d721", "rental_uris": {"android": "https://dc.lft.to/lastmile_qr_scan", "ios": "https://dc.lft.to/lastmile_qr_scan"}, "lat": 38.90074416666667, "bike_id": "0208c06160a040da52f171ad2c71d721", "is_disabled": 0, "lon": -77.04877733333333, "is_reserved": 0, "fusion_lat": 0.0, "type": "electric_scooter"}, {"fusion_lon": 0.0, "name": "ce4b8c424bde45803147d01ba771a433", "rental_uris": {"android": "https://dc.lft.to/lastmile_qr_scan", "ios": "https://dc.lft.to/lastmile_qr_scan"}, "lat": 38.90345633333333, "bike_id": "ce4b8c424bde45803147d01ba771a433", "is_disabled": 0, "lon": -77.01903266666666, "is_reserved": 0, "fusion_lat": 0.0, "type": "electric_scooter"}, {"fusion_lon": 0.0, "name": "bce31feae28bbf29bffaa6473c209679", "rental_uris": {"android": "https://dc.lft.to/lastmile_qr_scan", "ios": "https://dc.lft.to/lastmile_qr_scan"}, "lat": 38.8987705, "bike_id": "bce31feae28bbf29bffaa6473c209679", "is_disabled": 0, "lon": -77.02967783333334, "is_reserved": 0, "fusion_lat": 0.0, "type": "electric_scooter"}, {"fusion_lon": 0.0, "name": "510b09886be1e6a1deb35f20f8fb6751", "rental_uris": {"android": "https://dc.lft.to/lastmile_qr_scan", "ios": "https://dc.lft.to/lastmile_qr_scan"}, "lat": 38.901442333333335, "bike_id": "510b09886be1e6a1deb35f20f8fb6751", "is_disabled": 0, "lon": -76.98969233333334, "is_reserved": 0, "fusion_lat": 0.0, "type": "electric_scooter"}, {"fusion_lon": 0.0, "name": "8f75a56e62ccd72c0fb64171570d5511", "rental_uris": {"android": "https://dc.lft.to/lastmile_qr_scan", "ios": "https://dc.lft.to/lastmile_qr_scan"}, "lat": 38.91628766666667, "bike_id": "8f75a56e62ccd72c0fb64171570d5511", "is_disabled": 0, "lon": -77.035025, "is_reserved": 0, "fusion_lat": 0.0, "type": "electric_scooter"}, {"fusion_lon": 0.0, "name": "6cdbd9533ac1696da69e2475a8ef3418", "rental_uris": {"android": "https://dc.lft.to/lastmile_qr_scan", "ios": "https://dc.lft.to/lastmile_qr_scan"}, "lat": 38.89459566666667, "bike_id": "6cdbd9533ac1696da69e2475a8ef3418", "is_disabled": 0, "lon": -77.1913295, "is_reserved": 0, "fusion_lat": 0.0, "type": "electric_bike"}, {"fusion_lon": 0.0, "name": "88046830d20cd8cb4089efe280df7cb7", "rental_uris": {"android": "https://dc.lft.to/lastmile_qr_scan", "ios": "https://dc.lft.to/lastmile_qr_scan"}, "lat": 38.88991216666667, "bike_id": "88046830d20cd8cb4089efe280df7cb7", "is_disabled": 0, "lon": -76.92107883333334, "is_reserved": 0, "fusion_lat": 0.0, "type": "electric_scooter"}, {"fusion_lon": 0.0, "name": "67add9cc710d701c6b26345d4794aeba", "rental_uris": {"android": "https://dc.lft.to/lastmile_qr_scan", "ios": "https://dc.lft.to/lastmile_qr_scan"}, "lat": 38.89886516666667, "bike_id": "67add9cc710d701c6b26345d4794aeba", "is_disabled": 0, "lon": -76.93175666666667, "is_reserved": 0, "fusion_lat": 0.0, "type": "electric_scooter"}, {"fusion_lon": 0.0, "name": "22764c2172d9bed1f262150754aa0b54", "rental_uris": {"android": "https://dc.lft.to/lastmile_qr_scan", "ios": "https://dc.lft.to/lastmile_qr_scan"}, "lat": 38.92639366666667, "bike_id": "22764c2172d9bed1f262150754aa0b54", "is_disabled": 0, "lon": -77.03717566666667, "is_reserved": 0, "fusion_lat": 0.0, "type": "electric_scooter"}, {"fusion_lon": 0.0, "name": "892a3f0e8545f78f8c684f7b421c9373", "rental_uris": {"android": "https://dc.lft.to/lastmile_qr_scan", "ios": "https://dc.lft.to/lastmile_qr_scan"}, "lat": 38.878454166666664, "bike_id": "892a3f0e8545f78f8c684f7b421c9373", "is_disabled": 0, "lon": -77.0196815, "is_reserved": 0, "fusion_lat": 0.0, "type": "electric_scooter"}, {"fusion_lon": 0.0, "name": "a800a892aaf6a9126844d913b655d2b3", "rental_uris": {"android": "https://dc.lft.to/lastmile_qr_scan", "ios": "https://dc.lft.to/lastmile_qr_scan"}, "lat": 38.90689416666667, "bike_id": "a800a892aaf6a9126844d913b655d2b3", "is_disabled": 0, "lon": -77.04884366666667, "is_reserved": 0, "fusion_lat": 0.0, "type": "electric_scooter"}, {"fusion_lon": 0.0, "name": "fcf98adac83db4cbd0361c9ee3d5d8bb", "rental_uris": {"android": "https://dc.lft.to/lastmile_qr_scan", "ios": "https://dc.lft.to/lastmile_qr_scan"}, "lat": 38.92272116666667, "bike_id": "fcf98adac83db4cbd0361c9ee3d5d8bb", "is_disabled": 0, "lon": -77.029608, "is_reserved": 0, "fusion_lat": 0.0, "type": "electric_scooter"}, {"fusion_lon": 0.0, "name": "64244f1e514e7cf2d37bd12264968c57", "rental_uris": {"android": "https://dc.lft.to/lastmile_qr_scan", "ios": "https://dc.lft.to/lastmile_qr_scan"}, "lat": 38.923576, "bike_id": "64244f1e514e7cf2d37bd12264968c57", "is_disabled": 0, "lon": -77.05034, "is_reserved": 0, "fusion_lat": 0.0, "type": "electric_scooter"}, {"fusion_lon": 0.0, "name": "f3dc3f1386a0930143779aa36f486b1d", "rental_uris": {"android": "https://dc.lft.to/lastmile_qr_scan", "ios": "https://dc.lft.to/lastmile_qr_scan"}, "lat": 38.8919845, "bike_id": "f3dc3f1386a0930143779aa36f486b1d", "is_disabled": 0, "lon": -76.99382, "is_reserved": 0, "fusion_lat": 0.0, "type": "electric_scooter"}, {"fusion_lon": 0.0, "name": "bf704f5904502ad62194246051ecadc2", "rental_uris": {"android": "https://dc.lft.to/lastmile_qr_scan", "ios": "https://dc.lft.to/lastmile_qr_scan"}, "lat": 38.9106, "bike_id": "bf704f5904502ad62194246051ecadc2", "is_disabled": 0, "lon": -77.05324766666666, "is_reserved": 0, "fusion_lat": 0.0, "type": "electric_scooter"}, {"fusion_lon": 0.0, "name": "056d54267d6139557f3edf6235f855a8", "rental_uris": {"android": "https://dc.lft.to/lastmile_qr_scan", "ios": "https://dc.lft.to/lastmile_qr_scan"}, "lat": 38.9330955, "bike_id": "056d54267d6139557f3edf6235f855a8", "is_disabled": 0, "lon": -77.03259833333334, "is_reserved": 0, "fusion_lat": 0.0, "type": "electric_scooter"}, {"fusion_lon": 0.0, "name": "c011e49f687c254c9f2285aa75926c2f", "rental_uris": {"android": "https://dc.lft.to/lastmile_qr_scan", "ios": "https://dc.lft.to/lastmile_qr_scan"}, "lat": 38.897822166666664, "bike_id": "c011e49f687c254c9f2285aa75926c2f", "is_disabled": 0, "lon": -77.05011883333333, "is_reserved": 0, "fusion_lat": 0.0, "type": "electric_scooter"}, {"fusion_lon": 0.0, "name": "71944c828c6d9b583edfa1a31226927f", "rental_uris": {"android": "https://dc.lft.to/lastmile_qr_scan", "ios": "https://dc.lft.to/lastmile_qr_scan"}, "lat": 38.90381766666667, "bike_id": "71944c828c6d9b583edfa1a31226927f", "is_disabled": 0, "lon": -77.01629783333334, "is_reserved": 0, "fusion_lat": 0.0, "type": "electric_scooter"}, {"fusion_lon": 0.0, "name": "9b8c6f74b2476055b79a73b2f7ea169d", "rental_uris": {"android": "https://dc.lft.to/lastmile_qr_scan", "ios": "https://dc.lft.to/lastmile_qr_scan"}, "lat": 38.89627016666667, "bike_id": "9b8c6f74b2476055b79a73b2f7ea169d", "is_disabled": 0, "lon": -77.0320795, "is_reserved": 0, "fusion_lat": 0.0, "type": "electric_scooter"}, {"fusion_lon": 0.0, "name": "accad9ae90c41d9ffa2ef008e9d2d1cd", "rental_uris": {"android": "https://dc.lft.to/lastmile_qr_scan", "ios": "https://dc.lft.to/lastmile_qr_scan"}, "lat": 38.94347616666667, "bike_id": "accad9ae90c41d9ffa2ef008e9d2d1cd", "is_disabled": 0, "lon": -77.061383, "is_reserved": 0, "fusion_lat": 0.0, "type": "electric_scooter"}, {"fusion_lon": 0.0, "name": "002d2e98716e02249b4c52a0b666a7a5", "rental_uris": {"android": "https://dc.lft.to/lastmile_qr_scan", "ios": "https://dc.lft.to/lastmile_qr_scan"}, "lat": 38.92359183333333, "bike_id": "002d2e98716e02249b4c52a0b666a7a5", "is_disabled": 0, "lon": -77.05135183333333, "is_reserved": 0, "fusion_lat": 0.0, "type": "electric_scooter"}, {"fusion_lon": 0.0, "name": "3b88ed4ae224937b7eab851a06492334", "rental_uris": {"android": "https://dc.lft.to/lastmile_qr_scan", "ios": "https://dc.lft.to/lastmile_qr_scan"}, "lat": 38.893128833333336, "bike_id": "3b88ed4ae224937b7eab851a06492334", "is_disabled": 0, "lon": -76.939695, "is_reserved": 0, "fusion_lat": 0.0, "type": "electric_scooter"}, {"fusion_lon": 0.0, "name": "9f84f7ed0531a7948e42514fa11dcbb6", "rental_uris": {"android": "https://dc.lft.to/lastmile_qr_scan", "ios": "https://dc.lft.to/lastmile_qr_scan"}, "lat": 38.89493383333333, "bike_id": "9f84f7ed0531a7948e42514fa11dcbb6", "is_disabled": 0, "lon": -76.94893, "is_reserved": 0, "fusion_lat": 0.0, "type": "electric_scooter"}, {"fusion_lon": 0.0, "name": "9b524e26f7d722eee037473c7702b015", "rental_uris": {"android": "https://dc.lft.to/lastmile_qr_scan", "ios": "https://dc.lft.to/lastmile_qr_scan"}, "lat": 38.847581166666664, "bike_id": "9b524e26f7d722eee037473c7702b015", "is_disabled": 0, "lon": -77.05376166666667, "is_reserved": 0, "fusion_lat": 0.0, "type": "electric_bike"}, {"fusion_lon": 0.0, "name": "7457d37e4396f10393b6e79e6a1c6b77", "rental_uris": {"android": "https://dc.lft.to/lastmile_qr_scan", "ios": "https://dc.lft.to/lastmile_qr_scan"}, "lat": 38.875301666666665, "bike_id": "7457d37e4396f10393b6e79e6a1c6b77", "is_disabled": 0, "lon": -77.0175155, "is_reserved": 0, "fusion_lat": 0.0, "type": "electric_scooter"}, {"fusion_lon": 0.0, "name": "75c3091afbbc82556f1f556725392835", "rental_uris": {"android": "https://dc.lft.to/lastmile_qr_scan", "ios": "https://dc.lft.to/lastmile_qr_scan"}, "lat": 38.8904435, "bike_id": "75c3091afbbc82556f1f556725392835", "is_disabled": 0, "lon": -76.99012666666667, "is_reserved": 0, "fusion_lat": 0.0, "type": "electric_scooter"}, {"fusion_lon": 0.0, "name": "e0254ec6c99b5a77e27ac508f181ce36", "rental_uris": {"android": "https://dc.lft.to/lastmile_qr_scan", "ios": "https://dc.lft.to/lastmile_qr_scan"}, "lat": 38.91060483333333, "bike_id": "e0254ec6c99b5a77e27ac508f181ce36", "is_disabled": 0, "lon": -77.0460725, "is_reserved": 0, "fusion_lat": 0.0, "type": "electric_scooter"}, {"fusion_lon": 0.0, "name": "29c843ebb4cccb6421899f5994a17668", "rental_uris": {"android": "https://dc.lft.to/lastmile_qr_scan", "ios": "https://dc.lft.to/lastmile_qr_scan"}, "lat": 38.905683, "bike_id": "29c843ebb4cccb6421899f5994a17668", "is_disabled": 0, "lon": -77.0059165, "is_reserved": 0, "fusion_lat": 0.0, "type": "electric_scooter"}, {"fusion_lon": 0.0, "name": "1981d887e080bba6c9ac2306f7cda520", "rental_uris": {"android": "https://dc.lft.to/lastmile_qr_scan", "ios": "https://dc.lft.to/lastmile_qr_scan"}, "lat": 38.8960645, "bike_id": "1981d887e080bba6c9ac2306f7cda520", "is_disabled": 0, "lon": -77.00926633333333, "is_reserved": 0, "fusion_lat": 0.0, "type": "electric_scooter"}, {"fusion_lon": 0.0, "name": "9393e2602ee2e91214da74c9970db46d", "rental_uris": {"android": "https://dc.lft.to/lastmile_qr_scan", "ios": "https://dc.lft.to/lastmile_qr_scan"}, "lat": 38.90248883333334, "bike_id": "9393e2602ee2e91214da74c9970db46d", "is_disabled": 0, "lon": -77.03161733333333, "is_reserved": 0, "fusion_lat": 0.0, "type": "electric_scooter"}, {"fusion_lon": 0.0, "name": "9d0a0a69460f3a9771ba46841f51ca15", "rental_uris": {"android": "https://dc.lft.to/lastmile_qr_scan", "ios": "https://dc.lft.to/lastmile_qr_scan"}, "lat": 38.90183366666667, "bike_id": "9d0a0a69460f3a9771ba46841f51ca15", "is_disabled": 0, "lon": -76.930091, "is_reserved": 0, "fusion_lat": 0.0, "type": "electric_scooter"}, {"fusion_lon": 0.0, "name": "534c90d518b047513e7b17d9dcfee718", "rental_uris": {"android": "https://dc.lft.to/lastmile_qr_scan", "ios": "https://dc.lft.to/lastmile_qr_scan"}, "lat": 38.92155416666667, "bike_id": "534c90d518b047513e7b17d9dcfee718", "is_disabled": 0, "lon": -77.03362316666667, "is_reserved": 0, "fusion_lat": 0.0, "type": "electric_scooter"}, {"fusion_lon": 0.0, "name": "21f0b357cd587b4e5290d0f2378b1533", "rental_uris": {"android": "https://dc.lft.to/lastmile_qr_scan", "ios": "https://dc.lft.to/lastmile_qr_scan"}, "lat": 38.91213166666667, "bike_id": "21f0b357cd587b4e5290d0f2378b1533", "is_disabled": 0, "lon": -77.0466985, "is_reserved": 0, "fusion_lat": 0.0, "type": "electric_scooter"}, {"fusion_lon": 0.0, "name": "01cb782c41d9949d63930898753e9116", "rental_uris": {"android": "https://dc.lft.to/lastmile_qr_scan", "ios": "https://dc.lft.to/lastmile_qr_scan"}, "lat": 38.924113, "bike_id": "01cb782c41d9949d63930898753e9116", "is_disabled": 0, "lon": -77.02369666666667, "is_reserved": 0, "fusion_lat": 0.0, "type": "electric_scooter"}, {"fusion_lon": 0.0, "name": "3cb1676ef1371ae22dccc8b950cf0987", "rental_uris": {"android": "https://dc.lft.to/lastmile_qr_scan", "ios": "https://dc.lft.to/lastmile_qr_scan"}, "lat": 38.903523166666666, "bike_id": "3cb1676ef1371ae22dccc8b950cf0987", "is_disabled": 0, "lon": -77.02532966666666, "is_reserved": 0, "fusion_lat": 0.0, "type": "electric_scooter"}, {"fusion_lon": 0.0, "name": "c9fe7396383cf35a8b7c6c769964688b", "rental_uris": {"android": "https://dc.lft.to/lastmile_qr_scan", "ios": "https://dc.lft.to/lastmile_qr_scan"}, "lat": 38.9361265, "bike_id": "c9fe7396383cf35a8b7c6c769964688b", "is_disabled": 0, "lon": -77.03667616666667, "is_reserved": 0, "fusion_lat": 0.0, "type": "electric_scooter"}, {"fusion_lon": 0.0, "name": "38c4291a585c59d5241f2b5544cfcffe", "rental_uris": {"android": "https://dc.lft.to/lastmile_qr_scan", "ios": "https://dc.lft.to/lastmile_qr_scan"}, "lat": 38.913268, "bike_id": "38c4291a585c59d5241f2b5544cfcffe", "is_disabled": 0, "lon": -77.044767, "is_reserved": 0, "fusion_lat": 0.0, "type": "electric_scooter"}, {"fusion_lon": 0.0, "name": "1e02efe7ced502f6a0de4d9ad8145678", "rental_uris": {"android": "https://dc.lft.to/lastmile_qr_scan", "ios": "https://dc.lft.to/lastmile_qr_scan"}, "lat": 38.907334666666664, "bike_id": "1e02efe7ced502f6a0de4d9ad8145678", "is_disabled": 0, "lon": -77.03204233333334, "is_reserved": 0, "fusion_lat": 0.0, "type": "electric_scooter"}, {"fusion_lon": 0.0, "name": "d86f81c441bd215f7bf4b0dcfa66f068", "rental_uris": {"android": "https://dc.lft.to/lastmile_qr_scan", "ios": "https://dc.lft.to/lastmile_qr_scan"}, "lat": 38.86569133333333, "bike_id": "d86f81c441bd215f7bf4b0dcfa66f068", "is_disabled": 0, "lon": -76.9784125, "is_reserved": 0, "fusion_lat": 0.0, "type": "electric_scooter"}, {"fusion_lon": 0.0, "name": "c8edd0cacd941b55115559cc0dcd4980", "rental_uris": {"android": "https://dc.lft.to/lastmile_qr_scan", "ios": "https://dc.lft.to/lastmile_qr_scan"}, "lat": 38.95605716666667, "bike_id": "c8edd0cacd941b55115559cc0dcd4980", "is_disabled": 0, "lon": -76.96477816666666, "is_reserved": 0, "fusion_lat": 0.0, "type": "electric_bike"}, {"fusion_lon": 0.0, "name": "38ef3dd1d55a95feab6a1b94112066b4", "rental_uris": {"android": "https://dc.lft.to/lastmile_qr_scan", "ios": "https://dc.lft.to/lastmile_qr_scan"}, "lat": 38.92444166666667, "bike_id": "38ef3dd1d55a95feab6a1b94112066b4", "is_disabled": 0, "lon": -77.040236, "is_reserved": 0, "fusion_lat": 0.0, "type": "electric_scooter"}, {"fusion_lon": 0.0, "name": "220b97af9358ccf18d4f8054779a216a", "rental_uris": {"android": "https://dc.lft.to/lastmile_qr_scan", "ios": "https://dc.lft.to/lastmile_qr_scan"}, "lat": 38.931030666666665, "bike_id": "220b97af9358ccf18d4f8054779a216a", "is_disabled": 0, "lon": -77.024761, "is_reserved": 0, "fusion_lat": 0.0, "type": "electric_scooter"}, {"fusion_lon": 0.0, "name": "b12131511f43c9bbe1f8101af2c32c19", "rental_uris": {"android": "https://dc.lft.to/lastmile_qr_scan", "ios": "https://dc.lft.to/lastmile_qr_scan"}, "lat": 38.897380166666665, "bike_id": "b12131511f43c9bbe1f8101af2c32c19", "is_disabled": 0, "lon": -77.02482516666667, "is_reserved": 0, "fusion_lat": 0.0, "type": "electric_scooter"}, {"fusion_lon": 0.0, "name": "74da02b9969afc54622674c0b840afd4", "rental_uris": {"android": "https://dc.lft.to/lastmile_qr_scan", "ios": "https://dc.lft.to/lastmile_qr_scan"}, "lat": 38.9155585, "bike_id": "74da02b9969afc54622674c0b840afd4", "is_disabled": 0, "lon": -77.03517333333333, "is_reserved": 0, "fusion_lat": 0.0, "type": "electric_scooter"}, {"fusion_lon": 0.0, "name": "3519da2fa110087f576b0e3f6ec0ff95", "rental_uris": {"android": "https://dc.lft.to/lastmile_qr_scan", "ios": "https://dc.lft.to/lastmile_qr_scan"}, "lat": 38.935433, "bike_id": "3519da2fa110087f576b0e3f6ec0ff95", "is_disabled": 0, "lon": -77.072997, "is_reserved": 0, "fusion_lat": 0.0, "type": "electric_scooter"}, {"fusion_lon": 0.0, "name": "e47a28796493784830663add8d8af5e9", "rental_uris": {"android": "https://dc.lft.to/lastmile_qr_scan", "ios": "https://dc.lft.to/lastmile_qr_scan"}, "lat": 38.8862445, "bike_id": "e47a28796493784830663add8d8af5e9", "is_disabled": 0, "lon": -77.03216533333334, "is_reserved": 0, "fusion_lat": 0.0, "type": "electric_scooter"}, {"fusion_lon": 0.0, "name": "d17ce21cf5fab29b2de960d9607d3789", "rental_uris": {"android": "https://dc.lft.to/lastmile_qr_scan", "ios": "https://dc.lft.to/lastmile_qr_scan"}, "lat": 38.90748766666667, "bike_id": "d17ce21cf5fab29b2de960d9607d3789", "is_disabled": 0, "lon": -76.98352266666667, "is_reserved": 0, "fusion_lat": 0.0, "type": "electric_scooter"}, {"fusion_lon": 0.0, "name": "bc4331101823eaa3bbe15ae6cc7c0549", "rental_uris": {"android": "https://dc.lft.to/lastmile_qr_scan", "ios": "https://dc.lft.to/lastmile_qr_scan"}, "lat": 38.8890385, "bike_id": "bc4331101823eaa3bbe15ae6cc7c0549", "is_disabled": 0, "lon": -76.952232, "is_reserved": 0, "fusion_lat": 0.0, "type": "electric_scooter"}, {"fusion_lon": 0.0, "name": "6d39c0f738e1d7275da8eca5d5034297", "rental_uris": {"android": "https://dc.lft.to/lastmile_qr_scan", "ios": "https://dc.lft.to/lastmile_qr_scan"}, "lat": 38.901386, "bike_id": "6d39c0f738e1d7275da8eca5d5034297", "is_disabled": 0, "lon": -76.9896785, "is_reserved": 0, "fusion_lat": 0.0, "type": "electric_scooter"}, {"fusion_lon": 0.0, "name": "0731002b2ab6a1c485444e016853dbd0", "rental_uris": {"android": "https://dc.lft.to/lastmile_qr_scan", "ios": "https://dc.lft.to/lastmile_qr_scan"}, "lat": 38.87435883333333, "bike_id": "0731002b2ab6a1c485444e016853dbd0", "is_disabled": 0, "lon": -77.000537, "is_reserved": 0, "fusion_lat": 0.0, "type": "electric_scooter"}, {"fusion_lon": 0.0, "name": "31744ecf806417686b3f8a619c11e46d", "rental_uris": {"android": "https://dc.lft.to/lastmile_qr_scan", "ios": "https://dc.lft.to/lastmile_qr_scan"}, "lat": 38.924332666666665, "bike_id": "31744ecf806417686b3f8a619c11e46d", "is_disabled": 0, "lon": -77.00318916666667, "is_reserved": 0, "fusion_lat": 0.0, "type": "electric_scooter"}, {"fusion_lon": 0.0, "name": "ca36aa3e3e843c27cec3cf83445c50f2", "rental_uris": {"android": "https://dc.lft.to/lastmile_qr_scan", "ios": "https://dc.lft.to/lastmile_qr_scan"}, "lat": 38.86346283333334, "bike_id": "ca36aa3e3e843c27cec3cf83445c50f2", "is_disabled": 0, "lon": -76.98699116666667, "is_reserved": 0, "fusion_lat": 0.0, "type": "electric_scooter"}, {"fusion_lon": 0.0, "name": "45f74b05e714466703621ab328aa690d", "rental_uris": {"android": "https://dc.lft.to/lastmile_qr_scan", "ios": "https://dc.lft.to/lastmile_qr_scan"}, "lat": 38.863822166666665, "bike_id": "45f74b05e714466703621ab328aa690d", "is_disabled": 0, "lon": -76.98813116666666, "is_reserved": 0, "fusion_lat": 0.0, "type": "electric_scooter"}, {"fusion_lon": 0.0, "name": "52cb187800952dcf17686938d83686c1", "rental_uris": {"android": "https://dc.lft.to/lastmile_qr_scan", "ios": "https://dc.lft.to/lastmile_qr_scan"}, "lat": 38.87937933333333, "bike_id": "52cb187800952dcf17686938d83686c1", "is_disabled": 0, "lon": -77.017166, "is_reserved": 0, "fusion_lat": 0.0, "type": "electric_scooter"}, {"fusion_lon": 0.0, "name": "04b61c789c51cac910527d25a80fc6df", "rental_uris": {"android": "https://dc.lft.to/lastmile_qr_scan", "ios": "https://dc.lft.to/lastmile_qr_scan"}, "lat": 38.8982785, "bike_id": "04b61c789c51cac910527d25a80fc6df", "is_disabled": 0, "lon": -76.93008433333333, "is_reserved": 0, "fusion_lat": 0.0, "type": "electric_scooter"}, {"fusion_lon": 0.0, "name": "870678e757079dcf693810cddbb53cc1", "rental_uris": {"android": "https://dc.lft.to/lastmile_qr_scan", "ios": "https://dc.lft.to/lastmile_qr_scan"}, "lat": 38.835893, "bike_id": "870678e757079dcf693810cddbb53cc1", "is_disabled": 0, "lon": -76.99026016666667, "is_reserved": 0, "fusion_lat": 0.0, "type": "electric_bike"}, {"fusion_lon": 0.0, "name": "8b772c96ad9754b950a6fdd5108cc348", "rental_uris": {"android": "https://dc.lft.to/lastmile_qr_scan", "ios": "https://dc.lft.to/lastmile_qr_scan"}, "lat": 38.8962235, "bike_id": "8b772c96ad9754b950a6fdd5108cc348", "is_disabled": 0, "lon": -76.99412466666666, "is_reserved": 0, "fusion_lat": 0.0, "type": "electric_scooter"}, {"fusion_lon": 0.0, "name": "d08944006630a51c1339fda71c4a44a4", "rental_uris": {"android": "https://dc.lft.to/lastmile_qr_scan", "ios": "https://dc.lft.to/lastmile_qr_scan"}, "lat": 38.934762, "bike_id": "d08944006630a51c1339fda71c4a44a4", "is_disabled": 0, "lon": -77.086607, "is_reserved": 0, "fusion_lat": 0.0, "type": "electric_scooter"}, {"fusion_lon": 0.0, "name": "a6bd6540fed140d144d9b6958555a29e", "rental_uris": {"android": "https://dc.lft.to/lastmile_qr_scan", "ios": "https://dc.lft.to/lastmile_qr_scan"}, "lat": 38.9078485, "bike_id": "a6bd6540fed140d144d9b6958555a29e", "is_disabled": 0, "lon": -77.03521016666667, "is_reserved": 0, "fusion_lat": 0.0, "type": "electric_scooter"}, {"fusion_lon": 0.0, "name": "b1bee29d19aa5c0bf8578e8780beebcc", "rental_uris": {"android": "https://dc.lft.to/lastmile_qr_scan", "ios": "https://dc.lft.to/lastmile_qr_scan"}, "lat": 38.892225833333335, "bike_id": "b1bee29d19aa5c0bf8578e8780beebcc", "is_disabled": 0, "lon": -77.01399766666667, "is_reserved": 0, "fusion_lat": 0.0, "type": "electric_scooter"}, {"fusion_lon": 0.0, "name": "ebbccf731fffad1e40b8866b6486c997", "rental_uris": {"android": "https://dc.lft.to/lastmile_qr_scan", "ios": "https://dc.lft.to/lastmile_qr_scan"}, "lat": 38.893351833333334, "bike_id": "ebbccf731fffad1e40b8866b6486c997", "is_disabled": 0, "lon": -77.04869466666666, "is_reserved": 0, "fusion_lat": 0.0, "type": "electric_scooter"}, {"fusion_lon": 0.0, "name": "252010ab3d3d5ecdfef9a8a72fef26ce", "rental_uris": {"android": "https://dc.lft.to/lastmile_qr_scan", "ios": "https://dc.lft.to/lastmile_qr_scan"}, "lat": 38.8948045, "bike_id": "252010ab3d3d5ecdfef9a8a72fef26ce", "is_disabled": 0, "lon": -77.02084, "is_reserved": 0, "fusion_lat": 0.0, "type": "electric_scooter"}, {"fusion_lon": 0.0, "name": "3a4bfa37167a9b318147c018122eea12", "rental_uris": {"android": "https://dc.lft.to/lastmile_qr_scan", "ios": "https://dc.lft.to/lastmile_qr_scan"}, "lat": 38.892262333333335, "bike_id": "3a4bfa37167a9b318147c018122eea12", "is_disabled": 0, "lon": -77.04332866666667, "is_reserved": 0, "fusion_lat": 0.0, "type": "electric_scooter"}, {"fusion_lon": 0.0, "name": "87235156ed8e8995a55d82a140ad4ff6", "rental_uris": {"android": "https://dc.lft.to/lastmile_qr_scan", "ios": "https://dc.lft.to/lastmile_qr_scan"}, "lat": 38.903841, "bike_id": "87235156ed8e8995a55d82a140ad4ff6", "is_disabled": 0, "lon": -77.0164315, "is_reserved": 0, "fusion_lat": 0.0, "type": "electric_scooter"}, {"fusion_lon": 0.0, "name": "31b69938e55aa0dfb61761911ddf4fb2", "rental_uris": {"android": "https://dc.lft.to/lastmile_qr_scan", "ios": "https://dc.lft.to/lastmile_qr_scan"}, "lat": 38.9005665, "bike_id": "31b69938e55aa0dfb61761911ddf4fb2", "is_disabled": 0, "lon": -76.98490733333334, "is_reserved": 0, "fusion_lat": 0.0, "type": "electric_scooter"}, {"fusion_lon": 0.0, "name": "897f0e5e7f3f890915b212068daca215", "rental_uris": {"android": "https://dc.lft.to/lastmile_qr_scan", "ios": "https://dc.lft.to/lastmile_qr_scan"}, "lat": 38.90121883333333, "bike_id": "897f0e5e7f3f890915b212068daca215", "is_disabled": 0, "lon": -77.04662066666667, "is_reserved": 0, "fusion_lat": 0.0, "type": "electric_scooter"}, {"fusion_lon": 0.0, "name": "d794de4587ae6e0736ad9d36305c1c50", "rental_uris": {"android": "https://dc.lft.to/lastmile_qr_scan", "ios": "https://dc.lft.to/lastmile_qr_scan"}, "lat": 38.908959, "bike_id": "d794de4587ae6e0736ad9d36305c1c50", "is_disabled": 0, "lon": -77.022918, "is_reserved": 0, "fusion_lat": 0.0, "type": "electric_scooter"}, {"fusion_lon": 0.0, "name": "820b21a451291e3528f45398df0d6036", "rental_uris": {"android": "https://dc.lft.to/lastmile_qr_scan", "ios": "https://dc.lft.to/lastmile_qr_scan"}, "lat": 38.92058016666667, "bike_id": "820b21a451291e3528f45398df0d6036", "is_disabled": 0, "lon": -76.98434216666666, "is_reserved": 0, "fusion_lat": 0.0, "type": "electric_scooter"}, {"fusion_lon": 0.0, "name": "020a4b1056815ef90b8fed0077eb4d15", "rental_uris": {"android": "https://dc.lft.to/lastmile_qr_scan", "ios": "https://dc.lft.to/lastmile_qr_scan"}, "lat": 38.97339483333333, "bike_id": "020a4b1056815ef90b8fed0077eb4d15", "is_disabled": 0, "lon": -76.99612783333333, "is_reserved": 0, "fusion_lat": 0.0, "type": "electric_bike"}, {"fusion_lon": 0.0, "name": "9751bf25fb114f1400e3bbc44b8ffa2a", "rental_uris": {"android": "https://dc.lft.to/lastmile_qr_scan", "ios": "https://dc.lft.to/lastmile_qr_scan"}, "lat": 38.91114283333334, "bike_id": "9751bf25fb114f1400e3bbc44b8ffa2a", "is_disabled": 0, "lon": -77.00374983333333, "is_reserved": 0, "fusion_lat": 0.0, "type": "electric_scooter"}, {"fusion_lon": 0.0, "name": "f98111c7fea6b69125b1bc629c49014d", "rental_uris": {"android": "https://dc.lft.to/lastmile_qr_scan", "ios": "https://dc.lft.to/lastmile_qr_scan"}, "lat": 39.042377, "bike_id": "f98111c7fea6b69125b1bc629c49014d", "is_disabled": 0, "lon": -76.99731566666667, "is_reserved": 0, "fusion_lat": 0.0, "type": "electric_bike"}, {"fusion_lon": 0.0, "name": "e5bbddc1977e54c6be4b9b65516a536a", "rental_uris": {"android": "https://dc.lft.to/lastmile_qr_scan", "ios": "https://dc.lft.to/lastmile_qr_scan"}, "lat": 38.898123, "bike_id": "e5bbddc1977e54c6be4b9b65516a536a", "is_disabled": 0, "lon": -77.02484283333334, "is_reserved": 0, "fusion_lat": 0.0, "type": "electric_scooter"}, {"fusion_lon": 0.0, "name": "3d923885c522b26aa03ef2b4cd86624c", "rental_uris": {"android": "https://dc.lft.to/lastmile_qr_scan", "ios": "https://dc.lft.to/lastmile_qr_scan"}, "lat": 38.913293333333336, "bike_id": "3d923885c522b26aa03ef2b4cd86624c", "is_disabled": 0, "lon": -77.04533233333333, "is_reserved": 0, "fusion_lat": 0.0, "type": "electric_scooter"}, {"fusion_lon": 0.0, "name": "49403cd5e150a2990de2a64579d38127", "rental_uris": {"android": "https://dc.lft.to/lastmile_qr_scan", "ios": "https://dc.lft.to/lastmile_qr_scan"}, "lat": 38.858796, "bike_id": "49403cd5e150a2990de2a64579d38127", "is_disabled": 0, "lon": -76.99046133333333, "is_reserved": 0, "fusion_lat": 0.0, "type": "electric_scooter"}, {"fusion_lon": 0.0, "name": "8ddcb9733e09049baf201140de9c943e", "rental_uris": {"android": "https://dc.lft.to/lastmile_qr_scan", "ios": "https://dc.lft.to/lastmile_qr_scan"}, "lat": 38.91173366666666, "bike_id": "8ddcb9733e09049baf201140de9c943e", "is_disabled": 0, "lon": -77.04140583333333, "is_reserved": 0, "fusion_lat": 0.0, "type": "electric_scooter"}, {"fusion_lon": 0.0, "name": "b24a7f5253dd904417f24098a8d3689e", "rental_uris": {"android": "https://dc.lft.to/lastmile_qr_scan", "ios": "https://dc.lft.to/lastmile_qr_scan"}, "lat": 38.921207833333334, "bike_id": "b24a7f5253dd904417f24098a8d3689e", "is_disabled": 0, "lon": -77.03660533333333, "is_reserved": 0, "fusion_lat": 0.0, "type": "electric_scooter"}, {"fusion_lon": 0.0, "name": "b13c5be53bdcf00a9377c7fd2a7673a2", "rental_uris": {"android": "https://dc.lft.to/lastmile_qr_scan", "ios": "https://dc.lft.to/lastmile_qr_scan"}, "lat": 38.935104, "bike_id": "b13c5be53bdcf00a9377c7fd2a7673a2", "is_disabled": 0, "lon": -77.02010783333333, "is_reserved": 0, "fusion_lat": 0.0, "type": "electric_scooter"}, {"fusion_lon": 0.0, "name": "3fbf7e71331def29f13a421d5b75ffd2", "rental_uris": {"android": "https://dc.lft.to/lastmile_qr_scan", "ios": "https://dc.lft.to/lastmile_qr_scan"}, "lat": 38.929223, "bike_id": "3fbf7e71331def29f13a421d5b75ffd2", "is_disabled": 0, "lon": -76.99813066666667, "is_reserved": 0, "fusion_lat": 0.0, "type": "electric_scooter"}, {"fusion_lon": 0.0, "name": "7c5001137a44490b926e56d9d575a8ad", "rental_uris": {"android": "https://dc.lft.to/lastmile_qr_scan", "ios": "https://dc.lft.to/lastmile_qr_scan"}, "lat": 38.935548, "bike_id": "7c5001137a44490b926e56d9d575a8ad", "is_disabled": 0, "lon": -77.03480616666667, "is_reserved": 0, "fusion_lat": 0.0, "type": "electric_scooter"}, {"fusion_lon": 0.0, "name": "fbfceec7672bbb6ab7274b888fecf0fb", "rental_uris": {"android": "https://dc.lft.to/lastmile_qr_scan", "ios": "https://dc.lft.to/lastmile_qr_scan"}, "lat": 38.91924316666667, "bike_id": "fbfceec7672bbb6ab7274b888fecf0fb", "is_disabled": 0, "lon": -77.03419466666666, "is_reserved": 0, "fusion_lat": 0.0, "type": "electric_scooter"}, {"fusion_lon": 0.0, "name": "6dcc0bc3ab6406a69ccc7db5fecd2b4e", "rental_uris": {"android": "https://dc.lft.to/lastmile_qr_scan", "ios": "https://dc.lft.to/lastmile_qr_scan"}, "lat": 38.922697, "bike_id": "6dcc0bc3ab6406a69ccc7db5fecd2b4e", "is_disabled": 0, "lon": -77.01934966666667, "is_reserved": 0, "fusion_lat": 0.0, "type": "electric_scooter"}, {"fusion_lon": 0.0, "name": "1fb140f0d5c0dbdf6b7937cf439a465b", "rental_uris": {"android": "https://dc.lft.to/lastmile_qr_scan", "ios": "https://dc.lft.to/lastmile_qr_scan"}, "lat": 38.92248083333333, "bike_id": "1fb140f0d5c0dbdf6b7937cf439a465b", "is_disabled": 0, "lon": -77.04360833333334, "is_reserved": 0, "fusion_lat": 0.0, "type": "electric_scooter"}, {"fusion_lon": 0.0, "name": "f42638075bd63d55d05d52a57db31df5", "rental_uris": {"android": "https://dc.lft.to/lastmile_qr_scan", "ios": "https://dc.lft.to/lastmile_qr_scan"}, "lat": 38.900466, "bike_id": "f42638075bd63d55d05d52a57db31df5", "is_disabled": 0, "lon": -76.98557116666667, "is_reserved": 0, "fusion_lat": 0.0, "type": "electric_scooter"}, {"fusion_lon": 0.0, "name": "d82d5d1c93b03b59fef92e767c9a33d1", "rental_uris": {"android": "https://dc.lft.to/lastmile_qr_scan", "ios": "https://dc.lft.to/lastmile_qr_scan"}, "lat": 38.90075183333333, "bike_id": "d82d5d1c93b03b59fef92e767c9a33d1", "is_disabled": 0, "lon": -77.048844, "is_reserved": 0, "fusion_lat": 0.0, "type": "electric_scooter"}, {"fusion_lon": 0.0, "name": "649ec48ee81d74a6f63b9f8a96fc0992", "rental_uris": {"android": "https://dc.lft.to/lastmile_qr_scan", "ios": "https://dc.lft.to/lastmile_qr_scan"}, "lat": 38.9031825, "bike_id": "649ec48ee81d74a6f63b9f8a96fc0992", "is_disabled": 0, "lon": -77.01893533333333, "is_reserved": 0, "fusion_lat": 0.0, "type": "electric_scooter"}, {"fusion_lon": 0.0, "name": "dcd525bd9cc3d6089741d348c873ed5e", "rental_uris": {"android": "https://dc.lft.to/lastmile_qr_scan", "ios": "https://dc.lft.to/lastmile_qr_scan"}, "lat": 38.8966925, "bike_id": "dcd525bd9cc3d6089741d348c873ed5e", "is_disabled": 0, "lon": -77.04358933333333, "is_reserved": 0, "fusion_lat": 0.0, "type": "electric_scooter"}, {"fusion_lon": 0.0, "name": "c78718b4cf9117d56ec8e51d6f552d91", "rental_uris": {"android": "https://dc.lft.to/lastmile_qr_scan", "ios": "https://dc.lft.to/lastmile_qr_scan"},