{"data": {"bikes": [{"rental_uris": {"ios": "https://dc.lft.to/lastmile_qr_scan", "android": "https://dc.lft.to/lastmile_qr_scan"}, "lat": 38.91106816666667, "is_disabled": 0, "bike_id": "f906de73fcdd7c4be1dad2f19d19cc5c", "name": "f906de73fcdd7c4be1dad2f19d19cc5c", "type": "electric_scooter", "fusion_lon": 0.0, "is_reserved": 0, "fusion_lat": 0.0, "lon": -77.07353316666666}, {"rental_uris": {"ios": "https://dc.lft.to/lastmile_qr_scan", "android": "https://dc.lft.to/lastmile_qr_scan"}, "lat": 38.89733483333333, "is_disabled": 0, "bike_id": "f35b8d5b8b564a07f76ceb39f9a83545", "name": "f35b8d5b8b564a07f76ceb39f9a83545", "type": "electric_bike", "fusion_lon": 0.0, "is_reserved": 0, "fusion_lat": 0.0, "lon": -77.12263783333333}, {"rental_uris": {"ios": "https://dc.lft.to/lastmile_qr_scan", "android": "https://dc.lft.to/lastmile_qr_scan"}, "lat": 38.90132416666667, "is_disabled": 0, "bike_id": "f3fb6bf7dc89c120cf56b5a823bd2043", "name": "f3fb6bf7dc89c120cf56b5a823bd2043", "type": "electric_scooter", "fusion_lon": 0.0, "is_reserved": 0, "fusion_lat": 0.0, "lon": -77.0331545}, {"rental_uris": {"ios": "https://dc.lft.to/lastmile_qr_scan", "android": "https://dc.lft.to/lastmile_qr_scan"}, "lat": 38.92504533333333, "is_disabled": 0, "bike_id": "288ec7654a36ab555566b3388c6b6a19", "name": "288ec7654a36ab555566b3388c6b6a19", "type": "electric_bike", "fusion_lon": 0.0, "is_reserved": 0, "fusion_lat": 0.0, "lon": -77.05757383333334}, {"rental_uris": {"ios": "https://dc.lft.to/lastmile_qr_scan", "android": "https://dc.lft.to/lastmile_qr_scan"}, "lat": 38.90425416666667, "is_disabled": 0, "bike_id": "8ae0b555051775ef3b819ea76c488f90", "name": "8ae0b555051775ef3b819ea76c488f90", "type": "electric_scooter", "fusion_lon": 0.0, "is_reserved": 0, "fusion_lat": 0.0, "lon": -77.03135216666666}, {"rental_uris": {"ios": "https://dc.lft.to/lastmile_qr_scan", "android": "https://dc.lft.to/lastmile_qr_scan"}, "lat": 38.912911666666666, "is_disabled": 0, "bike_id": "fa27bc1a97f4eb695d6d49ba9dd65cde", "name": "fa27bc1a97f4eb695d6d49ba9dd65cde", "type": "electric_scooter", "fusion_lon": 0.0, "is_reserved": 0, "fusion_lat": 0.0, "lon": -77.04040383333333}, {"rental_uris": {"ios": "https://dc.lft.to/lastmile_qr_scan", "android": "https://dc.lft.to/lastmile_qr_scan"}, "lat": 38.903605666666664, "is_disabled": 0, "bike_id": "a16abfc778606e5d80d2f7edd82e2011", "name": "a16abfc778606e5d80d2f7edd82e2011", "type": "electric_scooter", "fusion_lon": 0.0, "is_reserved": 0, "fusion_lat": 0.0, "lon": -77.04384}, {"rental_uris": {"ios": "https://dc.lft.to/lastmile_qr_scan", "android": "https://dc.lft.to/lastmile_qr_scan"}, "lat": 38.86858566666667, "is_disabled": 0, "bike_id": "bcf73fa30aeab4f1d74d7e48e46b797d", "name": "bcf73fa30aeab4f1d74d7e48e46b797d", "type": "electric_bike", "fusion_lon": 0.0, "is_reserved": 0, "fusion_lat": 0.0, "lon": -76.9164785}, {"rental_uris": {"ios": "https://dc.lft.to/lastmile_qr_scan", "android": "https://dc.lft.to/lastmile_qr_scan"}, "lat": 38.891551, "is_disabled": 0, "bike_id": "5bcdad7d61b8bf541f8d75fe99ad6e6b", "name": "5bcdad7d61b8bf541f8d75fe99ad6e6b", "type": "electric_scooter", "fusion_lon": 0.0, "is_reserved": 0, "fusion_lat": 0.0, "lon": -76.9541615}, {"rental_uris": {"ios": "https://dc.lft.to/lastmile_qr_scan", "android": "https://dc.lft.to/lastmile_qr_scan"}, "lat": 38.917537833333334, "is_disabled": 0, "bike_id": "7ad3efe719db2efdd6c0fec012d84432", "name": "7ad3efe719db2efdd6c0fec012d84432", "type": "electric_scooter", "fusion_lon": 0.0, "is_reserved": 0, "fusion_lat": 0.0, "lon": -77.039133}, {"rental_uris": {"ios": "https://dc.lft.to/lastmile_qr_scan", "android": "https://dc.lft.to/lastmile_qr_scan"}, "lat": 38.896168833333334, "is_disabled": 0, "bike_id": "f8e30b0b583e70a2e49e6ab31fe1e44e", "name": "f8e30b0b583e70a2e49e6ab31fe1e44e", "type": "electric_scooter", "fusion_lon": 0.0, "is_reserved": 0, "fusion_lat": 0.0, "lon": -76.99936533333333}, {"rental_uris": {"ios": "https://dc.lft.to/lastmile_qr_scan", "android": "https://dc.lft.to/lastmile_qr_scan"}, "lat": 38.9284895, "is_disabled": 0, "bike_id": "f7b5bea32dd9d2ea1c66b17fbd529157", "name": "f7b5bea32dd9d2ea1c66b17fbd529157", "type": "electric_scooter", "fusion_lon": 0.0, "is_reserved": 0, "fusion_lat": 0.0, "lon": -77.01388416666667}, {"rental_uris": {"ios": "https://dc.lft.to/lastmile_qr_scan", "android": "https://dc.lft.to/lastmile_qr_scan"}, "lat": 38.92734766666667, "is_disabled": 0, "bike_id": "d0832470509abc41e272999ffe05bc23", "name": "d0832470509abc41e272999ffe05bc23", "type": "electric_scooter", "fusion_lon": 0.0, "is_reserved": 0, "fusion_lat": 0.0, "lon": -77.03430283333333}, {"rental_uris": {"ios": "https://dc.lft.to/lastmile_qr_scan", "android": "https://dc.lft.to/lastmile_qr_scan"}, "lat": 38.952917166666666, "is_disabled": 0, "bike_id": "cc43ba9fbab977b82f1051e33d517d43", "name": "cc43ba9fbab977b82f1051e33d517d43", "type": "electric_scooter", "fusion_lon": 0.0, "is_reserved": 0, "fusion_lat": 0.0, "lon": -77.06977966666666}, {"rental_uris": {"ios": "https://dc.lft.to/lastmile_qr_scan", "android": "https://dc.lft.to/lastmile_qr_scan"}, "lat": 38.90576866666667, "is_disabled": 0, "bike_id": "c6746a77f42d27467208f512dd2609c2", "name": "c6746a77f42d27467208f512dd2609c2", "type": "electric_scooter", "fusion_lon": 0.0, "is_reserved": 0, "fusion_lat": 0.0, "lon": -77.03068583333334}, {"rental_uris": {"ios": "https://dc.lft.to/lastmile_qr_scan", "android": "https://dc.lft.to/lastmile_qr_scan"}, "lat": 38.949434333333336, "is_disabled": 0, "bike_id": "2087c232dd0e8eecf70363a54fb9df25", "name": "2087c232dd0e8eecf70363a54fb9df25", "type": "electric_scooter", "fusion_lon": 0.0, "is_reserved": 0, "fusion_lat": 0.0, "lon": -76.99582233333334}, {"rental_uris": {"ios": "https://dc.lft.to/lastmile_qr_scan", "android": "https://dc.lft.to/lastmile_qr_scan"}, "lat": 38.919232666666666, "is_disabled": 0, "bike_id": "af15be3963e69e5d59bc1098f71694af", "name": "af15be3963e69e5d59bc1098f71694af", "type": "electric_scooter", "fusion_lon": 0.0, "is_reserved": 0, "fusion_lat": 0.0, "lon": -77.03404866666666}, {"rental_uris": {"ios": "https://dc.lft.to/lastmile_qr_scan", "android": "https://dc.lft.to/lastmile_qr_scan"}, "lat": 38.92506366666667, "is_disabled": 0, "bike_id": "02924c1b0995741763f65ce18c546eb4", "name": "02924c1b0995741763f65ce18c546eb4", "type": "electric_scooter", "fusion_lon": 0.0, "is_reserved": 0, "fusion_lat": 0.0, "lon": -77.04095633333333}, {"rental_uris": {"ios": "https://dc.lft.to/lastmile_qr_scan", "android": "https://dc.lft.to/lastmile_qr_scan"}, "lat": 38.89875133333334, "is_disabled": 0, "bike_id": "3f8d842d22534016d1586aceccb5f379", "name": "3f8d842d22534016d1586aceccb5f379", "type": "electric_scooter", "fusion_lon": 0.0, "is_reserved": 0, "fusion_lat": 0.0, "lon": -76.931894}, {"rental_uris": {"ios": "https://dc.lft.to/lastmile_qr_scan", "android": "https://dc.lft.to/lastmile_qr_scan"}, "lat": 38.876859, "is_disabled": 0, "bike_id": "f10fb8d8a0e3a3446980abf4f4b83b38", "name": "f10fb8d8a0e3a3446980abf4f4b83b38", "type": "electric_scooter", "fusion_lon": 0.0, "is_reserved": 0, "fusion_lat": 0.0, "lon": -77.01606283333334}, {"rental_uris": {"ios": "https://dc.lft.to/lastmile_qr_scan", "android": "https://dc.lft.to/lastmile_qr_scan"}, "lat": 38.91882183333333, "is_disabled": 0, "bike_id": "819e909807f3fe806602ef98769e0173", "name": "819e909807f3fe806602ef98769e0173", "type": "electric_scooter", "fusion_lon": 0.0, "is_reserved": 0, "fusion_lat": 0.0, "lon": -77.04188766666667}, {"rental_uris": {"ios": "https://dc.lft.to/lastmile_qr_scan", "android": "https://dc.lft.to/lastmile_qr_scan"}, "lat": 38.93670566666667, "is_disabled": 0, "bike_id": "8f986cffeb038d9082faf4cab7a8831b", "name": "8f986cffeb038d9082faf4cab7a8831b", "type": "electric_bike", "fusion_lon": 0.0, "is_reserved": 0, "fusion_lat": 0.0, "lon": -76.9521}, {"rental_uris": {"ios": "https://dc.lft.to/lastmile_qr_scan", "android": "https://dc.lft.to/lastmile_qr_scan"}, "lat": 38.904079333333335, "is_disabled": 0, "bike_id": "b68ad64f4f3772ce098ad1993fc17c1f", "name": "b68ad64f4f3772ce098ad1993fc17c1f", "type": "electric_scooter", "fusion_lon": 0.0, "is_reserved": 0, "fusion_lat": 0.0, "lon": -77.001377}, {"rental_uris": {"ios": "https://dc.lft.to/lastmile_qr_scan", "android": "https://dc.lft.to/lastmile_qr_scan"}, "lat": 38.929877, "is_disabled": 0, "bike_id": "65e717a00a75706faa295a289af83743", "name": "65e717a00a75706faa295a289af83743", "type": "electric_scooter", "fusion_lon": 0.0, "is_reserved": 0, "fusion_lat": 0.0, "lon": -77.02345883333334}, {"rental_uris": {"ios": "https://dc.lft.to/lastmile_qr_scan", "android": "https://dc.lft.to/lastmile_qr_scan"}, "lat": 38.89812633333333, "is_disabled": 0, "bike_id": "765c3ad5cb939d0c608fdbcc73ee2570", "name": "765c3ad5cb939d0c608fdbcc73ee2570", "type": "electric_bike", "fusion_lon": 0.0, "is_reserved": 0, "fusion_lat": 0.0, "lon": -76.99032966666667}, {"rental_uris": {"ios": "https://dc.lft.to/lastmile_qr_scan", "android": "https://dc.lft.to/lastmile_qr_scan"}, "lat": 38.90377216666667, "is_disabled": 0, "bike_id": "e4943edf9e3147227bdb89425c0dce8c", "name": "e4943edf9e3147227bdb89425c0dce8c", "type": "electric_scooter", "fusion_lon": 0.0, "is_reserved": 0, "fusion_lat": 0.0, "lon": -77.002676}, {"rental_uris": {"ios": "https://dc.lft.to/lastmile_qr_scan", "android": "https://dc.lft.to/lastmile_qr_scan"}, "lat": 38.87900916666667, "is_disabled": 0, "bike_id": "2a7d12fe596120f8f4e300f65692f6d2", "name": "2a7d12fe596120f8f4e300f65692f6d2", "type": "electric_scooter", "fusion_lon": 0.0, "is_reserved": 0, "fusion_lat": 0.0, "lon": -77.0040305}, {"rental_uris": {"ios": "https://dc.lft.to/lastmile_qr_scan", "android": "https://dc.lft.to/lastmile_qr_scan"}, "lat": 38.920464333333335, "is_disabled": 0, "bike_id": "2c390af19b733a069dac16b2c56e4bd4", "name": "2c390af19b733a069dac16b2c56e4bd4", "type": "electric_scooter", "fusion_lon": 0.0, "is_reserved": 0, "fusion_lat": 0.0, "lon": -77.0237305}, {"rental_uris": {"ios": "https://dc.lft.to/lastmile_qr_scan", "android": "https://dc.lft.to/lastmile_qr_scan"}, "lat": 38.90287033333333, "is_disabled": 0, "bike_id": "06aa4d6f74028ad6b32b3e285af2db1c", "name": "06aa4d6f74028ad6b32b3e285af2db1c", "type": "electric_scooter", "fusion_lon": 0.0, "is_reserved": 0, "fusion_lat": 0.0, "lon": -77.03658316666667}, {"rental_uris": {"ios": "https://dc.lft.to/lastmile_qr_scan", "android": "https://dc.lft.to/lastmile_qr_scan"}, "lat": 38.91612033333333, "is_disabled": 0, "bike_id": "9002f7e1c70dc7bc3ebc48a0776a223d", "name": "9002f7e1c70dc7bc3ebc48a0776a223d", "type": "electric_scooter", "fusion_lon": 0.0, "is_reserved": 0, "fusion_lat": 0.0, "lon": -77.02313716666667}, {"rental_uris": {"ios": "https://dc.lft.to/lastmile_qr_scan", "android": "https://dc.lft.to/lastmile_qr_scan"}, "lat": 38.88503033333333, "is_disabled": 0, "bike_id": "8b4b916f68b6f006097d6e83b06590b5", "name": "8b4b916f68b6f006097d6e83b06590b5", "type": "electric_scooter", "fusion_lon": 0.0, "is_reserved": 0, "fusion_lat": 0.0, "lon": -77.005681}, {"rental_uris": {"ios": "https://dc.lft.to/lastmile_qr_scan", "android": "https://dc.lft.to/lastmile_qr_scan"}, "lat": 38.901856333333335, "is_disabled": 0, "bike_id": "ed660b9af3ce6c28f8863989e2102509", "name": "ed660b9af3ce6c28f8863989e2102509", "type": "electric_scooter", "fusion_lon": 0.0, "is_reserved": 0, "fusion_lat": 0.0, "lon": -77.016104}, {"rental_uris": {"ios": "https://dc.lft.to/lastmile_qr_scan", "android": "https://dc.lft.to/lastmile_qr_scan"}, "lat": 38.89799883333333, "is_disabled": 0, "bike_id": "87aedd08f49879557c82e45055ad3261", "name": "87aedd08f49879557c82e45055ad3261", "type": "electric_scooter", "fusion_lon": 0.0, "is_reserved": 0, "fusion_lat": 0.0, "lon": -77.02660933333334}, {"rental_uris": {"ios": "https://dc.lft.to/lastmile_qr_scan", "android": "https://dc.lft.to/lastmile_qr_scan"}, "lat": 38.950896666666665, "is_disabled": 0, "bike_id": "2236201d3c8c87c1f86fbbacfbdf1ce5", "name": "2236201d3c8c87c1f86fbbacfbdf1ce5", "type": "electric_scooter", "fusion_lon": 0.0, "is_reserved": 0, "fusion_lat": 0.0, "lon": -77.0287015}, {"rental_uris": {"ios": "https://dc.lft.to/lastmile_qr_scan", "android": "https://dc.lft.to/lastmile_qr_scan"}, "lat": 38.911888833333336, "is_disabled": 0, "bike_id": "67ea6fbbe92ae4257239fb264e011853", "name": "67ea6fbbe92ae4257239fb264e011853", "type": "electric_bike", "fusion_lon": 0.0, "is_reserved": 0, "fusion_lat": 0.0, "lon": -77.00555983333334}, {"rental_uris": {"ios": "https://dc.lft.to/lastmile_qr_scan", "android": "https://dc.lft.to/lastmile_qr_scan"}, "lat": 38.93552483333333, "is_disabled": 0, "bike_id": "50d3c1734e440fac86dc3448057b6cf8", "name": "50d3c1734e440fac86dc3448057b6cf8", "type": "electric_scooter", "fusion_lon": 0.0, "is_reserved": 0, "fusion_lat": 0.0, "lon": -77.0822175}, {"rental_uris": {"ios": "https://dc.lft.to/lastmile_qr_scan", "android": "https://dc.lft.to/lastmile_qr_scan"}, "lat": 38.9499905, "is_disabled": 0, "bike_id": "e93dec7d85497534bfebde8cd443bfe2", "name": "e93dec7d85497534bfebde8cd443bfe2", "type": "electric_scooter", "fusion_lon": 0.0, "is_reserved": 0, "fusion_lat": 0.0, "lon": -77.02706583333334}, {"rental_uris": {"ios": "https://dc.lft.to/lastmile_qr_scan", "android": "https://dc.lft.to/lastmile_qr_scan"}, "lat": 38.909586833333336, "is_disabled": 0, "bike_id": "28ebd248280d62e43953c2ab56e4a10f", "name": "28ebd248280d62e43953c2ab56e4a10f", "type": "electric_scooter", "fusion_lon": 0.0, "is_reserved": 0, "fusion_lat": 0.0, "lon": -77.046092}, {"rental_uris": {"ios": "https://dc.lft.to/lastmile_qr_scan", "android": "https://dc.lft.to/lastmile_qr_scan"}, "lat": 38.899303833333335, "is_disabled": 0, "bike_id": "a44fcc12f6f8f3a4bd61b46d097edc94", "name": "a44fcc12f6f8f3a4bd61b46d097edc94", "type": "electric_scooter", "fusion_lon": 0.0, "is_reserved": 0, "fusion_lat": 0.0, "lon": -77.019138}, {"rental_uris": {"ios": "https://dc.lft.to/lastmile_qr_scan", "android": "https://dc.lft.to/lastmile_qr_scan"}, "lat": 39.089004333333335, "is_disabled": 0, "bike_id": "e51932072267e925c2a647ed95bc9387", "name": "e51932072267e925c2a647ed95bc9387", "type": "electric_bike", "fusion_lon": 0.0, "is_reserved": 0, "fusion_lat": 0.0, "lon": -77.1784825}, {"rental_uris": {"ios": "https://dc.lft.to/lastmile_qr_scan", "android": "https://dc.lft.to/lastmile_qr_scan"}, "lat": 38.89464816666667, "is_disabled": 0, "bike_id": "d77a06af29a7fe7ca6a63e9c8d1a0a5d", "name": "d77a06af29a7fe7ca6a63e9c8d1a0a5d", "type": "electric_scooter", "fusion_lon": 0.0, "is_reserved": 0, "fusion_lat": 0.0, "lon": -77.00346283333333}, {"rental_uris": {"ios": "https://dc.lft.to/lastmile_qr_scan", "android": "https://dc.lft.to/lastmile_qr_scan"}, "lat": 38.9223625, "is_disabled": 0, "bike_id": "f821c2424875c3866d3a61a361365aab", "name": "f821c2424875c3866d3a61a361365aab", "type": "electric_scooter", "fusion_lon": 0.0, "is_reserved": 0, "fusion_lat": 0.0, "lon": -77.0440195}, {"rental_uris": {"ios": "https://dc.lft.to/lastmile_qr_scan", "android": "https://dc.lft.to/lastmile_qr_scan"}, "lat": 39.054447333333336, "is_disabled": 0, "bike_id": "19bf7ccfb34ada21dbae8163e714915d", "name": "19bf7ccfb34ada21dbae8163e714915d", "type": "electric_bike", "fusion_lon": 0.0, "is_reserved": 0, "fusion_lat": 0.0, "lon": -77.0430765}, {"rental_uris": {"ios": "https://dc.lft.to/lastmile_qr_scan", "android": "https://dc.lft.to/lastmile_qr_scan"}, "lat": 38.929944, "is_disabled": 0, "bike_id": "0adb4f8b94fe059af1a0528f3ab7bf7d", "name": "0adb4f8b94fe059af1a0528f3ab7bf7d", "type": "electric_scooter", "fusion_lon": 0.0, "is_reserved": 0, "fusion_lat": 0.0, "lon": -77.02353833333333}, {"rental_uris": {"ios": "https://dc.lft.to/lastmile_qr_scan", "android": "https://dc.lft.to/lastmile_qr_scan"}, "lat": 38.961514, "is_disabled": 0, "bike_id": "d8b01212e3956fb04c16cd2c4840e6fc", "name": "d8b01212e3956fb04c16cd2c4840e6fc", "type": "electric_scooter", "fusion_lon": 0.0, "is_reserved": 0, "fusion_lat": 0.0, "lon": -77.028149}, {"rental_uris": {"ios": "https://dc.lft.to/lastmile_qr_scan", "android": "https://dc.lft.to/lastmile_qr_scan"}, "lat": 38.84289316666667, "is_disabled": 0, "bike_id": "610e5094fccdd4c8d56b60fb4f50d7d6", "name": "610e5094fccdd4c8d56b60fb4f50d7d6", "type": "electric_scooter", "fusion_lon": 0.0, "is_reserved": 0, "fusion_lat": 0.0, "lon": -76.99951183333333}, {"rental_uris": {"ios": "https://dc.lft.to/lastmile_qr_scan", "android": "https://dc.lft.to/lastmile_qr_scan"}, "lat": 38.887372166666665, "is_disabled": 0, "bike_id": "0273065a0778878d083bdabcc21aebe5", "name": "0273065a0778878d083bdabcc21aebe5", "type": "electric_scooter", "fusion_lon": 0.0, "is_reserved": 0, "fusion_lat": 0.0, "lon": -77.01534483333333}, {"rental_uris": {"ios": "https://dc.lft.to/lastmile_qr_scan", "android": "https://dc.lft.to/lastmile_qr_scan"}, "lat": 38.917575666666664, "is_disabled": 0, "bike_id": "169558e6dd921e5a19bb01ddcd753c45", "name": "169558e6dd921e5a19bb01ddcd753c45", "type": "electric_scooter", "fusion_lon": 0.0, "is_reserved": 0, "fusion_lat": 0.0, "lon": -77.02347233333333}, {"rental_uris": {"ios": "https://dc.lft.to/lastmile_qr_scan", "android": "https://dc.lft.to/lastmile_qr_scan"}, "lat": 38.8620065, "is_disabled": 0, "bike_id": "3ebcd7320cfe0407014f8a2e9fadba31", "name": "3ebcd7320cfe0407014f8a2e9fadba31", "type": "electric_scooter", "fusion_lon": 0.0, "is_reserved": 0, "fusion_lat": 0.0, "lon": -76.99511883333334}, {"rental_uris": {"ios": "https://dc.lft.to/lastmile_qr_scan", "android": "https://dc.lft.to/lastmile_qr_scan"}, "lat": 38.89273383333333, "is_disabled": 0, "bike_id": "17a9db6f3547184d3b3cdd955330bd5e", "name": "17a9db6f3547184d3b3cdd955330bd5e", "type": "electric_scooter", "fusion_lon": 0.0, "is_reserved": 0, "fusion_lat": 0.0, "lon": -77.02021433333333}, {"rental_uris": {"ios": "https://dc.lft.to/lastmile_qr_scan", "android": "https://dc.lft.to/lastmile_qr_scan"}, "lat": 38.8922195, "is_disabled": 0, "bike_id": "b0eb85c7ee3e8fb00e01bf80d3aa8a3a", "name": "b0eb85c7ee3e8fb00e01bf80d3aa8a3a", "type": "electric_scooter", "fusion_lon": 0.0, "is_reserved": 0, "fusion_lat": 0.0, "lon": -77.0030845}, {"rental_uris": {"ios": "https://dc.lft.to/lastmile_qr_scan", "android": "https://dc.lft.to/lastmile_qr_scan"}, "lat": 38.845157, "is_disabled": 0, "bike_id": "25f77b059d8f0ba9fdd9dfb14d1d0fd0", "name": "25f77b059d8f0ba9fdd9dfb14d1d0fd0", "type": "electric_bike", "fusion_lon": 0.0, "is_reserved": 0, "fusion_lat": 0.0, "lon": -77.07797733333334}, {"rental_uris": {"ios": "https://dc.lft.to/lastmile_qr_scan", "android": "https://dc.lft.to/lastmile_qr_scan"}, "lat": 38.928108333333334, "is_disabled": 0, "bike_id": "dd0eda6d067ff1de570053ff51c43113", "name": "dd0eda6d067ff1de570053ff51c43113", "type": "electric_scooter", "fusion_lon": 0.0, "is_reserved": 0, "fusion_lat": 0.0, "lon": -77.04364133333333}, {"rental_uris": {"ios": "https://dc.lft.to/lastmile_qr_scan", "android": "https://dc.lft.to/lastmile_qr_scan"}, "lat": 38.8770095, "is_disabled": 0, "bike_id": "d1d8169b609548b901346d5616bb17bf", "name": "d1d8169b609548b901346d5616bb17bf", "type": "electric_scooter", "fusion_lon": 0.0, "is_reserved": 0, "fusion_lat": 0.0, "lon": -77.01744466666666}, {"rental_uris": {"ios": "https://dc.lft.to/lastmile_qr_scan", "android": "https://dc.lft.to/lastmile_qr_scan"}, "lat": 38.9047915, "is_disabled": 0, "bike_id": "811dfba52ab48c0bdb1297016fd07624", "name": "811dfba52ab48c0bdb1297016fd07624", "type": "electric_scooter", "fusion_lon": 0.0, "is_reserved": 0, "fusion_lat": 0.0, "lon": -76.9732615}, {"rental_uris": {"ios": "https://dc.lft.to/lastmile_qr_scan", "android": "https://dc.lft.to/lastmile_qr_scan"}, "lat": 38.89182516666666, "is_disabled": 0, "bike_id": "83b070502868d248190394a4544b9fb8", "name": "83b070502868d248190394a4544b9fb8", "type": "electric_bike", "fusion_lon": 0.0, "is_reserved": 0, "fusion_lat": 0.0, "lon": -76.95033266666667}, {"rental_uris": {"ios": "https://dc.lft.to/lastmile_qr_scan", "android": "https://dc.lft.to/lastmile_qr_scan"}, "lat": 38.90490333333333, "is_disabled": 0, "bike_id": "78de004b87ffaa07a39a99d7a822f0c4", "name": "78de004b87ffaa07a39a99d7a822f0c4", "type": "electric_scooter", "fusion_lon": 0.0, "is_reserved": 0, "fusion_lat": 0.0, "lon": -76.98690783333333}, {"rental_uris": {"ios": "https://dc.lft.to/lastmile_qr_scan", "android": "https://dc.lft.to/lastmile_qr_scan"}, "lat": 38.904022166666664, "is_disabled": 0, "bike_id": "f0e246bd4c31779ccadcd49362a1bfd5", "name": "f0e246bd4c31779ccadcd49362a1bfd5", "type": "electric_scooter", "fusion_lon": 0.0, "is_reserved": 0, "fusion_lat": 0.0, "lon": -77.001426}, {"rental_uris": {"ios": "https://dc.lft.to/lastmile_qr_scan", "android": "https://dc.lft.to/lastmile_qr_scan"}, "lat": 38.96302516666667, "is_disabled": 0, "bike_id": "d47fc838c7b809611367b2d49b35c14b", "name": "d47fc838c7b809611367b2d49b35c14b", "type": "electric_bike", "fusion_lon": 0.0, "is_reserved": 0, "fusion_lat": 0.0, "lon": -77.011077}, {"rental_uris": {"ios": "https://dc.lft.to/lastmile_qr_scan", "android": "https://dc.lft.to/lastmile_qr_scan"}, "lat": 38.91262916666667, "is_disabled": 0, "bike_id": "1652b7b857c097270fc7fcc093cb441b", "name": "1652b7b857c097270fc7fcc093cb441b", "type": "electric_scooter", "fusion_lon": 0.0, "is_reserved": 0, "fusion_lat": 0.0, "lon": -77.07255616666667}, {"rental_uris": {"ios": "https://dc.lft.to/lastmile_qr_scan", "android": "https://dc.lft.to/lastmile_qr_scan"}, "lat": 38.902789, "is_disabled": 0, "bike_id": "3846af1e9fc867f06a259c0b0f98674f", "name": "3846af1e9fc867f06a259c0b0f98674f", "type": "electric_scooter", "fusion_lon": 0.0, "is_reserved": 0, "fusion_lat": 0.0, "lon": -77.03469}, {"rental_uris": {"ios": "https://dc.lft.to/lastmile_qr_scan", "android": "https://dc.lft.to/lastmile_qr_scan"}, "lat": 38.89942466666667, "is_disabled": 0, "bike_id": "8ca4fc2d6a2cf46d71a9ed2adb724eaf", "name": "8ca4fc2d6a2cf46d71a9ed2adb724eaf", "type": "electric_scooter", "fusion_lon": 0.0, "is_reserved": 0, "fusion_lat": 0.0, "lon": -77.0289955}, {"rental_uris": {"ios": "https://dc.lft.to/lastmile_qr_scan", "android": "https://dc.lft.to/lastmile_qr_scan"}, "lat": 38.91021716666667, "is_disabled": 0, "bike_id": "c3d243d3f89482c3c107f2ad8e6982ad", "name": "c3d243d3f89482c3c107f2ad8e6982ad", "type": "electric_scooter", "fusion_lon": 0.0, "is_reserved": 0, "fusion_lat": 0.0, "lon": -77.041648}, {"rental_uris": {"ios": "https://dc.lft.to/lastmile_qr_scan", "android": "https://dc.lft.to/lastmile_qr_scan"}, "lat": 38.90569283333333, "is_disabled": 0, "bike_id": "83e5024cc9c05b306d6f89ae1974fa84", "name": "83e5024cc9c05b306d6f89ae1974fa84", "type": "electric_scooter", "fusion_lon": 0.0, "is_reserved": 0, "fusion_lat": 0.0, "lon": -77.027005}, {"rental_uris": {"ios": "https://dc.lft.to/lastmile_qr_scan", "android": "https://dc.lft.to/lastmile_qr_scan"}, "lat": 38.94994883333333, "is_disabled": 0, "bike_id": "0206607b99203f28b7cc57b59db97632", "name": "0206607b99203f28b7cc57b59db97632", "type": "electric_bike", "fusion_lon": 0.0, "is_reserved": 0, "fusion_lat": 0.0, "lon": -77.35310083333333}, {"rental_uris": {"ios": "https://dc.lft.to/lastmile_qr_scan", "android": "https://dc.lft.to/lastmile_qr_scan"}, "lat": 38.92314616666667, "is_disabled": 0, "bike_id": "6d1c6e37db54da1d5ff6c38d996318d6", "name": "6d1c6e37db54da1d5ff6c38d996318d6", "type": "electric_scooter", "fusion_lon": 0.0, "is_reserved": 0, "fusion_lat": 0.0, "lon": -77.05433133333334}, {"rental_uris": {"ios": "https://dc.lft.to/lastmile_qr_scan", "android": "https://dc.lft.to/lastmile_qr_scan"}, "lat": 38.900506, "is_disabled": 0, "bike_id": "70b84d8f5e6c0066078c7b4db7b19c1e", "name": "70b84d8f5e6c0066078c7b4db7b19c1e", "type": "electric_scooter", "fusion_lon": 0.0, "is_reserved": 0, "fusion_lat": 0.0, "lon": -77.000657}, {"rental_uris": {"ios": "https://dc.lft.to/lastmile_qr_scan", "android": "https://dc.lft.to/lastmile_qr_scan"}, "lat": 38.89608833333333, "is_disabled": 0, "bike_id": "ac5c952c713c3a808c00de25e3eb31df", "name": "ac5c952c713c3a808c00de25e3eb31df", "type": "electric_scooter", "fusion_lon": 0.0, "is_reserved": 0, "fusion_lat": 0.0, "lon": -77.00929433333333}, {"rental_uris": {"ios": "https://dc.lft.to/lastmile_qr_scan", "android": "https://dc.lft.to/lastmile_qr_scan"}, "lat": 38.95132, "is_disabled": 0, "bike_id": "408c15e9320cdcb37c719a4fc76a57ad", "name": "408c15e9320cdcb37c719a4fc76a57ad", "type": "electric_scooter", "fusion_lon": 0.0, "is_reserved": 0, "fusion_lat": 0.0, "lon": -77.027257}, {"rental_uris": {"ios": "https://dc.lft.to/lastmile_qr_scan", "android": "https://dc.lft.to/lastmile_qr_scan"}, "lat": 38.90280283333333, "is_disabled": 0, "bike_id": "be06a70f5c5eb42b87984fb206905582", "name": "be06a70f5c5eb42b87984fb206905582", "type": "electric_scooter", "fusion_lon": 0.0, "is_reserved": 0, "fusion_lat": 0.0, "lon": -77.034467}, {"rental_uris": {"ios": "https://dc.lft.to/lastmile_qr_scan", "android": "https://dc.lft.to/lastmile_qr_scan"}, "lat": 38.91709566666667, "is_disabled": 0, "bike_id": "ba17bafec28d391e70d8bfd49c5fb165", "name": "ba17bafec28d391e70d8bfd49c5fb165", "type": "electric_scooter", "fusion_lon": 0.0, "is_reserved": 0, "fusion_lat": 0.0, "lon": -77.03738033333333}, {"rental_uris": {"ios": "https://dc.lft.to/lastmile_qr_scan", "android": "https://dc.lft.to/lastmile_qr_scan"}, "lat": 38.84291433333333, "is_disabled": 0, "bike_id": "f314d42ec46a42f04ebb8035677e28ba", "name": "f314d42ec46a42f04ebb8035677e28ba", "type": "electric_scooter", "fusion_lon": 0.0, "is_reserved": 0, "fusion_lat": 0.0, "lon": -76.9908245}, {"rental_uris": {"ios": "https://dc.lft.to/lastmile_qr_scan", "android": "https://dc.lft.to/lastmile_qr_scan"}, "lat": 38.8981715, "is_disabled": 0, "bike_id": "386570fae45e06c19c7818dd79323b20", "name": "386570fae45e06c19c7818dd79323b20", "type": "electric_scooter", "fusion_lon": 0.0, "is_reserved": 0, "fusion_lat": 0.0, "lon": -77.03349866666667}, {"rental_uris": {"ios": "https://dc.lft.to/lastmile_qr_scan", "android": "https://dc.lft.to/lastmile_qr_scan"}, "lat": 38.90419466666667, "is_disabled": 0, "bike_id": "9a1c49a6cca5305fc9eaf4eb404ec94c", "name": "9a1c49a6cca5305fc9eaf4eb404ec94c", "type": "electric_scooter", "fusion_lon": 0.0, "is_reserved": 0, "fusion_lat": 0.0, "lon": -77.051359}, {"rental_uris": {"ios": "https://dc.lft.to/lastmile_qr_scan", "android": "https://dc.lft.to/lastmile_qr_scan"}, "lat": 38.89257383333333, "is_disabled": 0, "bike_id": "dbf9593cd51742d935a4ece1c8df6bb0", "name": "dbf9593cd51742d935a4ece1c8df6bb0", "type": "electric_scooter", "fusion_lon": 0.0, "is_reserved": 0, "fusion_lat": 0.0, "lon": -77.03173583333333}, {"rental_uris": {"ios": "https://dc.lft.to/lastmile_qr_scan", "android": "https://dc.lft.to/lastmile_qr_scan"}, "lat": 38.9374045, "is_disabled": 0, "bike_id": "04bc67923a78ef6b954deedd0c148dac", "name": "04bc67923a78ef6b954deedd0c148dac", "type": "electric_scooter", "fusion_lon": 0.0, "is_reserved": 0, "fusion_lat": 0.0, "lon": -77.03498283333333}, {"rental_uris": {"ios": "https://dc.lft.to/lastmile_qr_scan", "android": "https://dc.lft.to/lastmile_qr_scan"}, "lat": 38.90703083333333, "is_disabled": 0, "bike_id": "c79c879897fd5ed5b5714c96ac2b86d2", "name": "c79c879897fd5ed5b5714c96ac2b86d2", "type": "electric_scooter", "fusion_lon": 0.0, "is_reserved": 0, "fusion_lat": 0.0, "lon": -76.986914}, {"rental_uris": {"ios": "https://dc.lft.to/lastmile_qr_scan", "android": "https://dc.lft.to/lastmile_qr_scan"}, "lat": 38.90035016666667, "is_disabled": 0, "bike_id": "5e7eae75fc0e50cef632da7206c647b6", "name": "5e7eae75fc0e50cef632da7206c647b6", "type": "electric_scooter", "fusion_lon": 0.0, "is_reserved": 0, "fusion_lat": 0.0, "lon": -77.04499816666667}, {"rental_uris": {"ios": "https://dc.lft.to/lastmile_qr_scan", "android": "https://dc.lft.to/lastmile_qr_scan"}, "lat": 38.939181166666664, "is_disabled": 0, "bike_id": "f2d0f010eacb066cd2676c47f168ddee", "name": "f2d0f010eacb066cd2676c47f168ddee", "type": "electric_scooter", "fusion_lon": 0.0, "is_reserved": 0, "fusion_lat": 0.0, "lon": -77.018986}, {"rental_uris": {"ios": "https://dc.lft.to/lastmile_qr_scan", "android": "https://dc.lft.to/lastmile_qr_scan"}, "lat": 38.88741683333333, "is_disabled": 0, "bike_id": "08962ed794d82852415df1e19dc514e2", "name": "08962ed794d82852415df1e19dc514e2", "type": "electric_scooter", "fusion_lon": 0.0, "is_reserved": 0, "fusion_lat": 0.0, "lon": -77.02834083333333}, {"rental_uris": {"ios": "https://dc.lft.to/lastmile_qr_scan", "android": "https://dc.lft.to/lastmile_qr_scan"}, "lat": 38.93553516666667, "is_disabled": 0, "bike_id": "099aef54375de06a4c8f747b3b69c44a", "name": "099aef54375de06a4c8f747b3b69c44a", "type": "electric_scooter", "fusion_lon": 0.0, "is_reserved": 0, "fusion_lat": 0.0, "lon": -77.03460766666667}, {"rental_uris": {"ios": "https://dc.lft.to/lastmile_qr_scan", "android": "https://dc.lft.to/lastmile_qr_scan"}, "lat": 38.89480966666667, "is_disabled": 0, "bike_id": "5e57718edd0388ba1b8052f457160a69", "name": "5e57718edd0388ba1b8052f457160a69", "type": "electric_scooter", "fusion_lon": 0.0, "is_reserved": 0, "fusion_lat": 0.0, "lon": -77.04542}, {"rental_uris": {"ios": "https://dc.lft.to/lastmile_qr_scan", "android": "https://dc.lft.to/lastmile_qr_scan"}, "lat": 38.896382333333335, "is_disabled": 0, "bike_id": "b9b584bff166108c56309ea40ac3a059", "name": "b9b584bff166108c56309ea40ac3a059", "type": "electric_bike", "fusion_lon": 0.0, "is_reserved": 0, "fusion_lat": 0.0, "lon": -76.947808}, {"rental_uris": {"ios": "https://dc.lft.to/lastmile_qr_scan", "android": "https://dc.lft.to/lastmile_qr_scan"}, "lat": 38.92030783333333, "is_disabled": 0, "bike_id": "a30b6a91daaba52f793b6fb7038724ca", "name": "a30b6a91daaba52f793b6fb7038724ca", "type": "electric_scooter", "fusion_lon": 0.0, "is_reserved": 0, "fusion_lat": 0.0, "lon": -76.97023366666667}, {"rental_uris": {"ios": "https://dc.lft.to/lastmile_qr_scan", "android": "https://dc.lft.to/lastmile_qr_scan"}, "lat": 38.936994, "is_disabled": 0, "bike_id": "0596317ec46d4c3f4992ec9d283f921c", "name": "0596317ec46d4c3f4992ec9d283f921c", "type": "electric_scooter", "fusion_lon": 0.0, "is_reserved": 0, "fusion_lat": 0.0, "lon": -77.05598366666666}, {"rental_uris": {"ios": "https://dc.lft.to/lastmile_qr_scan", "android": "https://dc.lft.to/lastmile_qr_scan"}, "lat": 38.8875325, "is_disabled": 0, "bike_id": "2c1875d4dc206ca0513afd56f54953ac", "name": "2c1875d4dc206ca0513afd56f54953ac", "type": "electric_scooter", "fusion_lon": 0.0, "is_reserved": 0, "fusion_lat": 0.0, "lon": -76.9367195}, {"rental_uris": {"ios": "https://dc.lft.to/lastmile_qr_scan", "android": "https://dc.lft.to/lastmile_qr_scan"}, "lat": 38.84617983333333, "is_disabled": 0, "bike_id": "0c873bb5fb374c23225abf051aec9797", "name": "0c873bb5fb374c23225abf051aec9797", "type": "electric_scooter", "fusion_lon": 0.0, "is_reserved": 0, "fusion_lat": 0.0, "lon": -76.996341}, {"rental_uris": {"ios": "https://dc.lft.to/lastmile_qr_scan", "android": "https://dc.lft.to/lastmile_qr_scan"}, "lat": 38.893282666666664, "is_disabled": 0, "bike_id": "ed59de8b0b9ecb225b02880d3481fac9", "name": "ed59de8b0b9ecb225b02880d3481fac9", "type": "electric_bike", "fusion_lon": 0.0, "is_reserved": 0, "fusion_lat": 0.0, "lon": -77.124068}, {"rental_uris": {"ios": "https://dc.lft.to/lastmile_qr_scan", "android": "https://dc.lft.to/lastmile_qr_scan"}, "lat": 38.9209685, "is_disabled": 0, "bike_id": "0ca41f7b5faafdbda618006825e55615", "name": "0ca41f7b5faafdbda618006825e55615", "type": "electric_scooter", "fusion_lon": 0.0, "is_reserved": 0, "fusion_lat": 0.0, "lon": -77.0258935}, {"rental_uris": {"ios": "https://dc.lft.to/lastmile_qr_scan", "android": "https://dc.lft.to/lastmile_qr_scan"}, "lat": 38.890146, "is_disabled": 0, "bike_id": "57f87b7ea999834ebf5b4e79dda787de", "name": "57f87b7ea999834ebf5b4e79dda787de", "type": "electric_scooter", "fusion_lon": 0.0, "is_reserved": 0, "fusion_lat": 0.0, "lon": -76.93737516666667}, {"rental_uris": {"ios": "https://dc.lft.to/lastmile_qr_scan", "android": "https://dc.lft.to/lastmile_qr_scan"}, "lat": 38.91721533333333, "is_disabled": 0, "bike_id": "00f02e2c8d09e3ec2dcf63970cceab77", "name": "00f02e2c8d09e3ec2dcf63970cceab77", "type": "electric_scooter", "fusion_lon": 0.0, "is_reserved": 0, "fusion_lat": 0.0, "lon": -77.0410095}, {"rental_uris": {"ios": "https://dc.lft.to/lastmile_qr_scan", "android": "https://dc.lft.to/lastmile_qr_scan"}, "lat": 38.9026415, "is_disabled": 0, "bike_id": "339d18f78c0b557d0eec1223b04fc698", "name": "339d18f78c0b557d0eec1223b04fc698", "type": "electric_scooter", "fusion_lon": 0.0, "is_reserved": 0, "fusion_lat": 0.0, "lon": -77.06108}, {"rental_uris": {"ios": "https://dc.lft.to/lastmile_qr_scan", "android": "https://dc.lft.to/lastmile_qr_scan"}, "lat": 38.91723133333333, "is_disabled": 0, "bike_id": "8f43fbaa2fb8eb523f83b98e6c89895a", "name": "8f43fbaa2fb8eb523f83b98e6c89895a", "type": "electric_scooter", "fusion_lon": 0.0, "is_reserved": 0, "fusion_lat": 0.0, "lon": -77.03662516666667}, {"rental_uris": {"ios": "https://dc.lft.to/lastmile_qr_scan", "android": "https://dc.lft.to/lastmile_qr_scan"}, "lat": 38.9056235, "is_disabled": 0, "bike_id": "1e69e14d092135befaa41d8bc55f36d6", "name": "1e69e14d092135befaa41d8bc55f36d6", "type": "electric_scooter", "fusion_lon": 0.0, "is_reserved": 0, "fusion_lat": 0.0, "lon": -77.0249255}, {"rental_uris": {"ios": "https://dc.lft.to/lastmile_qr_scan", "android": "https://dc.lft.to/lastmile_qr_scan"}, "lat": 38.92870633333333, "is_disabled": 0, "bike_id": "6b45cac3a8e47c0cd57b05f37b941043", "name": "6b45cac3a8e47c0cd57b05f37b941043", "type": "electric_scooter", "fusion_lon": 0.0, "is_reserved": 0, "fusion_lat": 0.0, "lon": -77.05438616666666}, {"rental_uris": {"ios": "https://dc.lft.to/lastmile_qr_scan", "android": "https://dc.lft.to/lastmile_qr_scan"}, "lat": 38.93061333333333, "is_disabled": 0, "bike_id": "72aab634fc7e639ce5e7655402914f41", "name": "72aab634fc7e639ce5e7655402914f41", "type": "electric_scooter", "fusion_lon": 0.0, "is_reserved": 0, "fusion_lat": 0.0, "lon": -77.02808616666667}, {"rental_uris": {"ios": "https://dc.lft.to/lastmile_qr_scan", "android": "https://dc.lft.to/lastmile_qr_scan"}, "lat": 38.8808005, "is_disabled": 0, "bike_id": "a0c9c76336459522482fe23aecf6e7fe", "name": "a0c9c76336459522482fe23aecf6e7fe", "type": "electric_scooter", "fusion_lon": 0.0, "is_reserved": 0, "fusion_lat": 0.0, "lon": -76.98536133333333}, {"rental_uris": {"ios": "https://dc.lft.to/lastmile_qr_scan", "android": "https://dc.lft.to/lastmile_qr_scan"}, "lat": 38.91720883333333, "is_disabled": 0, "bike_id": "37dcc3adef10185fa55a70a1d581fc71", "name": "37dcc3adef10185fa55a70a1d581fc71", "type": "electric_scooter", "fusion_lon": 0.0, "is_reserved": 0, "fusion_lat": 0.0, "lon": -77.03351616666667}, {"rental_uris": {"ios": "https://dc.lft.to/lastmile_qr_scan", "android": "https://dc.lft.to/lastmile_qr_scan"}, "lat": 38.867077, "is_disabled": 0, "bike_id": "e20d8adf26f710355cbf534b767bce30", "name": "e20d8adf26f710355cbf534b767bce30", "type": "electric_scooter", "fusion_lon": 0.0, "is_reserved": 0, "fusion_lat": 0.0, "lon": -76.98735383333333}, {"rental_uris": {"ios": "https://dc.lft.to/lastmile_qr_scan", "android": "https://dc.lft.to/lastmile_qr_scan"}, "lat": 38.92293183333334, "is_disabled": 0, "bike_id": "73252da0c9e5ddec75220a0e0ff4d517", "name": "73252da0c9e5ddec75220a0e0ff4d517", "type": "electric_scooter", "fusion_lon": 0.0, "is_reserved": 0, "fusion_lat": 0.0, "lon": -77.03637833333333}, {"rental_uris": {"ios": "https://dc.lft.to/lastmile_qr_scan", "android": "https://dc.lft.to/lastmile_qr_scan"}, "lat": 38.9459855, "is_disabled": 0, "bike_id": "c500c6a6d3ab03c80fcba91c6cfb7e63", "name": "c500c6a6d3ab03c80fcba91c6cfb7e63", "type": "electric_scooter", "fusion_lon": 0.0, "is_reserved": 0, "fusion_lat": 0.0, "lon": -77.02984166666667}, {"rental_uris": {"ios": "https://dc.lft.to/lastmile_qr_scan", "android": "https://dc.lft.to/lastmile_qr_scan"}, "lat": 38.912668833333335, "is_disabled": 0, "bike_id": "f26343918b7633882ed86aa33d372c2f", "name": "f26343918b7633882ed86aa33d372c2f", "type": "electric_scooter", "fusion_lon": 0.0, "is_reserved": 0, "fusion_lat": 0.0, "lon": -77.038749}, {"rental_uris": {"ios": "https://dc.lft.to/lastmile_qr_scan", "android": "https://dc.lft.to/lastmile_qr_scan"}, "lat": 38.89617916666667, "is_disabled": 0, "bike_id": "5f917bdeeb171a775376c3b9d4fd47a9", "name": "5f917bdeeb171a775376c3b9d4fd47a9", "type": "electric_scooter", "fusion_lon": 0.0, "is_reserved": 0, "fusion_lat": 0.0, "lon": -76.999364}, {"rental_uris": {"ios": "https://dc.lft.to/lastmile_qr_scan", "android": "https://dc.lft.to/lastmile_qr_scan"}, "lat": 38.910265333333335, "is_disabled": 0, "bike_id": "cc38db58a700e992ba4e71f4f8d7c0dd", "name": "cc38db58a700e992ba4e71f4f8d7c0dd", "type": "electric_scooter", "fusion_lon": 0.0, "is_reserved": 0, "fusion_lat": 0.0, "lon": -77.0075875}, {"rental_uris": {"ios": "https://dc.lft.to/lastmile_qr_scan", "android": "https://dc.lft.to/lastmile_qr_scan"}, "lat": 38.958419, "is_disabled": 0, "bike_id": "72ccc6bc096ced7189045ce456e425e2", "name": "72ccc6bc096ced7189045ce456e425e2", "type": "electric_scooter", "fusion_lon": 0.0, "is_reserved": 0, "fusion_lat": 0.0, "lon": -77.0290205}, {"rental_uris": {"ios": "https://dc.lft.to/lastmile_qr_scan", "android": "https://dc.lft.to/lastmile_qr_scan"}, "lat": 38.92386783333333, "is_disabled": 0, "bike_id": "f8ded17f5c767eef5d366dd3496d9545", "name": "f8ded17f5c767eef5d366dd3496d9545", "type": "electric_scooter", "fusion_lon": 0.0, "is_reserved": 0, "fusion_lat": 0.0, "lon": -77.040739}, {"rental_uris": {"ios": "https://dc.lft.to/lastmile_qr_scan", "android": "https://dc.lft.to/lastmile_qr_scan"}, "lat": 38.916782833333336, "is_disabled": 0, "bike_id": "25d59046e4c38bac86432b304a43553f", "name": "25d59046e4c38bac86432b304a43553f", "type": "electric_bike", "fusion_lon": 0.0, "is_reserved": 0, "fusion_lat": 0.0, "lon": -77.09578816666667}, {"rental_uris": {"ios": "https://dc.lft.to/lastmile_qr_scan", "android": "https://dc.lft.to/lastmile_qr_scan"}, "lat": 38.884428166666666, "is_disabled": 0, "bike_id": "4cd3baeeda476a4256ee1b70da56f588", "name": "4cd3baeeda476a4256ee1b70da56f588", "type": "electric_scooter", "fusion_lon": 0.0, "is_reserved": 0, "fusion_lat": 0.0, "lon": -77.02348066666667}, {"rental_uris": {"ios": "https://dc.lft.to/lastmile_qr_scan", "android": "https://dc.lft.to/lastmile_qr_scan"}, "lat": 38.9245175, "is_disabled": 0, "bike_id": "1d2c260b59ac41931e7734e9ce5b73e9", "name": "1d2c260b59ac41931e7734e9ce5b73e9", "type": "electric_scooter", "fusion_lon": 0.0, "is_reserved": 0, "fusion_lat": 0.0, "lon": -77.038903}, {"rental_uris": {"ios": "https://dc.lft.to/lastmile_qr_scan", "android": "https://dc.lft.to/lastmile_qr_scan"}, "lat": 38.90687883333333, "is_disabled": 0, "bike_id": "0179c27ac9d194f2a36ee927d922445e", "name": "0179c27ac9d194f2a36ee927d922445e", "type": "electric_scooter", "fusion_lon": 0.0, "is_reserved": 0, "fusion_lat": 0.0, "lon": -77.0359675}, {"rental_uris": {"ios": "https://dc.lft.to/lastmile_qr_scan", "android": "https://dc.lft.to/lastmile_qr_scan"}, "lat": 38.9148775, "is_disabled": 0, "bike_id": "e137f8a9d5b2ab976834449e21bf58a3", "name": "e137f8a9d5b2ab976834449e21bf58a3", "type": "electric_scooter", "fusion_lon": 0.0, "is_reserved": 0, "fusion_lat": 0.0, "lon": -77.012092}, {"rental_uris": {"ios": "https://dc.lft.to/lastmile_qr_scan", "android": "https://dc.lft.to/lastmile_qr_scan"}, "lat": 38.93546516666667, "is_disabled": 0, "bike_id": "bc70b21142beabdfd8dc2ba206b85d0a", "name": "bc70b21142beabdfd8dc2ba206b85d0a", "type": "electric_bike", "fusion_lon": 0.0, "is_reserved": 0, "fusion_lat": 0.0, "lon": -77.037046}, {"rental_uris": {"ios": "https://dc.lft.to/lastmile_qr_scan", "android": "https://dc.lft.to/lastmile_qr_scan"}, "lat": 38.880214333333335, "is_disabled": 0, "bike_id": "4275c1eecd67d3dabb875035e2a6d7f2", "name": "4275c1eecd67d3dabb875035e2a6d7f2", "type": "electric_scooter", "fusion_lon": 0.0, "is_reserved": 0, "fusion_lat": 0.0, "lon": -77.02183833333333}, {"rental_uris": {"ios": "https://dc.lft.to/lastmile_qr_scan", "android": "https://dc.lft.to/lastmile_qr_scan"}, "lat": 38.958392833333335, "is_disabled": 0, "bike_id": "0be9aca4c9c262f74f18355e88356b22", "name": "0be9aca4c9c262f74f18355e88356b22", "type": "electric_scooter", "fusion_lon": 0.0, "is_reserved": 0, "fusion_lat": 0.0, "lon": -77.071708}, {"rental_uris": {"ios": "https://dc.lft.to/lastmile_qr_scan", "android": "https://dc.lft.to/lastmile_qr_scan"}, "lat": 39.024212, "is_disabled": 0, "bike_id": "93822ab20cb2be86a53e80deb3ccd43b", "name": "93822ab20cb2be86a53e80deb3ccd43b", "type": "electric_bike", "fusion_lon": 0.0, "is_reserved": 0, "fusion_lat": 0.0, "lon": -77.125041}, {"rental_uris": {"ios": "https://dc.lft.to/lastmile_qr_scan", "android": "https://dc.lft.to/lastmile_qr_scan"}, "lat": 38.90876466666667, "is_disabled": 0, "bike_id": "4a743ba35d6841ae6f728ec37eb48602", "name": "4a743ba35d6841ae6f728ec37eb48602", "type": "electric_scooter", "fusion_lon": 0.0, "is_reserved": 0, "fusion_lat": 0.0, "lon": -77.0433225}, {"rental_uris": {"ios": "https://dc.lft.to/lastmile_qr_scan", "android": "https://dc.lft.to/lastmile_qr_scan"}, "lat": 38.92602766666667, "is_disabled": 0, "bike_id": "0f8b7d14d425bd4738597e590cf727bf", "name": "0f8b7d14d425bd4738597e590cf727bf", "type": "electric_scooter", "fusion_lon": 0.0, "is_reserved": 0, "fusion_lat": 0.0, "lon": -77.02167566666667}, {"rental_uris": {"ios": "https://dc.lft.to/lastmile_qr_scan", "android": "https://dc.lft.to/lastmile_qr_scan"}, "lat": 38.903561833333335, "is_disabled": 0, "bike_id": "52ad534fcae568262a1ee2b4b64e8e5d", "name": "52ad534fcae568262a1ee2b4b64e8e5d", "type": "electric_scooter", "fusion_lon": 0.0, "is_reserved": 0, "fusion_lat": 0.0, "lon": -77.06042683333334}, {"rental_uris": {"ios": "https://dc.lft.to/lastmile_qr_scan", "android": "https://dc.lft.to/lastmile_qr_scan"}, "lat": 38.86693133333333, "is_disabled": 0, "bike_id": "a8d2db3ef0fa9022a6ae2ad97aa4978c", "name": "a8d2db3ef0fa9022a6ae2ad97aa4978c", "type": "electric_scooter", "fusion_lon": 0.0, "is_reserved": 0, "fusion_lat": 0.0, "lon": -76.9871495}, {"rental_uris": {"ios": "https://dc.lft.to/lastmile_qr_scan", "android": "https://dc.lft.to/lastmile_qr_scan"}, "lat": 38.8990735, "is_disabled": 0, "bike_id": "55e352898e23d8f4119a5fcb0e32efca", "name": "55e352898e23d8f4119a5fcb0e32efca", "type": "electric_scooter", "fusion_lon": 0.0, "is_reserved": 0, "fusion_lat": 0.0, "lon": -77.0076305}, {"rental_uris": {"ios": "https://dc.lft.to/lastmile_qr_scan", "android": "https://dc.lft.to/lastmile_qr_scan"}, "lat": 38.900980833333335, "is_disabled": 0, "bike_id": "f48cae493626e14f4abab86e98562848", "name": "f48cae493626e14f4abab86e98562848", "type": "electric_scooter", "fusion_lon": 0.0, "is_reserved": 0, "fusion_lat": 0.0, "lon": -77.03930766666667}, {"rental_uris": {"ios": "https://dc.lft.to/lastmile_qr_scan", "android": "https://dc.lft.to/lastmile_qr_scan"}, "lat": 38.905107666666666, "is_disabled": 0, "bike_id": "6b02561354b45f91f886b5e12e448455", "name": "6b02561354b45f91f886b5e12e448455", "type": "electric_scooter", "fusion_lon": 0.0, "is_reserved": 0, "fusion_lat": 0.0, "lon": -77.001742}, {"rental_uris": {"ios": "https://dc.lft.to/lastmile_qr_scan", "android": "https://dc.lft.to/lastmile_qr_scan"}, "lat": 39.007857, "is_disabled": 0, "bike_id": "d2e4366142f26c0fdc314422b58e885e", "name": "d2e4366142f26c0fdc314422b58e885e", "type": "electric_bike", "fusion_lon": 0.0, "is_reserved": 0, "fusion_lat": 0.0, "lon": -76.99571616666667}, {"rental_uris": {"ios": "https://dc.lft.to/lastmile_qr_scan", "android": "https://dc.lft.to/lastmile_qr_scan"}, "lat": 38.90415433333333, "is_disabled": 0, "bike_id": "619bbcfbd28ee86b11dba5007e144e18", "name": "619bbcfbd28ee86b11dba5007e144e18", "type": "electric_scooter", "fusion_lon": 0.0, "is_reserved": 0, "fusion_lat": 0.0, "lon": -77.017997}, {"rental_uris": {"ios": "https://dc.lft.to/lastmile_qr_scan", "android": "https://dc.lft.to/lastmile_qr_scan"}, "lat": 38.92049516666667, "is_disabled": 0, "bike_id": "8fc58510e6a14d5184c83782d6a84c74", "name": "8fc58510e6a14d5184c83782d6a84c74", "type": "electric_scooter", "fusion_lon": 0.0, "is_reserved": 0, "fusion_lat": 0.0, "lon": -77.03379933333333}, {"rental_uris": {"ios": "https://dc.lft.to/lastmile_qr_scan", "android": "https://dc.lft.to/lastmile_qr_scan"}, "lat": 38.88770433333333, "is_disabled": 0, "bike_id": "071ed2926a96396b291f10ed254e2267", "name": "071ed2926a96396b291f10ed254e2267", "type": "electric_scooter", "fusion_lon": 0.0, "is_reserved": 0, "fusion_lat": 0.0, "lon": -77.00180466666667}, {"rental_uris": {"ios": "https://dc.lft.to/lastmile_qr_scan", "android": "https://dc.lft.to/lastmile_qr_scan"}, "lat": 38.89814483333333, "is_disabled": 0, "bike_id": "4deea51587c23cbd0195526d84ae4a6f", "name": "4deea51587c23cbd0195526d84ae4a6f", "type": "electric_scooter", "fusion_lon": 0.0, "is_reserved": 0, "fusion_lat": 0.0, "lon": -77.03323983333334}, {"rental_uris": {"ios": "https://dc.lft.to/lastmile_qr_scan", "android": "https://dc.lft.to/lastmile_qr_scan"}, "lat": 38.91870333333333, "is_disabled": 0, "bike_id": "297fcc2d2d45864a62cd669ea36ccad2", "name": "297fcc2d2d45864a62cd669ea36ccad2", "type": "electric_scooter", "fusion_lon": 0.0, "is_reserved": 0, "fusion_lat": 0.0, "lon": -77.04720766666667}, {"rental_uris": {"ios": "https://dc.lft.to/lastmile_qr_scan", "android": "https://dc.lft.to/lastmile_qr_scan"}, "lat": 38.90237583333333, "is_disabled": 0, "bike_id": "5a90e98a6de0196227e046b81bbb80f7", "name": "5a90e98a6de0196227e046b81bbb80f7", "type": "electric_scooter", "fusion_lon": 0.0, "is_reserved": 0, "fusion_lat": 0.0, "lon": -77.02680916666667}, {"rental_uris": {"ios": "https://dc.lft.to/lastmile_qr_scan", "android": "https://dc.lft.to/lastmile_qr_scan"}, "lat": 38.91805266666667, "is_disabled": 0, "bike_id": "f6ec851893930e44ab46695d15e8a5d5", "name": "f6ec851893930e44ab46695d15e8a5d5", "type": "electric_scooter", "fusion_lon": 0.0, "is_reserved": 0, "fusion_lat": 0.0, "lon": -77.01026266666666}, {"rental_uris": {"ios": "https://dc.lft.to/lastmile_qr_scan", "android": "https://dc.lft.to/lastmile_qr_scan"}, "lat": 38.92900066666667, "is_disabled": 0, "bike_id": "39401196c08c45d8100110a239517f86", "name": "39401196c08c45d8100110a239517f86", "type": "electric_scooter", "fusion_lon": 0.0, "is_reserved": 0, "fusion_lat": 0.0, "lon": -77.0545735}, {"rental_uris": {"ios": "https://dc.lft.to/lastmile_qr_scan", "android": "https://dc.lft.to/lastmile_qr_scan"}, "lat": 38.9051245, "is_disabled": 0, "bike_id": "e91ae127b11911b7d2ab1c2f79e88ec8", "name": "e91ae127b11911b7d2ab1c2f79e88ec8", "type": "electric_scooter", "fusion_lon": 0.0, "is_reserved": 0, "fusion_lat": 0.0, "lon": -77.04058833333333}, {"rental_uris": {"ios": "https://dc.lft.to/lastmile_qr_scan", "android": "https://dc.lft.to/lastmile_qr_scan"}, "lat": 38.9132695, "is_disabled": 0, "bike_id": "7cbdd253b40a2868751008f1aab45a2f", "name": "7cbdd253b40a2868751008f1aab45a2f", "type": "electric_scooter", "fusion_lon": 0.0, "is_reserved": 0, "fusion_lat": 0.0, "lon": -77.04533966666666}, {"rental_uris": {"ios": "https://dc.lft.to/lastmile_qr_scan", "android": "https://dc.lft.to/lastmile_qr_scan"}, "lat": 38.90347766666667, "is_disabled": 0, "bike_id": "e3abb12007e017c8cca78b302a1d0510", "name": "e3abb12007e017c8cca78b302a1d0510", "type": "electric_scooter", "fusion_lon": 0.0, "is_reserved": 0, "fusion_lat": 0.0, "lon": -77.01703183333333}, {"rental_uris": {"ios": "https://dc.lft.to/lastmile_qr_scan", "android": "https://dc.lft.to/lastmile_qr_scan"}, "lat": 38.915484, "is_disabled": 0, "bike_id": "e6cfe6c584d743921e08bc4be277ba55", "name": "e6cfe6c584d743921e08bc4be277ba55", "type": "electric_scooter", "fusion_lon": 0.0, "is_reserved": 0, "fusion_lat": 0.0, "lon": -77.03467316666666}, {"rental_uris": {"ios": "https://dc.lft.to/lastmile_qr_scan", "android": "https://dc.lft.to/lastmile_qr_scan"}, "lat": 38.9248, "is_disabled": 0, "bike_id": "925323c8e97b08bd6b00f9ac5325a6b0", "name": "925323c8e97b08bd6b00f9ac5325a6b0", "type": "electric_scooter", "fusion_lon": 0.0, "is_reserved": 0, "fusion_lat": 0.0, "lon": -77.0278445}, {"rental_uris": {"ios": "https://dc.lft.to/lastmile_qr_scan", "android": "https://dc.lft.to/lastmile_qr_scan"}, "lat": 38.90600933333333, "is_disabled": 0, "bike_id": "78fd049b8fe457c9fc5a87eb0e331804", "name": "78fd049b8fe457c9fc5a87eb0e331804", "type": "electric_scooter", "fusion_lon": 0.0, "is_reserved": 0, "fusion_lat": 0.0, "lon": -77.005875}, {"rental_uris": {"ios": "https://dc.lft.to/lastmile_qr_scan", "android": "https://dc.lft.to/lastmile_qr_scan"}, "lat": 38.9143015, "is_disabled": 0, "bike_id": "34b000a8f3ee5b9cee25499408c5cd0e", "name": "34b000a8f3ee5b9cee25499408c5cd0e", "type": "electric_scooter", "fusion_lon": 0.0, "is_reserved": 0, "fusion_lat": 0.0, "lon": -77.02819633333333}, {"rental_uris": {"ios": "https://dc.lft.to/lastmile_qr_scan", "android": "https://dc.lft.to/lastmile_qr_scan"}, "lat": 38.8659615, "is_disabled": 0, "bike_id": "ff7fdf01cc564578b2b8b25277aba1c7", "name": "ff7fdf01cc564578b2b8b25277aba1c7", "type": "electric_bike", "fusion_lon": 0.0, "is_reserved": 0, "fusion_lat": 0.0, "lon": -76.93233516666666}, {"rental_uris": {"ios": "https://dc.lft.to/lastmile_qr_scan", "android": "https://dc.lft.to/lastmile_qr_scan"}, "lat": 38.95566133333333, "is_disabled": 0, "bike_id": "a90b7f0d48ce6264690404b1891bed5e", "name": "a90b7f0d48ce6264690404b1891bed5e", "type": "electric_scooter", "fusion_lon": 0.0, "is_reserved": 0, "fusion_lat": 0.0, "lon": -77.00634166666667}, {"rental_uris": {"ios": "https://dc.lft.to/lastmile_qr_scan", "android": "https://dc.lft.to/lastmile_qr_scan"}, "lat": 38.941338, "is_disabled": 0, "bike_id": "de367b3db314242bdcaf49ceadb768a3", "name": "de367b3db314242bdcaf49ceadb768a3", "type": "electric_scooter", "fusion_lon": 0.0, "is_reserved": 0, "fusion_lat": 0.0, "lon": -77.09207433333333}, {"rental_uris": {"ios": "https://dc.lft.to/lastmile_qr_scan", "android": "https://dc.lft.to/lastmile_qr_scan"}, "lat": 38.9125255, "is_disabled": 0, "bike_id": "28ad7f63c5084946ee50a7df8178d0fd", "name": "28ad7f63c5084946ee50a7df8178d0fd", "type": "electric_scooter", "fusion_lon": 0.0, "is_reserved": 0, "fusion_lat": 0.0, "lon": -77.00937433333333}, {"rental_uris": {"ios": "https://dc.lft.to/lastmile_qr_scan", "android": "https://dc.lft.to/lastmile_qr_scan"}, "lat": 38.900734, "is_disabled": 0, "bike_id": "0b52a902af84544782828a44a5f3e94a", "name": "0b52a902af84544782828a44a5f3e94a", "type": "electric_scooter", "fusion_lon": 0.0, "is_reserved": 0, "fusion_lat": 0.0, "lon": -77.00198583333334}, {"rental_uris": {"ios": "https://dc.lft.to/lastmile_qr_scan", "android": "https://dc.lft.to/lastmile_qr_scan"}, "lat": 38.91761733333333, "is_disabled": 0, "bike_id": "4f47bb6e9e1ddcf980ed2b7195832503", "name": "4f47bb6e9e1ddcf980ed2b7195832503", "type": "electric_scooter", "fusion_lon": 0.0, "is_reserved": 0, "fusion_lat": 0.0, "lon": -77.02492366666667}, {"rental_uris": {"ios": "https://dc.lft.to/lastmile_qr_scan", "android": "https://dc.lft.to/lastmile_qr_scan"}, "lat": 38.852185666666664, "is_disabled": 0, "bike_id": "6ddf8e1262fa83de93ccb379c8729c5b", "name": "6ddf8e1262fa83de93ccb379c8729c5b", "type": "electric_bike", "fusion_lon": 0.0, "is_reserved": 0, "fusion_lat": 0.0, "lon": -77.129624}, {"rental_uris": {"ios": "https://dc.lft.to/lastmile_qr_scan", "android": "https://dc.lft.to/lastmile_qr_scan"}, "lat": 38.89483766666667, "is_disabled": 0, "bike_id": "06ba6b8b043c6864cfa857d220e51b56", "name": "06ba6b8b043c6864cfa857d220e51b56", "type": "electric_scooter", "fusion_lon": 0.0, "is_reserved": 0, "fusion_lat": 0.0, "lon": -76.99518683333334}, {"rental_uris": {"ios": "https://dc.lft.to/lastmile_qr_scan", "android": "https://dc.lft.to/lastmile_qr_scan"}, "lat": 38.8988445, "is_disabled": 0, "bike_id": "0aeae4da357c06e177d45bc31ec55511", "name": "0aeae4da357c06e177d45bc31ec55511", "type": "electric_scooter", "fusion_lon": 0.0, "is_reserved": 0, "fusion_lat": 0.0, "lon": -76.93176966666667}, {"rental_uris": {"ios": "https://dc.lft.to/lastmile_qr_scan", "android": "https://dc.lft.to/lastmile_qr_scan"}, "lat": 38.88628716666667, "is_disabled": 0, "bike_id": "a267bbc3f4a9a7e3fd7f2ca1759518ae", "name": "a267bbc3f4a9a7e3fd7f2ca1759518ae", "type": "electric_scooter", "fusion_lon": 0.0, "is_reserved": 0, "fusion_lat": 0.0, "lon": -77.03202683333333}, {"rental_uris": {"ios": "https://dc.lft.to/lastmile_qr_scan", "android": "https://dc.lft.to/lastmile_qr_scan"}, "lat": 38.904057, "is_disabled": 0, "bike_id": "37bfdc638a9a385f46e6f7e43bbf501b", "name": "37bfdc638a9a385f46e6f7e43bbf501b", "type": "electric_scooter", "fusion_lon": 0.0, "is_reserved": 0, "fusion_lat": 0.0, "lon": -77.032545}, {"rental_uris": {"ios": "https://dc.lft.to/lastmile_qr_scan", "android": "https://dc.lft.to/lastmile_qr_scan"}, "lat": 38.91104883333333, "is_disabled": 0, "bike_id": "88e2955cab0e542f3e391b5cf1fbe895", "name": "88e2955cab0e542f3e391b5cf1fbe895", "type": "electric_scooter", "fusion_lon": 0.0, "is_reserved": 0, "fusion_lat": 0.0, "lon": -77.04407966666666}, {"rental_uris": {"ios": "https://dc.lft.to/lastmile_qr_scan", "android": "https://dc.lft.to/lastmile_qr_scan"}, "lat": 38.902909333333334, "is_disabled": 0, "bike_id": "aa6bab4f584376d064aa559a4220b421", "name": "aa6bab4f584376d064aa559a4220b421", "type": "electric_scooter", "fusion_lon": 0.0, "is_reserved": 0, "fusion_lat": 0.0, "lon": -77.00227316666667}, {"rental_uris": {"ios": "https://dc.lft.to/lastmile_qr_scan", "android": "https://dc.lft.to/lastmile_qr_scan"}, "lat": 38.94163283333334, "is_disabled": 0, "bike_id": "72aa43c63e130945e686cb9a6e851503", "name": "72aa43c63e130945e686cb9a6e851503", "type": "electric_scooter", "fusion_lon": 0.0, "is_reserved": 0, "fusion_lat": 0.0, "lon": -77.0256015}, {"rental_uris": {"ios": "https://dc.lft.to/lastmile_qr_scan", "android": "https://dc.lft.to/lastmile_qr_scan"}, "lat": 38.893328, "is_disabled": 0, "bike_id": "f6333628d692682fe617f07cbc7ac7e7", "name": "f6333628d692682fe617f07cbc7ac7e7", "type": "electric_scooter", "fusion_lon": 0.0, "is_reserved": 0, "fusion_lat": 0.0, "lon": -77.04661166666666}, {"rental_uris": {"ios": "https://dc.lft.to/lastmile_qr_scan", "android": "https://dc.lft.to/lastmile_qr_scan"}, "lat": 38.9231015, "is_disabled": 0, "bike_id": "72ff423a46e04fe2c2e1041601a0472b", "name": "72ff423a46e04fe2c2e1041601a0472b", "type": "electric_scooter", "fusion_lon": 0.0, "is_reserved": 0, "fusion_lat": 0.0, "lon": -77.04638533333333}, {"rental_uris": {"ios": "https://dc.lft.to/lastmile_qr_scan", "android": "https://dc.lft.to/lastmile_qr_scan"}, "lat": 38.91634716666667, "is_disabled": 0, "bike_id": "fdefd8896eec65685d210037afc8e716", "name": "fdefd8896eec65685d210037afc8e716", "type": "electric_scooter", "fusion_lon": 0.0, "is_reserved": 0, "fusion_lat": 0.0, "lon": -77.02283833333334}, {"rental_uris": {"ios": "https://dc.lft.to/lastmile_qr_scan", "android": "https://dc.lft.to/lastmile_qr_scan"}, "lat": 38.91549833333333, "is_disabled": 0, "bike_id": "58cba1138938ef588ee91f0cee9ffed4", "name": "58cba1138938ef588ee91f0cee9ffed4", "type": "electric_scooter", "fusion_lon": 0.0, "is_reserved": 0, "fusion_lat": 0.0, "lon": -77.0083695}, {"rental_uris": {"ios": "https://dc.lft.to/lastmile_qr_scan", "android": "https://dc.lft.to/lastmile_qr_scan"}, "lat": 38.9250125, "is_disabled": 0, "bike_id": "4d14b7629918acf2e0431492490a4929", "name": "4d14b7629918acf2e0431492490a4929", "type": "electric_scooter", "fusion_lon": 0.0, "is_reserved": 0, "fusion_lat": 0.0, "lon": -77.027032}, {"rental_uris": {"ios": "https://dc.lft.to/lastmile_qr_scan", "android": "https://dc.lft.to/lastmile_qr_scan"}, "lat": 38.93696533333333, "is_disabled": 0, "bike_id": "55a3a029b957d6366dfd7b9c6404b0eb", "name": "55a3a029b957d6366dfd7b9c6404b0eb", "type": "electric_scooter", "fusion_lon": 0.0, "is_reserved": 0, "fusion_lat": 0.0, "lon": -77.02119}, {"rental_uris": {"ios": "https://dc.lft.to/lastmile_qr_scan", "android": "https://dc.lft.to/lastmile_qr_scan"}, "lat": 38.92645683333333, "is_disabled": 0, "bike_id": "3e9a427b5d1d52fa2e8c1a48f0ee3477", "name": "3e9a427b5d1d52fa2e8c1a48f0ee3477", "type": "electric_scooter", "fusion_lon": 0.0, "is_reserved": 0, "fusion_lat": 0.0, "lon": -77.04059666666667}, {"rental_uris": {"ios": "https://dc.lft.to/lastmile_qr_scan", "android": "https://dc.lft.to/lastmile_qr_scan"}, "lat": 38.8973615, "is_disabled": 0, "bike_id": "61bf218ad877b01e5acbeae6d2d6e31d", "name": "61bf218ad877b01e5acbeae6d2d6e31d", "type": "electric_bike", "fusion_lon": 0.0, "is_reserved": 0, "fusion_lat": 0.0, "lon": -76.90537716666667}, {"rental_uris": {"ios": "https://dc.lft.to/lastmile_qr_scan", "android": "https://dc.lft.to/lastmile_qr_scan"}, "lat": 38.892882, "is_disabled": 0, "bike_id": "22f0f467211657ab3577a1183251e764", "name": "22f0f467211657ab3577a1183251e764", "type": "electric_scooter", "fusion_lon": 0.0, "is_reserved": 0, "fusion_lat": 0.0, "lon": -77.02632683333333}, {"rental_uris": {"ios": "https://dc.lft.to/lastmile_qr_scan", "android": "https://dc.lft.to/lastmile_qr_scan"}, "lat": 38.90240216666667, "is_disabled": 0, "bike_id": "ad59087f111f64633bd05026a2146e2a", "name": "ad59087f111f64633bd05026a2146e2a", "type": "electric_scooter", "fusion_lon": 0.0, "is_reserved": 0, "fusion_lat": 0.0, "lon": -77.03285666666666}, {"rental_uris": {"ios": "https://dc.lft.to/lastmile_qr_scan", "android": "https://dc.lft.to/lastmile_qr_scan"}, "lat": 38.887434666666664, "is_disabled": 0, "bike_id": "b91fecf0ef9bdccbb0bbfa7ff92bf9e5", "name": "b91fecf0ef9bdccbb0bbfa7ff92bf9e5", "type": "electric_scooter", "fusion_lon": 0.0, "is_reserved": 0, "fusion_lat": 0.0, "lon": -77.02170866666667}, {"rental_uris": {"ios": "https://dc.lft.to/lastmile_qr_scan", "android": "https://dc.lft.to/lastmile_qr_scan"}, "lat": 38.910973166666665, "is_disabled": 0, "bike_id": "04216f9f0f82c08bae2a4fe76b8b19c2", "name": "04216f9f0f82c08bae2a4fe76b8b19c2", "type": "electric_scooter", "fusion_lon": 0.0, "is_reserved": 0, "fusion_lat": 0.0, "lon": -77.0439745}, {"rental_uris": {"ios": "https://dc.lft.to/lastmile_qr_scan", "android": "https://dc.lft.to/lastmile_qr_scan"}, "lat": 38.94968516666667, "is_disabled": 0, "bike_id": "ae1ed4c23689628026ce1729b3ce47ff", "name": "ae1ed4c23689628026ce1729b3ce47ff", "type": "electric_bike", "fusion_lon": 0.0, "is_reserved": 0, "fusion_lat": 0.0, "lon": -76.96095116666666}, {"rental_uris": {"ios": "https://dc.lft.to/lastmile_qr_scan", "android": "https://dc.lft.to/lastmile_qr_scan"}, "lat": 38.89797466666667, "is_disabled": 0, "bike_id": "5db0b841f2b3aceecf86d0b3ad8986d6", "name": "5db0b841f2b3aceecf86d0b3ad8986d6", "type": "electric_scooter", "fusion_lon": 0.0, "is_reserved": 0, "fusion_lat": 0.0, "lon": -77.0271885}, {"rental_uris": {"ios": "https://dc.lft.to/lastmile_qr_scan", "android": "https://dc.lft.to/lastmile_qr_scan"}, "lat": 38.901141, "is_disabled": 0, "bike_id": "6b35cd00fb9b4c47ba913cc93332c031", "name": "6b35cd00fb9b4c47ba913cc93332c031", "type": "electric_scooter", "fusion_lon": 0.0, "is_reserved": 0, "fusion_lat": 0.0, "lon": -77.03259933333334}, {"rental_uris": {"ios": "https://dc.lft.to/lastmile_qr_scan", "android": "https://dc.lft.to/lastmile_qr_scan"}, "lat": 38.91864283333334, "is_disabled": 0, "bike_id": "2d2ce8b5431e7c0b4cbcdd8d5042a9fc", "name": "2d2ce8b5431e7c0b4cbcdd8d5042a9fc", "type": "electric_bike", "fusion_lon": 0.0, "is_reserved": 0, "fusion_lat": 0.0, "lon": -76.99948033333334}, {"rental_uris": {"ios": "https://dc.lft.to/lastmile_qr_scan", "android": "https://dc.lft.to/lastmile_qr_scan"}, "lat": 38.94291466666667, "is_disabled": 0, "bike_id": "5ca379239be0ebc3638727e46bd6dd22", "name": "5ca379239be0ebc3638727e46bd6dd22", "type": "electric_scooter", "fusion_lon": 0.0, "is_reserved": 0, "fusion_lat": 0.0, "lon": -77.02763733333333}, {"rental_uris": {"ios": "https://dc.lft.to/lastmile_qr_scan", "android": "https://dc.lft.to/lastmile_qr_scan"}, "lat": 38.8585975, "is_disabled": 0, "bike_id": "ba27019d500276dbeb650f65aa38defa", "name": "ba27019d500276dbeb650f65aa38defa", "type": "electric_bike", "fusion_lon": 0.0, "is_reserved": 0, "fusion_lat": 0.0, "lon": -77.10101533333334}, {"rental_uris": {"ios": "https://dc.lft.to/lastmile_qr_scan", "android": "https://dc.lft.to/lastmile_qr_scan"}, "lat": 38.89475233333334, "is_disabled": 0, "bike_id": "bf2ed5041a80de339f2b96969cdd5ff8", "name": "bf2ed5041a80de339f2b96969cdd5ff8", "type": "electric_scooter", "fusion_lon": 0.0, "is_reserved": 0, "fusion_lat": 0.0, "lon": -77.027796}, {"rental_uris": {"ios": "https://dc.lft.to/lastmile_qr_scan", "android": "https://dc.lft.to/lastmile_qr_scan"}, "lat": 38.83803833333333, "is_disabled": 0, "bike_id": "5b4c9520d38a4607bc8c22eaf7afc11e", "name": "5b4c9520d38a4607bc8c22eaf7afc11e", "type": "electric_bike", "fusion_lon": 0.0, "is_reserved": 0, "fusion_lat": 0.0, "lon": -77.09554733333333}, {"rental_uris": {"ios": "https://dc.lft.to/lastmile_qr_scan", "android": "https://dc.lft.to/lastmile_qr_scan"}, "lat": 38.9177695, "is_disabled": 0, "bike_id": "b9594d61aaf6944bac2a3fc0388611f0", "name": "b9594d61aaf6944bac2a3fc0388611f0", "type": "electric_scooter", "fusion_lon": 0.0, "is_reserved": 0, "fusion_lat": 0.0, "lon": -77.0425025}, {"rental_uris": {"ios": "https://dc.lft.to/lastmile_qr_scan", "android": "https://dc.lft.to/lastmile_qr_scan"}, "lat": 38.88609, "is_disabled": 0, "bike_id": "13f09b71963335ca18bf4bd681ddb7cd", "name": "13f09b71963335ca18bf4bd681ddb7cd", "type": "electric_scooter", "fusion_lon": 0.0, "is_reserved": 0, "fusion_lat": 0.0, "lon": -76.99654133333334}, {"rental_uris": {"ios": "https://dc.lft.to/lastmile_qr_scan", "android": "https://dc.lft.to/lastmile_qr_scan"}, "lat": 38.91813483333333, "is_disabled": 0, "bike_id": "2afc5f6ad4396ab064cfa9b6cba66cfb", "name": "2afc5f6ad4396ab064cfa9b6cba66cfb", "type": "electric_scooter", "fusion_lon": 0.0, "is_reserved": 0, "fusion_lat": 0.0, "lon": -77.0248135}, {"rental_uris": {"ios": "https://dc.lft.to/lastmile_qr_scan", "android": "https://dc.lft.to/lastmile_qr_scan"}, "lat": 38.928469, "is_disabled": 0, "bike_id": "4c8620bb6f1c4504a3f126302a786a2f", "name": "4c8620bb6f1c4504a3f126302a786a2f", "type": "electric_bike", "fusion_lon": 0.0, "is_reserved": 0, "fusion_lat": 0.0, "lon": -77.10507283333334}, {"rental_uris": {"ios": "https://dc.lft.to/lastmile_qr_scan", "android": "https://dc.lft.to/lastmile_qr_scan"}, "lat": 38.859714, "is_disabled": 0, "bike_id": "add4692ecd994dc6c36195aa9619f5d5", "name": "add4692ecd994dc6c36195aa9619f5d5", "type": "electric_scooter", "fusion_lon": 0.0, "is_reserved": 0, "fusion_lat": 0.0, "lon": -76.9841435}, {"rental_uris": {"ios": "https://dc.lft.to/lastmile_qr_scan", "android": "https://dc.lft.to/lastmile_qr_scan"}, "lat": 38.907822, "is_disabled": 0, "bike_id": "89c85e88de054861229a5e70a95fea62", "name": "89c85e88de054861229a5e70a95fea62", "type": "electric_scooter", "fusion_lon": 0.0, "is_reserved": 0, "fusion_lat": 0.0, "lon": -77.045096}, {"rental_uris": {"ios": "https://dc.lft.to/lastmile_qr_scan", "android": "https://dc.lft.to/lastmile_qr_scan"}, "lat": 38.89473233333333, "is_disabled": 0, "bike_id": "cf82d86d5a9de751b7b3620f1a8e4b28", "name": "cf82d86d5a9de751b7b3620f1a8e4b28", "type": "electric_scooter", "fusion_lon": 0.0, "is_reserved": 0, "fusion_lat": 0.0, "lon": -77.027803}, {"rental_uris": {"ios": "https://dc.lft.to/lastmile_qr_scan", "android": "https://dc.lft.to/lastmile_qr_scan"}, "lat": 38.905050833333334, "is_disabled": 0, "bike_id": "e44c96ded4392b0204b4d2b60ee324ed", "name": "e44c96ded4392b0204b4d2b60ee324ed", "type": "electric_scooter", "fusion_lon": 0.0, "is_reserved": 0, "fusion_lat": 0.0, "lon": -77.04345366666666}, {"rental_uris": {"ios": "https://dc.lft.to/lastmile_qr_scan", "android": "https://dc.lft.to/lastmile_qr_scan"}, "lat": 38.8966185, "is_disabled": 0, "bike_id": "dbe74f0a46ce1a7db0c94179788eb584", "name": "dbe74f0a46ce1a7db0c94179788eb584", "type": "electric_scooter", "fusion_lon": 0.0, "is_reserved": 0, "fusion_lat": 0.0, "lon": -76.99640166666667}, {"rental_uris": {"ios": "https://dc.lft.to/lastmile_qr_scan", "android": "https://dc.lft.to/lastmile_qr_scan"}, "lat": 38.92246816666667, "is_disabled": 0, "bike_id": "826ef38e91a7e392a01a8ba5f71428e3", "name": "826ef38e91a7e392a01a8ba5f71428e3", "type": "electric_scooter", "fusion_lon": 0.0, "is_reserved": 0, "fusion_lat": 0.0, "lon": -77.09958116666667}, {"rental_uris": {"ios": "https://dc.lft.to/lastmile_qr_scan", "android": "https://dc.lft.to/lastmile_qr_scan"}, "lat": 38.88741983333333, "is_disabled": 0, "bike_id": "7f61b429c70b61013228a5086798e75d", "name": "7f61b429c70b61013228a5086798e75d", "type": "electric_scooter", "fusion_lon": 0.0, "is_reserved": 0, "fusion_lat": 0.0, "lon": -77.01605783333333}, {"rental_uris": {"ios": "https://dc.lft.to/lastmile_qr_scan", "android": "https://dc.lft.to/lastmile_qr_scan"}, "lat": 38.90533633333333, "is_disabled": 0, "bike_id": "3a2291437198c3434543e7608fa7b95e", "name": "3a2291437198c3434543e7608fa7b95e", "type": "electric_bike", "fusion_lon": 0.0, "is_reserved": 0, "fusion_lat": 0.0, "lon": -77.0576215}, {"rental_uris": {"ios": "https://dc.lft.to/lastmile_qr_scan", "android": "https://dc.lft.to/lastmile_qr_scan"}, "lat": 38.9266715, "is_disabled": 0, "bike_id": "57509393721b6fcd80e219368d29dac3", "name": "57509393721b6fcd80e219368d29dac3", "type": "electric_scooter", "fusion_lon": 0.0, "is_reserved": 0, "fusion_lat": 0.0, "lon": -77.07844316666667}, {"rental_uris": {"ios": "https://dc.lft.to/lastmile_qr_scan", "android": "https://dc.lft.to/lastmile_qr_scan"}, "lat": 38.88725483333333, "is_disabled": 0, "bike_id": "ff39e7f79c2b72375b752c27cc8e66b1", "name": "ff39e7f79c2b72375b752c27cc8e66b1", "type": "electric_scooter", "fusion_lon": 0.0, "is_reserved": 0, "fusion_lat": 0.0, "lon": -77.022703}, {"rental_uris": {"ios": "https://dc.lft.to/lastmile_qr_scan", "android": "https://dc.lft.to/lastmile_qr_scan"}, "lat": 38.894749166666664, "is_disabled": 0, "bike_id": "d91c73fd359e6cb56b9029b12615da6f", "name": "d91c73fd359e6cb56b9029b12615da6f", "type": "electric_scooter", "fusion_lon": 0.0, "is_reserved": 0, "fusion_lat": 0.0, "lon": -77.02776533333333}, {"rental_uris": {"ios": "https://dc.lft.to/lastmile_qr_scan", "android": "https://dc.lft.to/lastmile_qr_scan"}, "lat": 38.925402166666665, "is_disabled": 0, "bike_id": "4179e4b663ee8a6d31b0b20496f6a027", "name": "4179e4b663ee8a6d31b0b20496f6a027", "type": "electric_scooter", "fusion_lon": 0.0, "is_reserved": 0, "fusion_lat": 0.0, "lon": -77.04062016666667}, {"rental_uris": {"ios": "https://dc.lft.to/lastmile_qr_scan", "android": "https://dc.lft.to/lastmile_qr_scan"}, "lat": 38.85866433333333, "is_disabled": 0, "bike_id": "9b4e1a9a8d8d461d1f22afea0641e7d9", "name": "9b4e1a9a8d8d461d1f22afea0641e7d9", "type": "electric_scooter", "fusion_lon": 0.0, "is_reserved": 0, "fusion_lat": 0.0, "lon": -76.99021333333333}, {"rental_uris": {"ios": "https://dc.lft.to/lastmile_qr_scan", "android": "https://dc.lft.to/lastmile_qr_scan"}, "lat": 38.86047033333333, "is_disabled": 0, "bike_id": "591191b156bc419ed84167b4d3877c3f", "name": "591191b156bc419ed84167b4d3877c3f", "type": "electric_scooter", "fusion_lon": 0.0, "is_reserved": 0, "fusion_lat": 0.0, "lon": -76.98500633333333}, {"rental_uris": {"ios": "https://dc.lft.to/lastmile_qr_scan", "android": "https://dc.lft.to/lastmile_qr_scan"}, "lat": 38.9087825, "is_disabled": 0, "bike_id": "4024d77b950ad76732831873214f3ea7", "name": "4024d77b950ad76732831873214f3ea7", "type": "electric_scooter", "fusion_lon": 0.0, "is_reserved": 0, "fusion_lat": 0.0, "lon": -77.0324395}, {"rental_uris": {"ios": "https://dc.lft.to/lastmile_qr_scan", "android": "https://dc.lft.to/lastmile_qr_scan"}, "lat": 38.90786716666667, "is_disabled": 0, "bike_id": "5ac3ce3c62ecb6f9567132cd211beed7", "name": "5ac3ce3c62ecb6f9567132cd211beed7", "type": "electric_scooter", "fusion_lon": 0.0, "is_reserved": 0, "fusion_lat": 0.0, "lon": -77.0319585}, {"rental_uris": {"ios": "https://dc.lft.to/lastmile_qr_scan", "android": "https://dc.lft.to/lastmile_qr_scan"}, "lat": 38.90361133333333, "is_disabled": 0, "bike_id": "ee1afeee2e7738cbcea22300d49e4423", "name": "ee1afeee2e7738cbcea22300d49e4423", "type": "electric_scooter", "fusion_lon": 0.0, "is_reserved": 0, "fusion_lat": 0.0, "lon": -77.03968083333334}, {"rental_uris": {"ios": "https://dc.lft.to/lastmile_qr_scan", "android": "https://dc.lft.to/lastmile_qr_scan"}, "lat": 38.91478583333333, "is_disabled": 0, "bike_id": "e84f4407197eb0856742087001924572", "name": "e84f4407197eb0856742087001924572", "type": "electric_scooter", "fusion_lon": 0.0, "is_reserved": 0, "fusion_lat": 0.0, "lon": -77.0028205}, {"rental_uris": {"ios": "https://dc.lft.to/lastmile_qr_scan", "android": "https://dc.lft.to/lastmile_qr_scan"}, "lat": 38.907602833333335, "is_disabled": 0, "bike_id": "0b6b05c4672ec09fa08b60afe3492ade", "name": "0b6b05c4672ec09fa08b60afe3492ade", "type": "electric_scooter", "fusion_lon": 0.0, "is_reserved": 0, "fusion_lat": 0.0, "lon": -77.031901}, {"rental_uris": {"ios": "https://dc.lft.to/lastmile_qr_scan", "android": "https://dc.lft.to/lastmile_qr_scan"}, "lat": 38.892208833333335, "is_disabled": 0, "bike_id": "6205650fda7e920a1cb70d18a3f14b34", "name": "6205650fda7e920a1cb70d18a3f14b34", "type": "electric_scooter", "fusion_lon": 0.0, "is_reserved": 0, "fusion_lat": 0.0, "lon": -77.02545933333333}, {"rental_uris": {"ios": "https://dc.lft.to/lastmile_qr_scan", "android": "https://dc.lft.to/lastmile_qr_scan"}, "lat": 38.91107433333333, "is_disabled": 0, "bike_id": "b3b08b6f85666f02f3c84e3e4f5d7215", "name": "b3b08b6f85666f02f3c84e3e4f5d7215", "type": "electric_scooter", "fusion_lon": 0.0, "is_reserved": 0, "fusion_lat": 0.0, "lon": -77.02140883333334}, {"rental_uris": {"ios": "https://dc.lft.to/lastmile_qr_scan", "android": "https://dc.lft.to/lastmile_qr_scan"}, "lat": 38.950178666666666, "is_disabled": 0, "bike_id": "d21b313f93c0f1a6b0157fa92b650c50", "name": "d21b313f93c0f1a6b0157fa92b650c50", "type": "electric_scooter", "fusion_lon": 0.0, "is_reserved": 0, "fusion_lat": 0.0, "lon": -77.06704283333333}, {"rental_uris": {"ios": "https://dc.lft.to/lastmile_qr_scan", "android": "https://dc.lft.to/lastmile_qr_scan"}, "lat": 38.88334916666667, "is_disabled": 0, "bike_id": "7b3a75e091019733c4a95615c6c35807", "name": "7b3a75e091019733c4a95615c6c35807", "type": "electric_bike", "fusion_lon": 0.0, "is_reserved": 0, "fusion_lat": 0.0, "lon": -77.18298533333333}, {"rental_uris": {"ios": "https://dc.lft.to/lastmile_qr_scan", "android": "https://dc.lft.to/lastmile_qr_scan"}, "lat": 38.90350866666667, "is_disabled": 0, "bike_id": "4c9962d80f4b9ca39cc59653d667ab4a", "name": "4c9962d80f4b9ca39cc59653d667ab4a", "type": "electric_scooter", "fusion_lon": 0.0, "is_reserved": 0, "fusion_lat": 0.0, "lon": -77.0432545}, {"rental_uris": {"ios": "https://dc.lft.to/lastmile_qr_scan", "android": "https://dc.lft.to/lastmile_qr_scan"}, "lat": 38.89901283333333, "is_disabled": 0, "bike_id": "aa7eecc722c23927f4dac3e6c93ad4d8", "name": "aa7eecc722c23927f4dac3e6c93ad4d8", "type": "electric_scooter", "fusion_lon": 0.0, "is_reserved": 0, "fusion_lat": 0.0, "lon": -76.93348366666666}, {"rental_uris": {"ios": "https://dc.lft.to/lastmile_qr_scan", "android": "https://dc.lft.to/lastmile_qr_scan"}, "lat": 38.93567316666667, "is_disabled": 0, "bike_id": "d17bdb52ac87b00b09290ddd743db44c", "name": "d17bdb52ac87b00b09290ddd743db44c", "type": "electric_bike", "fusion_lon": 0.0, "is_reserved": 0, "fusion_lat": 0.0, "lon": -76.95466733333333}, {"rental_uris": {"ios": "https://dc.lft.to/lastmile_qr_scan", "android": "https://dc.lft.to/lastmile_qr_scan"}, "lat": 38.91094233333333, "is_disabled": 0, "bike_id": "3ca21adc72c84807ea4e7863e1266c35", "name": "3ca21adc72c84807ea4e7863e1266c35", "type": "electric_scooter", "fusion_lon": 0.0, "is_reserved": 0, "fusion_lat": 0.0, "lon": -77.0016885}, {"rental_uris": {"ios": "https://dc.lft.to/lastmile_qr_scan", "android": "https://dc.lft.to/lastmile_qr_scan"}, "lat": 38.91705566666667, "is_disabled": 0, "bike_id": "63fcdf6c6ed310b746009cf109c0ffb8", "name": "63fcdf6c6ed310b746009cf109c0ffb8", "type": "electric_scooter", "fusion_lon": 0.0, "is_reserved": 0, "fusion_lat": 0.0, "lon": -77.029068}, {"rental_uris": {"ios": "https://dc.lft.to/lastmile_qr_scan", "android": "https://dc.lft.to/lastmile_qr_scan"}, "lat": 38.89853333333333, "is_disabled": 0, "bike_id": "fce0129e6e984a790d144db6357aa0cf", "name": "fce0129e6e984a790d144db6357aa0cf", "type": "electric_scooter", "fusion_lon": 0.0, "is_reserved": 0, "fusion_lat": 0.0, "lon": -76.9903555}, {"rental_uris": {"ios": "https://dc.lft.to/lastmile_qr_scan", "android": "https://dc.lft.to/lastmile_qr_scan"}, "lat": 38.938691, "is_disabled": 0, "bike_id": "011608a3424abe0eb329f400312ef73a", "name": "011608a3424abe0eb329f400312ef73a", "type": "electric_bike", "fusion_lon": 0.0, "is_reserved": 0, "fusion_lat": 0.0, "lon": -77.04235683333333}, {"rental_uris": {"ios": "https://dc.lft.to/lastmile_qr_scan", "android": "https://dc.lft.to/lastmile_qr_scan"}, "lat": 38.93017, "is_disabled": 0, "bike_id": "11603457c5ed9bf4b74c916cf3ef5449", "name": "11603457c5ed9bf4b74c916cf3ef5449", "type": "electric_scooter", "fusion_lon": 0.0, "is_reserved": 0, "fusion_lat": 0.0, "lon": -77.03243566666667}, {"rental_uris": {"ios": "https://dc.lft.to/lastmile_qr_scan", "android": "https://dc.lft.to/lastmile_qr_scan"}, "lat": 38.929588, "is_disabled": 0, "bike_id": "2ff4e9d095f2542c1794f993d9400437", "name": "2ff4e9d095f2542c1794f993d9400437", "type": "electric_scooter", "fusion_lon": 0.0, "is_reserved": 0, "fusion_lat": 0.0, "lon": -77.05527666666667}, {"rental_uris": {"ios": "https://dc.lft.to/lastmile_qr_scan", "android": "https://dc.lft.to/lastmile_qr_scan"}, "lat": 38.9087705, "is_disabled": 0, "bike_id": "065742f9bc01c0264663f24443148707", "name": "065742f9bc01c0264663f24443148707", "type": "electric_scooter", "fusion_lon": 0.0, "is_reserved": 0, "fusion_lat": 0.0, "lon": -77.01835883333334}, {"rental_uris": {"ios": "https://dc.lft.to/lastmile_qr_scan", "android": "https://dc.lft.to/lastmile_qr_scan"}, "lat": 38.86356333333333, "is_disabled": 0, "bike_id": "4c6dcb8b9fd255affd60ddcdcd636b6d", "name": "4c6dcb8b9fd255affd60ddcdcd636b6d", "type": "electric_scooter", "fusion_lon": 0.0, "is_reserved": 0, "fusion_lat": 0.0, "lon": -76.982658}, {"rental_uris": {"ios": "https://dc.lft.to/lastmile_qr_scan", "android": "https://dc.lft.to/lastmile_qr_scan"}, "lat": 38.911954333333334, "is_disabled": 0, "bike_id": "b2c7e0a1a0bc76e7464ff8f26157a604", "name": "b2c7e0a1a0bc76e7464ff8f26157a604", "type": "electric_scooter", "fusion_lon": 0.0, "is_reserved": 0, "fusion_lat": 0.0, "lon": -77.0295125}, {"rental_uris": {"ios": "https://dc.lft.to/lastmile_qr_scan", "android": "https://dc.lft.to/lastmile_qr_scan"}, "lat": 38.953265, "is_disabled": 0, "bike_id": "0b45fd5ff48521f138ec19ed2199f223", "name": "0b45fd5ff48521f138ec19ed2199f223", "type": "electric_scooter", "fusion_lon": 0.0, "is_reserved": 0, "fusion_lat": 0.0, "lon": -77.016587}, {"rental_uris": {"ios": "https://dc.lft.to/lastmile_qr_scan", "android": "https://dc.lft.to/lastmile_qr_scan"}, "lat": 38.92287116666667, "is_disabled": 0, "bike_id": "2479c494b2a207f1a17d42ce3f0e19f5", "name": "2479c494b2a207f1a17d42ce3f0e19f5", "type": "electric_scooter", "fusion_lon": 0.0, "is_reserved": 0, "fusion_lat": 0.0, "lon": -76.99755366666666}, {"rental_uris": {"ios": "https://dc.lft.to/lastmile_qr_scan", "android": "https://dc.lft.to/lastmile_qr_scan"}, "lat": 38.9445425, "is_disabled": 0, "bike_id": "c88f251b6cea2ba0d7e31be1894e30b5", "name": "c88f251b6cea2ba0d7e31be1894e30b5", "type": "electric_scooter", "fusion_lon": 0.0, "is_reserved": 0, "fusion_lat": 0.0, "lon": -77.0281275}, {"rental_uris": {"ios": "https://dc.lft.to/lastmile_qr_scan", "android": "https://dc.lft.to/lastmile_qr_scan"}, "lat": 38.89224166666666, "is_disabled": 0, "bike_id": "1f62567508f8af95fb9c82615491d0cd", "name": "1f62567508f8af95fb9c82615491d0cd", "type": "electric_scooter", "fusion_lon": 0.0, "is_reserved": 0, "fusion_lat": 0.0, "lon": -77.0500565}, {"rental_uris": {"ios": "https://dc.lft.to/lastmile_qr_scan", "android": "https://dc.lft.to/lastmile_qr_scan"}, "lat": 38.917978833333336, "is_disabled": 0, "bike_id": "6c5152bf3303105face5f3edd0d7869b", "name": "6c5152bf3303105face5f3edd0d7869b", "type": "electric_scooter", "fusion_lon": 0.0, "is_reserved": 0, "fusion_lat": 0.0, "lon": -77.02285866666666}, {"rental_uris": {"ios": "https://dc.lft.to/lastmile_qr_scan", "android": "https://dc.lft.to/lastmile_qr_scan"}, "lat": 38.897581, "is_disabled": 0, "bike_id": "6a86afaf21a87c5b5d38a3fc4a5a42fb", "name": "6a86afaf21a87c5b5d38a3fc4a5a42fb", "type": "electric_scooter", "fusion_lon": 0.0, "is_reserved": 0, "fusion_lat": 0.0, "lon": -76.93833833333333}, {"rental_uris": {"ios": "https://dc.lft.to/lastmile_qr_scan", "android": "https://dc.lft.to/lastmile_qr_scan"}, "lat": 38.892192666666666, "is_disabled": 0, "bike_id": "d9bd3352859ac78bf710d9538d961b09", "name": "d9bd3352859ac78bf710d9538d961b09", "type": "electric_scooter", "fusion_lon": 0.0, "is_reserved": 0, "fusion_lat": 0.0, "lon": -77.02716633333333}, {"rental_uris": {"ios": "https://dc.lft.to/lastmile_qr_scan", "android": "https://dc.lft.to/lastmile_qr_scan"}, "lat": 38.9355815, "is_disabled": 0, "bike_id": "806ceaab9312fadf15fb8cd12e006f31", "name": "806ceaab9312fadf15fb8cd12e006f31", "type": "electric_scooter", "fusion_lon": 0.0, "is_reserved": 0, "fusion_lat": 0.0, "lon": -77.08219666666666}, {"rental_uris": {"ios": "https://dc.lft.to/lastmile_qr_scan", "android": "https://dc.lft.to/lastmile_qr_scan"}, "lat": 38.894364, "is_disabled": 0, "bike_id": "0518e9400e5ac2840dea0edbb23de182", "name": "0518e9400e5ac2840dea0edbb23de182", "type": "electric_scooter", "fusion_lon": 0.0, "is_reserved": 0, "fusion_lat": 0.0, "lon": -77.00114866666667}, {"rental_uris": {"ios": "https://dc.lft.to/lastmile_qr_scan", "android": "https://dc.lft.to/lastmile_qr_scan"}, "lat": 38.913427666666664, "is_disabled": 0, "bike_id": "5eff456e973da018964374c56a8bc746", "name": "5eff456e973da018964374c56a8bc746", "type": "electric_scooter", "fusion_lon": 0.0, "is_reserved": 0, "fusion_lat": 0.0, "lon": -77.003447}, {"rental_uris": {"ios": "https://dc.lft.to/lastmile_qr_scan", "android": "https://dc.lft.to/lastmile_qr_scan"}, "lat": 38.9191425, "is_disabled": 0, "bike_id": "2eb4404a608d7c877d4f2d5b91858910", "name": "2eb4404a608d7c877d4f2d5b91858910", "type": "electric_scooter", "fusion_lon": 0.0, "is_reserved": 0, "fusion_lat": 0.0, "lon": -77.03051283333333}, {"rental_uris": {"ios": "https://dc.lft.to/lastmile_qr_scan", "android": "https://dc.lft.to/lastmile_qr_scan"}, "lat": 38.9209265, "is_disabled": 0, "bike_id": "1d5a29363c2715d59e0a79d62c4a0c6e", "name": "1d5a29363c2715d59e0a79d62c4a0c6e", "type": "electric_scooter", "fusion_lon": 0.0, "is_reserved": 0, "fusion_lat": 0.0, "lon": -76.975968}, {"rental_uris": {"ios": "https://dc.lft.to/lastmile_qr_scan", "android": "https://dc.lft.to/lastmile_qr_scan"}, "lat": 38.902448, "is_disabled": 0, "bike_id": "d18042b7dc85ff895100c686837233ec", "name": "d18042b7dc85ff895100c686837233ec", "type": "electric_scooter", "fusion_lon": 0.0, "is_reserved": 0, "fusion_lat": 0.0, "lon": -77.02609166666667}, {"rental_uris": {"ios": "https://dc.lft.to/lastmile_qr_scan", "android": "https://dc.lft.to/lastmile_qr_scan"}, "lat": 38.949926833333336, "is_disabled": 0, "bike_id": "9861cc43fd4bc7fac816e9e95502fe09", "name": "9861cc43fd4bc7fac816e9e95502fe09", "type": "electric_scooter", "fusion_lon": 0.0, "is_reserved": 0, "fusion_lat": 0.0, "lon": -77.01846566666667}, {"rental_uris": {"ios": "https://dc.lft.to/lastmile_qr_scan", "android": "https://dc.lft.to/lastmile_qr_scan"}, "lat": 38.92903616666667, "is_disabled": 0, "bike_id": "709092f583ae38bb2da4c6d570f8b4be", "name": "709092f583ae38bb2da4c6d570f8b4be", "type": "electric_scooter", "fusion_lon": 0.0, "is_reserved": 0, "fusion_lat": 0.0, "lon": -77.03263783333334}, {"rental_uris": {"ios": "https://dc.lft.to/lastmile_qr_scan", "android": "https://dc.lft.to/lastmile_qr_scan"}, "lat": 38.95211966666667, "is_disabled": 0, "bike_id": "522546cacee4883402090824e4ca6445", "name": "522546cacee4883402090824e4ca6445", "type": "electric_scooter", "fusion_lon": 0.0, "is_reserved": 0, "fusion_lat": 0.0, "lon": -77.067882}, {"rental_uris": {"ios": "https://dc.lft.to/lastmile_qr_scan", "android": "https://dc.lft.to/lastmile_qr_scan"}, "lat": 38.881291833333336, "is_disabled": 0, "bike_id": "c9027121137973881ecc8415bd3c2ac1", "name": "c9027121137973881ecc8415bd3c2ac1", "type": "electric_scooter", "fusion_lon": 0.0, "is_reserved": 0, "fusion_lat": 0.0, "lon": -77.009685}, {"rental_uris": {"ios": "https://dc.lft.to/lastmile_qr_scan", "android": "https://dc.lft.to/lastmile_qr_scan"}, "lat": 38.957422, "is_disabled": 0, "bike_id": "c2488956ac05a41e80439c1ee6462695", "name": "c2488956ac05a41e80439c1ee6462695", "type": "electric_scooter", "fusion_lon": 0.0, "is_reserved": 0, "fusion_lat": 0.0, "lon": -77.024301}, {"rental_uris": {"ios": "https://dc.lft.to/lastmile_qr_scan", "android": "https://dc.lft.to/lastmile_qr_scan"}, "lat": 38.91400633333333, "is_disabled": 0, "bike_id": "a8ccbecc3fb43f030807024659e6532c", "name": "a8ccbecc3fb43f030807024659e6532c", "type": "electric_scooter", "fusion_lon": 0.0, "is_reserved": 0, "fusion_lat": 0.0, "lon": -77.041824}, {"rental_uris": {"ios": "https://dc.lft.to/lastmile_qr_scan", "android": "https://dc.lft.to/lastmile_qr_scan"}, "lat": 38.924126, "is_disabled": 0, "bike_id": "e50ff8b981e3e267ef9523c6cb529ecd", "name": "e50ff8b981e3e267ef9523c6cb529ecd", "type": "electric_scooter", "fusion_lon": 0.0, "is_reserved": 0, "fusion_lat": 0.0, "lon": -77.02024233333333}, {"rental_uris": {"ios": "https://dc.lft.to/lastmile_qr_scan", "android": "https://dc.lft.to/lastmile_qr_scan"}, "lat": 38.95522016666666, "is_disabled": 0, "bike_id": "44426b856c0bf93495f83656e16bb115", "name": "44426b856c0bf93495f83656e16bb115", "type": "electric_scooter", "fusion_lon": 0.0, "is_reserved": 0, "fusion_lat": 0.0, "lon": -77.00739983333334}, {"rental_uris": {"ios": "https://dc.lft.to/lastmile_qr_scan", "android": "https://dc.lft.to/lastmile_qr_scan"}, "lat": 38.92622183333334, "is_disabled": 0, "bike_id": "6523169e77574def32a511f7900bc18e", "name": "6523169e77574def32a511f7900bc18e", "type": "electric_scooter", "fusion_lon": 0.0, "is_reserved": 0, "fusion_lat": 0.0, "lon": -77.04224716666667}, {"rental_uris": {"ios": "https://dc.lft.to/lastmile_qr_scan", "android": "https://dc.lft.to/lastmile_qr_scan"}, "lat": 38.90510883333334, "is_disabled": 0, "bike_id": "c8d2aa9830096a87b38598a62910dc4e", "name": "c8d2aa9830096a87b38598a62910dc4e", "type": "electric_scooter", "fusion_lon": 0.0, "is_reserved": 0, "fusion_lat": 0.0, "lon": -77.04343766666666}, {"rental_uris": {"ios": "https://dc.lft.to/lastmile_qr_scan", "android": "https://dc.lft.to/lastmile_qr_scan"}, "lat": 38.898854166666666, "is_disabled": 0, "bike_id": "cac994763fe2d196db36b6c375e67fa0", "name": "cac994763fe2d196db36b6c375e67fa0", "type": "electric_scooter", "fusion_lon": 0.0, "is_reserved": 0, "fusion_lat": 0.0, "lon": -76.93176133333333}, {"rental_uris": {"ios": "https://dc.lft.to/lastmile_qr_scan", "android": "https://dc.lft.to/lastmile_qr_scan"}, "lat": 38.90479966666667, "is_disabled": 0, "bike_id": "25d603428e8caa1a87d7534e39b53282", "name": "25d603428e8caa1a87d7534e39b53282", "type": "electric_scooter", "fusion_lon": 0.0, "is_reserved": 0, "fusion_lat": 0.0, "lon": -77.03228916666667}, {"rental_uris": {"ios": "https://dc.lft.to/lastmile_qr_scan", "android": "https://dc.lft.to/lastmile_qr_scan"}, "lat": 38.914839, "is_disabled": 0, "bike_id": "c3ee7502358ced09fbd01373845efce3", "name": "c3ee7502358ced09fbd01373845efce3", "type": "electric_scooter", "fusion_lon": 0.0, "is_reserved": 0, "fusion_lat": 0.0, "lon": -77.02197433333333}, {"rental_uris": {"ios": "https://dc.lft.to/lastmile_qr_scan", "android": "https://dc.lft.to/lastmile_qr_scan"}, "lat": 38.9038395, "is_disabled": 0, "bike_id": "919aa621c1f4d946fe873ceb579e758c", "name": "919aa621c1f4d946fe873ceb579e758c", "type": "electric_scooter", "fusion_lon": 0.0, "is_reserved": 0, "fusion_lat": 0.0, "lon": -77.021611}, {"rental_uris": {"ios": "https://dc.lft.to/lastmile_qr_scan", "android": "https://dc.lft.to/lastmile_qr_scan"}, "lat": 38.90516133333333, "is_disabled": 0, "bike_id": "b20295c1314a5b9d52a0e216008be950", "name": "b20295c1314a5b9d52a0e216008be950", "type": "electric_scooter", "fusion_lon": 0.0, "is_reserved": 0, "fusion_lat": 0.0, "lon": -77.02977866666667}, {"rental_uris": {"ios": "https://dc.lft.to/lastmile_qr_scan", "android": "https://dc.lft.to/lastmile_qr_scan"}, "lat": 38.917598166666664, "is_disabled": 0, "bike_id": "0f0244692691327352fcaae6580501f0", "name": "0f0244692691327352fcaae6580501f0", "type": "electric_scooter", "fusion_lon": 0.0, "is_reserved": 0, "fusion_lat": 0.0, "lon": -77.0037025}, {"rental_uris": {"ios": "https://dc.lft.to/lastmile_qr_scan", "android": "https://dc.lft.to/lastmile_qr_scan"}, "lat": 38.851632333333335, "is_disabled": 0, "bike_id": "e9232dbf44c93e48650a81467150f863", "name": "e9232dbf44c93e48650a81467150f863", "type": "electric_scooter", "fusion_lon": 0.0, "is_reserved": 0, "fusion_lat": 0.0, "lon": -76.99461533333333}, {"rental_uris": {"ios": "https://dc.lft.to/lastmile_qr_scan", "android": "https://dc.lft.to/lastmile_qr_scan"}, "lat": 38.90565866666667, "is_disabled": 0, "bike_id": "ead60c4be79c6731fc31ac0882d6bdf1", "name": "ead60c4be79c6731fc31ac0882d6bdf1", "type": "electric_scooter", "fusion_lon": 0.0, "is_reserved": 0, "fusion_lat": 0.0, "lon": -77.005971}, {"rental_uris": {"ios": "https://dc.lft.to/lastmile_qr_scan", "android": "https://dc.lft.to/lastmile_qr_scan"}, "lat": 38.94727, "is_disabled": 0, "bike_id": "a1798ca8cc9346b80c5ee5793fadb316", "name": "a1798ca8cc9346b80c5ee5793fadb316", "type": "electric_bike", "fusion_lon": 0.0, "is_reserved": 0, "fusion_lat": 0.0, "lon": -76.95679016666666}, {"rental_uris": {"ios": "https://dc.lft.to/lastmile_qr_scan", "android": "https://dc.lft.to/lastmile_qr_scan"}, "lat": 38.9069215, "is_disabled": 0, "bike_id": "daf28321fa96545d7fdbe5f03b5b10ba", "name": "daf28321fa96545d7fdbe5f03b5b10ba", "type": "electric_scooter", "fusion_lon": 0.0, "is_reserved": 0, "fusion_lat": 0.0, "lon": -76.986108}, {"rental_uris": {"ios": "https://dc.lft.to/lastmile_qr_scan", "android": "https://dc.lft.to/lastmile_qr_scan"}, "lat": 38.900567, "is_disabled": 0, "bike_id": "96e60029e7857d7de6af8290aba0782d", "name": "96e60029e7857d7de6af8290aba0782d", "type": "electric_scooter", "fusion_lon": 0.0, "is_reserved": 0, "fusion_lat": 0.0, "lon": -77.01219766666667}, {"rental_uris": {"ios": "https://dc.lft.to/lastmile_qr_scan", "android": "https://dc.lft.to/lastmile_qr_scan"}, "lat": 38.9142855, "is_disabled": 0, "bike_id": "88873106401d813ddd4f050ef611f6c5", "name": "88873106401d813ddd4f050ef611f6c5", "type": "electric_scooter", "fusion_lon": 0.0, "is_reserved": 0, "fusion_lat": 0.0, "lon": -77.022096}, {"rental_uris": {"ios": "https://dc.lft.to/lastmile_qr_scan", "android": "https://dc.lft.to/lastmile_qr_scan"}, "lat": 38.84841516666667, "is_disabled": 0, "bike_id": "5753e7a11cf8c71e0b3c11c3f196a26c", "name": "5753e7a11cf8c71e0b3c11c3f196a26c", "type": "electric_bike", "fusion_lon": 0.0, "is_reserved": 0, "fusion_lat": 0.0, "lon": -77.0805405}, {"rental_uris": {"ios": "https://dc.lft.to/lastmile_qr_scan", "android": "https://dc.lft.to/lastmile_qr_scan"}, "lat": 38.870954166666664, "is_disabled": 0, "bike_id": "9ae1d02a79fd916b1814eb538a6a78f1", "name": "9ae1d02a79fd916b1814eb538a6a78f1", "type": "electric_scooter", "fusion_lon": 0.0, "is_reserved": 0, "fusion_lat": 0.0, "lon": -77.011218}, {"rental_uris": {"ios": "https://dc.lft.to/lastmile_qr_scan", "android": "https://dc.lft.to/lastmile_qr_scan"}, "lat": 38.887887, "is_disabled": 0, "bike_id": "330dc7f0ac65da455140635010078d88", "name": "330dc7f0ac65da455140635010078d88", "type": "electric_scooter", "fusion_lon": 0.0, "is_reserved": 0, "fusion_lat": 0.0, "lon": -76.9511475}, {"rental_uris": {"ios": "https://dc.lft.to/lastmile_qr_scan", "android": "https://dc.lft.to/lastmile_qr_scan"}, "lat": 38.9184515, "is_disabled": 0, "bike_id": "ef36ce2d008c0578ebefae1a6dc61ca8", "name": "ef36ce2d008c0578ebefae1a6dc61ca8", "type": "electric_scooter", "fusion_lon": 0.0, "is_reserved": 0, "fusion_lat": 0.0, "lon": -77.04840683333333}, {"rental_uris": {"ios": "https://dc.lft.to/lastmile_qr_scan", "android": "https://dc.lft.to/lastmile_qr_scan"}, "lat": 38.9154825, "is_disabled": 0, "bike_id": "057a3284e6ca0af5b24e6665dfbdc436", "name": "057a3284e6ca0af5b24e6665dfbdc436", "type": "electric_scooter", "fusion_lon": 0.0, "is_reserved": 0, "fusion_lat": 0.0, "lon": -77.01233816666667}, {"rental_uris": {"ios": "https://dc.lft.to/lastmile_qr_scan", "android": "https://dc.lft.to/lastmile_qr_scan"}, "lat": 38.89250033333333, "is_disabled": 0, "bike_id": "13d5204e3dcb7b2e9033e5162f220aaa", "name": "13d5204e3dcb7b2e9033e5162f220aaa", "type": "electric_scooter", "fusion_lon": 0.0, "is_reserved": 0, "fusion_lat": 0.0, "lon": -77.028014}, {"rental_uris": {"ios": "https://dc.lft.to/lastmile_qr_scan", "android": "https://dc.lft.to/lastmile_qr_scan"}, "lat": 38.892182166666665, "is_disabled": 0, "bike_id": "ffd779dd9abf1845115619f73c9bcdb8", "name": "ffd779dd9abf1845115619f73c9bcdb8", "type": "electric_scooter", "fusion_lon": 0.0, "is_reserved": 0, "fusion_lat": 0.0, "lon": -77.027191}, {"rental_uris": {"ios": "https://dc.lft.to/lastmile_qr_scan", "android": "https://dc.lft.to/lastmile_qr_scan"}, "lat": 38.899068, "is_disabled": 0, "bike_id": "a4483db74b850e67566cec98167b3be4", "name": "a4483db74b850e67566cec98167b3be4", "type": "electric_scooter", "fusion_lon": 0.0, "is_reserved": 0, "fusion_lat": 0.0, "lon": -77.03301233333333}, {"rental_uris": {"ios": "https://dc.lft.to/lastmile_qr_scan", "android": "https://dc.lft.to/lastmile_qr_scan"}, "lat": 38.973818, "is_disabled": 0, "bike_id": "fe139b038075b4c2f386dfb29424f2f7", "name": "fe139b038075b4c2f386dfb29424f2f7", "type": "electric_bike", "fusion_lon": 0.0, "is_reserved": 0, "fusion_lat": 0.0, "lon": -77.06479116666667}, {"rental_uris": {"ios": "https://dc.lft.to/lastmile_qr_scan", "android": "https://dc.lft.to/lastmile_qr_scan"}, "lat": 38.92978316666667, "is_disabled": 0, "bike_id": "c59f043c0c12fb7d244bd18042aaebba", "name": "c59f043c0c12fb7d244bd18042aaebba", "type": "electric_scooter", "fusion_lon": 0.0, "is_reserved": 0, "fusion_lat": 0.0, "lon": -77.0105085}, {"rental_uris": {"ios": "https://dc.lft.to/lastmile_qr_scan", "android": "https://dc.lft.to/lastmile_qr_scan"}, "lat": 38.907706833333336, "is_disabled": 0, "bike_id": "d9e94a4bfb30286dd42ab5264ff541c7", "name": "d9e94a4bfb30286dd42ab5264ff541c7", "type": "electric_scooter", "fusion_lon": 0.0, "is_reserved": 0, "fusion_lat": 0.0, "lon": -77.03211266666666}, {"rental_uris": {"ios": "https://dc.lft.to/lastmile_qr_scan", "android": "https://dc.lft.to/lastmile_qr_scan"}, "lat": 38.879226833333334, "is_disabled": 0, "bike_id": "c5e69f57d8083ae2f0737df2422b3555", "name": "c5e69f57d8083ae2f0737df2422b3555", "type": "electric_scooter", "fusion_lon": 0.0, "is_reserved": 0, "fusion_lat": 0.0, "lon": -76.99171466666667}, {"rental_uris": {"ios": "https://dc.lft.to/lastmile_qr_scan", "android": "https://dc.lft.to/lastmile_qr_scan"}, "lat": 38.8921825, "is_disabled": 0, "bike_id": "c3d7c40d7e3f4858a0ad8dd57bed036e", "name": "c3d7c40d7e3f4858a0ad8dd57bed036e", "type": "electric_scooter", "fusion_lon": 0.0, "is_reserved": 0, "fusion_lat": 0.0, "lon": -77.04326783333333}, {"rental_uris": {"ios": "https://dc.lft.to/lastmile_qr_scan", "android": "https://dc.lft.to/lastmile_qr_scan"}, "lat": 38.90363983333334, "is_disabled": 0, "bike_id": "c8a226ce7c8d1fea2a253104c0a0012e", "name": "c8a226ce7c8d1fea2a253104c0a0012e", "type": "electric_scooter", "fusion_lon": 0.0, "is_reserved": 0, "fusion_lat": 0.0, "lon": -77.03334083333333}, {"rental_uris": {"ios": "https://dc.lft.to/lastmile_qr_scan", "android": "https://dc.lft.to/lastmile_qr_scan"}, "lat": 38.900242166666665, "is_disabled": 0, "bike_id": "4170929340c0653f46b4c15b2f58de42", "name": "4170929340c0653f46b4c15b2f58de42", "type": "electric_scooter", "fusion_lon": 0.0, "is_reserved": 0, "fusion_lat": 0.0, "lon": -77.019476}, {"rental_uris": {"ios": "https://dc.lft.to/lastmile_qr_scan", "android": "https://dc.lft.to/lastmile_qr_scan"}, "lat": 38.885849666666665, "is_disabled": 0, "bike_id": "dfe64daff9ee9b7020237f10e526f2ad", "name": "dfe64daff9ee9b7020237f10e526f2ad", "type": "electric_scooter", "fusion_lon": 0.0, "is_reserved": 0, "fusion_lat": 0.0, "lon": -77.0181295}, {"rental_uris": {"ios": "https://dc.lft.to/lastmile_qr_scan", "android": "https://dc.lft.to/lastmile_qr_scan"}, "lat": 38.899955, "is_disabled": 0, "bike_id": "99e4e20a144bff67c09dffb98c03ab3d", "name": "99e4e20a144bff67c09dffb98c03ab3d", "type": "electric_scooter", "fusion_lon": 0.0, "is_reserved": 0, "fusion_lat": 0.0, "lon": -77.001518}, {"rental_uris": {"ios": "https://dc.lft.to/lastmile_qr_scan", "android": "https://dc.lft.to/lastmile_qr_scan"}, "lat": 38.909531666666666, "is_disabled": 0, "bike_id": "af17b138db7f891fe6931687f0a374b9", "name": "af17b138db7f891fe6931687f0a374b9", "type": "electric_scooter", "fusion_lon": 0.0, "is_reserved": 0, "fusion_lat": 0.0, "lon": -77.03199383333333}, {"rental_uris": {"ios": "https://dc.lft.to/lastmile_qr_scan", "android": "https://dc.lft.to/lastmile_qr_scan"}, "lat": 38.89218366666667, "is_disabled": 0, "bike_id": "aec308536a1d1bd096eca1872269d407", "name": "aec308536a1d1bd096eca1872269d407", "type": "electric_scooter", "fusion_lon": 0.0, "is_reserved": 0, "fusion_lat": 0.0, "lon": -77.02845583333334}, {"rental_uris": {"ios": "https://dc.lft.to/lastmile_qr_scan", "android": "https://dc.lft.to/lastmile_qr_scan"}, "lat": 38.860825, "is_disabled": 0, "bike_id": "8fda8161892c841ebd8afc54d7393690", "name": "8fda8161892c841ebd8afc54d7393690", "type": "electric_scooter", "fusion_lon": 0.0, "is_reserved": 0, "fusion_lat": 0.0, "lon": -76.98604333333333}, {"rental_uris": {"ios": "https://dc.lft.to/lastmile_qr_scan", "android": "https://dc.lft.to/lastmile_qr_scan"}, "lat": 38.91932416666667, "is_disabled": 0, "bike_id": "92af026c4168bd579f1188f77fa2c747", "name": "92af026c4168bd579f1188f77fa2c747", "type": "electric_bike", "fusion_lon": 0.0, "is_reserved": 0, "fusion_lat": 0.0, "lon": -76.97501883333334}, {"rental_uris": {"ios": "https://dc.lft.to/lastmile_qr_scan", "android": "https://dc.lft.to/lastmile_qr_scan"}, "lat": 38.904421666666664, "is_disabled": 0, "bike_id": "35cca3554bb4950d3388f0fd2f420ff6", "name": "35cca3554bb4950d3388f0fd2f420ff6", "type": "electric_scooter", "fusion_lon": 0.0, "is_reserved": 0, "fusion_lat": 0.0, "lon": -76.97563983333333}, {"rental_uris": {"ios": "https://dc.lft.to/lastmile_qr_scan", "android": "https://dc.lft.to/lastmile_qr_scan"}, "lat": 38.936090666666665, "is_disabled": 0, "bike_id": "da06741906cd2da4b82194877f872ded", "name": "da06741906cd2da4b82194877f872ded", "type": "electric_scooter", "fusion_lon": 0.0, "is_reserved": 0, "fusion_lat": 0.0, "lon": -77.03817866666667}, {"rental_uris": {"ios": "https://dc.lft.to/lastmile_qr_scan", "android": "https://dc.lft.to/lastmile_qr_scan"}, "lat": 38.90026016666667, "is_disabled": 0, "bike_id": "e831ba54ddb089c403fd6cc801e1afdc", "name": "e831ba54ddb089c403fd6cc801e1afdc", "type": "electric_scooter", "fusion_lon": 0.0, "is_reserved": 0, "fusion_lat": 0.0, "lon": -76.9877895}, {"rental_uris": {"ios": "https://dc.lft.to/lastmile_qr_scan", "android": "https://dc.lft.to/lastmile_qr_scan"}, "lat": 38.8624515, "is_disabled": 0, "bike_id": "ad1484f2e2713096e7a5fb751b289b64", "name": "ad1484f2e2713096e7a5fb751b289b64", "type": "electric_scooter", "fusion_lon": 0.0, "is_reserved": 0, "fusion_lat": 0.0, "lon": -76.99494516666667}, {"rental_uris": {"ios": "https://dc.lft.to/lastmile_qr_scan", "android": "https://dc.lft.to/lastmile_qr_scan"}, "lat": 38.930590333333335, "is_disabled": 0, "bike_id": "cad412685d208ba094eb82f5b1225e24", "name": "cad412685d208ba094eb82f5b1225e24", "type": "electric_scooter", "fusion_lon": 0.0, "is_reserved": 0, "fusion_lat": 0.0, "lon": -77.04181733333333}, {"rental_uris": {"ios": "https://dc.lft.to/lastmile_qr_scan", "android": "https://dc.lft.to/lastmile_qr_scan"}, "lat": 38.88503633333333, "is_disabled": 0, "bike_id": "c97a04af4ff301e9c5c172339aa670e2", "name": "c97a04af4ff301e9c5c172339aa670e2", "type": "electric_scooter", "fusion_lon": 0.0, "is_reserved": 0, "fusion_lat": 0.0, "lon": -77.00566}, {"rental_uris": {"ios": "https://dc.lft.to/lastmile_qr_scan", "android": "https://dc.lft.to/lastmile_qr_scan"}, "lat": 38.90566466666667, "is_disabled": 0, "bike_id": "3f0ba34ab02e34281a249e06bc192af6", "name": "3f0ba34ab02e34281a249e06bc192af6", "type": "electric_scooter", "fusion_lon": 0.0, "is_reserved": 0, "fusion_lat": 0.0, "lon": -77.02494316666667}, {"rental_uris": {"ios": "https://dc.lft.to/lastmile_qr_scan", "android": "https://dc.lft.to/lastmile_qr_scan"}, "lat": 38.854251833333336, "is_disabled": 0, "bike_id": "a27d12c07e55b8ae439f6c0d95611e20", "name": "a27d12c07e55b8ae439f6c0d95611e20", "type": "electric_bike", "fusion_lon": 0.0, "is_reserved": 0, "fusion_lat": 0.0, "lon": -76.90962316666666}, {"rental_uris": {"ios": "https://dc.lft.to/lastmile_qr_scan", "android": "https://dc.lft.to/lastmile_qr_scan"}, "lat": 38.907356666666665, "is_disabled": 0, "bike_id": "b77620b6155ff7437ad0e83dfe74b820", "name": "b77620b6155ff7437ad0e83dfe74b820", "type": "electric_scooter", "fusion_lon": 0.0, "is_reserved": 0, "fusion_lat": 0.0, "lon": -77.02189133333333}, {"rental_uris": {"ios": "https://dc.lft.to/lastmile_qr_scan", "android": "https://dc.lft.to/lastmile_qr_scan"}, "lat": 38.909598333333335, "is_disabled": 0, "bike_id": "c05f2bd96a7af125a47b1602ee955670", "name": "c05f2bd96a7af125a47b1602ee955670", "type": "electric_scooter", "fusion_lon": 0.0, "is_reserved": 0, "fusion_lat": 0.0, "lon": -77.02381933333334}, {"rental_uris": {"ios": "https://dc.lft.to/lastmile_qr_scan", "android": "https://dc.lft.to/lastmile_qr_scan"}, "lat": 38.892200333333335, "is_disabled": 0, "bike_id": "f177a3a1cfddabec1ee83fa0228e24fa", "name": "f177a3a1cfddabec1ee83fa0228e24fa", "type": "electric_scooter", "fusion_lon": 0.0, "is_reserved": 0, "fusion_lat": 0.0, "lon": -77.03229283333333}, {"rental_uris": {"ios": "https://dc.lft.to/lastmile_qr_scan", "android": "https://dc.lft.to/lastmile_qr_scan"}, "lat": 38.90343083333333, "is_disabled": 0, "bike_id": "3c84c6ac860392716bf234fcd8a5c697", "name": "3c84c6ac860392716bf234fcd8a5c697", "type": "electric_scooter", "fusion_lon": 0.0, "is_reserved": 0, "fusion_lat": 0.0, "lon": -77.03328916666666}, {"rental_uris": {"ios": "https://dc.lft.to/lastmile_qr_scan", "android": "https://dc.lft.to/lastmile_qr_scan"}, "lat": 38.91501183333333, "is_disabled": 0, "bike_id": "f4991f484b034b4a9ffce06ed3988241", "name": "f4991f484b034b4a9ffce06ed3988241", "type": "electric_scooter", "fusion_lon": 0.0, "is_reserved": 0, "fusion_lat": 0.0, "lon": -77.01379716666666}, {"rental_uris": {"ios": "https://dc.lft.to/lastmile_qr_scan", "android": "https://dc.lft.to/lastmile_qr_scan"}, "lat": 38.911735166666666, "is_disabled": 0, "bike_id": "3300ef664f36e00672e4619e418c8153", "name": "3300ef664f36e00672e4619e418c8153", "type": "electric_scooter", "fusion_lon": 0.0, "is_reserved": 0, "fusion_lat": 0.0, "lon": -77.03186266666667}, {"rental_uris": {"ios": "https://dc.lft.to/lastmile_qr_scan", "android": "https://dc.lft.to/lastmile_qr_scan"}, "lat": 38.89216666666667, "is_disabled": 0, "bike_id": "04869f2cddd1a771050e8a6369304afc", "name": "04869f2cddd1a771050e8a6369304afc", "type": "electric_scooter", "fusion_lon": 0.0, "is_reserved": 0, "fusion_lat": 0.0, "lon": -77.02632433333333}, {"rental_uris": {"ios": "https://dc.lft.to/lastmile_qr_scan", "android": "https://dc.lft.to/lastmile_qr_scan"},