{"data": {"bikes": [{"rental_uris": {"android": "https://dc.lft.to/lastmile_qr_scan", "ios": "https://dc.lft.to/lastmile_qr_scan"}, "is_reserved": 0, "is_disabled": 0, "name": "344568ec120b10179cc68eb858557634", "bike_id": "344568ec120b10179cc68eb858557634", "fusion_lat": 0.0, "lon": -77.0400775, "type": "electric_scooter", "fusion_lon": 0.0, "lat": 38.917941166666665}, {"rental_uris": {"android": "https://dc.lft.to/lastmile_qr_scan", "ios": "https://dc.lft.to/lastmile_qr_scan"}, "is_reserved": 0, "is_disabled": 0, "name": "81abf027c06a3f1c68d0ec51f6d10a22", "bike_id": "81abf027c06a3f1c68d0ec51f6d10a22", "fusion_lat": 0.0, "lon": -77.00829666666667, "type": "electric_scooter", "fusion_lon": 0.0, "lat": 38.876434833333334}, {"rental_uris": {"android": "https://dc.lft.to/lastmile_qr_scan", "ios": "https://dc.lft.to/lastmile_qr_scan"}, "is_reserved": 0, "is_disabled": 0, "name": "9acc341c26fcf8e93c9332e094e31445", "bike_id": "9acc341c26fcf8e93c9332e094e31445", "fusion_lat": 0.0, "lon": -76.93216316666667, "type": "electric_scooter", "fusion_lon": 0.0, "lat": 38.8805295}, {"rental_uris": {"android": "https://dc.lft.to/lastmile_qr_scan", "ios": "https://dc.lft.to/lastmile_qr_scan"}, "is_reserved": 0, "is_disabled": 0, "name": "179f952c6bafd87b13b101aa0c7a8f77", "bike_id": "179f952c6bafd87b13b101aa0c7a8f77", "fusion_lat": 0.0, "lon": -77.01210483333334, "type": "electric_scooter", "fusion_lon": 0.0, "lat": 38.900756333333334}, {"rental_uris": {"android": "https://dc.lft.to/lastmile_qr_scan", "ios": "https://dc.lft.to/lastmile_qr_scan"}, "is_reserved": 0, "is_disabled": 0, "name": "5ab2c4d56065ae715371eadf6c2a5a19", "bike_id": "5ab2c4d56065ae715371eadf6c2a5a19", "fusion_lat": 0.0, "lon": -76.98237433333334, "type": "electric_scooter", "fusion_lon": 0.0, "lat": 38.908902}, {"rental_uris": {"android": "https://dc.lft.to/lastmile_qr_scan", "ios": "https://dc.lft.to/lastmile_qr_scan"}, "is_reserved": 0, "is_disabled": 0, "name": "394c96c43e67c9dc2fb6a95a4ef97d6d", "bike_id": "394c96c43e67c9dc2fb6a95a4ef97d6d", "fusion_lat": 0.0, "lon": -77.03454816666667, "type": "electric_scooter", "fusion_lon": 0.0, "lat": 38.907408833333335}, {"rental_uris": {"android": "https://dc.lft.to/lastmile_qr_scan", "ios": "https://dc.lft.to/lastmile_qr_scan"}, "is_reserved": 0, "is_disabled": 0, "name": "d30d414b71f439ca086a95d19745e240", "bike_id": "d30d414b71f439ca086a95d19745e240", "fusion_lat": 0.0, "lon": -77.03169966666667, "type": "electric_scooter", "fusion_lon": 0.0, "lat": 38.91561983333333}, {"rental_uris": {"android": "https://dc.lft.to/lastmile_qr_scan", "ios": "https://dc.lft.to/lastmile_qr_scan"}, "is_reserved": 0, "is_disabled": 0, "name": "c4759b316a85e222f73faf12562357fa", "bike_id": "c4759b316a85e222f73faf12562357fa", "fusion_lat": 0.0, "lon": -77.016556, "type": "electric_bike", "fusion_lon": 0.0, "lat": 38.95350216666667}, {"rental_uris": {"android": "https://dc.lft.to/lastmile_qr_scan", "ios": "https://dc.lft.to/lastmile_qr_scan"}, "is_reserved": 0, "is_disabled": 0, "name": "196aec1dfddcc89a022019f2a106b90a", "bike_id": "196aec1dfddcc89a022019f2a106b90a", "fusion_lat": 0.0, "lon": -77.02944866666667, "type": "electric_scooter", "fusion_lon": 0.0, "lat": 38.904982333333336}, {"rental_uris": {"android": "https://dc.lft.to/lastmile_qr_scan", "ios": "https://dc.lft.to/lastmile_qr_scan"}, "is_reserved": 0, "is_disabled": 0, "name": "8fe6a65f25472efbe8be363cdbaf4f98", "bike_id": "8fe6a65f25472efbe8be363cdbaf4f98", "fusion_lat": 0.0, "lon": -76.99815466666666, "type": "electric_scooter", "fusion_lon": 0.0, "lat": 38.9072155}, {"rental_uris": {"android": "https://dc.lft.to/lastmile_qr_scan", "ios": "https://dc.lft.to/lastmile_qr_scan"}, "is_reserved": 0, "is_disabled": 0, "name": "aa6fa79b3b7a8aae253ca448d8f1f818", "bike_id": "aa6fa79b3b7a8aae253ca448d8f1f818", "fusion_lat": 0.0, "lon": -77.03052633333333, "type": "electric_scooter", "fusion_lon": 0.0, "lat": 38.8983765}, {"rental_uris": {"android": "https://dc.lft.to/lastmile_qr_scan", "ios": "https://dc.lft.to/lastmile_qr_scan"}, "is_reserved": 0, "is_disabled": 0, "name": "6586edcc0874b1f7076d106283dd4731", "bike_id": "6586edcc0874b1f7076d106283dd4731", "fusion_lat": 0.0, "lon": -77.06426766666667, "type": "electric_scooter", "fusion_lon": 0.0, "lat": 38.935627833333335}, {"rental_uris": {"android": "https://dc.lft.to/lastmile_qr_scan", "ios": "https://dc.lft.to/lastmile_qr_scan"}, "is_reserved": 0, "is_disabled": 0, "name": "94584e7c14b3d54a5142b4a9e6386122", "bike_id": "94584e7c14b3d54a5142b4a9e6386122", "fusion_lat": 0.0, "lon": -76.935967, "type": "electric_scooter", "fusion_lon": 0.0, "lat": 38.90944283333333}, {"rental_uris": {"android": "https://dc.lft.to/lastmile_qr_scan", "ios": "https://dc.lft.to/lastmile_qr_scan"}, "is_reserved": 0, "is_disabled": 0, "name": "707e0bdb9821a30e7a42e740e826808a", "bike_id": "707e0bdb9821a30e7a42e740e826808a", "fusion_lat": 0.0, "lon": -77.02374633333334, "type": "electric_scooter", "fusion_lon": 0.0, "lat": 38.92047933333333}, {"rental_uris": {"android": "https://dc.lft.to/lastmile_qr_scan", "ios": "https://dc.lft.to/lastmile_qr_scan"}, "is_reserved": 0, "is_disabled": 0, "name": "b1d4edefa349ba22ca433c30448cfc76", "bike_id": "b1d4edefa349ba22ca433c30448cfc76", "fusion_lat": 0.0, "lon": -77.02227433333333, "type": "electric_scooter", "fusion_lon": 0.0, "lat": 38.91248383333333}, {"rental_uris": {"android": "https://dc.lft.to/lastmile_qr_scan", "ios": "https://dc.lft.to/lastmile_qr_scan"}, "is_reserved": 0, "is_disabled": 0, "name": "7ece6c0fa0e89dd3f633635575e55840", "bike_id": "7ece6c0fa0e89dd3f633635575e55840", "fusion_lat": 0.0, "lon": -77.027932, "type": "electric_scooter", "fusion_lon": 0.0, "lat": 38.93074}, {"rental_uris": {"android": "https://dc.lft.to/lastmile_qr_scan", "ios": "https://dc.lft.to/lastmile_qr_scan"}, "is_reserved": 0, "is_disabled": 0, "name": "fc956164699e6de145bc3b839e03f72a", "bike_id": "fc956164699e6de145bc3b839e03f72a", "fusion_lat": 0.0, "lon": -77.03245383333334, "type": "electric_scooter", "fusion_lon": 0.0, "lat": 38.9170725}, {"rental_uris": {"android": "https://dc.lft.to/lastmile_qr_scan", "ios": "https://dc.lft.to/lastmile_qr_scan"}, "is_reserved": 0, "is_disabled": 0, "name": "ec5ea9abd6654e9e5af3817c894603ab", "bike_id": "ec5ea9abd6654e9e5af3817c894603ab", "fusion_lat": 0.0, "lon": -77.01208, "type": "electric_scooter", "fusion_lon": 0.0, "lat": 38.918204833333334}, {"rental_uris": {"android": "https://dc.lft.to/lastmile_qr_scan", "ios": "https://dc.lft.to/lastmile_qr_scan"}, "is_reserved": 0, "is_disabled": 0, "name": "4db10a62116bd6dcc914775770f42b49", "bike_id": "4db10a62116bd6dcc914775770f42b49", "fusion_lat": 0.0, "lon": -77.0500485, "type": "electric_scooter", "fusion_lon": 0.0, "lat": 38.89229666666667}, {"rental_uris": {"android": "https://dc.lft.to/lastmile_qr_scan", "ios": "https://dc.lft.to/lastmile_qr_scan"}, "is_reserved": 0, "is_disabled": 0, "name": "75b1efe58475eb21ee189235807ba006", "bike_id": "75b1efe58475eb21ee189235807ba006", "fusion_lat": 0.0, "lon": -77.03668816666666, "type": "electric_scooter", "fusion_lon": 0.0, "lat": 38.902834666666664}, {"rental_uris": {"android": "https://dc.lft.to/lastmile_qr_scan", "ios": "https://dc.lft.to/lastmile_qr_scan"}, "is_reserved": 0, "is_disabled": 0, "name": "a4215213fefee61390be38628871af96", "bike_id": "a4215213fefee61390be38628871af96", "fusion_lat": 0.0, "lon": -77.00155833333334, "type": "electric_scooter", "fusion_lon": 0.0, "lat": 38.82134716666667}, {"rental_uris": {"android": "https://dc.lft.to/lastmile_qr_scan", "ios": "https://dc.lft.to/lastmile_qr_scan"}, "is_reserved": 0, "is_disabled": 0, "name": "0fe7cedea53928dc269ed1ddccc8cf9e", "bike_id": "0fe7cedea53928dc269ed1ddccc8cf9e", "fusion_lat": 0.0, "lon": -76.95160316666667, "type": "electric_bike", "fusion_lon": 0.0, "lat": 39.0843715}, {"rental_uris": {"android": "https://dc.lft.to/lastmile_qr_scan", "ios": "https://dc.lft.to/lastmile_qr_scan"}, "is_reserved": 0, "is_disabled": 0, "name": "04ea16a0e2695c5cefa7527e3ce5ef70", "bike_id": "04ea16a0e2695c5cefa7527e3ce5ef70", "fusion_lat": 0.0, "lon": -77.002974, "type": "electric_scooter", "fusion_lon": 0.0, "lat": 38.89197633333333}, {"rental_uris": {"android": "https://dc.lft.to/lastmile_qr_scan", "ios": "https://dc.lft.to/lastmile_qr_scan"}, "is_reserved": 0, "is_disabled": 0, "name": "2635cf127ea6ebd1c96647042c678d34", "bike_id": "2635cf127ea6ebd1c96647042c678d34", "fusion_lat": 0.0, "lon": -77.02095183333333, "type": "electric_scooter", "fusion_lon": 0.0, "lat": 38.92119616666667}, {"rental_uris": {"android": "https://dc.lft.to/lastmile_qr_scan", "ios": "https://dc.lft.to/lastmile_qr_scan"}, "is_reserved": 0, "is_disabled": 0, "name": "2ba0f7cfc343f4e41efb296a2e85954c", "bike_id": "2ba0f7cfc343f4e41efb296a2e85954c", "fusion_lat": 0.0, "lon": -77.03549366666667, "type": "electric_scooter", "fusion_lon": 0.0, "lat": 38.91823433333333}, {"rental_uris": {"android": "https://dc.lft.to/lastmile_qr_scan", "ios": "https://dc.lft.to/lastmile_qr_scan"}, "is_reserved": 0, "is_disabled": 0, "name": "cb118a3397fa43615a9b6a2e42ed7990", "bike_id": "cb118a3397fa43615a9b6a2e42ed7990", "fusion_lat": 0.0, "lon": -77.038543, "type": "electric_scooter", "fusion_lon": 0.0, "lat": 38.9215945}, {"rental_uris": {"android": "https://dc.lft.to/lastmile_qr_scan", "ios": "https://dc.lft.to/lastmile_qr_scan"}, "is_reserved": 0, "is_disabled": 0, "name": "b1bea41549d01e8acd3c6dd4889838c8", "bike_id": "b1bea41549d01e8acd3c6dd4889838c8", "fusion_lat": 0.0, "lon": -77.00646533333334, "type": "electric_scooter", "fusion_lon": 0.0, "lat": 38.90980533333333}, {"rental_uris": {"android": "https://dc.lft.to/lastmile_qr_scan", "ios": "https://dc.lft.to/lastmile_qr_scan"}, "is_reserved": 0, "is_disabled": 0, "name": "7a34e3514271b3f1c18d15b54fb581fd", "bike_id": "7a34e3514271b3f1c18d15b54fb581fd", "fusion_lat": 0.0, "lon": -77.036395, "type": "electric_bike", "fusion_lon": 0.0, "lat": 38.9274265}, {"rental_uris": {"android": "https://dc.lft.to/lastmile_qr_scan", "ios": "https://dc.lft.to/lastmile_qr_scan"}, "is_reserved": 0, "is_disabled": 0, "name": "4df769128a8fabf68537e7813cdbe2a6", "bike_id": "4df769128a8fabf68537e7813cdbe2a6", "fusion_lat": 0.0, "lon": -77.01445033333333, "type": "electric_scooter", "fusion_lon": 0.0, "lat": 38.95816083333333}, {"rental_uris": {"android": "https://dc.lft.to/lastmile_qr_scan", "ios": "https://dc.lft.to/lastmile_qr_scan"}, "is_reserved": 0, "is_disabled": 0, "name": "91eaed307144aee370931ed73b48ad6e", "bike_id": "91eaed307144aee370931ed73b48ad6e", "fusion_lat": 0.0, "lon": -77.026414, "type": "electric_scooter", "fusion_lon": 0.0, "lat": 38.929166333333335}, {"rental_uris": {"android": "https://dc.lft.to/lastmile_qr_scan", "ios": "https://dc.lft.to/lastmile_qr_scan"}, "is_reserved": 0, "is_disabled": 0, "name": "879822f94ae52ab194349b8f7f37cd99", "bike_id": "879822f94ae52ab194349b8f7f37cd99", "fusion_lat": 0.0, "lon": -77.06522916666667, "type": "electric_scooter", "fusion_lon": 0.0, "lat": 38.90530583333334}, {"rental_uris": {"android": "https://dc.lft.to/lastmile_qr_scan", "ios": "https://dc.lft.to/lastmile_qr_scan"}, "is_reserved": 0, "is_disabled": 0, "name": "0588da650a09c0f1ba549c96ebf0ab3a", "bike_id": "0588da650a09c0f1ba549c96ebf0ab3a", "fusion_lat": 0.0, "lon": -77.03729116666666, "type": "electric_scooter", "fusion_lon": 0.0, "lat": 38.91700383333333}, {"rental_uris": {"android": "https://dc.lft.to/lastmile_qr_scan", "ios": "https://dc.lft.to/lastmile_qr_scan"}, "is_reserved": 0, "is_disabled": 0, "name": "320462132ae85ce18e07c1dbbc0e8079", "bike_id": "320462132ae85ce18e07c1dbbc0e8079", "fusion_lat": 0.0, "lon": -77.0217965, "type": "electric_scooter", "fusion_lon": 0.0, "lat": 38.892242333333336}, {"rental_uris": {"android": "https://dc.lft.to/lastmile_qr_scan", "ios": "https://dc.lft.to/lastmile_qr_scan"}, "is_reserved": 0, "is_disabled": 0, "name": "6e62296f8a6fb88f6a156369466567ce", "bike_id": "6e62296f8a6fb88f6a156369466567ce", "fusion_lat": 0.0, "lon": -77.2317625, "type": "electric_bike", "fusion_lon": 0.0, "lat": 38.92894316666667}, {"rental_uris": {"android": "https://dc.lft.to/lastmile_qr_scan", "ios": "https://dc.lft.to/lastmile_qr_scan"}, "is_reserved": 0, "is_disabled": 0, "name": "794bdbb7f3c28db0ecb2a72567b1a2c7", "bike_id": "794bdbb7f3c28db0ecb2a72567b1a2c7", "fusion_lat": 0.0, "lon": -77.019497, "type": "electric_scooter", "fusion_lon": 0.0, "lat": 38.92332}, {"rental_uris": {"android": "https://dc.lft.to/lastmile_qr_scan", "ios": "https://dc.lft.to/lastmile_qr_scan"}, "is_reserved": 0, "is_disabled": 0, "name": "36966f255cd7012665b93c7cd9841ac4", "bike_id": "36966f255cd7012665b93c7cd9841ac4", "fusion_lat": 0.0, "lon": -77.024081, "type": "electric_scooter", "fusion_lon": 0.0, "lat": 38.92092933333333}, {"rental_uris": {"android": "https://dc.lft.to/lastmile_qr_scan", "ios": "https://dc.lft.to/lastmile_qr_scan"}, "is_reserved": 0, "is_disabled": 0, "name": "d28b2590feb20d1fed205a85bad4874b", "bike_id": "d28b2590feb20d1fed205a85bad4874b", "fusion_lat": 0.0, "lon": -76.93365916666667, "type": "electric_scooter", "fusion_lon": 0.0, "lat": 38.89837083333333}, {"rental_uris": {"android": "https://dc.lft.to/lastmile_qr_scan", "ios": "https://dc.lft.to/lastmile_qr_scan"}, "is_reserved": 0, "is_disabled": 0, "name": "a5d68d5f1e6adc7fd8930af43dd10dfd", "bike_id": "a5d68d5f1e6adc7fd8930af43dd10dfd", "fusion_lat": 0.0, "lon": -77.102899, "type": "electric_bike", "fusion_lon": 0.0, "lat": 38.85250466666667}, {"rental_uris": {"android": "https://dc.lft.to/lastmile_qr_scan", "ios": "https://dc.lft.to/lastmile_qr_scan"}, "is_reserved": 0, "is_disabled": 0, "name": "dc390d3ae8ecb7128f4048821ac9b063", "bike_id": "dc390d3ae8ecb7128f4048821ac9b063", "fusion_lat": 0.0, "lon": -77.0791265, "type": "electric_bike", "fusion_lon": 0.0, "lat": 38.83827333333333}, {"rental_uris": {"android": "https://dc.lft.to/lastmile_qr_scan", "ios": "https://dc.lft.to/lastmile_qr_scan"}, "is_reserved": 0, "is_disabled": 0, "name": "1da6bf524d83b27805234dd632de8088", "bike_id": "1da6bf524d83b27805234dd632de8088", "fusion_lat": 0.0, "lon": -77.0335465, "type": "electric_scooter", "fusion_lon": 0.0, "lat": 38.935803666666665}, {"rental_uris": {"android": "https://dc.lft.to/lastmile_qr_scan", "ios": "https://dc.lft.to/lastmile_qr_scan"}, "is_reserved": 0, "is_disabled": 0, "name": "01b6e0a26346915efeee1871aad1dbfb", "bike_id": "01b6e0a26346915efeee1871aad1dbfb", "fusion_lat": 0.0, "lon": -77.03661816666667, "type": "electric_bike", "fusion_lon": 0.0, "lat": 38.936300833333334}, {"rental_uris": {"android": "https://dc.lft.to/lastmile_qr_scan", "ios": "https://dc.lft.to/lastmile_qr_scan"}, "is_reserved": 0, "is_disabled": 0, "name": "d45a6ba80c2dd4c64370556b4ebe543f", "bike_id": "d45a6ba80c2dd4c64370556b4ebe543f", "fusion_lat": 0.0, "lon": -77.000619, "type": "electric_bike", "fusion_lon": 0.0, "lat": 38.919064166666665}, {"rental_uris": {"android": "https://dc.lft.to/lastmile_qr_scan", "ios": "https://dc.lft.to/lastmile_qr_scan"}, "is_reserved": 0, "is_disabled": 0, "name": "d1e94ea59f82aefd6d048f5347848802", "bike_id": "d1e94ea59f82aefd6d048f5347848802", "fusion_lat": 0.0, "lon": -77.02289816666666, "type": "electric_scooter", "fusion_lon": 0.0, "lat": 38.91783566666667}, {"rental_uris": {"android": "https://dc.lft.to/lastmile_qr_scan", "ios": "https://dc.lft.to/lastmile_qr_scan"}, "is_reserved": 0, "is_disabled": 0, "name": "ef4f56b8eac85565dfe3b380f0bbd4ff", "bike_id": "ef4f56b8eac85565dfe3b380f0bbd4ff", "fusion_lat": 0.0, "lon": -77.028161, "type": "electric_scooter", "fusion_lon": 0.0, "lat": 38.9142605}, {"rental_uris": {"android": "https://dc.lft.to/lastmile_qr_scan", "ios": "https://dc.lft.to/lastmile_qr_scan"}, "is_reserved": 0, "is_disabled": 0, "name": "05a4d999edb9e474b01ed96167cc5479", "bike_id": "05a4d999edb9e474b01ed96167cc5479", "fusion_lat": 0.0, "lon": -77.028064, "type": "electric_scooter", "fusion_lon": 0.0, "lat": 38.930781833333334}, {"rental_uris": {"android": "https://dc.lft.to/lastmile_qr_scan", "ios": "https://dc.lft.to/lastmile_qr_scan"}, "is_reserved": 0, "is_disabled": 0, "name": "8ae96f8fc935266758e761935b77116f", "bike_id": "8ae96f8fc935266758e761935b77116f", "fusion_lat": 0.0, "lon": -77.04641033333333, "type": "electric_scooter", "fusion_lon": 0.0, "lat": 38.8922105}, {"rental_uris": {"android": "https://dc.lft.to/lastmile_qr_scan", "ios": "https://dc.lft.to/lastmile_qr_scan"}, "is_reserved": 0, "is_disabled": 0, "name": "deb921e5d8995842da0af44dba9755ef", "bike_id": "deb921e5d8995842da0af44dba9755ef", "fusion_lat": 0.0, "lon": -77.026012, "type": "electric_scooter", "fusion_lon": 0.0, "lat": 38.9238475}, {"rental_uris": {"android": "https://dc.lft.to/lastmile_qr_scan", "ios": "https://dc.lft.to/lastmile_qr_scan"}, "is_reserved": 0, "is_disabled": 0, "name": "2cef414aabb71bcde26708b2711a1108", "bike_id": "2cef414aabb71bcde26708b2711a1108", "fusion_lat": 0.0, "lon": -76.907479, "type": "electric_bike", "fusion_lon": 0.0, "lat": 38.89618433333333}, {"rental_uris": {"android": "https://dc.lft.to/lastmile_qr_scan", "ios": "https://dc.lft.to/lastmile_qr_scan"}, "is_reserved": 0, "is_disabled": 0, "name": "41c3ec6f09195ee14e11f6f4e2e709db", "bike_id": "41c3ec6f09195ee14e11f6f4e2e709db", "fusion_lat": 0.0, "lon": -77.05397883333333, "type": "electric_scooter", "fusion_lon": 0.0, "lat": 38.90155516666667}, {"rental_uris": {"android": "https://dc.lft.to/lastmile_qr_scan", "ios": "https://dc.lft.to/lastmile_qr_scan"}, "is_reserved": 0, "is_disabled": 0, "name": "bdd9144a13e20e26efc5973370894616", "bike_id": "bdd9144a13e20e26efc5973370894616", "fusion_lat": 0.0, "lon": -77.01069783333334, "type": "electric_scooter", "fusion_lon": 0.0, "lat": 38.921228}, {"rental_uris": {"android": "https://dc.lft.to/lastmile_qr_scan", "ios": "https://dc.lft.to/lastmile_qr_scan"}, "is_reserved": 0, "is_disabled": 0, "name": "d8f07fa2d0eccb973d866a5f0b81d810", "bike_id": "d8f07fa2d0eccb973d866a5f0b81d810", "fusion_lat": 0.0, "lon": -77.03378, "type": "electric_scooter", "fusion_lon": 0.0, "lat": 38.93832333333334}, {"rental_uris": {"android": "https://dc.lft.to/lastmile_qr_scan", "ios": "https://dc.lft.to/lastmile_qr_scan"}, "is_reserved": 0, "is_disabled": 0, "name": "06ea148a0d6b7cfa4995b90f3ef5f218", "bike_id": "06ea148a0d6b7cfa4995b90f3ef5f218", "fusion_lat": 0.0, "lon": -77.00531916666667, "type": "electric_scooter", "fusion_lon": 0.0, "lat": 38.874679}, {"rental_uris": {"android": "https://dc.lft.to/lastmile_qr_scan", "ios": "https://dc.lft.to/lastmile_qr_scan"}, "is_reserved": 0, "is_disabled": 0, "name": "441f029157d04c429b57899eb8a4f57c", "bike_id": "441f029157d04c429b57899eb8a4f57c", "fusion_lat": 0.0, "lon": -77.04877933333333, "type": "electric_scooter", "fusion_lon": 0.0, "lat": 38.89318933333333}, {"rental_uris": {"android": "https://dc.lft.to/lastmile_qr_scan", "ios": "https://dc.lft.to/lastmile_qr_scan"}, "is_reserved": 0, "is_disabled": 0, "name": "1e19cdb34a9759fb7a2ad2a75127b972", "bike_id": "1e19cdb34a9759fb7a2ad2a75127b972", "fusion_lat": 0.0, "lon": -77.027668, "type": "electric_scooter", "fusion_lon": 0.0, "lat": 38.954216}, {"rental_uris": {"android": "https://dc.lft.to/lastmile_qr_scan", "ios": "https://dc.lft.to/lastmile_qr_scan"}, "is_reserved": 0, "is_disabled": 0, "name": "eb7a11316630bf9372c0aed4753453ae", "bike_id": "eb7a11316630bf9372c0aed4753453ae", "fusion_lat": 0.0, "lon": -77.03051583333334, "type": "electric_scooter", "fusion_lon": 0.0, "lat": 38.900135166666665}, {"rental_uris": {"android": "https://dc.lft.to/lastmile_qr_scan", "ios": "https://dc.lft.to/lastmile_qr_scan"}, "is_reserved": 0, "is_disabled": 0, "name": "39c6cadc937b7ea7a33b451e78ed015e", "bike_id": "39c6cadc937b7ea7a33b451e78ed015e", "fusion_lat": 0.0, "lon": -77.05083716666667, "type": "electric_bike", "fusion_lon": 0.0, "lat": 38.81332366666667}, {"rental_uris": {"android": "https://dc.lft.to/lastmile_qr_scan", "ios": "https://dc.lft.to/lastmile_qr_scan"}, "is_reserved": 0, "is_disabled": 0, "name": "c59460d62d5737c7ba967332d1248766", "bike_id": "c59460d62d5737c7ba967332d1248766", "fusion_lat": 0.0, "lon": -77.0284965, "type": "electric_scooter", "fusion_lon": 0.0, "lat": 38.933110666666664}, {"rental_uris": {"android": "https://dc.lft.to/lastmile_qr_scan", "ios": "https://dc.lft.to/lastmile_qr_scan"}, "is_reserved": 0, "is_disabled": 0, "name": "a2a2e12cd6f7f9dc8e0c755e5d35a798", "bike_id": "a2a2e12cd6f7f9dc8e0c755e5d35a798", "fusion_lat": 0.0, "lon": -77.02867216666667, "type": "electric_bike", "fusion_lon": 0.0, "lat": 38.921361}, {"rental_uris": {"android": "https://dc.lft.to/lastmile_qr_scan", "ios": "https://dc.lft.to/lastmile_qr_scan"}, "is_reserved": 0, "is_disabled": 0, "name": "8e6e911a1e979ac69644d0ec3dd0060b", "bike_id": "8e6e911a1e979ac69644d0ec3dd0060b", "fusion_lat": 0.0, "lon": -77.04475933333333, "type": "electric_scooter", "fusion_lon": 0.0, "lat": 38.9023835}, {"rental_uris": {"android": "https://dc.lft.to/lastmile_qr_scan", "ios": "https://dc.lft.to/lastmile_qr_scan"}, "is_reserved": 0, "is_disabled": 0, "name": "381c76a8c9e23a94ddc8faf3b14777c8", "bike_id": "381c76a8c9e23a94ddc8faf3b14777c8", "fusion_lat": 0.0, "lon": -76.9454735, "type": "electric_bike", "fusion_lon": 0.0, "lat": 38.98304366666667}, {"rental_uris": {"android": "https://dc.lft.to/lastmile_qr_scan", "ios": "https://dc.lft.to/lastmile_qr_scan"}, "is_reserved": 0, "is_disabled": 0, "name": "c04355da1464c939d2e02f93b49e68eb", "bike_id": "c04355da1464c939d2e02f93b49e68eb", "fusion_lat": 0.0, "lon": -77.00893566666667, "type": "electric_scooter", "fusion_lon": 0.0, "lat": 38.900288}, {"rental_uris": {"android": "https://dc.lft.to/lastmile_qr_scan", "ios": "https://dc.lft.to/lastmile_qr_scan"}, "is_reserved": 0, "is_disabled": 0, "name": "59e1584a60fb3bd606c0fd28466522f8", "bike_id": "59e1584a60fb3bd606c0fd28466522f8", "fusion_lat": 0.0, "lon": -76.9375715, "type": "electric_scooter", "fusion_lon": 0.0, "lat": 38.8786015}, {"rental_uris": {"android": "https://dc.lft.to/lastmile_qr_scan", "ios": "https://dc.lft.to/lastmile_qr_scan"}, "is_reserved": 0, "is_disabled": 0, "name": "313e79c4776c34d7fd783f6120551759", "bike_id": "313e79c4776c34d7fd783f6120551759", "fusion_lat": 0.0, "lon": -76.9934765, "type": "electric_scooter", "fusion_lon": 0.0, "lat": 38.88122166666667}, {"rental_uris": {"android": "https://dc.lft.to/lastmile_qr_scan", "ios": "https://dc.lft.to/lastmile_qr_scan"}, "is_reserved": 0, "is_disabled": 0, "name": "51095174f8267efe01a7764e3f3ff556", "bike_id": "51095174f8267efe01a7764e3f3ff556", "fusion_lat": 0.0, "lon": -77.0076435, "type": "electric_bike", "fusion_lon": 0.0, "lat": 38.99780466666667}, {"rental_uris": {"android": "https://dc.lft.to/lastmile_qr_scan", "ios": "https://dc.lft.to/lastmile_qr_scan"}, "is_reserved": 0, "is_disabled": 0, "name": "362def888d7f1bba47d483d2b274a207", "bike_id": "362def888d7f1bba47d483d2b274a207", "fusion_lat": 0.0, "lon": -77.02794933333334, "type": "electric_scooter", "fusion_lon": 0.0, "lat": 38.95400983333333}, {"rental_uris": {"android": "https://dc.lft.to/lastmile_qr_scan", "ios": "https://dc.lft.to/lastmile_qr_scan"}, "is_reserved": 0, "is_disabled": 0, "name": "0ccaf0875c6d5b41aedc0543bac9f8e1", "bike_id": "0ccaf0875c6d5b41aedc0543bac9f8e1", "fusion_lat": 0.0, "lon": -77.02893783333333, "type": "electric_scooter", "fusion_lon": 0.0, "lat": 38.914031666666666}, {"rental_uris": {"android": "https://dc.lft.to/lastmile_qr_scan", "ios": "https://dc.lft.to/lastmile_qr_scan"}, "is_reserved": 0, "is_disabled": 0, "name": "05a20fb2c4ae4b467ffc1c50420f9311", "bike_id": "05a20fb2c4ae4b467ffc1c50420f9311", "fusion_lat": 0.0, "lon": -76.952451, "type": "electric_bike", "fusion_lon": 0.0, "lat": 38.88460083333333}, {"rental_uris": {"android": "https://dc.lft.to/lastmile_qr_scan", "ios": "https://dc.lft.to/lastmile_qr_scan"}, "is_reserved": 0, "is_disabled": 0, "name": "b375de9eb98d0eeaf667bfe48df161bb", "bike_id": "b375de9eb98d0eeaf667bfe48df161bb", "fusion_lat": 0.0, "lon": -76.99837933333333, "type": "electric_bike", "fusion_lon": 0.0, "lat": 38.8838375}, {"rental_uris": {"android": "https://dc.lft.to/lastmile_qr_scan", "ios": "https://dc.lft.to/lastmile_qr_scan"}, "is_reserved": 0, "is_disabled": 0, "name": "a9fd4aa6241b1ef831ff4f86f5a5cb93", "bike_id": "a9fd4aa6241b1ef831ff4f86f5a5cb93", "fusion_lat": 0.0, "lon": -76.97381633333333, "type": "electric_scooter", "fusion_lon": 0.0, "lat": 38.85002983333333}, {"rental_uris": {"android": "https://dc.lft.to/lastmile_qr_scan", "ios": "https://dc.lft.to/lastmile_qr_scan"}, "is_reserved": 0, "is_disabled": 0, "name": "450864d2b012c1b634d346e9463ea053", "bike_id": "450864d2b012c1b634d346e9463ea053", "fusion_lat": 0.0, "lon": -76.995986, "type": "electric_scooter", "fusion_lon": 0.0, "lat": 38.88425266666667}, {"rental_uris": {"android": "https://dc.lft.to/lastmile_qr_scan", "ios": "https://dc.lft.to/lastmile_qr_scan"}, "is_reserved": 0, "is_disabled": 0, "name": "d8e5d33e3f7f9b14a6211bea69d0776f", "bike_id": "d8e5d33e3f7f9b14a6211bea69d0776f", "fusion_lat": 0.0, "lon": -77.036056, "type": "electric_scooter", "fusion_lon": 0.0, "lat": 38.9233495}, {"rental_uris": {"android": "https://dc.lft.to/lastmile_qr_scan", "ios": "https://dc.lft.to/lastmile_qr_scan"}, "is_reserved": 0, "is_disabled": 0, "name": "b664540d35dadc9ec9b05929ede7056c", "bike_id": "b664540d35dadc9ec9b05929ede7056c", "fusion_lat": 0.0, "lon": -77.02974083333334, "type": "electric_scooter", "fusion_lon": 0.0, "lat": 38.9188545}, {"rental_uris": {"android": "https://dc.lft.to/lastmile_qr_scan", "ios": "https://dc.lft.to/lastmile_qr_scan"}, "is_reserved": 0, "is_disabled": 0, "name": "f0cd2ad6a75f1a98bda7655d7b961b20", "bike_id": "f0cd2ad6a75f1a98bda7655d7b961b20", "fusion_lat": 0.0, "lon": -77.02406066666667, "type": "electric_scooter", "fusion_lon": 0.0, "lat": 38.89628033333334}, {"rental_uris": {"android": "https://dc.lft.to/lastmile_qr_scan", "ios": "https://dc.lft.to/lastmile_qr_scan"}, "is_reserved": 0, "is_disabled": 0, "name": "47b662727bc0c4f435bb83e24bb31a8d", "bike_id": "47b662727bc0c4f435bb83e24bb31a8d", "fusion_lat": 0.0, "lon": -77.04491383333334, "type": "electric_scooter", "fusion_lon": 0.0, "lat": 38.91606}, {"rental_uris": {"android": "https://dc.lft.to/lastmile_qr_scan", "ios": "https://dc.lft.to/lastmile_qr_scan"}, "is_reserved": 0, "is_disabled": 0, "name": "5b789bf70af37e1674070803ef0a9cea", "bike_id": "5b789bf70af37e1674070803ef0a9cea", "fusion_lat": 0.0, "lon": -77.02206033333333, "type": "electric_scooter", "fusion_lon": 0.0, "lat": 38.89983183333333}, {"rental_uris": {"android": "https://dc.lft.to/lastmile_qr_scan", "ios": "https://dc.lft.to/lastmile_qr_scan"}, "is_reserved": 0, "is_disabled": 0, "name": "4188c13ccb64ea3fbab80a1beb917e50", "bike_id": "4188c13ccb64ea3fbab80a1beb917e50", "fusion_lat": 0.0, "lon": -77.02000616666666, "type": "electric_scooter", "fusion_lon": 0.0, "lat": 38.9115435}, {"rental_uris": {"android": "https://dc.lft.to/lastmile_qr_scan", "ios": "https://dc.lft.to/lastmile_qr_scan"}, "is_reserved": 0, "is_disabled": 0, "name": "32af584822a582367b02dbc4af785edb", "bike_id": "32af584822a582367b02dbc4af785edb", "fusion_lat": 0.0, "lon": -77.0316515, "type": "electric_scooter", "fusion_lon": 0.0, "lat": 38.892205833333335}, {"rental_uris": {"android": "https://dc.lft.to/lastmile_qr_scan", "ios": "https://dc.lft.to/lastmile_qr_scan"}, "is_reserved": 0, "is_disabled": 0, "name": "759f55a59274e09e9a72250ccfdea9e4", "bike_id": "759f55a59274e09e9a72250ccfdea9e4", "fusion_lat": 0.0, "lon": -76.95447666666666, "type": "electric_scooter", "fusion_lon": 0.0, "lat": 38.883911166666664}, {"rental_uris": {"android": "https://dc.lft.to/lastmile_qr_scan", "ios": "https://dc.lft.to/lastmile_qr_scan"}, "is_reserved": 0, "is_disabled": 0, "name": "8de853384779d5c3bf391155499b54fe", "bike_id": "8de853384779d5c3bf391155499b54fe", "fusion_lat": 0.0, "lon": -77.02416783333334, "type": "electric_scooter", "fusion_lon": 0.0, "lat": 38.926573}, {"rental_uris": {"android": "https://dc.lft.to/lastmile_qr_scan", "ios": "https://dc.lft.to/lastmile_qr_scan"}, "is_reserved": 0, "is_disabled": 0, "name": "1f2e19ab5c9d8a569aa05e31303eadef", "bike_id": "1f2e19ab5c9d8a569aa05e31303eadef", "fusion_lat": 0.0, "lon": -76.98700616666666, "type": "electric_scooter", "fusion_lon": 0.0, "lat": 38.85962966666666}, {"rental_uris": {"android": "https://dc.lft.to/lastmile_qr_scan", "ios": "https://dc.lft.to/lastmile_qr_scan"}, "is_reserved": 0, "is_disabled": 0, "name": "f84bf787d041ae9824c70a79101bc380", "bike_id": "f84bf787d041ae9824c70a79101bc380", "fusion_lat": 0.0, "lon": -77.02179316666667, "type": "electric_scooter", "fusion_lon": 0.0, "lat": 38.90187983333333}, {"rental_uris": {"android": "https://dc.lft.to/lastmile_qr_scan", "ios": "https://dc.lft.to/lastmile_qr_scan"}, "is_reserved": 0, "is_disabled": 0, "name": "aae5c31580eef772b68262e865baa6d5", "bike_id": "aae5c31580eef772b68262e865baa6d5", "fusion_lat": 0.0, "lon": -77.04208483333333, "type": "electric_scooter", "fusion_lon": 0.0, "lat": 38.923156166666665}, {"rental_uris": {"android": "https://dc.lft.to/lastmile_qr_scan", "ios": "https://dc.lft.to/lastmile_qr_scan"}, "is_reserved": 0, "is_disabled": 0, "name": "1864708e635bd9bc08970d903b6eb409", "bike_id": "1864708e635bd9bc08970d903b6eb409", "fusion_lat": 0.0, "lon": -76.90748366666666, "type": "electric_bike", "fusion_lon": 0.0, "lat": 38.89615766666667}, {"rental_uris": {"android": "https://dc.lft.to/lastmile_qr_scan", "ios": "https://dc.lft.to/lastmile_qr_scan"}, "is_reserved": 0, "is_disabled": 0, "name": "25ae4d6603ded6664ad45dceff038859", "bike_id": "25ae4d6603ded6664ad45dceff038859", "fusion_lat": 0.0, "lon": -77.0176195, "type": "electric_scooter", "fusion_lon": 0.0, "lat": 38.877175}, {"rental_uris": {"android": "https://dc.lft.to/lastmile_qr_scan", "ios": "https://dc.lft.to/lastmile_qr_scan"}, "is_reserved": 0, "is_disabled": 0, "name": "daeafe4934a07ce5962cf5a98b1a28ae", "bike_id": "daeafe4934a07ce5962cf5a98b1a28ae", "fusion_lat": 0.0, "lon": -77.01507883333333, "type": "electric_scooter", "fusion_lon": 0.0, "lat": 38.89116}, {"rental_uris": {"android": "https://dc.lft.to/lastmile_qr_scan", "ios": "https://dc.lft.to/lastmile_qr_scan"}, "is_reserved": 0, "is_disabled": 0, "name": "306a66a842095ee51f1c68866f0310bc", "bike_id": "306a66a842095ee51f1c68866f0310bc", "fusion_lat": 0.0, "lon": -77.01670666666666, "type": "electric_bike", "fusion_lon": 0.0, "lat": 38.93839066666666}, {"rental_uris": {"android": "https://dc.lft.to/lastmile_qr_scan", "ios": "https://dc.lft.to/lastmile_qr_scan"}, "is_reserved": 0, "is_disabled": 0, "name": "5e2b4a7dd2038a44c37d888c5601b306", "bike_id": "5e2b4a7dd2038a44c37d888c5601b306", "fusion_lat": 0.0, "lon": -77.02980766666667, "type": "electric_scooter", "fusion_lon": 0.0, "lat": 38.92198483333333}, {"rental_uris": {"android": "https://dc.lft.to/lastmile_qr_scan", "ios": "https://dc.lft.to/lastmile_qr_scan"}, "is_reserved": 0, "is_disabled": 0, "name": "8873d8ba9f5121d306ee1be011260a6f", "bike_id": "8873d8ba9f5121d306ee1be011260a6f", "fusion_lat": 0.0, "lon": -76.9806865, "type": "electric_scooter", "fusion_lon": 0.0, "lat": 38.9015105}, {"rental_uris": {"android": "https://dc.lft.to/lastmile_qr_scan", "ios": "https://dc.lft.to/lastmile_qr_scan"}, "is_reserved": 0, "is_disabled": 0, "name": "db73d557e529fe9f235a0b96d3200e75", "bike_id": "db73d557e529fe9f235a0b96d3200e75", "fusion_lat": 0.0, "lon": -77.0060025, "type": "electric_bike", "fusion_lon": 0.0, "lat": 38.82394883333333}, {"rental_uris": {"android": "https://dc.lft.to/lastmile_qr_scan", "ios": "https://dc.lft.to/lastmile_qr_scan"}, "is_reserved": 0, "is_disabled": 0, "name": "05e74573b72e19edd95945f3f1c8b03e", "bike_id": "05e74573b72e19edd95945f3f1c8b03e", "fusion_lat": 0.0, "lon": -77.05614316666667, "type": "electric_scooter", "fusion_lon": 0.0, "lat": 38.93109966666667}, {"rental_uris": {"android": "https://dc.lft.to/lastmile_qr_scan", "ios": "https://dc.lft.to/lastmile_qr_scan"}, "is_reserved": 0, "is_disabled": 0, "name": "f79775a32f95776b17585bd3c95ede6e", "bike_id": "f79775a32f95776b17585bd3c95ede6e", "fusion_lat": 0.0, "lon": -77.02188216666667, "type": "electric_scooter", "fusion_lon": 0.0, "lat": 38.88711716666667}, {"rental_uris": {"android": "https://dc.lft.to/lastmile_qr_scan", "ios": "https://dc.lft.to/lastmile_qr_scan"}, "is_reserved": 0, "is_disabled": 0, "name": "e6c49119c7514ba4b34e45129a8db8f0", "bike_id": "e6c49119c7514ba4b34e45129a8db8f0", "fusion_lat": 0.0, "lon": -76.92460866666667, "type": "electric_scooter", "fusion_lon": 0.0, "lat": 38.88515483333333}, {"rental_uris": {"android": "https://dc.lft.to/lastmile_qr_scan", "ios": "https://dc.lft.to/lastmile_qr_scan"}, "is_reserved": 0, "is_disabled": 0, "name": "946065048fcace699e975a7d4cdadbf4", "bike_id": "946065048fcace699e975a7d4cdadbf4", "fusion_lat": 0.0, "lon": -77.23386733333334, "type": "electric_bike", "fusion_lon": 0.0, "lat": 38.871747}, {"rental_uris": {"android": "https://dc.lft.to/lastmile_qr_scan", "ios": "https://dc.lft.to/lastmile_qr_scan"}, "is_reserved": 0, "is_disabled": 0, "name": "c4c6c146c21465e902860efe4597708a", "bike_id": "c4c6c146c21465e902860efe4597708a", "fusion_lat": 0.0, "lon": -76.98511266666667, "type": "electric_scooter", "fusion_lon": 0.0, "lat": 38.90051716666667}, {"rental_uris": {"android": "https://dc.lft.to/lastmile_qr_scan", "ios": "https://dc.lft.to/lastmile_qr_scan"}, "is_reserved": 0, "is_disabled": 0, "name": "407661df85eef94fc80cdbfe77b37c39", "bike_id": "407661df85eef94fc80cdbfe77b37c39", "fusion_lat": 0.0, "lon": -77.04352766666666, "type": "electric_scooter", "fusion_lon": 0.0, "lat": 38.91129816666667}, {"rental_uris": {"android": "https://dc.lft.to/lastmile_qr_scan", "ios": "https://dc.lft.to/lastmile_qr_scan"}, "is_reserved": 0, "is_disabled": 0, "name": "5fa049f81177a32317f5cd155d21d9f7", "bike_id": "5fa049f81177a32317f5cd155d21d9f7", "fusion_lat": 0.0, "lon": -76.94872916666667, "type": "electric_scooter", "fusion_lon": 0.0, "lat": 38.894995333333334}, {"rental_uris": {"android": "https://dc.lft.to/lastmile_qr_scan", "ios": "https://dc.lft.to/lastmile_qr_scan"}, "is_reserved": 0, "is_disabled": 0, "name": "69d0f8e096364b51c6d6163bf8339ff4", "bike_id": "69d0f8e096364b51c6d6163bf8339ff4", "fusion_lat": 0.0, "lon": -77.03868433333334, "type": "electric_scooter", "fusion_lon": 0.0, "lat": 38.917121}, {"rental_uris": {"android": "https://dc.lft.to/lastmile_qr_scan", "ios": "https://dc.lft.to/lastmile_qr_scan"}, "is_reserved": 0, "is_disabled": 0, "name": "d3c8f78de00feb7026feda0ffcc73c85", "bike_id": "d3c8f78de00feb7026feda0ffcc73c85", "fusion_lat": 0.0, "lon": -77.04376716666667, "type": "electric_scooter", "fusion_lon": 0.0, "lat": 38.920480166666664}, {"rental_uris": {"android": "https://dc.lft.to/lastmile_qr_scan", "ios": "https://dc.lft.to/lastmile_qr_scan"}, "is_reserved": 0, "is_disabled": 0, "name": "74488ad70ae6a548ac264cb38cec2e5c", "bike_id": "74488ad70ae6a548ac264cb38cec2e5c", "fusion_lat": 0.0, "lon": -77.03676916666667, "type": "electric_scooter", "fusion_lon": 0.0, "lat": 38.9069355}, {"rental_uris": {"android": "https://dc.lft.to/lastmile_qr_scan", "ios": "https://dc.lft.to/lastmile_qr_scan"}, "is_reserved": 0, "is_disabled": 0, "name": "51ca3a29b5435d9a0965af0cbfe955ca", "bike_id": "51ca3a29b5435d9a0965af0cbfe955ca", "fusion_lat": 0.0, "lon": -77.09685733333333, "type": "electric_bike", "fusion_lon": 0.0, "lat": 38.8073675}, {"rental_uris": {"android": "https://dc.lft.to/lastmile_qr_scan", "ios": "https://dc.lft.to/lastmile_qr_scan"}, "is_reserved": 0, "is_disabled": 0, "name": "ebfe0c46f90e7b95085038abfa4a1465", "bike_id": "ebfe0c46f90e7b95085038abfa4a1465", "fusion_lat": 0.0, "lon": -77.0058575, "type": "electric_scooter", "fusion_lon": 0.0, "lat": 38.8753585}, {"rental_uris": {"android": "https://dc.lft.to/lastmile_qr_scan", "ios": "https://dc.lft.to/lastmile_qr_scan"}, "is_reserved": 0, "is_disabled": 0, "name": "630b114a0e10699fc98b960cdfd3a489", "bike_id": "630b114a0e10699fc98b960cdfd3a489", "fusion_lat": 0.0, "lon": -77.0468095, "type": "electric_scooter", "fusion_lon": 0.0, "lat": 38.8921875}, {"rental_uris": {"android": "https://dc.lft.to/lastmile_qr_scan", "ios": "https://dc.lft.to/lastmile_qr_scan"}, "is_reserved": 0, "is_disabled": 0, "name": "ac8df6fe46b2df20098c5c2844e0a88a", "bike_id": "ac8df6fe46b2df20098c5c2844e0a88a", "fusion_lat": 0.0, "lon": -77.01943716666666, "type": "electric_scooter", "fusion_lon": 0.0, "lat": 38.924356}, {"rental_uris": {"android": "https://dc.lft.to/lastmile_qr_scan", "ios": "https://dc.lft.to/lastmile_qr_scan"}, "is_reserved": 0, "is_disabled": 0, "name": "dbfabdc83169e5d4cf6e9fedc3fab8ed", "bike_id": "dbfabdc83169e5d4cf6e9fedc3fab8ed", "fusion_lat": 0.0, "lon": -77.04364633333333, "type": "electric_scooter", "fusion_lon": 0.0, "lat": 38.92242433333333}, {"rental_uris": {"android": "https://dc.lft.to/lastmile_qr_scan", "ios": "https://dc.lft.to/lastmile_qr_scan"}, "is_reserved": 0, "is_disabled": 0, "name": "2ed608427241e474e027b55b5e4e99a1", "bike_id": "2ed608427241e474e027b55b5e4e99a1", "fusion_lat": 0.0, "lon": -77.0088375, "type": "electric_scooter", "fusion_lon": 0.0, "lat": 38.9246395}, {"rental_uris": {"android": "https://dc.lft.to/lastmile_qr_scan", "ios": "https://dc.lft.to/lastmile_qr_scan"}, "is_reserved": 0, "is_disabled": 0, "name": "54eaea16091427c27e6dd3eec7e70116", "bike_id": "54eaea16091427c27e6dd3eec7e70116", "fusion_lat": 0.0, "lon": -77.015193, "type": "electric_scooter", "fusion_lon": 0.0, "lat": 38.872761833333335}, {"rental_uris": {"android": "https://dc.lft.to/lastmile_qr_scan", "ios": "https://dc.lft.to/lastmile_qr_scan"}, "is_reserved": 0, "is_disabled": 0, "name": "8eef94c45325d90ca32c3c2540b01926", "bike_id": "8eef94c45325d90ca32c3c2540b01926", "fusion_lat": 0.0, "lon": -77.03204183333334, "type": "electric_scooter", "fusion_lon": 0.0, "lat": 38.91022516666666}, {"rental_uris": {"android": "https://dc.lft.to/lastmile_qr_scan", "ios": "https://dc.lft.to/lastmile_qr_scan"}, "is_reserved": 0, "is_disabled": 0, "name": "ece14e2656189ff68497f4c2a5c2fb9f", "bike_id": "ece14e2656189ff68497f4c2a5c2fb9f", "fusion_lat": 0.0, "lon": -77.03500983333333, "type": "electric_scooter", "fusion_lon": 0.0, "lat": 38.918738}, {"rental_uris": {"android": "https://dc.lft.to/lastmile_qr_scan", "ios": "https://dc.lft.to/lastmile_qr_scan"}, "is_reserved": 0, "is_disabled": 0, "name": "de0de4fc1202e8aafa9fa1b9e51778e1", "bike_id": "de0de4fc1202e8aafa9fa1b9e51778e1", "fusion_lat": 0.0, "lon": -77.0296915, "type": "electric_scooter", "fusion_lon": 0.0, "lat": 38.907166333333336}, {"rental_uris": {"android": "https://dc.lft.to/lastmile_qr_scan", "ios": "https://dc.lft.to/lastmile_qr_scan"}, "is_reserved": 0, "is_disabled": 0, "name": "148bc231975e174dfe27bc3108154725", "bike_id": "148bc231975e174dfe27bc3108154725", "fusion_lat": 0.0, "lon": -77.03755033333333, "type": "electric_scooter", "fusion_lon": 0.0, "lat": 38.9126465}, {"rental_uris": {"android": "https://dc.lft.to/lastmile_qr_scan", "ios": "https://dc.lft.to/lastmile_qr_scan"}, "is_reserved": 0, "is_disabled": 0, "name": "e80d24c84012e2bf0318d09cabf1888a", "bike_id": "e80d24c84012e2bf0318d09cabf1888a", "fusion_lat": 0.0, "lon": -77.028817, "type": "electric_scooter", "fusion_lon": 0.0, "lat": 38.93156466666667}, {"rental_uris": {"android": "https://dc.lft.to/lastmile_qr_scan", "ios": "https://dc.lft.to/lastmile_qr_scan"}, "is_reserved": 0, "is_disabled": 0, "name": "7ae9174cf5af10c05c7a779c0d0ec304", "bike_id": "7ae9174cf5af10c05c7a779c0d0ec304", "fusion_lat": 0.0, "lon": -77.04833, "type": "electric_scooter", "fusion_lon": 0.0, "lat": 38.90038}, {"rental_uris": {"android": "https://dc.lft.to/lastmile_qr_scan", "ios": "https://dc.lft.to/lastmile_qr_scan"}, "is_reserved": 0, "is_disabled": 0, "name": "19feb973f55c7ea7e062fc1fff259901", "bike_id": "19feb973f55c7ea7e062fc1fff259901", "fusion_lat": 0.0, "lon": -77.03443833333333, "type": "electric_scooter", "fusion_lon": 0.0, "lat": 38.90629333333333}, {"rental_uris": {"android": "https://dc.lft.to/lastmile_qr_scan", "ios": "https://dc.lft.to/lastmile_qr_scan"}, "is_reserved": 0, "is_disabled": 0, "name": "26b4f2b914715f5d00a322cb5b0e9652", "bike_id": "26b4f2b914715f5d00a322cb5b0e9652", "fusion_lat": 0.0, "lon": -77.023234, "type": "electric_scooter", "fusion_lon": 0.0, "lat": 38.95736183333333}, {"rental_uris": {"android": "https://dc.lft.to/lastmile_qr_scan", "ios": "https://dc.lft.to/lastmile_qr_scan"}, "is_reserved": 0, "is_disabled": 0, "name": "439ca3d96d76face0d52e2fe6766474d", "bike_id": "439ca3d96d76face0d52e2fe6766474d", "fusion_lat": 0.0, "lon": -77.02787866666667, "type": "electric_scooter", "fusion_lon": 0.0, "lat": 38.9277285}, {"rental_uris": {"android": "https://dc.lft.to/lastmile_qr_scan", "ios": "https://dc.lft.to/lastmile_qr_scan"}, "is_reserved": 0, "is_disabled": 0, "name": "74e9e89c11636aaa7196f73b215b242a", "bike_id": "74e9e89c11636aaa7196f73b215b242a", "fusion_lat": 0.0, "lon": -77.04010183333334, "type": "electric_scooter", "fusion_lon": 0.0, "lat": 38.90995483333333}, {"rental_uris": {"android": "https://dc.lft.to/lastmile_qr_scan", "ios": "https://dc.lft.to/lastmile_qr_scan"}, "is_reserved": 0, "is_disabled": 0, "name": "88f6ba3dbd95d06b10c3947ec6174111", "bike_id": "88f6ba3dbd95d06b10c3947ec6174111", "fusion_lat": 0.0, "lon": -77.0180375, "type": "electric_scooter", "fusion_lon": 0.0, "lat": 38.9214565}, {"rental_uris": {"android": "https://dc.lft.to/lastmile_qr_scan", "ios": "https://dc.lft.to/lastmile_qr_scan"}, "is_reserved": 0, "is_disabled": 0, "name": "bfef8ed367367a7e36b18e1bfa626c55", "bike_id": "bfef8ed367367a7e36b18e1bfa626c55", "fusion_lat": 0.0, "lon": -77.045741, "type": "electric_scooter", "fusion_lon": 0.0, "lat": 38.91352533333333}, {"rental_uris": {"android": "https://dc.lft.to/lastmile_qr_scan", "ios": "https://dc.lft.to/lastmile_qr_scan"}, "is_reserved": 0, "is_disabled": 0, "name": "4fffaf868329654fbb3033c05b1a253a", "bike_id": "4fffaf868329654fbb3033c05b1a253a", "fusion_lat": 0.0, "lon": -77.02098466666666, "type": "electric_scooter", "fusion_lon": 0.0, "lat": 38.88499566666667}, {"rental_uris": {"android": "https://dc.lft.to/lastmile_qr_scan", "ios": "https://dc.lft.to/lastmile_qr_scan"}, "is_reserved": 0, "is_disabled": 0, "name": "2c5ef049c1678449b383427df6b0635d", "bike_id": "2c5ef049c1678449b383427df6b0635d", "fusion_lat": 0.0, "lon": -76.97971916666667, "type": "electric_bike", "fusion_lon": 0.0, "lat": 38.9204475}, {"rental_uris": {"android": "https://dc.lft.to/lastmile_qr_scan", "ios": "https://dc.lft.to/lastmile_qr_scan"}, "is_reserved": 0, "is_disabled": 0, "name": "02974c6cdc65c8bd55bb207affdfa51c", "bike_id": "02974c6cdc65c8bd55bb207affdfa51c", "fusion_lat": 0.0, "lon": -76.98058, "type": "electric_bike", "fusion_lon": 0.0, "lat": 38.972468666666664}, {"rental_uris": {"android": "https://dc.lft.to/lastmile_qr_scan", "ios": "https://dc.lft.to/lastmile_qr_scan"}, "is_reserved": 0, "is_disabled": 0, "name": "27afc6df449bf78fa64b13245ff84f5e", "bike_id": "27afc6df449bf78fa64b13245ff84f5e", "fusion_lat": 0.0, "lon": -77.00198616666667, "type": "electric_scooter", "fusion_lon": 0.0, "lat": 38.90025583333333}, {"rental_uris": {"android": "https://dc.lft.to/lastmile_qr_scan", "ios": "https://dc.lft.to/lastmile_qr_scan"}, "is_reserved": 0, "is_disabled": 0, "name": "2f8baba842539f4a60558cbebd4fa2bf", "bike_id": "2f8baba842539f4a60558cbebd4fa2bf", "fusion_lat": 0.0, "lon": -77.039921, "type": "electric_scooter", "fusion_lon": 0.0, "lat": 38.93401566666667}, {"rental_uris": {"android": "https://dc.lft.to/lastmile_qr_scan", "ios": "https://dc.lft.to/lastmile_qr_scan"}, "is_reserved": 0, "is_disabled": 0, "name": "41152b4b4bb09807e65727510b04a54d", "bike_id": "41152b4b4bb09807e65727510b04a54d", "fusion_lat": 0.0, "lon": -77.02170633333333, "type": "electric_scooter", "fusion_lon": 0.0, "lat": 38.942853666666664}, {"rental_uris": {"android": "https://dc.lft.to/lastmile_qr_scan", "ios": "https://dc.lft.to/lastmile_qr_scan"}, "is_reserved": 0, "is_disabled": 0, "name": "9d7eb0936c2e25da80521a7aff524e03", "bike_id": "9d7eb0936c2e25da80521a7aff524e03", "fusion_lat": 0.0, "lon": -77.01866916666667, "type": "electric_scooter", "fusion_lon": 0.0, "lat": 38.97369333333333}, {"rental_uris": {"android": "https://dc.lft.to/lastmile_qr_scan", "ios": "https://dc.lft.to/lastmile_qr_scan"}, "is_reserved": 0, "is_disabled": 0, "name": "cc694f6a210670402b7d31c11c105cf6", "bike_id": "cc694f6a210670402b7d31c11c105cf6", "fusion_lat": 0.0, "lon": -77.02573083333333, "type": "electric_scooter", "fusion_lon": 0.0, "lat": 38.912552166666664}, {"rental_uris": {"android": "https://dc.lft.to/lastmile_qr_scan", "ios": "https://dc.lft.to/lastmile_qr_scan"}, "is_reserved": 0, "is_disabled": 0, "name": "470e31b55fff2448db0e9a84b4e4b0b1", "bike_id": "470e31b55fff2448db0e9a84b4e4b0b1", "fusion_lat": 0.0, "lon": -77.0035355, "type": "electric_scooter", "fusion_lon": 0.0, "lat": 38.876732833333335}, {"rental_uris": {"android": "https://dc.lft.to/lastmile_qr_scan", "ios": "https://dc.lft.to/lastmile_qr_scan"}, "is_reserved": 0, "is_disabled": 0, "name": "f3459a2da0cc054aed8d126fb2726b90", "bike_id": "f3459a2da0cc054aed8d126fb2726b90", "fusion_lat": 0.0, "lon": -77.021844, "type": "electric_scooter", "fusion_lon": 0.0, "lat": 38.8871185}, {"rental_uris": {"android": "https://dc.lft.to/lastmile_qr_scan", "ios": "https://dc.lft.to/lastmile_qr_scan"}, "is_reserved": 0, "is_disabled": 0, "name": "2767b2ef1f38024afd03306849986915", "bike_id": "2767b2ef1f38024afd03306849986915", "fusion_lat": 0.0, "lon": -77.02770566666666, "type": "electric_scooter", "fusion_lon": 0.0, "lat": 38.93417216666667}, {"rental_uris": {"android": "https://dc.lft.to/lastmile_qr_scan", "ios": "https://dc.lft.to/lastmile_qr_scan"}, "is_reserved": 0, "is_disabled": 0, "name": "b24a462fe96d6742bd37778e28bc626f", "bike_id": "b24a462fe96d6742bd37778e28bc626f", "fusion_lat": 0.0, "lon": -76.93550533333334, "type": "electric_scooter", "fusion_lon": 0.0, "lat": 38.8826885}, {"rental_uris": {"android": "https://dc.lft.to/lastmile_qr_scan", "ios": "https://dc.lft.to/lastmile_qr_scan"}, "is_reserved": 0, "is_disabled": 0, "name": "4b51744797777010f5f2d9e9823e3df9", "bike_id": "4b51744797777010f5f2d9e9823e3df9", "fusion_lat": 0.0, "lon": -77.006419, "type": "electric_scooter", "fusion_lon": 0.0, "lat": 38.89995966666667}, {"rental_uris": {"android": "https://dc.lft.to/lastmile_qr_scan", "ios": "https://dc.lft.to/lastmile_qr_scan"}, "is_reserved": 0, "is_disabled": 0, "name": "b23e7dfa67be13d971a0d1f5fd2b5bd0", "bike_id": "b23e7dfa67be13d971a0d1f5fd2b5bd0", "fusion_lat": 0.0, "lon": -77.0212985, "type": "electric_scooter", "fusion_lon": 0.0, "lat": 38.92271816666667}, {"rental_uris": {"android": "https://dc.lft.to/lastmile_qr_scan", "ios": "https://dc.lft.to/lastmile_qr_scan"}, "is_reserved": 0, "is_disabled": 0, "name": "fcce57fb0223c397d83c2cc8423ac174", "bike_id": "fcce57fb0223c397d83c2cc8423ac174", "fusion_lat": 0.0, "lon": -77.03168233333334, "type": "electric_scooter", "fusion_lon": 0.0, "lat": 38.929692333333335}, {"rental_uris": {"android": "https://dc.lft.to/lastmile_qr_scan", "ios": "https://dc.lft.to/lastmile_qr_scan"}, "is_reserved": 0, "is_disabled": 0, "name": "1430311bbd6139b58918dd02d537ef8e", "bike_id": "1430311bbd6139b58918dd02d537ef8e", "fusion_lat": 0.0, "lon": -76.96543516666667, "type": "electric_scooter", "fusion_lon": 0.0, "lat": 38.918532}, {"rental_uris": {"android": "https://dc.lft.to/lastmile_qr_scan", "ios": "https://dc.lft.to/lastmile_qr_scan"}, "is_reserved": 0, "is_disabled": 0, "name": "d451b6d662b23e11d38f7c368ea30ebd", "bike_id": "d451b6d662b23e11d38f7c368ea30ebd", "fusion_lat": 0.0, "lon": -77.05506083333333, "type": "electric_scooter", "fusion_lon": 0.0, "lat": 38.9283455}, {"rental_uris": {"android": "https://dc.lft.to/lastmile_qr_scan", "ios": "https://dc.lft.to/lastmile_qr_scan"}, "is_reserved": 0, "is_disabled": 0, "name": "dfacd41b3ecb3831f117f99e4cbe53b6", "bike_id": "dfacd41b3ecb3831f117f99e4cbe53b6", "fusion_lat": 0.0, "lon": -77.03247433333334, "type": "electric_scooter", "fusion_lon": 0.0, "lat": 38.917060166666666}, {"rental_uris": {"android": "https://dc.lft.to/lastmile_qr_scan", "ios": "https://dc.lft.to/lastmile_qr_scan"}, "is_reserved": 0, "is_disabled": 0, "name": "5ea3bc56400db7bc1788576f2b6bf963", "bike_id": "5ea3bc56400db7bc1788576f2b6bf963", "fusion_lat": 0.0, "lon": -76.99541833333333, "type": "electric_bike", "fusion_lon": 0.0, "lat": 38.956287}, {"rental_uris": {"android": "https://dc.lft.to/lastmile_qr_scan", "ios": "https://dc.lft.to/lastmile_qr_scan"}, "is_reserved": 0, "is_disabled": 0, "name": "da49db966397190b32db90f5e9ed3d7a", "bike_id": "da49db966397190b32db90f5e9ed3d7a", "fusion_lat": 0.0, "lon": -76.96707283333333, "type": "electric_scooter", "fusion_lon": 0.0, "lat": 38.85971583333333}, {"rental_uris": {"android": "https://dc.lft.to/lastmile_qr_scan", "ios": "https://dc.lft.to/lastmile_qr_scan"}, "is_reserved": 0, "is_disabled": 0, "name": "db2914c380e83a60ce384dac3fc1fef5", "bike_id": "db2914c380e83a60ce384dac3fc1fef5", "fusion_lat": 0.0, "lon": -77.0306275, "type": "electric_scooter", "fusion_lon": 0.0, "lat": 38.92367983333333}, {"rental_uris": {"android": "https://dc.lft.to/lastmile_qr_scan", "ios": "https://dc.lft.to/lastmile_qr_scan"}, "is_reserved": 0, "is_disabled": 0, "name": "cb221a65dc6a7c81e19ac5f3682ee75b", "bike_id": "cb221a65dc6a7c81e19ac5f3682ee75b", "fusion_lat": 0.0, "lon": -77.01922666666667, "type": "electric_scooter", "fusion_lon": 0.0, "lat": 38.91730783333333}, {"rental_uris": {"android": "https://dc.lft.to/lastmile_qr_scan", "ios": "https://dc.lft.to/lastmile_qr_scan"}, "is_reserved": 0, "is_disabled": 0, "name": "bdd97f42de455e7cec8048ee5ceb819f", "bike_id": "bdd97f42de455e7cec8048ee5ceb819f", "fusion_lat": 0.0, "lon": -77.04748766666667, "type": "electric_scooter", "fusion_lon": 0.0, "lat": 38.900774166666665}, {"rental_uris": {"android": "https://dc.lft.to/lastmile_qr_scan", "ios": "https://dc.lft.to/lastmile_qr_scan"}, "is_reserved": 0, "is_disabled": 0, "name": "1db8f1342a69aba364bcc30ed82e9adc", "bike_id": "1db8f1342a69aba364bcc30ed82e9adc", "fusion_lat": 0.0, "lon": -77.00769866666667, "type": "electric_scooter", "fusion_lon": 0.0, "lat": 38.926703833333335}, {"rental_uris": {"android": "https://dc.lft.to/lastmile_qr_scan", "ios": "https://dc.lft.to/lastmile_qr_scan"}, "is_reserved": 0, "is_disabled": 0, "name": "a1614cb90aee5694288d6531f3b2b44a", "bike_id": "a1614cb90aee5694288d6531f3b2b44a", "fusion_lat": 0.0, "lon": -77.03657083333333, "type": "electric_scooter", "fusion_lon": 0.0, "lat": 38.93595033333333}, {"rental_uris": {"android": "https://dc.lft.to/lastmile_qr_scan", "ios": "https://dc.lft.to/lastmile_qr_scan"}, "is_reserved": 0, "is_disabled": 0, "name": "fc8cd6e0e458a3c283d6748dfd4790e6", "bike_id": "fc8cd6e0e458a3c283d6748dfd4790e6", "fusion_lat": 0.0, "lon": -77.07327683333334, "type": "electric_scooter", "fusion_lon": 0.0, "lat": 38.926091166666666}, {"rental_uris": {"android": "https://dc.lft.to/lastmile_qr_scan", "ios": "https://dc.lft.to/lastmile_qr_scan"}, "is_reserved": 0, "is_disabled": 0, "name": "ca04bb12656e33ba74aa38652f400f3b", "bike_id": "ca04bb12656e33ba74aa38652f400f3b", "fusion_lat": 0.0, "lon": -77.01561433333333, "type": "electric_scooter", "fusion_lon": 0.0, "lat": 38.8831445}, {"rental_uris": {"android": "https://dc.lft.to/lastmile_qr_scan", "ios": "https://dc.lft.to/lastmile_qr_scan"}, "is_reserved": 0, "is_disabled": 0, "name": "a0373a88a0ed0b7ed4d3b85bdf97b40a", "bike_id": "a0373a88a0ed0b7ed4d3b85bdf97b40a", "fusion_lat": 0.0, "lon": -76.98619633333334, "type": "electric_scooter", "fusion_lon": 0.0, "lat": 38.907215666666666}, {"rental_uris": {"android": "https://dc.lft.to/lastmile_qr_scan", "ios": "https://dc.lft.to/lastmile_qr_scan"}, "is_reserved": 0, "is_disabled": 0, "name": "144a492ff43c1940c9455043de29d5eb", "bike_id": "144a492ff43c1940c9455043de29d5eb", "fusion_lat": 0.0, "lon": -77.01309883333333, "type": "electric_scooter", "fusion_lon": 0.0, "lat": 38.897433}, {"rental_uris": {"android": "https://dc.lft.to/lastmile_qr_scan", "ios": "https://dc.lft.to/lastmile_qr_scan"}, "is_reserved": 0, "is_disabled": 0, "name": "e9233484dac59e83c16f61590d4913b5", "bike_id": "e9233484dac59e83c16f61590d4913b5", "fusion_lat": 0.0, "lon": -77.03520633333333, "type": "electric_scooter", "fusion_lon": 0.0, "lat": 38.93599783333333}, {"rental_uris": {"android": "https://dc.lft.to/lastmile_qr_scan", "ios": "https://dc.lft.to/lastmile_qr_scan"}, "is_reserved": 0, "is_disabled": 0, "name": "e83d91160a552f7a07205add40f4ed27", "bike_id": "e83d91160a552f7a07205add40f4ed27", "fusion_lat": 0.0, "lon": -77.02459666666667, "type": "electric_scooter", "fusion_lon": 0.0, "lat": 38.89731}, {"rental_uris": {"android": "https://dc.lft.to/lastmile_qr_scan", "ios": "https://dc.lft.to/lastmile_qr_scan"}, "is_reserved": 0, "is_disabled": 0, "name": "15f6ee791712a530acae88682f7c8873", "bike_id": "15f6ee791712a530acae88682f7c8873", "fusion_lat": 0.0, "lon": -77.03492783333333, "type": "electric_scooter", "fusion_lon": 0.0, "lat": 38.92140116666667}, {"rental_uris": {"android": "https://dc.lft.to/lastmile_qr_scan", "ios": "https://dc.lft.to/lastmile_qr_scan"}, "is_reserved": 0, "is_disabled": 0, "name": "35031dcd73d0a2470b23133f661ea6fe", "bike_id": "35031dcd73d0a2470b23133f661ea6fe", "fusion_lat": 0.0, "lon": -77.05038816666666, "type": "electric_scooter", "fusion_lon": 0.0, "lat": 38.923609666666664}, {"rental_uris": {"android": "https://dc.lft.to/lastmile_qr_scan", "ios": "https://dc.lft.to/lastmile_qr_scan"}, "is_reserved": 0, "is_disabled": 0, "name": "cf60a64e8f8b916c7f28f14112f621bb", "bike_id": "cf60a64e8f8b916c7f28f14112f621bb", "fusion_lat": 0.0, "lon": -76.95062133333333, "type": "electric_bike", "fusion_lon": 0.0, "lat": 39.08509933333333}, {"rental_uris": {"android": "https://dc.lft.to/lastmile_qr_scan", "ios": "https://dc.lft.to/lastmile_qr_scan"}, "is_reserved": 0, "is_disabled": 0, "name": "c578420ec25959e79f27af7e040620ca", "bike_id": "c578420ec25959e79f27af7e040620ca", "fusion_lat": 0.0, "lon": -77.01493533333333, "type": "electric_scooter", "fusion_lon": 0.0, "lat": 38.90616283333333}, {"rental_uris": {"android": "https://dc.lft.to/lastmile_qr_scan", "ios": "https://dc.lft.to/lastmile_qr_scan"}, "is_reserved": 0, "is_disabled": 0, "name": "2fb20d8efaf01c4c5a5be7f23de0bc4f", "bike_id": "2fb20d8efaf01c4c5a5be7f23de0bc4f", "fusion_lat": 0.0, "lon": -77.03479866666666, "type": "electric_scooter", "fusion_lon": 0.0, "lat": 38.92472766666667}, {"rental_uris": {"android": "https://dc.lft.to/lastmile_qr_scan", "ios": "https://dc.lft.to/lastmile_qr_scan"}, "is_reserved": 0, "is_disabled": 0, "name": "01553ade0e42022a7d1b3e6bbe7c66ae", "bike_id": "01553ade0e42022a7d1b3e6bbe7c66ae", "fusion_lat": 0.0, "lon": -77.03345616666667, "type": "electric_scooter", "fusion_lon": 0.0, "lat": 38.935103}, {"rental_uris": {"android": "https://dc.lft.to/lastmile_qr_scan", "ios": "https://dc.lft.to/lastmile_qr_scan"}, "is_reserved": 0, "is_disabled": 0, "name": "a91bb25a2ffff28d6e3fa60c9162cfad", "bike_id": "a91bb25a2ffff28d6e3fa60c9162cfad", "fusion_lat": 0.0, "lon": -77.034509, "type": "electric_scooter", "fusion_lon": 0.0, "lat": 38.921519833333335}, {"rental_uris": {"android": "https://dc.lft.to/lastmile_qr_scan", "ios": "https://dc.lft.to/lastmile_qr_scan"}, "is_reserved": 0, "is_disabled": 0, "name": "dbdbfd6837200b745aab77627b0aafd4", "bike_id": "dbdbfd6837200b745aab77627b0aafd4", "fusion_lat": 0.0, "lon": -77.01857716666666, "type": "electric_scooter", "fusion_lon": 0.0, "lat": 38.949213}, {"rental_uris": {"android": "https://dc.lft.to/lastmile_qr_scan", "ios": "https://dc.lft.to/lastmile_qr_scan"}, "is_reserved": 0, "is_disabled": 0, "name": "3ba24af393da09a8b0a5355ba9973c75", "bike_id": "3ba24af393da09a8b0a5355ba9973c75", "fusion_lat": 0.0, "lon": -77.01377566666666, "type": "electric_scooter", "fusion_lon": 0.0, "lat": 38.87602016666666}, {"rental_uris": {"android": "https://dc.lft.to/lastmile_qr_scan", "ios": "https://dc.lft.to/lastmile_qr_scan"}, "is_reserved": 0, "is_disabled": 0, "name": "6fe1c066a9155656c8f8f699fc47ff0c", "bike_id": "6fe1c066a9155656c8f8f699fc47ff0c", "fusion_lat": 0.0, "lon": -77.0358465, "type": "electric_bike", "fusion_lon": 0.0, "lat": 38.99225333333333}, {"rental_uris": {"android": "https://dc.lft.to/lastmile_qr_scan", "ios": "https://dc.lft.to/lastmile_qr_scan"}, "is_reserved": 0, "is_disabled": 0, "name": "23f4c8b4c208e8b6550e6c9e91d40a11", "bike_id": "23f4c8b4c208e8b6550e6c9e91d40a11", "fusion_lat": 0.0, "lon": -77.019439, "type": "electric_scooter", "fusion_lon": 0.0, "lat": 38.924168333333334}, {"rental_uris": {"android": "https://dc.lft.to/lastmile_qr_scan", "ios": "https://dc.lft.to/lastmile_qr_scan"}, "is_reserved": 0, "is_disabled": 0, "name": "f118f4267226bbd25a3d7123d469bd2f", "bike_id": "f118f4267226bbd25a3d7123d469bd2f", "fusion_lat": 0.0, "lon": -76.98531916666667, "type": "electric_scooter", "fusion_lon": 0.0, "lat": 38.9000995}, {"rental_uris": {"android": "https://dc.lft.to/lastmile_qr_scan", "ios": "https://dc.lft.to/lastmile_qr_scan"}, "is_reserved": 0, "is_disabled": 0, "name": "e843dd7a5797c4dcf5b57528bd4a3751", "bike_id": "e843dd7a5797c4dcf5b57528bd4a3751", "fusion_lat": 0.0, "lon": -77.00276616666666, "type": "electric_bike", "fusion_lon": 0.0, "lat": 38.838114166666664}, {"rental_uris": {"android": "https://dc.lft.to/lastmile_qr_scan", "ios": "https://dc.lft.to/lastmile_qr_scan"}, "is_reserved": 0, "is_disabled": 0, "name": "adcb6b15f3adc7d3800e94ef5a5e4472", "bike_id": "adcb6b15f3adc7d3800e94ef5a5e4472", "fusion_lat": 0.0, "lon": -77.02717583333333, "type": "electric_scooter", "fusion_lon": 0.0, "lat": 38.90684016666667}, {"rental_uris": {"android": "https://dc.lft.to/lastmile_qr_scan", "ios": "https://dc.lft.to/lastmile_qr_scan"}, "is_reserved": 0, "is_disabled": 0, "name": "8c0c470203b7ec8a08252106f1ea2412", "bike_id": "8c0c470203b7ec8a08252106f1ea2412", "fusion_lat": 0.0, "lon": -77.05918633333333, "type": "electric_scooter", "fusion_lon": 0.0, "lat": 38.902089833333335}, {"rental_uris": {"android": "https://dc.lft.to/lastmile_qr_scan", "ios": "https://dc.lft.to/lastmile_qr_scan"}, "is_reserved": 0, "is_disabled": 0, "name": "0d37bc3fd45a5ed516f55df32f47810e", "bike_id": "0d37bc3fd45a5ed516f55df32f47810e", "fusion_lat": 0.0, "lon": -77.03173483333333, "type": "electric_scooter", "fusion_lon": 0.0, "lat": 38.9163775}, {"rental_uris": {"android": "https://dc.lft.to/lastmile_qr_scan", "ios": "https://dc.lft.to/lastmile_qr_scan"}, "is_reserved": 0, "is_disabled": 0, "name": "0a812ec3a9ac1134d4149bbc33d5db31", "bike_id": "0a812ec3a9ac1134d4149bbc33d5db31", "fusion_lat": 0.0, "lon": -77.02787066666667, "type": "electric_scooter", "fusion_lon": 0.0, "lat": 38.9616045}, {"rental_uris": {"android": "https://dc.lft.to/lastmile_qr_scan", "ios": "https://dc.lft.to/lastmile_qr_scan"}, "is_reserved": 0, "is_disabled": 0, "name": "e8dff5f2685ae86ee1144aa657c26ced", "bike_id": "e8dff5f2685ae86ee1144aa657c26ced", "fusion_lat": 0.0, "lon": -77.02692866666666, "type": "electric_scooter", "fusion_lon": 0.0, "lat": 38.91672916666667}, {"rental_uris": {"android": "https://dc.lft.to/lastmile_qr_scan", "ios": "https://dc.lft.to/lastmile_qr_scan"}, "is_reserved": 0, "is_disabled": 0, "name": "1e85fbc9ecf70729c49ce504d5131d3e", "bike_id": "1e85fbc9ecf70729c49ce504d5131d3e", "fusion_lat": 0.0, "lon": -76.96319383333334, "type": "electric_bike", "fusion_lon": 0.0, "lat": 38.9389165}, {"rental_uris": {"android": "https://dc.lft.to/lastmile_qr_scan", "ios": "https://dc.lft.to/lastmile_qr_scan"}, "is_reserved": 0, "is_disabled": 0, "name": "2ffdf498b8d88557004c3a02a31e9d92", "bike_id": "2ffdf498b8d88557004c3a02a31e9d92", "fusion_lat": 0.0, "lon": -76.98742166666666, "type": "electric_scooter", "fusion_lon": 0.0, "lat": 38.87961966666667}, {"rental_uris": {"android": "https://dc.lft.to/lastmile_qr_scan", "ios": "https://dc.lft.to/lastmile_qr_scan"}, "is_reserved": 0, "is_disabled": 0, "name": "562f83e89325c87d1fd0db0ba2b5d71b", "bike_id": "562f83e89325c87d1fd0db0ba2b5d71b", "fusion_lat": 0.0, "lon": -77.00374466666666, "type": "electric_bike", "fusion_lon": 0.0, "lat": 38.8360455}, {"rental_uris": {"android": "https://dc.lft.to/lastmile_qr_scan", "ios": "https://dc.lft.to/lastmile_qr_scan"}, "is_reserved": 0, "is_disabled": 0, "name": "1d732f20a7a3b6d36911cb1677156805", "bike_id": "1d732f20a7a3b6d36911cb1677156805", "fusion_lat": 0.0, "lon": -77.02074916666666, "type": "electric_scooter", "fusion_lon": 0.0, "lat": 38.930209166666664}, {"rental_uris": {"android": "https://dc.lft.to/lastmile_qr_scan", "ios": "https://dc.lft.to/lastmile_qr_scan"}, "is_reserved": 0, "is_disabled": 0, "name": "3c083a9f47ca847f4f86f401b261cadd", "bike_id": "3c083a9f47ca847f4f86f401b261cadd", "fusion_lat": 0.0, "lon": -77.03325633333333, "type": "electric_scooter", "fusion_lon": 0.0, "lat": 38.9002185}, {"rental_uris": {"android": "https://dc.lft.to/lastmile_qr_scan", "ios": "https://dc.lft.to/lastmile_qr_scan"}, "is_reserved": 0, "is_disabled": 0, "name": "260731914e153998818f528211a983cb", "bike_id": "260731914e153998818f528211a983cb", "fusion_lat": 0.0, "lon": -77.02813983333333, "type": "electric_scooter", "fusion_lon": 0.0, "lat": 38.8994465}, {"rental_uris": {"android": "https://dc.lft.to/lastmile_qr_scan", "ios": "https://dc.lft.to/lastmile_qr_scan"}, "is_reserved": 0, "is_disabled": 0, "name": "c97950af4bf8da4036e14d2c5ca46f7b", "bike_id": "c97950af4bf8da4036e14d2c5ca46f7b", "fusion_lat": 0.0, "lon": -77.02299366666666, "type": "electric_scooter", "fusion_lon": 0.0, "lat": 38.908929}, {"rental_uris": {"android": "https://dc.lft.to/lastmile_qr_scan", "ios": "https://dc.lft.to/lastmile_qr_scan"}, "is_reserved": 0, "is_disabled": 0, "name": "2eebc2d8ec1944adc224e02514e274fb", "bike_id": "2eebc2d8ec1944adc224e02514e274fb", "fusion_lat": 0.0, "lon": -76.96546983333333, "type": "electric_scooter", "fusion_lon": 0.0, "lat": 38.9185055}, {"rental_uris": {"android": "https://dc.lft.to/lastmile_qr_scan", "ios": "https://dc.lft.to/lastmile_qr_scan"}, "is_reserved": 0, "is_disabled": 0, "name": "29451830494d0ee8e36f77e92bafb522", "bike_id": "29451830494d0ee8e36f77e92bafb522", "fusion_lat": 0.0, "lon": -77.0290435, "type": "electric_scooter", "fusion_lon": 0.0, "lat": 38.916524333333335}, {"rental_uris": {"android": "https://dc.lft.to/lastmile_qr_scan", "ios": "https://dc.lft.to/lastmile_qr_scan"}, "is_reserved": 0, "is_disabled": 0, "name": "63daa04720277e0a95c7a11c41dbae66", "bike_id": "63daa04720277e0a95c7a11c41dbae66", "fusion_lat": 0.0, "lon": -77.038412, "type": "electric_scooter", "fusion_lon": 0.0, "lat": 38.92171583333333}, {"rental_uris": {"android": "https://dc.lft.to/lastmile_qr_scan", "ios": "https://dc.lft.to/lastmile_qr_scan"}, "is_reserved": 0, "is_disabled": 0, "name": "5ea7fc0a25be904675b6012018bd0c05", "bike_id": "5ea7fc0a25be904675b6012018bd0c05", "fusion_lat": 0.0, "lon": -77.03898566666666, "type": "electric_scooter", "fusion_lon": 0.0, "lat": 38.922212333333334}, {"rental_uris": {"android": "https://dc.lft.to/lastmile_qr_scan", "ios": "https://dc.lft.to/lastmile_qr_scan"}, "is_reserved": 0, "is_disabled": 0, "name": "69abaa683c8e8fefbdb69c3a35ed9556", "bike_id": "69abaa683c8e8fefbdb69c3a35ed9556", "fusion_lat": 0.0, "lon": -77.03294433333333, "type": "electric_scooter", "fusion_lon": 0.0, "lat": 38.899094}, {"rental_uris": {"android": "https://dc.lft.to/lastmile_qr_scan", "ios": "https://dc.lft.to/lastmile_qr_scan"}, "is_reserved": 0, "is_disabled": 0, "name": "ed8d24d0ffeb7af8cc610078219506fd", "bike_id": "ed8d24d0ffeb7af8cc610078219506fd", "fusion_lat": 0.0, "lon": -77.01229933333333, "type": "electric_bike", "fusion_lon": 0.0, "lat": 38.95078433333333}, {"rental_uris": {"android": "https://dc.lft.to/lastmile_qr_scan", "ios": "https://dc.lft.to/lastmile_qr_scan"}, "is_reserved": 0, "is_disabled": 0, "name": "0678a427c6921548b05c0078f9ce7c9f", "bike_id": "0678a427c6921548b05c0078f9ce7c9f", "fusion_lat": 0.0, "lon": -77.01883533333333, "type": "electric_scooter", "fusion_lon": 0.0, "lat": 38.90549816666667}, {"rental_uris": {"android": "https://dc.lft.to/lastmile_qr_scan", "ios": "https://dc.lft.to/lastmile_qr_scan"}, "is_reserved": 0, "is_disabled": 0, "name": "3aeccfd520017232c94e09c05c9af140", "bike_id": "3aeccfd520017232c94e09c05c9af140", "fusion_lat": 0.0, "lon": -77.03963216666666, "type": "electric_scooter", "fusion_lon": 0.0, "lat": 38.931517166666666}, {"rental_uris": {"android": "https://dc.lft.to/lastmile_qr_scan", "ios": "https://dc.lft.to/lastmile_qr_scan"}, "is_reserved": 0, "is_disabled": 0, "name": "abc732403aa4eba4a9c03f424cb89ed5", "bike_id": "abc732403aa4eba4a9c03f424cb89ed5", "fusion_lat": 0.0, "lon": -77.02975483333333, "type": "electric_scooter", "fusion_lon": 0.0, "lat": 38.9073565}, {"rental_uris": {"android": "https://dc.lft.to/lastmile_qr_scan", "ios": "https://dc.lft.to/lastmile_qr_scan"}, "is_reserved": 0, "is_disabled": 0, "name": "98d1a3fa7e4ca67d93f2755600187981", "bike_id": "98d1a3fa7e4ca67d93f2755600187981", "fusion_lat": 0.0, "lon": -77.03207133333333, "type": "electric_scooter", "fusion_lon": 0.0, "lat": 38.90368683333333}, {"rental_uris": {"android": "https://dc.lft.to/lastmile_qr_scan", "ios": "https://dc.lft.to/lastmile_qr_scan"}, "is_reserved": 0, "is_disabled": 0, "name": "6f3484c2784a2d7d3cbfb14824d78612", "bike_id": "6f3484c2784a2d7d3cbfb14824d78612", "fusion_lat": 0.0, "lon": -77.03945333333333, "type": "electric_scooter", "fusion_lon": 0.0, "lat": 38.908324}, {"rental_uris": {"android": "https://dc.lft.to/lastmile_qr_scan", "ios": "https://dc.lft.to/lastmile_qr_scan"}, "is_reserved": 0, "is_disabled": 0, "name": "77d8572bdfc1ece26b69480a80c42184", "bike_id": "77d8572bdfc1ece26b69480a80c42184", "fusion_lat": 0.0, "lon": -77.07493116666667, "type": "electric_scooter", "fusion_lon": 0.0, "lat": 38.9230395}, {"rental_uris": {"android": "https://dc.lft.to/lastmile_qr_scan", "ios": "https://dc.lft.to/lastmile_qr_scan"}, "is_reserved": 0, "is_disabled": 0, "name": "d55e7d5cd058686cb71ae36f04447442", "bike_id": "d55e7d5cd058686cb71ae36f04447442", "fusion_lat": 0.0, "lon": -77.03278183333333, "type": "electric_bike", "fusion_lon": 0.0, "lat": 38.961264666666665}, {"rental_uris": {"android": "https://dc.lft.to/lastmile_qr_scan", "ios": "https://dc.lft.to/lastmile_qr_scan"}, "is_reserved": 0, "is_disabled": 0, "name": "52599266b0d7fd8f7b001511e417b284", "bike_id": "52599266b0d7fd8f7b001511e417b284", "fusion_lat": 0.0, "lon": -77.00342333333333, "type": "electric_scooter", "fusion_lon": 0.0, "lat": 38.894587333333334}, {"rental_uris": {"android": "https://dc.lft.to/lastmile_qr_scan", "ios": "https://dc.lft.to/lastmile_qr_scan"}, "is_reserved": 0, "is_disabled": 0, "name": "17f192e8c013362eef302818fe32a268", "bike_id": "17f192e8c013362eef302818fe32a268", "fusion_lat": 0.0, "lon": -77.019544, "type": "electric_scooter", "fusion_lon": 0.0, "lat": 38.931923166666664}, {"rental_uris": {"android": "https://dc.lft.to/lastmile_qr_scan", "ios": "https://dc.lft.to/lastmile_qr_scan"}, "is_reserved": 0, "is_disabled": 0, "name": "da33001356e5e169c2aab99e7d00998a", "bike_id": "da33001356e5e169c2aab99e7d00998a", "fusion_lat": 0.0, "lon": -77.02493816666667, "type": "electric_scooter", "fusion_lon": 0.0, "lat": 38.897429}, {"rental_uris": {"android": "https://dc.lft.to/lastmile_qr_scan", "ios": "https://dc.lft.to/lastmile_qr_scan"}, "is_reserved": 0, "is_disabled": 0, "name": "5164f18b6f6ef3fe5c3d08f52e1f308a", "bike_id": "5164f18b6f6ef3fe5c3d08f52e1f308a", "fusion_lat": 0.0, "lon": -77.04318883333333, "type": "electric_scooter", "fusion_lon": 0.0, "lat": 38.8921355}, {"rental_uris": {"android": "https://dc.lft.to/lastmile_qr_scan", "ios": "https://dc.lft.to/lastmile_qr_scan"}, "is_reserved": 0, "is_disabled": 0, "name": "861aee9ce006af5423884572c82fda3a", "bike_id": "861aee9ce006af5423884572c82fda3a", "fusion_lat": 0.0, "lon": -77.040552, "type": "electric_scooter", "fusion_lon": 0.0, "lat": 38.908622666666666}, {"rental_uris": {"android": "https://dc.lft.to/lastmile_qr_scan", "ios": "https://dc.lft.to/lastmile_qr_scan"}, "is_reserved": 0, "is_disabled": 0, "name": "68ae3809d25c5da0fbe9c200e2f3386e", "bike_id": "68ae3809d25c5da0fbe9c200e2f3386e", "fusion_lat": 0.0, "lon": -77.03172483333333, "type": "electric_scooter", "fusion_lon": 0.0, "lat": 38.92102366666667}, {"rental_uris": {"android": "https://dc.lft.to/lastmile_qr_scan", "ios": "https://dc.lft.to/lastmile_qr_scan"}, "is_reserved": 0, "is_disabled": 0, "name": "41e78f672b350ff085f102ce8ce577b1", "bike_id": "41e78f672b350ff085f102ce8ce577b1", "fusion_lat": 0.0, "lon": -77.0383965, "type": "electric_scooter", "fusion_lon": 0.0, "lat": 38.90976966666667}, {"rental_uris": {"android": "https://dc.lft.to/lastmile_qr_scan", "ios": "https://dc.lft.to/lastmile_qr_scan"}, "is_reserved": 0, "is_disabled": 0, "name": "d8efb27eaac7d856dbf237838313ad83", "bike_id": "d8efb27eaac7d856dbf237838313ad83", "fusion_lat": 0.0, "lon": -77.018787, "type": "electric_scooter", "fusion_lon": 0.0, "lat": 38.90558566666667}, {"rental_uris": {"android": "https://dc.lft.to/lastmile_qr_scan", "ios": "https://dc.lft.to/lastmile_qr_scan"}, "is_reserved": 0, "is_disabled": 0, "name": "ba5d245b2ef1f84858a0587cde754a2d", "bike_id": "ba5d245b2ef1f84858a0587cde754a2d", "fusion_lat": 0.0, "lon": -77.03725516666667, "type": "electric_scooter", "fusion_lon": 0.0, "lat": 38.9170365}, {"rental_uris": {"android": "https://dc.lft.to/lastmile_qr_scan", "ios": "https://dc.lft.to/lastmile_qr_scan"}, "is_reserved": 0, "is_disabled": 0, "name": "cc36c355278f9149a155a1a6c22494fc", "bike_id": "cc36c355278f9149a155a1a6c22494fc", "fusion_lat": 0.0, "lon": -77.00566583333334, "type": "electric_scooter", "fusion_lon": 0.0, "lat": 38.87646766666667}, {"rental_uris": {"android": "https://dc.lft.to/lastmile_qr_scan", "ios": "https://dc.lft.to/lastmile_qr_scan"}, "is_reserved": 0, "is_disabled": 0, "name": "7f26355596cca983c2a7a31af4dd3851", "bike_id": "7f26355596cca983c2a7a31af4dd3851", "fusion_lat": 0.0, "lon": -77.02518833333333, "type": "electric_scooter", "fusion_lon": 0.0, "lat": 38.921009}, {"rental_uris": {"android": "https://dc.lft.to/lastmile_qr_scan", "ios": "https://dc.lft.to/lastmile_qr_scan"}, "is_reserved": 0, "is_disabled": 0, "name": "4aa19775f4e47ea66745fda280af3c05", "bike_id": "4aa19775f4e47ea66745fda280af3c05", "fusion_lat": 0.0, "lon": -76.99763916666667, "type": "electric_scooter", "fusion_lon": 0.0, "lat": 38.92289666666667}, {"rental_uris": {"android": "https://dc.lft.to/lastmile_qr_scan", "ios": "https://dc.lft.to/lastmile_qr_scan"}, "is_reserved": 0, "is_disabled": 0, "name": "cfc43065250865700becc8f868a5e40a", "bike_id": "cfc43065250865700becc8f868a5e40a", "fusion_lat": 0.0, "lon": -76.97035, "type": "electric_scooter", "fusion_lon": 0.0, "lat": 38.873162666666666}, {"rental_uris": {"android": "https://dc.lft.to/lastmile_qr_scan", "ios": "https://dc.lft.to/lastmile_qr_scan"}, "is_reserved": 0, "is_disabled": 0, "name": "41458c5abe44f474307b8408e6d1fdeb", "bike_id": "41458c5abe44f474307b8408e6d1fdeb", "fusion_lat": 0.0, "lon": -77.041896, "type": "electric_scooter", "fusion_lon": 0.0, "lat": 38.920417}, {"rental_uris": {"android": "https://dc.lft.to/lastmile_qr_scan", "ios": "https://dc.lft.to/lastmile_qr_scan"}, "is_reserved": 0, "is_disabled": 0, "name": "010463adee256b48aa75f953cc3645a2", "bike_id": "010463adee256b48aa75f953cc3645a2", "fusion_lat": 0.0, "lon": -76.936346, "type": "electric_scooter", "fusion_lon": 0.0, "lat": 38.8834465}, {"rental_uris": {"android": "https://dc.lft.to/lastmile_qr_scan", "ios": "https://dc.lft.to/lastmile_qr_scan"}, "is_reserved": 0, "is_disabled": 0, "name": "3690e67160f2f36cfec89fe4627f7051", "bike_id": "3690e67160f2f36cfec89fe4627f7051", "fusion_lat": 0.0, "lon": -77.04002816666667, "type": "electric_scooter", "fusion_lon": 0.0, "lat": 38.93425383333334}, {"rental_uris": {"android": "https://dc.lft.to/lastmile_qr_scan", "ios": "https://dc.lft.to/lastmile_qr_scan"}, "is_reserved": 0, "is_disabled": 0, "name": "4559d4aed0fee6ea661dcf6b1aadf04c", "bike_id": "4559d4aed0fee6ea661dcf6b1aadf04c", "fusion_lat": 0.0, "lon": -76.99379333333333, "type": "electric_bike", "fusion_lon": 0.0, "lat": 38.9909695}, {"rental_uris": {"android": "https://dc.lft.to/lastmile_qr_scan", "ios": "https://dc.lft.to/lastmile_qr_scan"}, "is_reserved": 0, "is_disabled": 0, "name": "cd730cc0c6647cc118be02756038f498", "bike_id": "cd730cc0c6647cc118be02756038f498", "fusion_lat": 0.0, "lon": -77.0076185, "type": "electric_scooter", "fusion_lon": 0.0, "lat": 38.8759545}, {"rental_uris": {"android": "https://dc.lft.to/lastmile_qr_scan", "ios": "https://dc.lft.to/lastmile_qr_scan"}, "is_reserved": 0, "is_disabled": 0, "name": "cfff81df5f77fe63488098a639031ae4", "bike_id": "cfff81df5f77fe63488098a639031ae4", "fusion_lat": 0.0, "lon": -77.0145105, "type": "electric_scooter", "fusion_lon": 0.0, "lat": 38.8742695}, {"rental_uris": {"android": "https://dc.lft.to/lastmile_qr_scan", "ios": "https://dc.lft.to/lastmile_qr_scan"}, "is_reserved": 0, "is_disabled": 0, "name": "da78881f7ca7bead650f5369543ff263", "bike_id": "da78881f7ca7bead650f5369543ff263", "fusion_lat": 0.0, "lon": -77.02084166666667, "type": "electric_scooter", "fusion_lon": 0.0, "lat": 38.922396166666665}, {"rental_uris": {"android": "https://dc.lft.to/lastmile_qr_scan", "ios": "https://dc.lft.to/lastmile_qr_scan"}, "is_reserved": 0, "is_disabled": 0, "name": "afa0c229f19d480f2015eb9e2531b0dd", "bike_id": "afa0c229f19d480f2015eb9e2531b0dd", "fusion_lat": 0.0, "lon": -77.06698516666667, "type": "electric_bike", "fusion_lon": 0.0, "lat": 38.831687}, {"rental_uris": {"android": "https://dc.lft.to/lastmile_qr_scan", "ios": "https://dc.lft.to/lastmile_qr_scan"}, "is_reserved": 0, "is_disabled": 0, "name": "6d6aa45bbd386cfb1defe51c7548e6c0", "bike_id": "6d6aa45bbd386cfb1defe51c7548e6c0", "fusion_lat": 0.0, "lon": -77.08515933333334, "type": "electric_bike", "fusion_lon": 0.0, "lat": 38.85853}, {"rental_uris": {"android": "https://dc.lft.to/lastmile_qr_scan", "ios": "https://dc.lft.to/lastmile_qr_scan"}, "is_reserved": 0, "is_disabled": 0, "name": "82d7ce3f26ff0e26afc42e5266a6c474", "bike_id": "82d7ce3f26ff0e26afc42e5266a6c474", "fusion_lat": 0.0, "lon": -77.0011625, "type": "electric_scooter", "fusion_lon": 0.0, "lat": 38.87646083333333}, {"rental_uris": {"android": "https://dc.lft.to/lastmile_qr_scan", "ios": "https://dc.lft.to/lastmile_qr_scan"}, "is_reserved": 0, "is_disabled": 0, "name": "6189f71ce996b914a88879f1e7cf7cda", "bike_id": "6189f71ce996b914a88879f1e7cf7cda", "fusion_lat": 0.0, "lon": -77.02403066666666, "type": "electric_scooter", "fusion_lon": 0.0, "lat": 38.9309805}, {"rental_uris": {"android": "https://dc.lft.to/lastmile_qr_scan", "ios": "https://dc.lft.to/lastmile_qr_scan"}, "is_reserved": 0, "is_disabled": 0, "name": "0f1655225ad0a6f97ce9ef4299a2257d", "bike_id": "0f1655225ad0a6f97ce9ef4299a2257d", "fusion_lat": 0.0, "lon": -77.01357783333333, "type": "electric_scooter", "fusion_lon": 0.0, "lat": 38.89814066666667}, {"rental_uris": {"android": "https://dc.lft.to/lastmile_qr_scan", "ios": "https://dc.lft.to/lastmile_qr_scan"}, "is_reserved": 0, "is_disabled": 0, "name": "0a30c88d260ccd5c08c92b781986eab1", "bike_id": "0a30c88d260ccd5c08c92b781986eab1", "fusion_lat": 0.0, "lon": -77.02318683333333, "type": "electric_scooter", "fusion_lon": 0.0, "lat": 38.92091466666667}, {"rental_uris": {"android": "https://dc.lft.to/lastmile_qr_scan", "ios": "https://dc.lft.to/lastmile_qr_scan"}, "is_reserved": 0, "is_disabled": 0, "name": "1879c392193299c59159cc984f66af45", "bike_id": "1879c392193299c59159cc984f66af45", "fusion_lat": 0.0, "lon": -77.04468616666666, "type": "electric_scooter", "fusion_lon": 0.0, "lat": 38.9189335}, {"rental_uris": {"android": "https://dc.lft.to/lastmile_qr_scan", "ios": "https://dc.lft.to/lastmile_qr_scan"}, "is_reserved": 0, "is_disabled": 0, "name": "2f7c5ca751b62ffd0a2a660b27a674a9", "bike_id": "2f7c5ca751b62ffd0a2a660b27a674a9", "fusion_lat": 0.0, "lon": -76.95464366666667, "type": "electric_bike", "fusion_lon": 0.0, "lat": 38.93640283333333}, {"rental_uris": {"android": "https://dc.lft.to/lastmile_qr_scan", "ios": "https://dc.lft.to/lastmile_qr_scan"}, "is_reserved": 0, "is_disabled": 0, "name": "91fc9cbb7f579477de62bec5c5a4ff0f", "bike_id": "91fc9cbb7f579477de62bec5c5a4ff0f", "fusion_lat": 0.0, "lon": -77.02389733333334, "type": "electric_scooter", "fusion_lon": 0.0, "lat": 38.89801283333333}, {"rental_uris": {"android": "https://dc.lft.to/lastmile_qr_scan", "ios": "https://dc.lft.to/lastmile_qr_scan"}, "is_reserved": 0, "is_disabled": 0, "name": "0e3e36e6f0891194421c51d47c66b313", "bike_id": "0e3e36e6f0891194421c51d47c66b313", "fusion_lat": 0.0, "lon": -77.02102666666667, "type": "electric_scooter", "fusion_lon": 0.0, "lat": 38.921733}, {"rental_uris": {"android": "https://dc.lft.to/lastmile_qr_scan", "ios": "https://dc.lft.to/lastmile_qr_scan"}, "is_reserved": 0, "is_disabled": 0, "name": "d3ff150120a70a044fe54193743a3b15", "bike_id": "d3ff150120a70a044fe54193743a3b15", "fusion_lat": 0.0, "lon": -77.02384566666667, "type": "electric_scooter", "fusion_lon": 0.0, "lat": 38.909702333333335}, {"rental_uris": {"android": "https://dc.lft.to/lastmile_qr_scan", "ios": "https://dc.lft.to/lastmile_qr_scan"}, "is_reserved": 0, "is_disabled": 0, "name": "6fb03a048535a12d7a6a154dde83f000", "bike_id": "6fb03a048535a12d7a6a154dde83f000", "fusion_lat": 0.0, "lon": -77.05134433333333, "type": "electric_bike", "fusion_lon": 0.0, "lat": 38.921673166666665}, {"rental_uris": {"android": "https://dc.lft.to/lastmile_qr_scan", "ios": "https://dc.lft.to/lastmile_qr_scan"}, "is_reserved": 0, "is_disabled": 0, "name": "6d971ab422fe91adb4f3577065275aa9", "bike_id": "6d971ab422fe91adb4f3577065275aa9", "fusion_lat": 0.0, "lon": -77.0326365, "type": "electric_scooter", "fusion_lon": 0.0, "lat": 38.93211633333333}, {"rental_uris": {"android": "https://dc.lft.to/lastmile_qr_scan", "ios": "https://dc.lft.to/lastmile_qr_scan"}, "is_reserved": 0, "is_disabled": 0, "name": "796a757c5c6d973ef981dd55a6ee8553", "bike_id": "796a757c5c6d973ef981dd55a6ee8553", "fusion_lat": 0.0, "lon": -77.01109716666667, "type": "electric_scooter", "fusion_lon": 0.0, "lat": 38.90971233333333}, {"rental_uris": {"android": "https://dc.lft.to/lastmile_qr_scan", "ios": "https://dc.lft.to/lastmile_qr_scan"}, "is_reserved": 0, "is_disabled": 0, "name": "b43b349852a882f6cebbf75dc2379fb8", "bike_id": "b43b349852a882f6cebbf75dc2379fb8", "fusion_lat": 0.0, "lon": -77.04154016666666, "type": "electric_scooter", "fusion_lon": 0.0, "lat": 38.90113066666667}, {"rental_uris": {"android": "https://dc.lft.to/lastmile_qr_scan", "ios": "https://dc.lft.to/lastmile_qr_scan"}, "is_reserved": 0, "is_disabled": 0, "name": "c95a87dadf1cac8f1971d3a1fd4322c6", "bike_id": "c95a87dadf1cac8f1971d3a1fd4322c6", "fusion_lat": 0.0, "lon": -77.043291, "type": "electric_scooter", "fusion_lon": 0.0, "lat": 38.905260166666665}, {"rental_uris": {"android": "https://dc.lft.to/lastmile_qr_scan", "ios": "https://dc.lft.to/lastmile_qr_scan"}, "is_reserved": 0, "is_disabled": 0, "name": "6728aac38cbe5f52271dc4692f1a0bbd", "bike_id": "6728aac38cbe5f52271dc4692f1a0bbd", "fusion_lat": 0.0, "lon": -77.03835666666667, "type": "electric_scooter", "fusion_lon": 0.0, "lat": 38.92172016666667}, {"rental_uris": {"android": "https://dc.lft.to/lastmile_qr_scan", "ios": "https://dc.lft.to/lastmile_qr_scan"}, "is_reserved": 0, "is_disabled": 0, "name": "ba3f9572989960afa8c95b6401652718", "bike_id": "ba3f9572989960afa8c95b6401652718", "fusion_lat": 0.0, "lon": -77.03492566666667, "type": "electric_scooter", "fusion_lon": 0.0, "lat": 38.905834666666664}, {"rental_uris": {"android": "https://dc.lft.to/lastmile_qr_scan", "ios": "https://dc.lft.to/lastmile_qr_scan"}, "is_reserved": 0, "is_disabled": 0, "name": "2f4783ca35cfd92d439bc862baa9c7f2", "bike_id": "2f4783ca35cfd92d439bc862baa9c7f2", "fusion_lat": 0.0, "lon": -77.02608916666667, "type": "electric_scooter", "fusion_lon": 0.0, "lat": 38.92036016666667}, {"rental_uris": {"android": "https://dc.lft.to/lastmile_qr_scan", "ios": "https://dc.lft.to/lastmile_qr_scan"}, "is_reserved": 0, "is_disabled": 0, "name": "fb69e85f1d04edb4e5aaa7fa79dab332", "bike_id": "fb69e85f1d04edb4e5aaa7fa79dab332", "fusion_lat": 0.0, "lon": -77.04140816666667, "type": "electric_scooter", "fusion_lon": 0.0, "lat": 38.916825333333335}, {"rental_uris": {"android": "https://dc.lft.to/lastmile_qr_scan", "ios": "https://dc.lft.to/lastmile_qr_scan"}, "is_reserved": 0, "is_disabled": 0, "name": "469bdf75dcbcd4452399a0c7de560dd8", "bike_id": "469bdf75dcbcd4452399a0c7de560dd8", "fusion_lat": 0.0, "lon": -77.069247, "type": "electric_scooter", "fusion_lon": 0.0, "lat": 38.9520505}, {"rental_uris": {"android": "https://dc.lft.to/lastmile_qr_scan", "ios": "https://dc.lft.to/lastmile_qr_scan"}, "is_reserved": 0, "is_disabled": 0, "name": "e47d688116b441cb7631f27baafcf7d1", "bike_id": "e47d688116b441cb7631f27baafcf7d1", "fusion_lat": 0.0, "lon": -76.9916995, "type": "electric_scooter", "fusion_lon": 0.0, "lat": 38.90849683333333}, {"rental_uris": {"android": "https://dc.lft.to/lastmile_qr_scan", "ios": "https://dc.lft.to/lastmile_qr_scan"}, "is_reserved": 0, "is_disabled": 0, "name": "61fb9fa534337c21b531c9d75f6e17e1", "bike_id": "61fb9fa534337c21b531c9d75f6e17e1", "fusion_lat": 0.0, "lon": -77.02980666666667, "type": "electric_scooter", "fusion_lon": 0.0, "lat": 38.90720683333333}, {"rental_uris": {"android": "https://dc.lft.to/lastmile_qr_scan", "ios": "https://dc.lft.to/lastmile_qr_scan"}, "is_reserved": 0, "is_disabled": 0, "name": "0a3a993907825a768ef6612e38ad95fc", "bike_id": "0a3a993907825a768ef6612e38ad95fc", "fusion_lat": 0.0, "lon": -77.03257166666667, "type": "electric_scooter", "fusion_lon": 0.0, "lat": 38.939672}, {"rental_uris": {"android": "https://dc.lft.to/lastmile_qr_scan", "ios": "https://dc.lft.to/lastmile_qr_scan"}, "is_reserved": 0, "is_disabled": 0, "name": "bdf97313d16c6e25ffe104a3430bad2c", "bike_id": "bdf97313d16c6e25ffe104a3430bad2c", "fusion_lat": 0.0, "lon": -77.032261, "type": "electric_scooter", "fusion_lon": 0.0, "lat": 38.909739}, {"rental_uris": {"android": "https://dc.lft.to/lastmile_qr_scan", "ios": "https://dc.lft.to/lastmile_qr_scan"}, "is_reserved": 0, "is_disabled": 0, "name": "74d429d42aa7581e23a7d6805e1a3cb7", "bike_id": "74d429d42aa7581e23a7d6805e1a3cb7", "fusion_lat": 0.0, "lon": -77.02163233333333, "type": "electric_scooter", "fusion_lon": 0.0, "lat": 38.89984616666667}, {"rental_uris": {"android": "https://dc.lft.to/lastmile_qr_scan", "ios": "https://dc.lft.to/lastmile_qr_scan"}, "is_reserved": 0, "is_disabled": 0, "name": "3ec940837f7fa8c06b180a90beebf09d", "bike_id": "3ec940837f7fa8c06b180a90beebf09d", "fusion_lat": 0.0, "lon": -77.02318533333333, "type": "electric_scooter", "fusion_lon": 0.0, "lat": 38.92090116666667}, {"rental_uris": {"android": "https://dc.lft.to/lastmile_qr_scan", "ios": "https://dc.lft.to/lastmile_qr_scan"}, "is_reserved": 0, "is_disabled": 0, "name": "e42f12a5be008087e74181849d4a9b29", "bike_id": "e42f12a5be008087e74181849d4a9b29", "fusion_lat": 0.0, "lon": -76.97753666666667, "type": "electric_bike", "fusion_lon": 0.0, "lat": 38.86483883333333}, {"rental_uris": {"android": "https://dc.lft.to/lastmile_qr_scan", "ios": "https://dc.lft.to/lastmile_qr_scan"}, "is_reserved": 0, "is_disabled": 0, "name": "ceb3f9143fb303b1107cefb7b588df99", "bike_id": "ceb3f9143fb303b1107cefb7b588df99", "fusion_lat": 0.0, "lon": -77.00797433333334, "type": "electric_scooter", "fusion_lon": 0.0, "lat": 38.92666716666667}, {"rental_uris": {"android": "https://dc.lft.to/lastmile_qr_scan", "ios": "https://dc.lft.to/lastmile_qr_scan"}, "is_reserved": 0, "is_disabled": 0, "name": "e016d62f2a55a5f6eed41369662b5965", "bike_id": "e016d62f2a55a5f6eed41369662b5965", "fusion_lat": 0.0, "lon": -77.0318095, "type": "electric_scooter", "fusion_lon": 0.0, "lat": 38.9181865}, {"rental_uris": {"android": "https://dc.lft.to/lastmile_qr_scan", "ios": "https://dc.lft.to/lastmile_qr_scan"}, "is_reserved": 0, "is_disabled": 0, "name": "304f28d12fd1783c521fade386a00884", "bike_id": "304f28d12fd1783c521fade386a00884", "fusion_lat": 0.0, "lon": -77.0240975, "type": "electric_scooter", "fusion_lon": 0.0, "lat": 38.9109785}, {"rental_uris": {"android": "https://dc.lft.to/lastmile_qr_scan", "ios": "https://dc.lft.to/lastmile_qr_scan"}, "is_reserved": 0, "is_disabled": 0, "name": "ff5e8df9c7ebded0e6794d70e210713b", "bike_id": "ff5e8df9c7ebded0e6794d70e210713b", "fusion_lat": 0.0, "lon": -77.07574916666667, "type": "electric_scooter", "fusion_lon": 0.0, "lat": 38.907384}, {"rental_uris": {"android": "https://dc.lft.to/lastmile_qr_scan", "ios": "https://dc.lft.to/lastmile_qr_scan"}, "is_reserved": 0, "is_disabled": 0, "name": "ef5d9e6ca0a6bdf06008056be1cc3322", "bike_id": "ef5d9e6ca0a6bdf06008056be1cc3322", "fusion_lat": 0.0, "lon": -77.01791666666666, "type": "electric_scooter", "fusion_lon": 0.0, "lat": 38.91988116666667}, {"rental_uris": {"android": "https://dc.lft.to/lastmile_qr_scan", "ios": "https://dc.lft.to/lastmile_qr_scan"}, "is_reserved": 0, "is_disabled": 0, "name": "d47344ec2a71e726b956db28de192894", "bike_id": "d47344ec2a71e726b956db28de192894", "fusion_lat": 0.0, "lon": -77.03626666666666, "type": "electric_scooter", "fusion_lon": 0.0, "lat": 38.93676216666667}, {"rental_uris": {"android": "https://dc.lft.to/lastmile_qr_scan", "ios": "https://dc.lft.to/lastmile_qr_scan"}, "is_reserved": 0, "is_disabled": 0, "name": "78ab2d776c0435b6ac25f24fbf27899b", "bike_id": "78ab2d776c0435b6ac25f24fbf27899b", "fusion_lat": 0.0, "lon": -77.02332216666667, "type": "electric_scooter", "fusion_lon": 0.0, "lat": 38.930508833333334}, {"rental_uris": {"android": "https://dc.lft.to/lastmile_qr_scan", "ios": "https://dc.lft.to/lastmile_qr_scan"}, "is_reserved": 0, "is_disabled": 0, "name": "71db2fc2f7f8e927b28276438b27ef06", "bike_id": "71db2fc2f7f8e927b28276438b27ef06", "fusion_lat": 0.0, "lon": -77.0445635, "type": "electric_scooter", "fusion_lon": 0.0, "lat": 38.918696833333335}, {"rental_uris": {"android": "https://dc.lft.to/lastmile_qr_scan", "ios": "https://dc.lft.to/lastmile_qr_scan"}, "is_reserved": 0, "is_disabled": 0, "name": "d8a329682c74549bb02e6be793f30586", "bike_id": "d8a329682c74549bb02e6be793f30586", "fusion_lat": 0.0, "lon": -76.97958216666666, "type": "electric_scooter", "fusion_lon": 0.0, "lat": 38.89787416666667}, {"rental_uris": {"android": "https://dc.lft.to/lastmile_qr_scan", "ios": "https://dc.lft.to/lastmile_qr_scan"}, "is_reserved": 0, "is_disabled": 0, "name": "abe8573d6e511ba4e5be174528d6d386", "bike_id": "abe8573d6e511ba4e5be174528d6d386", "fusion_lat": 0.0, "lon": -77.02229583333333, "type": "electric_scooter", "fusion_lon": 0.0, "lat": 38.912475666666666}, {"rental_uris": {"android": "https://dc.lft.to/lastmile_qr_scan", "ios": "https://dc.lft.to/lastmile_qr_scan"}, "is_reserved": 0, "is_disabled": 0, "name": "327352bcb35d20d8af5329c80ecdbec6", "bike_id": "327352bcb35d20d8af5329c80ecdbec6", "fusion_lat": 0.0, "lon": -77.000204, "type": "electric_scooter", "fusion_lon": 0.0, "lat": 38.873997833333334}, {"rental_uris": {"android": "https://dc.lft.to/lastmile_qr_scan", "ios": "https://dc.lft.to/lastmile_qr_scan"}, "is_reserved": 0, "is_disabled": 0, "name": "62cd99156751507aada5f316b7518407", "bike_id": "62cd99156751507aada5f316b7518407", "fusion_lat": 0.0, "lon": -77.02325083333334, "type": "electric_scooter", "fusion_lon": 0.0, "lat": 38.9072025}, {"rental_uris": {"android": "https://dc.lft.to/lastmile_qr_scan", "ios": "https://dc.lft.to/lastmile_qr_scan"}, "is_reserved": 0, "is_disabled": 0, "name": "6144334748ef6b325f2a68e14ed87733", "bike_id": "6144334748ef6b325f2a68e14ed87733", "fusion_lat": 0.0, "lon": -77.04462433333333, "type": "electric_scooter", "fusion_lon": 0.0, "lat": 38.90251833333333}, {"rental_uris": {"android": "https://dc.lft.to/lastmile_qr_scan", "ios": "https://dc.lft.to/lastmile_qr_scan"}, "is_reserved": 0, "is_disabled": 0, "name": "db32c18cd8f82e20f3b05e4cc9950f3d", "bike_id": "db32c18cd8f82e20f3b05e4cc9950f3d", "fusion_lat": 0.0, "lon": -77.046461, "type": "electric_bike", "fusion_lon": 0.0, "lat": 38.815418}, {"rental_uris": {"android": "https://dc.lft.to/lastmile_qr_scan", "ios": "https://dc.lft.to/lastmile_qr_scan"}, "is_reserved": 0, "is_disabled": 0, "name": "145bf49c00093cb630e44f57779f06a0", "bike_id": "145bf49c00093cb630e44f57779f06a0", "fusion_lat": 0.0, "lon": -77.03187583333333, "type": "electric_scooter", "fusion_lon": 0.0, "lat": 38.90751016666667}, {"rental_uris": {"android": "https://dc.lft.to/lastmile_qr_scan", "ios": "https://dc.lft.to/lastmile_qr_scan"}, "is_reserved": 0, "is_disabled": 0, "name": "e7d541ea00866ce76d322f83d382def2", "bike_id": "e7d541ea00866ce76d322f83d382def2", "fusion_lat": 0.0, "lon": -77.0318075, "type": "electric_scooter", "fusion_lon": 0.0, "lat": 38.919293833333334}, {"rental_uris": {"android": "https://dc.lft.to/lastmile_qr_scan", "ios": "https://dc.lft.to/lastmile_qr_scan"}, "is_reserved": 0, "is_disabled": 0, "name": "41ea6c88a9b8f14e6fa5885f3fcd4a61", "bike_id": "41ea6c88a9b8f14e6fa5885f3fcd4a61", "fusion_lat": 0.0, "lon": -77.03037216666667, "type": "electric_scooter", "fusion_lon": 0.0, "lat": 38.93122566666667}, {"rental_uris": {"android": "https://dc.lft.to/lastmile_qr_scan", "ios": "https://dc.lft.to/lastmile_qr_scan"}, "is_reserved": 0, "is_disabled": 0, "name": "8116f9e49152eaa1ddf62274090d78f3", "bike_id": "8116f9e49152eaa1ddf62274090d78f3", "fusion_lat": 0.0, "lon": -77.02641166666666, "type": "electric_scooter", "fusion_lon": 0.0, "lat": 38.90249383333333}, {"rental_uris": {"android": "https://dc.lft.to/lastmile_qr_scan", "ios": "https://dc.lft.to/lastmile_qr_scan"}, "is_reserved": 0, "is_disabled": 0, "name": "df2fd8011331047e9603565d523d62d0", "bike_id": "df2fd8011331047e9603565d523d62d0", "fusion_lat": 0.0, "lon": -76.9524955, "type": "electric_bike", "fusion_lon": 0.0, "lat": 38.906941}, {"rental_uris": {"android": "https://dc.lft.to/lastmile_qr_scan", "ios": "https://dc.lft.to/lastmile_qr_scan"}, "is_reserved": 0, "is_disabled": 0, "name": "0868dbe3b4fcf1d4c0c8e02ea919be16", "bike_id": "0868dbe3b4fcf1d4c0c8e02ea919be16", "fusion_lat": 0.0, "lon": -77.02723466666667, "type": "electric_scooter", "fusion_lon": 0.0, "lat": 38.918056666666665}, {"rental_uris": {"android": "https://dc.lft.to/lastmile_qr_scan", "ios": "https://dc.lft.to/lastmile_qr_scan"}, "is_reserved": 0, "is_disabled": 0, "name": "a7583d28bdccf0c91fa8e1aa33c4a78b", "bike_id": "a7583d28bdccf0c91fa8e1aa33c4a78b", "fusion_lat": 0.0, "lon": -77.040436, "type": "electric_scooter", "fusion_lon": 0.0, "lat": 38.90556633333333}, {"rental_uris": {"android": "https://dc.lft.to/lastmile_qr_scan", "ios": "https://dc.lft.to/lastmile_qr_scan"}, "is_reserved": 0, "is_disabled": 0, "name": "bc03b4420e3dce6cdffb97a3c56f7401", "bike_id": "bc03b4420e3dce6cdffb97a3c56f7401", "fusion_lat": 0.0, "lon": -76.988057, "type": "electric_scooter", "fusion_lon": 0.0, "lat": 38.89365166666666}, {"rental_uris": {"android": "https://dc.lft.to/lastmile_qr_scan", "ios": "https://dc.lft.to/lastmile_qr_scan"}, "is_reserved": 0, "is_disabled": 0, "name": "6c74751f058a92ef2dca1d1ee67d746f", "bike_id": "6c74751f058a92ef2dca1d1ee67d746f", "fusion_lat": 0.0, "lon": -76.983371, "type": "electric_scooter", "fusion_lon": 0.0, "lat": 38.89545283333333}, {"rental_uris": {"android": "https://dc.lft.to/lastmile_qr_scan", "ios": "https://dc.lft.to/lastmile_qr_scan"}, "is_reserved": 0, "is_disabled": 0, "name": "db4aae5dbd9bba5040129203c9dc09e2", "bike_id": "db4aae5dbd9bba5040129203c9dc09e2", "fusion_lat": 0.0, "lon": -77.04001066666666, "type": "electric_scooter", "fusion_lon": 0.0, "lat": 38.934249666666666}, {"rental_uris": {"android": "https://dc.lft.to/lastmile_qr_scan", "ios": "https://dc.lft.to/lastmile_qr_scan"}, "is_reserved": 0, "is_disabled": 0, "name": "5d35a18a1c09d3f3f2ccded97ff1d48c", "bike_id": "5d35a18a1c09d3f3f2ccded97ff1d48c", "fusion_lat": 0.0, "lon": -76.968858, "type": "electric_bike", "fusion_lon": 0.0, "lat": 38.869804}, {"rental_uris": {"android": "https://dc.lft.to/lastmile_qr_scan", "ios": "https://dc.lft.to/lastmile_qr_scan"}, "is_reserved": 0, "is_disabled": 0, "name": "7847638940dab3b6419f23554cb123dd", "bike_id": "7847638940dab3b6419f23554cb123dd", "fusion_lat": 0.0, "lon": -77.01957466666667, "type": "electric_scooter", "fusion_lon": 0.0, "lat": 38.923269}, {"rental_uris": {"android": "https://dc.lft.to/lastmile_qr_scan", "ios": "https://dc.lft.to/lastmile_qr_scan"}, "is_reserved": 0, "is_disabled": 0, "name": "740750822b160994aa308116137791e0", "bike_id": "740750822b160994aa308116137791e0", "fusion_lat": 0.0, "lon": -77.01624766666667, "type": "electric_scooter", "fusion_lon": 0.0, "lat": 38.906040833333336}, {"rental_uris": {"android": "https://dc.lft.to/lastmile_qr_scan", "ios": "https://dc.lft.to/lastmile_qr_scan"}, "is_reserved": 0, "is_disabled": 0, "name": "e572423932ca628b8712a297a7a7f0bd", "bike_id": "e572423932ca628b8712a297a7a7f0bd", "fusion_lat": 0.0, "lon": -77.04250316666666, "type": "electric_scooter", "fusion_lon": 0.0, "lat": 38.9177535}, {"rental_uris": {"android": "https://dc.lft.to/lastmile_qr_scan", "ios": "https://dc.lft.to/lastmile_qr_scan"}, "is_reserved": 0, "is_disabled": 0, "name": "75bc0e125aa1e53ffba808e7af85d6fe", "bike_id": "75bc0e125aa1e53ffba808e7af85d6fe", "fusion_lat": 0.0, "lon": -77.0467305, "type": "electric_scooter", "fusion_lon": 0.0, "lat": 38.90276883333333}, {"rental_uris": {"android": "https://dc.lft.to/lastmile_qr_scan", "ios": "https://dc.lft.to/lastmile_qr_scan"}, "is_reserved": 0, "is_disabled": 0, "name": "e1a97d6daf317337c3ce43da280ac1ce", "bike_id": "e1a97d6daf317337c3ce43da280ac1ce", "fusion_lat": 0.0, "lon": -77.02375883333333, "type": "electric_scooter", "fusion_lon": 0.0, "lat": 38.89218966666667}, {"rental_uris": {"android": "https://dc.lft.to/lastmile_qr_scan", "ios": "https://dc.lft.to/lastmile_qr_scan"}, "is_reserved": 0, "is_disabled": 0, "name": "496a624185302bf877bebc097262cf07", "bike_id": "496a624185302bf877bebc097262cf07", "fusion_lat": 0.0, "lon": -77.12868933333333, "type": "electric_bike", "fusion_lon": 0.0, "lat": 38.90609283333333}, {"rental_uris": {"android": "https://dc.lft.to/lastmile_qr_scan", "ios": "https://dc.lft.to/lastmile_qr_scan"}, "is_reserved": 0, "is_disabled": 0, "name": "23fd5635ca99d774f451e7957e86a23a", "bike_id": "23fd5635ca99d774f451e7957e86a23a", "fusion_lat": 0.0, "lon": -77.02939516666666, "type": "electric_scooter", "fusion_lon": 0.0, "lat": 38.93251716666666}, {"rental_uris": {"android": "https://dc.lft.to/lastmile_qr_scan", "ios": "https://dc.lft.to/lastmile_qr_scan"}, "is_reserved": 0, "is_disabled": 0, "name": "bf9eedbbc3a89aa78935b2692a036112", "bike_id": "bf9eedbbc3a89aa78935b2692a036112", "fusion_lat": 0.0, "lon": -76.99626733333334, "type": "electric_scooter", "fusion_lon": 0.0, "lat": 38.87734316666667}, {"rental_uris": {"android": "https://dc.lft.to/lastmile_qr_scan", "ios": "https://dc.lft.to/lastmile_qr_scan"}, "is_reserved": 0, "is_disabled": 0, "name": "45e39fa0da993ec98e078d78f829f2bf", "bike_id": "45e39fa0da993ec98e078d78f829f2bf", "fusion_lat": 0.0, "lon": -77.0199075, "type": "electric_scooter", "fusion_lon": 0.0, "lat": 38.901425833333334}, {"rental_uris": {"android": "https://dc.lft.to/lastmile_qr_scan", "ios": "https://dc.lft.to/lastmile_qr_scan"}, "is_reserved": 0, "is_disabled": 0, "name": "9f6dc7d2c740d81e519735a521f298af", "bike_id": "9f6dc7d2c740d81e519735a521f298af", "fusion_lat": 0.0, "lon": -77.00707466666667, "type": "electric_scooter", "fusion_lon": 0.0, "lat": 38.9056455}, {"rental_uris": {"android": "https://dc.lft.to/lastmile_qr_scan", "ios": "https://dc.lft.to/lastmile_qr_scan"}, "is_reserved": 0, "is_disabled": 0, "name": "61222678090ac3334d9faeaa23c79c67", "bike_id": "61222678090ac3334d9faeaa23c79c67", "fusion_lat": 0.0, "lon": -77.02284566666667, "type": "electric_scooter", "fusion_lon": 0.0, "lat": 38.916036166666665}, {"rental_uris": {"android": "https://dc.lft.to/lastmile_qr_scan", "ios": "https://dc.lft.to/lastmile_qr_scan"}, "is_reserved": 0, "is_disabled": 0, "name": "3f781da8ea7f359f842f25af0ab05ff2", "bike_id": "3f781da8ea7f359f842f25af0ab05ff2", "fusion_lat": 0.0, "lon": -77.01736766666667, "type": "electric_scooter", "fusion_lon": 0.0, "lat": 38.877094166666666}, {"rental_uris": {"android": "https://dc.lft.to/lastmile_qr_scan", "ios": "https://dc.lft.to/lastmile_qr_scan"}, "is_reserved": 0, "is_disabled": 0, "name": "f776ccf22e9c03a6895d694809304849", "bike_id": "f776ccf22e9c03a6895d694809304849", "fusion_lat": 0.0, "lon": -76.96085383333333, "type": "electric_bike", "fusion_lon": 0.0, "lat": 38.91855016666667}, {"rental_uris": {"android": "https://dc.lft.to/lastmile_qr_scan", "ios": "https://dc.lft.to/lastmile_qr_scan"}, "is_reserved": 0, "is_disabled": 0, "name": "3d5237dda7c5740d0b18ea63d32d1590", "bike_id": "3d5237dda7c5740d0b18ea63d32d1590", "fusion_lat": 0.0, "lon": -77.0344435, "type": "electric_scooter", "fusion_lon": 0.0, "lat": 38.917934}, {"rental_uris": {"android": "https://dc.lft.to/lastmile_qr_scan", "ios": "https://dc.lft.to/lastmile_qr_scan"}, "is_reserved": 0, "is_disabled": 0, "name": "320f08c6ee74c3e4edce113c751147d8", "bike_id": "320f08c6ee74c3e4edce113c751147d8", "fusion_lat": 0.0, "lon": -77.03457, "type": "electric_scooter", "fusion_lon": 0.0, "lat": 38.90277183333333}, {"rental_uris": {"android": "https://dc.lft.to/lastmile_qr_scan", "ios": "https://dc.lft.to/lastmile_qr_scan"}, "is_reserved": 0, "is_disabled": 0, "name": "776ff7372c824e01dde3c2c66b893004", "bike_id": "776ff7372c824e01dde3c2c66b893004", "fusion_lat": 0.0, "lon": -76.92943333333334, "type": "electric_scooter", "fusion_lon": 0.0, "lat": 38.903442166666665}, {"rental_uris": {"android": "https://dc.lft.to/lastmile_qr_scan", "ios": "https://dc.lft.to/lastmile_qr_scan"}, "is_reserved": 0, "is_disabled": 0, "name": "9a3610a1dc2c145d2d904f5d4a7b9dbf", "bike_id": "9a3610a1dc2c145d2d904f5d4a7b9dbf", "fusion_lat": 0.0, "lon": -77.04357166666667, "type": "electric_scooter", "fusion_lon": 0.0, "lat": 38.90473316666667}, {"rental_uris": {"android": "https://dc.lft.to/lastmile_qr_scan", "ios": "https://dc.lft.to/lastmile_qr_scan"}, "is_reserved": 0, "is_disabled": 0, "name": "d140b21cc804be2dabbf0b618b5a6696", "bike_id": "d140b21cc804be2dabbf0b618b5a6696", "fusion_lat": 0.0, "lon": -77.021794, "type": "electric_scooter", "fusion_lon": 0.0, "lat": 38.892262833333334}, {"rental_uris": {"android": "https://dc.lft.to/lastmile_qr_scan", "ios": "https://dc.lft.to/lastmile_qr_scan"}, "is_reserved": 0, "is_disabled": 0, "name": "5653b04e1b305c9e1e7ea6b6e0876695", "bike_id": "5653b04e1b305c9e1e7ea6b6e0876695", "fusion_lat": 0.0, "lon": -77.04490466666667, "type": "electric_scooter", "fusion_lon": 0.0, "lat": 38.901646}, {"rental_uris": {"android": "https://dc.lft.to/lastmile_qr_scan", "ios": "https://dc.lft.to/lastmile_qr_scan"}, "is_reserved": 0, "is_disabled": 0, "name": "d5a211cba74efb7a7423ee1b72a3ae4d", "bike_id": "d5a211cba74efb7a7423ee1b72a3ae4d", "fusion_lat": 0.0, "lon": -76.91806, "type": "electric_bike", "fusion_lon": 0.0, "lat": 38.99998516666667}, {"rental_uris": {"android": "https://dc.lft.to/lastmile_qr_scan", "ios": "https://dc.lft.to/lastmile_qr_scan"}, "is_reserved": 0, "is_disabled": 0, "name": "f0d436e6ae3c33ebb94c53e0f0b6eb07", "bike_id": "f0d436e6ae3c33ebb94c53e0f0b6eb07", "fusion_lat": 0.0, "lon": -77.077514, "type": "electric_bike", "fusion_lon": 0.0, "lat": 38.841924666666664}, {"rental_uris": {"android": "https://dc.lft.to/lastmile_qr_scan", "ios": "https://dc.lft.to/lastmile_qr_scan"}, "is_reserved": 0, "is_disabled": 0, "name": "7f3fc6c7c5a547d80ae5b4bff24bf19c", "bike_id": "7f3fc6c7c5a547d80ae5b4bff24bf19c", "fusion_lat": 0.0, "lon": -77.023758, "type": "electric_scooter", "fusion_lon": 0.0, "lat": 38.92050016666666}, {"rental_uris": {"android": "https://dc.lft.to/lastmile_qr_scan", "ios": "https://dc.lft.to/lastmile_qr_scan"},