{"data": {"bikes": [{"is_reserved": 0, "fusion_lat": 0.0, "name": "43552695c9461a945555250ecaa0463d", "is_disabled": 0, "lat": 38.90512616666667, "rental_uris": {"ios": "https://dc.lft.to/lastmile_qr_scan", "android": "https://dc.lft.to/lastmile_qr_scan"}, "type": "electric_scooter", "lon": -77.04936716666667, "bike_id": "43552695c9461a945555250ecaa0463d", "fusion_lon": 0.0}, {"is_reserved": 0, "fusion_lat": 0.0, "name": "163e9e90e1228c74a9e09b2280fb6b6a", "is_disabled": 0, "lat": 38.930152166666666, "rental_uris": {"ios": "https://dc.lft.to/lastmile_qr_scan", "android": "https://dc.lft.to/lastmile_qr_scan"}, "type": "electric_scooter", "lon": -77.03810433333334, "bike_id": "163e9e90e1228c74a9e09b2280fb6b6a", "fusion_lon": 0.0}, {"is_reserved": 0, "fusion_lat": 0.0, "name": "269752331c02ada6b39d26f658071e02", "is_disabled": 0, "lat": 38.906834, "rental_uris": {"ios": "https://dc.lft.to/lastmile_qr_scan", "android": "https://dc.lft.to/lastmile_qr_scan"}, "type": "electric_scooter", "lon": -77.07189533333333, "bike_id": "269752331c02ada6b39d26f658071e02", "fusion_lon": 0.0}, {"is_reserved": 0, "fusion_lat": 0.0, "name": "4c35a1c8e6e04b579539676d449943b4", "is_disabled": 0, "lat": 38.883855, "rental_uris": {"ios": "https://dc.lft.to/lastmile_qr_scan", "android": "https://dc.lft.to/lastmile_qr_scan"}, "type": "electric_scooter", "lon": -76.99506766666667, "bike_id": "4c35a1c8e6e04b579539676d449943b4", "fusion_lon": 0.0}, {"is_reserved": 0, "fusion_lat": 0.0, "name": "d4c0013ef54f6ed1b346141971bbe3e5", "is_disabled": 0, "lat": 38.903862333333336, "rental_uris": {"ios": "https://dc.lft.to/lastmile_qr_scan", "android": "https://dc.lft.to/lastmile_qr_scan"}, "type": "electric_bike", "lon": -76.9375505, "bike_id": "d4c0013ef54f6ed1b346141971bbe3e5", "fusion_lon": 0.0}, {"is_reserved": 0, "fusion_lat": 0.0, "name": "51ae0f32f843d52cdb1e102c79b929b4", "is_disabled": 0, "lat": 38.92422083333334, "rental_uris": {"ios": "https://dc.lft.to/lastmile_qr_scan", "android": "https://dc.lft.to/lastmile_qr_scan"}, "type": "electric_scooter", "lon": -77.02126916666667, "bike_id": "51ae0f32f843d52cdb1e102c79b929b4", "fusion_lon": 0.0}, {"is_reserved": 0, "fusion_lat": 0.0, "name": "e624636da9746f5d0905433e271364ff", "is_disabled": 0, "lat": 38.92430516666667, "rental_uris": {"ios": "https://dc.lft.to/lastmile_qr_scan", "android": "https://dc.lft.to/lastmile_qr_scan"}, "type": "electric_scooter", "lon": -77.0223935, "bike_id": "e624636da9746f5d0905433e271364ff", "fusion_lon": 0.0}, {"is_reserved": 0, "fusion_lat": 0.0, "name": "80bc12a395123d088d4c260e8869ada0", "is_disabled": 0, "lat": 38.93609583333333, "rental_uris": {"ios": "https://dc.lft.to/lastmile_qr_scan", "android": "https://dc.lft.to/lastmile_qr_scan"}, "type": "electric_scooter", "lon": -77.05584683333333, "bike_id": "80bc12a395123d088d4c260e8869ada0", "fusion_lon": 0.0}, {"is_reserved": 0, "fusion_lat": 0.0, "name": "34ed60da102806cc7decf13be11bc528", "is_disabled": 0, "lat": 38.838678, "rental_uris": {"ios": "https://dc.lft.to/lastmile_qr_scan", "android": "https://dc.lft.to/lastmile_qr_scan"}, "type": "electric_bike", "lon": -76.99696216666666, "bike_id": "34ed60da102806cc7decf13be11bc528", "fusion_lon": 0.0}, {"is_reserved": 0, "fusion_lat": 0.0, "name": "d39446ca1c408a9d14ed06207b0b0b64", "is_disabled": 0, "lat": 38.876495, "rental_uris": {"ios": "https://dc.lft.to/lastmile_qr_scan", "android": "https://dc.lft.to/lastmile_qr_scan"}, "type": "electric_scooter", "lon": -77.00811233333333, "bike_id": "d39446ca1c408a9d14ed06207b0b0b64", "fusion_lon": 0.0}, {"is_reserved": 0, "fusion_lat": 0.0, "name": "bffca05743c56bdbeb489654a37aa1a8", "is_disabled": 0, "lat": 38.9007365, "rental_uris": {"ios": "https://dc.lft.to/lastmile_qr_scan", "android": "https://dc.lft.to/lastmile_qr_scan"}, "type": "electric_scooter", "lon": -77.025377, "bike_id": "bffca05743c56bdbeb489654a37aa1a8", "fusion_lon": 0.0}, {"is_reserved": 0, "fusion_lat": 0.0, "name": "8a722f4d700318c58b3a395ad182b63e", "is_disabled": 0, "lat": 38.913644, "rental_uris": {"ios": "https://dc.lft.to/lastmile_qr_scan", "android": "https://dc.lft.to/lastmile_qr_scan"}, "type": "electric_scooter", "lon": -77.04496133333333, "bike_id": "8a722f4d700318c58b3a395ad182b63e", "fusion_lon": 0.0}, {"is_reserved": 0, "fusion_lat": 0.0, "name": "25f19214225a2bb21455bf516a8664d0", "is_disabled": 0, "lat": 38.911077666666664, "rental_uris": {"ios": "https://dc.lft.to/lastmile_qr_scan", "android": "https://dc.lft.to/lastmile_qr_scan"}, "type": "electric_scooter", "lon": -77.03832916666667, "bike_id": "25f19214225a2bb21455bf516a8664d0", "fusion_lon": 0.0}, {"is_reserved": 0, "fusion_lat": 0.0, "name": "e20abd4196a4bb857186b431afddee8d", "is_disabled": 0, "lat": 38.89717816666667, "rental_uris": {"ios": "https://dc.lft.to/lastmile_qr_scan", "android": "https://dc.lft.to/lastmile_qr_scan"}, "type": "electric_scooter", "lon": -77.02682733333333, "bike_id": "e20abd4196a4bb857186b431afddee8d", "fusion_lon": 0.0}, {"is_reserved": 0, "fusion_lat": 0.0, "name": "50ca4d6a0cbdc70db94709f5bed0ec32", "is_disabled": 0, "lat": 38.920772, "rental_uris": {"ios": "https://dc.lft.to/lastmile_qr_scan", "android": "https://dc.lft.to/lastmile_qr_scan"}, "type": "electric_scooter", "lon": -77.03885783333334, "bike_id": "50ca4d6a0cbdc70db94709f5bed0ec32", "fusion_lon": 0.0}, {"is_reserved": 0, "fusion_lat": 0.0, "name": "93f4174d322a044d0d1f3054166ff203", "is_disabled": 0, "lat": 38.90407716666667, "rental_uris": {"ios": "https://dc.lft.to/lastmile_qr_scan", "android": "https://dc.lft.to/lastmile_qr_scan"}, "type": "electric_scooter", "lon": -77.0205405, "bike_id": "93f4174d322a044d0d1f3054166ff203", "fusion_lon": 0.0}, {"is_reserved": 0, "fusion_lat": 0.0, "name": "cbb59b8dde970f899b9a1c5e5cf88b2d", "is_disabled": 0, "lat": 38.89786433333333, "rental_uris": {"ios": "https://dc.lft.to/lastmile_qr_scan", "android": "https://dc.lft.to/lastmile_qr_scan"}, "type": "electric_scooter", "lon": -77.04967033333334, "bike_id": "cbb59b8dde970f899b9a1c5e5cf88b2d", "fusion_lon": 0.0}, {"is_reserved": 0, "fusion_lat": 0.0, "name": "bf54323f9c0acc966ed20a8407133f1a", "is_disabled": 0, "lat": 38.8986525, "rental_uris": {"ios": "https://dc.lft.to/lastmile_qr_scan", "android": "https://dc.lft.to/lastmile_qr_scan"}, "type": "electric_scooter", "lon": -76.94637483333334, "bike_id": "bf54323f9c0acc966ed20a8407133f1a", "fusion_lon": 0.0}, {"is_reserved": 0, "fusion_lat": 0.0, "name": "1795b0fba2c80f93961e1c36c9016b3b", "is_disabled": 0, "lat": 38.922070833333336, "rental_uris": {"ios": "https://dc.lft.to/lastmile_qr_scan", "android": "https://dc.lft.to/lastmile_qr_scan"}, "type": "electric_scooter", "lon": -77.0377785, "bike_id": "1795b0fba2c80f93961e1c36c9016b3b", "fusion_lon": 0.0}, {"is_reserved": 0, "fusion_lat": 0.0, "name": "bb53ab07a324f69fc7d6165c4efadeca", "is_disabled": 0, "lat": 38.90893416666667, "rental_uris": {"ios": "https://dc.lft.to/lastmile_qr_scan", "android": "https://dc.lft.to/lastmile_qr_scan"}, "type": "electric_scooter", "lon": -77.0429365, "bike_id": "bb53ab07a324f69fc7d6165c4efadeca", "fusion_lon": 0.0}, {"is_reserved": 0, "fusion_lat": 0.0, "name": "6cff200f0b5e04bdb5c66173da74d341", "is_disabled": 0, "lat": 38.9253685, "rental_uris": {"ios": "https://dc.lft.to/lastmile_qr_scan", "android": "https://dc.lft.to/lastmile_qr_scan"}, "type": "electric_scooter", "lon": -77.04259316666666, "bike_id": "6cff200f0b5e04bdb5c66173da74d341", "fusion_lon": 0.0}, {"is_reserved": 0, "fusion_lat": 0.0, "name": "ec9e96329dc37448e2b6c7b777dcf825", "is_disabled": 0, "lat": 38.87071866666667, "rental_uris": {"ios": "https://dc.lft.to/lastmile_qr_scan", "android": "https://dc.lft.to/lastmile_qr_scan"}, "type": "electric_scooter", "lon": -76.97944583333333, "bike_id": "ec9e96329dc37448e2b6c7b777dcf825", "fusion_lon": 0.0}, {"is_reserved": 0, "fusion_lat": 0.0, "name": "bb50c5d31ae5f6e65a3c953741b7006c", "is_disabled": 0, "lat": 38.89981133333333, "rental_uris": {"ios": "https://dc.lft.to/lastmile_qr_scan", "android": "https://dc.lft.to/lastmile_qr_scan"}, "type": "electric_scooter", "lon": -77.03946466666666, "bike_id": "bb50c5d31ae5f6e65a3c953741b7006c", "fusion_lon": 0.0}, {"is_reserved": 0, "fusion_lat": 0.0, "name": "3323eae3ab49d52df0bebf043d5fe74d", "is_disabled": 0, "lat": 38.875095, "rental_uris": {"ios": "https://dc.lft.to/lastmile_qr_scan", "android": "https://dc.lft.to/lastmile_qr_scan"}, "type": "electric_scooter", "lon": -76.97657016666666, "bike_id": "3323eae3ab49d52df0bebf043d5fe74d", "fusion_lon": 0.0}, {"is_reserved": 0, "fusion_lat": 0.0, "name": "8bc89c1c4312b28bb39ae009685ebc17", "is_disabled": 0, "lat": 38.93091783333333, "rental_uris": {"ios": "https://dc.lft.to/lastmile_qr_scan", "android": "https://dc.lft.to/lastmile_qr_scan"}, "type": "electric_scooter", "lon": -77.03439216666666, "bike_id": "8bc89c1c4312b28bb39ae009685ebc17", "fusion_lon": 0.0}, {"is_reserved": 0, "fusion_lat": 0.0, "name": "9520a0658ffd045d9ca52dd36c241d5d", "is_disabled": 0, "lat": 38.9049915, "rental_uris": {"ios": "https://dc.lft.to/lastmile_qr_scan", "android": "https://dc.lft.to/lastmile_qr_scan"}, "type": "electric_scooter", "lon": -77.02950583333333, "bike_id": "9520a0658ffd045d9ca52dd36c241d5d", "fusion_lon": 0.0}, {"is_reserved": 0, "fusion_lat": 0.0, "name": "0e98e3ed7a2e42a288d50241c04e3d68", "is_disabled": 0, "lat": 38.830645, "rental_uris": {"ios": "https://dc.lft.to/lastmile_qr_scan", "android": "https://dc.lft.to/lastmile_qr_scan"}, "type": "electric_bike", "lon": -77.04077183333334, "bike_id": "0e98e3ed7a2e42a288d50241c04e3d68", "fusion_lon": 0.0}, {"is_reserved": 0, "fusion_lat": 0.0, "name": "82602ae61718d94313b60ddc0b0a56a7", "is_disabled": 0, "lat": 38.88275083333333, "rental_uris": {"ios": "https://dc.lft.to/lastmile_qr_scan", "android": "https://dc.lft.to/lastmile_qr_scan"}, "type": "electric_scooter", "lon": -77.005796, "bike_id": "82602ae61718d94313b60ddc0b0a56a7", "fusion_lon": 0.0}, {"is_reserved": 0, "fusion_lat": 0.0, "name": "98cad8c5227131c83722df005f71864a", "is_disabled": 0, "lat": 38.89612833333333, "rental_uris": {"ios": "https://dc.lft.to/lastmile_qr_scan", "android": "https://dc.lft.to/lastmile_qr_scan"}, "type": "electric_scooter", "lon": -77.02783033333333, "bike_id": "98cad8c5227131c83722df005f71864a", "fusion_lon": 0.0}, {"is_reserved": 0, "fusion_lat": 0.0, "name": "714fcbe5739d34835cc355f9a2e4ed03", "is_disabled": 0, "lat": 38.902803166666665, "rental_uris": {"ios": "https://dc.lft.to/lastmile_qr_scan", "android": "https://dc.lft.to/lastmile_qr_scan"}, "type": "electric_scooter", "lon": -77.02271366666666, "bike_id": "714fcbe5739d34835cc355f9a2e4ed03", "fusion_lon": 0.0}, {"is_reserved": 0, "fusion_lat": 0.0, "name": "2c99876f30e04a5e57efb2886b93eac4", "is_disabled": 0, "lat": 38.90862516666667, "rental_uris": {"ios": "https://dc.lft.to/lastmile_qr_scan", "android": "https://dc.lft.to/lastmile_qr_scan"}, "type": "electric_scooter", "lon": -77.01244933333334, "bike_id": "2c99876f30e04a5e57efb2886b93eac4", "fusion_lon": 0.0}, {"is_reserved": 0, "fusion_lat": 0.0, "name": "bb04167ac90669d5b01340458eb65f53", "is_disabled": 0, "lat": 38.929051666666666, "rental_uris": {"ios": "https://dc.lft.to/lastmile_qr_scan", "android": "https://dc.lft.to/lastmile_qr_scan"}, "type": "electric_scooter", "lon": -77.0216215, "bike_id": "bb04167ac90669d5b01340458eb65f53", "fusion_lon": 0.0}, {"is_reserved": 0, "fusion_lat": 0.0, "name": "ef53123d55857beca704de22d6054b7c", "is_disabled": 0, "lat": 38.8559375, "rental_uris": {"ios": "https://dc.lft.to/lastmile_qr_scan", "android": "https://dc.lft.to/lastmile_qr_scan"}, "type": "electric_bike", "lon": -76.97274266666666, "bike_id": "ef53123d55857beca704de22d6054b7c", "fusion_lon": 0.0}, {"is_reserved": 0, "fusion_lat": 0.0, "name": "868a64ae33d3e61c8fdf4f95af1693e7", "is_disabled": 0, "lat": 38.9211305, "rental_uris": {"ios": "https://dc.lft.to/lastmile_qr_scan", "android": "https://dc.lft.to/lastmile_qr_scan"}, "type": "electric_scooter", "lon": -77.02049366666667, "bike_id": "868a64ae33d3e61c8fdf4f95af1693e7", "fusion_lon": 0.0}, {"is_reserved": 0, "fusion_lat": 0.0, "name": "3d4ac06cb39a89653fcd10feaf767aab", "is_disabled": 0, "lat": 38.918054833333336, "rental_uris": {"ios": "https://dc.lft.to/lastmile_qr_scan", "android": "https://dc.lft.to/lastmile_qr_scan"}, "type": "electric_scooter", "lon": -77.02676033333333, "bike_id": "3d4ac06cb39a89653fcd10feaf767aab", "fusion_lon": 0.0}, {"is_reserved": 0, "fusion_lat": 0.0, "name": "91d5cd74dcd9491d1baeac7351bbf736", "is_disabled": 0, "lat": 38.9236825, "rental_uris": {"ios": "https://dc.lft.to/lastmile_qr_scan", "android": "https://dc.lft.to/lastmile_qr_scan"}, "type": "electric_scooter", "lon": -77.02123683333333, "bike_id": "91d5cd74dcd9491d1baeac7351bbf736", "fusion_lon": 0.0}, {"is_reserved": 0, "fusion_lat": 0.0, "name": "77a6fb22d35ff873318f5e3fdc80d170", "is_disabled": 0, "lat": 38.90686766666666, "rental_uris": {"ios": "https://dc.lft.to/lastmile_qr_scan", "android": "https://dc.lft.to/lastmile_qr_scan"}, "type": "electric_scooter", "lon": -77.01014216666667, "bike_id": "77a6fb22d35ff873318f5e3fdc80d170", "fusion_lon": 0.0}, {"is_reserved": 0, "fusion_lat": 0.0, "name": "391f9da41b528d486bf9b58dc89e60f4", "is_disabled": 0, "lat": 38.89542766666667, "rental_uris": {"ios": "https://dc.lft.to/lastmile_qr_scan", "android": "https://dc.lft.to/lastmile_qr_scan"}, "type": "electric_scooter", "lon": -76.983404, "bike_id": "391f9da41b528d486bf9b58dc89e60f4", "fusion_lon": 0.0}, {"is_reserved": 0, "fusion_lat": 0.0, "name": "fe98010ad1b36179ceaaa123818cb0ef", "is_disabled": 0, "lat": 38.909576333333334, "rental_uris": {"ios": "https://dc.lft.to/lastmile_qr_scan", "android": "https://dc.lft.to/lastmile_qr_scan"}, "type": "electric_scooter", "lon": -77.02413933333334, "bike_id": "fe98010ad1b36179ceaaa123818cb0ef", "fusion_lon": 0.0}, {"is_reserved": 0, "fusion_lat": 0.0, "name": "39143b46f1ecf716d49a87702a3e0967", "is_disabled": 0, "lat": 38.90367366666667, "rental_uris": {"ios": "https://dc.lft.to/lastmile_qr_scan", "android": "https://dc.lft.to/lastmile_qr_scan"}, "type": "electric_scooter", "lon": -77.02693083333334, "bike_id": "39143b46f1ecf716d49a87702a3e0967", "fusion_lon": 0.0}, {"is_reserved": 0, "fusion_lat": 0.0, "name": "25f15395c74b7924b5fabdca65475f80", "is_disabled": 0, "lat": 38.91708166666667, "rental_uris": {"ios": "https://dc.lft.to/lastmile_qr_scan", "android": "https://dc.lft.to/lastmile_qr_scan"}, "type": "electric_scooter", "lon": -77.03733933333334, "bike_id": "25f15395c74b7924b5fabdca65475f80", "fusion_lon": 0.0}, {"is_reserved": 0, "fusion_lat": 0.0, "name": "0645f4e9a5ad1e9fac4ae6c50bb5f955", "is_disabled": 0, "lat": 38.9192405, "rental_uris": {"ios": "https://dc.lft.to/lastmile_qr_scan", "android": "https://dc.lft.to/lastmile_qr_scan"}, "type": "electric_scooter", "lon": -77.08068, "bike_id": "0645f4e9a5ad1e9fac4ae6c50bb5f955", "fusion_lon": 0.0}, {"is_reserved": 0, "fusion_lat": 0.0, "name": "d59585bb3e06ce44dad68f781d9f0cbd", "is_disabled": 0, "lat": 38.897170333333335, "rental_uris": {"ios": "https://dc.lft.to/lastmile_qr_scan", "android": "https://dc.lft.to/lastmile_qr_scan"}, "type": "electric_scooter", "lon": -77.0079555, "bike_id": "d59585bb3e06ce44dad68f781d9f0cbd", "fusion_lon": 0.0}, {"is_reserved": 0, "fusion_lat": 0.0, "name": "9c93599ee66542ae0214b818e70622b2", "is_disabled": 0, "lat": 38.922518333333336, "rental_uris": {"ios": "https://dc.lft.to/lastmile_qr_scan", "android": "https://dc.lft.to/lastmile_qr_scan"}, "type": "electric_scooter", "lon": -77.01949866666666, "bike_id": "9c93599ee66542ae0214b818e70622b2", "fusion_lon": 0.0}, {"is_reserved": 0, "fusion_lat": 0.0, "name": "0386850d41dbccb6537656f4799b1ae1", "is_disabled": 0, "lat": 38.899793333333335, "rental_uris": {"ios": "https://dc.lft.to/lastmile_qr_scan", "android": "https://dc.lft.to/lastmile_qr_scan"}, "type": "electric_scooter", "lon": -77.041861, "bike_id": "0386850d41dbccb6537656f4799b1ae1", "fusion_lon": 0.0}, {"is_reserved": 0, "fusion_lat": 0.0, "name": "a0295e98251ffe25a7e91ae73d1fad62", "is_disabled": 0, "lat": 38.902724, "rental_uris": {"ios": "https://dc.lft.to/lastmile_qr_scan", "android": "https://dc.lft.to/lastmile_qr_scan"}, "type": "electric_scooter", "lon": -77.0321125, "bike_id": "a0295e98251ffe25a7e91ae73d1fad62", "fusion_lon": 0.0}, {"is_reserved": 0, "fusion_lat": 0.0, "name": "1ad6985e3bb751360f4928535135ce0c", "is_disabled": 0, "lat": 38.96158633333334, "rental_uris": {"ios": "https://dc.lft.to/lastmile_qr_scan", "android": "https://dc.lft.to/lastmile_qr_scan"}, "type": "electric_bike", "lon": -77.03241716666666, "bike_id": "1ad6985e3bb751360f4928535135ce0c", "fusion_lon": 0.0}, {"is_reserved": 0, "fusion_lat": 0.0, "name": "fda4ecf155f5fdd6393195ed648ef5f4", "is_disabled": 0, "lat": 38.92536033333333, "rental_uris": {"ios": "https://dc.lft.to/lastmile_qr_scan", "android": "https://dc.lft.to/lastmile_qr_scan"}, "type": "electric_scooter", "lon": -77.0344385, "bike_id": "fda4ecf155f5fdd6393195ed648ef5f4", "fusion_lon": 0.0}, {"is_reserved": 0, "fusion_lat": 0.0, "name": "61ee3e3d2fc9dc0ce8e8fd962a741f73", "is_disabled": 0, "lat": 38.9003315, "rental_uris": {"ios": "https://dc.lft.to/lastmile_qr_scan", "android": "https://dc.lft.to/lastmile_qr_scan"}, "type": "electric_scooter", "lon": -77.012235, "bike_id": "61ee3e3d2fc9dc0ce8e8fd962a741f73", "fusion_lon": 0.0}, {"is_reserved": 0, "fusion_lat": 0.0, "name": "ff8b4efe0be9e9a4f55d92cd78d2523c", "is_disabled": 0, "lat": 38.902434666666664, "rental_uris": {"ios": "https://dc.lft.to/lastmile_qr_scan", "android": "https://dc.lft.to/lastmile_qr_scan"}, "type": "electric_scooter", "lon": -77.05166233333334, "bike_id": "ff8b4efe0be9e9a4f55d92cd78d2523c", "fusion_lon": 0.0}, {"is_reserved": 0, "fusion_lat": 0.0, "name": "f21d78edf8a1f4f19dd228cd1db626d5", "is_disabled": 0, "lat": 38.9246805, "rental_uris": {"ios": "https://dc.lft.to/lastmile_qr_scan", "android": "https://dc.lft.to/lastmile_qr_scan"}, "type": "electric_scooter", "lon": -77.0354615, "bike_id": "f21d78edf8a1f4f19dd228cd1db626d5", "fusion_lon": 0.0}, {"is_reserved": 0, "fusion_lat": 0.0, "name": "9e39b67682d0174beee67e7e0e4afa6d", "is_disabled": 0, "lat": 38.923549333333334, "rental_uris": {"ios": "https://dc.lft.to/lastmile_qr_scan", "android": "https://dc.lft.to/lastmile_qr_scan"}, "type": "electric_scooter", "lon": -77.0205635, "bike_id": "9e39b67682d0174beee67e7e0e4afa6d", "fusion_lon": 0.0}, {"is_reserved": 0, "fusion_lat": 0.0, "name": "23478fb60a30d1c9cad1465d5210d7ea", "is_disabled": 0, "lat": 38.913694, "rental_uris": {"ios": "https://dc.lft.to/lastmile_qr_scan", "android": "https://dc.lft.to/lastmile_qr_scan"}, "type": "electric_scooter", "lon": -77.03840533333333, "bike_id": "23478fb60a30d1c9cad1465d5210d7ea", "fusion_lon": 0.0}, {"is_reserved": 0, "fusion_lat": 0.0, "name": "306356afa982201cbecc5be212c1ecd5", "is_disabled": 0, "lat": 38.92481883333333, "rental_uris": {"ios": "https://dc.lft.to/lastmile_qr_scan", "android": "https://dc.lft.to/lastmile_qr_scan"}, "type": "electric_scooter", "lon": -77.0271175, "bike_id": "306356afa982201cbecc5be212c1ecd5", "fusion_lon": 0.0}, {"is_reserved": 0, "fusion_lat": 0.0, "name": "9e8c391ae5e914e220da1bc3b8460ae4", "is_disabled": 0, "lat": 38.8988675, "rental_uris": {"ios": "https://dc.lft.to/lastmile_qr_scan", "android": "https://dc.lft.to/lastmile_qr_scan"}, "type": "electric_scooter", "lon": -77.04014133333334, "bike_id": "9e8c391ae5e914e220da1bc3b8460ae4", "fusion_lon": 0.0}, {"is_reserved": 0, "fusion_lat": 0.0, "name": "5c43ff2392c4109091d153d9b1dcd282", "is_disabled": 0, "lat": 38.883394833333334, "rental_uris": {"ios": "https://dc.lft.to/lastmile_qr_scan", "android": "https://dc.lft.to/lastmile_qr_scan"}, "type": "electric_scooter", "lon": -77.01524433333333, "bike_id": "5c43ff2392c4109091d153d9b1dcd282", "fusion_lon": 0.0}, {"is_reserved": 0, "fusion_lat": 0.0, "name": "3150e31f3dc79c001f4fa34f77a734e5", "is_disabled": 0, "lat": 38.935996333333335, "rental_uris": {"ios": "https://dc.lft.to/lastmile_qr_scan", "android": "https://dc.lft.to/lastmile_qr_scan"}, "type": "electric_scooter", "lon": -77.07427883333334, "bike_id": "3150e31f3dc79c001f4fa34f77a734e5", "fusion_lon": 0.0}, {"is_reserved": 0, "fusion_lat": 0.0, "name": "751e0c288adb40c6d9dbf758ac9f9983", "is_disabled": 0, "lat": 38.90216916666667, "rental_uris": {"ios": "https://dc.lft.to/lastmile_qr_scan", "android": "https://dc.lft.to/lastmile_qr_scan"}, "type": "electric_scooter", "lon": -77.0466675, "bike_id": "751e0c288adb40c6d9dbf758ac9f9983", "fusion_lon": 0.0}, {"is_reserved": 0, "fusion_lat": 0.0, "name": "7b74af49707885771c6cad17fd2f5042", "is_disabled": 0, "lat": 38.92479983333333, "rental_uris": {"ios": "https://dc.lft.to/lastmile_qr_scan", "android": "https://dc.lft.to/lastmile_qr_scan"}, "type": "electric_scooter", "lon": -77.02569266666667, "bike_id": "7b74af49707885771c6cad17fd2f5042", "fusion_lon": 0.0}, {"is_reserved": 0, "fusion_lat": 0.0, "name": "ccdff20a9b33d7ec127832f29a84e734", "is_disabled": 0, "lat": 38.88717183333333, "rental_uris": {"ios": "https://dc.lft.to/lastmile_qr_scan", "android": "https://dc.lft.to/lastmile_qr_scan"}, "type": "electric_scooter", "lon": -76.9960495, "bike_id": "ccdff20a9b33d7ec127832f29a84e734", "fusion_lon": 0.0}, {"is_reserved": 0, "fusion_lat": 0.0, "name": "964670e21d923869d09a46276ed631c7", "is_disabled": 0, "lat": 38.87662016666667, "rental_uris": {"ios": "https://dc.lft.to/lastmile_qr_scan", "android": "https://dc.lft.to/lastmile_qr_scan"}, "type": "electric_scooter", "lon": -77.00748633333333, "bike_id": "964670e21d923869d09a46276ed631c7", "fusion_lon": 0.0}, {"is_reserved": 0, "fusion_lat": 0.0, "name": "4f8cffa57fe4bd927880430b098ba3f8", "is_disabled": 0, "lat": 38.897312666666664, "rental_uris": {"ios": "https://dc.lft.to/lastmile_qr_scan", "android": "https://dc.lft.to/lastmile_qr_scan"}, "type": "electric_scooter", "lon": -76.925811, "bike_id": "4f8cffa57fe4bd927880430b098ba3f8", "fusion_lon": 0.0}, {"is_reserved": 0, "fusion_lat": 0.0, "name": "d084c47e27b341e13884179288c1b300", "is_disabled": 0, "lat": 38.918163, "rental_uris": {"ios": "https://dc.lft.to/lastmile_qr_scan", "android": "https://dc.lft.to/lastmile_qr_scan"}, "type": "electric_scooter", "lon": -77.02529183333333, "bike_id": "d084c47e27b341e13884179288c1b300", "fusion_lon": 0.0}, {"is_reserved": 0, "fusion_lat": 0.0, "name": "e1664f19c24c17cd988511e8521ddd28", "is_disabled": 0, "lat": 38.90264233333333, "rental_uris": {"ios": "https://dc.lft.to/lastmile_qr_scan", "android": "https://dc.lft.to/lastmile_qr_scan"}, "type": "electric_scooter", "lon": -77.03263233333334, "bike_id": "e1664f19c24c17cd988511e8521ddd28", "fusion_lon": 0.0}, {"is_reserved": 0, "fusion_lat": 0.0, "name": "a03eab92825b67f39c10326afdac1a65", "is_disabled": 0, "lat": 38.929611, "rental_uris": {"ios": "https://dc.lft.to/lastmile_qr_scan", "android": "https://dc.lft.to/lastmile_qr_scan"}, "type": "electric_scooter", "lon": -77.0114735, "bike_id": "a03eab92825b67f39c10326afdac1a65", "fusion_lon": 0.0}, {"is_reserved": 0, "fusion_lat": 0.0, "name": "cee278fec5b26cd521948ff094d64fc6", "is_disabled": 0, "lat": 38.9293505, "rental_uris": {"ios": "https://dc.lft.to/lastmile_qr_scan", "android": "https://dc.lft.to/lastmile_qr_scan"}, "type": "electric_scooter", "lon": -77.03290166666666, "bike_id": "cee278fec5b26cd521948ff094d64fc6", "fusion_lon": 0.0}, {"is_reserved": 0, "fusion_lat": 0.0, "name": "b8068bcdbd4d33cb05f849d1e15cf724", "is_disabled": 0, "lat": 38.92738383333333, "rental_uris": {"ios": "https://dc.lft.to/lastmile_qr_scan", "android": "https://dc.lft.to/lastmile_qr_scan"}, "type": "electric_scooter", "lon": -77.03558216666667, "bike_id": "b8068bcdbd4d33cb05f849d1e15cf724", "fusion_lon": 0.0}, {"is_reserved": 0, "fusion_lat": 0.0, "name": "500caf5badbd0353f251b2afc284eecd", "is_disabled": 0, "lat": 38.9070965, "rental_uris": {"ios": "https://dc.lft.to/lastmile_qr_scan", "android": "https://dc.lft.to/lastmile_qr_scan"}, "type": "electric_scooter", "lon": -77.03205633333333, "bike_id": "500caf5badbd0353f251b2afc284eecd", "fusion_lon": 0.0}, {"is_reserved": 0, "fusion_lat": 0.0, "name": "893a7c45ec6b4fa2915460b733e412f4", "is_disabled": 0, "lat": 38.893537333333335, "rental_uris": {"ios": "https://dc.lft.to/lastmile_qr_scan", "android": "https://dc.lft.to/lastmile_qr_scan"}, "type": "electric_scooter", "lon": -77.00335983333333, "bike_id": "893a7c45ec6b4fa2915460b733e412f4", "fusion_lon": 0.0}, {"is_reserved": 0, "fusion_lat": 0.0, "name": "717b27821fa6768ab5c2505e01e683c2", "is_disabled": 0, "lat": 38.91256283333333, "rental_uris": {"ios": "https://dc.lft.to/lastmile_qr_scan", "android": "https://dc.lft.to/lastmile_qr_scan"}, "type": "electric_scooter", "lon": -77.04790816666667, "bike_id": "717b27821fa6768ab5c2505e01e683c2", "fusion_lon": 0.0}, {"is_reserved": 0, "fusion_lat": 0.0, "name": "7e8645078cc12ae011d9e5f0be046ca1", "is_disabled": 0, "lat": 38.906620333333336, "rental_uris": {"ios": "https://dc.lft.to/lastmile_qr_scan", "android": "https://dc.lft.to/lastmile_qr_scan"}, "type": "electric_scooter", "lon": -77.0435925, "bike_id": "7e8645078cc12ae011d9e5f0be046ca1", "fusion_lon": 0.0}, {"is_reserved": 0, "fusion_lat": 0.0, "name": "4a664c458132a1eceb3c41ddf51a6594", "is_disabled": 0, "lat": 38.923184166666665, "rental_uris": {"ios": "https://dc.lft.to/lastmile_qr_scan", "android": "https://dc.lft.to/lastmile_qr_scan"}, "type": "electric_scooter", "lon": -77.01950466666666, "bike_id": "4a664c458132a1eceb3c41ddf51a6594", "fusion_lon": 0.0}, {"is_reserved": 0, "fusion_lat": 0.0, "name": "6dee883accd864a9cb3d0c7e2b9f5f87", "is_disabled": 0, "lat": 38.91647733333333, "rental_uris": {"ios": "https://dc.lft.to/lastmile_qr_scan", "android": "https://dc.lft.to/lastmile_qr_scan"}, "type": "electric_scooter", "lon": -77.02178183333334, "bike_id": "6dee883accd864a9cb3d0c7e2b9f5f87", "fusion_lon": 0.0}, {"is_reserved": 0, "fusion_lat": 0.0, "name": "55c8979f80abe4b0a5cc1ff41d1b9561", "is_disabled": 0, "lat": 38.94977183333334, "rental_uris": {"ios": "https://dc.lft.to/lastmile_qr_scan", "android": "https://dc.lft.to/lastmile_qr_scan"}, "type": "electric_scooter", "lon": -77.024453, "bike_id": "55c8979f80abe4b0a5cc1ff41d1b9561", "fusion_lon": 0.0}, {"is_reserved": 0, "fusion_lat": 0.0, "name": "6022069d569eeb10c5f619c17c2f0eba", "is_disabled": 0, "lat": 38.914445666666666, "rental_uris": {"ios": "https://dc.lft.to/lastmile_qr_scan", "android": "https://dc.lft.to/lastmile_qr_scan"}, "type": "electric_scooter", "lon": -77.00458116666667, "bike_id": "6022069d569eeb10c5f619c17c2f0eba", "fusion_lon": 0.0}, {"is_reserved": 0, "fusion_lat": 0.0, "name": "f36ba6720153bd71dc5e0852d7f8d6dc", "is_disabled": 0, "lat": 38.86748566666667, "rental_uris": {"ios": "https://dc.lft.to/lastmile_qr_scan", "android": "https://dc.lft.to/lastmile_qr_scan"}, "type": "electric_scooter", "lon": -77.0014835, "bike_id": "f36ba6720153bd71dc5e0852d7f8d6dc", "fusion_lon": 0.0}, {"is_reserved": 0, "fusion_lat": 0.0, "name": "f545db062b00ff5478ad4b5a72531620", "is_disabled": 0, "lat": 38.89481983333334, "rental_uris": {"ios": "https://dc.lft.to/lastmile_qr_scan", "android": "https://dc.lft.to/lastmile_qr_scan"}, "type": "electric_scooter", "lon": -76.99514733333334, "bike_id": "f545db062b00ff5478ad4b5a72531620", "fusion_lon": 0.0}, {"is_reserved": 0, "fusion_lat": 0.0, "name": "81b61b06496c3e9dfb76e5e3c2fd2d8b", "is_disabled": 0, "lat": 38.896729, "rental_uris": {"ios": "https://dc.lft.to/lastmile_qr_scan", "android": "https://dc.lft.to/lastmile_qr_scan"}, "type": "electric_scooter", "lon": -77.01209166666666, "bike_id": "81b61b06496c3e9dfb76e5e3c2fd2d8b", "fusion_lon": 0.0}, {"is_reserved": 0, "fusion_lat": 0.0, "name": "0f9d0b03adb79eef93f5003d14c0298a", "is_disabled": 0, "lat": 38.92582633333333, "rental_uris": {"ios": "https://dc.lft.to/lastmile_qr_scan", "android": "https://dc.lft.to/lastmile_qr_scan"}, "type": "electric_scooter", "lon": -77.02812166666666, "bike_id": "0f9d0b03adb79eef93f5003d14c0298a", "fusion_lon": 0.0}, {"is_reserved": 0, "fusion_lat": 0.0, "name": "d2716e305f837818d710bdb6464e2719", "is_disabled": 0, "lat": 38.89851616666667, "rental_uris": {"ios": "https://dc.lft.to/lastmile_qr_scan", "android": "https://dc.lft.to/lastmile_qr_scan"}, "type": "electric_scooter", "lon": -77.0319845, "bike_id": "d2716e305f837818d710bdb6464e2719", "fusion_lon": 0.0}, {"is_reserved": 0, "fusion_lat": 0.0, "name": "8b9448fda657aef701f9303b0baf578d", "is_disabled": 0, "lat": 39.02516416666667, "rental_uris": {"ios": "https://dc.lft.to/lastmile_qr_scan", "android": "https://dc.lft.to/lastmile_qr_scan"}, "type": "electric_bike", "lon": -77.019637, "bike_id": "8b9448fda657aef701f9303b0baf578d", "fusion_lon": 0.0}, {"is_reserved": 0, "fusion_lat": 0.0, "name": "4763278210fa78f42a133231b7ca6ed1", "is_disabled": 0, "lat": 38.88783033333333, "rental_uris": {"ios": "https://dc.lft.to/lastmile_qr_scan", "android": "https://dc.lft.to/lastmile_qr_scan"}, "type": "electric_scooter", "lon": -76.955301, "bike_id": "4763278210fa78f42a133231b7ca6ed1", "fusion_lon": 0.0}, {"is_reserved": 0, "fusion_lat": 0.0, "name": "1e5d1aeaa43db06aa4e0e098757b9739", "is_disabled": 0, "lat": 38.86673366666667, "rental_uris": {"ios": "https://dc.lft.to/lastmile_qr_scan", "android": "https://dc.lft.to/lastmile_qr_scan"}, "type": "electric_scooter", "lon": -76.98499333333334, "bike_id": "1e5d1aeaa43db06aa4e0e098757b9739", "fusion_lon": 0.0}, {"is_reserved": 0, "fusion_lat": 0.0, "name": "df0cb97d1d420d7a3ad2abd3553be64d", "is_disabled": 0, "lat": 38.921131833333334, "rental_uris": {"ios": "https://dc.lft.to/lastmile_qr_scan", "android": "https://dc.lft.to/lastmile_qr_scan"}, "type": "electric_scooter", "lon": -77.04207083333333, "bike_id": "df0cb97d1d420d7a3ad2abd3553be64d", "fusion_lon": 0.0}, {"is_reserved": 0, "fusion_lat": 0.0, "name": "dabf583bb5afa67131049fda90185e5f", "is_disabled": 0, "lat": 38.887375666666664, "rental_uris": {"ios": "https://dc.lft.to/lastmile_qr_scan", "android": "https://dc.lft.to/lastmile_qr_scan"}, "type": "electric_scooter", "lon": -77.003204, "bike_id": "dabf583bb5afa67131049fda90185e5f", "fusion_lon": 0.0}, {"is_reserved": 0, "fusion_lat": 0.0, "name": "8fac0849a812c8dc608417564d68f44e", "is_disabled": 0, "lat": 38.93097733333333, "rental_uris": {"ios": "https://dc.lft.to/lastmile_qr_scan", "android": "https://dc.lft.to/lastmile_qr_scan"}, "type": "electric_scooter", "lon": -77.02475516666667, "bike_id": "8fac0849a812c8dc608417564d68f44e", "fusion_lon": 0.0}, {"is_reserved": 0, "fusion_lat": 0.0, "name": "4cde9a8231c6919f0e67748823d2f0bf", "is_disabled": 0, "lat": 39.0850955, "rental_uris": {"ios": "https://dc.lft.to/lastmile_qr_scan", "android": "https://dc.lft.to/lastmile_qr_scan"}, "type": "electric_bike", "lon": -76.95062666666666, "bike_id": "4cde9a8231c6919f0e67748823d2f0bf", "fusion_lon": 0.0}, {"is_reserved": 0, "fusion_lat": 0.0, "name": "c291bf62880059591c41c55f527f6fa1", "is_disabled": 0, "lat": 38.924783833333336, "rental_uris": {"ios": "https://dc.lft.to/lastmile_qr_scan", "android": "https://dc.lft.to/lastmile_qr_scan"}, "type": "electric_scooter", "lon": -77.022186, "bike_id": "c291bf62880059591c41c55f527f6fa1", "fusion_lon": 0.0}, {"is_reserved": 0, "fusion_lat": 0.0, "name": "46a1a293b0cd8b5ea84b210af622a02b", "is_disabled": 0, "lat": 38.892355, "rental_uris": {"ios": "https://dc.lft.to/lastmile_qr_scan", "android": "https://dc.lft.to/lastmile_qr_scan"}, "type": "electric_scooter", "lon": -77.03181083333334, "bike_id": "46a1a293b0cd8b5ea84b210af622a02b", "fusion_lon": 0.0}, {"is_reserved": 0, "fusion_lat": 0.0, "name": "d755998d89a8d77cb134f9070d605a97", "is_disabled": 0, "lat": 38.89519083333333, "rental_uris": {"ios": "https://dc.lft.to/lastmile_qr_scan", "android": "https://dc.lft.to/lastmile_qr_scan"}, "type": "electric_scooter", "lon": -77.02926083333334, "bike_id": "d755998d89a8d77cb134f9070d605a97", "fusion_lon": 0.0}, {"is_reserved": 0, "fusion_lat": 0.0, "name": "dacb4d4c11547ff2f169921f2c6959e1", "is_disabled": 0, "lat": 38.922358333333335, "rental_uris": {"ios": "https://dc.lft.to/lastmile_qr_scan", "android": "https://dc.lft.to/lastmile_qr_scan"}, "type": "electric_scooter", "lon": -77.02983583333334, "bike_id": "dacb4d4c11547ff2f169921f2c6959e1", "fusion_lon": 0.0}, {"is_reserved": 0, "fusion_lat": 0.0, "name": "2a3d527dbf6fe42bac02e5838fa550e6", "is_disabled": 0, "lat": 38.87664066666667, "rental_uris": {"ios": "https://dc.lft.to/lastmile_qr_scan", "android": "https://dc.lft.to/lastmile_qr_scan"}, "type": "electric_scooter", "lon": -77.00063116666666, "bike_id": "2a3d527dbf6fe42bac02e5838fa550e6", "fusion_lon": 0.0}, {"is_reserved": 0, "fusion_lat": 0.0, "name": "03049815d1eeb16a8f4389b1f52eeb48", "is_disabled": 0, "lat": 38.906817, "rental_uris": {"ios": "https://dc.lft.to/lastmile_qr_scan", "android": "https://dc.lft.to/lastmile_qr_scan"}, "type": "electric_scooter", "lon": -77.026957, "bike_id": "03049815d1eeb16a8f4389b1f52eeb48", "fusion_lon": 0.0}, {"is_reserved": 0, "fusion_lat": 0.0, "name": "42d9076e3e736ebc747e05a5f5169b97", "is_disabled": 0, "lat": 38.8924325, "rental_uris": {"ios": "https://dc.lft.to/lastmile_qr_scan", "android": "https://dc.lft.to/lastmile_qr_scan"}, "type": "electric_scooter", "lon": -77.03182116666666, "bike_id": "42d9076e3e736ebc747e05a5f5169b97", "fusion_lon": 0.0}, {"is_reserved": 0, "fusion_lat": 0.0, "name": "c00504b44b0fb986934ae64eb63d584d", "is_disabled": 0, "lat": 38.922449666666665, "rental_uris": {"ios": "https://dc.lft.to/lastmile_qr_scan", "android": "https://dc.lft.to/lastmile_qr_scan"}, "type": "electric_scooter", "lon": -77.0082955, "bike_id": "c00504b44b0fb986934ae64eb63d584d", "fusion_lon": 0.0}, {"is_reserved": 0, "fusion_lat": 0.0, "name": "1bed779bd9d39c172d815606fe05d23a", "is_disabled": 0, "lat": 38.917053, "rental_uris": {"ios": "https://dc.lft.to/lastmile_qr_scan", "android": "https://dc.lft.to/lastmile_qr_scan"}, "type": "electric_scooter", "lon": -77.0920565, "bike_id": "1bed779bd9d39c172d815606fe05d23a", "fusion_lon": 0.0}, {"is_reserved": 0, "fusion_lat": 0.0, "name": "96eb616d2e3398412af5547351e1d361", "is_disabled": 0, "lat": 38.92, "rental_uris": {"ios": "https://dc.lft.to/lastmile_qr_scan", "android": "https://dc.lft.to/lastmile_qr_scan"}, "type": "electric_scooter", "lon": -77.0216875, "bike_id": "96eb616d2e3398412af5547351e1d361", "fusion_lon": 0.0}, {"is_reserved": 0, "fusion_lat": 0.0, "name": "85335da0d61ea27f3766414da632d789", "is_disabled": 0, "lat": 38.88184483333333, "rental_uris": {"ios": "https://dc.lft.to/lastmile_qr_scan", "android": "https://dc.lft.to/lastmile_qr_scan"}, "type": "electric_scooter", "lon": -77.02094083333333, "bike_id": "85335da0d61ea27f3766414da632d789", "fusion_lon": 0.0}, {"is_reserved": 0, "fusion_lat": 0.0, "name": "89f5f8996ee5a0fd9158880176e5282e", "is_disabled": 0, "lat": 38.89748266666667, "rental_uris": {"ios": "https://dc.lft.to/lastmile_qr_scan", "android": "https://dc.lft.to/lastmile_qr_scan"}, "type": "electric_scooter", "lon": -77.050152, "bike_id": "89f5f8996ee5a0fd9158880176e5282e", "fusion_lon": 0.0}, {"is_reserved": 0, "fusion_lat": 0.0, "name": "f6fab0024c1540258e73ad525ea66103", "is_disabled": 0, "lat": 38.90256683333333, "rental_uris": {"ios": "https://dc.lft.to/lastmile_qr_scan", "android": "https://dc.lft.to/lastmile_qr_scan"}, "type": "electric_scooter", "lon": -77.04554116666667, "bike_id": "f6fab0024c1540258e73ad525ea66103", "fusion_lon": 0.0}, {"is_reserved": 0, "fusion_lat": 0.0, "name": "1867866cf360e0a907bbbcdcfbd763c6", "is_disabled": 0, "lat": 38.90303433333333, "rental_uris": {"ios": "https://dc.lft.to/lastmile_qr_scan", "android": "https://dc.lft.to/lastmile_qr_scan"}, "type": "electric_scooter", "lon": -77.04684916666666, "bike_id": "1867866cf360e0a907bbbcdcfbd763c6", "fusion_lon": 0.0}, {"is_reserved": 0, "fusion_lat": 0.0, "name": "1e1df7176e2e08d85eacf8bd83beab4a", "is_disabled": 0, "lat": 38.921605666666665, "rental_uris": {"ios": "https://dc.lft.to/lastmile_qr_scan", "android": "https://dc.lft.to/lastmile_qr_scan"}, "type": "electric_scooter", "lon": -77.03834383333333, "bike_id": "1e1df7176e2e08d85eacf8bd83beab4a", "fusion_lon": 0.0}, {"is_reserved": 0, "fusion_lat": 0.0, "name": "0df80dfe224c5d36a8f5f88228272732", "is_disabled": 0, "lat": 38.90863066666667, "rental_uris": {"ios": "https://dc.lft.to/lastmile_qr_scan", "android": "https://dc.lft.to/lastmile_qr_scan"}, "type": "electric_scooter", "lon": -77.01833733333333, "bike_id": "0df80dfe224c5d36a8f5f88228272732", "fusion_lon": 0.0}, {"is_reserved": 0, "fusion_lat": 0.0, "name": "1d6de6be8c692f87921963202c088c83", "is_disabled": 0, "lat": 38.8949165, "rental_uris": {"ios": "https://dc.lft.to/lastmile_qr_scan", "android": "https://dc.lft.to/lastmile_qr_scan"}, "type": "electric_scooter", "lon": -77.055063, "bike_id": "1d6de6be8c692f87921963202c088c83", "fusion_lon": 0.0}, {"is_reserved": 0, "fusion_lat": 0.0, "name": "4ac823546cf1902f580c67433e42d257", "is_disabled": 0, "lat": 38.891647, "rental_uris": {"ios": "https://dc.lft.to/lastmile_qr_scan", "android": "https://dc.lft.to/lastmile_qr_scan"}, "type": "electric_scooter", "lon": -76.99149733333333, "bike_id": "4ac823546cf1902f580c67433e42d257", "fusion_lon": 0.0}, {"is_reserved": 0, "fusion_lat": 0.0, "name": "9948ed08ef40e75a6c86151228345501", "is_disabled": 0, "lat": 38.88148283333334, "rental_uris": {"ios": "https://dc.lft.to/lastmile_qr_scan", "android": "https://dc.lft.to/lastmile_qr_scan"}, "type": "electric_bike", "lon": -77.0129605, "bike_id": "9948ed08ef40e75a6c86151228345501", "fusion_lon": 0.0}, {"is_reserved": 0, "fusion_lat": 0.0, "name": "17637cda50af6630f49e14ee026ddefa", "is_disabled": 0, "lat": 38.92040316666667, "rental_uris": {"ios": "https://dc.lft.to/lastmile_qr_scan", "android": "https://dc.lft.to/lastmile_qr_scan"}, "type": "electric_bike", "lon": -77.0634675, "bike_id": "17637cda50af6630f49e14ee026ddefa", "fusion_lon": 0.0}, {"is_reserved": 0, "fusion_lat": 0.0, "name": "52b8b108442190b7068da04cc2a39731", "is_disabled": 0, "lat": 38.899242666666666, "rental_uris": {"ios": "https://dc.lft.to/lastmile_qr_scan", "android": "https://dc.lft.to/lastmile_qr_scan"}, "type": "electric_scooter", "lon": -76.94578083333333, "bike_id": "52b8b108442190b7068da04cc2a39731", "fusion_lon": 0.0}, {"is_reserved": 0, "fusion_lat": 0.0, "name": "7495ced262e6974a10d8586c2a686a11", "is_disabled": 0, "lat": 38.92492, "rental_uris": {"ios": "https://dc.lft.to/lastmile_qr_scan", "android": "https://dc.lft.to/lastmile_qr_scan"}, "type": "electric_scooter", "lon": -77.03178016666666, "bike_id": "7495ced262e6974a10d8586c2a686a11", "fusion_lon": 0.0}, {"is_reserved": 0, "fusion_lat": 0.0, "name": "eccbe381174dbca34e201bd256e276e4", "is_disabled": 0, "lat": 38.9563345, "rental_uris": {"ios": "https://dc.lft.to/lastmile_qr_scan", "android": "https://dc.lft.to/lastmile_qr_scan"}, "type": "electric_bike", "lon": -76.93861783333334, "bike_id": "eccbe381174dbca34e201bd256e276e4", "fusion_lon": 0.0}, {"is_reserved": 0, "fusion_lat": 0.0, "name": "ce273d4f617a0ba29ef2e2e6830a06a3", "is_disabled": 0, "lat": 38.901441166666665, "rental_uris": {"ios": "https://dc.lft.to/lastmile_qr_scan", "android": "https://dc.lft.to/lastmile_qr_scan"}, "type": "electric_scooter", "lon": -77.03753816666666, "bike_id": "ce273d4f617a0ba29ef2e2e6830a06a3", "fusion_lon": 0.0}, {"is_reserved": 0, "fusion_lat": 0.0, "name": "25cc1dca411ca77ebf9f45c99af35a50", "is_disabled": 0, "lat": 38.92713116666667, "rental_uris": {"ios": "https://dc.lft.to/lastmile_qr_scan", "android": "https://dc.lft.to/lastmile_qr_scan"}, "type": "electric_scooter", "lon": -77.05991833333333, "bike_id": "25cc1dca411ca77ebf9f45c99af35a50", "fusion_lon": 0.0}, {"is_reserved": 0, "fusion_lat": 0.0, "name": "e89987cd6a0a7c7a66525e24df5fe0ff", "is_disabled": 0, "lat": 39.02622233333334, "rental_uris": {"ios": "https://dc.lft.to/lastmile_qr_scan", "android": "https://dc.lft.to/lastmile_qr_scan"}, "type": "electric_bike", "lon": -77.03876866666667, "bike_id": "e89987cd6a0a7c7a66525e24df5fe0ff", "fusion_lon": 0.0}, {"is_reserved": 0, "fusion_lat": 0.0, "name": "80360e1defb599246b33bb87e77af419", "is_disabled": 0, "lat": 38.907231, "rental_uris": {"ios": "https://dc.lft.to/lastmile_qr_scan", "android": "https://dc.lft.to/lastmile_qr_scan"}, "type": "electric_scooter", "lon": -77.00498866666666, "bike_id": "80360e1defb599246b33bb87e77af419", "fusion_lon": 0.0}, {"is_reserved": 0, "fusion_lat": 0.0, "name": "1cc68129e55047f8ac9cbd7e8621a2a8", "is_disabled": 0, "lat": 38.85782433333333, "rental_uris": {"ios": "https://dc.lft.to/lastmile_qr_scan", "android": "https://dc.lft.to/lastmile_qr_scan"}, "type": "electric_bike", "lon": -76.98750983333333, "bike_id": "1cc68129e55047f8ac9cbd7e8621a2a8", "fusion_lon": 0.0}, {"is_reserved": 0, "fusion_lat": 0.0, "name": "92735a422f73b4ca9904b6e8dbccf519", "is_disabled": 0, "lat": 38.915463, "rental_uris": {"ios": "https://dc.lft.to/lastmile_qr_scan", "android": "https://dc.lft.to/lastmile_qr_scan"}, "type": "electric_scooter", "lon": -77.044551, "bike_id": "92735a422f73b4ca9904b6e8dbccf519", "fusion_lon": 0.0}, {"is_reserved": 0, "fusion_lat": 0.0, "name": "7a51a3fb2d715aaff7830c5d80dcc96f", "is_disabled": 0, "lat": 38.91308266666667, "rental_uris": {"ios": "https://dc.lft.to/lastmile_qr_scan", "android": "https://dc.lft.to/lastmile_qr_scan"}, "type": "electric_scooter", "lon": -77.02855366666667, "bike_id": "7a51a3fb2d715aaff7830c5d80dcc96f", "fusion_lon": 0.0}, {"is_reserved": 0, "fusion_lat": 0.0, "name": "753105e71bf94dcad0bee2e5aefbea8e", "is_disabled": 0, "lat": 38.90056166666667, "rental_uris": {"ios": "https://dc.lft.to/lastmile_qr_scan", "android": "https://dc.lft.to/lastmile_qr_scan"}, "type": "electric_scooter", "lon": -77.0474215, "bike_id": "753105e71bf94dcad0bee2e5aefbea8e", "fusion_lon": 0.0}, {"is_reserved": 0, "fusion_lat": 0.0, "name": "11b23a4cedd600a52434c75d4a313031", "is_disabled": 0, "lat": 38.912832333333334, "rental_uris": {"ios": "https://dc.lft.to/lastmile_qr_scan", "android": "https://dc.lft.to/lastmile_qr_scan"}, "type": "electric_scooter", "lon": -77.06796633333333, "bike_id": "11b23a4cedd600a52434c75d4a313031", "fusion_lon": 0.0}, {"is_reserved": 0, "fusion_lat": 0.0, "name": "4601f5a8582f52541791c5b6f686c169", "is_disabled": 0, "lat": 38.8847985, "rental_uris": {"ios": "https://dc.lft.to/lastmile_qr_scan", "android": "https://dc.lft.to/lastmile_qr_scan"}, "type": "electric_scooter", "lon": -77.0334475, "bike_id": "4601f5a8582f52541791c5b6f686c169", "fusion_lon": 0.0}, {"is_reserved": 0, "fusion_lat": 0.0, "name": "5537df47d61fb5c190a7917e990dcd0a", "is_disabled": 0, "lat": 38.90166383333333, "rental_uris": {"ios": "https://dc.lft.to/lastmile_qr_scan", "android": "https://dc.lft.to/lastmile_qr_scan"}, "type": "electric_scooter", "lon": -77.0221035, "bike_id": "5537df47d61fb5c190a7917e990dcd0a", "fusion_lon": 0.0}, {"is_reserved": 0, "fusion_lat": 0.0, "name": "b7358ef81d404f571185db83e2fdf86d", "is_disabled": 0, "lat": 38.933440166666664, "rental_uris": {"ios": "https://dc.lft.to/lastmile_qr_scan", "android": "https://dc.lft.to/lastmile_qr_scan"}, "type": "electric_scooter", "lon": -77.027409, "bike_id": "b7358ef81d404f571185db83e2fdf86d", "fusion_lon": 0.0}, {"is_reserved": 0, "fusion_lat": 0.0, "name": "43000e65a0b99fbe073787266166040d", "is_disabled": 0, "lat": 38.8716815, "rental_uris": {"ios": "https://dc.lft.to/lastmile_qr_scan", "android": "https://dc.lft.to/lastmile_qr_scan"}, "type": "electric_scooter", "lon": -77.00632883333333, "bike_id": "43000e65a0b99fbe073787266166040d", "fusion_lon": 0.0}, {"is_reserved": 0, "fusion_lat": 0.0, "name": "3b160e5b3b780e25ad4e5df504181975", "is_disabled": 0, "lat": 38.887679166666665, "rental_uris": {"ios": "https://dc.lft.to/lastmile_qr_scan", "android": "https://dc.lft.to/lastmile_qr_scan"}, "type": "electric_scooter", "lon": -76.9772975, "bike_id": "3b160e5b3b780e25ad4e5df504181975", "fusion_lon": 0.0}, {"is_reserved": 0, "fusion_lat": 0.0, "name": "0f0d4df14fc2d306516bb1fc9ac55f36", "is_disabled": 0, "lat": 38.9126555, "rental_uris": {"ios": "https://dc.lft.to/lastmile_qr_scan", "android": "https://dc.lft.to/lastmile_qr_scan"}, "type": "electric_scooter", "lon": -77.04767883333334, "bike_id": "0f0d4df14fc2d306516bb1fc9ac55f36", "fusion_lon": 0.0}, {"is_reserved": 0, "fusion_lat": 0.0, "name": "8eccbaa8967d08ec9d05b944dd78194c", "is_disabled": 0, "lat": 38.887656166666666, "rental_uris": {"ios": "https://dc.lft.to/lastmile_qr_scan", "android": "https://dc.lft.to/lastmile_qr_scan"}, "type": "electric_scooter", "lon": -76.97730766666666, "bike_id": "8eccbaa8967d08ec9d05b944dd78194c", "fusion_lon": 0.0}, {"is_reserved": 0, "fusion_lat": 0.0, "name": "dfce70b689508eb514b66a4aa2db9533", "is_disabled": 0, "lat": 38.91790183333333, "rental_uris": {"ios": "https://dc.lft.to/lastmile_qr_scan", "android": "https://dc.lft.to/lastmile_qr_scan"}, "type": "electric_scooter", "lon": -77.02326466666666, "bike_id": "dfce70b689508eb514b66a4aa2db9533", "fusion_lon": 0.0}, {"is_reserved": 0, "fusion_lat": 0.0, "name": "4ad4234009a3541f1b76dc98bab2570c", "is_disabled": 0, "lat": 38.898673, "rental_uris": {"ios": "https://dc.lft.to/lastmile_qr_scan", "android": "https://dc.lft.to/lastmile_qr_scan"}, "type": "electric_scooter", "lon": -76.94666283333333, "bike_id": "4ad4234009a3541f1b76dc98bab2570c", "fusion_lon": 0.0}, {"is_reserved": 0, "fusion_lat": 0.0, "name": "a49a552e58653d1a891f42017d690702", "is_disabled": 0, "lat": 38.924663333333335, "rental_uris": {"ios": "https://dc.lft.to/lastmile_qr_scan", "android": "https://dc.lft.to/lastmile_qr_scan"}, "type": "electric_scooter", "lon": -77.02195816666666, "bike_id": "a49a552e58653d1a891f42017d690702", "fusion_lon": 0.0}, {"is_reserved": 0, "fusion_lat": 0.0, "name": "47f37b22a22f39911dacc7e7c5c5a865", "is_disabled": 0, "lat": 38.91808783333333, "rental_uris": {"ios": "https://dc.lft.to/lastmile_qr_scan", "android": "https://dc.lft.to/lastmile_qr_scan"}, "type": "electric_scooter", "lon": -77.02681316666667, "bike_id": "47f37b22a22f39911dacc7e7c5c5a865", "fusion_lon": 0.0}, {"is_reserved": 0, "fusion_lat": 0.0, "name": "eb28019426871524189f621bcf185376", "is_disabled": 0, "lat": 38.9038635, "rental_uris": {"ios": "https://dc.lft.to/lastmile_qr_scan", "android": "https://dc.lft.to/lastmile_qr_scan"}, "type": "electric_scooter", "lon": -77.061038, "bike_id": "eb28019426871524189f621bcf185376", "fusion_lon": 0.0}, {"is_reserved": 0, "fusion_lat": 0.0, "name": "fd16057ee72c7f2b61e352e4928829c1", "is_disabled": 0, "lat": 38.90745966666667, "rental_uris": {"ios": "https://dc.lft.to/lastmile_qr_scan", "android": "https://dc.lft.to/lastmile_qr_scan"}, "type": "electric_scooter", "lon": -77.04160116666667, "bike_id": "fd16057ee72c7f2b61e352e4928829c1", "fusion_lon": 0.0}, {"is_reserved": 0, "fusion_lat": 0.0, "name": "46933fc785c1999981f6b593489d4a53", "is_disabled": 0, "lat": 38.94450716666667, "rental_uris": {"ios": "https://dc.lft.to/lastmile_qr_scan", "android": "https://dc.lft.to/lastmile_qr_scan"}, "type": "electric_scooter", "lon": -77.02801266666667, "bike_id": "46933fc785c1999981f6b593489d4a53", "fusion_lon": 0.0}, {"is_reserved": 0, "fusion_lat": 0.0, "name": "4b8832b9376acfb58dc4606d3b408d30", "is_disabled": 0, "lat": 38.90124483333334, "rental_uris": {"ios": "https://dc.lft.to/lastmile_qr_scan", "android": "https://dc.lft.to/lastmile_qr_scan"}, "type": "electric_scooter", "lon": -77.04337433333333, "bike_id": "4b8832b9376acfb58dc4606d3b408d30", "fusion_lon": 0.0}, {"is_reserved": 0, "fusion_lat": 0.0, "name": "449e83a4e6c5705481d0797d0ddb80e3", "is_disabled": 0, "lat": 38.92049183333334, "rental_uris": {"ios": "https://dc.lft.to/lastmile_qr_scan", "android": "https://dc.lft.to/lastmile_qr_scan"}, "type": "electric_scooter", "lon": -77.01723033333333, "bike_id": "449e83a4e6c5705481d0797d0ddb80e3", "fusion_lon": 0.0}, {"is_reserved": 0, "fusion_lat": 0.0, "name": "629023adece60508eb0eb65adcea6d31", "is_disabled": 0, "lat": 38.884726666666666, "rental_uris": {"ios": "https://dc.lft.to/lastmile_qr_scan", "android": "https://dc.lft.to/lastmile_qr_scan"}, "type": "electric_scooter", "lon": -77.02492033333333, "bike_id": "629023adece60508eb0eb65adcea6d31", "fusion_lon": 0.0}, {"is_reserved": 0, "fusion_lat": 0.0, "name": "feaa5220b965738f81cf8a98f96c7717", "is_disabled": 0, "lat": 38.9308405, "rental_uris": {"ios": "https://dc.lft.to/lastmile_qr_scan", "android": "https://dc.lft.to/lastmile_qr_scan"}, "type": "electric_scooter", "lon": -77.00200283333334, "bike_id": "feaa5220b965738f81cf8a98f96c7717", "fusion_lon": 0.0}, {"is_reserved": 0, "fusion_lat": 0.0, "name": "5c73084c454e9df47e905e43461874eb", "is_disabled": 0, "lat": 38.9165135, "rental_uris": {"ios": "https://dc.lft.to/lastmile_qr_scan", "android": "https://dc.lft.to/lastmile_qr_scan"}, "type": "electric_scooter", "lon": -77.046245, "bike_id": "5c73084c454e9df47e905e43461874eb", "fusion_lon": 0.0}, {"is_reserved": 0, "fusion_lat": 0.0, "name": "ed95baffbd068b43ecaf02417dfef4d5", "is_disabled": 0, "lat": 38.918623333333336, "rental_uris": {"ios": "https://dc.lft.to/lastmile_qr_scan", "android": "https://dc.lft.to/lastmile_qr_scan"}, "type": "electric_scooter", "lon": -77.03492883333334, "bike_id": "ed95baffbd068b43ecaf02417dfef4d5", "fusion_lon": 0.0}, {"is_reserved": 0, "fusion_lat": 0.0, "name": "95859f9f98ea3e662a5c6ba9485a10b4", "is_disabled": 0, "lat": 38.916408, "rental_uris": {"ios": "https://dc.lft.to/lastmile_qr_scan", "android": "https://dc.lft.to/lastmile_qr_scan"}, "type": "electric_scooter", "lon": -77.02240466666667, "bike_id": "95859f9f98ea3e662a5c6ba9485a10b4", "fusion_lon": 0.0}, {"is_reserved": 0, "fusion_lat": 0.0, "name": "e8c330ddced53d30c9ae82bb89228608", "is_disabled": 0, "lat": 38.9156815, "rental_uris": {"ios": "https://dc.lft.to/lastmile_qr_scan", "android": "https://dc.lft.to/lastmile_qr_scan"}, "type": "electric_scooter", "lon": -77.0378575, "bike_id": "e8c330ddced53d30c9ae82bb89228608", "fusion_lon": 0.0}, {"is_reserved": 0, "fusion_lat": 0.0, "name": "8f1347c50c8529dc10283972309e4a9f", "is_disabled": 0, "lat": 38.920554833333334, "rental_uris": {"ios": "https://dc.lft.to/lastmile_qr_scan", "android": "https://dc.lft.to/lastmile_qr_scan"}, "type": "electric_scooter", "lon": -76.99882083333334, "bike_id": "8f1347c50c8529dc10283972309e4a9f", "fusion_lon": 0.0}, {"is_reserved": 0, "fusion_lat": 0.0, "name": "f267a232ad6b18986c1688f09bbff6b1", "is_disabled": 0, "lat": 38.953565, "rental_uris": {"ios": "https://dc.lft.to/lastmile_qr_scan", "android": "https://dc.lft.to/lastmile_qr_scan"}, "type": "electric_scooter", "lon": -77.02568016666666, "bike_id": "f267a232ad6b18986c1688f09bbff6b1", "fusion_lon": 0.0}, {"is_reserved": 0, "fusion_lat": 0.0, "name": "adf37043732fcf196e1d95d9b5e4f891", "is_disabled": 0, "lat": 38.90025966666666, "rental_uris": {"ios": "https://dc.lft.to/lastmile_qr_scan", "android": "https://dc.lft.to/lastmile_qr_scan"}, "type": "electric_scooter", "lon": -76.99869516666666, "bike_id": "adf37043732fcf196e1d95d9b5e4f891", "fusion_lon": 0.0}, {"is_reserved": 0, "fusion_lat": 0.0, "name": "1dfad60d9f780c0ae0ce0baf146d96a8", "is_disabled": 0, "lat": 38.871764666666664, "rental_uris": {"ios": "https://dc.lft.to/lastmile_qr_scan", "android": "https://dc.lft.to/lastmile_qr_scan"}, "type": "electric_bike", "lon": -77.23394383333333, "bike_id": "1dfad60d9f780c0ae0ce0baf146d96a8", "fusion_lon": 0.0}, {"is_reserved": 0, "fusion_lat": 0.0, "name": "0d80a7880d53d0b3e5fb8d646adfae31", "is_disabled": 0, "lat": 38.9126425, "rental_uris": {"ios": "https://dc.lft.to/lastmile_qr_scan", "android": "https://dc.lft.to/lastmile_qr_scan"}, "type": "electric_scooter", "lon": -77.038712, "bike_id": "0d80a7880d53d0b3e5fb8d646adfae31", "fusion_lon": 0.0}, {"is_reserved": 0, "fusion_lat": 0.0, "name": "e1f9723933d04c90118d8c0310aa6287", "is_disabled": 0, "lat": 39.010760166666664, "rental_uris": {"ios": "https://dc.lft.to/lastmile_qr_scan", "android": "https://dc.lft.to/lastmile_qr_scan"}, "type": "electric_bike", "lon": -76.91063016666666, "bike_id": "e1f9723933d04c90118d8c0310aa6287", "fusion_lon": 0.0}, {"is_reserved": 0, "fusion_lat": 0.0, "name": "673bf8f94a2a1a2f9b52e843bae77d42", "is_disabled": 0, "lat": 38.9240595, "rental_uris": {"ios": "https://dc.lft.to/lastmile_qr_scan", "android": "https://dc.lft.to/lastmile_qr_scan"}, "type": "electric_scooter", "lon": -77.0253645, "bike_id": "673bf8f94a2a1a2f9b52e843bae77d42", "fusion_lon": 0.0}, {"is_reserved": 0, "fusion_lat": 0.0, "name": "93f4bd077bcdf1ae5d59a823b9b650e6", "is_disabled": 0, "lat": 38.90753216666667, "rental_uris": {"ios": "https://dc.lft.to/lastmile_qr_scan", "android": "https://dc.lft.to/lastmile_qr_scan"}, "type": "electric_scooter", "lon": -77.04548466666667, "bike_id": "93f4bd077bcdf1ae5d59a823b9b650e6", "fusion_lon": 0.0}, {"is_reserved": 0, "fusion_lat": 0.0, "name": "71450dcc6c456222c33d79d9c3afccc9", "is_disabled": 0, "lat": 38.90648083333333, "rental_uris": {"ios": "https://dc.lft.to/lastmile_qr_scan", "android": "https://dc.lft.to/lastmile_qr_scan"}, "type": "electric_scooter", "lon": -77.05319866666666, "bike_id": "71450dcc6c456222c33d79d9c3afccc9", "fusion_lon": 0.0}, {"is_reserved": 0, "fusion_lat": 0.0, "name": "edeca9dbd09450acacadf0688980985f", "is_disabled": 0, "lat": 38.92173533333333, "rental_uris": {"ios": "https://dc.lft.to/lastmile_qr_scan", "android": "https://dc.lft.to/lastmile_qr_scan"}, "type": "electric_scooter", "lon": -77.04345783333333, "bike_id": "edeca9dbd09450acacadf0688980985f", "fusion_lon": 0.0}, {"is_reserved": 0, "fusion_lat": 0.0, "name": "d21c4db4ba59d9c3715384cc64ab0533", "is_disabled": 0, "lat": 38.911174, "rental_uris": {"ios": "https://dc.lft.to/lastmile_qr_scan", "android": "https://dc.lft.to/lastmile_qr_scan"}, "type": "electric_scooter", "lon": -77.00604266666667, "bike_id": "d21c4db4ba59d9c3715384cc64ab0533", "fusion_lon": 0.0}, {"is_reserved": 0, "fusion_lat": 0.0, "name": "0a7ec428a7e61a64d1d7bcc0b77b1431", "is_disabled": 0, "lat": 38.895438166666665, "rental_uris": {"ios": "https://dc.lft.to/lastmile_qr_scan", "android": "https://dc.lft.to/lastmile_qr_scan"}, "type": "electric_scooter", "lon": -76.9834, "bike_id": "0a7ec428a7e61a64d1d7bcc0b77b1431", "fusion_lon": 0.0}, {"is_reserved": 0, "fusion_lat": 0.0, "name": "7638bee05146358578f9f134a41c5a57", "is_disabled": 0, "lat": 38.87666933333333, "rental_uris": {"ios": "https://dc.lft.to/lastmile_qr_scan", "android": "https://dc.lft.to/lastmile_qr_scan"}, "type": "electric_scooter", "lon": -77.00065266666667, "bike_id": "7638bee05146358578f9f134a41c5a57", "fusion_lon": 0.0}, {"is_reserved": 0, "fusion_lat": 0.0, "name": "2851ff627dd2847d3145ecce3d0c9a94", "is_disabled": 0, "lat": 38.89841533333333, "rental_uris": {"ios": "https://dc.lft.to/lastmile_qr_scan", "android": "https://dc.lft.to/lastmile_qr_scan"}, "type": "electric_scooter", "lon": -77.02208483333334, "bike_id": "2851ff627dd2847d3145ecce3d0c9a94", "fusion_lon": 0.0}, {"is_reserved": 0, "fusion_lat": 0.0, "name": "8adcc6076e28ae360d841029651b5380", "is_disabled": 0, "lat": 38.80739116666667, "rental_uris": {"ios": "https://dc.lft.to/lastmile_qr_scan", "android": "https://dc.lft.to/lastmile_qr_scan"}, "type": "electric_bike", "lon": -77.096894, "bike_id": "8adcc6076e28ae360d841029651b5380", "fusion_lon": 0.0}, {"is_reserved": 0, "fusion_lat": 0.0, "name": "c7914a7e52e2e360bd150a457284d1dd", "is_disabled": 0, "lat": 38.9081025, "rental_uris": {"ios": "https://dc.lft.to/lastmile_qr_scan", "android": "https://dc.lft.to/lastmile_qr_scan"}, "type": "electric_scooter", "lon": -77.06356216666667, "bike_id": "c7914a7e52e2e360bd150a457284d1dd", "fusion_lon": 0.0}, {"is_reserved": 0, "fusion_lat": 0.0, "name": "a8109edf5ebe609aaaba00e65e178f80", "is_disabled": 0, "lat": 38.897261666666665, "rental_uris": {"ios": "https://dc.lft.to/lastmile_qr_scan", "android": "https://dc.lft.to/lastmile_qr_scan"}, "type": "electric_scooter", "lon": -77.04989683333334, "bike_id": "a8109edf5ebe609aaaba00e65e178f80", "fusion_lon": 0.0}, {"is_reserved": 0, "fusion_lat": 0.0, "name": "2ff1f94d6eab6b770ad04f02cd163e8f", "is_disabled": 0, "lat": 38.924223833333336, "rental_uris": {"ios": "https://dc.lft.to/lastmile_qr_scan", "android": "https://dc.lft.to/lastmile_qr_scan"}, "type": "electric_scooter", "lon": -77.02009133333334, "bike_id": "2ff1f94d6eab6b770ad04f02cd163e8f", "fusion_lon": 0.0}, {"is_reserved": 0, "fusion_lat": 0.0, "name": "1df4e0abf495e1886a51c30c9d26ef6f", "is_disabled": 0, "lat": 38.9311765, "rental_uris": {"ios": "https://dc.lft.to/lastmile_qr_scan", "android": "https://dc.lft.to/lastmile_qr_scan"}, "type": "electric_scooter", "lon": -77.03014033333334, "bike_id": "1df4e0abf495e1886a51c30c9d26ef6f", "fusion_lon": 0.0}, {"is_reserved": 0, "fusion_lat": 0.0, "name": "2258a93ada5ffe7d353773bd9c232962", "is_disabled": 0, "lat": 38.93166, "rental_uris": {"ios": "https://dc.lft.to/lastmile_qr_scan", "android": "https://dc.lft.to/lastmile_qr_scan"}, "type": "electric_scooter", "lon": -77.0561155, "bike_id": "2258a93ada5ffe7d353773bd9c232962", "fusion_lon": 0.0}, {"is_reserved": 0, "fusion_lat": 0.0, "name": "1d7013c5380a18d3a0677591fb4b54b9", "is_disabled": 0, "lat": 38.91254933333333, "rental_uris": {"ios": "https://dc.lft.to/lastmile_qr_scan", "android": "https://dc.lft.to/lastmile_qr_scan"}, "type": "electric_scooter", "lon": -77.038649, "bike_id": "1d7013c5380a18d3a0677591fb4b54b9", "fusion_lon": 0.0}, {"is_reserved": 0, "fusion_lat": 0.0, "name": "b95722978c0a400f425b42ebb8178ed3", "is_disabled": 0, "lat": 38.903677, "rental_uris": {"ios": "https://dc.lft.to/lastmile_qr_scan", "android": "https://dc.lft.to/lastmile_qr_scan"}, "type": "electric_scooter", "lon": -77.02186216666666, "bike_id": "b95722978c0a400f425b42ebb8178ed3", "fusion_lon": 0.0}, {"is_reserved": 0, "fusion_lat": 0.0, "name": "e7f157dbf01f4f8d118754d4f152b506", "is_disabled": 0, "lat": 38.90598166666667, "rental_uris": {"ios": "https://dc.lft.to/lastmile_qr_scan", "android": "https://dc.lft.to/lastmile_qr_scan"}, "type": "electric_scooter", "lon": -77.0260205, "bike_id": "e7f157dbf01f4f8d118754d4f152b506", "fusion_lon": 0.0}, {"is_reserved": 0, "fusion_lat": 0.0, "name": "29b40799c2e5bd3442e70ad5421231fd", "is_disabled": 0, "lat": 39.084340166666664, "rental_uris": {"ios": "https://dc.lft.to/lastmile_qr_scan", "android": "https://dc.lft.to/lastmile_qr_scan"}, "type": "electric_bike", "lon": -76.95137216666667, "bike_id": "29b40799c2e5bd3442e70ad5421231fd", "fusion_lon": 0.0}, {"is_reserved": 0, "fusion_lat": 0.0, "name": "6f23c8a1da09b92153427fa1c0da901b", "is_disabled": 0, "lat": 38.90423766666667, "rental_uris": {"ios": "https://dc.lft.to/lastmile_qr_scan", "android": "https://dc.lft.to/lastmile_qr_scan"}, "type": "electric_scooter", "lon": -77.02723216666666, "bike_id": "6f23c8a1da09b92153427fa1c0da901b", "fusion_lon": 0.0}, {"is_reserved": 0, "fusion_lat": 0.0, "name": "77cbab4d4bc9ba20829d5038ec35f16c", "is_disabled": 0, "lat": 38.890072, "rental_uris": {"ios": "https://dc.lft.to/lastmile_qr_scan", "android": "https://dc.lft.to/lastmile_qr_scan"}, "type": "electric_scooter", "lon": -76.937465, "bike_id": "77cbab4d4bc9ba20829d5038ec35f16c", "fusion_lon": 0.0}, {"is_reserved": 0, "fusion_lat": 0.0, "name": "85b685fb3e1fc7a25d767be607f8f0a6", "is_disabled": 0, "lat": 38.92714016666667, "rental_uris": {"ios": "https://dc.lft.to/lastmile_qr_scan", "android": "https://dc.lft.to/lastmile_qr_scan"}, "type": "electric_scooter", "lon": -77.02077316666667, "bike_id": "85b685fb3e1fc7a25d767be607f8f0a6", "fusion_lon": 0.0}, {"is_reserved": 0, "fusion_lat": 0.0, "name": "65a472509b7fdcb2fa51fba2de4cc277", "is_disabled": 0, "lat": 38.913676333333335, "rental_uris": {"ios": "https://dc.lft.to/lastmile_qr_scan", "android": "https://dc.lft.to/lastmile_qr_scan"}, "type": "electric_scooter", "lon": -77.0671025, "bike_id": "65a472509b7fdcb2fa51fba2de4cc277", "fusion_lon": 0.0}, {"is_reserved": 0, "fusion_lat": 0.0, "name": "9d5eba4e68e50e849251905071d6364b", "is_disabled": 0, "lat": 38.909453666666664, "rental_uris": {"ios": "https://dc.lft.to/lastmile_qr_scan", "android": "https://dc.lft.to/lastmile_qr_scan"}, "type": "electric_scooter", "lon": -76.9358825, "bike_id": "9d5eba4e68e50e849251905071d6364b", "fusion_lon": 0.0}, {"is_reserved": 0, "fusion_lat": 0.0, "name": "ac54ebf4707f32bac9286a75ee6e7abe", "is_disabled": 0, "lat": 38.917049166666665, "rental_uris": {"ios": "https://dc.lft.to/lastmile_qr_scan", "android": "https://dc.lft.to/lastmile_qr_scan"}, "type": "electric_scooter", "lon": -77.03897116666667, "bike_id": "ac54ebf4707f32bac9286a75ee6e7abe", "fusion_lon": 0.0}, {"is_reserved": 0, "fusion_lat": 0.0, "name": "5a0d69193f3f598d33a9327d36302261", "is_disabled": 0, "lat": 38.9199675, "rental_uris": {"ios": "https://dc.lft.to/lastmile_qr_scan", "android": "https://dc.lft.to/lastmile_qr_scan"}, "type": "electric_scooter", "lon": -77.01796066666667, "bike_id": "5a0d69193f3f598d33a9327d36302261", "fusion_lon": 0.0}, {"is_reserved": 0, "fusion_lat": 0.0, "name": "47a6f8281a15da21467b7b898b514e56", "is_disabled": 0, "lat": 38.909144833333336, "rental_uris": {"ios": "https://dc.lft.to/lastmile_qr_scan", "android": "https://dc.lft.to/lastmile_qr_scan"}, "type": "electric_scooter", "lon": -77.036602, "bike_id": "47a6f8281a15da21467b7b898b514e56", "fusion_lon": 0.0}, {"is_reserved": 0, "fusion_lat": 0.0, "name": "b76d8115b7df4a8a7d146ef958aec302", "is_disabled": 0, "lat": 38.921888333333335, "rental_uris": {"ios": "https://dc.lft.to/lastmile_qr_scan", "android": "https://dc.lft.to/lastmile_qr_scan"}, "type": "electric_scooter", "lon": -77.01849333333334, "bike_id": "b76d8115b7df4a8a7d146ef958aec302", "fusion_lon": 0.0}, {"is_reserved": 0, "fusion_lat": 0.0, "name": "3b4cf38063fbfb4dce609225615b2746", "is_disabled": 0, "lat": 38.90030633333333, "rental_uris": {"ios": "https://dc.lft.to/lastmile_qr_scan", "android": "https://dc.lft.to/lastmile_qr_scan"}, "type": "electric_scooter", "lon": -77.01155183333333, "bike_id": "3b4cf38063fbfb4dce609225615b2746", "fusion_lon": 0.0}, {"is_reserved": 0, "fusion_lat": 0.0, "name": "4c194fb8afdfceea1aa0551906f547af", "is_disabled": 0, "lat": 38.92963783333333, "rental_uris": {"ios": "https://dc.lft.to/lastmile_qr_scan", "android": "https://dc.lft.to/lastmile_qr_scan"}, "type": "electric_scooter", "lon": -77.03151416666667, "bike_id": "4c194fb8afdfceea1aa0551906f547af", "fusion_lon": 0.0}, {"is_reserved": 0, "fusion_lat": 0.0, "name": "bbc8317af6961ed7c338517597243dc0", "is_disabled": 0, "lat": 38.92239216666667, "rental_uris": {"ios": "https://dc.lft.to/lastmile_qr_scan", "android": "https://dc.lft.to/lastmile_qr_scan"}, "type": "electric_scooter", "lon": -77.0366415, "bike_id": "bbc8317af6961ed7c338517597243dc0", "fusion_lon": 0.0}, {"is_reserved": 0, "fusion_lat": 0.0, "name": "c3a5c5414d36299734e746ca214b44ad", "is_disabled": 0, "lat": 38.9206285, "rental_uris": {"ios": "https://dc.lft.to/lastmile_qr_scan", "android": "https://dc.lft.to/lastmile_qr_scan"}, "type": "electric_scooter", "lon": -77.04194333333334, "bike_id": "c3a5c5414d36299734e746ca214b44ad", "fusion_lon": 0.0}, {"is_reserved": 0, "fusion_lat": 0.0, "name": "b2d5ce05525cdbe7a24a01b8e86183b5", "is_disabled": 0, "lat": 38.920619333333335, "rental_uris": {"ios": "https://dc.lft.to/lastmile_qr_scan", "android": "https://dc.lft.to/lastmile_qr_scan"}, "type": "electric_scooter", "lon": -77.02294016666667, "bike_id": "b2d5ce05525cdbe7a24a01b8e86183b5", "fusion_lon": 0.0}, {"is_reserved": 0, "fusion_lat": 0.0, "name": "619ea3b3eb333ff1c3d81a653c02fcf0", "is_disabled": 0, "lat": 38.93514566666666, "rental_uris": {"ios": "https://dc.lft.to/lastmile_qr_scan", "android": "https://dc.lft.to/lastmile_qr_scan"}, "type": "electric_bike", "lon": -76.983492, "bike_id": "619ea3b3eb333ff1c3d81a653c02fcf0", "fusion_lon": 0.0}, {"is_reserved": 0, "fusion_lat": 0.0, "name": "b825896771b85063ea3f6ebb43712d77", "is_disabled": 0, "lat": 38.895096833333334, "rental_uris": {"ios": "https://dc.lft.to/lastmile_qr_scan", "android": "https://dc.lft.to/lastmile_qr_scan"}, "type": "electric_scooter", "lon": -76.948827, "bike_id": "b825896771b85063ea3f6ebb43712d77", "fusion_lon": 0.0}, {"is_reserved": 0, "fusion_lat": 0.0, "name": "d61507acd4c43f14eabe166a4e8e9e69", "is_disabled": 0, "lat": 38.919174166666664, "rental_uris": {"ios": "https://dc.lft.to/lastmile_qr_scan", "android": "https://dc.lft.to/lastmile_qr_scan"}, "type": "electric_scooter", "lon": -77.03334316666667, "bike_id": "d61507acd4c43f14eabe166a4e8e9e69", "fusion_lon": 0.0}, {"is_reserved": 0, "fusion_lat": 0.0, "name": "11c6d3acd48409b514e2cdc2197a719a", "is_disabled": 0, "lat": 38.99502066666667, "rental_uris": {"ios": "https://dc.lft.to/lastmile_qr_scan", "android": "https://dc.lft.to/lastmile_qr_scan"}, "type": "electric_bike", "lon": -77.00135933333334, "bike_id": "11c6d3acd48409b514e2cdc2197a719a", "fusion_lon": 0.0}, {"is_reserved": 0, "fusion_lat": 0.0, "name": "18aaf216618352ceb93bdf21e69e089c", "is_disabled": 0, "lat": 38.890063, "rental_uris": {"ios": "https://dc.lft.to/lastmile_qr_scan", "android": "https://dc.lft.to/lastmile_qr_scan"}, "type": "electric_scooter", "lon": -76.937476, "bike_id": "18aaf216618352ceb93bdf21e69e089c", "fusion_lon": 0.0}, {"is_reserved": 0, "fusion_lat": 0.0, "name": "98588eee27ceb0f185b1f04b6d094e85", "is_disabled": 0, "lat": 38.87842033333333, "rental_uris": {"ios": "https://dc.lft.to/lastmile_qr_scan", "android": "https://dc.lft.to/lastmile_qr_scan"}, "type": "electric_scooter", "lon": -76.9313455, "bike_id": "98588eee27ceb0f185b1f04b6d094e85", "fusion_lon": 0.0}, {"is_reserved": 0, "fusion_lat": 0.0, "name": "680aab1a372b57c4a32401554eb518b7", "is_disabled": 0, "lat": 38.910321, "rental_uris": {"ios": "https://dc.lft.to/lastmile_qr_scan", "android": "https://dc.lft.to/lastmile_qr_scan"}, "type": "electric_scooter", "lon": -77.03468116666667, "bike_id": "680aab1a372b57c4a32401554eb518b7", "fusion_lon": 0.0}, {"is_reserved": 0, "fusion_lat": 0.0, "name": "439adad41eb2f992ee90960948b08ec6", "is_disabled": 0, "lat": 39.01068716666666, "rental_uris": {"ios": "https://dc.lft.to/lastmile_qr_scan", "android": "https://dc.lft.to/lastmile_qr_scan"}, "type": "electric_bike", "lon": -76.92238066666667, "bike_id": "439adad41eb2f992ee90960948b08ec6", "fusion_lon": 0.0}, {"is_reserved": 0, "fusion_lat": 0.0, "name": "769f81a0a83a01da9c221ef2e8300811", "is_disabled": 0, "lat": 38.92636383333333, "rental_uris": {"ios": "https://dc.lft.to/lastmile_qr_scan", "android": "https://dc.lft.to/lastmile_qr_scan"}, "type": "electric_scooter", "lon": -77.02168966666666, "bike_id": "769f81a0a83a01da9c221ef2e8300811", "fusion_lon": 0.0}, {"is_reserved": 0, "fusion_lat": 0.0, "name": "2f32d1866534730333da7ba591750cfb", "is_disabled": 0, "lat": 38.91747, "rental_uris": {"ios": "https://dc.lft.to/lastmile_qr_scan", "android": "https://dc.lft.to/lastmile_qr_scan"}, "type": "electric_scooter", "lon": -77.0318535, "bike_id": "2f32d1866534730333da7ba591750cfb", "fusion_lon": 0.0}, {"is_reserved": 0, "fusion_lat": 0.0, "name": "7c5b44c7bc2ccf914ec3ba443c7d1b9a", "is_disabled": 0, "lat": 38.915620833333335, "rental_uris": {"ios": "https://dc.lft.to/lastmile_qr_scan", "android": "https://dc.lft.to/lastmile_qr_scan"}, "type": "electric_scooter", "lon": -77.03662016666667, "bike_id": "7c5b44c7bc2ccf914ec3ba443c7d1b9a", "fusion_lon": 0.0}, {"is_reserved": 0, "fusion_lat": 0.0, "name": "48441ce9931f96490210c40373510f1a", "is_disabled": 0, "lat": 38.9086165, "rental_uris": {"ios": "https://dc.lft.to/lastmile_qr_scan", "android": "https://dc.lft.to/lastmile_qr_scan"}, "type": "electric_scooter", "lon": -77.03033683333334, "bike_id": "48441ce9931f96490210c40373510f1a", "fusion_lon": 0.0}, {"is_reserved": 0, "fusion_lat": 0.0, "name": "6457bf2b8451fcc64e50055e45cb535d", "is_disabled": 0, "lat": 38.9206, "rental_uris": {"ios": "https://dc.lft.to/lastmile_qr_scan", "android": "https://dc.lft.to/lastmile_qr_scan"}, "type": "electric_scooter", "lon": -77.02561783333333, "bike_id": "6457bf2b8451fcc64e50055e45cb535d", "fusion_lon": 0.0}, {"is_reserved": 0, "fusion_lat": 0.0, "name": "bd7656f7bfdecf7e77b1f3b357454569", "is_disabled": 0, "lat": 38.90578516666667, "rental_uris": {"ios": "https://dc.lft.to/lastmile_qr_scan", "android": "https://dc.lft.to/lastmile_qr_scan"}, "type": "electric_scooter", "lon": -77.00605416666667, "bike_id": "bd7656f7bfdecf7e77b1f3b357454569", "fusion_lon": 0.0}, {"is_reserved": 0, "fusion_lat": 0.0, "name": "cd1e022ab364ed80203842b45bde298c", "is_disabled": 0, "lat": 38.9312775, "rental_uris": {"ios": "https://dc.lft.to/lastmile_qr_scan", "android": "https://dc.lft.to/lastmile_qr_scan"}, "type": "electric_scooter", "lon": -77.02198066666666, "bike_id": "cd1e022ab364ed80203842b45bde298c", "fusion_lon": 0.0}, {"is_reserved": 0, "fusion_lat": 0.0, "name": "866b93645bf3669a10dcc62930f07d79", "is_disabled": 0, "lat": 38.9004035, "rental_uris": {"ios": "https://dc.lft.to/lastmile_qr_scan", "android": "https://dc.lft.to/lastmile_qr_scan"}, "type": "electric_scooter", "lon": -76.98836466666667, "bike_id": "866b93645bf3669a10dcc62930f07d79", "fusion_lon": 0.0}, {"is_reserved": 0, "fusion_lat": 0.0, "name": "3cebafeab8bbaf433f4e00d1c7c5bf29", "is_disabled": 0, "lat": 38.939520333333334, "rental_uris": {"ios": "https://dc.lft.to/lastmile_qr_scan", "android": "https://dc.lft.to/lastmile_qr_scan"}, "type": "electric_scooter", "lon": -77.07242216666667, "bike_id": "3cebafeab8bbaf433f4e00d1c7c5bf29", "fusion_lon": 0.0}, {"is_reserved": 0, "fusion_lat": 0.0, "name": "2f9e11dba3e3f26a8a1af566aab9d852", "is_disabled": 0, "lat": 38.922422, "rental_uris": {"ios": "https://dc.lft.to/lastmile_qr_scan", "android": "https://dc.lft.to/lastmile_qr_scan"}, "type": "electric_scooter", "lon": -77.0366325, "bike_id": "2f9e11dba3e3f26a8a1af566aab9d852", "fusion_lon": 0.0}, {"is_reserved": 0, "fusion_lat": 0.0, "name": "059dc3d2c13b3dbef89c29922b2d8cc4", "is_disabled": 0, "lat": 38.915780166666664, "rental_uris": {"ios": "https://dc.lft.to/lastmile_qr_scan", "android": "https://dc.lft.to/lastmile_qr_scan"}, "type": "electric_scooter", "lon": -77.03198266666666, "bike_id": "059dc3d2c13b3dbef89c29922b2d8cc4", "fusion_lon": 0.0}, {"is_reserved": 0, "fusion_lat": 0.0, "name": "81add2c9d8f57966c5732fe3b772ab0f", "is_disabled": 0, "lat": 38.922515, "rental_uris": {"ios": "https://dc.lft.to/lastmile_qr_scan", "android": "https://dc.lft.to/lastmile_qr_scan"}, "type": "electric_scooter", "lon": -77.01969466666667, "bike_id": "81add2c9d8f57966c5732fe3b772ab0f", "fusion_lon": 0.0}, {"is_reserved": 0, "fusion_lat": 0.0, "name": "75717e311218beb030974b3738839369", "is_disabled": 0, "lat": 38.89701066666667, "rental_uris": {"ios": "https://dc.lft.to/lastmile_qr_scan", "android": "https://dc.lft.to/lastmile_qr_scan"}, "type": "electric_scooter", "lon": -77.0488635, "bike_id": "75717e311218beb030974b3738839369", "fusion_lon": 0.0}, {"is_reserved": 0, "fusion_lat": 0.0, "name": "10faf96e7fc4c4e1634654e41b70bc86", "is_disabled": 0, "lat": 38.89848216666667, "rental_uris": {"ios": "https://dc.lft.to/lastmile_qr_scan", "android": "https://dc.lft.to/lastmile_qr_scan"}, "type": "electric_scooter", "lon": -76.92749283333333, "bike_id": "10faf96e7fc4c4e1634654e41b70bc86", "fusion_lon": 0.0}, {"is_reserved": 0, "fusion_lat": 0.0, "name": "8e707b5ce9e7f8ca91363a68c71efdda", "is_disabled": 0, "lat": 38.832988, "rental_uris": {"ios": "https://dc.lft.to/lastmile_qr_scan", "android": "https://dc.lft.to/lastmile_qr_scan"}, "type": "electric_bike", "lon": -77.08405033333334, "bike_id": "8e707b5ce9e7f8ca91363a68c71efdda", "fusion_lon": 0.0}, {"is_reserved": 0, "fusion_lat": 0.0, "name": "6a024526973be8c2be6104aa34d105c4", "is_disabled": 0, "lat": 38.878358166666665, "rental_uris": {"ios": "https://dc.lft.to/lastmile_qr_scan", "android": "https://dc.lft.to/lastmile_qr_scan"}, "type": "electric_scooter", "lon": -77.022805, "bike_id": "6a024526973be8c2be6104aa34d105c4", "fusion_lon": 0.0}, {"is_reserved": 0, "fusion_lat": 0.0, "name": "dd8708215b57ee9440000f3109de07e0", "is_disabled": 0, "lat": 38.92959, "rental_uris": {"ios": "https://dc.lft.to/lastmile_qr_scan", "android": "https://dc.lft.to/lastmile_qr_scan"}, "type": "electric_scooter", "lon": -77.031432, "bike_id": "dd8708215b57ee9440000f3109de07e0", "fusion_lon": 0.0}, {"is_reserved": 0, "fusion_lat": 0.0, "name": "b4aa7f3cd5dac20a00b199d416d9eaae", "is_disabled": 0, "lat": 38.9043415, "rental_uris": {"ios": "https://dc.lft.to/lastmile_qr_scan", "android": "https://dc.lft.to/lastmile_qr_scan"}, "type": "electric_bike", "lon": -76.97230333333333, "bike_id": "b4aa7f3cd5dac20a00b199d416d9eaae", "fusion_lon": 0.0}, {"is_reserved": 0, "fusion_lat": 0.0, "name": "d47f30fdbc4f8087d65b00eecc4b8ed7", "is_disabled": 0, "lat": 38.905221166666664, "rental_uris": {"ios": "https://dc.lft.to/lastmile_qr_scan", "android": "https://dc.lft.to/lastmile_qr_scan"}, "type": "electric_scooter", "lon": -77.047477, "bike_id": "d47f30fdbc4f8087d65b00eecc4b8ed7", "fusion_lon": 0.0}, {"is_reserved": 0, "fusion_lat": 0.0, "name": "c66332db23d31e0b1a88d4ddb65c4dae", "is_disabled": 0, "lat": 38.9215715, "rental_uris": {"ios": "https://dc.lft.to/lastmile_qr_scan", "android": "https://dc.lft.to/lastmile_qr_scan"}, "type": "electric_bike", "lon": -77.078893, "bike_id": "c66332db23d31e0b1a88d4ddb65c4dae", "fusion_lon": 0.0}, {"is_reserved": 0, "fusion_lat": 0.0, "name": "9762d8c21bd4625fb142df13d03fec21", "is_disabled": 0, "lat": 38.92148666666667, "rental_uris": {"ios": "https://dc.lft.to/lastmile_qr_scan", "android": "https://dc.lft.to/lastmile_qr_scan"}, "type": "electric_scooter", "lon": -77.04234016666666, "bike_id": "9762d8c21bd4625fb142df13d03fec21", "fusion_lon": 0.0}, {"is_reserved": 0, "fusion_lat": 0.0, "name": "ffb0ac754afa59dce53e95c745fd8176", "is_disabled": 0, "lat": 38.91285466666667, "rental_uris": {"ios": "https://dc.lft.to/lastmile_qr_scan", "android": "https://dc.lft.to/lastmile_qr_scan"}, "type": "electric_scooter", "lon": -77.0344565, "bike_id": "ffb0ac754afa59dce53e95c745fd8176", "fusion_lon": 0.0}, {"is_reserved": 0, "fusion_lat": 0.0, "name": "bcd1424339866bdfb45278ea03c9ace4", "is_disabled": 0, "lat": 38.83693, "rental_uris": {"ios": "https://dc.lft.to/lastmile_qr_scan", "android": "https://dc.lft.to/lastmile_qr_scan"}, "type": "electric_bike", "lon": -77.057196, "bike_id": "bcd1424339866bdfb45278ea03c9ace4", "fusion_lon": 0.0}, {"is_reserved": 0, "fusion_lat": 0.0, "name": "4869d8c224be925f21bd23e7f322443f", "is_disabled": 0, "lat": 38.90064366666667, "rental_uris": {"ios": "https://dc.lft.to/lastmile_qr_scan", "android": "https://dc.lft.to/lastmile_qr_scan"}, "type": "electric_scooter", "lon": -77.0454745, "bike_id": "4869d8c224be925f21bd23e7f322443f", "fusion_lon": 0.0}, {"is_reserved": 0, "fusion_lat": 0.0, "name": "76aed0401cefab34d87faad0ffb4c318", "is_disabled": 0, "lat": 38.918052833333334, "rental_uris": {"ios": "https://dc.lft.to/lastmile_qr_scan", "android": "https://dc.lft.to/lastmile_qr_scan"}, "type": "electric_scooter", "lon": -77.024929, "bike_id": "76aed0401cefab34d87faad0ffb4c318", "fusion_lon": 0.0}, {"is_reserved": 0, "fusion_lat": 0.0, "name": "fff5a913903a613331473e575ba80647", "is_disabled": 0, "lat": 38.90444466666667, "rental_uris": {"ios": "https://dc.lft.to/lastmile_qr_scan", "android": "https://dc.lft.to/lastmile_qr_scan"}, "type": "electric_scooter", "lon": -76.98160133333333, "bike_id": "fff5a913903a613331473e575ba80647", "fusion_lon": 0.0}, {"is_reserved": 0, "fusion_lat": 0.0, "name": "5573b9c3b73f362f11424c1ec8c81ff0", "is_disabled": 0, "lat": 38.93031216666667, "rental_uris": {"ios": "https://dc.lft.to/lastmile_qr_scan", "android": "https://dc.lft.to/lastmile_qr_scan"}, "type": "electric_scooter", "lon": -77.03811, "bike_id": "5573b9c3b73f362f11424c1ec8c81ff0", "fusion_lon": 0.0}, {"is_reserved": 0, "fusion_lat": 0.0, "name": "0f9cc6aea1c5f2acd5a6db8f3d62365a", "is_disabled": 0, "lat": 38.905479, "rental_uris": {"ios": "https://dc.lft.to/lastmile_qr_scan", "android": "https://dc.lft.to/lastmile_qr_scan"}, "type": "electric_scooter", "lon": -77.02172483333334, "bike_id": "0f9cc6aea1c5f2acd5a6db8f3d62365a", "fusion_lon": 0.0}, {"is_reserved": 0, "fusion_lat": 0.0, "name": "954368111d4b936f0677681109516dd3", "is_disabled": 0, "lat": 38.891732166666664, "rental_uris": {"ios": "https://dc.lft.to/lastmile_qr_scan", "android": "https://dc.lft.to/lastmile_qr_scan"}, "type": "electric_scooter", "lon": -77.01549216666666, "bike_id": "954368111d4b936f0677681109516dd3", "fusion_lon": 0.0}, {"is_reserved": 0, "fusion_lat": 0.0, "name": "1b3fb69ec24b6a1e5a5f645cd615971a", "is_disabled": 0, "lat": 38.938645666666666, "rental_uris": {"ios": "https://dc.lft.to/lastmile_qr_scan", "android": "https://dc.lft.to/lastmile_qr_scan"}, "type": "electric_scooter", "lon": -77.07236016666667, "bike_id": "1b3fb69ec24b6a1e5a5f645cd615971a", "fusion_lon": 0.0}, {"is_reserved": 0, "fusion_lat": 0.0, "name": "27178ed4555522c335f24caff877a42a", "is_disabled": 0, "lat": 38.83271466666667, "rental_uris": {"ios": "https://dc.lft.to/lastmile_qr_scan", "android": "https://dc.lft.to/lastmile_qr_scan"}, "type": "electric_bike", "lon": -77.08364583333334, "bike_id": "27178ed4555522c335f24caff877a42a", "fusion_lon": 0.0}, {"is_reserved": 0, "fusion_lat": 0.0, "name": "af00169fbd967ef2027f23e5b214507b", "is_disabled": 0, "lat": 38.90683966666667, "rental_uris": {"ios": "https://dc.lft.to/lastmile_qr_scan", "android": "https://dc.lft.to/lastmile_qr_scan"}, "type": "electric_scooter", "lon": -77.03650466666667, "bike_id": "af00169fbd967ef2027f23e5b214507b", "fusion_lon": 0.0}, {"is_reserved": 0, "fusion_lat": 0.0, "name": "87d214c5ad976a3b59aa673226d57083", "is_disabled": 0, "lat": 38.87534633333333, "rental_uris": {"ios": "https://dc.lft.to/lastmile_qr_scan", "android": "https://dc.lft.to/lastmile_qr_scan"}, "type": "electric_scooter", "lon": -77.008816, "bike_id": "87d214c5ad976a3b59aa673226d57083", "fusion_lon": 0.0}, {"is_reserved": 0, "fusion_lat": 0.0, "name": "24b7fc7b912d19b680f7d855e576f5f2", "is_disabled": 0, "lat": 38.92438683333334, "rental_uris": {"ios": "https://dc.lft.to/lastmile_qr_scan", "android": "https://dc.lft.to/lastmile_qr_scan"}, "type": "electric_scooter", "lon": -77.02029916666666, "bike_id": "24b7fc7b912d19b680f7d855e576f5f2", "fusion_lon": 0.0}, {"is_reserved": 0, "fusion_lat": 0.0, "name": "a4e0638405ede7d4302a10ca4dac553d", "is_disabled": 0, "lat": 38.92106533333333, "rental_uris": {"ios": "https://dc.lft.to/lastmile_qr_scan", "android": "https://dc.lft.to/lastmile_qr_scan"}, "type": "electric_scooter", "lon": -77.03931333333334, "bike_id": "a4e0638405ede7d4302a10ca4dac553d", "fusion_lon": 0.0}, {"is_reserved": 0, "fusion_lat": 0.0, "name": "56610fd3322d2873e5da89b87a31812f", "is_disabled": 0, "lat": 38.92459066666667, "rental_uris": {"ios": "https://dc.lft.to/lastmile_qr_scan", "android": "https://dc.lft.to/lastmile_qr_scan"}, "type": "electric_scooter", "lon": -77.02199316666666, "bike_id": "56610fd3322d2873e5da89b87a31812f", "fusion_lon": 0.0}, {"is_reserved": 0, "fusion_lat": 0.0, "name": "8aa025fbcdaaf3539ae6343708e7ff7c", "is_disabled": 0, "lat": 38.873989333333334, "rental_uris": {"ios": "https://dc.lft.to/lastmile_qr_scan", "android": "https://dc.lft.to/lastmile_qr_scan"}, "type": "electric_scooter", "lon": -77.00020966666666, "bike_id": "8aa025fbcdaaf3539ae6343708e7ff7c", "fusion_lon": 0.0}, {"is_reserved": 0, "fusion_lat": 0.0, "name": "02a487cae1471386e6bcc00b76eca1dd", "is_disabled": 0, "lat": 38.91559733333333, "rental_uris": {"ios": "https://dc.lft.to/lastmile_qr_scan", "android": "https://dc.lft.to/lastmile_qr_scan"}, "type": "electric_scooter", "lon": -77.00699333333333, "bike_id": "02a487cae1471386e6bcc00b76eca1dd", "fusion_lon": 0.0}, {"is_reserved": 0, "fusion_lat": 0.0, "name": "6de3f835d5670d6d74544d35c7bccd52", "is_disabled": 0, "lat": 38.92634616666667, "rental_uris": {"ios": "https://dc.lft.to/lastmile_qr_scan", "android": "https://dc.lft.to/lastmile_qr_scan"}, "type": "electric_scooter", "lon": -77.02709533333334, "bike_id": "6de3f835d5670d6d74544d35c7bccd52", "fusion_lon": 0.0}, {"is_reserved": 0, "fusion_lat": 0.0, "name": "3f53117c34d2130fbeb6974a80a0fe8c", "is_disabled": 0, "lat": 38.927532666666664, "rental_uris": {"ios": "https://dc.lft.to/lastmile_qr_scan", "android": "https://dc.lft.to/lastmile_qr_scan"}, "type": "electric_scooter", "lon": -77.033603, "bike_id": "3f53117c34d2130fbeb6974a80a0fe8c", "fusion_lon": 0.0}, {"is_reserved": 0, "fusion_lat": 0.0, "name": "bf45de09538b6fc054914fdd6722a4c4", "is_disabled": 0, "lat": 38.90033483333333, "rental_uris": {"ios": "https://dc.lft.to/lastmile_qr_scan", "android": "https://dc.lft.to/lastmile_qr_scan"}, "type": "electric_scooter", "lon": -77.01156133333333, "bike_id": "bf45de09538b6fc054914fdd6722a4c4", "fusion_lon": 0.0}, {"is_reserved": 0, "fusion_lat": 0.0, "name": "0ff53f040984bcc8d15cbfff38a34a3c", "is_disabled": 0, "lat": 38.889907, "rental_uris": {"ios": "https://dc.lft.to/lastmile_qr_scan", "android": "https://dc.lft.to/lastmile_qr_scan"}, "type": "electric_scooter", "lon": -76.98813983333334, "bike_id": "0ff53f040984bcc8d15cbfff38a34a3c", "fusion_lon": 0.0}, {"is_reserved": 0, "fusion_lat": 0.0, "name": "52fbfa8e12a45d356b8d00c6074f4d51", "is_disabled": 0, "lat": 38.89646783333333, "rental_uris": {"ios": "https://dc.lft.to/lastmile_qr_scan", "android": "https://dc.lft.to/lastmile_qr_scan"}, "type": "electric_scooter", "lon": -77.00913383333334, "bike_id": "52fbfa8e12a45d356b8d00c6074f4d51", "fusion_lon": 0.0}, {"is_reserved": 0, "fusion_lat": 0.0, "name": "90820d98bfe8276f56a94836f2165da8", "is_disabled": 0, "lat": 38.980101, "rental_uris": {"ios": "https://dc.lft.to/lastmile_qr_scan", "android": "https://dc.lft.to/lastmile_qr_scan"}, "type": "electric_bike", "lon": -77.06406216666667, "bike_id": "90820d98bfe8276f56a94836f2165da8", "fusion_lon": 0.0}, {"is_reserved": 0, "fusion_lat": 0.0, "name": "230da2411892ec166a227efe2e5566bd", "is_disabled": 0, "lat": 38.8965165, "rental_uris": {"ios": "https://dc.lft.to/lastmile_qr_scan", "android": "https://dc.lft.to/lastmile_qr_scan"}, "type": "electric_scooter", "lon": -77.03373583333334, "bike_id": "230da2411892ec166a227efe2e5566bd", "fusion_lon": 0.0}, {"is_reserved": 0, "fusion_lat": 0.0, "name": "a5efbc81eb88422de4d5e8f6f7a6e49f", "is_disabled": 0, "lat": 38.90394333333333, "rental_uris": {"ios": "https://dc.lft.to/lastmile_qr_scan", "android": "https://dc.lft.to/lastmile_qr_scan"}, "type": "electric_scooter", "lon": -77.03454966666666, "bike_id": "a5efbc81eb88422de4d5e8f6f7a6e49f", "fusion_lon": 0.0}, {"is_reserved": 0, "fusion_lat": 0.0, "name": "50eee804591981b13d2d262424df1a5f", "is_disabled": 0, "lat": 38.85782416666667, "rental_uris": {"ios": "https://dc.lft.to/lastmile_qr_scan", "android": "https://dc.lft.to/lastmile_qr_scan"}, "type": "electric_bike", "lon": -76.98757966666666, "bike_id": "50eee804591981b13d2d262424df1a5f", "fusion_lon": 0.0}, {"is_reserved": 0, "fusion_lat": 0.0, "name": "9c828c99b83f300374bc9cfbd14f5633", "is_disabled": 0, "lat": 38.947208333333336, "rental_uris": {"ios": "https://dc.lft.to/lastmile_qr_scan", "android": "https://dc.lft.to/lastmile_qr_scan"}, "type": "electric_bike", "lon": -77.09878316666666, "bike_id": "9c828c99b83f300374bc9cfbd14f5633", "fusion_lon": 0.0}, {"is_reserved": 0, "fusion_lat": 0.0, "name": "4077573e3f303e9cad41104431f3ea07", "is_disabled": 0, "lat": 38.96730516666667, "rental_uris": {"ios": "https://dc.lft.to/lastmile_qr_scan", "android": "https://dc.lft.to/lastmile_qr_scan"}, "type": "electric_bike", "lon": -77.08914, "bike_id": "4077573e3f303e9cad41104431f3ea07", "fusion_lon": 0.0}, {"is_reserved": 0, "fusion_lat": 0.0, "name": "885f40fe8beccbb8f7ca84883d0e3393", "is_disabled": 0, "lat": 38.98907033333333, "rental_uris": {"ios": "https://dc.lft.to/lastmile_qr_scan", "android": "https://dc.lft.to/lastmile_qr_scan"}, "type": "electric_bike", "lon": -77.1012225, "bike_id": "885f40fe8beccbb8f7ca84883d0e3393", "fusion_lon": 0.0}, {"is_reserved": 0, "fusion_lat": 0.0, "name": "869d51cd3356383e738f8fa54fa4bbc0", "is_disabled": 0, "lat": 38.922254, "rental_uris": {"ios": "https://dc.lft.to/lastmile_qr_scan", "android": "https://dc.lft.to/lastmile_qr_scan"}, "type": "electric_scooter", "lon": -77.02827533333334, "bike_id": "869d51cd3356383e738f8fa54fa4bbc0", "fusion_lon": 0.0}, {"is_reserved": 0, "fusion_lat": 0.0, "name": "e67038257a827992b5e85ab3c43be3fe", "is_disabled": 0, "lat": 38.932602, "rental_uris": {"ios": "https://dc.lft.to/lastmile_qr_scan", "android": "https://dc.lft.to/lastmile_qr_scan"}, "type": "electric_scooter", "lon": -76.98875666666666, "bike_id": "e67038257a827992b5e85ab3c43be3fe", "fusion_lon": 0.0}, {"is_reserved": 0, "fusion_lat": 0.0, "name": "7feb66c728256ac5dfd2e4f94c0e4531", "is_disabled": 0, "lat": 38.8824555, "rental_uris": {"ios": "https://dc.lft.to/lastmile_qr_scan", "android": "https://dc.lft.to/lastmile_qr_scan"}, "type": "electric_bike", "lon": -76.9626195, "bike_id": "7feb66c728256ac5dfd2e4f94c0e4531", "fusion_lon": 0.0}, {"is_reserved": 0, "fusion_lat": 0.0, "name": "630a5de9bd24854d318ac26e0a181f07", "is_disabled": 0, "lat": 38.8876575, "rental_uris": {"ios": "https://dc.lft.to/lastmile_qr_scan", "android": "https://dc.lft.to/lastmile_qr_scan"}, "type": "electric_scooter", "lon": -76.9773045, "bike_id": "630a5de9bd24854d318ac26e0a181f07", "fusion_lon": 0.0}, {"is_reserved": 0, "fusion_lat": 0.0, "name": "cb6545c546512acf5c361fc8f71a573b", "is_disabled": 0, "lat": 38.90477033333333, "rental_uris": {"ios": "https://dc.lft.to/lastmile_qr_scan", "android": "https://dc.lft.to/lastmile_qr_scan"}, "type": "electric_scooter", "lon": -77.048728, "bike_id": "cb6545c546512acf5c361fc8f71a573b", "fusion_lon": 0.0}, {"is_reserved": 0, "fusion_lat": 0.0, "name": "5dfddc2e8e1c4ab5f273a2c746d775e4", "is_disabled": 0, "lat": 38.874204166666665, "rental_uris": {"ios": "https://dc.lft.to/lastmile_qr_scan", "android": "https://dc.lft.to/lastmile_qr_scan"}, "type": "electric_bike", "lon": -77.08575533333334, "bike_id": "5dfddc2e8e1c4ab5f273a2c746d775e4", "fusion_lon": 0.0}, {"is_reserved": 0, "fusion_lat": 0.0, "name": "e3054483758cf31d8ec3242f9a2e8d07", "is_disabled": 0, "lat": 38.9187495, "rental_uris": {"ios": "https://dc.lft.to/lastmile_qr_scan", "android": "https://dc.lft.to/lastmile_qr_scan"}, "type": "electric_bike", "lon": -76.96427516666667, "bike_id": "e3054483758cf31d8ec3242f9a2e8d07", "fusion_lon": 0.0}, {"is_reserved": 0, "fusion_lat": 0.0, "name": "7f3d4f99666f2aa80dea505705bbc8d5", "is_disabled": 0, "lat": 38.917587, "rental_uris": {"ios": "https://dc.lft.to/lastmile_qr_scan", "android": "https://dc.lft.to/lastmile_qr_scan"}, "type": "electric_scooter", "lon": -77.028071, "bike_id": "7f3d4f99666f2aa80dea505705bbc8d5", "fusion_lon": 0.0}, {"is_reserved": 0, "fusion_lat": 0.0, "name": "f5c3d91e452da291bb24a1d65a2a334e", "is_disabled": 0, "lat": 38.8958435, "rental_uris": {"ios": "https://dc.lft.to/lastmile_qr_scan", "android": "https://dc.lft.to/lastmile_qr_scan"}, "type": "electric_scooter", "lon": -77.02975366666666, "bike_id": "f5c3d91e452da291bb24a1d65a2a334e", "fusion_lon": 0.0}, {"is_reserved": 0, "fusion_lat": 0.0, "name": "3cc8174de08a44c5c8cdf5a6f82c40ad", "is_disabled": 0, "lat": 38.88764833333333, "rental_uris": {"ios": "https://dc.lft.to/lastmile_qr_scan", "android": "https://dc.lft.to/lastmile_qr_scan"}, "type": "electric_scooter", "lon": -77.00046933333333, "bike_id": "3cc8174de08a44c5c8cdf5a6f82c40ad", "fusion_lon": 0.0}, {"is_reserved": 0, "fusion_lat": 0.0, "name": "fc1f36dbdbc47c98d2e158381831591e", "is_disabled": 0, "lat": 38.917527666666665, "rental_uris": {"ios": "https://dc.lft.to/lastmile_qr_scan", "android": "https://dc.lft.to/lastmile_qr_scan"}, "type": "electric_scooter", "lon": -77.02383516666667, "bike_id": "fc1f36dbdbc47c98d2e158381831591e", "fusion_lon": 0.0}, {"is_reserved": 0, "fusion_lat": 0.0, "name": "227a1ce5ec79534e4bc58767b9c0b277", "is_disabled": 0, "lat": 38.82210766666667, "rental_uris": {"ios": "https://dc.lft.to/lastmile_qr_scan", "android": "https://dc.lft.to/lastmile_qr_scan"}, "type": "electric_bike", "lon": -76.97699433333334, "bike_id": "227a1ce5ec79534e4bc58767b9c0b277", "fusion_lon": 0.0}, {"is_reserved": 0, "fusion_lat": 0.0, "name": "5251e863e0f56d5133d8009c857de661", "is_disabled": 0, "lat": 38.901311, "rental_uris": {"ios": "https://dc.lft.to/lastmile_qr_scan", "android": "https://dc.lft.to/lastmile_qr_scan"}, "type": "electric_scooter", "lon": -77.02182366666666, "bike_id": "5251e863e0f56d5133d8009c857de661", "fusion_lon": 0.0}, {"is_reserved": 0, "fusion_lat": 0.0, "name": "7502d1e6ebb4b98ec0639bc112f19156", "is_disabled": 0, "lat": 38.899632, "rental_uris": {"ios": "https://dc.lft.to/lastmile_qr_scan", "android": "https://dc.lft.to/lastmile_qr_scan"}, "type": "electric_bike", "lon": -76.98670733333333, "bike_id": "7502d1e6ebb4b98ec0639bc112f19156", "fusion_lon": 0.0}, {"is_reserved": 0, "fusion_lat": 0.0, "name": "06d65b67c1ff2574061fc95a8e905aeb", "is_disabled": 0, "lat": 38.921602, "rental_uris": {"ios": "https://dc.lft.to/lastmile_qr_scan", "android": "https://dc.lft.to/lastmile_qr_scan"}, "type": "electric_scooter", "lon": -77.02089333333333, "bike_id": "06d65b67c1ff2574061fc95a8e905aeb", "fusion_lon": 0.0}, {"is_reserved": 0, "fusion_lat": 0.0, "name": "e75ff9ca3d60581d1deed88d59cfec25", "is_disabled": 0, "lat": 38.907568833333336, "rental_uris": {"ios": "https://dc.lft.to/lastmile_qr_scan", "android": "https://dc.lft.to/lastmile_qr_scan"}, "type": "electric_scooter", "lon": -77.04524133333334, "bike_id": "e75ff9ca3d60581d1deed88d59cfec25", "fusion_lon": 0.0}, {"is_reserved": 0, "fusion_lat": 0.0, "name": "4db19bd898de015ff739b38fcad722ff", "is_disabled": 0, "lat": 38.958443333333335, "rental_uris": {"ios": "https://dc.lft.to/lastmile_qr_scan", "android": "https://dc.lft.to/lastmile_qr_scan"}, "type": "electric_scooter", "lon": -77.0716835, "bike_id": "4db19bd898de015ff739b38fcad722ff", "fusion_lon": 0.0}, {"is_reserved": 0, "fusion_lat": 0.0, "name": "a05d05e4b4b230a86950610b62885bb8", "is_disabled": 0, "lat": 38.9001525, "rental_uris": {"ios": "https://dc.lft.to/lastmile_qr_scan", "android": "https://dc.lft.to/lastmile_qr_scan"}, "type": "electric_scooter", "lon": -77.04480733333334, "bike_id": "a05d05e4b4b230a86950610b62885bb8", "fusion_lon": 0.0}, {"is_reserved": 0, "fusion_lat": 0.0, "name": "5c1025cca45510542e1c1148ad99bb5e", "is_disabled": 0, "lat": 38.905154, "rental_uris": {"ios": "https://dc.lft.to/lastmile_qr_scan", "android": "https://dc.lft.to/lastmile_qr_scan"}, "type": "electric_scooter", "lon": -76.98392916666667, "bike_id": "5c1025cca45510542e1c1148ad99bb5e", "fusion_lon": 0.0}, {"is_reserved": 0, "fusion_lat": 0.0, "name": "9399afbf599bbb9415a27f93d1f21027", "is_disabled": 0, "lat": 38.913519, "rental_uris": {"ios": "https://dc.lft.to/lastmile_qr_scan", "android": "https://dc.lft.to/lastmile_qr_scan"}, "type": "electric_scooter", "lon": -77.031841, "bike_id": "9399afbf599bbb9415a27f93d1f21027", "fusion_lon": 0.0}, {"is_reserved": 0, "fusion_lat": 0.0, "name": "ef99d4d43ec0c57f83c9bd7e8b97111c", "is_disabled": 0, "lat": 38.913652166666665, "rental_uris": {"ios": "https://dc.lft.to/lastmile_qr_scan", "android": "https://dc.lft.to/lastmile_qr_scan"}, "type": "electric_scooter", "lon": -77.04491083333333, "bike_id": "ef99d4d43ec0c57f83c9bd7e8b97111c", "fusion_lon": 0.0}, {"is_reserved": 0, "fusion_lat": 0.0, "name": "0c5c93e4171f36eb56e796282f25a04a", "is_disabled": 0, "lat": 38.912169, "rental_uris": {"ios": "https://dc.lft.to/lastmile_qr_scan", "android": "https://dc.lft.to/lastmile_qr_scan"}, "type": "electric_scooter", "lon": -77.03794683333334, "bike_id": "0c5c93e4171f36eb56e796282f25a04a", "fusion_lon": 0.0}, {"is_reserved": 0, "fusion_lat": 0.0, "name": "c0d1d80e53ef7614a8229348ccb41b2b", "is_disabled": 0, "lat": 38.92057116666667, "rental_uris": {"ios": "https://dc.lft.to/lastmile_qr_scan", "android": "https://dc.lft.to/lastmile_qr_scan"}, "type": "electric_scooter", "lon": -77.017144, "bike_id": "c0d1d80e53ef7614a8229348ccb41b2b", "fusion_lon": 0.0}, {"is_reserved": 0, "fusion_lat": 0.0, "name": "b49fb499f07ed759b08bbe0f88f655cf", "is_disabled": 0, "lat": 38.90027716666667, "rental_uris": {"ios": "https://dc.lft.to/lastmile_qr_scan", "android": "https://dc.lft.to/lastmile_qr_scan"}, "type": "electric_scooter", "lon": -76.99843416666667, "bike_id": "b49fb499f07ed759b08bbe0f88f655cf", "fusion_lon": 0.0}, {"is_reserved": 0, "fusion_lat": 0.0, "name": "fbd6beb5ebb05042ab4e4c3f7e49ff2a", "is_disabled": 0, "lat": 38.9004475, "rental_uris": {"ios": "https://dc.lft.to/lastmile_qr_scan", "android": "https://dc.lft.to/lastmile_qr_scan"}, "type": "electric_scooter", "lon": -76.98840666666666, "bike_id": "fbd6beb5ebb05042ab4e4c3f7e49ff2a", "fusion_lon": 0.0}, {"is_reserved": 0, "fusion_lat": 0.0, "name": "d4d6da8c207ce386a0fdbc23185dc5cc", "is_disabled": 0, "lat": 38.90556933333333, "rental_uris": {"ios": "https://dc.lft.to/lastmile_qr_scan", "android": "https://dc.lft.to/lastmile_qr_scan"}, "type": "electric_scooter", "lon": -76.9979225, "bike_id": "d4d6da8c207ce386a0fdbc23185dc5cc", "fusion_lon": 0.0}, {"is_reserved": 0, "fusion_lat": 0.0, "name": "53018a09bb504828d4a820aab62cdfeb", "is_disabled": 0, "lat": 38.9194325, "rental_uris": {"ios": "https://dc.lft.to/lastmile_qr_scan", "android": "https://dc.lft.to/lastmile_qr_scan"}, "type": "electric_scooter", "lon": -77.01793833333333, "bike_id": "53018a09bb504828d4a820aab62cdfeb", "fusion_lon": 0.0}, {"is_reserved": 0, "fusion_lat": 0.0, "name": "5cfc364c1ded6860aa710d03e178baa4", "is_disabled": 0, "lat": 38.90786466666667, "rental_uris": {"ios": "https://dc.lft.to/lastmile_qr_scan", "android": "https://dc.lft.to/lastmile_qr_scan"}, "type": "electric_scooter", "lon": -77.009614, "bike_id": "5cfc364c1ded6860aa710d03e178baa4", "fusion_lon": 0.0}, {"is_reserved": 0, "fusion_lat": 0.0, "name": "e2b23146c0fea63630035d185e88a57b", "is_disabled": 0, "lat": 38.9243935, "rental_uris": {"ios": "https://dc.lft.to/lastmile_qr_scan", "android": "https://dc.lft.to/lastmile_qr_scan"}, "type": "electric_scooter", "lon": -77.02133683333334, "bike_id": "e2b23146c0fea63630035d185e88a57b", "fusion_lon": 0.0}, {"is_reserved": 0, "fusion_lat": 0.0, "name": "f0521299df0be045fc3e6500fcad592e", "is_disabled": 0, "lat": 38.9249035, "rental_uris": {"ios": "https://dc.lft.to/lastmile_qr_scan", "android": "https://dc.lft.to/lastmile_qr_scan"}, "type": "electric_scooter", "lon": -77.05757516666667, "bike_id": "f0521299df0be045fc3e6500fcad592e", "fusion_lon": 0.0}, {"is_reserved": 0, "fusion_lat": 0.0, "name": "6535850030a64b0188d0a1d86ca25ce4", "is_disabled": 0, "lat": 38.90559433333333, "rental_uris": {"ios": "https://dc.lft.to/lastmile_qr_scan", "android": "https://dc.lft.to/lastmile_qr_scan"}, "type": "electric_scooter", "lon": -77.0347775, "bike_id": "6535850030a64b0188d0a1d86ca25ce4", "fusion_lon": 0.0}, {"is_reserved": 0, "fusion_lat": 0.0, "name": "7a694e54ab59171654a6e6af07dbadbf", "is_disabled": 0, "lat": 38.922525, "rental_uris": {"ios": "https://dc.lft.to/lastmile_qr_scan", "android": "https://dc.lft.to/lastmile_qr_scan"}, "type": "electric_scooter", "lon": -77.01951533333333, "bike_id": "7a694e54ab59171654a6e6af07dbadbf", "fusion_lon": 0.0}, {"is_reserved": 0, "fusion_lat": 0.0, "name": "43651952d560b4bc9bc4f6ebc232ce2a", "is_disabled": 0, "lat": 38.9280945, "rental_uris": {"ios": "https://dc.lft.to/lastmile_qr_scan", "android": "https://dc.lft.to/lastmile_qr_scan"}, "type": "electric_scooter", "lon": -77.03635933333334, "bike_id": "43651952d560b4bc9bc4f6ebc232ce2a", "fusion_lon": 0.0}, {"is_reserved": 0, "fusion_lat": 0.0, "name": "01579265c1d2c857a41c2640451d153e", "is_disabled": 0, "lat": 38.91252216666667, "rental_uris": {"ios": "https://dc.lft.to/lastmile_qr_scan", "android": "https://dc.lft.to/lastmile_qr_scan"}, "type": "electric_scooter", "lon": -77.01455083333333, "bike_id": "01579265c1d2c857a41c2640451d153e", "fusion_lon": 0.0}, {"is_reserved": 0, "fusion_lat": 0.0, "name": "59bf50ea699119c5d0b71b86b2490b3b", "is_disabled": 0, "lat": 38.91755333333333, "rental_uris": {"ios": "https://dc.lft.to/lastmile_qr_scan", "android": "https://dc.lft.to/lastmile_qr_scan"}, "type": "electric_scooter", "lon": -77.04761816666667, "bike_id": "59bf50ea699119c5d0b71b86b2490b3b", "fusion_lon": 0.0}, {"is_reserved": 0, "fusion_lat": 0.0, "name": "cf27899e912b70df749819eb55e658c0", "is_disabled": 0, "lat": 38.91143866666667, "rental_uris": {"ios": "https://dc.lft.to/lastmile_qr_scan", "android": "https://dc.lft.to/lastmile_qr_scan"}, "type": "electric_scooter", "lon": -77.04431716666667, "bike_id": "cf27899e912b70df749819eb55e658c0", "fusion_lon": 0.0}, {"is_reserved": 0, "fusion_lat": 0.0, "name": "c27a2f54ed5ef751763ccd49f1a102b0", "is_disabled": 0, "lat": 38.90062866666667, "rental_uris": {"ios": "https://dc.lft.to/lastmile_qr_scan", "android": "https://dc.lft.to/lastmile_qr_scan"}, "type": "electric_scooter", "lon": -77.04534683333333, "bike_id": "c27a2f54ed5ef751763ccd49f1a102b0", "fusion_lon": 0.0}, {"is_reserved": 0, "fusion_lat": 0.0, "name": "6e1d0e32548f67fd9b284dbec786ebf4", "is_disabled": 0, "lat": 38.91770116666667, "rental_uris": {"ios": "https://dc.lft.to/lastmile_qr_scan", "android": "https://dc.lft.to/lastmile_qr_scan"}, "type": "electric_scooter", "lon": -77.04057833333333, "bike_id": "6e1d0e32548f67fd9b284dbec786ebf4", "fusion_lon": 0.0}, {"is_reserved": 0, "fusion_lat": 0.0, "name": "595c37aca4e355f42ec9021f0d2350aa", "is_disabled": 0, "lat": 38.9005445, "rental_uris": {"ios": "https://dc.lft.to/lastmile_qr_scan", "android": "https://dc.lft.to/lastmile_qr_scan"}, "type": "electric_scooter", "lon": -77.039301, "bike_id": "595c37aca4e355f42ec9021f0d2350aa", "fusion_lon": 0.0}, {"is_reserved": 0, "fusion_lat": 0.0, "name": "bcbe7da0a3168cc729f4691d95ce8678", "is_disabled": 0, "lat": 38.91603583333333, "rental_uris": {"ios": "https://dc.lft.to/lastmile_qr_scan", "android": "https://dc.lft.to/lastmile_qr_scan"}, "type": "electric_scooter", "lon": -77.04159316666667, "bike_id": "bcbe7da0a3168cc729f4691d95ce8678", "fusion_lon": 0.0}, {"is_reserved": 0, "fusion_lat": 0.0, "name": "6c5a806a8fe8668c1459159035ce11d0", "is_disabled": 0, "lat": 38.951503833333334, "rental_uris": {"ios": "https://dc.lft.to/lastmile_qr_scan", "android": "https://dc.lft.to/lastmile_qr_scan"}, "type": "electric_scooter", "lon": -77.01867366666667, "bike_id": "6c5a806a8fe8668c1459159035ce11d0", "fusion_lon": 0.0}, {"is_reserved": 0, "fusion_lat": 0.0, "name": "9489c199fff5a885808e910b605f80e7", "is_disabled": 0, "lat": 38.926057166666666, "rental_uris": {"ios": "https://dc.lft.to/lastmile_qr_scan", "android": "https://dc.lft.to/lastmile_qr_scan"}, "type": "electric_scooter", "lon": -77.05703233333334, "bike_id": "9489c199fff5a885808e910b605f80e7", "fusion_lon": 0.0}, {"is_reserved": 0, "fusion_lat": 0.0, "name": "0dc7409dc043af5bf136e864a9d33038", "is_disabled": 0, "lat": 38.902287666666666, "rental_uris": {"ios": "https://dc.lft.to/lastmile_qr_scan", "android": "https://dc.lft.to/lastmile_qr_scan"}, "type": "electric_scooter", "lon": -77.05114966666666, "bike_id": "0dc7409dc043af5bf136e864a9d33038", "fusion_lon": 0.0}, {"is_reserved": 0, "fusion_lat": 0.0, "name": "12f17b7be889ef7c733cdf2e6583f4ba", "is_disabled": 0, "lat": 38.903664666666664, "rental_uris": {"ios": "https://dc.lft.to/lastmile_qr_scan", "android": "https://dc.lft.to/lastmile_qr_scan"}, "type": "electric_scooter", "lon": -77.06012016666666, "bike_id": "12f17b7be889ef7c733cdf2e6583f4ba", "fusion_lon": 0.0}, {"is_reserved": 0, "fusion_lat": 0.0, "name": "fed9ca852884ec52386ea5aaf354e66f", "is_disabled": 0, "lat": 38.92467116666667, "rental_uris": {"ios": "https://dc.lft.to/lastmile_qr_scan", "android": "https://dc.lft.to/lastmile_qr_scan"}, "type": "electric_scooter", "lon": -77.0224005, "bike_id": "fed9ca852884ec52386ea5aaf354e66f", "fusion_lon": 0.0},