{"data": {"bikes": [{"fusion_lat": 0.0, "type": "electric_scooter", "name": "304c8472efefa71ee733530ca36d249a", "fusion_lon": 0.0, "bike_id": "304c8472efefa71ee733530ca36d249a", "is_reserved": 0, "rental_uris": {"android": "https://dc.lft.to/lastmile_qr_scan", "ios": "https://dc.lft.to/lastmile_qr_scan"}, "lat": 38.916518333333336, "is_disabled": 0, "lon": -77.04801866666666}, {"fusion_lat": 0.0, "type": "electric_scooter", "name": "fb1b4f62d7bac4569b7ebf7eb165a1db", "fusion_lon": 0.0, "bike_id": "fb1b4f62d7bac4569b7ebf7eb165a1db", "is_reserved": 0, "rental_uris": {"android": "https://dc.lft.to/lastmile_qr_scan", "ios": "https://dc.lft.to/lastmile_qr_scan"}, "lat": 38.89891316666667, "is_disabled": 0, "lon": -76.99391466666667}, {"fusion_lat": 0.0, "type": "electric_scooter", "name": "5561cf7cf17ede86bec29b58fbeea8ca", "fusion_lon": 0.0, "bike_id": "5561cf7cf17ede86bec29b58fbeea8ca", "is_reserved": 0, "rental_uris": {"android": "https://dc.lft.to/lastmile_qr_scan", "ios": "https://dc.lft.to/lastmile_qr_scan"}, "lat": 38.911218833333336, "is_disabled": 0, "lon": -77.02199566666667}, {"fusion_lat": 0.0, "type": "electric_scooter", "name": "3cc98b6e7c519781661a203cc4b2d420", "fusion_lon": 0.0, "bike_id": "3cc98b6e7c519781661a203cc4b2d420", "is_reserved": 0, "rental_uris": {"android": "https://dc.lft.to/lastmile_qr_scan", "ios": "https://dc.lft.to/lastmile_qr_scan"}, "lat": 38.9097315, "is_disabled": 0, "lon": -77.03441166666667}, {"fusion_lat": 0.0, "type": "electric_scooter", "name": "059117be31d53d19297c8d9df1e80f18", "fusion_lon": 0.0, "bike_id": "059117be31d53d19297c8d9df1e80f18", "is_reserved": 0, "rental_uris": {"android": "https://dc.lft.to/lastmile_qr_scan", "ios": "https://dc.lft.to/lastmile_qr_scan"}, "lat": 38.89227116666667, "is_disabled": 0, "lon": -77.0500515}, {"fusion_lat": 0.0, "type": "electric_scooter", "name": "45832a2ad9410ad52fed954db487951a", "fusion_lon": 0.0, "bike_id": "45832a2ad9410ad52fed954db487951a", "is_reserved": 0, "rental_uris": {"android": "https://dc.lft.to/lastmile_qr_scan", "ios": "https://dc.lft.to/lastmile_qr_scan"}, "lat": 38.95296466666667, "is_disabled": 0, "lon": -77.06847916666666}, {"fusion_lat": 0.0, "type": "electric_scooter", "name": "74adbdc38fe7532d734420782dab6d97", "fusion_lon": 0.0, "bike_id": "74adbdc38fe7532d734420782dab6d97", "is_reserved": 0, "rental_uris": {"android": "https://dc.lft.to/lastmile_qr_scan", "ios": "https://dc.lft.to/lastmile_qr_scan"}, "lat": 38.896193833333335, "is_disabled": 0, "lon": -77.032086}, {"fusion_lat": 0.0, "type": "electric_scooter", "name": "f6ab0dc2719fbadcd86a5704df73b31d", "fusion_lon": 0.0, "bike_id": "f6ab0dc2719fbadcd86a5704df73b31d", "is_reserved": 0, "rental_uris": {"android": "https://dc.lft.to/lastmile_qr_scan", "ios": "https://dc.lft.to/lastmile_qr_scan"}, "lat": 38.926119, "is_disabled": 0, "lon": -77.04317883333333}, {"fusion_lat": 0.0, "type": "electric_scooter", "name": "1c6a1077fc019c4314ff54bfe166cafe", "fusion_lon": 0.0, "bike_id": "1c6a1077fc019c4314ff54bfe166cafe", "is_reserved": 0, "rental_uris": {"android": "https://dc.lft.to/lastmile_qr_scan", "ios": "https://dc.lft.to/lastmile_qr_scan"}, "lat": 38.92472466666667, "is_disabled": 0, "lon": -77.02665983333333}, {"fusion_lat": 0.0, "type": "electric_scooter", "name": "6091454d425ba44e6887fb3d41c6736a", "fusion_lon": 0.0, "bike_id": "6091454d425ba44e6887fb3d41c6736a", "is_reserved": 0, "rental_uris": {"android": "https://dc.lft.to/lastmile_qr_scan", "ios": "https://dc.lft.to/lastmile_qr_scan"}, "lat": 38.951830333333334, "is_disabled": 0, "lon": -77.0261775}, {"fusion_lat": 0.0, "type": "electric_scooter", "name": "b850329aa187ff2ebb6c5c0e371f7cad", "fusion_lon": 0.0, "bike_id": "b850329aa187ff2ebb6c5c0e371f7cad", "is_reserved": 0, "rental_uris": {"android": "https://dc.lft.to/lastmile_qr_scan", "ios": "https://dc.lft.to/lastmile_qr_scan"}, "lat": 38.92458633333333, "is_disabled": 0, "lon": -77.02980266666667}, {"fusion_lat": 0.0, "type": "electric_scooter", "name": "4a8bb9bc66232a78c934ed01d892329b", "fusion_lon": 0.0, "bike_id": "4a8bb9bc66232a78c934ed01d892329b", "is_reserved": 0, "rental_uris": {"android": "https://dc.lft.to/lastmile_qr_scan", "ios": "https://dc.lft.to/lastmile_qr_scan"}, "lat": 38.889140166666664, "is_disabled": 0, "lon": -77.0490995}, {"fusion_lat": 0.0, "type": "electric_scooter", "name": "5b343f4a3f92f758e9ec244ed72f529c", "fusion_lon": 0.0, "bike_id": "5b343f4a3f92f758e9ec244ed72f529c", "is_reserved": 0, "rental_uris": {"android": "https://dc.lft.to/lastmile_qr_scan", "ios": "https://dc.lft.to/lastmile_qr_scan"}, "lat": 38.921541, "is_disabled": 0, "lon": -77.0337925}, {"fusion_lat": 0.0, "type": "electric_scooter", "name": "6a8ed0bb522284ae1497cfe9954f54b5", "fusion_lon": 0.0, "bike_id": "6a8ed0bb522284ae1497cfe9954f54b5", "is_reserved": 0, "rental_uris": {"android": "https://dc.lft.to/lastmile_qr_scan", "ios": "https://dc.lft.to/lastmile_qr_scan"}, "lat": 38.902975166666664, "is_disabled": 0, "lon": -77.05045566666666}, {"fusion_lat": 0.0, "type": "electric_scooter", "name": "b5f08a65248300b6d0a6c9564486fb4d", "fusion_lon": 0.0, "bike_id": "b5f08a65248300b6d0a6c9564486fb4d", "is_reserved": 0, "rental_uris": {"android": "https://dc.lft.to/lastmile_qr_scan", "ios": "https://dc.lft.to/lastmile_qr_scan"}, "lat": 38.916769333333335, "is_disabled": 0, "lon": -77.03689866666667}, {"fusion_lat": 0.0, "type": "electric_scooter", "name": "f063339a3e6a746131827bb41360ad7d", "fusion_lon": 0.0, "bike_id": "f063339a3e6a746131827bb41360ad7d", "is_reserved": 0, "rental_uris": {"android": "https://dc.lft.to/lastmile_qr_scan", "ios": "https://dc.lft.to/lastmile_qr_scan"}, "lat": 38.9184085, "is_disabled": 0, "lon": -77.05950466666667}, {"fusion_lat": 0.0, "type": "electric_bike", "name": "f14bed9bf1d8a0d0b02d2cd526664822", "fusion_lon": 0.0, "bike_id": "f14bed9bf1d8a0d0b02d2cd526664822", "is_reserved": 0, "rental_uris": {"android": "https://dc.lft.to/lastmile_qr_scan", "ios": "https://dc.lft.to/lastmile_qr_scan"}, "lat": 38.953244166666664, "is_disabled": 0, "lon": -76.95434383333334}, {"fusion_lat": 0.0, "type": "electric_bike", "name": "8bf1a8564f57cd7ac6489320e40aa577", "fusion_lon": 0.0, "bike_id": "8bf1a8564f57cd7ac6489320e40aa577", "is_reserved": 0, "rental_uris": {"android": "https://dc.lft.to/lastmile_qr_scan", "ios": "https://dc.lft.to/lastmile_qr_scan"}, "lat": 38.932300166666664, "is_disabled": 0, "lon": -77.18124583333334}, {"fusion_lat": 0.0, "type": "electric_scooter", "name": "74b387ec6058e40c41fa9a85b9a56ebb", "fusion_lon": 0.0, "bike_id": "74b387ec6058e40c41fa9a85b9a56ebb", "is_reserved": 0, "rental_uris": {"android": "https://dc.lft.to/lastmile_qr_scan", "ios": "https://dc.lft.to/lastmile_qr_scan"}, "lat": 38.9137545, "is_disabled": 0, "lon": -77.03134716666666}, {"fusion_lat": 0.0, "type": "electric_scooter", "name": "1b9d9b40d45f42990801d2837d649777", "fusion_lon": 0.0, "bike_id": "1b9d9b40d45f42990801d2837d649777", "is_reserved": 0, "rental_uris": {"android": "https://dc.lft.to/lastmile_qr_scan", "ios": "https://dc.lft.to/lastmile_qr_scan"}, "lat": 38.90083516666667, "is_disabled": 0, "lon": -77.04768483333334}, {"fusion_lat": 0.0, "type": "electric_scooter", "name": "8db3aafb3157f4a3a7662ee4b9eebc0e", "fusion_lon": 0.0, "bike_id": "8db3aafb3157f4a3a7662ee4b9eebc0e", "is_reserved": 0, "rental_uris": {"android": "https://dc.lft.to/lastmile_qr_scan", "ios": "https://dc.lft.to/lastmile_qr_scan"}, "lat": 38.897931666666665, "is_disabled": 0, "lon": -77.027285}, {"fusion_lat": 0.0, "type": "electric_scooter", "name": "579cd3ce4f5b95994cddc445ecace10c", "fusion_lon": 0.0, "bike_id": "579cd3ce4f5b95994cddc445ecace10c", "is_reserved": 0, "rental_uris": {"android": "https://dc.lft.to/lastmile_qr_scan", "ios": "https://dc.lft.to/lastmile_qr_scan"}, "lat": 38.88305666666667, "is_disabled": 0, "lon": -76.97862983333333}, {"fusion_lat": 0.0, "type": "electric_scooter", "name": "ca83421ef8686ce9cac61179a343c4cf", "fusion_lon": 0.0, "bike_id": "ca83421ef8686ce9cac61179a343c4cf", "is_reserved": 0, "rental_uris": {"android": "https://dc.lft.to/lastmile_qr_scan", "ios": "https://dc.lft.to/lastmile_qr_scan"}, "lat": 38.91552816666667, "is_disabled": 0, "lon": -77.031277}, {"fusion_lat": 0.0, "type": "electric_scooter", "name": "870365c97fbc65fb0c23675d1246dc1f", "fusion_lon": 0.0, "bike_id": "870365c97fbc65fb0c23675d1246dc1f", "is_reserved": 0, "rental_uris": {"android": "https://dc.lft.to/lastmile_qr_scan", "ios": "https://dc.lft.to/lastmile_qr_scan"}, "lat": 38.8991755, "is_disabled": 0, "lon": -76.93380466666666}, {"fusion_lat": 0.0, "type": "electric_scooter", "name": "0f1c8f624a37145efade1fd4910799ac", "fusion_lon": 0.0, "bike_id": "0f1c8f624a37145efade1fd4910799ac", "is_reserved": 0, "rental_uris": {"android": "https://dc.lft.to/lastmile_qr_scan", "ios": "https://dc.lft.to/lastmile_qr_scan"}, "lat": 38.8924685, "is_disabled": 0, "lon": -77.046574}, {"fusion_lat": 0.0, "type": "electric_scooter", "name": "64ce921f5fa382b152b634e105c121c2", "fusion_lon": 0.0, "bike_id": "64ce921f5fa382b152b634e105c121c2", "is_reserved": 0, "rental_uris": {"android": "https://dc.lft.to/lastmile_qr_scan", "ios": "https://dc.lft.to/lastmile_qr_scan"}, "lat": 38.915535166666665, "is_disabled": 0, "lon": -77.04178566666667}, {"fusion_lat": 0.0, "type": "electric_scooter", "name": "e0f83140a26e9b15f04314395be747f3", "fusion_lon": 0.0, "bike_id": "e0f83140a26e9b15f04314395be747f3", "is_reserved": 0, "rental_uris": {"android": "https://dc.lft.to/lastmile_qr_scan", "ios": "https://dc.lft.to/lastmile_qr_scan"}, "lat": 38.8922255, "is_disabled": 0, "lon": -77.023442}, {"fusion_lat": 0.0, "type": "electric_bike", "name": "212ba61b18e5da23c0ff8988045b6041", "fusion_lon": 0.0, "bike_id": "212ba61b18e5da23c0ff8988045b6041", "is_reserved": 0, "rental_uris": {"android": "https://dc.lft.to/lastmile_qr_scan", "ios": "https://dc.lft.to/lastmile_qr_scan"}, "lat": 39.06292283333333, "is_disabled": 0, "lon": -77.049837}, {"fusion_lat": 0.0, "type": "electric_scooter", "name": "1845216dad5393aabdcd7e0ff2d92b8c", "fusion_lon": 0.0, "bike_id": "1845216dad5393aabdcd7e0ff2d92b8c", "is_reserved": 0, "rental_uris": {"android": "https://dc.lft.to/lastmile_qr_scan", "ios": "https://dc.lft.to/lastmile_qr_scan"}, "lat": 38.9211155, "is_disabled": 0, "lon": -77.03667483333334}, {"fusion_lat": 0.0, "type": "electric_scooter", "name": "25a971ef0519b19bfb1d60c3a3c6e2f0", "fusion_lon": 0.0, "bike_id": "25a971ef0519b19bfb1d60c3a3c6e2f0", "is_reserved": 0, "rental_uris": {"android": "https://dc.lft.to/lastmile_qr_scan", "ios": "https://dc.lft.to/lastmile_qr_scan"}, "lat": 38.9275615, "is_disabled": 0, "lon": -77.0327665}, {"fusion_lat": 0.0, "type": "electric_scooter", "name": "dc69508e965f1705e89c3256e1de34e7", "fusion_lon": 0.0, "bike_id": "dc69508e965f1705e89c3256e1de34e7", "is_reserved": 0, "rental_uris": {"android": "https://dc.lft.to/lastmile_qr_scan", "ios": "https://dc.lft.to/lastmile_qr_scan"}, "lat": 38.89919833333333, "is_disabled": 0, "lon": -76.93380466666666}, {"fusion_lat": 0.0, "type": "electric_scooter", "name": "7e9b750df1d1826b55369966e195ae59", "fusion_lon": 0.0, "bike_id": "7e9b750df1d1826b55369966e195ae59", "is_reserved": 0, "rental_uris": {"android": "https://dc.lft.to/lastmile_qr_scan", "ios": "https://dc.lft.to/lastmile_qr_scan"}, "lat": 38.939812333333336, "is_disabled": 0, "lon": -77.02981033333333}, {"fusion_lat": 0.0, "type": "electric_scooter", "name": "c057014e0d0d1a024986d6eede13be26", "fusion_lon": 0.0, "bike_id": "c057014e0d0d1a024986d6eede13be26", "is_reserved": 0, "rental_uris": {"android": "https://dc.lft.to/lastmile_qr_scan", "ios": "https://dc.lft.to/lastmile_qr_scan"}, "lat": 38.916777333333336, "is_disabled": 0, "lon": -77.03667266666666}, {"fusion_lat": 0.0, "type": "electric_scooter", "name": "80b312bdb128e876ea7e15cd3187dc70", "fusion_lon": 0.0, "bike_id": "80b312bdb128e876ea7e15cd3187dc70", "is_reserved": 0, "rental_uris": {"android": "https://dc.lft.to/lastmile_qr_scan", "ios": "https://dc.lft.to/lastmile_qr_scan"}, "lat": 38.907192333333334, "is_disabled": 0, "lon": -77.03473316666667}, {"fusion_lat": 0.0, "type": "electric_scooter", "name": "5f5a6433b4dad99cba99c7facf47d868", "fusion_lon": 0.0, "bike_id": "5f5a6433b4dad99cba99c7facf47d868", "is_reserved": 0, "rental_uris": {"android": "https://dc.lft.to/lastmile_qr_scan", "ios": "https://dc.lft.to/lastmile_qr_scan"}, "lat": 38.92443883333333, "is_disabled": 0, "lon": -77.04106766666666}, {"fusion_lat": 0.0, "type": "electric_scooter", "name": "17af2ebf495d88bdb697450afda9c9f9", "fusion_lon": 0.0, "bike_id": "17af2ebf495d88bdb697450afda9c9f9", "is_reserved": 0, "rental_uris": {"android": "https://dc.lft.to/lastmile_qr_scan", "ios": "https://dc.lft.to/lastmile_qr_scan"}, "lat": 38.8716135, "is_disabled": 0, "lon": -76.97754933333333}, {"fusion_lat": 0.0, "type": "electric_scooter", "name": "aafc435f6fc55f9fda444f6918fc3c7a", "fusion_lon": 0.0, "bike_id": "aafc435f6fc55f9fda444f6918fc3c7a", "is_reserved": 0, "rental_uris": {"android": "https://dc.lft.to/lastmile_qr_scan", "ios": "https://dc.lft.to/lastmile_qr_scan"}, "lat": 38.92437783333333, "is_disabled": 0, "lon": -77.04025216666666}, {"fusion_lat": 0.0, "type": "electric_scooter", "name": "9060d5e6aa166db5b25549d37d567b02", "fusion_lon": 0.0, "bike_id": "9060d5e6aa166db5b25549d37d567b02", "is_reserved": 0, "rental_uris": {"android": "https://dc.lft.to/lastmile_qr_scan", "ios": "https://dc.lft.to/lastmile_qr_scan"}, "lat": 38.91634783333333, "is_disabled": 0, "lon": -77.0108095}, {"fusion_lat": 0.0, "type": "electric_scooter", "name": "276d90005d1d7519d1d6cf9687929f14", "fusion_lon": 0.0, "bike_id": "276d90005d1d7519d1d6cf9687929f14", "is_reserved": 0, "rental_uris": {"android": "https://dc.lft.to/lastmile_qr_scan", "ios": "https://dc.lft.to/lastmile_qr_scan"}, "lat": 38.95554833333333, "is_disabled": 0, "lon": -77.07003166666667}, {"fusion_lat": 0.0, "type": "electric_scooter", "name": "4d6a83d53c6b76046ee0a15cde5a8a7a", "fusion_lon": 0.0, "bike_id": "4d6a83d53c6b76046ee0a15cde5a8a7a", "is_reserved": 0, "rental_uris": {"android": "https://dc.lft.to/lastmile_qr_scan", "ios": "https://dc.lft.to/lastmile_qr_scan"}, "lat": 38.950307, "is_disabled": 0, "lon": -77.06693716666666}, {"fusion_lat": 0.0, "type": "electric_scooter", "name": "43d6a502da6cdbbae582caeca79a06de", "fusion_lon": 0.0, "bike_id": "43d6a502da6cdbbae582caeca79a06de", "is_reserved": 0, "rental_uris": {"android": "https://dc.lft.to/lastmile_qr_scan", "ios": "https://dc.lft.to/lastmile_qr_scan"}, "lat": 38.91386166666667, "is_disabled": 0, "lon": -77.03318583333333}, {"fusion_lat": 0.0, "type": "electric_scooter", "name": "0d72e07a177474c50e7ade27b2dd03e7", "fusion_lon": 0.0, "bike_id": "0d72e07a177474c50e7ade27b2dd03e7", "is_reserved": 0, "rental_uris": {"android": "https://dc.lft.to/lastmile_qr_scan", "ios": "https://dc.lft.to/lastmile_qr_scan"}, "lat": 38.917060166666666, "is_disabled": 0, "lon": -77.00872733333334}, {"fusion_lat": 0.0, "type": "electric_scooter", "name": "708c711d91910fe76e8c9e0151bf93c5", "fusion_lon": 0.0, "bike_id": "708c711d91910fe76e8c9e0151bf93c5", "is_reserved": 0, "rental_uris": {"android": "https://dc.lft.to/lastmile_qr_scan", "ios": "https://dc.lft.to/lastmile_qr_scan"}, "lat": 38.922771833333336, "is_disabled": 0, "lon": -77.03677333333333}, {"fusion_lat": 0.0, "type": "electric_scooter", "name": "24e4e3b9bbeab2f93fae8aa414e2ab7a", "fusion_lon": 0.0, "bike_id": "24e4e3b9bbeab2f93fae8aa414e2ab7a", "is_reserved": 0, "rental_uris": {"android": "https://dc.lft.to/lastmile_qr_scan", "ios": "https://dc.lft.to/lastmile_qr_scan"}, "lat": 38.91778883333333, "is_disabled": 0, "lon": -77.02309716666667}, {"fusion_lat": 0.0, "type": "electric_scooter", "name": "04177145de6c6583fbfad5b1c5aedf91", "fusion_lon": 0.0, "bike_id": "04177145de6c6583fbfad5b1c5aedf91", "is_reserved": 0, "rental_uris": {"android": "https://dc.lft.to/lastmile_qr_scan", "ios": "https://dc.lft.to/lastmile_qr_scan"}, "lat": 38.933223, "is_disabled": 0, "lon": -77.04400616666666}, {"fusion_lat": 0.0, "type": "electric_scooter", "name": "7279168b6e8a21c6c1bba14a4bfa3fba", "fusion_lon": 0.0, "bike_id": "7279168b6e8a21c6c1bba14a4bfa3fba", "is_reserved": 0, "rental_uris": {"android": "https://dc.lft.to/lastmile_qr_scan", "ios": "https://dc.lft.to/lastmile_qr_scan"}, "lat": 38.89775516666667, "is_disabled": 0, "lon": -77.03168633333334}, {"fusion_lat": 0.0, "type": "electric_bike", "name": "4e2962a82e7c6c0a8f742f5b97885f08", "fusion_lon": 0.0, "bike_id": "4e2962a82e7c6c0a8f742f5b97885f08", "is_reserved": 0, "rental_uris": {"android": "https://dc.lft.to/lastmile_qr_scan", "ios": "https://dc.lft.to/lastmile_qr_scan"}, "lat": 38.94561783333333, "is_disabled": 0, "lon": -76.96688966666666}, {"fusion_lat": 0.0, "type": "electric_scooter", "name": "155caf0c87e413aa2e4f577cd0372297", "fusion_lon": 0.0, "bike_id": "155caf0c87e413aa2e4f577cd0372297", "is_reserved": 0, "rental_uris": {"android": "https://dc.lft.to/lastmile_qr_scan", "ios": "https://dc.lft.to/lastmile_qr_scan"}, "lat": 38.843126, "is_disabled": 0, "lon": -76.999303}, {"fusion_lat": 0.0, "type": "electric_scooter", "name": "6b46d7c0ecc475deaca409a48790504a", "fusion_lon": 0.0, "bike_id": "6b46d7c0ecc475deaca409a48790504a", "is_reserved": 0, "rental_uris": {"android": "https://dc.lft.to/lastmile_qr_scan", "ios": "https://dc.lft.to/lastmile_qr_scan"}, "lat": 38.8669995, "is_disabled": 0, "lon": -76.98715883333334}, {"fusion_lat": 0.0, "type": "electric_scooter", "name": "008e93c18f2d94e58a90f9ea2a4d93de", "fusion_lon": 0.0, "bike_id": "008e93c18f2d94e58a90f9ea2a4d93de", "is_reserved": 0, "rental_uris": {"android": "https://dc.lft.to/lastmile_qr_scan", "ios": "https://dc.lft.to/lastmile_qr_scan"}, "lat": 38.88774816666667, "is_disabled": 0, "lon": -76.95532416666667}, {"fusion_lat": 0.0, "type": "electric_scooter", "name": "fa2207b68e912fb82d95bece5f077f95", "fusion_lon": 0.0, "bike_id": "fa2207b68e912fb82d95bece5f077f95", "is_reserved": 0, "rental_uris": {"android": "https://dc.lft.to/lastmile_qr_scan", "ios": "https://dc.lft.to/lastmile_qr_scan"}, "lat": 38.899643, "is_disabled": 0, "lon": -77.01858433333334}, {"fusion_lat": 0.0, "type": "electric_scooter", "name": "e43327f17732b1bad205ca58c21db49a", "fusion_lon": 0.0, "bike_id": "e43327f17732b1bad205ca58c21db49a", "is_reserved": 0, "rental_uris": {"android": "https://dc.lft.to/lastmile_qr_scan", "ios": "https://dc.lft.to/lastmile_qr_scan"}, "lat": 38.892241, "is_disabled": 0, "lon": -77.04332483333333}, {"fusion_lat": 0.0, "type": "electric_scooter", "name": "c546184f16e132336cab393276e6c2d2", "fusion_lon": 0.0, "bike_id": "c546184f16e132336cab393276e6c2d2", "is_reserved": 0, "rental_uris": {"android": "https://dc.lft.to/lastmile_qr_scan", "ios": "https://dc.lft.to/lastmile_qr_scan"}, "lat": 38.910196666666664, "is_disabled": 0, "lon": -77.00544266666667}, {"fusion_lat": 0.0, "type": "electric_bike", "name": "246ae4ee6938c4fc6d921559526942e5", "fusion_lon": 0.0, "bike_id": "246ae4ee6938c4fc6d921559526942e5", "is_reserved": 0, "rental_uris": {"android": "https://dc.lft.to/lastmile_qr_scan", "ios": "https://dc.lft.to/lastmile_qr_scan"}, "lat": 38.888577, "is_disabled": 0, "lon": -77.08158133333333}, {"fusion_lat": 0.0, "type": "electric_scooter", "name": "894496019b6d5d1c383b8004c9a8742f", "fusion_lon": 0.0, "bike_id": "894496019b6d5d1c383b8004c9a8742f", "is_reserved": 0, "rental_uris": {"android": "https://dc.lft.to/lastmile_qr_scan", "ios": "https://dc.lft.to/lastmile_qr_scan"}, "lat": 38.9307045, "is_disabled": 0, "lon": -77.03474183333333}, {"fusion_lat": 0.0, "type": "electric_scooter", "name": "8606a1244cebb822403ce76f71cba7ce", "fusion_lon": 0.0, "bike_id": "8606a1244cebb822403ce76f71cba7ce", "is_reserved": 0, "rental_uris": {"android": "https://dc.lft.to/lastmile_qr_scan", "ios": "https://dc.lft.to/lastmile_qr_scan"}, "lat": 38.923983, "is_disabled": 0, "lon": -77.03537583333333}, {"fusion_lat": 0.0, "type": "electric_scooter", "name": "9ff32bf4a2f7ecccf230ba149a84c454", "fusion_lon": 0.0, "bike_id": "9ff32bf4a2f7ecccf230ba149a84c454", "is_reserved": 0, "rental_uris": {"android": "https://dc.lft.to/lastmile_qr_scan", "ios": "https://dc.lft.to/lastmile_qr_scan"}, "lat": 38.926773833333336, "is_disabled": 0, "lon": -77.01510516666667}, {"fusion_lat": 0.0, "type": "electric_scooter", "name": "4ab4b9397e742cfc048251d1cbf95d72", "fusion_lon": 0.0, "bike_id": "4ab4b9397e742cfc048251d1cbf95d72", "is_reserved": 0, "rental_uris": {"android": "https://dc.lft.to/lastmile_qr_scan", "ios": "https://dc.lft.to/lastmile_qr_scan"}, "lat": 38.87040566666667, "is_disabled": 0, "lon": -77.00966883333334}, {"fusion_lat": 0.0, "type": "electric_scooter", "name": "53b2dd3bb449c86d7f8a49f2e04f0a99", "fusion_lon": 0.0, "bike_id": "53b2dd3bb449c86d7f8a49f2e04f0a99", "is_reserved": 0, "rental_uris": {"android": "https://dc.lft.to/lastmile_qr_scan", "ios": "https://dc.lft.to/lastmile_qr_scan"}, "lat": 38.9170345, "is_disabled": 0, "lon": -77.04174383333333}, {"fusion_lat": 0.0, "type": "electric_scooter", "name": "08a2baf8a598ed65e81a23a9f49a3294", "fusion_lon": 0.0, "bike_id": "08a2baf8a598ed65e81a23a9f49a3294", "is_reserved": 0, "rental_uris": {"android": "https://dc.lft.to/lastmile_qr_scan", "ios": "https://dc.lft.to/lastmile_qr_scan"}, "lat": 38.92611183333333, "is_disabled": 0, "lon": -77.0215865}, {"fusion_lat": 0.0, "type": "electric_scooter", "name": "acc8212f4b21d3ab2de07b420b4b9937", "fusion_lon": 0.0, "bike_id": "acc8212f4b21d3ab2de07b420b4b9937", "is_reserved": 0, "rental_uris": {"android": "https://dc.lft.to/lastmile_qr_scan", "ios": "https://dc.lft.to/lastmile_qr_scan"}, "lat": 38.909568, "is_disabled": 0, "lon": -77.0321475}, {"fusion_lat": 0.0, "type": "electric_scooter", "name": "617ced52330c8289754f4faae75b1498", "fusion_lon": 0.0, "bike_id": "617ced52330c8289754f4faae75b1498", "is_reserved": 0, "rental_uris": {"android": "https://dc.lft.to/lastmile_qr_scan", "ios": "https://dc.lft.to/lastmile_qr_scan"}, "lat": 38.86883383333333, "is_disabled": 0, "lon": -76.98236533333333}, {"fusion_lat": 0.0, "type": "electric_scooter", "name": "67d80e8a6422e33d1b7b81a0a74160dc", "fusion_lon": 0.0, "bike_id": "67d80e8a6422e33d1b7b81a0a74160dc", "is_reserved": 0, "rental_uris": {"android": "https://dc.lft.to/lastmile_qr_scan", "ios": "https://dc.lft.to/lastmile_qr_scan"}, "lat": 38.892217, "is_disabled": 0, "lon": -77.0137335}, {"fusion_lat": 0.0, "type": "electric_scooter", "name": "0dcf069c8d580a1afd2f9ba13e8443b3", "fusion_lon": 0.0, "bike_id": "0dcf069c8d580a1afd2f9ba13e8443b3", "is_reserved": 0, "rental_uris": {"android": "https://dc.lft.to/lastmile_qr_scan", "ios": "https://dc.lft.to/lastmile_qr_scan"}, "lat": 38.897466333333334, "is_disabled": 0, "lon": -77.01354516666666}, {"fusion_lat": 0.0, "type": "electric_scooter", "name": "ae82be5c9d55985dea83477ba76cc866", "fusion_lon": 0.0, "bike_id": "ae82be5c9d55985dea83477ba76cc866", "is_reserved": 0, "rental_uris": {"android": "https://dc.lft.to/lastmile_qr_scan", "ios": "https://dc.lft.to/lastmile_qr_scan"}, "lat": 38.94207083333333, "is_disabled": 0, "lon": -77.0251975}, {"fusion_lat": 0.0, "type": "electric_scooter", "name": "9eb5c0e3f7cbba5f548ca4f44fd03d87", "fusion_lon": 0.0, "bike_id": "9eb5c0e3f7cbba5f548ca4f44fd03d87", "is_reserved": 0, "rental_uris": {"android": "https://dc.lft.to/lastmile_qr_scan", "ios": "https://dc.lft.to/lastmile_qr_scan"}, "lat": 38.87644916666667, "is_disabled": 0, "lon": -76.965059}, {"fusion_lat": 0.0, "type": "electric_scooter", "name": "a1db3c48d36d100684007d64a428ea31", "fusion_lon": 0.0, "bike_id": "a1db3c48d36d100684007d64a428ea31", "is_reserved": 0, "rental_uris": {"android": "https://dc.lft.to/lastmile_qr_scan", "ios": "https://dc.lft.to/lastmile_qr_scan"}, "lat": 38.9006805, "is_disabled": 0, "lon": -77.04537016666667}, {"fusion_lat": 0.0, "type": "electric_scooter", "name": "fe034df537fe645521bcc57ce338ff00", "fusion_lon": 0.0, "bike_id": "fe034df537fe645521bcc57ce338ff00", "is_reserved": 0, "rental_uris": {"android": "https://dc.lft.to/lastmile_qr_scan", "ios": "https://dc.lft.to/lastmile_qr_scan"}, "lat": 38.930793666666666, "is_disabled": 0, "lon": -77.02794766666666}, {"fusion_lat": 0.0, "type": "electric_scooter", "name": "744d71aa26c39db2b42d8bbde73fe73c", "fusion_lon": 0.0, "bike_id": "744d71aa26c39db2b42d8bbde73fe73c", "is_reserved": 0, "rental_uris": {"android": "https://dc.lft.to/lastmile_qr_scan", "ios": "https://dc.lft.to/lastmile_qr_scan"}, "lat": 38.89221933333334, "is_disabled": 0, "lon": -77.04309066666667}, {"fusion_lat": 0.0, "type": "electric_scooter", "name": "499d6fc1131e58bf343bd54e8fe5884b", "fusion_lon": 0.0, "bike_id": "499d6fc1131e58bf343bd54e8fe5884b", "is_reserved": 0, "rental_uris": {"android": "https://dc.lft.to/lastmile_qr_scan", "ios": "https://dc.lft.to/lastmile_qr_scan"}, "lat": 38.911134, "is_disabled": 0, "lon": -77.03326816666667}, {"fusion_lat": 0.0, "type": "electric_scooter", "name": "eedae85809b03d6de2dd7063b193fb4f", "fusion_lon": 0.0, "bike_id": "eedae85809b03d6de2dd7063b193fb4f", "is_reserved": 0, "rental_uris": {"android": "https://dc.lft.to/lastmile_qr_scan", "ios": "https://dc.lft.to/lastmile_qr_scan"}, "lat": 38.92080216666667, "is_disabled": 0, "lon": -77.02682383333334}, {"fusion_lat": 0.0, "type": "electric_scooter", "name": "04aaa65336afb041f68d27bde48177a0", "fusion_lon": 0.0, "bike_id": "04aaa65336afb041f68d27bde48177a0", "is_reserved": 0, "rental_uris": {"android": "https://dc.lft.to/lastmile_qr_scan", "ios": "https://dc.lft.to/lastmile_qr_scan"}, "lat": 38.87791333333333, "is_disabled": 0, "lon": -77.01733933333334}, {"fusion_lat": 0.0, "type": "electric_scooter", "name": "5196dd65fea412ae239d9792c860bdf7", "fusion_lon": 0.0, "bike_id": "5196dd65fea412ae239d9792c860bdf7", "is_reserved": 0, "rental_uris": {"android": "https://dc.lft.to/lastmile_qr_scan", "ios": "https://dc.lft.to/lastmile_qr_scan"}, "lat": 38.90968483333333, "is_disabled": 0, "lon": -77.0207615}, {"fusion_lat": 0.0, "type": "electric_scooter", "name": "6e681deceae7c1e82f52724fff1832c9", "fusion_lon": 0.0, "bike_id": "6e681deceae7c1e82f52724fff1832c9", "is_reserved": 0, "rental_uris": {"android": "https://dc.lft.to/lastmile_qr_scan", "ios": "https://dc.lft.to/lastmile_qr_scan"}, "lat": 38.91792016666667, "is_disabled": 0, "lon": -77.04554483333334}, {"fusion_lat": 0.0, "type": "electric_bike", "name": "98d6fb39ea4e41bfdb2cee9d8a71b7df", "fusion_lon": 0.0, "bike_id": "98d6fb39ea4e41bfdb2cee9d8a71b7df", "is_reserved": 0, "rental_uris": {"android": "https://dc.lft.to/lastmile_qr_scan", "ios": "https://dc.lft.to/lastmile_qr_scan"}, "lat": 38.954971, "is_disabled": 0, "lon": -76.99383516666667}, {"fusion_lat": 0.0, "type": "electric_scooter", "name": "d30b1934acf886c6b3d1b5f3e4bf49d2", "fusion_lon": 0.0, "bike_id": "d30b1934acf886c6b3d1b5f3e4bf49d2", "is_reserved": 0, "rental_uris": {"android": "https://dc.lft.to/lastmile_qr_scan", "ios": "https://dc.lft.to/lastmile_qr_scan"}, "lat": 38.95829616666666, "is_disabled": 0, "lon": -77.01509833333333}, {"fusion_lat": 0.0, "type": "electric_scooter", "name": "5ca46eb0396e69f0661611331fa50e5a", "fusion_lon": 0.0, "bike_id": "5ca46eb0396e69f0661611331fa50e5a", "is_reserved": 0, "rental_uris": {"android": "https://dc.lft.to/lastmile_qr_scan", "ios": "https://dc.lft.to/lastmile_qr_scan"}, "lat": 38.92841266666667, "is_disabled": 0, "lon": -77.03283883333333}, {"fusion_lat": 0.0, "type": "electric_bike", "name": "a9bd568c136395503e3bc5796c0fbbc4", "fusion_lon": 0.0, "bike_id": "a9bd568c136395503e3bc5796c0fbbc4", "is_reserved": 0, "rental_uris": {"android": "https://dc.lft.to/lastmile_qr_scan", "ios": "https://dc.lft.to/lastmile_qr_scan"}, "lat": 39.042324, "is_disabled": 0, "lon": -77.03071966666667}, {"fusion_lat": 0.0, "type": "electric_scooter", "name": "a0b9b116dd460144a16adcdf80ea8629", "fusion_lon": 0.0, "bike_id": "a0b9b116dd460144a16adcdf80ea8629", "is_reserved": 0, "rental_uris": {"android": "https://dc.lft.to/lastmile_qr_scan", "ios": "https://dc.lft.to/lastmile_qr_scan"}, "lat": 38.91065433333333, "is_disabled": 0, "lon": -77.05476333333333}, {"fusion_lat": 0.0, "type": "electric_scooter", "name": "7e00c411047570b5677fa6ffcf692132", "fusion_lon": 0.0, "bike_id": "7e00c411047570b5677fa6ffcf692132", "is_reserved": 0, "rental_uris": {"android": "https://dc.lft.to/lastmile_qr_scan", "ios": "https://dc.lft.to/lastmile_qr_scan"}, "lat": 38.909780833333336, "is_disabled": 0, "lon": -77.03242416666667}, {"fusion_lat": 0.0, "type": "electric_scooter", "name": "4352ccd1b912bcf67f0d65ee1bdea7ba", "fusion_lon": 0.0, "bike_id": "4352ccd1b912bcf67f0d65ee1bdea7ba", "is_reserved": 0, "rental_uris": {"android": "https://dc.lft.to/lastmile_qr_scan", "ios": "https://dc.lft.to/lastmile_qr_scan"}, "lat": 38.91175, "is_disabled": 0, "lon": -77.00453383333333}, {"fusion_lat": 0.0, "type": "electric_scooter", "name": "7d70ca04c9d31a69ef1d300bbd99a0b0", "fusion_lon": 0.0, "bike_id": "7d70ca04c9d31a69ef1d300bbd99a0b0", "is_reserved": 0, "rental_uris": {"android": "https://dc.lft.to/lastmile_qr_scan", "ios": "https://dc.lft.to/lastmile_qr_scan"}, "lat": 38.919906, "is_disabled": 0, "lon": -77.02408216666667}, {"fusion_lat": 0.0, "type": "electric_scooter", "name": "bec66446141f991e7695e5a98a854ec0", "fusion_lon": 0.0, "bike_id": "bec66446141f991e7695e5a98a854ec0", "is_reserved": 0, "rental_uris": {"android": "https://dc.lft.to/lastmile_qr_scan", "ios": "https://dc.lft.to/lastmile_qr_scan"}, "lat": 38.9097625, "is_disabled": 0, "lon": -77.03446283333334}, {"fusion_lat": 0.0, "type": "electric_scooter", "name": "e5aa70b4b9af7c50b85eacd8e507a632", "fusion_lon": 0.0, "bike_id": "e5aa70b4b9af7c50b85eacd8e507a632", "is_reserved": 0, "rental_uris": {"android": "https://dc.lft.to/lastmile_qr_scan", "ios": "https://dc.lft.to/lastmile_qr_scan"}, "lat": 38.91063616666667, "is_disabled": 0, "lon": -77.05311083333333}, {"fusion_lat": 0.0, "type": "electric_bike", "name": "8019d170be4fd00974145990678bc1e5", "fusion_lon": 0.0, "bike_id": "8019d170be4fd00974145990678bc1e5", "is_reserved": 0, "rental_uris": {"android": "https://dc.lft.to/lastmile_qr_scan", "ios": "https://dc.lft.to/lastmile_qr_scan"}, "lat": 38.82949716666667, "is_disabled": 0, "lon": -77.123553}, {"fusion_lat": 0.0, "type": "electric_scooter", "name": "042083dd9d42cc5ebe9f3b1058664fe7", "fusion_lon": 0.0, "bike_id": "042083dd9d42cc5ebe9f3b1058664fe7", "is_reserved": 0, "rental_uris": {"android": "https://dc.lft.to/lastmile_qr_scan", "ios": "https://dc.lft.to/lastmile_qr_scan"}, "lat": 38.92743883333333, "is_disabled": 0, "lon": -77.02143483333333}, {"fusion_lat": 0.0, "type": "electric_scooter", "name": "d44760484d53a4973e9846258de9a053", "fusion_lon": 0.0, "bike_id": "d44760484d53a4973e9846258de9a053", "is_reserved": 0, "rental_uris": {"android": "https://dc.lft.to/lastmile_qr_scan", "ios": "https://dc.lft.to/lastmile_qr_scan"}, "lat": 38.92685766666666, "is_disabled": 0, "lon": -77.01503283333334}, {"fusion_lat": 0.0, "type": "electric_scooter", "name": "9e6a8c2dec658aa6893b9a449870cd04", "fusion_lon": 0.0, "bike_id": "9e6a8c2dec658aa6893b9a449870cd04", "is_reserved": 0, "rental_uris": {"android": "https://dc.lft.to/lastmile_qr_scan", "ios": "https://dc.lft.to/lastmile_qr_scan"}, "lat": 38.881206166666665, "is_disabled": 0, "lon": -76.99006366666667}, {"fusion_lat": 0.0, "type": "electric_scooter", "name": "d87fd2957439dd1f07267c5c9e6df4c8", "fusion_lon": 0.0, "bike_id": "d87fd2957439dd1f07267c5c9e6df4c8", "is_reserved": 0, "rental_uris": {"android": "https://dc.lft.to/lastmile_qr_scan", "ios": "https://dc.lft.to/lastmile_qr_scan"}, "lat": 38.911247833333334, "is_disabled": 0, "lon": -77.02199083333333}, {"fusion_lat": 0.0, "type": "electric_scooter", "name": "d9bbce16cbf2c523f085f60d9d83fdd1", "fusion_lon": 0.0, "bike_id": "d9bbce16cbf2c523f085f60d9d83fdd1", "is_reserved": 0, "rental_uris": {"android": "https://dc.lft.to/lastmile_qr_scan", "ios": "https://dc.lft.to/lastmile_qr_scan"}, "lat": 38.927877333333335, "is_disabled": 0, "lon": -77.03156966666667}, {"fusion_lat": 0.0, "type": "electric_scooter", "name": "39abc62aca751913e9cec9aaed5214d4", "fusion_lon": 0.0, "bike_id": "39abc62aca751913e9cec9aaed5214d4", "is_reserved": 0, "rental_uris": {"android": "https://dc.lft.to/lastmile_qr_scan", "ios": "https://dc.lft.to/lastmile_qr_scan"}, "lat": 38.90010933333333, "is_disabled": 0, "lon": -77.03975116666666}, {"fusion_lat": 0.0, "type": "electric_scooter", "name": "ba1fe448c74a00ef3c3de8550628aba8", "fusion_lon": 0.0, "bike_id": "ba1fe448c74a00ef3c3de8550628aba8", "is_reserved": 0, "rental_uris": {"android": "https://dc.lft.to/lastmile_qr_scan", "ios": "https://dc.lft.to/lastmile_qr_scan"}, "lat": 38.91736433333333, "is_disabled": 0, "lon": -77.0180145}, {"fusion_lat": 0.0, "type": "electric_bike", "name": "fcb323cb400ffa5f6ae09284891363ac", "fusion_lon": 0.0, "bike_id": "fcb323cb400ffa5f6ae09284891363ac", "is_reserved": 0, "rental_uris": {"android": "https://dc.lft.to/lastmile_qr_scan", "ios": "https://dc.lft.to/lastmile_qr_scan"}, "lat": 38.93774966666667, "is_disabled": 0, "lon": -77.0336935}, {"fusion_lat": 0.0, "type": "electric_bike", "name": "def5bc50da983fb3431a19c31f01c362", "fusion_lon": 0.0, "bike_id": "def5bc50da983fb3431a19c31f01c362", "is_reserved": 0, "rental_uris": {"android": "https://dc.lft.to/lastmile_qr_scan", "ios": "https://dc.lft.to/lastmile_qr_scan"}, "lat": 38.8593825, "is_disabled": 0, "lon": -77.11831533333333}, {"fusion_lat": 0.0, "type": "electric_scooter", "name": "e1971f5fb00260274224a158221017a8", "fusion_lon": 0.0, "bike_id": "e1971f5fb00260274224a158221017a8", "is_reserved": 0, "rental_uris": {"android": "https://dc.lft.to/lastmile_qr_scan", "ios": "https://dc.lft.to/lastmile_qr_scan"}, "lat": 38.9199275, "is_disabled": 0, "lon": -77.02406966666666}, {"fusion_lat": 0.0, "type": "electric_scooter", "name": "0af50a784c97416f7c9a05411ff434fc", "fusion_lon": 0.0, "bike_id": "0af50a784c97416f7c9a05411ff434fc", "is_reserved": 0, "rental_uris": {"android": "https://dc.lft.to/lastmile_qr_scan", "ios": "https://dc.lft.to/lastmile_qr_scan"}, "lat": 38.8861035, "is_disabled": 0, "lon": -77.0013895}, {"fusion_lat": 0.0, "type": "electric_scooter", "name": "835b0b68e952545a76907651d146b79b", "fusion_lon": 0.0, "bike_id": "835b0b68e952545a76907651d146b79b", "is_reserved": 0, "rental_uris": {"android": "https://dc.lft.to/lastmile_qr_scan", "ios": "https://dc.lft.to/lastmile_qr_scan"}, "lat": 38.86469, "is_disabled": 0, "lon": -76.98228516666667}, {"fusion_lat": 0.0, "type": "electric_scooter", "name": "c17ee99cf14f47f7217b0f4e4301b721", "fusion_lon": 0.0, "bike_id": "c17ee99cf14f47f7217b0f4e4301b721", "is_reserved": 0, "rental_uris": {"android": "https://dc.lft.to/lastmile_qr_scan", "ios": "https://dc.lft.to/lastmile_qr_scan"}, "lat": 38.921603, "is_disabled": 0, "lon": -77.03384}, {"fusion_lat": 0.0, "type": "electric_scooter", "name": "dfb83df7e98e939049c94bfa95610f80", "fusion_lon": 0.0, "bike_id": "dfb83df7e98e939049c94bfa95610f80", "is_reserved": 0, "rental_uris": {"android": "https://dc.lft.to/lastmile_qr_scan", "ios": "https://dc.lft.to/lastmile_qr_scan"}, "lat": 38.920345166666664, "is_disabled": 0, "lon": -77.04185316666667}, {"fusion_lat": 0.0, "type": "electric_scooter", "name": "3531ac03f52beb0e30a31fdd52b85915", "fusion_lon": 0.0, "bike_id": "3531ac03f52beb0e30a31fdd52b85915", "is_reserved": 0, "rental_uris": {"android": "https://dc.lft.to/lastmile_qr_scan", "ios": "https://dc.lft.to/lastmile_qr_scan"}, "lat": 38.949895, "is_disabled": 0, "lon": -77.0269875}, {"fusion_lat": 0.0, "type": "electric_scooter", "name": "76a04cb4cea39070bf5916789264bb9b", "fusion_lon": 0.0, "bike_id": "76a04cb4cea39070bf5916789264bb9b", "is_reserved": 0, "rental_uris": {"android": "https://dc.lft.to/lastmile_qr_scan", "ios": "https://dc.lft.to/lastmile_qr_scan"}, "lat": 38.887219, "is_disabled": 0, "lon": -77.02206266666667}, {"fusion_lat": 0.0, "type": "electric_bike", "name": "6cad02cdce6102272b8a394914241da6", "fusion_lon": 0.0, "bike_id": "6cad02cdce6102272b8a394914241da6", "is_reserved": 0, "rental_uris": {"android": "https://dc.lft.to/lastmile_qr_scan", "ios": "https://dc.lft.to/lastmile_qr_scan"}, "lat": 38.981565, "is_disabled": 0, "lon": -77.02644083333334}, {"fusion_lat": 0.0, "type": "electric_scooter", "name": "967d51be0e3e16afc594d0b40418a7b5", "fusion_lon": 0.0, "bike_id": "967d51be0e3e16afc594d0b40418a7b5", "is_reserved": 0, "rental_uris": {"android": "https://dc.lft.to/lastmile_qr_scan", "ios": "https://dc.lft.to/lastmile_qr_scan"}, "lat": 38.91716316666667, "is_disabled": 0, "lon": -77.0386085}, {"fusion_lat": 0.0, "type": "electric_scooter", "name": "da90708534d2b356c9588c31d147f4c9", "fusion_lon": 0.0, "bike_id": "da90708534d2b356c9588c31d147f4c9", "is_reserved": 0, "rental_uris": {"android": "https://dc.lft.to/lastmile_qr_scan", "ios": "https://dc.lft.to/lastmile_qr_scan"}, "lat": 38.9070725, "is_disabled": 0, "lon": -77.02689783333334}, {"fusion_lat": 0.0, "type": "electric_scooter", "name": "3b310fbc6500515096b7819260b067ca", "fusion_lon": 0.0, "bike_id": "3b310fbc6500515096b7819260b067ca", "is_reserved": 0, "rental_uris": {"android": "https://dc.lft.to/lastmile_qr_scan", "ios": "https://dc.lft.to/lastmile_qr_scan"}, "lat": 38.901374, "is_disabled": 0, "lon": -77.04401133333333}, {"fusion_lat": 0.0, "type": "electric_scooter", "name": "2f0ba09020455afd682b66918417832c", "fusion_lon": 0.0, "bike_id": "2f0ba09020455afd682b66918417832c", "is_reserved": 0, "rental_uris": {"android": "https://dc.lft.to/lastmile_qr_scan", "ios": "https://dc.lft.to/lastmile_qr_scan"}, "lat": 38.86656883333333, "is_disabled": 0, "lon": -76.985282}, {"fusion_lat": 0.0, "type": "electric_scooter", "name": "e9e0e4a1af673710de947c268cb0a82d", "fusion_lon": 0.0, "bike_id": "e9e0e4a1af673710de947c268cb0a82d", "is_reserved": 0, "rental_uris": {"android": "https://dc.lft.to/lastmile_qr_scan", "ios": "https://dc.lft.to/lastmile_qr_scan"}, "lat": 38.906931166666666, "is_disabled": 0, "lon": -77.0369325}, {"fusion_lat": 0.0, "type": "electric_scooter", "name": "1f0b0a9a532bc5f6360bea7c9dc1cf70", "fusion_lon": 0.0, "bike_id": "1f0b0a9a532bc5f6360bea7c9dc1cf70", "is_reserved": 0, "rental_uris": {"android": "https://dc.lft.to/lastmile_qr_scan", "ios": "https://dc.lft.to/lastmile_qr_scan"}, "lat": 38.93007583333333, "is_disabled": 0, "lon": -77.05512683333333}, {"fusion_lat": 0.0, "type": "electric_bike", "name": "ed44a82e7116c55909836dd8848d0f07", "fusion_lon": 0.0, "bike_id": "ed44a82e7116c55909836dd8848d0f07", "is_reserved": 0, "rental_uris": {"android": "https://dc.lft.to/lastmile_qr_scan", "ios": "https://dc.lft.to/lastmile_qr_scan"}, "lat": 38.846089666666664, "is_disabled": 0, "lon": -77.0897315}, {"fusion_lat": 0.0, "type": "electric_scooter", "name": "462d7e99ddcff434e3a56e7671e4f077", "fusion_lon": 0.0, "bike_id": "462d7e99ddcff434e3a56e7671e4f077", "is_reserved": 0, "rental_uris": {"android": "https://dc.lft.to/lastmile_qr_scan", "ios": "https://dc.lft.to/lastmile_qr_scan"}, "lat": 38.892965333333336, "is_disabled": 0, "lon": -77.01224633333334}, {"fusion_lat": 0.0, "type": "electric_scooter", "name": "e308f82de32efab87461a497fd7de9ee", "fusion_lon": 0.0, "bike_id": "e308f82de32efab87461a497fd7de9ee", "is_reserved": 0, "rental_uris": {"android": "https://dc.lft.to/lastmile_qr_scan", "ios": "https://dc.lft.to/lastmile_qr_scan"}, "lat": 38.92430483333333, "is_disabled": 0, "lon": -77.042484}, {"fusion_lat": 0.0, "type": "electric_scooter", "name": "207726bef9d737552bbc19d069a942dd", "fusion_lon": 0.0, "bike_id": "207726bef9d737552bbc19d069a942dd", "is_reserved": 0, "rental_uris": {"android": "https://dc.lft.to/lastmile_qr_scan", "ios": "https://dc.lft.to/lastmile_qr_scan"}, "lat": 38.89231016666667, "is_disabled": 0, "lon": -77.0197765}, {"fusion_lat": 0.0, "type": "electric_scooter", "name": "4081b517605fe01fbe66eb13c297f17e", "fusion_lon": 0.0, "bike_id": "4081b517605fe01fbe66eb13c297f17e", "is_reserved": 0, "rental_uris": {"android": "https://dc.lft.to/lastmile_qr_scan", "ios": "https://dc.lft.to/lastmile_qr_scan"}, "lat": 38.922351, "is_disabled": 0, "lon": -77.04247266666667}, {"fusion_lat": 0.0, "type": "electric_bike", "name": "dd25ccdcb790897c2e95f529039b8875", "fusion_lon": 0.0, "bike_id": "dd25ccdcb790897c2e95f529039b8875", "is_reserved": 0, "rental_uris": {"android": "https://dc.lft.to/lastmile_qr_scan", "ios": "https://dc.lft.to/lastmile_qr_scan"}, "lat": 38.99345683333333, "is_disabled": 0, "lon": -77.11576383333333}, {"fusion_lat": 0.0, "type": "electric_scooter", "name": "be987bdaae5e58582f44b761e4c8966b", "fusion_lon": 0.0, "bike_id": "be987bdaae5e58582f44b761e4c8966b", "is_reserved": 0, "rental_uris": {"android": "https://dc.lft.to/lastmile_qr_scan", "ios": "https://dc.lft.to/lastmile_qr_scan"}, "lat": 38.89225416666667, "is_disabled": 0, "lon": -77.043334}, {"fusion_lat": 0.0, "type": "electric_scooter", "name": "542136f343a85cdbae44478245d4107c", "fusion_lon": 0.0, "bike_id": "542136f343a85cdbae44478245d4107c", "is_reserved": 0, "rental_uris": {"android": "https://dc.lft.to/lastmile_qr_scan", "ios": "https://dc.lft.to/lastmile_qr_scan"}, "lat": 38.9269985, "is_disabled": 0, "lon": -77.04116316666666}, {"fusion_lat": 0.0, "type": "electric_scooter", "name": "b230b910f26429b1d5b951d860a68416", "fusion_lon": 0.0, "bike_id": "b230b910f26429b1d5b951d860a68416", "is_reserved": 0, "rental_uris": {"android": "https://dc.lft.to/lastmile_qr_scan", "ios": "https://dc.lft.to/lastmile_qr_scan"}, "lat": 38.900347333333336, "is_disabled": 0, "lon": -77.03211983333334}, {"fusion_lat": 0.0, "type": "electric_scooter", "name": "7ba970845180f4a15163f2a8b389a58c", "fusion_lon": 0.0, "bike_id": "7ba970845180f4a15163f2a8b389a58c", "is_reserved": 0, "rental_uris": {"android": "https://dc.lft.to/lastmile_qr_scan", "ios": "https://dc.lft.to/lastmile_qr_scan"}, "lat": 38.90205016666667, "is_disabled": 0, "lon": -77.0235675}, {"fusion_lat": 0.0, "type": "electric_scooter", "name": "2911e9fc478a5a2cb2426481fdfebcfd", "fusion_lon": 0.0, "bike_id": "2911e9fc478a5a2cb2426481fdfebcfd", "is_reserved": 0, "rental_uris": {"android": "https://dc.lft.to/lastmile_qr_scan", "ios": "https://dc.lft.to/lastmile_qr_scan"}, "lat": 38.905653, "is_disabled": 0, "lon": -77.045273}, {"fusion_lat": 0.0, "type": "electric_bike", "name": "6ec769b479aa1b0e4753dfbf8480289d", "fusion_lon": 0.0, "bike_id": "6ec769b479aa1b0e4753dfbf8480289d", "is_reserved": 0, "rental_uris": {"android": "https://dc.lft.to/lastmile_qr_scan", "ios": "https://dc.lft.to/lastmile_qr_scan"}, "lat": 39.043025, "is_disabled": 0, "lon": -77.05159166666667}, {"fusion_lat": 0.0, "type": "electric_bike", "name": "31d65383c4d7a4a57ce69f45d1985792", "fusion_lon": 0.0, "bike_id": "31d65383c4d7a4a57ce69f45d1985792", "is_reserved": 0, "rental_uris": {"android": "https://dc.lft.to/lastmile_qr_scan", "ios": "https://dc.lft.to/lastmile_qr_scan"}, "lat": 38.906223833333335, "is_disabled": 0, "lon": -76.98604366666666}, {"fusion_lat": 0.0, "type": "electric_scooter", "name": "b0dc76f4c239ee2d45bafc7447c4234f", "fusion_lon": 0.0, "bike_id": "b0dc76f4c239ee2d45bafc7447c4234f", "is_reserved": 0, "rental_uris": {"android": "https://dc.lft.to/lastmile_qr_scan", "ios": "https://dc.lft.to/lastmile_qr_scan"}, "lat": 38.90727433333333, "is_disabled": 0, "lon": -76.98694383333333}, {"fusion_lat": 0.0, "type": "electric_scooter", "name": "4c2d38f3f3018c443475b0b40a51b312", "fusion_lon": 0.0, "bike_id": "4c2d38f3f3018c443475b0b40a51b312", "is_reserved": 0, "rental_uris": {"android": "https://dc.lft.to/lastmile_qr_scan", "ios": "https://dc.lft.to/lastmile_qr_scan"}, "lat": 38.90829183333334, "is_disabled": 0, "lon": -77.03562583333333}, {"fusion_lat": 0.0, "type": "electric_scooter", "name": "2e8cdb8cb8d7e8ef9974408abcbf661d", "fusion_lon": 0.0, "bike_id": "2e8cdb8cb8d7e8ef9974408abcbf661d", "is_reserved": 0, "rental_uris": {"android": "https://dc.lft.to/lastmile_qr_scan", "ios": "https://dc.lft.to/lastmile_qr_scan"}, "lat": 38.923641833333335, "is_disabled": 0, "lon": -77.01920733333333}, {"fusion_lat": 0.0, "type": "electric_scooter", "name": "6e68476cd6d19bbe7d2c3568f625e629", "fusion_lon": 0.0, "bike_id": "6e68476cd6d19bbe7d2c3568f625e629", "is_reserved": 0, "rental_uris": {"android": "https://dc.lft.to/lastmile_qr_scan", "ios": "https://dc.lft.to/lastmile_qr_scan"}, "lat": 38.8923545, "is_disabled": 0, "lon": -77.02208433333334}, {"fusion_lat": 0.0, "type": "electric_scooter", "name": "4962ddd7fff59a9d083ce5b459ac3411", "fusion_lon": 0.0, "bike_id": "4962ddd7fff59a9d083ce5b459ac3411", "is_reserved": 0, "rental_uris": {"android": "https://dc.lft.to/lastmile_qr_scan", "ios": "https://dc.lft.to/lastmile_qr_scan"}, "lat": 38.898765, "is_disabled": 0, "lon": -77.039585}, {"fusion_lat": 0.0, "type": "electric_scooter", "name": "f98c3b7e0d633607b6cf6f8582b20a25", "fusion_lon": 0.0, "bike_id": "f98c3b7e0d633607b6cf6f8582b20a25", "is_reserved": 0, "rental_uris": {"android": "https://dc.lft.to/lastmile_qr_scan", "ios": "https://dc.lft.to/lastmile_qr_scan"}, "lat": 38.930934, "is_disabled": 0, "lon": -77.02536766666667}, {"fusion_lat": 0.0, "type": "electric_scooter", "name": "ba9c64799e98ca62123c5b1fa2fc9259", "fusion_lon": 0.0, "bike_id": "ba9c64799e98ca62123c5b1fa2fc9259", "is_reserved": 0, "rental_uris": {"android": "https://dc.lft.to/lastmile_qr_scan", "ios": "https://dc.lft.to/lastmile_qr_scan"}, "lat": 38.90736483333333, "is_disabled": 0, "lon": -77.02693833333333}, {"fusion_lat": 0.0, "type": "electric_scooter", "name": "3086e4c6e7612c7a312a52ac43627395", "fusion_lon": 0.0, "bike_id": "3086e4c6e7612c7a312a52ac43627395", "is_reserved": 0, "rental_uris": {"android": "https://dc.lft.to/lastmile_qr_scan", "ios": "https://dc.lft.to/lastmile_qr_scan"}, "lat": 38.90510616666667, "is_disabled": 0, "lon": -76.996096}, {"fusion_lat": 0.0, "type": "electric_scooter", "name": "6f5b7d62ed9bac5af04ea13c58550b3c", "fusion_lon": 0.0, "bike_id": "6f5b7d62ed9bac5af04ea13c58550b3c", "is_reserved": 0, "rental_uris": {"android": "https://dc.lft.to/lastmile_qr_scan", "ios": "https://dc.lft.to/lastmile_qr_scan"}, "lat": 38.897861, "is_disabled": 0, "lon": -77.0501245}, {"fusion_lat": 0.0, "type": "electric_scooter", "name": "3e2ec1de17e484f8996211cb11876dd7", "fusion_lon": 0.0, "bike_id": "3e2ec1de17e484f8996211cb11876dd7", "is_reserved": 0, "rental_uris": {"android": "https://dc.lft.to/lastmile_qr_scan", "ios": "https://dc.lft.to/lastmile_qr_scan"}, "lat": 38.922472666666664, "is_disabled": 0, "lon": -77.02980966666667}, {"fusion_lat": 0.0, "type": "electric_scooter", "name": "0cf6e30742ee49b1646dda239b621c2d", "fusion_lon": 0.0, "bike_id": "0cf6e30742ee49b1646dda239b621c2d", "is_reserved": 0, "rental_uris": {"android": "https://dc.lft.to/lastmile_qr_scan", "ios": "https://dc.lft.to/lastmile_qr_scan"}, "lat": 38.91178516666667, "is_disabled": 0, "lon": -77.0349475}, {"fusion_lat": 0.0, "type": "electric_scooter", "name": "0af2ee66b68ebaa49da0b13bdaa80ef0", "fusion_lon": 0.0, "bike_id": "0af2ee66b68ebaa49da0b13bdaa80ef0", "is_reserved": 0, "rental_uris": {"android": "https://dc.lft.to/lastmile_qr_scan", "ios": "https://dc.lft.to/lastmile_qr_scan"}, "lat": 38.873433, "is_disabled": 0, "lon": -76.99167483333333}, {"fusion_lat": 0.0, "type": "electric_scooter", "name": "2391fc853671a45286f9a7c118470259", "fusion_lon": 0.0, "bike_id": "2391fc853671a45286f9a7c118470259", "is_reserved": 0, "rental_uris": {"android": "https://dc.lft.to/lastmile_qr_scan", "ios": "https://dc.lft.to/lastmile_qr_scan"}, "lat": 38.9356805, "is_disabled": 0, "lon": -77.02124866666666}, {"fusion_lat": 0.0, "type": "electric_scooter", "name": "b0ac52386a1354690683fed19ae8f7cc", "fusion_lon": 0.0, "bike_id": "b0ac52386a1354690683fed19ae8f7cc", "is_reserved": 0, "rental_uris": {"android": "https://dc.lft.to/lastmile_qr_scan", "ios": "https://dc.lft.to/lastmile_qr_scan"}, "lat": 38.920365333333336, "is_disabled": 0, "lon": -76.9973995}, {"fusion_lat": 0.0, "type": "electric_scooter", "name": "c1fcf98bc15c2d655400610e6d3c6269", "fusion_lon": 0.0, "bike_id": "c1fcf98bc15c2d655400610e6d3c6269", "is_reserved": 0, "rental_uris": {"android": "https://dc.lft.to/lastmile_qr_scan", "ios": "https://dc.lft.to/lastmile_qr_scan"}, "lat": 38.896101333333334, "is_disabled": 0, "lon": -76.99970283333333}, {"fusion_lat": 0.0, "type": "electric_scooter", "name": "2276a48e7e055d94bb6eeb77133044c3", "fusion_lon": 0.0, "bike_id": "2276a48e7e055d94bb6eeb77133044c3", "is_reserved": 0, "rental_uris": {"android": "https://dc.lft.to/lastmile_qr_scan", "ios": "https://dc.lft.to/lastmile_qr_scan"}, "lat": 38.9129785, "is_disabled": 0, "lon": -77.045574}, {"fusion_lat": 0.0, "type": "electric_bike", "name": "91fbfe1377e9323a250c55d5d3fcdcd6", "fusion_lon": 0.0, "bike_id": "91fbfe1377e9323a250c55d5d3fcdcd6", "is_reserved": 0, "rental_uris": {"android": "https://dc.lft.to/lastmile_qr_scan", "ios": "https://dc.lft.to/lastmile_qr_scan"}, "lat": 38.8885575, "is_disabled": 0, "lon": -77.08159416666666}, {"fusion_lat": 0.0, "type": "electric_scooter", "name": "c04477f874595fe457453561b5a95b98", "fusion_lon": 0.0, "bike_id": "c04477f874595fe457453561b5a95b98", "is_reserved": 0, "rental_uris": {"android": "https://dc.lft.to/lastmile_qr_scan", "ios": "https://dc.lft.to/lastmile_qr_scan"}, "lat": 38.87683216666667, "is_disabled": 0, "lon": -77.00572783333334}, {"fusion_lat": 0.0, "type": "electric_scooter", "name": "18baf66da9cd20d50333f7aca15abc7a", "fusion_lon": 0.0, "bike_id": "18baf66da9cd20d50333f7aca15abc7a", "is_reserved": 0, "rental_uris": {"android": "https://dc.lft.to/lastmile_qr_scan", "ios": "https://dc.lft.to/lastmile_qr_scan"}, "lat": 38.92242266666667, "is_disabled": 0, "lon": -77.03075916666667}, {"fusion_lat": 0.0, "type": "electric_scooter", "name": "86acf6a05f1fd9e6a92a9dbff246e50d", "fusion_lon": 0.0, "bike_id": "86acf6a05f1fd9e6a92a9dbff246e50d", "is_reserved": 0, "rental_uris": {"android": "https://dc.lft.to/lastmile_qr_scan", "ios": "https://dc.lft.to/lastmile_qr_scan"}, "lat": 38.95336866666667, "is_disabled": 0, "lon": -76.99981516666666}, {"fusion_lat": 0.0, "type": "electric_scooter", "name": "5b0abdb1a391ee516ff1e3019d366aaa", "fusion_lon": 0.0, "bike_id": "5b0abdb1a391ee516ff1e3019d366aaa", "is_reserved": 0, "rental_uris": {"android": "https://dc.lft.to/lastmile_qr_scan", "ios": "https://dc.lft.to/lastmile_qr_scan"}, "lat": 38.9077955, "is_disabled": 0, "lon": -77.03860466666667}, {"fusion_lat": 0.0, "type": "electric_scooter", "name": "6157e0d3bb463ee33c587db9612c4699", "fusion_lon": 0.0, "bike_id": "6157e0d3bb463ee33c587db9612c4699", "is_reserved": 0, "rental_uris": {"android": "https://dc.lft.to/lastmile_qr_scan", "ios": "https://dc.lft.to/lastmile_qr_scan"}, "lat": 38.902401166666664, "is_disabled": 0, "lon": -77.03972666666667}, {"fusion_lat": 0.0, "type": "electric_scooter", "name": "fe6f3066f9d6d89486cbd759ebc2ca7e", "fusion_lon": 0.0, "bike_id": "fe6f3066f9d6d89486cbd759ebc2ca7e", "is_reserved": 0, "rental_uris": {"android": "https://dc.lft.to/lastmile_qr_scan", "ios": "https://dc.lft.to/lastmile_qr_scan"}, "lat": 38.902638833333334, "is_disabled": 0, "lon": -77.01218633333333}, {"fusion_lat": 0.0, "type": "electric_scooter", "name": "b3f67a6a0dc678796e0a78784473f147", "fusion_lon": 0.0, "bike_id": "b3f67a6a0dc678796e0a78784473f147", "is_reserved": 0, "rental_uris": {"android": "https://dc.lft.to/lastmile_qr_scan", "ios": "https://dc.lft.to/lastmile_qr_scan"}, "lat": 38.933618333333335, "is_disabled": 0, "lon": -77.05731716666666}, {"fusion_lat": 0.0, "type": "electric_scooter", "name": "77c85b645b4df66aa62d6bf748e69f50", "fusion_lon": 0.0, "bike_id": "77c85b645b4df66aa62d6bf748e69f50", "is_reserved": 0, "rental_uris": {"android": "https://dc.lft.to/lastmile_qr_scan", "ios": "https://dc.lft.to/lastmile_qr_scan"}, "lat": 38.90574516666667, "is_disabled": 0, "lon": -77.03458683333334}, {"fusion_lat": 0.0, "type": "electric_scooter", "name": "3e6d11b8669fe401174f003d108d87e6", "fusion_lon": 0.0, "bike_id": "3e6d11b8669fe401174f003d108d87e6", "is_reserved": 0, "rental_uris": {"android": "https://dc.lft.to/lastmile_qr_scan", "ios": "https://dc.lft.to/lastmile_qr_scan"}, "lat": 38.907284, "is_disabled": 0, "lon": -77.02984916666666}, {"fusion_lat": 0.0, "type": "electric_scooter", "name": "0a79d59bb815afe298cbb9f0b9bb66bf", "fusion_lon": 0.0, "bike_id": "0a79d59bb815afe298cbb9f0b9bb66bf", "is_reserved": 0, "rental_uris": {"android": "https://dc.lft.to/lastmile_qr_scan", "ios": "https://dc.lft.to/lastmile_qr_scan"}, "lat": 38.89222633333333, "is_disabled": 0, "lon": -77.02178666666667}, {"fusion_lat": 0.0, "type": "electric_scooter", "name": "75fb126528e547432f18c38ec2644090", "fusion_lon": 0.0, "bike_id": "75fb126528e547432f18c38ec2644090", "is_reserved": 0, "rental_uris": {"android": "https://dc.lft.to/lastmile_qr_scan", "ios": "https://dc.lft.to/lastmile_qr_scan"}, "lat": 38.90410083333333, "is_disabled": 0, "lon": -77.042596}, {"fusion_lat": 0.0, "type": "electric_scooter", "name": "59a4c9191e131628cfaeb6c44ce01249", "fusion_lon": 0.0, "bike_id": "59a4c9191e131628cfaeb6c44ce01249", "is_reserved": 0, "rental_uris": {"android": "https://dc.lft.to/lastmile_qr_scan", "ios": "https://dc.lft.to/lastmile_qr_scan"}, "lat": 38.905681333333334, "is_disabled": 0, "lon": -77.0196535}, {"fusion_lat": 0.0, "type": "electric_scooter", "name": "de99978f8ba89137cc284bf57e13fc11", "fusion_lon": 0.0, "bike_id": "de99978f8ba89137cc284bf57e13fc11", "is_reserved": 0, "rental_uris": {"android": "https://dc.lft.to/lastmile_qr_scan", "ios": "https://dc.lft.to/lastmile_qr_scan"}, "lat": 38.911500833333335, "is_disabled": 0, "lon": -77.04330733333333}, {"fusion_lat": 0.0, "type": "electric_bike", "name": "f6125937e11aacaa53a8b620323f7eed", "fusion_lon": 0.0, "bike_id": "f6125937e11aacaa53a8b620323f7eed", "is_reserved": 0, "rental_uris": {"android": "https://dc.lft.to/lastmile_qr_scan", "ios": "https://dc.lft.to/lastmile_qr_scan"}, "lat": 38.88564866666667, "is_disabled": 0, "lon": -77.16692533333334}, {"fusion_lat": 0.0, "type": "electric_scooter", "name": "dc3c60ecaa5b7d98b54a0f9aa402ebdb", "fusion_lon": 0.0, "bike_id": "dc3c60ecaa5b7d98b54a0f9aa402ebdb", "is_reserved": 0, "rental_uris": {"android": "https://dc.lft.to/lastmile_qr_scan", "ios": "https://dc.lft.to/lastmile_qr_scan"}, "lat": 38.9420695, "is_disabled": 0, "lon": -77.02517433333334}, {"fusion_lat": 0.0, "type": "electric_scooter", "name": "413661e4d7092fe15701917312af1c51", "fusion_lon": 0.0, "bike_id": "413661e4d7092fe15701917312af1c51", "is_reserved": 0, "rental_uris": {"android": "https://dc.lft.to/lastmile_qr_scan", "ios": "https://dc.lft.to/lastmile_qr_scan"}, "lat": 38.857649333333335, "is_disabled": 0, "lon": -76.9929605}, {"fusion_lat": 0.0, "type": "electric_scooter", "name": "38e7ca677630fbdffd91ce21b76cda4e", "fusion_lon": 0.0, "bike_id": "38e7ca677630fbdffd91ce21b76cda4e", "is_reserved": 0, "rental_uris": {"android": "https://dc.lft.to/lastmile_qr_scan", "ios": "https://dc.lft.to/lastmile_qr_scan"}, "lat": 38.91990933333334, "is_disabled": 0, "lon": -77.03331716666666}, {"fusion_lat": 0.0, "type": "electric_scooter", "name": "a1a2954ba28b7a4f92f920d0ff56bdd4", "fusion_lon": 0.0, "bike_id": "a1a2954ba28b7a4f92f920d0ff56bdd4", "is_reserved": 0, "rental_uris": {"android": "https://dc.lft.to/lastmile_qr_scan", "ios": "https://dc.lft.to/lastmile_qr_scan"}, "lat": 38.885057833333335, "is_disabled": 0, "lon": -77.02019916666667}, {"fusion_lat": 0.0, "type": "electric_scooter", "name": "d81585f263b3ccb8b0b733926e5a841d", "fusion_lon": 0.0, "bike_id": "d81585f263b3ccb8b0b733926e5a841d", "is_reserved": 0, "rental_uris": {"android": "https://dc.lft.to/lastmile_qr_scan", "ios": "https://dc.lft.to/lastmile_qr_scan"}, "lat": 38.93092766666667, "is_disabled": 0, "lon": -77.02540016666667}, {"fusion_lat": 0.0, "type": "electric_scooter", "name": "e0537255f7a3ae4aff829743b0a3e914", "fusion_lon": 0.0, "bike_id": "e0537255f7a3ae4aff829743b0a3e914", "is_reserved": 0, "rental_uris": {"android": "https://dc.lft.to/lastmile_qr_scan", "ios": "https://dc.lft.to/lastmile_qr_scan"}, "lat": 38.89223366666667, "is_disabled": 0, "lon": -77.03208733333334}, {"fusion_lat": 0.0, "type": "electric_scooter", "name": "e07a7903971c44ca3eb762562da03bcc", "fusion_lon": 0.0, "bike_id": "e07a7903971c44ca3eb762562da03bcc", "is_reserved": 0, "rental_uris": {"android": "https://dc.lft.to/lastmile_qr_scan", "ios": "https://dc.lft.to/lastmile_qr_scan"}, "lat": 38.9304245, "is_disabled": 0, "lon": -77.03787516666667}, {"fusion_lat": 0.0, "type": "electric_scooter", "name": "8bf188edbd8edb5ca6535f51b43b1559", "fusion_lon": 0.0, "bike_id": "8bf188edbd8edb5ca6535f51b43b1559", "is_reserved": 0, "rental_uris": {"android": "https://dc.lft.to/lastmile_qr_scan", "ios": "https://dc.lft.to/lastmile_qr_scan"}, "lat": 38.907181333333334, "is_disabled": 0, "lon": -77.03479866666666}, {"fusion_lat": 0.0, "type": "electric_scooter", "name": "80b43dfa2559f92556f7ff1ab4a10e18", "fusion_lon": 0.0, "bike_id": "80b43dfa2559f92556f7ff1ab4a10e18", "is_reserved": 0, "rental_uris": {"android": "https://dc.lft.to/lastmile_qr_scan", "ios": "https://dc.lft.to/lastmile_qr_scan"}, "lat": 38.91893533333333, "is_disabled": 0, "lon": -77.02976066666666}, {"fusion_lat": 0.0, "type": "electric_scooter", "name": "021c411c8a629d100daab55dc6d87fe2", "fusion_lon": 0.0, "bike_id": "021c411c8a629d100daab55dc6d87fe2", "is_reserved": 0, "rental_uris": {"android": "https://dc.lft.to/lastmile_qr_scan", "ios": "https://dc.lft.to/lastmile_qr_scan"}, "lat": 38.924702333333336, "is_disabled": 0, "lon": -77.03531766666667}, {"fusion_lat": 0.0, "type": "electric_scooter", "name": "2dae9c0d0f3e93fc926e4e603b83165d", "fusion_lon": 0.0, "bike_id": "2dae9c0d0f3e93fc926e4e603b83165d", "is_reserved": 0, "rental_uris": {"android": "https://dc.lft.to/lastmile_qr_scan", "ios": "https://dc.lft.to/lastmile_qr_scan"}, "lat": 38.892150666666666, "is_disabled": 0, "lon": -77.02630416666666}, {"fusion_lat": 0.0, "type": "electric_scooter", "name": "8a8806589536ee00ebf1db4a490779ff", "fusion_lon": 0.0, "bike_id": "8a8806589536ee00ebf1db4a490779ff", "is_reserved": 0, "rental_uris": {"android": "https://dc.lft.to/lastmile_qr_scan", "ios": "https://dc.lft.to/lastmile_qr_scan"}, "lat": 38.920959, "is_disabled": 0, "lon": -77.04390483333333}, {"fusion_lat": 0.0, "type": "electric_scooter", "name": "6b53d38ce3f2e01223f310de44894b07", "fusion_lon": 0.0, "bike_id": "6b53d38ce3f2e01223f310de44894b07", "is_reserved": 0, "rental_uris": {"android": "https://dc.lft.to/lastmile_qr_scan", "ios": "https://dc.lft.to/lastmile_qr_scan"}, "lat": 38.944365833333336, "is_disabled": 0, "lon": -77.02785}, {"fusion_lat": 0.0, "type": "electric_scooter", "name": "423b416cd5ec0922fc0739d99a9c8462", "fusion_lon": 0.0, "bike_id": "423b416cd5ec0922fc0739d99a9c8462", "is_reserved": 0, "rental_uris": {"android": "https://dc.lft.to/lastmile_qr_scan", "ios": "https://dc.lft.to/lastmile_qr_scan"}, "lat": 38.935771333333335, "is_disabled": 0, "lon": -77.02126233333334}, {"fusion_lat": 0.0, "type": "electric_scooter", "name": "89cf27ab39912c7fadc8010ab43f994d", "fusion_lon": 0.0, "bike_id": "89cf27ab39912c7fadc8010ab43f994d", "is_reserved": 0, "rental_uris": {"android": "https://dc.lft.to/lastmile_qr_scan", "ios": "https://dc.lft.to/lastmile_qr_scan"}, "lat": 38.914707, "is_disabled": 0, "lon": -77.0694065}, {"fusion_lat": 0.0, "type": "electric_scooter", "name": "ab11ef4fa1da51135284bf2a37ef81e1", "fusion_lon": 0.0, "bike_id": "ab11ef4fa1da51135284bf2a37ef81e1", "is_reserved": 0, "rental_uris": {"android": "https://dc.lft.to/lastmile_qr_scan", "ios": "https://dc.lft.to/lastmile_qr_scan"}, "lat": 38.934352833333335, "is_disabled": 0, "lon": -76.99881716666667}, {"fusion_lat": 0.0, "type": "electric_scooter", "name": "6793c4414fd3882e2fd6968000f20686", "fusion_lon": 0.0, "bike_id": "6793c4414fd3882e2fd6968000f20686", "is_reserved": 0, "rental_uris": {"android": "https://dc.lft.to/lastmile_qr_scan", "ios": "https://dc.lft.to/lastmile_qr_scan"}, "lat": 38.922621, "is_disabled": 0, "lon": -77.0295575}, {"fusion_lat": 0.0, "type": "electric_scooter", "name": "bd2b573b82caecba6a8413ef78049f13", "fusion_lon": 0.0, "bike_id": "bd2b573b82caecba6a8413ef78049f13", "is_reserved": 0, "rental_uris": {"android": "https://dc.lft.to/lastmile_qr_scan", "ios": "https://dc.lft.to/lastmile_qr_scan"}, "lat": 38.89151283333333, "is_disabled": 0, "lon": -76.98383916666667}, {"fusion_lat": 0.0, "type": "electric_scooter", "name": "a2a6cbb5ffee67731367378e0a6a8a87", "fusion_lon": 0.0, "bike_id": "a2a6cbb5ffee67731367378e0a6a8a87", "is_reserved": 0, "rental_uris": {"android": "https://dc.lft.to/lastmile_qr_scan", "ios": "https://dc.lft.to/lastmile_qr_scan"}, "lat": 38.9077465, "is_disabled": 0, "lon": -77.03502033333334}, {"fusion_lat": 0.0, "type": "electric_scooter", "name": "96cdc5a3bf0ecc4d6e2fd6c49b001cfd", "fusion_lon": 0.0, "bike_id": "96cdc5a3bf0ecc4d6e2fd6c49b001cfd", "is_reserved": 0, "rental_uris": {"android": "https://dc.lft.to/lastmile_qr_scan", "ios": "https://dc.lft.to/lastmile_qr_scan"}, "lat": 38.908067833333334, "is_disabled": 0, "lon": -77.043448}, {"fusion_lat": 0.0, "type": "electric_scooter", "name": "ae4f6ef272dacf5bfa7588c9253b251a", "fusion_lon": 0.0, "bike_id": "ae4f6ef272dacf5bfa7588c9253b251a", "is_reserved": 0, "rental_uris": {"android": "https://dc.lft.to/lastmile_qr_scan", "ios": "https://dc.lft.to/lastmile_qr_scan"}, "lat": 38.92329316666667, "is_disabled": 0, "lon": -77.044653}, {"fusion_lat": 0.0, "type": "electric_scooter", "name": "22ad17e1150152eb2008477a4165e6ce", "fusion_lon": 0.0, "bike_id": "22ad17e1150152eb2008477a4165e6ce", "is_reserved": 0, "rental_uris": {"android": "https://dc.lft.to/lastmile_qr_scan", "ios": "https://dc.lft.to/lastmile_qr_scan"}, "lat": 38.891686666666665, "is_disabled": 0, "lon": -76.91193983333334}, {"fusion_lat": 0.0, "type": "electric_scooter", "name": "743dfe6197e6c66939b234faf008fefb", "fusion_lon": 0.0, "bike_id": "743dfe6197e6c66939b234faf008fefb", "is_reserved": 0, "rental_uris": {"android": "https://dc.lft.to/lastmile_qr_scan", "ios": "https://dc.lft.to/lastmile_qr_scan"}, "lat": 38.8642415, "is_disabled": 0, "lon": -76.97437483333333}, {"fusion_lat": 0.0, "type": "electric_scooter", "name": "14886e564e8fb8ee2d44036e361f368b", "fusion_lon": 0.0, "bike_id": "14886e564e8fb8ee2d44036e361f368b", "is_reserved": 0, "rental_uris": {"android": "https://dc.lft.to/lastmile_qr_scan", "ios": "https://dc.lft.to/lastmile_qr_scan"}, "lat": 38.899908333333336, "is_disabled": 0, "lon": -77.00675283333334}, {"fusion_lat": 0.0, "type": "electric_scooter", "name": "d0f56742132e3a054ea19aba98f13de1", "fusion_lon": 0.0, "bike_id": "d0f56742132e3a054ea19aba98f13de1", "is_reserved": 0, "rental_uris": {"android": "https://dc.lft.to/lastmile_qr_scan", "ios": "https://dc.lft.to/lastmile_qr_scan"}, "lat": 38.916870333333335, "is_disabled": 0, "lon": -77.0294695}, {"fusion_lat": 0.0, "type": "electric_scooter", "name": "cbc1bcf931acfe70bff8bd5369220297", "fusion_lon": 0.0, "bike_id": "cbc1bcf931acfe70bff8bd5369220297", "is_reserved": 0, "rental_uris": {"android": "https://dc.lft.to/lastmile_qr_scan", "ios": "https://dc.lft.to/lastmile_qr_scan"}, "lat": 38.892176666666664, "is_disabled": 0, "lon": -77.03225166666667}, {"fusion_lat": 0.0, "type": "electric_scooter", "name": "577070e8be2168b88f217bef67b9330d", "fusion_lon": 0.0, "bike_id": "577070e8be2168b88f217bef67b9330d", "is_reserved": 0, "rental_uris": {"android": "https://dc.lft.to/lastmile_qr_scan", "ios": "https://dc.lft.to/lastmile_qr_scan"}, "lat": 38.923472333333336, "is_disabled": 0, "lon": -77.03539466666666}, {"fusion_lat": 0.0, "type": "electric_scooter", "name": "02462ca0f89932e7109b331cdeaf00dd", "fusion_lon": 0.0, "bike_id": "02462ca0f89932e7109b331cdeaf00dd", "is_reserved": 0, "rental_uris": {"android": "https://dc.lft.to/lastmile_qr_scan", "ios": "https://dc.lft.to/lastmile_qr_scan"}, "lat": 38.907176666666665, "is_disabled": 0, "lon": -77.03208816666667}, {"fusion_lat": 0.0, "type": "electric_scooter", "name": "b5a8457fe69f8c5b50970bf5a98c5f89", "fusion_lon": 0.0, "bike_id": "b5a8457fe69f8c5b50970bf5a98c5f89", "is_reserved": 0, "rental_uris": {"android": "https://dc.lft.to/lastmile_qr_scan", "ios": "https://dc.lft.to/lastmile_qr_scan"}, "lat": 38.90618816666667, "is_disabled": 0, "lon": -77.05135416666667}, {"fusion_lat": 0.0, "type": "electric_scooter", "name": "be9b992d5c0d9aa3d151788061185350", "fusion_lon": 0.0, "bike_id": "be9b992d5c0d9aa3d151788061185350", "is_reserved": 0, "rental_uris": {"android": "https://dc.lft.to/lastmile_qr_scan", "ios": "https://dc.lft.to/lastmile_qr_scan"}, "lat": 38.907485666666666, "is_disabled": 0, "lon": -77.04191466666667}, {"fusion_lat": 0.0, "type": "electric_scooter", "name": "3b26cd5fe9401d502ef65ca0757169df", "fusion_lon": 0.0, "bike_id": "3b26cd5fe9401d502ef65ca0757169df", "is_reserved": 0, "rental_uris": {"android": "https://dc.lft.to/lastmile_qr_scan", "ios": "https://dc.lft.to/lastmile_qr_scan"}, "lat": 38.91589066666667, "is_disabled": 0, "lon": -77.03521483333333}, {"fusion_lat": 0.0, "type": "electric_scooter", "name": "1f3205e67d87e18407718e0ff1aa17b6", "fusion_lon": 0.0, "bike_id": "1f3205e67d87e18407718e0ff1aa17b6", "is_reserved": 0, "rental_uris": {"android": "https://dc.lft.to/lastmile_qr_scan", "ios": "https://dc.lft.to/lastmile_qr_scan"}, "lat": 38.896103833333335, "is_disabled": 0, "lon": -77.04560116666667}, {"fusion_lat": 0.0, "type": "electric_scooter", "name": "772df248f7dbe39586a4798a68032e50", "fusion_lon": 0.0, "bike_id": "772df248f7dbe39586a4798a68032e50", "is_reserved": 0, "rental_uris": {"android": "https://dc.lft.to/lastmile_qr_scan", "ios": "https://dc.lft.to/lastmile_qr_scan"}, "lat": 38.9111045, "is_disabled": 0, "lon": -77.0190575}, {"fusion_lat": 0.0, "type": "electric_bike", "name": "0a666f71cb215f170f57f24ed572908a", "fusion_lon": 0.0, "bike_id": "0a666f71cb215f170f57f24ed572908a", "is_reserved": 0, "rental_uris": {"android": "https://dc.lft.to/lastmile_qr_scan", "ios": "https://dc.lft.to/lastmile_qr_scan"}, "lat": 38.94803783333333, "is_disabled": 0, "lon": -76.95971316666666}, {"fusion_lat": 0.0, "type": "electric_scooter", "name": "92864feb5c818e1087b7690fae77eaf2", "fusion_lon": 0.0, "bike_id": "92864feb5c818e1087b7690fae77eaf2", "is_reserved": 0, "rental_uris": {"android": "https://dc.lft.to/lastmile_qr_scan", "ios": "https://dc.lft.to/lastmile_qr_scan"}, "lat": 38.90068383333333, "is_disabled": 0, "lon": -77.04536616666667}, {"fusion_lat": 0.0, "type": "electric_scooter", "name": "56cbf606fcb4b65b98a9ba0f62009982", "fusion_lon": 0.0, "bike_id": "56cbf606fcb4b65b98a9ba0f62009982", "is_reserved": 0, "rental_uris": {"android": "https://dc.lft.to/lastmile_qr_scan", "ios": "https://dc.lft.to/lastmile_qr_scan"}, "lat": 38.92037216666667, "is_disabled": 0, "lon": -77.03640983333334}, {"fusion_lat": 0.0, "type": "electric_scooter", "name": "bd8eb1824165b5a8a77f28acda4dc235", "fusion_lon": 0.0, "bike_id": "bd8eb1824165b5a8a77f28acda4dc235", "is_reserved": 0, "rental_uris": {"android": "https://dc.lft.to/lastmile_qr_scan", "ios": "https://dc.lft.to/lastmile_qr_scan"}, "lat": 38.943129166666665, "is_disabled": 0, "lon": -77.0173025}, {"fusion_lat": 0.0, "type": "electric_scooter", "name": "7870884ee96ffd9df384af31aa1f09d2", "fusion_lon": 0.0, "bike_id": "7870884ee96ffd9df384af31aa1f09d2", "is_reserved": 0, "rental_uris": {"android": "https://dc.lft.to/lastmile_qr_scan", "ios": "https://dc.lft.to/lastmile_qr_scan"}, "lat": 38.8985255, "is_disabled": 0, "lon": -76.99032083333333}, {"fusion_lat": 0.0, "type": "electric_scooter", "name": "fcd9607103a4429b0edfbc7f05802599", "fusion_lon": 0.0, "bike_id": "fcd9607103a4429b0edfbc7f05802599", "is_reserved": 0, "rental_uris": {"android": "https://dc.lft.to/lastmile_qr_scan", "ios": "https://dc.lft.to/lastmile_qr_scan"}, "lat": 38.934171166666665, "is_disabled": 0, "lon": -77.04400983333333}, {"fusion_lat": 0.0, "type": "electric_bike", "name": "75b574c5ba9a9251381bd96ac0c53af9", "fusion_lon": 0.0, "bike_id": "75b574c5ba9a9251381bd96ac0c53af9", "is_reserved": 0, "rental_uris": {"android": "https://dc.lft.to/lastmile_qr_scan", "ios": "https://dc.lft.to/lastmile_qr_scan"}, "lat": 38.823343, "is_disabled": 0, "lon": -77.056269}, {"fusion_lat": 0.0, "type": "electric_scooter", "name": "890a0d9e7d2db980ee26643b0cd311bb", "fusion_lon": 0.0, "bike_id": "890a0d9e7d2db980ee26643b0cd311bb", "is_reserved": 0, "rental_uris": {"android": "https://dc.lft.to/lastmile_qr_scan", "ios": "https://dc.lft.to/lastmile_qr_scan"}, "lat": 38.891687166666664, "is_disabled": 0, "lon": -76.95190516666666}, {"fusion_lat": 0.0, "type": "electric_scooter", "name": "dd55337821ae4b71b43ce75de59d8a46", "fusion_lon": 0.0, "bike_id": "dd55337821ae4b71b43ce75de59d8a46", "is_reserved": 0, "rental_uris": {"android": "https://dc.lft.to/lastmile_qr_scan", "ios": "https://dc.lft.to/lastmile_qr_scan"}, "lat": 38.901098, "is_disabled": 0, "lon": -77.04478516666667}, {"fusion_lat": 0.0, "type": "electric_scooter", "name": "ff6f6a7e60bc7aae1f83c9e5c5b62cd7", "fusion_lon": 0.0, "bike_id": "ff6f6a7e60bc7aae1f83c9e5c5b62cd7", "is_reserved": 0, "rental_uris": {"android": "https://dc.lft.to/lastmile_qr_scan", "ios": "https://dc.lft.to/lastmile_qr_scan"}, "lat": 38.90208883333333, "is_disabled": 0, "lon": -77.02355483333334}, {"fusion_lat": 0.0, "type": "electric_scooter", "name": "e9c26c7699cd7ed11d3e019feb89d855", "fusion_lon": 0.0, "bike_id": "e9c26c7699cd7ed11d3e019feb89d855", "is_reserved": 0, "rental_uris": {"android": "https://dc.lft.to/lastmile_qr_scan", "ios": "https://dc.lft.to/lastmile_qr_scan"}, "lat": 38.942063166666664, "is_disabled": 0, "lon": -77.025141}, {"fusion_lat": 0.0, "type": "electric_scooter", "name": "3a8dca7baeba95c5f49dcae5cb081377", "fusion_lon": 0.0, "bike_id": "3a8dca7baeba95c5f49dcae5cb081377", "is_reserved": 0, "rental_uris": {"android": "https://dc.lft.to/lastmile_qr_scan", "ios": "https://dc.lft.to/lastmile_qr_scan"}, "lat": 38.92574883333333, "is_disabled": 0, "lon": -77.037353}, {"fusion_lat": 0.0, "type": "electric_scooter", "name": "42e507f404be74fcdd846a1254fc9ba7", "fusion_lon": 0.0, "bike_id": "42e507f404be74fcdd846a1254fc9ba7", "is_reserved": 0, "rental_uris": {"android": "https://dc.lft.to/lastmile_qr_scan", "ios": "https://dc.lft.to/lastmile_qr_scan"}, "lat": 38.892292166666664, "is_disabled": 0, "lon": -77.02780933333334}, {"fusion_lat": 0.0, "type": "electric_scooter", "name": "9d94ef2c1f2bd9c0a6fa85d155777907", "fusion_lon": 0.0, "bike_id": "9d94ef2c1f2bd9c0a6fa85d155777907", "is_reserved": 0, "rental_uris": {"android": "https://dc.lft.to/lastmile_qr_scan", "ios": "https://dc.lft.to/lastmile_qr_scan"}, "lat": 38.93977066666667, "is_disabled": 0, "lon": -77.03257583333334}, {"fusion_lat": 0.0, "type": "electric_scooter", "name": "b22cc1d5d3cebd2a28417033c4ebfc67", "fusion_lon": 0.0, "bike_id": "b22cc1d5d3cebd2a28417033c4ebfc67", "is_reserved": 0, "rental_uris": {"android": "https://dc.lft.to/lastmile_qr_scan", "ios": "https://dc.lft.to/lastmile_qr_scan"}, "lat": 38.936095333333334, "is_disabled": 0, "lon": -77.02917833333333}, {"fusion_lat": 0.0, "type": "electric_scooter", "name": "a62d7b06e83e919864116a094d2d4029", "fusion_lon": 0.0, "bike_id": "a62d7b06e83e919864116a094d2d4029", "is_reserved": 0, "rental_uris": {"android": "https://dc.lft.to/lastmile_qr_scan", "ios": "https://dc.lft.to/lastmile_qr_scan"}, "lat": 38.89223, "is_disabled": 0, "lon": -77.0318595}, {"fusion_lat": 0.0, "type": "electric_scooter", "name": "a8ab5454da599dae102c10d9e5868f9c", "fusion_lon": 0.0, "bike_id": "a8ab5454da599dae102c10d9e5868f9c", "is_reserved": 0, "rental_uris": {"android": "https://dc.lft.to/lastmile_qr_scan", "ios": "https://dc.lft.to/lastmile_qr_scan"}, "lat": 38.903702833333334, "is_disabled": 0, "lon": -77.04196733333333}, {"fusion_lat": 0.0, "type": "electric_bike", "name": "753452c76dccd90f80e0598ddc1de322", "fusion_lon": 0.0, "bike_id": "753452c76dccd90f80e0598ddc1de322", "is_reserved": 0, "rental_uris": {"android": "https://dc.lft.to/lastmile_qr_scan", "ios": "https://dc.lft.to/lastmile_qr_scan"}, "lat": 38.956448, "is_disabled": 0, "lon": -77.02256216666666}, {"fusion_lat": 0.0, "type": "electric_scooter", "name": "831a55a46a5c1d2edcf83ef756c8a005", "fusion_lon": 0.0, "bike_id": "831a55a46a5c1d2edcf83ef756c8a005", "is_reserved": 0, "rental_uris": {"android": "https://dc.lft.to/lastmile_qr_scan", "ios": "https://dc.lft.to/lastmile_qr_scan"}, "lat": 38.887490166666666, "is_disabled": 0, "lon": -77.031599}, {"fusion_lat": 0.0, "type": "electric_scooter", "name": "5b96b8f28f0ef18233d4f4c0dfa97c1e", "fusion_lon": 0.0, "bike_id": "5b96b8f28f0ef18233d4f4c0dfa97c1e", "is_reserved": 0, "rental_uris": {"android": "https://dc.lft.to/lastmile_qr_scan", "ios": "https://dc.lft.to/lastmile_qr_scan"}, "lat": 38.91048816666667, "is_disabled": 0, "lon": -77.031872}, {"fusion_lat": 0.0, "type": "electric_scooter", "name": "0d29f711f985b7d89a3400cc44bd0a18", "fusion_lon": 0.0, "bike_id": "0d29f711f985b7d89a3400cc44bd0a18", "is_reserved": 0, "rental_uris": {"android": "https://dc.lft.to/lastmile_qr_scan", "ios": "https://dc.lft.to/lastmile_qr_scan"}, "lat": 38.94599316666667, "is_disabled": 0, "lon": -77.02671266666667}, {"fusion_lat": 0.0, "type": "electric_scooter", "name": "f938910ae0b801bd2d21079efe70cb2d", "fusion_lon": 0.0, "bike_id": "f938910ae0b801bd2d21079efe70cb2d", "is_reserved": 0, "rental_uris": {"android": "https://dc.lft.to/lastmile_qr_scan", "ios": "https://dc.lft.to/lastmile_qr_scan"}, "lat": 38.907320666666664, "is_disabled": 0, "lon": -77.02547433333334}, {"fusion_lat": 0.0, "type": "electric_scooter", "name": "cf8072cfe389f29381817a511add8eb8", "fusion_lon": 0.0, "bike_id": "cf8072cfe389f29381817a511add8eb8", "is_reserved": 0, "rental_uris": {"android": "https://dc.lft.to/lastmile_qr_scan", "ios": "https://dc.lft.to/lastmile_qr_scan"}, "lat": 38.862203, "is_disabled": 0, "lon": -76.99498016666666}, {"fusion_lat": 0.0, "type": "electric_scooter", "name": "ee286c1dcc02c611663776df39628bf5", "fusion_lon": 0.0, "bike_id": "ee286c1dcc02c611663776df39628bf5", "is_reserved": 0, "rental_uris": {"android": "https://dc.lft.to/lastmile_qr_scan", "ios": "https://dc.lft.to/lastmile_qr_scan"}, "lat": 38.92418983333334, "is_disabled": 0, "lon": -77.03553666666667}, {"fusion_lat": 0.0, "type": "electric_bike", "name": "2fb8f842b1bb1aa95a32d50c344ab2d1", "fusion_lon": 0.0, "bike_id": "2fb8f842b1bb1aa95a32d50c344ab2d1", "is_reserved": 0, "rental_uris": {"android": "https://dc.lft.to/lastmile_qr_scan", "ios": "https://dc.lft.to/lastmile_qr_scan"}, "lat": 39.024356833333336, "is_disabled": 0, "lon": -77.13100366666667}, {"fusion_lat": 0.0, "type": "electric_scooter", "name": "f28f23726d72d56a542fed59d32ec773", "fusion_lon": 0.0, "bike_id": "f28f23726d72d56a542fed59d32ec773", "is_reserved": 0, "rental_uris": {"android": "https://dc.lft.to/lastmile_qr_scan", "ios": "https://dc.lft.to/lastmile_qr_scan"}, "lat": 38.917392666666665, "is_disabled": 0, "lon": -77.010844}, {"fusion_lat": 0.0, "type": "electric_scooter", "name": "57b4a231a4049d933564192a65c42210", "fusion_lon": 0.0, "bike_id": "57b4a231a4049d933564192a65c42210", "is_reserved": 0, "rental_uris": {"android": "https://dc.lft.to/lastmile_qr_scan", "ios": "https://dc.lft.to/lastmile_qr_scan"}, "lat": 38.88597333333333, "is_disabled": 0, "lon": -76.99146933333333}, {"fusion_lat": 0.0, "type": "electric_scooter", "name": "c0f6ffe9c030505d85d1c0264c25b669", "fusion_lon": 0.0, "bike_id": "c0f6ffe9c030505d85d1c0264c25b669", "is_reserved": 0, "rental_uris": {"android": "https://dc.lft.to/lastmile_qr_scan", "ios": "https://dc.lft.to/lastmile_qr_scan"}, "lat": 38.9247675, "is_disabled": 0, "lon": -77.02218433333333}, {"fusion_lat": 0.0, "type": "electric_bike", "name": "479d23df5666d2222691d6d9ba5c195f", "fusion_lon": 0.0, "bike_id": "479d23df5666d2222691d6d9ba5c195f", "is_reserved": 0, "rental_uris": {"android": "https://dc.lft.to/lastmile_qr_scan", "ios": "https://dc.lft.to/lastmile_qr_scan"}, "lat": 38.939672, "is_disabled": 0, "lon": -76.98614466666666}, {"fusion_lat": 0.0, "type": "electric_scooter", "name": "9ea6a0298a6fefad290824b31bee22d3", "fusion_lon": 0.0, "bike_id": "9ea6a0298a6fefad290824b31bee22d3", "is_reserved": 0, "rental_uris": {"android": "https://dc.lft.to/lastmile_qr_scan", "ios": "https://dc.lft.to/lastmile_qr_scan"}, "lat": 38.92100116666667, "is_disabled": 0, "lon": -77.032542}, {"fusion_lat": 0.0, "type": "electric_scooter", "name": "90d6cf1c1b6fe84286059102a70b1e81", "fusion_lon": 0.0, "bike_id": "90d6cf1c1b6fe84286059102a70b1e81", "is_reserved": 0, "rental_uris": {"android": "https://dc.lft.to/lastmile_qr_scan", "ios": "https://dc.lft.to/lastmile_qr_scan"}, "lat": 38.91928866666667, "is_disabled": 0, "lon": -77.04513116666666}, {"fusion_lat": 0.0, "type": "electric_bike", "name": "6f6455430010320d701b0f47207fe2e4", "fusion_lon": 0.0, "bike_id": "6f6455430010320d701b0f47207fe2e4", "is_reserved": 0, "rental_uris": {"android": "https://dc.lft.to/lastmile_qr_scan", "ios": "https://dc.lft.to/lastmile_qr_scan"}, "lat": 38.94784116666666, "is_disabled": 0, "lon": -76.972127}, {"fusion_lat": 0.0, "type": "electric_scooter", "name": "302730d0d3bb3e3d81e2a58e47fafc83", "fusion_lon": 0.0, "bike_id": "302730d0d3bb3e3d81e2a58e47fafc83", "is_reserved": 0, "rental_uris": {"android": "https://dc.lft.to/lastmile_qr_scan", "ios": "https://dc.lft.to/lastmile_qr_scan"}, "lat": 38.93982666666667, "is_disabled": 0, "lon": -77.02893633333333}, {"fusion_lat": 0.0, "type": "electric_scooter", "name": "e3915861416044c2e640753a76ad9fb7", "fusion_lon": 0.0, "bike_id": "e3915861416044c2e640753a76ad9fb7", "is_reserved": 0, "rental_uris": {"android": "https://dc.lft.to/lastmile_qr_scan", "ios": "https://dc.lft.to/lastmile_qr_scan"}, "lat": 38.90942316666667, "is_disabled": 0, "lon": -77.04415466666667}, {"fusion_lat": 0.0, "type": "electric_scooter", "name": "ff2d696c6d01cd8ea5563ec4b18bc019", "fusion_lon": 0.0, "bike_id": "ff2d696c6d01cd8ea5563ec4b18bc019", "is_reserved": 0, "rental_uris": {"android": "https://dc.lft.to/lastmile_qr_scan", "ios": "https://dc.lft.to/lastmile_qr_scan"}, "lat": 38.892175333333334, "is_disabled": 0, "lon": -77.026257}, {"fusion_lat": 0.0, "type": "electric_scooter", "name": "2527513572f7d06be06fc7bf46dcffd7", "fusion_lon": 0.0, "bike_id": "2527513572f7d06be06fc7bf46dcffd7", "is_reserved": 0, "rental_uris": {"android": "https://dc.lft.to/lastmile_qr_scan", "ios": "https://dc.lft.to/lastmile_qr_scan"}, "lat": 38.93046433333333, "is_disabled": 0, "lon": -77.0379325}, {"fusion_lat": 0.0, "type": "electric_scooter", "name": "768d4959da5ae8fc22e9b0b2b91c370d", "fusion_lon": 0.0, "bike_id": "768d4959da5ae8fc22e9b0b2b91c370d", "is_reserved": 0, "rental_uris": {"android": "https://dc.lft.to/lastmile_qr_scan", "ios": "https://dc.lft.to/lastmile_qr_scan"}, "lat": 38.937673333333336, "is_disabled": 0, "lon": -77.02202116666666}, {"fusion_lat": 0.0, "type": "electric_scooter", "name": "138499032837871e83f42be258c7ecec", "fusion_lon": 0.0, "bike_id": "138499032837871e83f42be258c7ecec", "is_reserved": 0, "rental_uris": {"android": "https://dc.lft.to/lastmile_qr_scan", "ios": "https://dc.lft.to/lastmile_qr_scan"}, "lat": 38.88018066666667, "is_disabled": 0, "lon": -77.02661633333334}, {"fusion_lat": 0.0, "type": "electric_scooter", "name": "3872991e27b83cf4aaa84b490c2f24f1", "fusion_lon": 0.0, "bike_id": "3872991e27b83cf4aaa84b490c2f24f1", "is_reserved": 0, "rental_uris": {"android": "https://dc.lft.to/lastmile_qr_scan", "ios": "https://dc.lft.to/lastmile_qr_scan"}, "lat": 38.915921833333336, "is_disabled": 0, "lon": -77.041757}, {"fusion_lat": 0.0, "type": "electric_bike", "name": "51bc7f5c61db1be2db6f3807a28d7cc7", "fusion_lon": 0.0, "bike_id": "51bc7f5c61db1be2db6f3807a28d7cc7", "is_reserved": 0, "rental_uris": {"android": "https://dc.lft.to/lastmile_qr_scan", "ios": "https://dc.lft.to/lastmile_qr_scan"}, "lat": 38.887092333333335, "is_disabled": 0, "lon": -77.13300433333333}, {"fusion_lat": 0.0, "type": "electric_scooter", "name": "772b8eea54613bccd33f7f41fac46c41", "fusion_lon": 0.0, "bike_id": "772b8eea54613bccd33f7f41fac46c41", "is_reserved": 0, "rental_uris": {"android": "https://dc.lft.to/lastmile_qr_scan", "ios": "https://dc.lft.to/lastmile_qr_scan"}, "lat": 38.922547333333334, "is_disabled": 0, "lon": -77.072389}, {"fusion_lat": 0.0, "type": "electric_scooter", "name": "aef4d15bf7d6d87fc2a29a4d6933eb17", "fusion_lon": 0.0, "bike_id": "aef4d15bf7d6d87fc2a29a4d6933eb17", "is_reserved": 0, "rental_uris": {"android": "https://dc.lft.to/lastmile_qr_scan", "ios": "https://dc.lft.to/lastmile_qr_scan"}, "lat": 38.92905716666667, "is_disabled": 0, "lon": -77.03746316666667}, {"fusion_lat": 0.0, "type": "electric_scooter", "name": "97eadb27ba6049cf01fd87fd3fa78e93", "fusion_lon": 0.0, "bike_id": "97eadb27ba6049cf01fd87fd3fa78e93", "is_reserved": 0, "rental_uris": {"android": "https://dc.lft.to/lastmile_qr_scan", "ios": "https://dc.lft.to/lastmile_qr_scan"}, "lat": 38.910371, "is_disabled": 0, "lon": -77.03685683333333}, {"fusion_lat": 0.0, "type": "electric_scooter", "name": "76c34dc0648e73c3d9bcebaf57e6de82", "fusion_lon": 0.0, "bike_id": "76c34dc0648e73c3d9bcebaf57e6de82", "is_reserved": 0, "rental_uris": {"android": "https://dc.lft.to/lastmile_qr_scan", "ios": "https://dc.lft.to/lastmile_qr_scan"}, "lat": 38.92314066666667, "is_disabled": 0, "lon": -77.03405283333333}, {"fusion_lat": 0.0, "type": "electric_scooter", "name": "8dffff21a4f2df369056d23330e61b14", "fusion_lon": 0.0, "bike_id": "8dffff21a4f2df369056d23330e61b14", "is_reserved": 0, "rental_uris": {"android": "https://dc.lft.to/lastmile_qr_scan", "ios": "https://dc.lft.to/lastmile_qr_scan"}, "lat": 38.880471666666665, "is_disabled": 0, "lon": -77.03065816666667}, {"fusion_lat": 0.0, "type": "electric_scooter", "name": "f3e5cd48e14da6ceedd09f7019cf0f3c", "fusion_lon": 0.0, "bike_id": "f3e5cd48e14da6ceedd09f7019cf0f3c", "is_reserved": 0, "rental_uris": {"android": "https://dc.lft.to/lastmile_qr_scan", "ios": "https://dc.lft.to/lastmile_qr_scan"}, "lat": 38.91884366666667, "is_disabled": 0, "lon": -77.02320533333334}, {"fusion_lat": 0.0, "type": "electric_scooter", "name": "f282e547da14bdf87e9a7ca445fb6625", "fusion_lon": 0.0, "bike_id": "f282e547da14bdf87e9a7ca445fb6625", "is_reserved": 0, "rental_uris": {"android": "https://dc.lft.to/lastmile_qr_scan", "ios": "https://dc.lft.to/lastmile_qr_scan"}, "lat": 38.914381, "is_disabled": 0, "lon": -77.01705116666666}, {"fusion_lat": 0.0, "type": "electric_scooter", "name": "eb435f0c1d1d25637bbdf446bcb349ed", "fusion_lon": 0.0, "bike_id": "eb435f0c1d1d25637bbdf446bcb349ed", "is_reserved": 0, "rental_uris": {"android": "https://dc.lft.to/lastmile_qr_scan", "ios": "https://dc.lft.to/lastmile_qr_scan"}, "lat": 38.907146833333336, "is_disabled": 0, "lon": -77.04353566666667}, {"fusion_lat": 0.0, "type": "electric_scooter", "name": "3aa5349f9538007d7c4a4bf1c990654a", "fusion_lon": 0.0, "bike_id": "3aa5349f9538007d7c4a4bf1c990654a", "is_reserved": 0, "rental_uris": {"android": "https://dc.lft.to/lastmile_qr_scan", "ios": "https://dc.lft.to/lastmile_qr_scan"}, "lat": 38.90201916666667, "is_disabled": 0, "lon": -77.02314}, {"fusion_lat": 0.0, "type": "electric_scooter", "name": "3dd3345ccfd9edd7b19f2d017c5ff905", "fusion_lon": 0.0, "bike_id": "3dd3345ccfd9edd7b19f2d017c5ff905", "is_reserved": 0, "rental_uris": {"android": "https://dc.lft.to/lastmile_qr_scan", "ios": "https://dc.lft.to/lastmile_qr_scan"}, "lat": 38.87464716666667, "is_disabled": 0, "lon": -77.00958083333333}, {"fusion_lat": 0.0, "type": "electric_scooter", "name": "ad2bae08b249f5e75608df012a418090", "fusion_lon": 0.0, "bike_id": "ad2bae08b249f5e75608df012a418090", "is_reserved": 0, "rental_uris": {"android": "https://dc.lft.to/lastmile_qr_scan", "ios": "https://dc.lft.to/lastmile_qr_scan"}, "lat": 38.90954466666667, "is_disabled": 0, "lon": -77.02715016666667}, {"fusion_lat": 0.0, "type": "electric_bike", "name": "e1180d9366225c8ad4cdce2f504b987a", "fusion_lon": 0.0, "bike_id": "e1180d9366225c8ad4cdce2f504b987a", "is_reserved": 0, "rental_uris": {"android": "https://dc.lft.to/lastmile_qr_scan", "ios": "https://dc.lft.to/lastmile_qr_scan"}, "lat": 38.8773045, "is_disabled": 0, "lon": -76.98108083333334}, {"fusion_lat": 0.0, "type": "electric_scooter", "name": "6994d974dc6b11c01344d866b36d4e49", "fusion_lon": 0.0, "bike_id": "6994d974dc6b11c01344d866b36d4e49", "is_reserved": 0, "rental_uris": {"android": "https://dc.lft.to/lastmile_qr_scan", "ios": "https://dc.lft.to/lastmile_qr_scan"}, "lat": 38.89220566666667, "is_disabled": 0, "lon": -77.046845}, {"fusion_lat": 0.0, "type": "electric_scooter", "name": "a26b2834df40c626784a55e9735a548d", "fusion_lon": 0.0, "bike_id": "a26b2834df40c626784a55e9735a548d", "is_reserved": 0, "rental_uris": {"android": "https://dc.lft.to/lastmile_qr_scan", "ios": "https://dc.lft.to/lastmile_qr_scan"}, "lat": 38.904316666666666, "is_disabled": 0, "lon": -77.05144183333333}, {"fusion_lat": 0.0, "type": "electric_scooter", "name": "320bf332fff5341a32b3a451aa5f09b4", "fusion_lon": 0.0, "bike_id": "320bf332fff5341a32b3a451aa5f09b4", "is_reserved": 0, "rental_uris": {"android": "https://dc.lft.to/lastmile_qr_scan", "ios": "https://dc.lft.to/lastmile_qr_scan"}, "lat": 38.93532016666666, "is_disabled": 0, "lon": -77.0234925}, {"fusion_lat": 0.0, "type": "electric_scooter", "name": "82af293275c6860086cf1eb4ec8a816d", "fusion_lon": 0.0, "bike_id": "82af293275c6860086cf1eb4ec8a816d", "is_reserved": 0, "rental_uris": {"android": "https://dc.lft.to/lastmile_qr_scan", "ios": "https://dc.lft.to/lastmile_qr_scan"}, "lat": 38.898447, "is_disabled": 0, "lon": -76.94639066666667}, {"fusion_lat": 0.0, "type": "electric_scooter", "name": "c605fd5d037e13fea310c2e440426399", "fusion_lon": 0.0, "bike_id": "c605fd5d037e13fea310c2e440426399", "is_reserved": 0, "rental_uris": {"android": "https://dc.lft.to/lastmile_qr_scan", "ios": "https://dc.lft.to/lastmile_qr_scan"}, "lat": 38.908963, "is_disabled": 0, "lon": -77.0321085}, {"fusion_lat": 0.0, "type": "electric_scooter", "name": "19acef8de0448cb69d1204c5119c9013", "fusion_lon": 0.0, "bike_id": "19acef8de0448cb69d1204c5119c9013", "is_reserved": 0, "rental_uris": {"android": "https://dc.lft.to/lastmile_qr_scan", "ios": "https://dc.lft.to/lastmile_qr_scan"}, "lat": 38.92301833333333, "is_disabled": 0, "lon": -77.04461166666667}, {"fusion_lat": 0.0, "type": "electric_scooter", "name": "a654fb47ced7b928986ef9dd5f42a3f5", "fusion_lon": 0.0, "bike_id": "a654fb47ced7b928986ef9dd5f42a3f5", "is_reserved": 0, "rental_uris": {"android": "https://dc.lft.to/lastmile_qr_scan", "ios": "https://dc.lft.to/lastmile_qr_scan"}, "lat": 38.948974, "is_disabled": 0, "lon": -77.006449}, {"fusion_lat": 0.0, "type": "electric_scooter", "name": "2ef354147ac8e543181346b13c957c34", "fusion_lon": 0.0, "bike_id": "2ef354147ac8e543181346b13c957c34", "is_reserved": 0, "rental_uris": {"android": "https://dc.lft.to/lastmile_qr_scan", "ios": "https://dc.lft.to/lastmile_qr_scan"}, "lat": 38.860578333333336, "is_disabled": 0, "lon": -76.98422866666667}, {"fusion_lat": 0.0, "type": "electric_scooter", "name": "1a3d256c1be8762023d71e22a1f78cf2", "fusion_lon": 0.0, "bike_id": "1a3d256c1be8762023d71e22a1f78cf2", "is_reserved": 0, "rental_uris": {"android": "https://dc.lft.to/lastmile_qr_scan", "ios": "https://dc.lft.to/lastmile_qr_scan"}, "lat": 38.934601666666666, "is_disabled": 0, "lon": -77.057832}, {"fusion_lat": 0.0, "type": "electric_scooter", "name": "b90206423f58817c7cdea91235bb148c", "fusion_lon": 0.0, "bike_id": "b90206423f58817c7cdea91235bb148c", "is_reserved": 0, "rental_uris": {"android": "https://dc.lft.to/lastmile_qr_scan", "ios": "https://dc.lft.to/lastmile_qr_scan"}, "lat": 38.903801, "is_disabled": 0, "lon": -77.0178}, {"fusion_lat": 0.0, "type": "electric_scooter", "name": "5331252679b024266e71d1f862ffaea1", "fusion_lon": 0.0, "bike_id": "5331252679b024266e71d1f862ffaea1", "is_reserved": 0, "rental_uris": {"android": "https://dc.lft.to/lastmile_qr_scan", "ios": "https://dc.lft.to/lastmile_qr_scan"}, "lat": 38.916855, "is_disabled": 0, "lon": -77.02819133333334}, {"fusion_lat": 0.0, "type": "electric_scooter", "name": "6a952b6d6d2260ea7a775d3ac9b256e5", "fusion_lon": 0.0, "bike_id": "6a952b6d6d2260ea7a775d3ac9b256e5", "is_reserved": 0, "rental_uris": {"android": "https://dc.lft.to/lastmile_qr_scan", "ios": "https://dc.lft.to/lastmile_qr_scan"}, "lat": 38.91858166666667, "is_disabled": 0, "lon": -77.02537016666666}, {"fusion_lat": 0.0, "type": "electric_scooter", "name": "b4e24a5912f84bf027c3aceb2c564835", "fusion_lon": 0.0, "bike_id": "b4e24a5912f84bf027c3aceb2c564835", "is_reserved": 0, "rental_uris": {"android": "https://dc.lft.to/lastmile_qr_scan", "ios": "https://dc.lft.to/lastmile_qr_scan"}, "lat": 38.9215115, "is_disabled": 0, "lon": -77.03263366666667}, {"fusion_lat": 0.0, "type": "electric_scooter", "name": "e2688646c33b969e6f67c277b506100e", "fusion_lon": 0.0, "bike_id": "e2688646c33b969e6f67c277b506100e", "is_reserved": 0, "rental_uris": {"android": "https://dc.lft.to/lastmile_qr_scan", "ios": "https://dc.lft.to/lastmile_qr_scan"}, "lat": 38.90721516666667, "is_disabled": 0, "lon": -77.0319925}, {"fusion_lat": 0.0, "type": "electric_scooter", "name": "7613e5254c746166f5196894516f2fb6", "fusion_lon": 0.0, "bike_id": "7613e5254c746166f5196894516f2fb6", "is_reserved": 0, "rental_uris": {"android": "https://dc.lft.to/lastmile_qr_scan", "ios": "https://dc.lft.to/lastmile_qr_scan"}, "lat": 38.928850833333335, "is_disabled": 0, "lon": -77.013657}, {"fusion_lat": 0.0, "type": "electric_scooter", "name": "ecb78eea873fa97ac184bec589df10d1", "fusion_lon": 0.0, "bike_id": "ecb78eea873fa97ac184bec589df10d1", "is_reserved": 0, "rental_uris": {"android": "https://dc.lft.to/lastmile_qr_scan", "ios": "https://dc.lft.to/lastmile_qr_scan"}, "lat": 38.86258216666667, "is_disabled": 0, "lon": -76.99610933333334}, {"fusion_lat": 0.0, "type": "electric_scooter", "name": "52e344f614fed56e66b00705e0d605e4", "fusion_lon": 0.0, "bike_id": "52e344f614fed56e66b00705e0d605e4", "is_reserved": 0, "rental_uris": {"android": "https://dc.lft.to/lastmile_qr_scan", "ios": "https://dc.lft.to/lastmile_qr_scan"}, "lat": 38.92127683333333, "is_disabled": 0, "lon": -77.0365965}, {"fusion_lat": 0.0, "type": "electric_scooter", "name": "9c7238b6562e5bcc3e25161a2a41ab7e", "fusion_lon": 0.0, "bike_id": "9c7238b6562e5bcc3e25161a2a41ab7e", "is_reserved": 0, "rental_uris": {"android": "https://dc.lft.to/lastmile_qr_scan", "ios": "https://dc.lft.to/lastmile_qr_scan"}, "lat": 38.88062866666667, "is_disabled": 0, "lon": -76.93221033333333}, {"fusion_lat": 0.0, "type": "electric_scooter", "name": "e0865103a189802895d5a29daf7b79ae", "fusion_lon": 0.0, "bike_id": "e0865103a189802895d5a29daf7b79ae", "is_reserved": 0, "rental_uris": {"android": "https://dc.lft.to/lastmile_qr_scan", "ios": "https://dc.lft.to/lastmile_qr_scan"}, "lat": 38.911312, "is_disabled": 0, "lon": -77.02693083333334}, {"fusion_lat": 0.0, "type": "electric_scooter", "name": "c3bc64e0a2f8c5077b5f3cc8683caf30", "fusion_lon": 0.0, "bike_id": "c3bc64e0a2f8c5077b5f3cc8683caf30", "is_reserved": 0, "rental_uris": {"android": "https://dc.lft.to/lastmile_qr_scan", "ios": "https://dc.lft.to/lastmile_qr_scan"}, "lat": 38.8970705, "is_disabled": 0, "lon": -77.02695466666667}, {"fusion_lat": 0.0, "type": "electric_scooter", "name": "143db69b0bf9dd576be6fe05a0739c1a", "fusion_lon": 0.0, "bike_id": "143db69b0bf9dd576be6fe05a0739c1a", "is_reserved": 0, "rental_uris": {"android": "https://dc.lft.to/lastmile_qr_scan", "ios": "https://dc.lft.to/lastmile_qr_scan"}, "lat": 38.9064515, "is_disabled": 0, "lon": -77.04879233333334}, {"fusion_lat": 0.0, "type": "electric_scooter", "name": "4a6ab9a57bfee023c63b292670054149", "fusion_lon": 0.0, "bike_id": "4a6ab9a57bfee023c63b292670054149", "is_reserved": 0, "rental_uris": {"android": "https://dc.lft.to/lastmile_qr_scan", "ios": "https://dc.lft.to/lastmile_qr_scan"}, "lat": 38.923441, "is_disabled": 0, "lon": -77.03419083333333}, {"fusion_lat": 0.0, "type": "electric_bike", "name": "9b98b2a1928f7fba999f38f1358cb699", "fusion_lon": 0.0, "bike_id": "9b98b2a1928f7fba999f38f1358cb699", "is_reserved": 0, "rental_uris": {"android": "https://dc.lft.to/lastmile_qr_scan", "ios": "https://dc.lft.to/lastmile_qr_scan"}, "lat": 38.866226833333336, "is_disabled": 0, "lon": -76.945715}, {"fusion_lat": 0.0, "type": "electric_scooter", "name": "922aacb9b2b5a2c028ecc6030954a00e", "fusion_lon": 0.0, "bike_id": "922aacb9b2b5a2c028ecc6030954a00e", "is_reserved": 0, "rental_uris": {"android": "https://dc.lft.to/lastmile_qr_scan", "ios": "https://dc.lft.to/lastmile_qr_scan"}, "lat": 38.922433833333336, "is_disabled": 0, "lon": -77.03086633333334}, {"fusion_lat": 0.0, "type": "electric_scooter", "name": "b531f13361a2ac1e0a1ee1dd630f4c98", "fusion_lon": 0.0, "bike_id": "b531f13361a2ac1e0a1ee1dd630f4c98", "is_reserved": 0, "rental_uris": {"android": "https://dc.lft.to/lastmile_qr_scan", "ios": "https://dc.lft.to/lastmile_qr_scan"}, "lat": 38.920599333333335, "is_disabled": 0, "lon": -77.033937}, {"fusion_lat": 0.0, "type": "electric_scooter", "name": "16c164338976da35debabd84f5728881", "fusion_lon": 0.0, "bike_id": "16c164338976da35debabd84f5728881", "is_reserved": 0, "rental_uris": {"android": "https://dc.lft.to/lastmile_qr_scan", "ios": "https://dc.lft.to/lastmile_qr_scan"}, "lat": 38.93377666666667, "is_disabled": 0, "lon": -77.02962366666667}, {"fusion_lat": 0.0, "type": "electric_scooter", "name": "e802a1e31920ad88e1d8690ce1202973", "fusion_lon": 0.0, "bike_id": "e802a1e31920ad88e1d8690ce1202973", "is_reserved": 0, "rental_uris": {"android": "https://dc.lft.to/lastmile_qr_scan", "ios": "https://dc.lft.to/lastmile_qr_scan"}, "lat": 38.9170365, "is_disabled": 0, "lon": -77.0341915}, {"fusion_lat": 0.0, "type": "electric_scooter", "name": "d0c34ea3bd52913cc1b08a651c3ec058", "fusion_lon": 0.0, "bike_id": "d0c34ea3bd52913cc1b08a651c3ec058", "is_reserved": 0, "rental_uris": {"android": "https://dc.lft.to/lastmile_qr_scan", "ios": "https://dc.lft.to/lastmile_qr_scan"}, "lat": 38.92589, "is_disabled": 0, "lon": -77.03989266666666}, {"fusion_lat": 0.0, "type": "electric_scooter", "name": "6e2b3aeab61eecac6201bd4426eea03d", "fusion_lon": 0.0, "bike_id": "6e2b3aeab61eecac6201bd4426eea03d", "is_reserved": 0, "rental_uris": {"android": "https://dc.lft.to/lastmile_qr_scan", "ios": "https://dc.lft.to/lastmile_qr_scan"}, "lat": 38.9242845, "is_disabled": 0, "lon": -77.0517895}, {"fusion_lat": 0.0, "type": "electric_scooter", "name": "84cdce827bca9558d8dd91042e4f9284", "fusion_lon": 0.0, "bike_id": "84cdce827bca9558d8dd91042e4f9284", "is_reserved": 0, "rental_uris": {"android": "https://dc.lft.to/lastmile_qr_scan", "ios": "https://dc.lft.to/lastmile_qr_scan"}, "lat": 38.9287175, "is_disabled": 0, "lon": -77.0365}, {"fusion_lat": 0.0, "type": "electric_bike", "name": "f1bea8e142c06a40dec781668dc02397", "fusion_lon": 0.0, "bike_id": "f1bea8e142c06a40dec781668dc02397", "is_reserved": 0, "rental_uris": {"android": "https://dc.lft.to/lastmile_qr_scan", "ios": "https://dc.lft.to/lastmile_qr_scan"}, "lat": 38.96901483333333, "is_disabled": 0, "lon": -76.99491833333333}, {"fusion_lat": 0.0, "type": "electric_scooter", "name": "a941337d9136608742b1b8ecf57c8ce7", "fusion_lon": 0.0, "bike_id": "a941337d9136608742b1b8ecf57c8ce7", "is_reserved": 0, "rental_uris": {"android": "https://dc.lft.to/lastmile_qr_scan", "ios": "https://dc.lft.to/lastmile_qr_scan"}, "lat": 38.934449, "is_disabled": 0, "lon": -77.02984616666667}, {"fusion_lat": 0.0, "type": "electric_scooter", "name": "3bae9c6f97117126084bafa3bdfa1955", "fusion_lon": 0.0, "bike_id": "3bae9c6f97117126084bafa3bdfa1955", "is_reserved": 0, "rental_uris": {"android": "https://dc.lft.to/lastmile_qr_scan", "ios": "https://dc.lft.to/lastmile_qr_scan"}, "lat": 38.9086175, "is_disabled": 0, "lon": -77.01358583333334}, {"fusion_lat": 0.0, "type": "electric_bike", "name": "cab9f9cc92041f26cbcce39490f41a46", "fusion_lon": 0.0, "bike_id": "cab9f9cc92041f26cbcce39490f41a46", "is_reserved": 0, "rental_uris": {"android": "https://dc.lft.to/lastmile_qr_scan", "ios": "https://dc.lft.to/lastmile_qr_scan"}, "lat": 38.96324283333333, "is_disabled": 0, "lon": -76.97360383333333}, {"fusion_lat": 0.0, "type": "electric_scooter", "name": "b47dfe46075937516aa869ac6c894a59", "fusion_lon": 0.0, "bike_id": "b47dfe46075937516aa869ac6c894a59", "is_reserved": 0, "rental_uris": {"android": "https://dc.lft.to/lastmile_qr_scan", "ios": "https://dc.lft.to/lastmile_qr_scan"}, "lat": 38.90877066666667, "is_disabled": 0, "lon": -77.0859245}, {"fusion_lat": 0.0, "type": "electric_scooter", "name": "51dc2e0629be5f8cf676be71b53c2ddc", "fusion_lon": 0.0, "bike_id": "51dc2e0629be5f8cf676be71b53c2ddc", "is_reserved": 0, "rental_uris": {"android": "https://dc.lft.to/lastmile_qr_scan", "ios": "https://dc.lft.to/lastmile_qr_scan"}, "lat": 38.91977083333333, "is_disabled": 0, "lon": -77.03795433333333}, {"fusion_lat": 0.0, "type": "electric_bike", "name": "9a1c7029845fb190fa830ecb4575e7c2", "fusion_lon": 0.0, "bike_id": "9a1c7029845fb190fa830ecb4575e7c2", "is_reserved": 0, "rental_uris": {"android": "https://dc.lft.to/lastmile_qr_scan", "ios": "https://dc.lft.to/lastmile_qr_scan"}, "lat": 39.054938666666665, "is_disabled": 0, "lon": -77.1178685}, {"fusion_lat": 0.0, "type": "electric_scooter", "name": "86484bf65dd8f07760302164fbcbab80", "fusion_lon": 0.0, "bike_id": "86484bf65dd8f07760302164fbcbab80", "is_reserved": 0, "rental_uris": {"android": "https://dc.lft.to/lastmile_qr_scan", "ios": "https://dc.lft.to/lastmile_qr_scan"}, "lat": 38.920530666666664, "is_disabled": 0, "lon": -77.01686816666667}, {"fusion_lat": 0.0, "type": "electric_bike", "name": "07eed66c0e2b07a0442d8b187172be69", "fusion_lon": 0.0, "bike_id": "07eed66c0e2b07a0442d8b187172be69", "is_reserved": 0, "rental_uris": {"android": "https://dc.lft.to/lastmile_qr_scan", "ios": "https://dc.lft.to/lastmile_qr_scan"}, "lat": 38.963032166666665, "is_disabled": 0, "lon": -77.01105466666667}, {"fusion_lat": 0.0, "type": "electric_scooter", "name": "83e15f7c379b03d9fbf61c8cb171d7f5", "fusion_lon": 0.0, "bike_id": "83e15f7c379b03d9fbf61c8cb171d7f5", "is_reserved": 0, "rental_uris": {"android": "https://dc.lft.to/lastmile_qr_scan", "ios": "https://dc.lft.to/lastmile_qr_scan"}, "lat": 38.916879, "is_disabled": 0, "lon": -77.0281145}, {"fusion_lat": 0.0, "type": "electric_scooter", "name": "dcc9ee1c938521300d0dddd8ee5dae5a", "fusion_lon": 0.0, "bike_id": "dcc9ee1c938521300d0dddd8ee5dae5a", "is_reserved": 0, "rental_uris": {"android": "https://dc.lft.to/lastmile_qr_scan", "ios": "https://dc.lft.to/lastmile_qr_scan"}, "lat": 38.87962983333333, "is_disabled": 0, "lon": -76.98746783333333}, {"fusion_lat": 0.0, "type": "electric_scooter", "name": "7a1f82665155d5c07cf2f9d38cf4a49b", "fusion_lon": 0.0, "bike_id": "7a1f82665155d5c07cf2f9d38cf4a49b", "is_reserved": 0, "rental_uris": {"android": "https://dc.lft.to/lastmile_qr_scan", "ios": "https://dc.lft.to/lastmile_qr_scan"}, "lat": 38.89255, "is_disabled": 0, "lon": -76.98836066666667}, {"fusion_lat": 0.0, "type": "electric_bike", "name": "c7e88d0bdb2a3a7c981fedb57da04c19", "fusion_lon": 0.0, "bike_id": "c7e88d0bdb2a3a7c981fedb57da04c19", "is_reserved": 0, "rental_uris": {"android": "https://dc.lft.to/lastmile_qr_scan", "ios": "https://dc.lft.to/lastmile_qr_scan"}, "lat": 39.034253666666665, "is_disabled": 0, "lon": -77.04102883333333}, {"fusion_lat": 0.0, "type": "electric_scooter", "name": "b65fb58aa67fefad21e3d6c814c8d7dc", "fusion_lon": 0.0, "bike_id": "b65fb58aa67fefad21e3d6c814c8d7dc", "is_reserved": 0, "rental_uris": {"android": "https://dc.lft.to/lastmile_qr_scan", "ios": "https://dc.lft.to/lastmile_qr_scan"}, "lat": 38.921427, "is_disabled": 0, "lon": -77.01797}, {"fusion_lat": 0.0, "type": "electric_bike", "name": "5f15b61e16d572c77568655a7888aea4", "fusion_lon": 0.0, "bike_id": "5f15b61e16d572c77568655a7888aea4", "is_reserved": 0, "rental_uris": {"android": "https://dc.lft.to/lastmile_qr_scan", "ios": "https://dc.lft.to/lastmile_qr_scan"}, "lat": 38.8833435, "is_disabled": 0, "lon": -77.06566266666667},