{"data": {"bikes": [{"lon": -77.00545716666667, "bike_id": "32664a91a1463b0fcef18cec4ee9e832", "lat": 38.874582833333335, "fusion_lon": 0.0, "fusion_lat": 0.0, "type": "electric_scooter", "name": "32664a91a1463b0fcef18cec4ee9e832", "is_disabled": 0, "rental_uris": {"ios": "https://dc.lft.to/lastmile_qr_scan", "android": "https://dc.lft.to/lastmile_qr_scan"}, "is_reserved": 0}, {"lon": -77.03347883333333, "bike_id": "368d9e19a5e67ee483e92ece07aef79d", "lat": 38.8972305, "fusion_lon": 0.0, "fusion_lat": 0.0, "type": "electric_scooter", "name": "368d9e19a5e67ee483e92ece07aef79d", "is_disabled": 0, "rental_uris": {"ios": "https://dc.lft.to/lastmile_qr_scan", "android": "https://dc.lft.to/lastmile_qr_scan"}, "is_reserved": 0}, {"lon": -77.05410533333334, "bike_id": "8aac555712bc3f60c17319b86789b8e8", "lat": 38.90156966666667, "fusion_lon": 0.0, "fusion_lat": 0.0, "type": "electric_scooter", "name": "8aac555712bc3f60c17319b86789b8e8", "is_disabled": 0, "rental_uris": {"ios": "https://dc.lft.to/lastmile_qr_scan", "android": "https://dc.lft.to/lastmile_qr_scan"}, "is_reserved": 0}, {"lon": -77.016293, "bike_id": "0c7ad89408536587855565ead6c06a68", "lat": 38.901090333333336, "fusion_lon": 0.0, "fusion_lat": 0.0, "type": "electric_scooter", "name": "0c7ad89408536587855565ead6c06a68", "is_disabled": 0, "rental_uris": {"ios": "https://dc.lft.to/lastmile_qr_scan", "android": "https://dc.lft.to/lastmile_qr_scan"}, "is_reserved": 0}, {"lon": -77.0366075, "bike_id": "be7114106e369bfeb07553dcbfc62c6f", "lat": 38.92094816666667, "fusion_lon": 0.0, "fusion_lat": 0.0, "type": "electric_scooter", "name": "be7114106e369bfeb07553dcbfc62c6f", "is_disabled": 0, "rental_uris": {"ios": "https://dc.lft.to/lastmile_qr_scan", "android": "https://dc.lft.to/lastmile_qr_scan"}, "is_reserved": 0}, {"lon": -77.032052, "bike_id": "2b47cd3e0a96f233ea0d2f8c6d13114a", "lat": 38.944104, "fusion_lon": 0.0, "fusion_lat": 0.0, "type": "electric_scooter", "name": "2b47cd3e0a96f233ea0d2f8c6d13114a", "is_disabled": 0, "rental_uris": {"ios": "https://dc.lft.to/lastmile_qr_scan", "android": "https://dc.lft.to/lastmile_qr_scan"}, "is_reserved": 0}, {"lon": -77.04349783333333, "bike_id": "c14a8acd0f2b4fd58e9c5c7df25a4266", "lat": 38.900490166666664, "fusion_lon": 0.0, "fusion_lat": 0.0, "type": "electric_scooter", "name": "c14a8acd0f2b4fd58e9c5c7df25a4266", "is_disabled": 0, "rental_uris": {"ios": "https://dc.lft.to/lastmile_qr_scan", "android": "https://dc.lft.to/lastmile_qr_scan"}, "is_reserved": 0}, {"lon": -77.00036966666667, "bike_id": "f99032cd70e825e4f4428ed76c5c8e2d", "lat": 38.96772, "fusion_lon": 0.0, "fusion_lat": 0.0, "type": "electric_bike", "name": "f99032cd70e825e4f4428ed76c5c8e2d", "is_disabled": 0, "rental_uris": {"ios": "https://dc.lft.to/lastmile_qr_scan", "android": "https://dc.lft.to/lastmile_qr_scan"}, "is_reserved": 0}, {"lon": -77.0376995, "bike_id": "16dcf2978c382f6d28bf092e2e0c4f4f", "lat": 38.929446166666665, "fusion_lon": 0.0, "fusion_lat": 0.0, "type": "electric_scooter", "name": "16dcf2978c382f6d28bf092e2e0c4f4f", "is_disabled": 0, "rental_uris": {"ios": "https://dc.lft.to/lastmile_qr_scan", "android": "https://dc.lft.to/lastmile_qr_scan"}, "is_reserved": 0}, {"lon": -77.0237145, "bike_id": "1eb4ad5934122d3e37284ae4423c80f9", "lat": 38.90199366666667, "fusion_lon": 0.0, "fusion_lat": 0.0, "type": "electric_scooter", "name": "1eb4ad5934122d3e37284ae4423c80f9", "is_disabled": 0, "rental_uris": {"ios": "https://dc.lft.to/lastmile_qr_scan", "android": "https://dc.lft.to/lastmile_qr_scan"}, "is_reserved": 0}, {"lon": -77.000691, "bike_id": "b57e2f67963f3f5c1898568dc47fad9a", "lat": 38.897292, "fusion_lon": 0.0, "fusion_lat": 0.0, "type": "electric_scooter", "name": "b57e2f67963f3f5c1898568dc47fad9a", "is_disabled": 0, "rental_uris": {"ios": "https://dc.lft.to/lastmile_qr_scan", "android": "https://dc.lft.to/lastmile_qr_scan"}, "is_reserved": 0}, {"lon": -77.01538066666667, "bike_id": "807395ae8bfa108642639196e2e69041", "lat": 38.883224166666665, "fusion_lon": 0.0, "fusion_lat": 0.0, "type": "electric_scooter", "name": "807395ae8bfa108642639196e2e69041", "is_disabled": 0, "rental_uris": {"ios": "https://dc.lft.to/lastmile_qr_scan", "android": "https://dc.lft.to/lastmile_qr_scan"}, "is_reserved": 0}, {"lon": -77.00157366666667, "bike_id": "bcbd8ab3c1586cae07e8bd7828268914", "lat": 38.8428595, "fusion_lon": 0.0, "fusion_lat": 0.0, "type": "electric_scooter", "name": "bcbd8ab3c1586cae07e8bd7828268914", "is_disabled": 0, "rental_uris": {"ios": "https://dc.lft.to/lastmile_qr_scan", "android": "https://dc.lft.to/lastmile_qr_scan"}, "is_reserved": 0}, {"lon": -76.98711333333333, "bike_id": "30a1aa2943bbcc989b0c6bb40c1ebedc", "lat": 38.866982666666665, "fusion_lon": 0.0, "fusion_lat": 0.0, "type": "electric_scooter", "name": "30a1aa2943bbcc989b0c6bb40c1ebedc", "is_disabled": 0, "rental_uris": {"ios": "https://dc.lft.to/lastmile_qr_scan", "android": "https://dc.lft.to/lastmile_qr_scan"}, "is_reserved": 0}, {"lon": -77.003301, "bike_id": "c6dfec6879843892863f08394c08bb38", "lat": 38.919790166666665, "fusion_lon": 0.0, "fusion_lat": 0.0, "type": "electric_bike", "name": "c6dfec6879843892863f08394c08bb38", "is_disabled": 0, "rental_uris": {"ios": "https://dc.lft.to/lastmile_qr_scan", "android": "https://dc.lft.to/lastmile_qr_scan"}, "is_reserved": 0}, {"lon": -77.01979833333333, "bike_id": "f4d1658b262b36edf40d9acee0e1dc26", "lat": 38.96029983333333, "fusion_lon": 0.0, "fusion_lat": 0.0, "type": "electric_scooter", "name": "f4d1658b262b36edf40d9acee0e1dc26", "is_disabled": 0, "rental_uris": {"ios": "https://dc.lft.to/lastmile_qr_scan", "android": "https://dc.lft.to/lastmile_qr_scan"}, "is_reserved": 0}, {"lon": -77.009036, "bike_id": "9596bcac9a5861c70fcb7ac0c5851ec8", "lat": 38.917876666666665, "fusion_lon": 0.0, "fusion_lat": 0.0, "type": "electric_scooter", "name": "9596bcac9a5861c70fcb7ac0c5851ec8", "is_disabled": 0, "rental_uris": {"ios": "https://dc.lft.to/lastmile_qr_scan", "android": "https://dc.lft.to/lastmile_qr_scan"}, "is_reserved": 0}, {"lon": -76.98754483333333, "bike_id": "2e49089fb262699f91eaf1abe9f00a83", "lat": 38.90381433333334, "fusion_lon": 0.0, "fusion_lat": 0.0, "type": "electric_scooter", "name": "2e49089fb262699f91eaf1abe9f00a83", "is_disabled": 0, "rental_uris": {"ios": "https://dc.lft.to/lastmile_qr_scan", "android": "https://dc.lft.to/lastmile_qr_scan"}, "is_reserved": 0}, {"lon": -76.99183966666666, "bike_id": "3e1e68997a1b14d7aa3df3f59e6bc9f7", "lat": 38.908349333333334, "fusion_lon": 0.0, "fusion_lat": 0.0, "type": "electric_scooter", "name": "3e1e68997a1b14d7aa3df3f59e6bc9f7", "is_disabled": 0, "rental_uris": {"ios": "https://dc.lft.to/lastmile_qr_scan", "android": "https://dc.lft.to/lastmile_qr_scan"}, "is_reserved": 0}, {"lon": -77.03289866666667, "bike_id": "3d26090c3f456712f97389acbe83311e", "lat": 38.92548266666667, "fusion_lon": 0.0, "fusion_lat": 0.0, "type": "electric_scooter", "name": "3d26090c3f456712f97389acbe83311e", "is_disabled": 0, "rental_uris": {"ios": "https://dc.lft.to/lastmile_qr_scan", "android": "https://dc.lft.to/lastmile_qr_scan"}, "is_reserved": 0}, {"lon": -76.9317405, "bike_id": "cd45c0f059fb881a44457e747363bec5", "lat": 38.8988395, "fusion_lon": 0.0, "fusion_lat": 0.0, "type": "electric_scooter", "name": "cd45c0f059fb881a44457e747363bec5", "is_disabled": 0, "rental_uris": {"ios": "https://dc.lft.to/lastmile_qr_scan", "android": "https://dc.lft.to/lastmile_qr_scan"}, "is_reserved": 0}, {"lon": -77.0306015, "bike_id": "c293010038cba931dab7bc5134259bf8", "lat": 38.938749666666666, "fusion_lon": 0.0, "fusion_lat": 0.0, "type": "electric_scooter", "name": "c293010038cba931dab7bc5134259bf8", "is_disabled": 0, "rental_uris": {"ios": "https://dc.lft.to/lastmile_qr_scan", "android": "https://dc.lft.to/lastmile_qr_scan"}, "is_reserved": 0}, {"lon": -77.02149766666666, "bike_id": "3fac34c12098df842304015f209252ed", "lat": 38.8949595, "fusion_lon": 0.0, "fusion_lat": 0.0, "type": "electric_scooter", "name": "3fac34c12098df842304015f209252ed", "is_disabled": 0, "rental_uris": {"ios": "https://dc.lft.to/lastmile_qr_scan", "android": "https://dc.lft.to/lastmile_qr_scan"}, "is_reserved": 0}, {"lon": -77.03165033333333, "bike_id": "41f20feaaf29647718fde91a7a794517", "lat": 38.8841805, "fusion_lon": 0.0, "fusion_lat": 0.0, "type": "electric_scooter", "name": "41f20feaaf29647718fde91a7a794517", "is_disabled": 0, "rental_uris": {"ios": "https://dc.lft.to/lastmile_qr_scan", "android": "https://dc.lft.to/lastmile_qr_scan"}, "is_reserved": 0}, {"lon": -77.043292, "bike_id": "ff8b0ae975a732257844aca7fea15716", "lat": 38.91880466666667, "fusion_lon": 0.0, "fusion_lat": 0.0, "type": "electric_scooter", "name": "ff8b0ae975a732257844aca7fea15716", "is_disabled": 0, "rental_uris": {"ios": "https://dc.lft.to/lastmile_qr_scan", "android": "https://dc.lft.to/lastmile_qr_scan"}, "is_reserved": 0}, {"lon": -77.0141835, "bike_id": "c74a8562d20c92ef031bf352f7c3b11f", "lat": 38.928429666666666, "fusion_lon": 0.0, "fusion_lat": 0.0, "type": "electric_scooter", "name": "c74a8562d20c92ef031bf352f7c3b11f", "is_disabled": 0, "rental_uris": {"ios": "https://dc.lft.to/lastmile_qr_scan", "android": "https://dc.lft.to/lastmile_qr_scan"}, "is_reserved": 0}, {"lon": -76.98710666666666, "bike_id": "de0a824510a73b4068a2d8c63f681e88", "lat": 38.867000166666664, "fusion_lon": 0.0, "fusion_lat": 0.0, "type": "electric_scooter", "name": "de0a824510a73b4068a2d8c63f681e88", "is_disabled": 0, "rental_uris": {"ios": "https://dc.lft.to/lastmile_qr_scan", "android": "https://dc.lft.to/lastmile_qr_scan"}, "is_reserved": 0}, {"lon": -77.021059, "bike_id": "65909cc0010b29691dad83d1943a8e62", "lat": 38.9217475, "fusion_lon": 0.0, "fusion_lat": 0.0, "type": "electric_scooter", "name": "65909cc0010b29691dad83d1943a8e62", "is_disabled": 0, "rental_uris": {"ios": "https://dc.lft.to/lastmile_qr_scan", "android": "https://dc.lft.to/lastmile_qr_scan"}, "is_reserved": 0}, {"lon": -77.026812, "bike_id": "d6d6fca9100942a66a14dae61545c4fd", "lat": 38.98489933333333, "fusion_lon": 0.0, "fusion_lat": 0.0, "type": "electric_scooter", "name": "d6d6fca9100942a66a14dae61545c4fd", "is_disabled": 0, "rental_uris": {"ios": "https://dc.lft.to/lastmile_qr_scan", "android": "https://dc.lft.to/lastmile_qr_scan"}, "is_reserved": 0}, {"lon": -77.031818, "bike_id": "5552ea2e2d3c3ebc17b8c885922101c4", "lat": 38.88730483333333, "fusion_lon": 0.0, "fusion_lat": 0.0, "type": "electric_scooter", "name": "5552ea2e2d3c3ebc17b8c885922101c4", "is_disabled": 0, "rental_uris": {"ios": "https://dc.lft.to/lastmile_qr_scan", "android": "https://dc.lft.to/lastmile_qr_scan"}, "is_reserved": 0}, {"lon": -77.027112, "bike_id": "04af785a8561be99bd6c6ebad36fa4b4", "lat": 38.93472633333333, "fusion_lon": 0.0, "fusion_lat": 0.0, "type": "electric_scooter", "name": "04af785a8561be99bd6c6ebad36fa4b4", "is_disabled": 0, "rental_uris": {"ios": "https://dc.lft.to/lastmile_qr_scan", "android": "https://dc.lft.to/lastmile_qr_scan"}, "is_reserved": 0}, {"lon": -76.965823, "bike_id": "d7f86960c47511e60bd15a1213e01b18", "lat": 38.87131133333333, "fusion_lon": 0.0, "fusion_lat": 0.0, "type": "electric_scooter", "name": "d7f86960c47511e60bd15a1213e01b18", "is_disabled": 0, "rental_uris": {"ios": "https://dc.lft.to/lastmile_qr_scan", "android": "https://dc.lft.to/lastmile_qr_scan"}, "is_reserved": 0}, {"lon": -77.03404583333334, "bike_id": "853b476adc7582ec0ceac96ddcc71cf3", "lat": 38.960303333333336, "fusion_lon": 0.0, "fusion_lat": 0.0, "type": "electric_bike", "name": "853b476adc7582ec0ceac96ddcc71cf3", "is_disabled": 0, "rental_uris": {"ios": "https://dc.lft.to/lastmile_qr_scan", "android": "https://dc.lft.to/lastmile_qr_scan"}, "is_reserved": 0}, {"lon": -77.00279816666666, "bike_id": "bbd39056ea8a6beae5a665f06f3b04f8", "lat": 38.95710733333333, "fusion_lon": 0.0, "fusion_lat": 0.0, "type": "electric_bike", "name": "bbd39056ea8a6beae5a665f06f3b04f8", "is_disabled": 0, "rental_uris": {"ios": "https://dc.lft.to/lastmile_qr_scan", "android": "https://dc.lft.to/lastmile_qr_scan"}, "is_reserved": 0}, {"lon": -77.02856, "bike_id": "63fe0209d030a77a5d55e88a62a8bd54", "lat": 38.927586833333336, "fusion_lon": 0.0, "fusion_lat": 0.0, "type": "electric_scooter", "name": "63fe0209d030a77a5d55e88a62a8bd54", "is_disabled": 0, "rental_uris": {"ios": "https://dc.lft.to/lastmile_qr_scan", "android": "https://dc.lft.to/lastmile_qr_scan"}, "is_reserved": 0}, {"lon": -76.99609733333334, "bike_id": "230a23d0a69185bb8550eb537c86b77b", "lat": 38.887164166666665, "fusion_lon": 0.0, "fusion_lat": 0.0, "type": "electric_scooter", "name": "230a23d0a69185bb8550eb537c86b77b", "is_disabled": 0, "rental_uris": {"ios": "https://dc.lft.to/lastmile_qr_scan", "android": "https://dc.lft.to/lastmile_qr_scan"}, "is_reserved": 0}, {"lon": -77.02472533333334, "bike_id": "030668a106a2cf1d028186e9f894a81e", "lat": 38.93856016666667, "fusion_lon": 0.0, "fusion_lat": 0.0, "type": "electric_scooter", "name": "030668a106a2cf1d028186e9f894a81e", "is_disabled": 0, "rental_uris": {"ios": "https://dc.lft.to/lastmile_qr_scan", "android": "https://dc.lft.to/lastmile_qr_scan"}, "is_reserved": 0}, {"lon": -77.064277, "bike_id": "4fca83488de06aed817db5abdaff4942", "lat": 38.90886716666667, "fusion_lon": 0.0, "fusion_lat": 0.0, "type": "electric_scooter", "name": "4fca83488de06aed817db5abdaff4942", "is_disabled": 0, "rental_uris": {"ios": "https://dc.lft.to/lastmile_qr_scan", "android": "https://dc.lft.to/lastmile_qr_scan"}, "is_reserved": 0}, {"lon": -77.043241, "bike_id": "89b5ac7da893abdf287676f5707e39ad", "lat": 38.918889, "fusion_lon": 0.0, "fusion_lat": 0.0, "type": "electric_scooter", "name": "89b5ac7da893abdf287676f5707e39ad", "is_disabled": 0, "rental_uris": {"ios": "https://dc.lft.to/lastmile_qr_scan", "android": "https://dc.lft.to/lastmile_qr_scan"}, "is_reserved": 0}, {"lon": -76.99852933333334, "bike_id": "5e7377091af9c985af606b0d9f79b0b3", "lat": 38.841620166666665, "fusion_lon": 0.0, "fusion_lat": 0.0, "type": "electric_scooter", "name": "5e7377091af9c985af606b0d9f79b0b3", "is_disabled": 0, "rental_uris": {"ios": "https://dc.lft.to/lastmile_qr_scan", "android": "https://dc.lft.to/lastmile_qr_scan"}, "is_reserved": 0}, {"lon": -77.02256866666667, "bike_id": "01a4a2d0fea10c24e4db54feca3abc1a", "lat": 38.92823033333333, "fusion_lon": 0.0, "fusion_lat": 0.0, "type": "electric_scooter", "name": "01a4a2d0fea10c24e4db54feca3abc1a", "is_disabled": 0, "rental_uris": {"ios": "https://dc.lft.to/lastmile_qr_scan", "android": "https://dc.lft.to/lastmile_qr_scan"}, "is_reserved": 0}, {"lon": -77.0577085, "bike_id": "e1ecaf483b6f64f1769e91480e7de5d6", "lat": 38.9361935, "fusion_lon": 0.0, "fusion_lat": 0.0, "type": "electric_scooter", "name": "e1ecaf483b6f64f1769e91480e7de5d6", "is_disabled": 0, "rental_uris": {"ios": "https://dc.lft.to/lastmile_qr_scan", "android": "https://dc.lft.to/lastmile_qr_scan"}, "is_reserved": 0}, {"lon": -77.124868, "bike_id": "2945b138a4ab87f93e6aa6cb3a5959f9", "lat": 38.82792, "fusion_lon": 0.0, "fusion_lat": 0.0, "type": "electric_bike", "name": "2945b138a4ab87f93e6aa6cb3a5959f9", "is_disabled": 0, "rental_uris": {"ios": "https://dc.lft.to/lastmile_qr_scan", "android": "https://dc.lft.to/lastmile_qr_scan"}, "is_reserved": 0}, {"lon": -76.995202, "bike_id": "28980efcc087f99fa7288854054b449e", "lat": 38.90018633333333, "fusion_lon": 0.0, "fusion_lat": 0.0, "type": "electric_scooter", "name": "28980efcc087f99fa7288854054b449e", "is_disabled": 0, "rental_uris": {"ios": "https://dc.lft.to/lastmile_qr_scan", "android": "https://dc.lft.to/lastmile_qr_scan"}, "is_reserved": 0}, {"lon": -77.051773, "bike_id": "839615457cd2662591056c490f2fccbb", "lat": 38.92427283333333, "fusion_lon": 0.0, "fusion_lat": 0.0, "type": "electric_scooter", "name": "839615457cd2662591056c490f2fccbb", "is_disabled": 0, "rental_uris": {"ios": "https://dc.lft.to/lastmile_qr_scan", "android": "https://dc.lft.to/lastmile_qr_scan"}, "is_reserved": 0}, {"lon": -77.03417016666667, "bike_id": "c26f8569cc1abfcd7e156ec41876280d", "lat": 38.927464, "fusion_lon": 0.0, "fusion_lat": 0.0, "type": "electric_scooter", "name": "c26f8569cc1abfcd7e156ec41876280d", "is_disabled": 0, "rental_uris": {"ios": "https://dc.lft.to/lastmile_qr_scan", "android": "https://dc.lft.to/lastmile_qr_scan"}, "is_reserved": 0}, {"lon": -77.02687083333333, "bike_id": "fe1260cc63b46a3e581c4db88b42b4ef", "lat": 38.90397216666667, "fusion_lon": 0.0, "fusion_lat": 0.0, "type": "electric_scooter", "name": "fe1260cc63b46a3e581c4db88b42b4ef", "is_disabled": 0, "rental_uris": {"ios": "https://dc.lft.to/lastmile_qr_scan", "android": "https://dc.lft.to/lastmile_qr_scan"}, "is_reserved": 0}, {"lon": -76.99871066666667, "bike_id": "fc5e72ec7b21a1eece056268a34352f1", "lat": 38.90025466666667, "fusion_lon": 0.0, "fusion_lat": 0.0, "type": "electric_scooter", "name": "fc5e72ec7b21a1eece056268a34352f1", "is_disabled": 0, "rental_uris": {"ios": "https://dc.lft.to/lastmile_qr_scan", "android": "https://dc.lft.to/lastmile_qr_scan"}, "is_reserved": 0}, {"lon": -77.00246066666666, "bike_id": "2524d380af54bd8549b019cbdb6e938d", "lat": 38.8850995, "fusion_lon": 0.0, "fusion_lat": 0.0, "type": "electric_scooter", "name": "2524d380af54bd8549b019cbdb6e938d", "is_disabled": 0, "rental_uris": {"ios": "https://dc.lft.to/lastmile_qr_scan", "android": "https://dc.lft.to/lastmile_qr_scan"}, "is_reserved": 0}, {"lon": -77.009583, "bike_id": "245caeb35714defeb38d8fc5d57754fc", "lat": 38.921368666666666, "fusion_lon": 0.0, "fusion_lat": 0.0, "type": "electric_scooter", "name": "245caeb35714defeb38d8fc5d57754fc", "is_disabled": 0, "rental_uris": {"ios": "https://dc.lft.to/lastmile_qr_scan", "android": "https://dc.lft.to/lastmile_qr_scan"}, "is_reserved": 0}, {"lon": -76.99923433333333, "bike_id": "eb3f8d656a5eff3354419cd748d7e68d", "lat": 38.8897405, "fusion_lon": 0.0, "fusion_lat": 0.0, "type": "electric_scooter", "name": "eb3f8d656a5eff3354419cd748d7e68d", "is_disabled": 0, "rental_uris": {"ios": "https://dc.lft.to/lastmile_qr_scan", "android": "https://dc.lft.to/lastmile_qr_scan"}, "is_reserved": 0}, {"lon": -77.02717816666667, "bike_id": "7c8806a645470343e5b373425f3f5f3f", "lat": 38.89776633333334, "fusion_lon": 0.0, "fusion_lat": 0.0, "type": "electric_scooter", "name": "7c8806a645470343e5b373425f3f5f3f", "is_disabled": 0, "rental_uris": {"ios": "https://dc.lft.to/lastmile_qr_scan", "android": "https://dc.lft.to/lastmile_qr_scan"}, "is_reserved": 0}, {"lon": -76.98246533333334, "bike_id": "a6b61f446217cb9db078c6e9b3ac5fa5", "lat": 38.864616, "fusion_lon": 0.0, "fusion_lat": 0.0, "type": "electric_scooter", "name": "a6b61f446217cb9db078c6e9b3ac5fa5", "is_disabled": 0, "rental_uris": {"ios": "https://dc.lft.to/lastmile_qr_scan", "android": "https://dc.lft.to/lastmile_qr_scan"}, "is_reserved": 0}, {"lon": -77.03655383333333, "bike_id": "951aa7ffb7df3bff2a7b45ca3f3f9347", "lat": 38.9332605, "fusion_lon": 0.0, "fusion_lat": 0.0, "type": "electric_scooter", "name": "951aa7ffb7df3bff2a7b45ca3f3f9347", "is_disabled": 0, "rental_uris": {"ios": "https://dc.lft.to/lastmile_qr_scan", "android": "https://dc.lft.to/lastmile_qr_scan"}, "is_reserved": 0}, {"lon": -77.03348966666667, "bike_id": "4e649b4a243197315126a158efae5290", "lat": 38.93511566666667, "fusion_lon": 0.0, "fusion_lat": 0.0, "type": "electric_scooter", "name": "4e649b4a243197315126a158efae5290", "is_disabled": 0, "rental_uris": {"ios": "https://dc.lft.to/lastmile_qr_scan", "android": "https://dc.lft.to/lastmile_qr_scan"}, "is_reserved": 0}, {"lon": -77.04695916666667, "bike_id": "f8d56fe86440a061bf16f5b78c5997e6", "lat": 38.9189555, "fusion_lon": 0.0, "fusion_lat": 0.0, "type": "electric_scooter", "name": "f8d56fe86440a061bf16f5b78c5997e6", "is_disabled": 0, "rental_uris": {"ios": "https://dc.lft.to/lastmile_qr_scan", "android": "https://dc.lft.to/lastmile_qr_scan"}, "is_reserved": 0}, {"lon": -77.03263083333333, "bike_id": "cd04f430dccc082447a2bcb9d2b58277", "lat": 38.93235133333334, "fusion_lon": 0.0, "fusion_lat": 0.0, "type": "electric_scooter", "name": "cd04f430dccc082447a2bcb9d2b58277", "is_disabled": 0, "rental_uris": {"ios": "https://dc.lft.to/lastmile_qr_scan", "android": "https://dc.lft.to/lastmile_qr_scan"}, "is_reserved": 0}, {"lon": -77.04700616666666, "bike_id": "d98d0d43ebdee7fb200f8207536815a1", "lat": 38.920632166666664, "fusion_lon": 0.0, "fusion_lat": 0.0, "type": "electric_scooter", "name": "d98d0d43ebdee7fb200f8207536815a1", "is_disabled": 0, "rental_uris": {"ios": "https://dc.lft.to/lastmile_qr_scan", "android": "https://dc.lft.to/lastmile_qr_scan"}, "is_reserved": 0}, {"lon": -77.03666283333334, "bike_id": "67836f110d8fde096543fc262134a98b", "lat": 38.9333965, "fusion_lon": 0.0, "fusion_lat": 0.0, "type": "electric_scooter", "name": "67836f110d8fde096543fc262134a98b", "is_disabled": 0, "rental_uris": {"ios": "https://dc.lft.to/lastmile_qr_scan", "android": "https://dc.lft.to/lastmile_qr_scan"}, "is_reserved": 0}, {"lon": -77.01481716666666, "bike_id": "21d44f553225afd7d9932cd82236b355", "lat": 38.9193105, "fusion_lon": 0.0, "fusion_lat": 0.0, "type": "electric_scooter", "name": "21d44f553225afd7d9932cd82236b355", "is_disabled": 0, "rental_uris": {"ios": "https://dc.lft.to/lastmile_qr_scan", "android": "https://dc.lft.to/lastmile_qr_scan"}, "is_reserved": 0}, {"lon": -76.949397, "bike_id": "60d68e0947c404482dfcf71e2dcb3ba8", "lat": 38.90369916666667, "fusion_lon": 0.0, "fusion_lat": 0.0, "type": "electric_scooter", "name": "60d68e0947c404482dfcf71e2dcb3ba8", "is_disabled": 0, "rental_uris": {"ios": "https://dc.lft.to/lastmile_qr_scan", "android": "https://dc.lft.to/lastmile_qr_scan"}, "is_reserved": 0}, {"lon": -77.0018765, "bike_id": "00042342beecf7b28f96afa6e252f40b", "lat": 38.894744333333335, "fusion_lon": 0.0, "fusion_lat": 0.0, "type": "electric_scooter", "name": "00042342beecf7b28f96afa6e252f40b", "is_disabled": 0, "rental_uris": {"ios": "https://dc.lft.to/lastmile_qr_scan", "android": "https://dc.lft.to/lastmile_qr_scan"}, "is_reserved": 0}, {"lon": -76.9978925, "bike_id": "311abe2e113a3b927eb7e3018712bc6f", "lat": 38.890910166666664, "fusion_lon": 0.0, "fusion_lat": 0.0, "type": "electric_scooter", "name": "311abe2e113a3b927eb7e3018712bc6f", "is_disabled": 0, "rental_uris": {"ios": "https://dc.lft.to/lastmile_qr_scan", "android": "https://dc.lft.to/lastmile_qr_scan"}, "is_reserved": 0}, {"lon": -76.98107, "bike_id": "74cd036fd6afa7a46b409aeafc747441", "lat": 38.87731383333333, "fusion_lon": 0.0, "fusion_lat": 0.0, "type": "electric_bike", "name": "74cd036fd6afa7a46b409aeafc747441", "is_disabled": 0, "rental_uris": {"ios": "https://dc.lft.to/lastmile_qr_scan", "android": "https://dc.lft.to/lastmile_qr_scan"}, "is_reserved": 0}, {"lon": -77.02359916666667, "bike_id": "0e2e227097da4b6ff96e7a20228196e6", "lat": 38.89625083333333, "fusion_lon": 0.0, "fusion_lat": 0.0, "type": "electric_scooter", "name": "0e2e227097da4b6ff96e7a20228196e6", "is_disabled": 0, "rental_uris": {"ios": "https://dc.lft.to/lastmile_qr_scan", "android": "https://dc.lft.to/lastmile_qr_scan"}, "is_reserved": 0}, {"lon": -76.98798233333333, "bike_id": "cdc7227303e8cfb3fc69d21ea617d9b1", "lat": 38.892425833333334, "fusion_lon": 0.0, "fusion_lat": 0.0, "type": "electric_scooter", "name": "cdc7227303e8cfb3fc69d21ea617d9b1", "is_disabled": 0, "rental_uris": {"ios": "https://dc.lft.to/lastmile_qr_scan", "android": "https://dc.lft.to/lastmile_qr_scan"}, "is_reserved": 0}, {"lon": -77.01884083333333, "bike_id": "818aab4cc072f3caa8fb33d10eebb174", "lat": 38.90611116666667, "fusion_lon": 0.0, "fusion_lat": 0.0, "type": "electric_scooter", "name": "818aab4cc072f3caa8fb33d10eebb174", "is_disabled": 0, "rental_uris": {"ios": "https://dc.lft.to/lastmile_qr_scan", "android": "https://dc.lft.to/lastmile_qr_scan"}, "is_reserved": 0}, {"lon": -77.03219983333334, "bike_id": "e11c117e3d0fba5b12550836ce2df90b", "lat": 38.90732216666667, "fusion_lon": 0.0, "fusion_lat": 0.0, "type": "electric_scooter", "name": "e11c117e3d0fba5b12550836ce2df90b", "is_disabled": 0, "rental_uris": {"ios": "https://dc.lft.to/lastmile_qr_scan", "android": "https://dc.lft.to/lastmile_qr_scan"}, "is_reserved": 0}, {"lon": -77.02290666666667, "bike_id": "c2aaa27003828dbc8374c0a8ccee2418", "lat": 38.932915, "fusion_lon": 0.0, "fusion_lat": 0.0, "type": "electric_scooter", "name": "c2aaa27003828dbc8374c0a8ccee2418", "is_disabled": 0, "rental_uris": {"ios": "https://dc.lft.to/lastmile_qr_scan", "android": "https://dc.lft.to/lastmile_qr_scan"}, "is_reserved": 0}, {"lon": -76.98310066666667, "bike_id": "80ef052a459e9586dc824426e6430ac9", "lat": 38.899788666666666, "fusion_lon": 0.0, "fusion_lat": 0.0, "type": "electric_scooter", "name": "80ef052a459e9586dc824426e6430ac9", "is_disabled": 0, "rental_uris": {"ios": "https://dc.lft.to/lastmile_qr_scan", "android": "https://dc.lft.to/lastmile_qr_scan"}, "is_reserved": 0}, {"lon": -77.05567416666666, "bike_id": "118da8b151ab3f161329d7da78282898", "lat": 38.93037283333334, "fusion_lon": 0.0, "fusion_lat": 0.0, "type": "electric_scooter", "name": "118da8b151ab3f161329d7da78282898", "is_disabled": 0, "rental_uris": {"ios": "https://dc.lft.to/lastmile_qr_scan", "android": "https://dc.lft.to/lastmile_qr_scan"}, "is_reserved": 0}, {"lon": -76.992661, "bike_id": "d9c30969b3f07ae29b1f2fe2b1df1a5d", "lat": 38.90391783333333, "fusion_lon": 0.0, "fusion_lat": 0.0, "type": "electric_scooter", "name": "d9c30969b3f07ae29b1f2fe2b1df1a5d", "is_disabled": 0, "rental_uris": {"ios": "https://dc.lft.to/lastmile_qr_scan", "android": "https://dc.lft.to/lastmile_qr_scan"}, "is_reserved": 0}, {"lon": -76.98144066666667, "bike_id": "55fa72e483f17c508f6ada0475dd8ced", "lat": 38.90566, "fusion_lon": 0.0, "fusion_lat": 0.0, "type": "electric_scooter", "name": "55fa72e483f17c508f6ada0475dd8ced", "is_disabled": 0, "rental_uris": {"ios": "https://dc.lft.to/lastmile_qr_scan", "android": "https://dc.lft.to/lastmile_qr_scan"}, "is_reserved": 0}, {"lon": -77.0335175, "bike_id": "aba67ef5825e995b7c002487582be3b4", "lat": 38.90575183333333, "fusion_lon": 0.0, "fusion_lat": 0.0, "type": "electric_scooter", "name": "aba67ef5825e995b7c002487582be3b4", "is_disabled": 0, "rental_uris": {"ios": "https://dc.lft.to/lastmile_qr_scan", "android": "https://dc.lft.to/lastmile_qr_scan"}, "is_reserved": 0}, {"lon": -77.02713983333334, "bike_id": "6e712930ac816ccdcd6ee4c3e6d94831", "lat": 38.906715, "fusion_lon": 0.0, "fusion_lat": 0.0, "type": "electric_scooter", "name": "6e712930ac816ccdcd6ee4c3e6d94831", "is_disabled": 0, "rental_uris": {"ios": "https://dc.lft.to/lastmile_qr_scan", "android": "https://dc.lft.to/lastmile_qr_scan"}, "is_reserved": 0}, {"lon": -77.0591925, "bike_id": "77bea2429a488c0fcbc43f83d9d79c76", "lat": 38.906262, "fusion_lon": 0.0, "fusion_lat": 0.0, "type": "electric_scooter", "name": "77bea2429a488c0fcbc43f83d9d79c76", "is_disabled": 0, "rental_uris": {"ios": "https://dc.lft.to/lastmile_qr_scan", "android": "https://dc.lft.to/lastmile_qr_scan"}, "is_reserved": 0}, {"lon": -77.0781825, "bike_id": "ddd0ee7eaab99e5076cd140ba51c0edf", "lat": 38.923674166666665, "fusion_lon": 0.0, "fusion_lat": 0.0, "type": "electric_scooter", "name": "ddd0ee7eaab99e5076cd140ba51c0edf", "is_disabled": 0, "rental_uris": {"ios": "https://dc.lft.to/lastmile_qr_scan", "android": "https://dc.lft.to/lastmile_qr_scan"}, "is_reserved": 0}, {"lon": -77.04110966666667, "bike_id": "c09cb1ddfa61765da69d16e75437b580", "lat": 38.915532, "fusion_lon": 0.0, "fusion_lat": 0.0, "type": "electric_scooter", "name": "c09cb1ddfa61765da69d16e75437b580", "is_disabled": 0, "rental_uris": {"ios": "https://dc.lft.to/lastmile_qr_scan", "android": "https://dc.lft.to/lastmile_qr_scan"}, "is_reserved": 0}, {"lon": -77.10523466666666, "bike_id": "dcbf170f9594313272cc5d654f5a2a82", "lat": 38.873716, "fusion_lon": 0.0, "fusion_lat": 0.0, "type": "electric_bike", "name": "dcbf170f9594313272cc5d654f5a2a82", "is_disabled": 0, "rental_uris": {"ios": "https://dc.lft.to/lastmile_qr_scan", "android": "https://dc.lft.to/lastmile_qr_scan"}, "is_reserved": 0}, {"lon": -77.005785, "bike_id": "43628600251832ef6bd4b466360b9732", "lat": 38.829988166666666, "fusion_lon": 0.0, "fusion_lat": 0.0, "type": "electric_scooter", "name": "43628600251832ef6bd4b466360b9732", "is_disabled": 0, "rental_uris": {"ios": "https://dc.lft.to/lastmile_qr_scan", "android": "https://dc.lft.to/lastmile_qr_scan"}, "is_reserved": 0}, {"lon": -77.03660683333334, "bike_id": "0f8e1b0b672278466c26ef3635631b5b", "lat": 38.91816433333334, "fusion_lon": 0.0, "fusion_lat": 0.0, "type": "electric_scooter", "name": "0f8e1b0b672278466c26ef3635631b5b", "is_disabled": 0, "rental_uris": {"ios": "https://dc.lft.to/lastmile_qr_scan", "android": "https://dc.lft.to/lastmile_qr_scan"}, "is_reserved": 0}, {"lon": -76.99192466666666, "bike_id": "5bd375cc527da20cfbeef55cb1a904fa", "lat": 38.88266683333333, "fusion_lon": 0.0, "fusion_lat": 0.0, "type": "electric_scooter", "name": "5bd375cc527da20cfbeef55cb1a904fa", "is_disabled": 0, "rental_uris": {"ios": "https://dc.lft.to/lastmile_qr_scan", "android": "https://dc.lft.to/lastmile_qr_scan"}, "is_reserved": 0}, {"lon": -77.02800766666667, "bike_id": "d0c16c7bdaa6d2f6b54ab83a8c41ac12", "lat": 38.9228435, "fusion_lon": 0.0, "fusion_lat": 0.0, "type": "electric_scooter", "name": "d0c16c7bdaa6d2f6b54ab83a8c41ac12", "is_disabled": 0, "rental_uris": {"ios": "https://dc.lft.to/lastmile_qr_scan", "android": "https://dc.lft.to/lastmile_qr_scan"}, "is_reserved": 0}, {"lon": -77.03233316666666, "bike_id": "bb660b461b12bffc152942f4e0e13cf0", "lat": 38.929900833333335, "fusion_lon": 0.0, "fusion_lat": 0.0, "type": "electric_scooter", "name": "bb660b461b12bffc152942f4e0e13cf0", "is_disabled": 0, "rental_uris": {"ios": "https://dc.lft.to/lastmile_qr_scan", "android": "https://dc.lft.to/lastmile_qr_scan"}, "is_reserved": 0}, {"lon": -77.03173683333333, "bike_id": "f9e6886776ca77775b35e40ff0d75d42", "lat": 38.92916783333333, "fusion_lon": 0.0, "fusion_lat": 0.0, "type": "electric_scooter", "name": "f9e6886776ca77775b35e40ff0d75d42", "is_disabled": 0, "rental_uris": {"ios": "https://dc.lft.to/lastmile_qr_scan", "android": "https://dc.lft.to/lastmile_qr_scan"}, "is_reserved": 0}, {"lon": -77.00658583333333, "bike_id": "27e1b85c1e903882e0535b45ef68a3e5", "lat": 38.9446235, "fusion_lon": 0.0, "fusion_lat": 0.0, "type": "electric_scooter", "name": "27e1b85c1e903882e0535b45ef68a3e5", "is_disabled": 0, "rental_uris": {"ios": "https://dc.lft.to/lastmile_qr_scan", "android": "https://dc.lft.to/lastmile_qr_scan"}, "is_reserved": 0}, {"lon": -77.03440283333333, "bike_id": "8cf78c1b1661a6ae2fb36e3604dceab9", "lat": 38.91011833333334, "fusion_lon": 0.0, "fusion_lat": 0.0, "type": "electric_scooter", "name": "8cf78c1b1661a6ae2fb36e3604dceab9", "is_disabled": 0, "rental_uris": {"ios": "https://dc.lft.to/lastmile_qr_scan", "android": "https://dc.lft.to/lastmile_qr_scan"}, "is_reserved": 0}, {"lon": -77.0047845, "bike_id": "934ee4ad627d9070b6c8e4b545a4fbd5", "lat": 38.895830333333336, "fusion_lon": 0.0, "fusion_lat": 0.0, "type": "electric_scooter", "name": "934ee4ad627d9070b6c8e4b545a4fbd5", "is_disabled": 0, "rental_uris": {"ios": "https://dc.lft.to/lastmile_qr_scan", "android": "https://dc.lft.to/lastmile_qr_scan"}, "is_reserved": 0}, {"lon": -76.98770633333334, "bike_id": "9f41a3dc6f2b85a6138b83b69a6a4909", "lat": 38.866050666666666, "fusion_lon": 0.0, "fusion_lat": 0.0, "type": "electric_bike", "name": "9f41a3dc6f2b85a6138b83b69a6a4909", "is_disabled": 0, "rental_uris": {"ios": "https://dc.lft.to/lastmile_qr_scan", "android": "https://dc.lft.to/lastmile_qr_scan"}, "is_reserved": 0}, {"lon": -77.18561983333333, "bike_id": "acfab491eeac8e614a015bdbfdaaa613", "lat": 39.09975416666666, "fusion_lon": 0.0, "fusion_lat": 0.0, "type": "electric_bike", "name": "acfab491eeac8e614a015bdbfdaaa613", "is_disabled": 0, "rental_uris": {"ios": "https://dc.lft.to/lastmile_qr_scan", "android": "https://dc.lft.to/lastmile_qr_scan"}, "is_reserved": 0}, {"lon": -76.962601, "bike_id": "4e053b08a0278a5943e7669eec570929", "lat": 38.88245833333333, "fusion_lon": 0.0, "fusion_lat": 0.0, "type": "electric_bike", "name": "4e053b08a0278a5943e7669eec570929", "is_disabled": 0, "rental_uris": {"ios": "https://dc.lft.to/lastmile_qr_scan", "android": "https://dc.lft.to/lastmile_qr_scan"}, "is_reserved": 0}, {"lon": -77.0019725, "bike_id": "7fb9b1aeed8d7ebb34c678993999d12f", "lat": 38.891065833333336, "fusion_lon": 0.0, "fusion_lat": 0.0, "type": "electric_scooter", "name": "7fb9b1aeed8d7ebb34c678993999d12f", "is_disabled": 0, "rental_uris": {"ios": "https://dc.lft.to/lastmile_qr_scan", "android": "https://dc.lft.to/lastmile_qr_scan"}, "is_reserved": 0}, {"lon": -77.0317425, "bike_id": "291b7b76b7b64f1c63005ee404e058df", "lat": 38.93600766666667, "fusion_lon": 0.0, "fusion_lat": 0.0, "type": "electric_scooter", "name": "291b7b76b7b64f1c63005ee404e058df", "is_disabled": 0, "rental_uris": {"ios": "https://dc.lft.to/lastmile_qr_scan", "android": "https://dc.lft.to/lastmile_qr_scan"}, "is_reserved": 0}, {"lon": -77.0386705, "bike_id": "c9a753d7c49cec98cedaabe50fb2ed87", "lat": 38.94505483333333, "fusion_lon": 0.0, "fusion_lat": 0.0, "type": "electric_scooter", "name": "c9a753d7c49cec98cedaabe50fb2ed87", "is_disabled": 0, "rental_uris": {"ios": "https://dc.lft.to/lastmile_qr_scan", "android": "https://dc.lft.to/lastmile_qr_scan"}, "is_reserved": 0}, {"lon": -76.9353575, "bike_id": "290ff146de55ed7d5f665c5b613c7e32", "lat": 38.89679916666667, "fusion_lon": 0.0, "fusion_lat": 0.0, "type": "electric_scooter", "name": "290ff146de55ed7d5f665c5b613c7e32", "is_disabled": 0, "rental_uris": {"ios": "https://dc.lft.to/lastmile_qr_scan", "android": "https://dc.lft.to/lastmile_qr_scan"}, "is_reserved": 0}, {"lon": -76.98096733333334, "bike_id": "530f7827fc8b544a7622598c9bc91ddd", "lat": 38.89553016666667, "fusion_lon": 0.0, "fusion_lat": 0.0, "type": "electric_scooter", "name": "530f7827fc8b544a7622598c9bc91ddd", "is_disabled": 0, "rental_uris": {"ios": "https://dc.lft.to/lastmile_qr_scan", "android": "https://dc.lft.to/lastmile_qr_scan"}, "is_reserved": 0}, {"lon": -76.96149116666666, "bike_id": "8f7bbc003fced06dad50b435dcc0eba7", "lat": 38.88358216666666, "fusion_lon": 0.0, "fusion_lat": 0.0, "type": "electric_scooter", "name": "8f7bbc003fced06dad50b435dcc0eba7", "is_disabled": 0, "rental_uris": {"ios": "https://dc.lft.to/lastmile_qr_scan", "android": "https://dc.lft.to/lastmile_qr_scan"}, "is_reserved": 0}, {"lon": -77.02715333333333, "bike_id": "a31152dcbfc522a0c7a9312781953796", "lat": 38.924664, "fusion_lon": 0.0, "fusion_lat": 0.0, "type": "electric_scooter", "name": "a31152dcbfc522a0c7a9312781953796", "is_disabled": 0, "rental_uris": {"ios": "https://dc.lft.to/lastmile_qr_scan", "android": "https://dc.lft.to/lastmile_qr_scan"}, "is_reserved": 0}, {"lon": -77.03177133333334, "bike_id": "bcd0e5c9f4e35a789a0cc2696b145308", "lat": 38.919098166666664, "fusion_lon": 0.0, "fusion_lat": 0.0, "type": "electric_scooter", "name": "bcd0e5c9f4e35a789a0cc2696b145308", "is_disabled": 0, "rental_uris": {"ios": "https://dc.lft.to/lastmile_qr_scan", "android": "https://dc.lft.to/lastmile_qr_scan"}, "is_reserved": 0}, {"lon": -76.990511, "bike_id": "1360323c0fccea1cde39f8f055a24191", "lat": 38.887586, "fusion_lon": 0.0, "fusion_lat": 0.0, "type": "electric_scooter", "name": "1360323c0fccea1cde39f8f055a24191", "is_disabled": 0, "rental_uris": {"ios": "https://dc.lft.to/lastmile_qr_scan", "android": "https://dc.lft.to/lastmile_qr_scan"}, "is_reserved": 0}, {"lon": -77.00805316666667, "bike_id": "9515189687196201950981acd4596a51", "lat": 38.905782333333335, "fusion_lon": 0.0, "fusion_lat": 0.0, "type": "electric_scooter", "name": "9515189687196201950981acd4596a51", "is_disabled": 0, "rental_uris": {"ios": "https://dc.lft.to/lastmile_qr_scan", "android": "https://dc.lft.to/lastmile_qr_scan"}, "is_reserved": 0}, {"lon": -76.96788616666667, "bike_id": "cf18278a02fb80bfbf22238fa063b14d", "lat": 38.86849133333333, "fusion_lon": 0.0, "fusion_lat": 0.0, "type": "electric_scooter", "name": "cf18278a02fb80bfbf22238fa063b14d", "is_disabled": 0, "rental_uris": {"ios": "https://dc.lft.to/lastmile_qr_scan", "android": "https://dc.lft.to/lastmile_qr_scan"}, "is_reserved": 0}, {"lon": -76.9984225, "bike_id": "0ab03fff9e71d7b08c249221721c91e2", "lat": 38.902150666666664, "fusion_lon": 0.0, "fusion_lat": 0.0, "type": "electric_scooter", "name": "0ab03fff9e71d7b08c249221721c91e2", "is_disabled": 0, "rental_uris": {"ios": "https://dc.lft.to/lastmile_qr_scan", "android": "https://dc.lft.to/lastmile_qr_scan"}, "is_reserved": 0}, {"lon": -77.038925, "bike_id": "1ad78fb14a37634dc8a583e6364e823a", "lat": 38.91000916666667, "fusion_lon": 0.0, "fusion_lat": 0.0, "type": "electric_scooter", "name": "1ad78fb14a37634dc8a583e6364e823a", "is_disabled": 0, "rental_uris": {"ios": "https://dc.lft.to/lastmile_qr_scan", "android": "https://dc.lft.to/lastmile_qr_scan"}, "is_reserved": 0}, {"lon": -77.006955, "bike_id": "fadd24b03bd1efbf878d3595062f8911", "lat": 38.9173965, "fusion_lon": 0.0, "fusion_lat": 0.0, "type": "electric_scooter", "name": "fadd24b03bd1efbf878d3595062f8911", "is_disabled": 0, "rental_uris": {"ios": "https://dc.lft.to/lastmile_qr_scan", "android": "https://dc.lft.to/lastmile_qr_scan"}, "is_reserved": 0}, {"lon": -76.973916, "bike_id": "3700fd97b9f831d33249f15b4cd7482f", "lat": 38.90558683333333, "fusion_lon": 0.0, "fusion_lat": 0.0, "type": "electric_scooter", "name": "3700fd97b9f831d33249f15b4cd7482f", "is_disabled": 0, "rental_uris": {"ios": "https://dc.lft.to/lastmile_qr_scan", "android": "https://dc.lft.to/lastmile_qr_scan"}, "is_reserved": 0}, {"lon": -77.0366555, "bike_id": "dd9aad317eaded4ee1e1468030cc85d9", "lat": 38.922578666666666, "fusion_lon": 0.0, "fusion_lat": 0.0, "type": "electric_scooter", "name": "dd9aad317eaded4ee1e1468030cc85d9", "is_disabled": 0, "rental_uris": {"ios": "https://dc.lft.to/lastmile_qr_scan", "android": "https://dc.lft.to/lastmile_qr_scan"}, "is_reserved": 0}, {"lon": -77.0342565, "bike_id": "f82d5b411721d4a94b82218c5118a85b", "lat": 38.922452166666666, "fusion_lon": 0.0, "fusion_lat": 0.0, "type": "electric_scooter", "name": "f82d5b411721d4a94b82218c5118a85b", "is_disabled": 0, "rental_uris": {"ios": "https://dc.lft.to/lastmile_qr_scan", "android": "https://dc.lft.to/lastmile_qr_scan"}, "is_reserved": 0}, {"lon": -77.03261833333333, "bike_id": "387f6e163fa02a1474a567131c71f689", "lat": 38.934115166666665, "fusion_lon": 0.0, "fusion_lat": 0.0, "type": "electric_scooter", "name": "387f6e163fa02a1474a567131c71f689", "is_disabled": 0, "rental_uris": {"ios": "https://dc.lft.to/lastmile_qr_scan", "android": "https://dc.lft.to/lastmile_qr_scan"}, "is_reserved": 0}, {"lon": -77.03891483333334, "bike_id": "8b7118a9429f9f9fb7c6dd9864b6c73f", "lat": 38.92349183333333, "fusion_lon": 0.0, "fusion_lat": 0.0, "type": "electric_scooter", "name": "8b7118a9429f9f9fb7c6dd9864b6c73f", "is_disabled": 0, "rental_uris": {"ios": "https://dc.lft.to/lastmile_qr_scan", "android": "https://dc.lft.to/lastmile_qr_scan"}, "is_reserved": 0}, {"lon": -77.0268425, "bike_id": "4b796fe4670218af9c06ed100dc0d380", "lat": 38.8971375, "fusion_lon": 0.0, "fusion_lat": 0.0, "type": "electric_scooter", "name": "4b796fe4670218af9c06ed100dc0d380", "is_disabled": 0, "rental_uris": {"ios": "https://dc.lft.to/lastmile_qr_scan", "android": "https://dc.lft.to/lastmile_qr_scan"}, "is_reserved": 0}, {"lon": -77.0349985, "bike_id": "ce958ba5b62e49633c77cf06d56ce769", "lat": 38.93749066666667, "fusion_lon": 0.0, "fusion_lat": 0.0, "type": "electric_scooter", "name": "ce958ba5b62e49633c77cf06d56ce769", "is_disabled": 0, "rental_uris": {"ios": "https://dc.lft.to/lastmile_qr_scan", "android": "https://dc.lft.to/lastmile_qr_scan"}, "is_reserved": 0}, {"lon": -77.03972216666666, "bike_id": "4aa83b1af93b5e3fec489d9fdb5a331e", "lat": 38.91192366666667, "fusion_lon": 0.0, "fusion_lat": 0.0, "type": "electric_scooter", "name": "4aa83b1af93b5e3fec489d9fdb5a331e", "is_disabled": 0, "rental_uris": {"ios": "https://dc.lft.to/lastmile_qr_scan", "android": "https://dc.lft.to/lastmile_qr_scan"}, "is_reserved": 0}, {"lon": -77.0133315, "bike_id": "434458041554bba732229439ed5b1b43", "lat": 38.879236, "fusion_lon": 0.0, "fusion_lat": 0.0, "type": "electric_scooter", "name": "434458041554bba732229439ed5b1b43", "is_disabled": 0, "rental_uris": {"ios": "https://dc.lft.to/lastmile_qr_scan", "android": "https://dc.lft.to/lastmile_qr_scan"}, "is_reserved": 0}, {"lon": -77.06338933333333, "bike_id": "c2710540451053d4af2f96ccb93c5560", "lat": 38.906824, "fusion_lon": 0.0, "fusion_lat": 0.0, "type": "electric_scooter", "name": "c2710540451053d4af2f96ccb93c5560", "is_disabled": 0, "rental_uris": {"ios": "https://dc.lft.to/lastmile_qr_scan", "android": "https://dc.lft.to/lastmile_qr_scan"}, "is_reserved": 0}, {"lon": -77.03181383333333, "bike_id": "a54043edc7763f67ca333ddee52463fe", "lat": 38.90359, "fusion_lon": 0.0, "fusion_lat": 0.0, "type": "electric_scooter", "name": "a54043edc7763f67ca333ddee52463fe", "is_disabled": 0, "rental_uris": {"ios": "https://dc.lft.to/lastmile_qr_scan", "android": "https://dc.lft.to/lastmile_qr_scan"}, "is_reserved": 0}, {"lon": -76.980609, "bike_id": "da1ab6800017fc0b654a6fb734cee15b", "lat": 38.90167016666667, "fusion_lon": 0.0, "fusion_lat": 0.0, "type": "electric_scooter", "name": "da1ab6800017fc0b654a6fb734cee15b", "is_disabled": 0, "rental_uris": {"ios": "https://dc.lft.to/lastmile_qr_scan", "android": "https://dc.lft.to/lastmile_qr_scan"}, "is_reserved": 0}, {"lon": -77.05534933333334, "bike_id": "e82fffc3b833d2429f00a6745da92f55", "lat": 38.934332166666664, "fusion_lon": 0.0, "fusion_lat": 0.0, "type": "electric_scooter", "name": "e82fffc3b833d2429f00a6745da92f55", "is_disabled": 0, "rental_uris": {"ios": "https://dc.lft.to/lastmile_qr_scan", "android": "https://dc.lft.to/lastmile_qr_scan"}, "is_reserved": 0}, {"lon": -77.03501766666666, "bike_id": "61a52ecb00d619b2fed7451dcd7fac71", "lat": 38.924803, "fusion_lon": 0.0, "fusion_lat": 0.0, "type": "electric_scooter", "name": "61a52ecb00d619b2fed7451dcd7fac71", "is_disabled": 0, "rental_uris": {"ios": "https://dc.lft.to/lastmile_qr_scan", "android": "https://dc.lft.to/lastmile_qr_scan"}, "is_reserved": 0}, {"lon": -77.003722, "bike_id": "4a8ad909f4f89372ca4435788b7365e2", "lat": 38.899189, "fusion_lon": 0.0, "fusion_lat": 0.0, "type": "electric_scooter", "name": "4a8ad909f4f89372ca4435788b7365e2", "is_disabled": 0, "rental_uris": {"ios": "https://dc.lft.to/lastmile_qr_scan", "android": "https://dc.lft.to/lastmile_qr_scan"}, "is_reserved": 0}, {"lon": -77.08458833333333, "bike_id": "12c4055d8c239e93f68eca9a4734ed29", "lat": 38.848164833333335, "fusion_lon": 0.0, "fusion_lat": 0.0, "type": "electric_bike", "name": "12c4055d8c239e93f68eca9a4734ed29", "is_disabled": 0, "rental_uris": {"ios": "https://dc.lft.to/lastmile_qr_scan", "android": "https://dc.lft.to/lastmile_qr_scan"}, "is_reserved": 0}, {"lon": -77.03708733333333, "bike_id": "72ec613b2f594aa1df7559b3a92c880c", "lat": 38.91487866666667, "fusion_lon": 0.0, "fusion_lat": 0.0, "type": "electric_scooter", "name": "72ec613b2f594aa1df7559b3a92c880c", "is_disabled": 0, "rental_uris": {"ios": "https://dc.lft.to/lastmile_qr_scan", "android": "https://dc.lft.to/lastmile_qr_scan"}, "is_reserved": 0}, {"lon": -77.0270785, "bike_id": "4d5170592ffbd7da0b1471680b95a552", "lat": 38.906727, "fusion_lon": 0.0, "fusion_lat": 0.0, "type": "electric_scooter", "name": "4d5170592ffbd7da0b1471680b95a552", "is_disabled": 0, "rental_uris": {"ios": "https://dc.lft.to/lastmile_qr_scan", "android": "https://dc.lft.to/lastmile_qr_scan"}, "is_reserved": 0}, {"lon": -76.99622516666666, "bike_id": "c250f9e30885bdab30792afda22aade5", "lat": 38.9094025, "fusion_lon": 0.0, "fusion_lat": 0.0, "type": "electric_scooter", "name": "c250f9e30885bdab30792afda22aade5", "is_disabled": 0, "rental_uris": {"ios": "https://dc.lft.to/lastmile_qr_scan", "android": "https://dc.lft.to/lastmile_qr_scan"}, "is_reserved": 0}, {"lon": -77.01889833333334, "bike_id": "39209c6f41c5c8211444c80323398d1b", "lat": 38.87463366666667, "fusion_lon": 0.0, "fusion_lat": 0.0, "type": "electric_scooter", "name": "39209c6f41c5c8211444c80323398d1b", "is_disabled": 0, "rental_uris": {"ios": "https://dc.lft.to/lastmile_qr_scan", "android": "https://dc.lft.to/lastmile_qr_scan"}, "is_reserved": 0}, {"lon": -77.002611, "bike_id": "5c7cb548ddc012a4660ee668792b51da", "lat": 38.91822366666667, "fusion_lon": 0.0, "fusion_lat": 0.0, "type": "electric_scooter", "name": "5c7cb548ddc012a4660ee668792b51da", "is_disabled": 0, "rental_uris": {"ios": "https://dc.lft.to/lastmile_qr_scan", "android": "https://dc.lft.to/lastmile_qr_scan"}, "is_reserved": 0}, {"lon": -77.11609316666667, "bike_id": "9db0d45bba26cbd9ac6e735e906a2d2d", "lat": 38.85485633333333, "fusion_lon": 0.0, "fusion_lat": 0.0, "type": "electric_bike", "name": "9db0d45bba26cbd9ac6e735e906a2d2d", "is_disabled": 0, "rental_uris": {"ios": "https://dc.lft.to/lastmile_qr_scan", "android": "https://dc.lft.to/lastmile_qr_scan"}, "is_reserved": 0}, {"lon": -76.94177516666667, "bike_id": "128026201f1625aa2dd48aa3f0bba1f0", "lat": 38.892686166666664, "fusion_lon": 0.0, "fusion_lat": 0.0, "type": "electric_scooter", "name": "128026201f1625aa2dd48aa3f0bba1f0", "is_disabled": 0, "rental_uris": {"ios": "https://dc.lft.to/lastmile_qr_scan", "android": "https://dc.lft.to/lastmile_qr_scan"}, "is_reserved": 0}, {"lon": -77.035983, "bike_id": "3a1e7370142063e44121f7ccc263343b", "lat": 38.9268045, "fusion_lon": 0.0, "fusion_lat": 0.0, "type": "electric_scooter", "name": "3a1e7370142063e44121f7ccc263343b", "is_disabled": 0, "rental_uris": {"ios": "https://dc.lft.to/lastmile_qr_scan", "android": "https://dc.lft.to/lastmile_qr_scan"}, "is_reserved": 0}, {"lon": -77.000979, "bike_id": "4fb538a912804a6ed6b89c80c881fa0e", "lat": 38.917013833333336, "fusion_lon": 0.0, "fusion_lat": 0.0, "type": "electric_scooter", "name": "4fb538a912804a6ed6b89c80c881fa0e", "is_disabled": 0, "rental_uris": {"ios": "https://dc.lft.to/lastmile_qr_scan", "android": "https://dc.lft.to/lastmile_qr_scan"}, "is_reserved": 0}, {"lon": -77.03261816666667, "bike_id": "95d2b8779d7126ca493c16af5743c481", "lat": 38.932606666666665, "fusion_lon": 0.0, "fusion_lat": 0.0, "type": "electric_scooter", "name": "95d2b8779d7126ca493c16af5743c481", "is_disabled": 0, "rental_uris": {"ios": "https://dc.lft.to/lastmile_qr_scan", "android": "https://dc.lft.to/lastmile_qr_scan"}, "is_reserved": 0}, {"lon": -77.02381316666667, "bike_id": "0ea3f05ceb1e37a3bccbe592d30c77fa", "lat": 38.907921, "fusion_lon": 0.0, "fusion_lat": 0.0, "type": "electric_scooter", "name": "0ea3f05ceb1e37a3bccbe592d30c77fa", "is_disabled": 0, "rental_uris": {"ios": "https://dc.lft.to/lastmile_qr_scan", "android": "https://dc.lft.to/lastmile_qr_scan"}, "is_reserved": 0}, {"lon": -77.05517, "bike_id": "d24794871a7d7bd422e0a1cf15fb4c35", "lat": 38.89961866666667, "fusion_lon": 0.0, "fusion_lat": 0.0, "type": "electric_scooter", "name": "d24794871a7d7bd422e0a1cf15fb4c35", "is_disabled": 0, "rental_uris": {"ios": "https://dc.lft.to/lastmile_qr_scan", "android": "https://dc.lft.to/lastmile_qr_scan"}, "is_reserved": 0}, {"lon": -77.04484416666666, "bike_id": "44d124cc9f8113d4a8756e8bdcafc88b", "lat": 38.91931066666667, "fusion_lon": 0.0, "fusion_lat": 0.0, "type": "electric_scooter", "name": "44d124cc9f8113d4a8756e8bdcafc88b", "is_disabled": 0, "rental_uris": {"ios": "https://dc.lft.to/lastmile_qr_scan", "android": "https://dc.lft.to/lastmile_qr_scan"}, "is_reserved": 0}, {"lon": -77.024073, "bike_id": "daa507dbebbd2fee827bcc49e51073ca", "lat": 38.921565666666666, "fusion_lon": 0.0, "fusion_lat": 0.0, "type": "electric_scooter", "name": "daa507dbebbd2fee827bcc49e51073ca", "is_disabled": 0, "rental_uris": {"ios": "https://dc.lft.to/lastmile_qr_scan", "android": "https://dc.lft.to/lastmile_qr_scan"}, "is_reserved": 0}, {"lon": -77.02778283333333, "bike_id": "c1862427f89c370fe082d47fdc44a728", "lat": 38.92776933333333, "fusion_lon": 0.0, "fusion_lat": 0.0, "type": "electric_scooter", "name": "c1862427f89c370fe082d47fdc44a728", "is_disabled": 0, "rental_uris": {"ios": "https://dc.lft.to/lastmile_qr_scan", "android": "https://dc.lft.to/lastmile_qr_scan"}, "is_reserved": 0}, {"lon": -77.03176216666667, "bike_id": "fac49fa26aec78f7e64385c43d78359f", "lat": 38.916669666666664, "fusion_lon": 0.0, "fusion_lat": 0.0, "type": "electric_scooter", "name": "fac49fa26aec78f7e64385c43d78359f", "is_disabled": 0, "rental_uris": {"ios": "https://dc.lft.to/lastmile_qr_scan", "android": "https://dc.lft.to/lastmile_qr_scan"}, "is_reserved": 0}, {"lon": -76.986599, "bike_id": "8796c0b614b1e7f36b01e2dc746fe36a", "lat": 38.9124945, "fusion_lon": 0.0, "fusion_lat": 0.0, "type": "electric_scooter", "name": "8796c0b614b1e7f36b01e2dc746fe36a", "is_disabled": 0, "rental_uris": {"ios": "https://dc.lft.to/lastmile_qr_scan", "android": "https://dc.lft.to/lastmile_qr_scan"}, "is_reserved": 0}, {"lon": -77.036376, "bike_id": "073c7c089d20e5b7ce120bd1389418aa", "lat": 38.903584333333335, "fusion_lon": 0.0, "fusion_lat": 0.0, "type": "electric_scooter", "name": "073c7c089d20e5b7ce120bd1389418aa", "is_disabled": 0, "rental_uris": {"ios": "https://dc.lft.to/lastmile_qr_scan", "android": "https://dc.lft.to/lastmile_qr_scan"}, "is_reserved": 0}, {"lon": -77.048798, "bike_id": "8e2df348d49c3672ebabd801d675700b", "lat": 38.89233983333333, "fusion_lon": 0.0, "fusion_lat": 0.0, "type": "electric_scooter", "name": "8e2df348d49c3672ebabd801d675700b", "is_disabled": 0, "rental_uris": {"ios": "https://dc.lft.to/lastmile_qr_scan", "android": "https://dc.lft.to/lastmile_qr_scan"}, "is_reserved": 0}, {"lon": -76.98837466666667, "bike_id": "5395ab370acd06753a979d34369c9242", "lat": 38.901295166666664, "fusion_lon": 0.0, "fusion_lat": 0.0, "type": "electric_scooter", "name": "5395ab370acd06753a979d34369c9242", "is_disabled": 0, "rental_uris": {"ios": "https://dc.lft.to/lastmile_qr_scan", "android": "https://dc.lft.to/lastmile_qr_scan"}, "is_reserved": 0}, {"lon": -77.03199316666667, "bike_id": "3f3c3306636454ee208463c77a94a9fc", "lat": 38.93042633333334, "fusion_lon": 0.0, "fusion_lat": 0.0, "type": "electric_scooter", "name": "3f3c3306636454ee208463c77a94a9fc", "is_disabled": 0, "rental_uris": {"ios": "https://dc.lft.to/lastmile_qr_scan", "android": "https://dc.lft.to/lastmile_qr_scan"}, "is_reserved": 0}, {"lon": -77.01623233333333, "bike_id": "28b9a55ba44bbaa2fc0172a60d8cef56", "lat": 38.908691166666664, "fusion_lon": 0.0, "fusion_lat": 0.0, "type": "electric_scooter", "name": "28b9a55ba44bbaa2fc0172a60d8cef56", "is_disabled": 0, "rental_uris": {"ios": "https://dc.lft.to/lastmile_qr_scan", "android": "https://dc.lft.to/lastmile_qr_scan"}, "is_reserved": 0}, {"lon": -77.04861916666667, "bike_id": "f434ccce4b9c4095329c4a9c54f85db0", "lat": 38.909544833333335, "fusion_lon": 0.0, "fusion_lat": 0.0, "type": "electric_scooter", "name": "f434ccce4b9c4095329c4a9c54f85db0", "is_disabled": 0, "rental_uris": {"ios": "https://dc.lft.to/lastmile_qr_scan", "android": "https://dc.lft.to/lastmile_qr_scan"}, "is_reserved": 0}, {"lon": -76.9987025, "bike_id": "4b5c905ca921386ba434afd8355dd1a4", "lat": 38.900221, "fusion_lon": 0.0, "fusion_lat": 0.0, "type": "electric_scooter", "name": "4b5c905ca921386ba434afd8355dd1a4", "is_disabled": 0, "rental_uris": {"ios": "https://dc.lft.to/lastmile_qr_scan", "android": "https://dc.lft.to/lastmile_qr_scan"}, "is_reserved": 0}, {"lon": -77.0020125, "bike_id": "57645ea599304371a1b56b1703618f45", "lat": 38.914622666666666, "fusion_lon": 0.0, "fusion_lat": 0.0, "type": "electric_scooter", "name": "57645ea599304371a1b56b1703618f45", "is_disabled": 0, "rental_uris": {"ios": "https://dc.lft.to/lastmile_qr_scan", "android": "https://dc.lft.to/lastmile_qr_scan"}, "is_reserved": 0}, {"lon": -77.02807583333333, "bike_id": "d57b236253e04a4a2ff77fe55c598c5b", "lat": 38.95639966666667, "fusion_lon": 0.0, "fusion_lat": 0.0, "type": "electric_bike", "name": "d57b236253e04a4a2ff77fe55c598c5b", "is_disabled": 0, "rental_uris": {"ios": "https://dc.lft.to/lastmile_qr_scan", "android": "https://dc.lft.to/lastmile_qr_scan"}, "is_reserved": 0}, {"lon": -77.04504983333334, "bike_id": "a8a5f456c693e86523106200ea8a7934", "lat": 38.913539, "fusion_lon": 0.0, "fusion_lat": 0.0, "type": "electric_scooter", "name": "a8a5f456c693e86523106200ea8a7934", "is_disabled": 0, "rental_uris": {"ios": "https://dc.lft.to/lastmile_qr_scan", "android": "https://dc.lft.to/lastmile_qr_scan"}, "is_reserved": 0}, {"lon": -76.94199933333333, "bike_id": "9a0db328abf943c177160956358d0f19", "lat": 38.893115333333334, "fusion_lon": 0.0, "fusion_lat": 0.0, "type": "electric_bike", "name": "9a0db328abf943c177160956358d0f19", "is_disabled": 0, "rental_uris": {"ios": "https://dc.lft.to/lastmile_qr_scan", "android": "https://dc.lft.to/lastmile_qr_scan"}, "is_reserved": 0}, {"lon": -77.026179, "bike_id": "390374685997787eb74bdab1b860df89", "lat": 38.905607833333335, "fusion_lon": 0.0, "fusion_lat": 0.0, "type": "electric_scooter", "name": "390374685997787eb74bdab1b860df89", "is_disabled": 0, "rental_uris": {"ios": "https://dc.lft.to/lastmile_qr_scan", "android": "https://dc.lft.to/lastmile_qr_scan"}, "is_reserved": 0}, {"lon": -77.03492566666667, "bike_id": "75e0b8f600d891637da42bc7494c997f", "lat": 38.932738, "fusion_lon": 0.0, "fusion_lat": 0.0, "type": "electric_scooter", "name": "75e0b8f600d891637da42bc7494c997f", "is_disabled": 0, "rental_uris": {"ios": "https://dc.lft.to/lastmile_qr_scan", "android": "https://dc.lft.to/lastmile_qr_scan"}, "is_reserved": 0}, {"lon": -76.9733095, "bike_id": "40391f78656a67b1148370755473b5ab", "lat": 38.904090333333336, "fusion_lon": 0.0, "fusion_lat": 0.0, "type": "electric_scooter", "name": "40391f78656a67b1148370755473b5ab", "is_disabled": 0, "rental_uris": {"ios": "https://dc.lft.to/lastmile_qr_scan", "android": "https://dc.lft.to/lastmile_qr_scan"}, "is_reserved": 0}, {"lon": -77.04169966666667, "bike_id": "0a15bb9bca1a3823eea1f5a12fe3c8e1", "lat": 38.9314645, "fusion_lon": 0.0, "fusion_lat": 0.0, "type": "electric_scooter", "name": "0a15bb9bca1a3823eea1f5a12fe3c8e1", "is_disabled": 0, "rental_uris": {"ios": "https://dc.lft.to/lastmile_qr_scan", "android": "https://dc.lft.to/lastmile_qr_scan"}, "is_reserved": 0}, {"lon": -77.03657416666667, "bike_id": "0a03b81e7e6e227b392bead118286427", "lat": 38.912799166666666, "fusion_lon": 0.0, "fusion_lat": 0.0, "type": "electric_scooter", "name": "0a03b81e7e6e227b392bead118286427", "is_disabled": 0, "rental_uris": {"ios": "https://dc.lft.to/lastmile_qr_scan", "android": "https://dc.lft.to/lastmile_qr_scan"}, "is_reserved": 0}, {"lon": -76.98365533333333, "bike_id": "e93fe911f31656b418548e3edb54857d", "lat": 38.861115833333336, "fusion_lon": 0.0, "fusion_lat": 0.0, "type": "electric_scooter", "name": "e93fe911f31656b418548e3edb54857d", "is_disabled": 0, "rental_uris": {"ios": "https://dc.lft.to/lastmile_qr_scan", "android": "https://dc.lft.to/lastmile_qr_scan"}, "is_reserved": 0}, {"lon": -77.0375715, "bike_id": "8b1127cc307c589ef2efccd9f461bb28", "lat": 38.907786333333334, "fusion_lon": 0.0, "fusion_lat": 0.0, "type": "electric_scooter", "name": "8b1127cc307c589ef2efccd9f461bb28", "is_disabled": 0, "rental_uris": {"ios": "https://dc.lft.to/lastmile_qr_scan", "android": "https://dc.lft.to/lastmile_qr_scan"}, "is_reserved": 0}, {"lon": -77.045615, "bike_id": "642791cc80553766e36d3aeeff6ce2b7", "lat": 38.91361716666667, "fusion_lon": 0.0, "fusion_lat": 0.0, "type": "electric_scooter", "name": "642791cc80553766e36d3aeeff6ce2b7", "is_disabled": 0, "rental_uris": {"ios": "https://dc.lft.to/lastmile_qr_scan", "android": "https://dc.lft.to/lastmile_qr_scan"}, "is_reserved": 0}, {"lon": -77.029399, "bike_id": "405808d5e297ca6f79ca61e2d98a9e21", "lat": 38.905106333333336, "fusion_lon": 0.0, "fusion_lat": 0.0, "type": "electric_scooter", "name": "405808d5e297ca6f79ca61e2d98a9e21", "is_disabled": 0, "rental_uris": {"ios": "https://dc.lft.to/lastmile_qr_scan", "android": "https://dc.lft.to/lastmile_qr_scan"}, "is_reserved": 0}, {"lon": -77.03883216666667, "bike_id": "d3cdabd89826c009b84ad9077162b255", "lat": 38.9110785, "fusion_lon": 0.0, "fusion_lat": 0.0, "type": "electric_scooter", "name": "d3cdabd89826c009b84ad9077162b255", "is_disabled": 0, "rental_uris": {"ios": "https://dc.lft.to/lastmile_qr_scan", "android": "https://dc.lft.to/lastmile_qr_scan"}, "is_reserved": 0}, {"lon": -77.02486833333333, "bike_id": "2a001c9cbf376aa763430ca97da06e09", "lat": 38.9309995, "fusion_lon": 0.0, "fusion_lat": 0.0, "type": "electric_scooter", "name": "2a001c9cbf376aa763430ca97da06e09", "is_disabled": 0, "rental_uris": {"ios": "https://dc.lft.to/lastmile_qr_scan", "android": "https://dc.lft.to/lastmile_qr_scan"}, "is_reserved": 0}, {"lon": -77.00806733333333, "bike_id": "6086d76d444c43037107b48cb6ab606d", "lat": 38.916971, "fusion_lon": 0.0, "fusion_lat": 0.0, "type": "electric_scooter", "name": "6086d76d444c43037107b48cb6ab606d", "is_disabled": 0, "rental_uris": {"ios": "https://dc.lft.to/lastmile_qr_scan", "android": "https://dc.lft.to/lastmile_qr_scan"}, "is_reserved": 0}, {"lon": -77.0160795, "bike_id": "56d5bb9bd97501660342e5b5064c3dd6", "lat": 38.91063466666667, "fusion_lon": 0.0, "fusion_lat": 0.0, "type": "electric_scooter", "name": "56d5bb9bd97501660342e5b5064c3dd6", "is_disabled": 0, "rental_uris": {"ios": "https://dc.lft.to/lastmile_qr_scan", "android": "https://dc.lft.to/lastmile_qr_scan"}, "is_reserved": 0}, {"lon": -76.99569183333334, "bike_id": "43a425712a14d02240f6c583bc51d4be", "lat": 38.85181766666667, "fusion_lon": 0.0, "fusion_lat": 0.0, "type": "electric_bike", "name": "43a425712a14d02240f6c583bc51d4be", "is_disabled": 0, "rental_uris": {"ios": "https://dc.lft.to/lastmile_qr_scan", "android": "https://dc.lft.to/lastmile_qr_scan"}, "is_reserved": 0}, {"lon": -76.931741, "bike_id": "fec92684c44c4e2cdeb8785973642f68", "lat": 38.898842, "fusion_lon": 0.0, "fusion_lat": 0.0, "type": "electric_scooter", "name": "fec92684c44c4e2cdeb8785973642f68", "is_disabled": 0, "rental_uris": {"ios": "https://dc.lft.to/lastmile_qr_scan", "android": "https://dc.lft.to/lastmile_qr_scan"}, "is_reserved": 0}, {"lon": -76.93373633333333, "bike_id": "2c0cbc58dce26ed763f6dfd10288e090", "lat": 38.89911133333333, "fusion_lon": 0.0, "fusion_lat": 0.0, "type": "electric_scooter", "name": "2c0cbc58dce26ed763f6dfd10288e090", "is_disabled": 0, "rental_uris": {"ios": "https://dc.lft.to/lastmile_qr_scan", "android": "https://dc.lft.to/lastmile_qr_scan"}, "is_reserved": 0}, {"lon": -76.9973355, "bike_id": "2178de539907a48c82e3007bef3f6b9b", "lat": 38.90032383333333, "fusion_lon": 0.0, "fusion_lat": 0.0, "type": "electric_scooter", "name": "2178de539907a48c82e3007bef3f6b9b", "is_disabled": 0, "rental_uris": {"ios": "https://dc.lft.to/lastmile_qr_scan", "android": "https://dc.lft.to/lastmile_qr_scan"}, "is_reserved": 0}, {"lon": -77.04096766666666, "bike_id": "7cedb56c6434d4ec17af566f4152edec", "lat": 38.9202305, "fusion_lon": 0.0, "fusion_lat": 0.0, "type": "electric_scooter", "name": "7cedb56c6434d4ec17af566f4152edec", "is_disabled": 0, "rental_uris": {"ios": "https://dc.lft.to/lastmile_qr_scan", "android": "https://dc.lft.to/lastmile_qr_scan"}, "is_reserved": 0}, {"lon": -76.95196666666666, "bike_id": "051220e70fd1577de827674d6c1ff3df", "lat": 38.90003333333333, "fusion_lon": 0.0, "fusion_lat": 0.0, "type": "electric_scooter", "name": "051220e70fd1577de827674d6c1ff3df", "is_disabled": 0, "rental_uris": {"ios": "https://dc.lft.to/lastmile_qr_scan", "android": "https://dc.lft.to/lastmile_qr_scan"}, "is_reserved": 0}, {"lon": -77.01579766666667, "bike_id": "7c0bec9fceae4580c338df46e819920f", "lat": 38.894687, "fusion_lon": 0.0, "fusion_lat": 0.0, "type": "electric_scooter", "name": "7c0bec9fceae4580c338df46e819920f", "is_disabled": 0, "rental_uris": {"ios": "https://dc.lft.to/lastmile_qr_scan", "android": "https://dc.lft.to/lastmile_qr_scan"}, "is_reserved": 0}, {"lon": -76.99612866666666, "bike_id": "62d8de3da5a1d43efb02efd2eb2e5ea1", "lat": 38.883177, "fusion_lon": 0.0, "fusion_lat": 0.0, "type": "electric_scooter", "name": "62d8de3da5a1d43efb02efd2eb2e5ea1", "is_disabled": 0, "rental_uris": {"ios": "https://dc.lft.to/lastmile_qr_scan", "android": "https://dc.lft.to/lastmile_qr_scan"}, "is_reserved": 0}, {"lon": -76.9974095, "bike_id": "c5242763f50967264b78b9cb6bbd9dfb", "lat": 38.909638666666666, "fusion_lon": 0.0, "fusion_lat": 0.0, "type": "electric_scooter", "name": "c5242763f50967264b78b9cb6bbd9dfb", "is_disabled": 0, "rental_uris": {"ios": "https://dc.lft.to/lastmile_qr_scan", "android": "https://dc.lft.to/lastmile_qr_scan"}, "is_reserved": 0}, {"lon": -77.04498966666667, "bike_id": "f0bded9526b6536df3927222ff34737e", "lat": 38.919377833333336, "fusion_lon": 0.0, "fusion_lat": 0.0, "type": "electric_scooter", "name": "f0bded9526b6536df3927222ff34737e", "is_disabled": 0, "rental_uris": {"ios": "https://dc.lft.to/lastmile_qr_scan", "android": "https://dc.lft.to/lastmile_qr_scan"}, "is_reserved": 0}, {"lon": -77.04451466666667, "bike_id": "7d9c3439b719624370785b498d93a8d4", "lat": 38.9193895, "fusion_lon": 0.0, "fusion_lat": 0.0, "type": "electric_scooter", "name": "7d9c3439b719624370785b498d93a8d4", "is_disabled": 0, "rental_uris": {"ios": "https://dc.lft.to/lastmile_qr_scan", "android": "https://dc.lft.to/lastmile_qr_scan"}, "is_reserved": 0}, {"lon": -77.03348466666667, "bike_id": "d3daacea5283a432c3ee8637ba022af4", "lat": 38.94713766666667, "fusion_lon": 0.0, "fusion_lat": 0.0, "type": "electric_scooter", "name": "d3daacea5283a432c3ee8637ba022af4", "is_disabled": 0, "rental_uris": {"ios": "https://dc.lft.to/lastmile_qr_scan", "android": "https://dc.lft.to/lastmile_qr_scan"}, "is_reserved": 0}, {"lon": -77.11160366666667, "bike_id": "4a8c27855c54898d9ee775938ce71fc4", "lat": 38.85507033333333, "fusion_lon": 0.0, "fusion_lat": 0.0, "type": "electric_bike", "name": "4a8c27855c54898d9ee775938ce71fc4", "is_disabled": 0, "rental_uris": {"ios": "https://dc.lft.to/lastmile_qr_scan", "android": "https://dc.lft.to/lastmile_qr_scan"}, "is_reserved": 0}, {"lon": -77.05159583333334, "bike_id": "696bacc0aecdef45125cbd273cdebb04", "lat": 39.04306066666667, "fusion_lon": 0.0, "fusion_lat": 0.0, "type": "electric_bike", "name": "696bacc0aecdef45125cbd273cdebb04", "is_disabled": 0, "rental_uris": {"ios": "https://dc.lft.to/lastmile_qr_scan", "android": "https://dc.lft.to/lastmile_qr_scan"}, "is_reserved": 0}, {"lon": -77.10490116666666, "bike_id": "480301dcaf3f3113a0261c606ed60acc", "lat": 38.856071666666665, "fusion_lon": 0.0, "fusion_lat": 0.0, "type": "electric_bike", "name": "480301dcaf3f3113a0261c606ed60acc", "is_disabled": 0, "rental_uris": {"ios": "https://dc.lft.to/lastmile_qr_scan", "android": "https://dc.lft.to/lastmile_qr_scan"}, "is_reserved": 0}, {"lon": -77.03177216666667, "bike_id": "0db136e40be0c8f1d3bf817caffe4eca", "lat": 38.93695, "fusion_lon": 0.0, "fusion_lat": 0.0, "type": "electric_scooter", "name": "0db136e40be0c8f1d3bf817caffe4eca", "is_disabled": 0, "rental_uris": {"ios": "https://dc.lft.to/lastmile_qr_scan", "android": "https://dc.lft.to/lastmile_qr_scan"}, "is_reserved": 0}, {"lon": -76.97284433333333, "bike_id": "43161fd697ad8f646ae96b7d97d621ab", "lat": 38.865604833333336, "fusion_lon": 0.0, "fusion_lat": 0.0, "type": "electric_scooter", "name": "43161fd697ad8f646ae96b7d97d621ab", "is_disabled": 0, "rental_uris": {"ios": "https://dc.lft.to/lastmile_qr_scan", "android": "https://dc.lft.to/lastmile_qr_scan"}, "is_reserved": 0}, {"lon": -77.033563, "bike_id": "0d191355bd0e23c987b4c5f100b4cd5d", "lat": 38.907312833333336, "fusion_lon": 0.0, "fusion_lat": 0.0, "type": "electric_scooter", "name": "0d191355bd0e23c987b4c5f100b4cd5d", "is_disabled": 0, "rental_uris": {"ios": "https://dc.lft.to/lastmile_qr_scan", "android": "https://dc.lft.to/lastmile_qr_scan"}, "is_reserved": 0}, {"lon": -77.018732, "bike_id": "73ad739a18a3e0f0bb44901f25060ccc", "lat": 38.91822766666667, "fusion_lon": 0.0, "fusion_lat": 0.0, "type": "electric_scooter", "name": "73ad739a18a3e0f0bb44901f25060ccc", "is_disabled": 0, "rental_uris": {"ios": "https://dc.lft.to/lastmile_qr_scan", "android": "https://dc.lft.to/lastmile_qr_scan"}, "is_reserved": 0}, {"lon": -77.025714, "bike_id": "6ae6009927a7b59b38f469a6433d7f82", "lat": 38.93097266666667, "fusion_lon": 0.0, "fusion_lat": 0.0, "type": "electric_scooter", "name": "6ae6009927a7b59b38f469a6433d7f82", "is_disabled": 0, "rental_uris": {"ios": "https://dc.lft.to/lastmile_qr_scan", "android": "https://dc.lft.to/lastmile_qr_scan"}, "is_reserved": 0}, {"lon": -76.93010716666667, "bike_id": "be1af144aeab16f7b6c5077c90d0d858", "lat": 38.8919155, "fusion_lon": 0.0, "fusion_lat": 0.0, "type": "electric_scooter", "name": "be1af144aeab16f7b6c5077c90d0d858", "is_disabled": 0, "rental_uris": {"ios": "https://dc.lft.to/lastmile_qr_scan", "android": "https://dc.lft.to/lastmile_qr_scan"}, "is_reserved": 0}, {"lon": -77.05697766666667, "bike_id": "3fe283475306447a14260e4167a62b30", "lat": 38.93713, "fusion_lon": 0.0, "fusion_lat": 0.0, "type": "electric_scooter", "name": "3fe283475306447a14260e4167a62b30", "is_disabled": 0, "rental_uris": {"ios": "https://dc.lft.to/lastmile_qr_scan", "android": "https://dc.lft.to/lastmile_qr_scan"}, "is_reserved": 0}, {"lon": -77.05513433333333, "bike_id": "ef15bdf4bb550562b997d8a92c48267e", "lat": 38.8996255, "fusion_lon": 0.0, "fusion_lat": 0.0, "type": "electric_scooter", "name": "ef15bdf4bb550562b997d8a92c48267e", "is_disabled": 0, "rental_uris": {"ios": "https://dc.lft.to/lastmile_qr_scan", "android": "https://dc.lft.to/lastmile_qr_scan"}, "is_reserved": 0}, {"lon": -77.02689916666667, "bike_id": "2f0687783cb7272d0cb7b3d1b9c94111", "lat": 38.8971935, "fusion_lon": 0.0, "fusion_lat": 0.0, "type": "electric_scooter", "name": "2f0687783cb7272d0cb7b3d1b9c94111", "is_disabled": 0, "rental_uris": {"ios": "https://dc.lft.to/lastmile_qr_scan", "android": "https://dc.lft.to/lastmile_qr_scan"}, "is_reserved": 0}, {"lon": -77.00623616666667, "bike_id": "0a6a6bd64703ad1e976dd0e183a33fa4", "lat": 38.912583166666664, "fusion_lon": 0.0, "fusion_lat": 0.0, "type": "electric_scooter", "name": "0a6a6bd64703ad1e976dd0e183a33fa4", "is_disabled": 0, "rental_uris": {"ios": "https://dc.lft.to/lastmile_qr_scan", "android": "https://dc.lft.to/lastmile_qr_scan"}, "is_reserved": 0}, {"lon": -76.98231133333333, "bike_id": "ab6132c29639f7de9244d58544fde619", "lat": 38.88645433333333, "fusion_lon": 0.0, "fusion_lat": 0.0, "type": "electric_scooter", "name": "ab6132c29639f7de9244d58544fde619", "is_disabled": 0, "rental_uris": {"ios": "https://dc.lft.to/lastmile_qr_scan", "android": "https://dc.lft.to/lastmile_qr_scan"}, "is_reserved": 0}, {"lon": -77.0572065, "bike_id": "bec6ca96207ac577c4b05a2468c41c36", "lat": 38.933724, "fusion_lon": 0.0, "fusion_lat": 0.0, "type": "electric_scooter", "name": "bec6ca96207ac577c4b05a2468c41c36", "is_disabled": 0, "rental_uris": {"ios": "https://dc.lft.to/lastmile_qr_scan", "android": "https://dc.lft.to/lastmile_qr_scan"}, "is_reserved": 0}, {"lon": -76.982313, "bike_id": "8296f4a68e4c53388963e7b918df4331", "lat": 38.91650816666667, "fusion_lon": 0.0, "fusion_lat": 0.0, "type": "electric_scooter", "name": "8296f4a68e4c53388963e7b918df4331", "is_disabled": 0, "rental_uris": {"ios": "https://dc.lft.to/lastmile_qr_scan", "android": "https://dc.lft.to/lastmile_qr_scan"}, "is_reserved": 0}, {"lon": -77.05297633333333, "bike_id": "410c81f8e8c930d6a6bce81defa1e349", "lat": 38.92548166666667, "fusion_lon": 0.0, "fusion_lat": 0.0, "type": "electric_scooter", "name": "410c81f8e8c930d6a6bce81defa1e349", "is_disabled": 0, "rental_uris": {"ios": "https://dc.lft.to/lastmile_qr_scan", "android": "https://dc.lft.to/lastmile_qr_scan"}, "is_reserved": 0}, {"lon": -77.04407266666666, "bike_id": "4463f50e29818b6a2c281e8e18472880", "lat": 38.9213275, "fusion_lon": 0.0, "fusion_lat": 0.0, "type": "electric_scooter", "name": "4463f50e29818b6a2c281e8e18472880", "is_disabled": 0, "rental_uris": {"ios": "https://dc.lft.to/lastmile_qr_scan", "android": "https://dc.lft.to/lastmile_qr_scan"}, "is_reserved": 0}, {"lon": -76.99528683333334, "bike_id": "0bc7efcf5666c2246ac94cc4ae2b9a18", "lat": 38.88375383333333, "fusion_lon": 0.0, "fusion_lat": 0.0, "type": "electric_scooter", "name": "0bc7efcf5666c2246ac94cc4ae2b9a18", "is_disabled": 0, "rental_uris": {"ios": "https://dc.lft.to/lastmile_qr_scan", "android": "https://dc.lft.to/lastmile_qr_scan"}, "is_reserved": 0}, {"lon": -76.995119, "bike_id": "091ef12555a482823d96ca4db6c1e0b2", "lat": 38.877778666666664, "fusion_lon": 0.0, "fusion_lat": 0.0, "type": "electric_scooter", "name": "091ef12555a482823d96ca4db6c1e0b2", "is_disabled": 0, "rental_uris": {"ios": "https://dc.lft.to/lastmile_qr_scan", "android": "https://dc.lft.to/lastmile_qr_scan"}, "is_reserved": 0}, {"lon": -77.030921, "bike_id": "3e0b589beaf845b1729f33e3e9f2f238", "lat": 38.928606333333335, "fusion_lon": 0.0, "fusion_lat": 0.0, "type": "electric_scooter", "name": "3e0b589beaf845b1729f33e3e9f2f238", "is_disabled": 0, "rental_uris": {"ios": "https://dc.lft.to/lastmile_qr_scan", "android": "https://dc.lft.to/lastmile_qr_scan"}, "is_reserved": 0}, {"lon": -77.00058333333334, "bike_id": "277c18f7fda4fc57f5db1a427b16c25c", "lat": 38.894982166666665, "fusion_lon": 0.0, "fusion_lat": 0.0, "type": "electric_scooter", "name": "277c18f7fda4fc57f5db1a427b16c25c", "is_disabled": 0, "rental_uris": {"ios": "https://dc.lft.to/lastmile_qr_scan", "android": "https://dc.lft.to/lastmile_qr_scan"}, "is_reserved": 0}, {"lon": -77.03757216666666, "bike_id": "064d219cef96aa395290cef4b0b32dbd", "lat": 38.907826666666665, "fusion_lon": 0.0, "fusion_lat": 0.0, "type": "electric_scooter", "name": "064d219cef96aa395290cef4b0b32dbd", "is_disabled": 0, "rental_uris": {"ios": "https://dc.lft.to/lastmile_qr_scan", "android": "https://dc.lft.to/lastmile_qr_scan"}, "is_reserved": 0}, {"lon": -77.012104, "bike_id": "e2f0f254d7192dd45e6f49ec8bdeeb12", "lat": 38.921169, "fusion_lon": 0.0, "fusion_lat": 0.0, "type": "electric_scooter", "name": "e2f0f254d7192dd45e6f49ec8bdeeb12", "is_disabled": 0, "rental_uris": {"ios": "https://dc.lft.to/lastmile_qr_scan", "android": "https://dc.lft.to/lastmile_qr_scan"}, "is_reserved": 0}, {"lon": -77.00071916666667, "bike_id": "61c7f404fe4e83500e926dd9cb958f12", "lat": 38.874123833333336, "fusion_lon": 0.0, "fusion_lat": 0.0, "type": "electric_scooter", "name": "61c7f404fe4e83500e926dd9cb958f12", "is_disabled": 0, "rental_uris": {"ios": "https://dc.lft.to/lastmile_qr_scan", "android": "https://dc.lft.to/lastmile_qr_scan"}, "is_reserved": 0}, {"lon": -76.9653545, "bike_id": "3527fe0a9f77d749a955e66ec4e70bb4", "lat": 38.874793833333335, "fusion_lon": 0.0, "fusion_lat": 0.0, "type": "electric_scooter", "name": "3527fe0a9f77d749a955e66ec4e70bb4", "is_disabled": 0, "rental_uris": {"ios": "https://dc.lft.to/lastmile_qr_scan", "android": "https://dc.lft.to/lastmile_qr_scan"}, "is_reserved": 0}, {"lon": -77.02563583333334, "bike_id": "639dfbcb60896119b04e0585fd38885a", "lat": 38.93349333333333, "fusion_lon": 0.0, "fusion_lat": 0.0, "type": "electric_scooter", "name": "639dfbcb60896119b04e0585fd38885a", "is_disabled": 0, "rental_uris": {"ios": "https://dc.lft.to/lastmile_qr_scan", "android": "https://dc.lft.to/lastmile_qr_scan"}, "is_reserved": 0}, {"lon": -77.0211825, "bike_id": "dfdc70963488b233c4bbb6fbaacb5076", "lat": 38.93700066666667, "fusion_lon": 0.0, "fusion_lat": 0.0, "type": "electric_scooter", "name": "dfdc70963488b233c4bbb6fbaacb5076", "is_disabled": 0, "rental_uris": {"ios": "https://dc.lft.to/lastmile_qr_scan", "android": "https://dc.lft.to/lastmile_qr_scan"}, "is_reserved": 0}, {"lon": -77.04017566666667, "bike_id": "eb71651768a7fd919549704a301bd68d", "lat": 38.9238845, "fusion_lon": 0.0, "fusion_lat": 0.0, "type": "electric_scooter", "name": "eb71651768a7fd919549704a301bd68d", "is_disabled": 0, "rental_uris": {"ios": "https://dc.lft.to/lastmile_qr_scan", "android": "https://dc.lft.to/lastmile_qr_scan"}, "is_reserved": 0}, {"lon": -77.02171533333333, "bike_id": "17e312accd44c015c24289ba92b935f5", "lat": 38.942927166666664, "fusion_lon": 0.0, "fusion_lat": 0.0, "type": "electric_scooter", "name": "17e312accd44c015c24289ba92b935f5", "is_disabled": 0, "rental_uris": {"ios": "https://dc.lft.to/lastmile_qr_scan", "android": "https://dc.lft.to/lastmile_qr_scan"}, "is_reserved": 0}, {"lon": -76.94634483333333, "bike_id": "6e6b33a74d521eaedef2ae2dffc1f6cc", "lat": 38.898317166666665, "fusion_lon": 0.0, "fusion_lat": 0.0, "type": "electric_scooter", "name": "6e6b33a74d521eaedef2ae2dffc1f6cc", "is_disabled": 0, "rental_uris": {"ios": "https://dc.lft.to/lastmile_qr_scan", "android": "https://dc.lft.to/lastmile_qr_scan"}, "is_reserved": 0}, {"lon": -76.99198733333333, "bike_id": "56d7f5fd26bff135ca1e9b5194aadc4c", "lat": 38.89825666666667, "fusion_lon": 0.0, "fusion_lat": 0.0, "type": "electric_scooter", "name": "56d7f5fd26bff135ca1e9b5194aadc4c", "is_disabled": 0, "rental_uris": {"ios": "https://dc.lft.to/lastmile_qr_scan", "android": "https://dc.lft.to/lastmile_qr_scan"}, "is_reserved": 0}, {"lon": -77.022444, "bike_id": "9add3c30365d4cec057feefaa4eed477", "lat": 38.928975, "fusion_lon": 0.0, "fusion_lat": 0.0, "type": "electric_scooter", "name": "9add3c30365d4cec057feefaa4eed477", "is_disabled": 0, "rental_uris": {"ios": "https://dc.lft.to/lastmile_qr_scan", "android": "https://dc.lft.to/lastmile_qr_scan"}, "is_reserved": 0}, {"lon": -76.9761795, "bike_id": "02f5c6b33cb48fe62047741bd6437257", "lat": 38.9265425, "fusion_lon": 0.0, "fusion_lat": 0.0, "type": "electric_scooter", "name": "02f5c6b33cb48fe62047741bd6437257", "is_disabled": 0, "rental_uris": {"ios": "https://dc.lft.to/lastmile_qr_scan", "android": "https://dc.lft.to/lastmile_qr_scan"}, "is_reserved": 0}, {"lon": -77.02146983333333, "bike_id": "1d68890f33c3e54b80d867c5a16c88bb", "lat": 38.895013, "fusion_lon": 0.0, "fusion_lat": 0.0, "type": "electric_scooter", "name": "1d68890f33c3e54b80d867c5a16c88bb", "is_disabled": 0, "rental_uris": {"ios": "https://dc.lft.to/lastmile_qr_scan", "android": "https://dc.lft.to/lastmile_qr_scan"}, "is_reserved": 0}, {"lon": -77.0730115, "bike_id": "99f6cf4dccd128ac62bd145db90395ff", "lat": 38.930572, "fusion_lon": 0.0, "fusion_lat": 0.0, "type": "electric_scooter", "name": "99f6cf4dccd128ac62bd145db90395ff", "is_disabled": 0, "rental_uris": {"ios": "https://dc.lft.to/lastmile_qr_scan", "android": "https://dc.lft.to/lastmile_qr_scan"}, "is_reserved": 0}, {"lon": -77.02048533333334, "bike_id": "836b8605e4c2685d48d2f3c56498a3e0", "lat": 38.923847, "fusion_lon": 0.0, "fusion_lat": 0.0, "type": "electric_scooter", "name": "836b8605e4c2685d48d2f3c56498a3e0", "is_disabled": 0, "rental_uris": {"ios": "https://dc.lft.to/lastmile_qr_scan", "android": "https://dc.lft.to/lastmile_qr_scan"}, "is_reserved": 0}, {"lon": -77.00969666666667, "bike_id": "a80bd092dc9a496a438e5dfefefa1351", "lat": 38.90783966666667, "fusion_lon": 0.0, "fusion_lat": 0.0, "type": "electric_scooter", "name": "a80bd092dc9a496a438e5dfefefa1351", "is_disabled": 0, "rental_uris": {"ios": "https://dc.lft.to/lastmile_qr_scan", "android": "https://dc.lft.to/lastmile_qr_scan"}, "is_reserved": 0}, {"lon": -76.99460816666667, "bike_id": "e74e17199127101034d7f7cc41e3c234", "lat": 38.94067966666667, "fusion_lon": 0.0, "fusion_lat": 0.0, "type": "electric_scooter", "name": "e74e17199127101034d7f7cc41e3c234", "is_disabled": 0, "rental_uris": {"ios": "https://dc.lft.to/lastmile_qr_scan", "android": "https://dc.lft.to/lastmile_qr_scan"}, "is_reserved": 0}, {"lon": -77.079321, "bike_id": "ecc715ebbdc97359ce2bf32937ea0dbe", "lat": 38.93084316666667, "fusion_lon": 0.0, "fusion_lat": 0.0, "type": "electric_scooter", "name": "ecc715ebbdc97359ce2bf32937ea0dbe", "is_disabled": 0, "rental_uris": {"ios": "https://dc.lft.to/lastmile_qr_scan", "android": "https://dc.lft.to/lastmile_qr_scan"}, "is_reserved": 0}, {"lon": -77.051716, "bike_id": "07e1d0ef234c5ceb8751b034a409209b", "lat": 38.92344416666667, "fusion_lon": 0.0, "fusion_lat": 0.0, "type": "electric_scooter", "name": "07e1d0ef234c5ceb8751b034a409209b", "is_disabled": 0, "rental_uris": {"ios": "https://dc.lft.to/lastmile_qr_scan", "android": "https://dc.lft.to/lastmile_qr_scan"}, "is_reserved": 0}, {"lon": -77.04202133333334, "bike_id": "5f644362ff7faaaa6a72e36953f446e5", "lat": 38.920998166666664, "fusion_lon": 0.0, "fusion_lat": 0.0, "type": "electric_scooter", "name": "5f644362ff7faaaa6a72e36953f446e5", "is_disabled": 0, "rental_uris": {"ios": "https://dc.lft.to/lastmile_qr_scan", "android": "https://dc.lft.to/lastmile_qr_scan"}, "is_reserved": 0}, {"lon": -77.05132816666666, "bike_id": "282083674996b7c83a62f7dacc3fe64b", "lat": 38.90495, "fusion_lon": 0.0, "fusion_lat": 0.0, "type": "electric_scooter", "name": "282083674996b7c83a62f7dacc3fe64b", "is_disabled": 0, "rental_uris": {"ios": "https://dc.lft.to/lastmile_qr_scan", "android": "https://dc.lft.to/lastmile_qr_scan"}, "is_reserved": 0}, {"lon": -77.07121916666667, "bike_id": "dc8d4a59de59803a0268bcf3274aa940", "lat": 38.919641166666665, "fusion_lon": 0.0, "fusion_lat": 0.0, "type": "electric_scooter", "name": "dc8d4a59de59803a0268bcf3274aa940", "is_disabled": 0, "rental_uris": {"ios": "https://dc.lft.to/lastmile_qr_scan", "android": "https://dc.lft.to/lastmile_qr_scan"}, "is_reserved": 0}, {"lon": -77.01798566666666, "bike_id": "61f324dd2114334e7a52afc8a2c56ade", "lat": 38.9040325, "fusion_lon": 0.0, "fusion_lat": 0.0, "type": "electric_scooter", "name": "61f324dd2114334e7a52afc8a2c56ade", "is_disabled": 0, "rental_uris": {"ios": "https://dc.lft.to/lastmile_qr_scan", "android": "https://dc.lft.to/lastmile_qr_scan"}, "is_reserved": 0}, {"lon": -76.988029, "bike_id": "3c74350883be62ef0ffb1a8fa1e3a001", "lat": 38.86722, "fusion_lon": 0.0, "fusion_lat": 0.0, "type": "electric_scooter", "name": "3c74350883be62ef0ffb1a8fa1e3a001", "is_disabled": 0, "rental_uris": {"ios": "https://dc.lft.to/lastmile_qr_scan", "android": "https://dc.lft.to/lastmile_qr_scan"}, "is_reserved": 0}, {"lon": -76.985576, "bike_id": "dec8cd649db15b808e98ab92ecf99e8d", "lat": 38.899522833333336, "fusion_lon": 0.0, "fusion_lat": 0.0, "type": "electric_scooter", "name": "dec8cd649db15b808e98ab92ecf99e8d", "is_disabled": 0, "rental_uris": {"ios": "https://dc.lft.to/lastmile_qr_scan", "android": "https://dc.lft.to/lastmile_qr_scan"}, "is_reserved": 0}, {"lon": -77.02450683333333, "bike_id": "9dbe49ad54ca77f917cfec65e5292b39", "lat": 38.92498466666667, "fusion_lon": 0.0, "fusion_lat": 0.0, "type": "electric_scooter", "name": "9dbe49ad54ca77f917cfec65e5292b39", "is_disabled": 0, "rental_uris": {"ios": "https://dc.lft.to/lastmile_qr_scan", "android": "https://dc.lft.to/lastmile_qr_scan"}, "is_reserved": 0}, {"lon": -76.97671133333333, "bike_id": "74094ac1a17977f332299a5cd47da784", "lat": 38.9524705, "fusion_lon": 0.0, "fusion_lat": 0.0, "type": "electric_bike", "name": "74094ac1a17977f332299a5cd47da784", "is_disabled": 0, "rental_uris": {"ios": "https://dc.lft.to/lastmile_qr_scan", "android": "https://dc.lft.to/lastmile_qr_scan"}, "is_reserved": 0}, {"lon": -77.02415633333334, "bike_id": "38ef511ed6834c42f33f828d6ac10493", "lat": 38.892273333333335, "fusion_lon": 0.0, "fusion_lat": 0.0, "type": "electric_scooter", "name": "38ef511ed6834c42f33f828d6ac10493", "is_disabled": 0, "rental_uris": {"ios": "https://dc.lft.to/lastmile_qr_scan", "android": "https://dc.lft.to/lastmile_qr_scan"}, "is_reserved": 0}, {"lon": -76.98154266666667, "bike_id": "514c79a064edf718580541a1cfa2edc2", "lat": 38.90321933333333, "fusion_lon": 0.0, "fusion_lat": 0.0, "type": "electric_scooter", "name": "514c79a064edf718580541a1cfa2edc2", "is_disabled": 0, "rental_uris": {"ios": "https://dc.lft.to/lastmile_qr_scan", "android": "https://dc.lft.to/lastmile_qr_scan"}, "is_reserved": 0}, {"lon": -77.0200295, "bike_id": "03ec4cf52c51cef252125f5b7af311cc", "lat": 38.91365183333333, "fusion_lon": 0.0, "fusion_lat": 0.0, "type": "electric_scooter", "name": "03ec4cf52c51cef252125f5b7af311cc", "is_disabled": 0, "rental_uris": {"ios": "https://dc.lft.to/lastmile_qr_scan", "android": "https://dc.lft.to/lastmile_qr_scan"}, "is_reserved": 0}, {"lon": -77.036909, "bike_id": "440fbfea5acf13347df50db051e83198", "lat": 38.91266516666666, "fusion_lon": 0.0, "fusion_lat": 0.0, "type": "electric_scooter", "name": "440fbfea5acf13347df50db051e83198", "is_disabled": 0, "rental_uris": {"ios": "https://dc.lft.to/lastmile_qr_scan", "android": "https://dc.lft.to/lastmile_qr_scan"}, "is_reserved": 0}, {"lon": -77.01013083333333, "bike_id": "34c1cff584ec1353d3908a9051f92996", "lat": 38.86721516666667, "fusion_lon": 0.0, "fusion_lat": 0.0, "type": "electric_scooter", "name": "34c1cff584ec1353d3908a9051f92996", "is_disabled": 0, "rental_uris": {"ios": "https://dc.lft.to/lastmile_qr_scan", "android": "https://dc.lft.to/lastmile_qr_scan"}, "is_reserved": 0}, {"lon": -77.021933, "bike_id": "b0bcb1b9c014d8f7da25d6127e3e4547", "lat": 38.90986183333333, "fusion_lon": 0.0, "fusion_lat": 0.0, "type": "electric_scooter", "name": "b0bcb1b9c014d8f7da25d6127e3e4547", "is_disabled": 0, "rental_uris": {"ios": "https://dc.lft.to/lastmile_qr_scan", "android": "https://dc.lft.to/lastmile_qr_scan"}, "is_reserved": 0}, {"lon": -77.01157916666666, "bike_id": "7257153d8f32c5a46145c827f0f58637", "lat": 38.914025, "fusion_lon": 0.0, "fusion_lat": 0.0, "type": "electric_scooter", "name": "7257153d8f32c5a46145c827f0f58637", "is_disabled": 0, "rental_uris": {"ios": "https://dc.lft.to/lastmile_qr_scan", "android": "https://dc.lft.to/lastmile_qr_scan"}, "is_reserved": 0}, {"lon": -77.01742533333334, "bike_id": "aa8d8423e9838209d16b1e927c0d26b9", "lat": 38.902414, "fusion_lon": 0.0, "fusion_lat": 0.0, "type": "electric_scooter", "name": "aa8d8423e9838209d16b1e927c0d26b9", "is_disabled": 0, "rental_uris": {"ios": "https://dc.lft.to/lastmile_qr_scan", "android": "https://dc.lft.to/lastmile_qr_scan"}, "is_reserved": 0}, {"lon": -76.97536366666667, "bike_id": "25bcb6f1888829e53efc7625a7eed6dd", "lat": 38.903281166666666, "fusion_lon": 0.0, "fusion_lat": 0.0, "type": "electric_bike", "name": "25bcb6f1888829e53efc7625a7eed6dd", "is_disabled": 0, "rental_uris": {"ios": "https://dc.lft.to/lastmile_qr_scan", "android": "https://dc.lft.to/lastmile_qr_scan"}, "is_reserved": 0}, {"lon": -77.02019666666666, "bike_id": "977b51eeb73a8b989b379de015021504", "lat": 38.8991995, "fusion_lon": 0.0, "fusion_lat": 0.0, "type": "electric_scooter", "name": "977b51eeb73a8b989b379de015021504", "is_disabled": 0, "rental_uris": {"ios": "https://dc.lft.to/lastmile_qr_scan", "android": "https://dc.lft.to/lastmile_qr_scan"}, "is_reserved": 0}, {"lon": -77.05863883333333, "bike_id": "37f3235e4c8b074b4ab56d1431fcb0a2", "lat": 38.936128, "fusion_lon": 0.0, "fusion_lat": 0.0, "type": "electric_scooter", "name": "37f3235e4c8b074b4ab56d1431fcb0a2", "is_disabled": 0, "rental_uris": {"ios": "https://dc.lft.to/lastmile_qr_scan", "android": "https://dc.lft.to/lastmile_qr_scan"}, "is_reserved": 0}, {"lon": -77.0551285, "bike_id": "0cc82f5bb25f2a9c2007fff989e56796", "lat": 38.89975833333333, "fusion_lon": 0.0, "fusion_lat": 0.0, "type": "electric_scooter", "name": "0cc82f5bb25f2a9c2007fff989e56796", "is_disabled": 0, "rental_uris": {"ios": "https://dc.lft.to/lastmile_qr_scan", "android": "https://dc.lft.to/lastmile_qr_scan"}, "is_reserved": 0}, {"lon": -77.04239966666667, "bike_id": "4d9aa631ed60f1999bf1a77d9fa1fcb1", "lat": 38.914850333333334, "fusion_lon": 0.0, "fusion_lat": 0.0, "type": "electric_scooter", "name": "4d9aa631ed60f1999bf1a77d9fa1fcb1", "is_disabled": 0, "rental_uris": {"ios": "https://dc.lft.to/lastmile_qr_scan", "android": "https://dc.lft.to/lastmile_qr_scan"}, "is_reserved": 0}, {"lon": -77.0275835, "bike_id": "2912b207b3d1bf3e1326de7b969f2f6a", "lat": 38.9440275, "fusion_lon": 0.0, "fusion_lat": 0.0, "type": "electric_scooter", "name": "2912b207b3d1bf3e1326de7b969f2f6a", "is_disabled": 0, "rental_uris": {"ios": "https://dc.lft.to/lastmile_qr_scan", "android": "https://dc.lft.to/lastmile_qr_scan"}, "is_reserved": 0}, {"lon": -77.02135733333333, "bike_id": "fe9f4446593e015d1c5ab85aa0f205b2", "lat": 38.90081933333333, "fusion_lon": 0.0, "fusion_lat": 0.0, "type": "electric_scooter", "name": "fe9f4446593e015d1c5ab85aa0f205b2", "is_disabled": 0, "rental_uris": {"ios": "https://dc.lft.to/lastmile_qr_scan", "android": "https://dc.lft.to/lastmile_qr_scan"}, "is_reserved": 0}, {"lon": -77.03322116666666, "bike_id": "52b29340731a30039d17949679e7fccb", "lat": 38.915577, "fusion_lon": 0.0, "fusion_lat": 0.0, "type": "electric_scooter", "name": "52b29340731a30039d17949679e7fccb", "is_disabled": 0, "rental_uris": {"ios": "https://dc.lft.to/lastmile_qr_scan", "android": "https://dc.lft.to/lastmile_qr_scan"}, "is_reserved": 0}, {"lon": -77.030713, "bike_id": "5a810cfd9602933ffc70f30542bf4d61", "lat": 38.90274333333333, "fusion_lon": 0.0, "fusion_lat": 0.0, "type": "electric_scooter", "name": "5a810cfd9602933ffc70f30542bf4d61", "is_disabled": 0, "rental_uris": {"ios": "https://dc.lft.to/lastmile_qr_scan", "android": "https://dc.lft.to/lastmile_qr_scan"}, "is_reserved": 0}, {"lon": -76.9994695, "bike_id": "6a0d4c8724873216f288376902f972c8", "lat": 38.9062265, "fusion_lon": 0.0, "fusion_lat": 0.0, "type": "electric_scooter", "name": "6a0d4c8724873216f288376902f972c8", "is_disabled": 0, "rental_uris": {"ios": "https://dc.lft.to/lastmile_qr_scan", "android": "https://dc.lft.to/lastmile_qr_scan"}, "is_reserved": 0}, {"lon": -77.01233083333334, "bike_id": "3b5a56d39d0f179adf87e65245bb7f11", "lat": 38.89295833333333, "fusion_lon": 0.0, "fusion_lat": 0.0, "type": "electric_scooter", "name": "3b5a56d39d0f179adf87e65245bb7f11", "is_disabled": 0, "rental_uris": {"ios": "https://dc.lft.to/lastmile_qr_scan", "android": "https://dc.lft.to/lastmile_qr_scan"}, "is_reserved": 0}, {"lon": -77.02438, "bike_id": "f09b23202e985875357fb6a1de03d5a9", "lat": 38.926566333333334, "fusion_lon": 0.0, "fusion_lat": 0.0, "type": "electric_scooter", "name": "f09b23202e985875357fb6a1de03d5a9", "is_disabled": 0, "rental_uris": {"ios": "https://dc.lft.to/lastmile_qr_scan", "android": "https://dc.lft.to/lastmile_qr_scan"}, "is_reserved": 0}, {"lon": -77.0358285, "bike_id": "42232dd91969d7f4a68c2d55ec43aa31", "lat": 38.91762933333333, "fusion_lon": 0.0, "fusion_lat": 0.0, "type": "electric_scooter", "name": "42232dd91969d7f4a68c2d55ec43aa31", "is_disabled": 0, "rental_uris": {"ios": "https://dc.lft.to/lastmile_qr_scan", "android": "https://dc.lft.to/lastmile_qr_scan"}, "is_reserved": 0}, {"lon": -77.03182266666667, "bike_id": "1b9b10cbcc2c81a2b55516239ffdace8", "lat": 38.892303166666665, "fusion_lon": 0.0, "fusion_lat": 0.0, "type": "electric_scooter", "name": "1b9b10cbcc2c81a2b55516239ffdace8", "is_disabled": 0, "rental_uris": {"ios": "https://dc.lft.to/lastmile_qr_scan", "android": "https://dc.lft.to/lastmile_qr_scan"}, "is_reserved": 0}, {"lon": -77.0157985, "bike_id": "573ed2ed4b4d0a25cf109079fbee096f", "lat": 38.965666166666665, "fusion_lon": 0.0, "fusion_lat": 0.0, "type": "electric_scooter", "name": "573ed2ed4b4d0a25cf109079fbee096f", "is_disabled": 0, "rental_uris": {"ios": "https://dc.lft.to/lastmile_qr_scan", "android": "https://dc.lft.to/lastmile_qr_scan"}, "is_reserved": 0}, {"lon": -77.01627383333333, "bike_id": "4a99d6a9d4de1ff761f6dc70f64c37a9", "lat": 38.905715, "fusion_lon": 0.0, "fusion_lat": 0.0, "type": "electric_scooter", "name": "4a99d6a9d4de1ff761f6dc70f64c37a9", "is_disabled": 0, "rental_uris": {"ios": "https://dc.lft.to/lastmile_qr_scan", "android": "https://dc.lft.to/lastmile_qr_scan"}, "is_reserved": 0}, {"lon": -77.03903016666666, "bike_id": "5333ec211436bed762b0878b5622e574", "lat": 38.91835483333333, "fusion_lon": 0.0, "fusion_lat": 0.0, "type": "electric_scooter", "name": "5333ec211436bed762b0878b5622e574", "is_disabled": 0, "rental_uris": {"ios": "https://dc.lft.to/lastmile_qr_scan", "android": "https://dc.lft.to/lastmile_qr_scan"}, "is_reserved": 0}, {"lon": -76.9964975, "bike_id": "e8111549068aadac2cf872b2fdc7f17d", "lat": 38.98825, "fusion_lon": 0.0, "fusion_lat": 0.0, "type": "electric_bike", "name": "e8111549068aadac2cf872b2fdc7f17d", "is_disabled": 0, "rental_uris": {"ios": "https://dc.lft.to/lastmile_qr_scan", "android": "https://dc.lft.to/lastmile_qr_scan"}, "is_reserved": 0}, {"lon": -77.07116583333334, "bike_id": "1ebed851e228bd85d198173374d6b756", "lat": 38.91969233333333, "fusion_lon": 0.0, "fusion_lat": 0.0, "type": "electric_scooter", "name": "1ebed851e228bd85d198173374d6b756", "is_disabled": 0, "rental_uris": {"ios": "https://dc.lft.to/lastmile_qr_scan", "android": "https://dc.lft.to/lastmile_qr_scan"}, "is_reserved": 0}, {"lon": -76.97522483333333, "bike_id": "5f537db717225be7581e4545e8536cc9", "lat": 38.966971666666666, "fusion_lon": 0.0, "fusion_lat": 0.0, "type": "electric_bike", "name": "5f537db717225be7581e4545e8536cc9", "is_disabled": 0, "rental_uris": {"ios": "https://dc.lft.to/lastmile_qr_scan", "android": "https://dc.lft.to/lastmile_qr_scan"}, "is_reserved": 0}, {"lon": -77.0486705, "bike_id": "0cdcd6a497b52b4ad9517d0e8fe04888", "lat": 38.90396766666667, "fusion_lon": 0.0, "fusion_lat": 0.0, "type": "electric_scooter", "name": "0cdcd6a497b52b4ad9517d0e8fe04888", "is_disabled": 0, "rental_uris": {"ios": "https://dc.lft.to/lastmile_qr_scan", "android": "https://dc.lft.to/lastmile_qr_scan"}, "is_reserved": 0}, {"lon": -77.02082033333333, "bike_id": "74462cd14c0f20191744b10437ef352a", "lat": 38.9573945, "fusion_lon": 0.0, "fusion_lat": 0.0, "type": "electric_scooter", "name": "74462cd14c0f20191744b10437ef352a", "is_disabled": 0, "rental_uris": {"ios": "https://dc.lft.to/lastmile_qr_scan", "android": "https://dc.lft.to/lastmile_qr_scan"}, "is_reserved": 0}, {"lon": -77.05313083333333, "bike_id": "e599cc4deb90df9e2099e8b6a1c9f36d", "lat": 38.900779166666666, "fusion_lon": 0.0, "fusion_lat": 0.0, "type": "electric_scooter", "name": "e599cc4deb90df9e2099e8b6a1c9f36d", "is_disabled": 0, "rental_uris": {"ios": "https://dc.lft.to/lastmile_qr_scan", "android": "https://dc.lft.to/lastmile_qr_scan"}, "is_reserved": 0}, {"lon": -77.0414755, "bike_id": "ae99d8633e83cd94e9f684ea310e4a73", "lat": 38.907512, "fusion_lon": 0.0, "fusion_lat": 0.0, "type": "electric_scooter", "name": "ae99d8633e83cd94e9f684ea310e4a73", "is_disabled": 0, "rental_uris": {"ios": "https://dc.lft.to/lastmile_qr_scan", "android": "https://dc.lft.to/lastmile_qr_scan"}, "is_reserved": 0}, {"lon": -77.04281283333333, "bike_id": "e95c37e41423402ee47407e17a7a64f5", "lat": 38.9074, "fusion_lon": 0.0, "fusion_lat": 0.0, "type": "electric_scooter", "name": "e95c37e41423402ee47407e17a7a64f5", "is_disabled": 0, "rental_uris": {"ios": "https://dc.lft.to/lastmile_qr_scan", "android": "https://dc.lft.to/lastmile_qr_scan"}, "is_reserved": 0}, {"lon": -77.04785733333334, "bike_id": "8861c2e7a70ec289a04f73ebea79c7ac", "lat": 38.8293995, "fusion_lon": 0.0, "fusion_lat": 0.0, "type": "electric_bike", "name": "8861c2e7a70ec289a04f73ebea79c7ac", "is_disabled": 0, "rental_uris": {"ios": "https://dc.lft.to/lastmile_qr_scan", "android": "https://dc.lft.to/lastmile_qr_scan"}, "is_reserved": 0}, {"lon": -77.02370916666666, "bike_id": "3faa57c2c5de4367dc1de90f46424bde", "lat": 38.89211066666667, "fusion_lon": 0.0, "fusion_lat": 0.0, "type": "electric_scooter", "name": "3faa57c2c5de4367dc1de90f46424bde", "is_disabled": 0, "rental_uris": {"ios": "https://dc.lft.to/lastmile_qr_scan", "android": "https://dc.lft.to/lastmile_qr_scan"}, "is_reserved": 0}, {"lon": -76.9967985, "bike_id": "d1140779e60f62ebc0a3bf98f1c29d16", "lat": 38.860189166666665, "fusion_lon": 0.0, "fusion_lat": 0.0, "type": "electric_scooter", "name": "d1140779e60f62ebc0a3bf98f1c29d16", "is_disabled": 0, "rental_uris": {"ios": "https://dc.lft.to/lastmile_qr_scan", "android": "https://dc.lft.to/lastmile_qr_scan"}, "is_reserved": 0}, {"lon": -77.05048866666667, "bike_id": "c8bd1ee59e58521bdcde60eb57d89f61", "lat": 38.907146166666664, "fusion_lon": 0.0, "fusion_lat": 0.0, "type": "electric_scooter", "name": "c8bd1ee59e58521bdcde60eb57d89f61", "is_disabled": 0, "rental_uris": {"ios": "https://dc.lft.to/lastmile_qr_scan", "android": "https://dc.lft.to/lastmile_qr_scan"}, "is_reserved": 0}, {"lon": -77.03641783333333, "bike_id": "4c33cf7264365e123dcac0e2ee9f93a9", "lat": 38.918322333333336, "fusion_lon": 0.0, "fusion_lat": 0.0, "type": "electric_scooter", "name": "4c33cf7264365e123dcac0e2ee9f93a9", "is_disabled": 0, "rental_uris": {"ios": "https://dc.lft.to/lastmile_qr_scan", "android": "https://dc.lft.to/lastmile_qr_scan"}, "is_reserved": 0}, {"lon": -77.01484316666667, "bike_id": "0920cf6ed06bdfdc5d329862238ad5c3", "lat": 38.95869183333333, "fusion_lon": 0.0, "fusion_lat": 0.0, "type": "electric_scooter", "name": "0920cf6ed06bdfdc5d329862238ad5c3", "is_disabled": 0, "rental_uris": {"ios": "https://dc.lft.to/lastmile_qr_scan", "android": "https://dc.lft.to/lastmile_qr_scan"}, "is_reserved": 0}, {"lon": -77.07382566666666, "bike_id": "901383ddf6240c44a5858732b19c87e0", "lat": 38.96217166666667, "fusion_lon": 0.0, "fusion_lat": 0.0, "type": "electric_scooter", "name": "901383ddf6240c44a5858732b19c87e0", "is_disabled": 0, "rental_uris": {"ios": "https://dc.lft.to/lastmile_qr_scan", "android": "https://dc.lft.to/lastmile_qr_scan"}, "is_reserved": 0}, {"lon": -77.026764, "bike_id": "aa24d13e4b7e32a0a80cccddcbe5f6b3", "lat": 38.90279916666667, "fusion_lon": 0.0, "fusion_lat": 0.0, "type": "electric_scooter", "name": "aa24d13e4b7e32a0a80cccddcbe5f6b3", "is_disabled": 0, "rental_uris": {"ios": "https://dc.lft.to/lastmile_qr_scan", "android": "https://dc.lft.to/lastmile_qr_scan"}, "is_reserved": 0}, {"lon": -77.03452533333333, "bike_id": "8498bbcc772f8b222cdbac6f2994dd21", "lat": 38.9360745, "fusion_lon": 0.0, "fusion_lat": 0.0, "type": "electric_scooter", "name": "8498bbcc772f8b222cdbac6f2994dd21", "is_disabled": 0, "rental_uris": {"ios": "https://dc.lft.to/lastmile_qr_scan", "android": "https://dc.lft.to/lastmile_qr_scan"}, "is_reserved": 0}, {"lon": -76.98530316666667, "bike_id": "16ce9e8f9e101bf767a6af5433660b4d", "lat": 38.86682883333334, "fusion_lon": 0.0, "fusion_lat": 0.0, "type": "electric_scooter", "name": "16ce9e8f9e101bf767a6af5433660b4d", "is_disabled": 0, "rental_uris": {"ios": "https://dc.lft.to/lastmile_qr_scan", "android": "https://dc.lft.to/lastmile_qr_scan"}, "is_reserved": 0}, {"lon": -77.11578766666666, "bike_id": "a4274aaf875db99ac30b76f2b03d316c", "lat": 38.9934475, "fusion_lon": 0.0, "fusion_lat": 0.0, "type": "electric_bike", "name": "a4274aaf875db99ac30b76f2b03d316c", "is_disabled": 0, "rental_uris": {"ios": "https://dc.lft.to/lastmile_qr_scan", "android": "https://dc.lft.to/lastmile_qr_scan"}, "is_reserved": 0}, {"lon": -77.041392, "bike_id": "37a56e903d17352abbcb3d569b845410", "lat": 38.906327166666664, "fusion_lon": 0.0, "fusion_lat": 0.0, "type": "electric_scooter", "name": "37a56e903d17352abbcb3d569b845410", "is_disabled": 0, "rental_uris": {"ios": "https://dc.lft.to/lastmile_qr_scan", "android": "https://dc.lft.to/lastmile_qr_scan"}, "is_reserved": 0}, {"lon": -77.02911566666667, "bike_id": "370b885b049d5ccffdeebfddf90bdcab", "lat": 38.916934833333336, "fusion_lon": 0.0, "fusion_lat": 0.0, "type": "electric_scooter", "name": "370b885b049d5ccffdeebfddf90bdcab", "is_disabled": 0, "rental_uris": {"ios": "https://dc.lft.to/lastmile_qr_scan", "android": "https://dc.lft.to/lastmile_qr_scan"}, "is_reserved": 0}, {"lon": -77.04718966666667, "bike_id": "60c08454a94751b8f2dd215df0b059cf", "lat": 38.92233783333333, "fusion_lon": 0.0, "fusion_lat": 0.0, "type": "electric_scooter", "name": "60c08454a94751b8f2dd215df0b059cf", "is_disabled": 0, "rental_uris": {"ios": "https://dc.lft.to/lastmile_qr_scan", "android": "https://dc.lft.to/lastmile_qr_scan"}, "is_reserved": 0}, {"lon": -77.02116, "bike_id": "276ff97d322b2e92d9868e3d002847ed", "lat": 38.93703, "fusion_lon": 0.0, "fusion_lat": 0.0, "type": "electric_scooter", "name": "276ff97d322b2e92d9868e3d002847ed", "is_disabled": 0, "rental_uris": {"ios": "https://dc.lft.to/lastmile_qr_scan", "android": "https://dc.lft.to/lastmile_qr_scan"}, "is_reserved": 0}, {"lon": -77.03533083333333, "bike_id": "49b48a1fd6eeb7bd532b31edf407044b", "lat": 38.9066245, "fusion_lon": 0.0, "fusion_lat": 0.0, "type": "electric_scooter", "name": "49b48a1fd6eeb7bd532b31edf407044b", "is_disabled": 0, "rental_uris": {"ios": "https://dc.lft.to/lastmile_qr_scan", "android": "https://dc.lft.to/lastmile_qr_scan"}, "is_reserved": 0}, {"lon": -76.97626133333333, "bike_id": "7476630a1c764711147e7c62449ae383", "lat": 38.903815, "fusion_lon": 0.0, "fusion_lat": 0.0, "type": "electric_scooter", "name": "7476630a1c764711147e7c62449ae383", "is_disabled": 0, "rental_uris": {"ios": "https://dc.lft.to/lastmile_qr_scan", "android": "https://dc.lft.to/lastmile_qr_scan"}, "is_reserved": 0}, {"lon": -77.022184, "bike_id": "0563a5f6aedb90044e2a43d2167e59a4", "lat": 38.899694, "fusion_lon": 0.0, "fusion_lat": 0.0, "type": "electric_scooter", "name": "0563a5f6aedb90044e2a43d2167e59a4", "is_disabled": 0, "rental_uris": {"ios": "https://dc.lft.to/lastmile_qr_scan", "android": "https://dc.lft.to/lastmile_qr_scan"}, "is_reserved": 0}, {"lon": -77.00068216666666, "bike_id": "44165f46e6c330d61eb12f34b9a2a714", "lat": 38.92439433333333, "fusion_lon": 0.0, "fusion_lat": 0.0, "type": "electric_scooter", "name": "44165f46e6c330d61eb12f34b9a2a714", "is_disabled": 0, "rental_uris": {"ios": "https://dc.lft.to/lastmile_qr_scan", "android": "https://dc.lft.to/lastmile_qr_scan"}, "is_reserved": 0}, {"lon": -76.99756683333334, "bike_id": "51d70d26c5f78f9aa91214339ee0e026", "lat": 38.922947, "fusion_lon": 0.0, "fusion_lat": 0.0, "type": "electric_scooter", "name": "51d70d26c5f78f9aa91214339ee0e026", "is_disabled": 0, "rental_uris": {"ios": "https://dc.lft.to/lastmile_qr_scan", "android": "https://dc.lft.to/lastmile_qr_scan"}, "is_reserved": 0}, {"lon": -76.96362683333334, "bike_id": "352d8dc09e165fe9c4811b20b706aa9d", "lat": 38.93494833333333, "fusion_lon": 0.0, "fusion_lat": 0.0, "type": "electric_scooter", "name": "352d8dc09e165fe9c4811b20b706aa9d", "is_disabled": 0, "rental_uris": {"ios": "https://dc.lft.to/lastmile_qr_scan", "android": "https://dc.lft.to/lastmile_qr_scan"}, "is_reserved": 0}, {"lon": -77.032419, "bike_id": "ec8933563aa11bd3502cddf39fcfa345", "lat": 38.905543333333334, "fusion_lon": 0.0, "fusion_lat": 0.0, "type": "electric_scooter", "name": "ec8933563aa11bd3502cddf39fcfa345", "is_disabled": 0, "rental_uris": {"ios": "https://dc.lft.to/lastmile_qr_scan", "android": "https://dc.lft.to/lastmile_qr_scan"}, "is_reserved": 0}, {"lon": -77.00919566666667, "bike_id": "8ec086f416a3534484adc57217e8524b", "lat": 38.82787666666667, "fusion_lon": 0.0, "fusion_lat": 0.0, "type": "electric_bike", "name": "8ec086f416a3534484adc57217e8524b", "is_disabled": 0, "rental_uris": {"ios": "https://dc.lft.to/lastmile_qr_scan", "android": "https://dc.lft.to/lastmile_qr_scan"}, "is_reserved": 0}, {"lon": -77.03183883333334, "bike_id": "8830e0ff9dd1f8d4823bf012380a4e26", "lat": 38.91916766666667, "fusion_lon": 0.0, "fusion_lat": 0.0, "type": "electric_scooter", "name": "8830e0ff9dd1f8d4823bf012380a4e26", "is_disabled": 0, "rental_uris": {"ios": "https://dc.lft.to/lastmile_qr_scan", "android": "https://dc.lft.to/lastmile_qr_scan"}, "is_reserved": 0}, {"lon": -77.03516566666667, "bike_id": "cba8504f8e91b829d2380928abf9f242", "lat": 38.92199316666667, "fusion_lon": 0.0, "fusion_lat": 0.0, "type": "electric_scooter", "name": "cba8504f8e91b829d2380928abf9f242", "is_disabled": 0, "rental_uris": {"ios": "https://dc.lft.to/lastmile_qr_scan", "android": "https://dc.lft.to/lastmile_qr_scan"}, "is_reserved": 0}, {"lon": -77.02747783333334, "bike_id": "c18e9130a62b775100c13acc7f703bf5", "lat": 38.941831, "fusion_lon": 0.0, "fusion_lat": 0.0, "type": "electric_scooter", "name": "c18e9130a62b775100c13acc7f703bf5", "is_disabled": 0, "rental_uris": {"ios": "https://dc.lft.to/lastmile_qr_scan", "android": "https://dc.lft.to/lastmile_qr_scan"}, "is_reserved": 0},