{"data": {"bikes": [{"fusion_lat": 0.0, "type": "electric_scooter", "name": "1ae29c09f1ecbf687ea1905a68196d39", "fusion_lon": 0.0, "bike_id": "1ae29c09f1ecbf687ea1905a68196d39", "is_reserved": 0, "rental_uris": {"android": "https://dc.lft.to/lastmile_qr_scan", "ios": "https://dc.lft.to/lastmile_qr_scan"}, "lat": 38.95206, "is_disabled": 0, "lon": -77.02725866666667}, {"fusion_lat": 0.0, "type": "electric_scooter", "name": "aa8fee174302e12f5147a05795d92a2d", "fusion_lon": 0.0, "bike_id": "aa8fee174302e12f5147a05795d92a2d", "is_reserved": 0, "rental_uris": {"android": "https://dc.lft.to/lastmile_qr_scan", "ios": "https://dc.lft.to/lastmile_qr_scan"}, "lat": 38.885252333333334, "is_disabled": 0, "lon": -77.0159615}, {"fusion_lat": 0.0, "type": "electric_scooter", "name": "779602cf855845eedf22bd56b31268fe", "fusion_lon": 0.0, "bike_id": "779602cf855845eedf22bd56b31268fe", "is_reserved": 0, "rental_uris": {"android": "https://dc.lft.to/lastmile_qr_scan", "ios": "https://dc.lft.to/lastmile_qr_scan"}, "lat": 38.88872383333333, "is_disabled": 0, "lon": -76.99033033333333}, {"fusion_lat": 0.0, "type": "electric_scooter", "name": "20281d5a969525c2c43952e56710207b", "fusion_lon": 0.0, "bike_id": "20281d5a969525c2c43952e56710207b", "is_reserved": 0, "rental_uris": {"android": "https://dc.lft.to/lastmile_qr_scan", "ios": "https://dc.lft.to/lastmile_qr_scan"}, "lat": 38.8813525, "is_disabled": 0, "lon": -77.026252}, {"fusion_lat": 0.0, "type": "electric_scooter", "name": "7f14d999aef82eac183924e28e8ae1d4", "fusion_lon": 0.0, "bike_id": "7f14d999aef82eac183924e28e8ae1d4", "is_reserved": 0, "rental_uris": {"android": "https://dc.lft.to/lastmile_qr_scan", "ios": "https://dc.lft.to/lastmile_qr_scan"}, "lat": 38.905704166666666, "is_disabled": 0, "lon": -76.97631583333333}, {"fusion_lat": 0.0, "type": "electric_scooter", "name": "ada2744fc445eb1b5b636a93d245f760", "fusion_lon": 0.0, "bike_id": "ada2744fc445eb1b5b636a93d245f760", "is_reserved": 0, "rental_uris": {"android": "https://dc.lft.to/lastmile_qr_scan", "ios": "https://dc.lft.to/lastmile_qr_scan"}, "lat": 38.933730833333335, "is_disabled": 0, "lon": -77.05720466666666}, {"fusion_lat": 0.0, "type": "electric_scooter", "name": "f5bf568757b71dd0260ab95f75ed5c04", "fusion_lon": 0.0, "bike_id": "f5bf568757b71dd0260ab95f75ed5c04", "is_reserved": 0, "rental_uris": {"android": "https://dc.lft.to/lastmile_qr_scan", "ios": "https://dc.lft.to/lastmile_qr_scan"}, "lat": 38.9095475, "is_disabled": 0, "lon": -77.02207016666667}, {"fusion_lat": 0.0, "type": "electric_scooter", "name": "98b4cbdb674fc9251dc395ec05456b39", "fusion_lon": 0.0, "bike_id": "98b4cbdb674fc9251dc395ec05456b39", "is_reserved": 0, "rental_uris": {"android": "https://dc.lft.to/lastmile_qr_scan", "ios": "https://dc.lft.to/lastmile_qr_scan"}, "lat": 38.8867955, "is_disabled": 0, "lon": -76.936135}, {"fusion_lat": 0.0, "type": "electric_scooter", "name": "d6d33eba8ffaf64823882eb38b738a73", "fusion_lon": 0.0, "bike_id": "d6d33eba8ffaf64823882eb38b738a73", "is_reserved": 0, "rental_uris": {"android": "https://dc.lft.to/lastmile_qr_scan", "ios": "https://dc.lft.to/lastmile_qr_scan"}, "lat": 38.92499166666666, "is_disabled": 0, "lon": -77.02447066666667}, {"fusion_lat": 0.0, "type": "electric_scooter", "name": "e492b196f1aa662a1381c564c51ba860", "fusion_lon": 0.0, "bike_id": "e492b196f1aa662a1381c564c51ba860", "is_reserved": 0, "rental_uris": {"android": "https://dc.lft.to/lastmile_qr_scan", "ios": "https://dc.lft.to/lastmile_qr_scan"}, "lat": 38.920515333333334, "is_disabled": 0, "lon": -77.0347385}, {"fusion_lat": 0.0, "type": "electric_scooter", "name": "216798dd8770b1c1437e81138e04af38", "fusion_lon": 0.0, "bike_id": "216798dd8770b1c1437e81138e04af38", "is_reserved": 0, "rental_uris": {"android": "https://dc.lft.to/lastmile_qr_scan", "ios": "https://dc.lft.to/lastmile_qr_scan"}, "lat": 38.92480583333333, "is_disabled": 0, "lon": -77.02835033333334}, {"fusion_lat": 0.0, "type": "electric_scooter", "name": "e24df34f21b16706c7a39a6765bd023e", "fusion_lon": 0.0, "bike_id": "e24df34f21b16706c7a39a6765bd023e", "is_reserved": 0, "rental_uris": {"android": "https://dc.lft.to/lastmile_qr_scan", "ios": "https://dc.lft.to/lastmile_qr_scan"}, "lat": 38.908967833333335, "is_disabled": 0, "lon": -77.00412383333334}, {"fusion_lat": 0.0, "type": "electric_scooter", "name": "4d6268dd5e7015477896ef376633f94a", "fusion_lon": 0.0, "bike_id": "4d6268dd5e7015477896ef376633f94a", "is_reserved": 0, "rental_uris": {"android": "https://dc.lft.to/lastmile_qr_scan", "ios": "https://dc.lft.to/lastmile_qr_scan"}, "lat": 38.91605466666667, "is_disabled": 0, "lon": -77.04461116666667}, {"fusion_lat": 0.0, "type": "electric_scooter", "name": "7c2ef7f53a75351b6555ce8f11b568fc", "fusion_lon": 0.0, "bike_id": "7c2ef7f53a75351b6555ce8f11b568fc", "is_reserved": 0, "rental_uris": {"android": "https://dc.lft.to/lastmile_qr_scan", "ios": "https://dc.lft.to/lastmile_qr_scan"}, "lat": 38.934569, "is_disabled": 0, "lon": -77.02221366666667}, {"fusion_lat": 0.0, "type": "electric_scooter", "name": "e9776e9d790758b7341a50a83e684e4a", "fusion_lon": 0.0, "bike_id": "e9776e9d790758b7341a50a83e684e4a", "is_reserved": 0, "rental_uris": {"android": "https://dc.lft.to/lastmile_qr_scan", "ios": "https://dc.lft.to/lastmile_qr_scan"}, "lat": 38.891760833333336, "is_disabled": 0, "lon": -76.99032216666667}, {"fusion_lat": 0.0, "type": "electric_scooter", "name": "1c227f84b9b0ec678e39cd100bbcc1a1", "fusion_lon": 0.0, "bike_id": "1c227f84b9b0ec678e39cd100bbcc1a1", "is_reserved": 0, "rental_uris": {"android": "https://dc.lft.to/lastmile_qr_scan", "ios": "https://dc.lft.to/lastmile_qr_scan"}, "lat": 38.89720333333333, "is_disabled": 0, "lon": -77.04367366666666}, {"fusion_lat": 0.0, "type": "electric_bike", "name": "282a2a5b256d38f1acb8cb5833a5947b", "fusion_lon": 0.0, "bike_id": "282a2a5b256d38f1acb8cb5833a5947b", "is_reserved": 0, "rental_uris": {"android": "https://dc.lft.to/lastmile_qr_scan", "ios": "https://dc.lft.to/lastmile_qr_scan"}, "lat": 38.959532833333334, "is_disabled": 0, "lon": -77.100921}, {"fusion_lat": 0.0, "type": "electric_scooter", "name": "7e977ef4f9af1fbe56523ba1c78e4bda", "fusion_lon": 0.0, "bike_id": "7e977ef4f9af1fbe56523ba1c78e4bda", "is_reserved": 0, "rental_uris": {"android": "https://dc.lft.to/lastmile_qr_scan", "ios": "https://dc.lft.to/lastmile_qr_scan"}, "lat": 38.9110675, "is_disabled": 0, "lon": -77.00467066666667}, {"fusion_lat": 0.0, "type": "electric_bike", "name": "696478894a343b3b839abfd7975ff2bd", "fusion_lon": 0.0, "bike_id": "696478894a343b3b839abfd7975ff2bd", "is_reserved": 0, "rental_uris": {"android": "https://dc.lft.to/lastmile_qr_scan", "ios": "https://dc.lft.to/lastmile_qr_scan"}, "lat": 38.831598, "is_disabled": 0, "lon": -76.99548283333333}, {"fusion_lat": 0.0, "type": "electric_scooter", "name": "f2c36ae6af0df6303559815fd7a2a561", "fusion_lon": 0.0, "bike_id": "f2c36ae6af0df6303559815fd7a2a561", "is_reserved": 0, "rental_uris": {"android": "https://dc.lft.to/lastmile_qr_scan", "ios": "https://dc.lft.to/lastmile_qr_scan"}, "lat": 38.933487166666666, "is_disabled": 0, "lon": -77.04130766666667}, {"fusion_lat": 0.0, "type": "electric_bike", "name": "651708912d5b3debf361dc15bb3c438c", "fusion_lon": 0.0, "bike_id": "651708912d5b3debf361dc15bb3c438c", "is_reserved": 0, "rental_uris": {"android": "https://dc.lft.to/lastmile_qr_scan", "ios": "https://dc.lft.to/lastmile_qr_scan"}, "lat": 38.812047666666665, "is_disabled": 0, "lon": -77.10836533333334}, {"fusion_lat": 0.0, "type": "electric_scooter", "name": "b02a1f3a2f8441ce0582e913680b9971", "fusion_lon": 0.0, "bike_id": "b02a1f3a2f8441ce0582e913680b9971", "is_reserved": 0, "rental_uris": {"android": "https://dc.lft.to/lastmile_qr_scan", "ios": "https://dc.lft.to/lastmile_qr_scan"}, "lat": 38.865665166666666, "is_disabled": 0, "lon": -76.98924416666667}, {"fusion_lat": 0.0, "type": "electric_scooter", "name": "38d0cb60d95dfc7768889563ffb989ec", "fusion_lon": 0.0, "bike_id": "38d0cb60d95dfc7768889563ffb989ec", "is_reserved": 0, "rental_uris": {"android": "https://dc.lft.to/lastmile_qr_scan", "ios": "https://dc.lft.to/lastmile_qr_scan"}, "lat": 38.88460166666667, "is_disabled": 0, "lon": -76.9262275}, {"fusion_lat": 0.0, "type": "electric_bike", "name": "f0d1dfa6168af91f0bc7299b99c3f28c", "fusion_lon": 0.0, "bike_id": "f0d1dfa6168af91f0bc7299b99c3f28c", "is_reserved": 0, "rental_uris": {"android": "https://dc.lft.to/lastmile_qr_scan", "ios": "https://dc.lft.to/lastmile_qr_scan"}, "lat": 38.962278833333336, "is_disabled": 0, "lon": -77.02627366666667}, {"fusion_lat": 0.0, "type": "electric_scooter", "name": "878a4ef8da8e45673a5e383f5194b069", "fusion_lon": 0.0, "bike_id": "878a4ef8da8e45673a5e383f5194b069", "is_reserved": 0, "rental_uris": {"android": "https://dc.lft.to/lastmile_qr_scan", "ios": "https://dc.lft.to/lastmile_qr_scan"}, "lat": 38.921411166666665, "is_disabled": 0, "lon": -77.0287335}, {"fusion_lat": 0.0, "type": "electric_bike", "name": "7cb393a1d4b7d9b656f8879f8754536d", "fusion_lon": 0.0, "bike_id": "7cb393a1d4b7d9b656f8879f8754536d", "is_reserved": 0, "rental_uris": {"android": "https://dc.lft.to/lastmile_qr_scan", "ios": "https://dc.lft.to/lastmile_qr_scan"}, "lat": 38.93871716666666, "is_disabled": 0, "lon": -76.9429525}, {"fusion_lat": 0.0, "type": "electric_scooter", "name": "7b3c63c4ff9ef8c51e3917b820b706e1", "fusion_lon": 0.0, "bike_id": "7b3c63c4ff9ef8c51e3917b820b706e1", "is_reserved": 0, "rental_uris": {"android": "https://dc.lft.to/lastmile_qr_scan", "ios": "https://dc.lft.to/lastmile_qr_scan"}, "lat": 38.923386, "is_disabled": 0, "lon": -77.02118616666667}, {"fusion_lat": 0.0, "type": "electric_scooter", "name": "b1b8a311ed640c41a428338098f7a209", "fusion_lon": 0.0, "bike_id": "b1b8a311ed640c41a428338098f7a209", "is_reserved": 0, "rental_uris": {"android": "https://dc.lft.to/lastmile_qr_scan", "ios": "https://dc.lft.to/lastmile_qr_scan"}, "lat": 38.923623166666665, "is_disabled": 0, "lon": -77.05045316666667}, {"fusion_lat": 0.0, "type": "electric_scooter", "name": "3be44aa313737f5306142efc3bd603c8", "fusion_lon": 0.0, "bike_id": "3be44aa313737f5306142efc3bd603c8", "is_reserved": 0, "rental_uris": {"android": "https://dc.lft.to/lastmile_qr_scan", "ios": "https://dc.lft.to/lastmile_qr_scan"}, "lat": 38.898347, "is_disabled": 0, "lon": -77.0331065}, {"fusion_lat": 0.0, "type": "electric_scooter", "name": "8cd47c3c1a149caf395be67518418122", "fusion_lon": 0.0, "bike_id": "8cd47c3c1a149caf395be67518418122", "is_reserved": 0, "rental_uris": {"android": "https://dc.lft.to/lastmile_qr_scan", "ios": "https://dc.lft.to/lastmile_qr_scan"}, "lat": 38.887449833333335, "is_disabled": 0, "lon": -77.0273845}, {"fusion_lat": 0.0, "type": "electric_scooter", "name": "0253174f0d6029f0c5175348f482afad", "fusion_lon": 0.0, "bike_id": "0253174f0d6029f0c5175348f482afad", "is_reserved": 0, "rental_uris": {"android": "https://dc.lft.to/lastmile_qr_scan", "ios": "https://dc.lft.to/lastmile_qr_scan"}, "lat": 38.87783, "is_disabled": 0, "lon": -76.993584}, {"fusion_lat": 0.0, "type": "electric_scooter", "name": "bd8485334258af78f960718a774be290", "fusion_lon": 0.0, "bike_id": "bd8485334258af78f960718a774be290", "is_reserved": 0, "rental_uris": {"android": "https://dc.lft.to/lastmile_qr_scan", "ios": "https://dc.lft.to/lastmile_qr_scan"}, "lat": 38.90765733333333, "is_disabled": 0, "lon": -76.993085}, {"fusion_lat": 0.0, "type": "electric_scooter", "name": "49449cce009eb3594df7b5b349e3b2d7", "fusion_lon": 0.0, "bike_id": "49449cce009eb3594df7b5b349e3b2d7", "is_reserved": 0, "rental_uris": {"android": "https://dc.lft.to/lastmile_qr_scan", "ios": "https://dc.lft.to/lastmile_qr_scan"}, "lat": 38.92276666666667, "is_disabled": 0, "lon": -77.03900833333333}, {"fusion_lat": 0.0, "type": "electric_scooter", "name": "d409f1d9c9180384e5fa7ff8cc63865a", "fusion_lon": 0.0, "bike_id": "d409f1d9c9180384e5fa7ff8cc63865a", "is_reserved": 0, "rental_uris": {"android": "https://dc.lft.to/lastmile_qr_scan", "ios": "https://dc.lft.to/lastmile_qr_scan"}, "lat": 38.8746765, "is_disabled": 0, "lon": -77.01133433333334}, {"fusion_lat": 0.0, "type": "electric_scooter", "name": "e1c3ad076dddcf1ae07303878a9c85ba", "fusion_lon": 0.0, "bike_id": "e1c3ad076dddcf1ae07303878a9c85ba", "is_reserved": 0, "rental_uris": {"android": "https://dc.lft.to/lastmile_qr_scan", "ios": "https://dc.lft.to/lastmile_qr_scan"}, "lat": 38.876613666666664, "is_disabled": 0, "lon": -76.9945295}, {"fusion_lat": 0.0, "type": "electric_scooter", "name": "1a2f070ad3cda588c00bac1bceb73af7", "fusion_lon": 0.0, "bike_id": "1a2f070ad3cda588c00bac1bceb73af7", "is_reserved": 0, "rental_uris": {"android": "https://dc.lft.to/lastmile_qr_scan", "ios": "https://dc.lft.to/lastmile_qr_scan"}, "lat": 38.90026866666667, "is_disabled": 0, "lon": -77.01855716666667}, {"fusion_lat": 0.0, "type": "electric_scooter", "name": "5eaee319c54b2edbf6357b3f4894d0be", "fusion_lon": 0.0, "bike_id": "5eaee319c54b2edbf6357b3f4894d0be", "is_reserved": 0, "rental_uris": {"android": "https://dc.lft.to/lastmile_qr_scan", "ios": "https://dc.lft.to/lastmile_qr_scan"}, "lat": 38.911182, "is_disabled": 0, "lon": -77.04366883333333}, {"fusion_lat": 0.0, "type": "electric_bike", "name": "5e8c3f9f7736aac70cbd5a4b8ceb882d", "fusion_lon": 0.0, "bike_id": "5e8c3f9f7736aac70cbd5a4b8ceb882d", "is_reserved": 0, "rental_uris": {"android": "https://dc.lft.to/lastmile_qr_scan", "ios": "https://dc.lft.to/lastmile_qr_scan"}, "lat": 38.9220565, "is_disabled": 0, "lon": -77.08200833333333}, {"fusion_lat": 0.0, "type": "electric_scooter", "name": "d8330db7091ac5d6ae1c639cfb2208d0", "fusion_lon": 0.0, "bike_id": "d8330db7091ac5d6ae1c639cfb2208d0", "is_reserved": 0, "rental_uris": {"android": "https://dc.lft.to/lastmile_qr_scan", "ios": "https://dc.lft.to/lastmile_qr_scan"}, "lat": 38.94902483333333, "is_disabled": 0, "lon": -77.00648433333333}, {"fusion_lat": 0.0, "type": "electric_scooter", "name": "aaf199b15705f2bae18d75be08002795", "fusion_lon": 0.0, "bike_id": "aaf199b15705f2bae18d75be08002795", "is_reserved": 0, "rental_uris": {"android": "https://dc.lft.to/lastmile_qr_scan", "ios": "https://dc.lft.to/lastmile_qr_scan"}, "lat": 38.904773, "is_disabled": 0, "lon": -77.0072935}, {"fusion_lat": 0.0, "type": "electric_scooter", "name": "a11d7a0d10057819ad30201a2cec4326", "fusion_lon": 0.0, "bike_id": "a11d7a0d10057819ad30201a2cec4326", "is_reserved": 0, "rental_uris": {"android": "https://dc.lft.to/lastmile_qr_scan", "ios": "https://dc.lft.to/lastmile_qr_scan"}, "lat": 38.89223833333333, "is_disabled": 0, "lon": -77.02347416666667}, {"fusion_lat": 0.0, "type": "electric_scooter", "name": "f8961bf228265ec35f2c289f574d8214", "fusion_lon": 0.0, "bike_id": "f8961bf228265ec35f2c289f574d8214", "is_reserved": 0, "rental_uris": {"android": "https://dc.lft.to/lastmile_qr_scan", "ios": "https://dc.lft.to/lastmile_qr_scan"}, "lat": 38.91890333333333, "is_disabled": 0, "lon": -77.0375865}, {"fusion_lat": 0.0, "type": "electric_scooter", "name": "451e208c529c8b964818d4d6fc0e92b7", "fusion_lon": 0.0, "bike_id": "451e208c529c8b964818d4d6fc0e92b7", "is_reserved": 0, "rental_uris": {"android": "https://dc.lft.to/lastmile_qr_scan", "ios": "https://dc.lft.to/lastmile_qr_scan"}, "lat": 38.91991516666667, "is_disabled": 0, "lon": -77.0239195}, {"fusion_lat": 0.0, "type": "electric_scooter", "name": "1688e785220a5b0fd8057f53c62f1dcd", "fusion_lon": 0.0, "bike_id": "1688e785220a5b0fd8057f53c62f1dcd", "is_reserved": 0, "rental_uris": {"android": "https://dc.lft.to/lastmile_qr_scan", "ios": "https://dc.lft.to/lastmile_qr_scan"}, "lat": 38.857245166666665, "is_disabled": 0, "lon": -76.98935666666667}, {"fusion_lat": 0.0, "type": "electric_scooter", "name": "3d0db106f53ccfef92c5114dfd4b6aa0", "fusion_lon": 0.0, "bike_id": "3d0db106f53ccfef92c5114dfd4b6aa0", "is_reserved": 0, "rental_uris": {"android": "https://dc.lft.to/lastmile_qr_scan", "ios": "https://dc.lft.to/lastmile_qr_scan"}, "lat": 38.86898133333333, "is_disabled": 0, "lon": -76.9823025}, {"fusion_lat": 0.0, "type": "electric_bike", "name": "59b895f754d47dbf32a4676e2b85d377", "fusion_lon": 0.0, "bike_id": "59b895f754d47dbf32a4676e2b85d377", "is_reserved": 0, "rental_uris": {"android": "https://dc.lft.to/lastmile_qr_scan", "ios": "https://dc.lft.to/lastmile_qr_scan"}, "lat": 38.95931316666667, "is_disabled": 0, "lon": -76.92540933333333}, {"fusion_lat": 0.0, "type": "electric_scooter", "name": "3b5b89da23c9448c05bd3177a0ff9772", "fusion_lon": 0.0, "bike_id": "3b5b89da23c9448c05bd3177a0ff9772", "is_reserved": 0, "rental_uris": {"android": "https://dc.lft.to/lastmile_qr_scan", "ios": "https://dc.lft.to/lastmile_qr_scan"}, "lat": 38.907255166666666, "is_disabled": 0, "lon": -77.04889066666667}, {"fusion_lat": 0.0, "type": "electric_scooter", "name": "3c376902353803f45eb886953a723da7", "fusion_lon": 0.0, "bike_id": "3c376902353803f45eb886953a723da7", "is_reserved": 0, "rental_uris": {"android": "https://dc.lft.to/lastmile_qr_scan", "ios": "https://dc.lft.to/lastmile_qr_scan"}, "lat": 38.905703333333335, "is_disabled": 0, "lon": -77.007103}, {"fusion_lat": 0.0, "type": "electric_scooter", "name": "82907e37b57e70baeff25cd6e22a53be", "fusion_lon": 0.0, "bike_id": "82907e37b57e70baeff25cd6e22a53be", "is_reserved": 0, "rental_uris": {"android": "https://dc.lft.to/lastmile_qr_scan", "ios": "https://dc.lft.to/lastmile_qr_scan"}, "lat": 38.89219, "is_disabled": 0, "lon": -77.04375683333333}, {"fusion_lat": 0.0, "type": "electric_scooter", "name": "b7232154b9ea3b11c6a25043d3198fbd", "fusion_lon": 0.0, "bike_id": "b7232154b9ea3b11c6a25043d3198fbd", "is_reserved": 0, "rental_uris": {"android": "https://dc.lft.to/lastmile_qr_scan", "ios": "https://dc.lft.to/lastmile_qr_scan"}, "lat": 38.887344166666665, "is_disabled": 0, "lon": -77.02582983333333}, {"fusion_lat": 0.0, "type": "electric_scooter", "name": "938b5b626bf04e912d268416f9b22197", "fusion_lon": 0.0, "bike_id": "938b5b626bf04e912d268416f9b22197", "is_reserved": 0, "rental_uris": {"android": "https://dc.lft.to/lastmile_qr_scan", "ios": "https://dc.lft.to/lastmile_qr_scan"}, "lat": 38.911888, "is_disabled": 0, "lon": -77.030237}, {"fusion_lat": 0.0, "type": "electric_scooter", "name": "ad66defc7dc86eea41d8a35cd4885e27", "fusion_lon": 0.0, "bike_id": "ad66defc7dc86eea41d8a35cd4885e27", "is_reserved": 0, "rental_uris": {"android": "https://dc.lft.to/lastmile_qr_scan", "ios": "https://dc.lft.to/lastmile_qr_scan"}, "lat": 38.960315, "is_disabled": 0, "lon": -77.01987916666667}, {"fusion_lat": 0.0, "type": "electric_scooter", "name": "03b9fc0997765e82cd488bb320905dea", "fusion_lon": 0.0, "bike_id": "03b9fc0997765e82cd488bb320905dea", "is_reserved": 0, "rental_uris": {"android": "https://dc.lft.to/lastmile_qr_scan", "ios": "https://dc.lft.to/lastmile_qr_scan"}, "lat": 38.894934666666664, "is_disabled": 0, "lon": -77.02141616666667}, {"fusion_lat": 0.0, "type": "electric_scooter", "name": "5598496ed6d2cdcdd7ae2febe590524d", "fusion_lon": 0.0, "bike_id": "5598496ed6d2cdcdd7ae2febe590524d", "is_reserved": 0, "rental_uris": {"android": "https://dc.lft.to/lastmile_qr_scan", "ios": "https://dc.lft.to/lastmile_qr_scan"}, "lat": 38.893697, "is_disabled": 0, "lon": -76.949941}, {"fusion_lat": 0.0, "type": "electric_scooter", "name": "51bf763cb9dc9bba94670703694eaf27", "fusion_lon": 0.0, "bike_id": "51bf763cb9dc9bba94670703694eaf27", "is_reserved": 0, "rental_uris": {"android": "https://dc.lft.to/lastmile_qr_scan", "ios": "https://dc.lft.to/lastmile_qr_scan"}, "lat": 38.9258185, "is_disabled": 0, "lon": -77.04008633333333}, {"fusion_lat": 0.0, "type": "electric_scooter", "name": "a7dca07fc4b0d94bacda44579124eb7a", "fusion_lon": 0.0, "bike_id": "a7dca07fc4b0d94bacda44579124eb7a", "is_reserved": 0, "rental_uris": {"android": "https://dc.lft.to/lastmile_qr_scan", "ios": "https://dc.lft.to/lastmile_qr_scan"}, "lat": 38.8934445, "is_disabled": 0, "lon": -77.0419}, {"fusion_lat": 0.0, "type": "electric_scooter", "name": "00753741f3a1ab000b56999973b2c88b", "fusion_lon": 0.0, "bike_id": "00753741f3a1ab000b56999973b2c88b", "is_reserved": 0, "rental_uris": {"android": "https://dc.lft.to/lastmile_qr_scan", "ios": "https://dc.lft.to/lastmile_qr_scan"}, "lat": 38.93088566666667, "is_disabled": 0, "lon": -77.0041265}, {"fusion_lat": 0.0, "type": "electric_scooter", "name": "445c294e472d8fe9a9fb9ecf73367ee8", "fusion_lon": 0.0, "bike_id": "445c294e472d8fe9a9fb9ecf73367ee8", "is_reserved": 0, "rental_uris": {"android": "https://dc.lft.to/lastmile_qr_scan", "ios": "https://dc.lft.to/lastmile_qr_scan"}, "lat": 38.9047325, "is_disabled": 0, "lon": -77.02809166666667}, {"fusion_lat": 0.0, "type": "electric_scooter", "name": "18b53e30ee84c26f568df3127413d145", "fusion_lon": 0.0, "bike_id": "18b53e30ee84c26f568df3127413d145", "is_reserved": 0, "rental_uris": {"android": "https://dc.lft.to/lastmile_qr_scan", "ios": "https://dc.lft.to/lastmile_qr_scan"}, "lat": 38.923274, "is_disabled": 0, "lon": -77.036168}, {"fusion_lat": 0.0, "type": "electric_scooter", "name": "9a7ed77a12603bc90ab29b155f553cb0", "fusion_lon": 0.0, "bike_id": "9a7ed77a12603bc90ab29b155f553cb0", "is_reserved": 0, "rental_uris": {"android": "https://dc.lft.to/lastmile_qr_scan", "ios": "https://dc.lft.to/lastmile_qr_scan"}, "lat": 38.93552966666667, "is_disabled": 0, "lon": -77.02222916666666}, {"fusion_lat": 0.0, "type": "electric_scooter", "name": "415ded905c0cb8d587058ec9d39f3954", "fusion_lon": 0.0, "bike_id": "415ded905c0cb8d587058ec9d39f3954", "is_reserved": 0, "rental_uris": {"android": "https://dc.lft.to/lastmile_qr_scan", "ios": "https://dc.lft.to/lastmile_qr_scan"}, "lat": 38.86700283333333, "is_disabled": 0, "lon": -76.987129}, {"fusion_lat": 0.0, "type": "electric_scooter", "name": "ba76efeae00b610070f6708d0edc15c2", "fusion_lon": 0.0, "bike_id": "ba76efeae00b610070f6708d0edc15c2", "is_reserved": 0, "rental_uris": {"android": "https://dc.lft.to/lastmile_qr_scan", "ios": "https://dc.lft.to/lastmile_qr_scan"}, "lat": 38.8922015, "is_disabled": 0, "lon": -77.04377066666666}, {"fusion_lat": 0.0, "type": "electric_scooter", "name": "7233af54528a7efe07d0bb08a89e20b7", "fusion_lon": 0.0, "bike_id": "7233af54528a7efe07d0bb08a89e20b7", "is_reserved": 0, "rental_uris": {"android": "https://dc.lft.to/lastmile_qr_scan", "ios": "https://dc.lft.to/lastmile_qr_scan"}, "lat": 38.9206535, "is_disabled": 0, "lon": -77.042197}, {"fusion_lat": 0.0, "type": "electric_scooter", "name": "d6989a72570b701e786df9a7bef57d3e", "fusion_lon": 0.0, "bike_id": "d6989a72570b701e786df9a7bef57d3e", "is_reserved": 0, "rental_uris": {"android": "https://dc.lft.to/lastmile_qr_scan", "ios": "https://dc.lft.to/lastmile_qr_scan"}, "lat": 38.91104166666667, "is_disabled": 0, "lon": -77.02099883333334}, {"fusion_lat": 0.0, "type": "electric_scooter", "name": "3ec39f1eef239f467eacb748986a7e22", "fusion_lon": 0.0, "bike_id": "3ec39f1eef239f467eacb748986a7e22", "is_reserved": 0, "rental_uris": {"android": "https://dc.lft.to/lastmile_qr_scan", "ios": "https://dc.lft.to/lastmile_qr_scan"}, "lat": 38.92855766666667, "is_disabled": 0, "lon": -77.01406033333333}, {"fusion_lat": 0.0, "type": "electric_scooter", "name": "280ca396a1391f110b294a5930e174ea", "fusion_lon": 0.0, "bike_id": "280ca396a1391f110b294a5930e174ea", "is_reserved": 0, "rental_uris": {"android": "https://dc.lft.to/lastmile_qr_scan", "ios": "https://dc.lft.to/lastmile_qr_scan"}, "lat": 38.924191, "is_disabled": 0, "lon": -77.01951166666667}, {"fusion_lat": 0.0, "type": "electric_scooter", "name": "ae6c4bf4dce20d6d27bf96616cb7f78c", "fusion_lon": 0.0, "bike_id": "ae6c4bf4dce20d6d27bf96616cb7f78c", "is_reserved": 0, "rental_uris": {"android": "https://dc.lft.to/lastmile_qr_scan", "ios": "https://dc.lft.to/lastmile_qr_scan"}, "lat": 38.86990683333333, "is_disabled": 0, "lon": -76.975899}, {"fusion_lat": 0.0, "type": "electric_bike", "name": "9854dabd9f7e744b5e56b37c96658a65", "fusion_lon": 0.0, "bike_id": "9854dabd9f7e744b5e56b37c96658a65", "is_reserved": 0, "rental_uris": {"android": "https://dc.lft.to/lastmile_qr_scan", "ios": "https://dc.lft.to/lastmile_qr_scan"}, "lat": 38.96109883333333, "is_disabled": 0, "lon": -76.92814083333333}, {"fusion_lat": 0.0, "type": "electric_bike", "name": "c8ac8ba1f0dd331ca612cf95fa0137d4", "fusion_lon": 0.0, "bike_id": "c8ac8ba1f0dd331ca612cf95fa0137d4", "is_reserved": 0, "rental_uris": {"android": "https://dc.lft.to/lastmile_qr_scan", "ios": "https://dc.lft.to/lastmile_qr_scan"}, "lat": 38.9329795, "is_disabled": 0, "lon": -77.02291316666667}, {"fusion_lat": 0.0, "type": "electric_scooter", "name": "983ef89afbfacf7bbd0644661365644f", "fusion_lon": 0.0, "bike_id": "983ef89afbfacf7bbd0644661365644f", "is_reserved": 0, "rental_uris": {"android": "https://dc.lft.to/lastmile_qr_scan", "ios": "https://dc.lft.to/lastmile_qr_scan"}, "lat": 38.90268483333333, "is_disabled": 0, "lon": -76.99558266666666}, {"fusion_lat": 0.0, "type": "electric_scooter", "name": "689e33df90b32d50c1e3a478f8d1d254", "fusion_lon": 0.0, "bike_id": "689e33df90b32d50c1e3a478f8d1d254", "is_reserved": 0, "rental_uris": {"android": "https://dc.lft.to/lastmile_qr_scan", "ios": "https://dc.lft.to/lastmile_qr_scan"}, "lat": 38.908722166666664, "is_disabled": 0, "lon": -77.04568383333333}, {"fusion_lat": 0.0, "type": "electric_scooter", "name": "a192dda8dafc281a5c5d119d89f43fd9", "fusion_lon": 0.0, "bike_id": "a192dda8dafc281a5c5d119d89f43fd9", "is_reserved": 0, "rental_uris": {"android": "https://dc.lft.to/lastmile_qr_scan", "ios": "https://dc.lft.to/lastmile_qr_scan"}, "lat": 38.890821833333334, "is_disabled": 0, "lon": -77.04041783333334}, {"fusion_lat": 0.0, "type": "electric_scooter", "name": "503616ad3b94cfd915e9bdcf5eb39b36", "fusion_lon": 0.0, "bike_id": "503616ad3b94cfd915e9bdcf5eb39b36", "is_reserved": 0, "rental_uris": {"android": "https://dc.lft.to/lastmile_qr_scan", "ios": "https://dc.lft.to/lastmile_qr_scan"}, "lat": 38.887303333333335, "is_disabled": 0, "lon": -77.02837716666667}, {"fusion_lat": 0.0, "type": "electric_bike", "name": "a589965414519c535b34f2d2da09514d", "fusion_lon": 0.0, "bike_id": "a589965414519c535b34f2d2da09514d", "is_reserved": 0, "rental_uris": {"android": "https://dc.lft.to/lastmile_qr_scan", "ios": "https://dc.lft.to/lastmile_qr_scan"}, "lat": 39.05278783333333, "is_disabled": 0, "lon": -77.08071633333333}, {"fusion_lat": 0.0, "type": "electric_scooter", "name": "60294c1ef64507b5eac8e0156393f1bf", "fusion_lon": 0.0, "bike_id": "60294c1ef64507b5eac8e0156393f1bf", "is_reserved": 0, "rental_uris": {"android": "https://dc.lft.to/lastmile_qr_scan", "ios": "https://dc.lft.to/lastmile_qr_scan"}, "lat": 38.93653533333333, "is_disabled": 0, "lon": -77.03655816666667}, {"fusion_lat": 0.0, "type": "electric_scooter", "name": "c4ac22d8ef0ebc1b04a61361ec53fa95", "fusion_lon": 0.0, "bike_id": "c4ac22d8ef0ebc1b04a61361ec53fa95", "is_reserved": 0, "rental_uris": {"android": "https://dc.lft.to/lastmile_qr_scan", "ios": "https://dc.lft.to/lastmile_qr_scan"}, "lat": 38.89505583333333, "is_disabled": 0, "lon": -77.00335716666666}, {"fusion_lat": 0.0, "type": "electric_scooter", "name": "a62f55d934b60fbcbb1c5f27914e147a", "fusion_lon": 0.0, "bike_id": "a62f55d934b60fbcbb1c5f27914e147a", "is_reserved": 0, "rental_uris": {"android": "https://dc.lft.to/lastmile_qr_scan", "ios": "https://dc.lft.to/lastmile_qr_scan"}, "lat": 38.918142833333334, "is_disabled": 0, "lon": -77.03714683333334}, {"fusion_lat": 0.0, "type": "electric_scooter", "name": "4690fc307e351a0f53c8e45658d1d30f", "fusion_lon": 0.0, "bike_id": "4690fc307e351a0f53c8e45658d1d30f", "is_reserved": 0, "rental_uris": {"android": "https://dc.lft.to/lastmile_qr_scan", "ios": "https://dc.lft.to/lastmile_qr_scan"}, "lat": 38.871969666666665, "is_disabled": 0, "lon": -77.01077666666667}, {"fusion_lat": 0.0, "type": "electric_scooter", "name": "6286f35c42313574b039cb933f1061fa", "fusion_lon": 0.0, "bike_id": "6286f35c42313574b039cb933f1061fa", "is_reserved": 0, "rental_uris": {"android": "https://dc.lft.to/lastmile_qr_scan", "ios": "https://dc.lft.to/lastmile_qr_scan"}, "lat": 38.9333975, "is_disabled": 0, "lon": -77.02389016666666}, {"fusion_lat": 0.0, "type": "electric_scooter", "name": "9fe3d841bcf7181d578abc8e71079df7", "fusion_lon": 0.0, "bike_id": "9fe3d841bcf7181d578abc8e71079df7", "is_reserved": 0, "rental_uris": {"android": "https://dc.lft.to/lastmile_qr_scan", "ios": "https://dc.lft.to/lastmile_qr_scan"}, "lat": 38.922280666666666, "is_disabled": 0, "lon": -77.04230183333334}, {"fusion_lat": 0.0, "type": "electric_scooter", "name": "f545733ecf731cca67c631f6f9756d41", "fusion_lon": 0.0, "bike_id": "f545733ecf731cca67c631f6f9756d41", "is_reserved": 0, "rental_uris": {"android": "https://dc.lft.to/lastmile_qr_scan", "ios": "https://dc.lft.to/lastmile_qr_scan"}, "lat": 38.874489833333335, "is_disabled": 0, "lon": -77.00922116666666}, {"fusion_lat": 0.0, "type": "electric_scooter", "name": "887c9ded6eb3e342922fd7e6774e428c", "fusion_lon": 0.0, "bike_id": "887c9ded6eb3e342922fd7e6774e428c", "is_reserved": 0, "rental_uris": {"android": "https://dc.lft.to/lastmile_qr_scan", "ios": "https://dc.lft.to/lastmile_qr_scan"}, "lat": 38.914601, "is_disabled": 0, "lon": -77.018892}, {"fusion_lat": 0.0, "type": "electric_scooter", "name": "e2f75468b6e8fd757ef931a6109af4ff", "fusion_lon": 0.0, "bike_id": "e2f75468b6e8fd757ef931a6109af4ff", "is_reserved": 0, "rental_uris": {"android": "https://dc.lft.to/lastmile_qr_scan", "ios": "https://dc.lft.to/lastmile_qr_scan"}, "lat": 38.9170795, "is_disabled": 0, "lon": -77.03861833333333}, {"fusion_lat": 0.0, "type": "electric_scooter", "name": "5b6c56524f45ef342e85cc304cfdecf4", "fusion_lon": 0.0, "bike_id": "5b6c56524f45ef342e85cc304cfdecf4", "is_reserved": 0, "rental_uris": {"android": "https://dc.lft.to/lastmile_qr_scan", "ios": "https://dc.lft.to/lastmile_qr_scan"}, "lat": 38.90945333333333, "is_disabled": 0, "lon": -77.04666166666667}, {"fusion_lat": 0.0, "type": "electric_bike", "name": "cdf01ba37b1f17b4db2de9e63f893a92", "fusion_lon": 0.0, "bike_id": "cdf01ba37b1f17b4db2de9e63f893a92", "is_reserved": 0, "rental_uris": {"android": "https://dc.lft.to/lastmile_qr_scan", "ios": "https://dc.lft.to/lastmile_qr_scan"}, "lat": 38.968159666666665, "is_disabled": 0, "lon": -77.07231883333333}, {"fusion_lat": 0.0, "type": "electric_scooter", "name": "11ee27922d63c6558807a21098039757", "fusion_lon": 0.0, "bike_id": "11ee27922d63c6558807a21098039757", "is_reserved": 0, "rental_uris": {"android": "https://dc.lft.to/lastmile_qr_scan", "ios": "https://dc.lft.to/lastmile_qr_scan"}, "lat": 38.915515666666664, "is_disabled": 0, "lon": -77.03856033333334}, {"fusion_lat": 0.0, "type": "electric_scooter", "name": "bbf4f6767e70349aede86fc4ad044ccd", "fusion_lon": 0.0, "bike_id": "bbf4f6767e70349aede86fc4ad044ccd", "is_reserved": 0, "rental_uris": {"android": "https://dc.lft.to/lastmile_qr_scan", "ios": "https://dc.lft.to/lastmile_qr_scan"}, "lat": 38.897417833333336, "is_disabled": 0, "lon": -77.05591916666667}, {"fusion_lat": 0.0, "type": "electric_bike", "name": "99f936a29c6a390ff790b081a5596d9d", "fusion_lon": 0.0, "bike_id": "99f936a29c6a390ff790b081a5596d9d", "is_reserved": 0, "rental_uris": {"android": "https://dc.lft.to/lastmile_qr_scan", "ios": "https://dc.lft.to/lastmile_qr_scan"}, "lat": 38.949153333333335, "is_disabled": 0, "lon": -77.00805933333334}, {"fusion_lat": 0.0, "type": "electric_scooter", "name": "0b356b9f68a2327fddb272db6cdbe0f2", "fusion_lon": 0.0, "bike_id": "0b356b9f68a2327fddb272db6cdbe0f2", "is_reserved": 0, "rental_uris": {"android": "https://dc.lft.to/lastmile_qr_scan", "ios": "https://dc.lft.to/lastmile_qr_scan"}, "lat": 38.9043885, "is_disabled": 0, "lon": -76.98492833333333}, {"fusion_lat": 0.0, "type": "electric_scooter", "name": "c4ea2886d3a039b025d4e1af1056d87c", "fusion_lon": 0.0, "bike_id": "c4ea2886d3a039b025d4e1af1056d87c", "is_reserved": 0, "rental_uris": {"android": "https://dc.lft.to/lastmile_qr_scan", "ios": "https://dc.lft.to/lastmile_qr_scan"}, "lat": 38.922543, "is_disabled": 0, "lon": -77.035158}, {"fusion_lat": 0.0, "type": "electric_scooter", "name": "a2aec21f32b28cb3abd31052bd831c10", "fusion_lon": 0.0, "bike_id": "a2aec21f32b28cb3abd31052bd831c10", "is_reserved": 0, "rental_uris": {"android": "https://dc.lft.to/lastmile_qr_scan", "ios": "https://dc.lft.to/lastmile_qr_scan"}, "lat": 38.91960183333333, "is_disabled": 0, "lon": -77.0320345}, {"fusion_lat": 0.0, "type": "electric_scooter", "name": "f1751bcdac208b62842f266f9c585aa3", "fusion_lon": 0.0, "bike_id": "f1751bcdac208b62842f266f9c585aa3", "is_reserved": 0, "rental_uris": {"android": "https://dc.lft.to/lastmile_qr_scan", "ios": "https://dc.lft.to/lastmile_qr_scan"}, "lat": 38.907976166666664, "is_disabled": 0, "lon": -77.04504183333333}, {"fusion_lat": 0.0, "type": "electric_bike", "name": "ff50b4697c067046d38a415f0f887057", "fusion_lon": 0.0, "bike_id": "ff50b4697c067046d38a415f0f887057", "is_reserved": 0, "rental_uris": {"android": "https://dc.lft.to/lastmile_qr_scan", "ios": "https://dc.lft.to/lastmile_qr_scan"}, "lat": 38.918582666666666, "is_disabled": 0, "lon": -76.960945}, {"fusion_lat": 0.0, "type": "electric_scooter", "name": "ca12fe74ab9e8a766a5ee0ac246066ac", "fusion_lon": 0.0, "bike_id": "ca12fe74ab9e8a766a5ee0ac246066ac", "is_reserved": 0, "rental_uris": {"android": "https://dc.lft.to/lastmile_qr_scan", "ios": "https://dc.lft.to/lastmile_qr_scan"}, "lat": 38.887187833333336, "is_disabled": 0, "lon": -77.0178335}, {"fusion_lat": 0.0, "type": "electric_scooter", "name": "421eb5296342e2bfa61343d287f14e7b", "fusion_lon": 0.0, "bike_id": "421eb5296342e2bfa61343d287f14e7b", "is_reserved": 0, "rental_uris": {"android": "https://dc.lft.to/lastmile_qr_scan", "ios": "https://dc.lft.to/lastmile_qr_scan"}, "lat": 38.917650333333334, "is_disabled": 0, "lon": -77.0149405}, {"fusion_lat": 0.0, "type": "electric_scooter", "name": "7d023f7938537106db4d4308777b0e23", "fusion_lon": 0.0, "bike_id": "7d023f7938537106db4d4308777b0e23", "is_reserved": 0, "rental_uris": {"android": "https://dc.lft.to/lastmile_qr_scan", "ios": "https://dc.lft.to/lastmile_qr_scan"}, "lat": 38.921665833333336, "is_disabled": 0, "lon": -77.03379416666667}, {"fusion_lat": 0.0, "type": "electric_scooter", "name": "c855e0d879410819e29448d9137730f9", "fusion_lon": 0.0, "bike_id": "c855e0d879410819e29448d9137730f9", "is_reserved": 0, "rental_uris": {"android": "https://dc.lft.to/lastmile_qr_scan", "ios": "https://dc.lft.to/lastmile_qr_scan"}, "lat": 38.900526166666666, "is_disabled": 0, "lon": -76.99033366666667}, {"fusion_lat": 0.0, "type": "electric_bike", "name": "49af594c181844558e5652b1dcc953a0", "fusion_lon": 0.0, "bike_id": "49af594c181844558e5652b1dcc953a0", "is_reserved": 0, "rental_uris": {"android": "https://dc.lft.to/lastmile_qr_scan", "ios": "https://dc.lft.to/lastmile_qr_scan"}, "lat": 38.91928716666666, "is_disabled": 0, "lon": -77.0738465}, {"fusion_lat": 0.0, "type": "electric_scooter", "name": "b794068f7530b9639365dd21766e0eae", "fusion_lon": 0.0, "bike_id": "b794068f7530b9639365dd21766e0eae", "is_reserved": 0, "rental_uris": {"android": "https://dc.lft.to/lastmile_qr_scan", "ios": "https://dc.lft.to/lastmile_qr_scan"}, "lat": 38.882188, "is_disabled": 0, "lon": -77.01696633333333}, {"fusion_lat": 0.0, "type": "electric_bike", "name": "4f43be8c9ca73c852ce56f2d991f2aba", "fusion_lon": 0.0, "bike_id": "4f43be8c9ca73c852ce56f2d991f2aba", "is_reserved": 0, "rental_uris": {"android": "https://dc.lft.to/lastmile_qr_scan", "ios": "https://dc.lft.to/lastmile_qr_scan"}, "lat": 38.85014783333333, "is_disabled": 0, "lon": -77.09820466666666}, {"fusion_lat": 0.0, "type": "electric_scooter", "name": "d41ecf695073caadc496964f82c652af", "fusion_lon": 0.0, "bike_id": "d41ecf695073caadc496964f82c652af", "is_reserved": 0, "rental_uris": {"android": "https://dc.lft.to/lastmile_qr_scan", "ios": "https://dc.lft.to/lastmile_qr_scan"}, "lat": 38.90630316666667, "is_disabled": 0, "lon": -77.048882}, {"fusion_lat": 0.0, "type": "electric_scooter", "name": "0c63448fc95a99489e69a3ca6da1d28a", "fusion_lon": 0.0, "bike_id": "0c63448fc95a99489e69a3ca6da1d28a", "is_reserved": 0, "rental_uris": {"android": "https://dc.lft.to/lastmile_qr_scan", "ios": "https://dc.lft.to/lastmile_qr_scan"}, "lat": 38.921610333333334, "is_disabled": 0, "lon": -77.03263533333333}, {"fusion_lat": 0.0, "type": "electric_scooter", "name": "17c272e071f26dda8f46bfb331977495", "fusion_lon": 0.0, "bike_id": "17c272e071f26dda8f46bfb331977495", "is_reserved": 0, "rental_uris": {"android": "https://dc.lft.to/lastmile_qr_scan", "ios": "https://dc.lft.to/lastmile_qr_scan"}, "lat": 38.911049166666665, "is_disabled": 0, "lon": -77.00210533333333}, {"fusion_lat": 0.0, "type": "electric_scooter", "name": "887861eda729991299004f19c2ae1b56", "fusion_lon": 0.0, "bike_id": "887861eda729991299004f19c2ae1b56", "is_reserved": 0, "rental_uris": {"android": "https://dc.lft.to/lastmile_qr_scan", "ios": "https://dc.lft.to/lastmile_qr_scan"}, "lat": 38.91811783333333, "is_disabled": 0, "lon": -77.028118}, {"fusion_lat": 0.0, "type": "electric_scooter", "name": "6b730936824cff71a594619a73661fd4", "fusion_lon": 0.0, "bike_id": "6b730936824cff71a594619a73661fd4", "is_reserved": 0, "rental_uris": {"android": "https://dc.lft.to/lastmile_qr_scan", "ios": "https://dc.lft.to/lastmile_qr_scan"}, "lat": 38.890153833333336, "is_disabled": 0, "lon": -76.93731466666667}, {"fusion_lat": 0.0, "type": "electric_scooter", "name": "2c349c749a11b191c6a4eff99b9b8b2b", "fusion_lon": 0.0, "bike_id": "2c349c749a11b191c6a4eff99b9b8b2b", "is_reserved": 0, "rental_uris": {"android": "https://dc.lft.to/lastmile_qr_scan", "ios": "https://dc.lft.to/lastmile_qr_scan"}, "lat": 38.909598833333334, "is_disabled": 0, "lon": -77.02202883333334}, {"fusion_lat": 0.0, "type": "electric_scooter", "name": "3e8874079846e01d476f32b16dd6be03", "fusion_lon": 0.0, "bike_id": "3e8874079846e01d476f32b16dd6be03", "is_reserved": 0, "rental_uris": {"android": "https://dc.lft.to/lastmile_qr_scan", "ios": "https://dc.lft.to/lastmile_qr_scan"}, "lat": 38.93097683333333, "is_disabled": 0, "lon": -77.026626}, {"fusion_lat": 0.0, "type": "electric_scooter", "name": "dcfce62c73bc1e7065bcaac504f58a1c", "fusion_lon": 0.0, "bike_id": "dcfce62c73bc1e7065bcaac504f58a1c", "is_reserved": 0, "rental_uris": {"android": "https://dc.lft.to/lastmile_qr_scan", "ios": "https://dc.lft.to/lastmile_qr_scan"}, "lat": 38.90735883333333, "is_disabled": 0, "lon": -77.03189583333334}, {"fusion_lat": 0.0, "type": "electric_scooter", "name": "b80e6c9d0743fcc062b7dcd4e6ed7b98", "fusion_lon": 0.0, "bike_id": "b80e6c9d0743fcc062b7dcd4e6ed7b98", "is_reserved": 0, "rental_uris": {"android": "https://dc.lft.to/lastmile_qr_scan", "ios": "https://dc.lft.to/lastmile_qr_scan"}, "lat": 38.862582833333335, "is_disabled": 0, "lon": -76.99608616666667}, {"fusion_lat": 0.0, "type": "electric_scooter", "name": "7a513c6040b719ee0007dcd2fa045960", "fusion_lon": 0.0, "bike_id": "7a513c6040b719ee0007dcd2fa045960", "is_reserved": 0, "rental_uris": {"android": "https://dc.lft.to/lastmile_qr_scan", "ios": "https://dc.lft.to/lastmile_qr_scan"}, "lat": 38.897178, "is_disabled": 0, "lon": -77.027121}, {"fusion_lat": 0.0, "type": "electric_scooter", "name": "c60e0c3289ca6d177e66c54d64f1fa55", "fusion_lon": 0.0, "bike_id": "c60e0c3289ca6d177e66c54d64f1fa55", "is_reserved": 0, "rental_uris": {"android": "https://dc.lft.to/lastmile_qr_scan", "ios": "https://dc.lft.to/lastmile_qr_scan"}, "lat": 38.8987945, "is_disabled": 0, "lon": -76.93191866666666}, {"fusion_lat": 0.0, "type": "electric_scooter", "name": "3094395cbf8ef824d657cbdf2d43138e", "fusion_lon": 0.0, "bike_id": "3094395cbf8ef824d657cbdf2d43138e", "is_reserved": 0, "rental_uris": {"android": "https://dc.lft.to/lastmile_qr_scan", "ios": "https://dc.lft.to/lastmile_qr_scan"}, "lat": 38.9289335, "is_disabled": 0, "lon": -77.01939316666666}, {"fusion_lat": 0.0, "type": "electric_scooter", "name": "ad9ab169bd14a6e1d5336b8cb541a883", "fusion_lon": 0.0, "bike_id": "ad9ab169bd14a6e1d5336b8cb541a883", "is_reserved": 0, "rental_uris": {"android": "https://dc.lft.to/lastmile_qr_scan", "ios": "https://dc.lft.to/lastmile_qr_scan"}, "lat": 38.90183316666667, "is_disabled": 0, "lon": -77.051235}, {"fusion_lat": 0.0, "type": "electric_scooter", "name": "09133e74089808ede4a3f5dea49f79fe", "fusion_lon": 0.0, "bike_id": "09133e74089808ede4a3f5dea49f79fe", "is_reserved": 0, "rental_uris": {"android": "https://dc.lft.to/lastmile_qr_scan", "ios": "https://dc.lft.to/lastmile_qr_scan"}, "lat": 38.9360725, "is_disabled": 0, "lon": -77.05889333333333}, {"fusion_lat": 0.0, "type": "electric_scooter", "name": "5ec1525d280778f5abf9144f4cf50773", "fusion_lon": 0.0, "bike_id": "5ec1525d280778f5abf9144f4cf50773", "is_reserved": 0, "rental_uris": {"android": "https://dc.lft.to/lastmile_qr_scan", "ios": "https://dc.lft.to/lastmile_qr_scan"}, "lat": 38.8860645, "is_disabled": 0, "lon": -77.019844}, {"fusion_lat": 0.0, "type": "electric_scooter", "name": "2e2be65009e7a66c2bf0146615a0856b", "fusion_lon": 0.0, "bike_id": "2e2be65009e7a66c2bf0146615a0856b", "is_reserved": 0, "rental_uris": {"android": "https://dc.lft.to/lastmile_qr_scan", "ios": "https://dc.lft.to/lastmile_qr_scan"}, "lat": 38.914201166666665, "is_disabled": 0, "lon": -77.03812033333334}, {"fusion_lat": 0.0, "type": "electric_scooter", "name": "a691e56d83bb647dc44b0a4d5044a2d0", "fusion_lon": 0.0, "bike_id": "a691e56d83bb647dc44b0a4d5044a2d0", "is_reserved": 0, "rental_uris": {"android": "https://dc.lft.to/lastmile_qr_scan", "ios": "https://dc.lft.to/lastmile_qr_scan"}, "lat": 38.8951225, "is_disabled": 0, "lon": -76.948885}, {"fusion_lat": 0.0, "type": "electric_scooter", "name": "f6393e1a1d52cbd2540cf5f3e47c131e", "fusion_lon": 0.0, "bike_id": "f6393e1a1d52cbd2540cf5f3e47c131e", "is_reserved": 0, "rental_uris": {"android": "https://dc.lft.to/lastmile_qr_scan", "ios": "https://dc.lft.to/lastmile_qr_scan"}, "lat": 38.87185066666667, "is_disabled": 0, "lon": -77.00588766666667}, {"fusion_lat": 0.0, "type": "electric_scooter", "name": "ec9a7921d7ac6a103cd86c7cb2df171b", "fusion_lon": 0.0, "bike_id": "ec9a7921d7ac6a103cd86c7cb2df171b", "is_reserved": 0, "rental_uris": {"android": "https://dc.lft.to/lastmile_qr_scan", "ios": "https://dc.lft.to/lastmile_qr_scan"}, "lat": 38.9113485, "is_disabled": 0, "lon": -77.04408566666666}, {"fusion_lat": 0.0, "type": "electric_scooter", "name": "1f96bccc9ff6e97acff3354d9c5142a8", "fusion_lon": 0.0, "bike_id": "1f96bccc9ff6e97acff3354d9c5142a8", "is_reserved": 0, "rental_uris": {"android": "https://dc.lft.to/lastmile_qr_scan", "ios": "https://dc.lft.to/lastmile_qr_scan"}, "lat": 38.942020666666664, "is_disabled": 0, "lon": -77.025043}, {"fusion_lat": 0.0, "type": "electric_scooter", "name": "150c755431ccd3e576f390ec65819547", "fusion_lon": 0.0, "bike_id": "150c755431ccd3e576f390ec65819547", "is_reserved": 0, "rental_uris": {"android": "https://dc.lft.to/lastmile_qr_scan", "ios": "https://dc.lft.to/lastmile_qr_scan"}, "lat": 38.865056833333334, "is_disabled": 0, "lon": -76.9900455}, {"fusion_lat": 0.0, "type": "electric_bike", "name": "f1c80e8836299265fcfb67fe0b266129", "fusion_lon": 0.0, "bike_id": "f1c80e8836299265fcfb67fe0b266129", "is_reserved": 0, "rental_uris": {"android": "https://dc.lft.to/lastmile_qr_scan", "ios": "https://dc.lft.to/lastmile_qr_scan"}, "lat": 38.957643166666664, "is_disabled": 0, "lon": -77.00712516666667}, {"fusion_lat": 0.0, "type": "electric_scooter", "name": "c4ae6da7df4d75b4212cf9ebf4c1ec3c", "fusion_lon": 0.0, "bike_id": "c4ae6da7df4d75b4212cf9ebf4c1ec3c", "is_reserved": 0, "rental_uris": {"android": "https://dc.lft.to/lastmile_qr_scan", "ios": "https://dc.lft.to/lastmile_qr_scan"}, "lat": 38.949932833333335, "is_disabled": 0, "lon": -77.027024}, {"fusion_lat": 0.0, "type": "electric_scooter", "name": "41e55d72eb7a5eb0ee287facaed612b7", "fusion_lon": 0.0, "bike_id": "41e55d72eb7a5eb0ee287facaed612b7", "is_reserved": 0, "rental_uris": {"android": "https://dc.lft.to/lastmile_qr_scan", "ios": "https://dc.lft.to/lastmile_qr_scan"}, "lat": 38.90747916666667, "is_disabled": 0, "lon": -77.04194266666667}, {"fusion_lat": 0.0, "type": "electric_scooter", "name": "aab2972f0c5a50b01808eb3f43766078", "fusion_lon": 0.0, "bike_id": "aab2972f0c5a50b01808eb3f43766078", "is_reserved": 0, "rental_uris": {"android": "https://dc.lft.to/lastmile_qr_scan", "ios": "https://dc.lft.to/lastmile_qr_scan"}, "lat": 38.91594666666667, "is_disabled": 0, "lon": -77.03517416666666}, {"fusion_lat": 0.0, "type": "electric_scooter", "name": "a847721b384802bb0a8d4938aafad9da", "fusion_lon": 0.0, "bike_id": "a847721b384802bb0a8d4938aafad9da", "is_reserved": 0, "rental_uris": {"android": "https://dc.lft.to/lastmile_qr_scan", "ios": "https://dc.lft.to/lastmile_qr_scan"}, "lat": 38.9110785, "is_disabled": 0, "lon": -77.01903933333334}, {"fusion_lat": 0.0, "type": "electric_bike", "name": "e56c8ec1e91ec5a3e47bc6cad1dfae72", "fusion_lon": 0.0, "bike_id": "e56c8ec1e91ec5a3e47bc6cad1dfae72", "is_reserved": 0, "rental_uris": {"android": "https://dc.lft.to/lastmile_qr_scan", "ios": "https://dc.lft.to/lastmile_qr_scan"}, "lat": 38.9480795, "is_disabled": 0, "lon": -76.95968333333333}, {"fusion_lat": 0.0, "type": "electric_scooter", "name": "6b93a394351dc27c569a263dc87c43d5", "fusion_lon": 0.0, "bike_id": "6b93a394351dc27c569a263dc87c43d5", "is_reserved": 0, "rental_uris": {"android": "https://dc.lft.to/lastmile_qr_scan", "ios": "https://dc.lft.to/lastmile_qr_scan"}, "lat": 38.90073433333333, "is_disabled": 0, "lon": -77.04537783333333}, {"fusion_lat": 0.0, "type": "electric_scooter", "name": "24d79104665d7131dbcdad72e656cc1e", "fusion_lon": 0.0, "bike_id": "24d79104665d7131dbcdad72e656cc1e", "is_reserved": 0, "rental_uris": {"android": "https://dc.lft.to/lastmile_qr_scan", "ios": "https://dc.lft.to/lastmile_qr_scan"}, "lat": 38.92041183333333, "is_disabled": 0, "lon": -77.03641416666666}, {"fusion_lat": 0.0, "type": "electric_scooter", "name": "4062c44e0b4d5e2d331e9ef5f87be162", "fusion_lon": 0.0, "bike_id": "4062c44e0b4d5e2d331e9ef5f87be162", "is_reserved": 0, "rental_uris": {"android": "https://dc.lft.to/lastmile_qr_scan", "ios": "https://dc.lft.to/lastmile_qr_scan"}, "lat": 38.9342325, "is_disabled": 0, "lon": -77.04401416666667}, {"fusion_lat": 0.0, "type": "electric_scooter", "name": "4b0f4f2331d3f75c2b40cdf9b0b1eee6", "fusion_lon": 0.0, "bike_id": "4b0f4f2331d3f75c2b40cdf9b0b1eee6", "is_reserved": 0, "rental_uris": {"android": "https://dc.lft.to/lastmile_qr_scan", "ios": "https://dc.lft.to/lastmile_qr_scan"}, "lat": 38.89852233333333, "is_disabled": 0, "lon": -76.99035116666667}, {"fusion_lat": 0.0, "type": "electric_scooter", "name": "e7b7bcfe8aa8f017d52f47f84d1c3be7", "fusion_lon": 0.0, "bike_id": "e7b7bcfe8aa8f017d52f47f84d1c3be7", "is_reserved": 0, "rental_uris": {"android": "https://dc.lft.to/lastmile_qr_scan", "ios": "https://dc.lft.to/lastmile_qr_scan"}, "lat": 38.920010833333336, "is_disabled": 0, "lon": -77.02401133333333}, {"fusion_lat": 0.0, "type": "electric_scooter", "name": "28599ab3f5c3ec7f7890e058b8311d7f", "fusion_lon": 0.0, "bike_id": "28599ab3f5c3ec7f7890e058b8311d7f", "is_reserved": 0, "rental_uris": {"android": "https://dc.lft.to/lastmile_qr_scan", "ios": "https://dc.lft.to/lastmile_qr_scan"}, "lat": 38.906170833333334, "is_disabled": 0, "lon": -77.05147166666667}, {"fusion_lat": 0.0, "type": "electric_scooter", "name": "333cc50c52d7aaafe3316ada124186ee", "fusion_lon": 0.0, "bike_id": "333cc50c52d7aaafe3316ada124186ee", "is_reserved": 0, "rental_uris": {"android": "https://dc.lft.to/lastmile_qr_scan", "ios": "https://dc.lft.to/lastmile_qr_scan"}, "lat": 38.90738066666667, "is_disabled": 0, "lon": -77.03192466666667}, {"fusion_lat": 0.0, "type": "electric_scooter", "name": "7c841884a6444541f31f8ab2d3571ace", "fusion_lon": 0.0, "bike_id": "7c841884a6444541f31f8ab2d3571ace", "is_reserved": 0, "rental_uris": {"android": "https://dc.lft.to/lastmile_qr_scan", "ios": "https://dc.lft.to/lastmile_qr_scan"}, "lat": 38.87633616666667, "is_disabled": 0, "lon": -77.01259883333333}, {"fusion_lat": 0.0, "type": "electric_scooter", "name": "43e9774c83b7801c89ae36c3a61b2974", "fusion_lon": 0.0, "bike_id": "43e9774c83b7801c89ae36c3a61b2974", "is_reserved": 0, "rental_uris": {"android": "https://dc.lft.to/lastmile_qr_scan", "ios": "https://dc.lft.to/lastmile_qr_scan"}, "lat": 38.943273833333336, "is_disabled": 0, "lon": -77.0268285}, {"fusion_lat": 0.0, "type": "electric_scooter", "name": "de258478c54cef26a3e1c2d7ed369e08", "fusion_lon": 0.0, "bike_id": "de258478c54cef26a3e1c2d7ed369e08", "is_reserved": 0, "rental_uris": {"android": "https://dc.lft.to/lastmile_qr_scan", "ios": "https://dc.lft.to/lastmile_qr_scan"}, "lat": 38.90956583333333, "is_disabled": 0, "lon": -76.98539183333334}, {"fusion_lat": 0.0, "type": "electric_scooter", "name": "3b879e9801f3f8fc009081e8022dffc5", "fusion_lon": 0.0, "bike_id": "3b879e9801f3f8fc009081e8022dffc5", "is_reserved": 0, "rental_uris": {"android": "https://dc.lft.to/lastmile_qr_scan", "ios": "https://dc.lft.to/lastmile_qr_scan"}, "lat": 38.8746695, "is_disabled": 0, "lon": -77.01897483333333}, {"fusion_lat": 0.0, "type": "electric_scooter", "name": "b267ad91d26804421aa843c6bcfd783c", "fusion_lon": 0.0, "bike_id": "b267ad91d26804421aa843c6bcfd783c", "is_reserved": 0, "rental_uris": {"android": "https://dc.lft.to/lastmile_qr_scan", "ios": "https://dc.lft.to/lastmile_qr_scan"}, "lat": 38.880881, "is_disabled": 0, "lon": -76.998443}, {"fusion_lat": 0.0, "type": "electric_scooter", "name": "fb37c5d0c290212d8155336e8a7e2fc8", "fusion_lon": 0.0, "bike_id": "fb37c5d0c290212d8155336e8a7e2fc8", "is_reserved": 0, "rental_uris": {"android": "https://dc.lft.to/lastmile_qr_scan", "ios": "https://dc.lft.to/lastmile_qr_scan"}, "lat": 38.952814333333336, "is_disabled": 0, "lon": -77.0698775}, {"fusion_lat": 0.0, "type": "electric_scooter", "name": "a4278fad8c1aacf6cac05620bdbf6fc3", "fusion_lon": 0.0, "bike_id": "a4278fad8c1aacf6cac05620bdbf6fc3", "is_reserved": 0, "rental_uris": {"android": "https://dc.lft.to/lastmile_qr_scan", "ios": "https://dc.lft.to/lastmile_qr_scan"}, "lat": 38.91637033333333, "is_disabled": 0, "lon": -77.042504}, {"fusion_lat": 0.0, "type": "electric_scooter", "name": "1c1b726a0bd7105a50358334c0b7c1a0", "fusion_lon": 0.0, "bike_id": "1c1b726a0bd7105a50358334c0b7c1a0", "is_reserved": 0, "rental_uris": {"android": "https://dc.lft.to/lastmile_qr_scan", "ios": "https://dc.lft.to/lastmile_qr_scan"}, "lat": 38.903173833333334, "is_disabled": 0, "lon": -76.991111}, {"fusion_lat": 0.0, "type": "electric_scooter", "name": "493dd637937a96335bd4a561a461fc1f", "fusion_lon": 0.0, "bike_id": "493dd637937a96335bd4a561a461fc1f", "is_reserved": 0, "rental_uris": {"android": "https://dc.lft.to/lastmile_qr_scan", "ios": "https://dc.lft.to/lastmile_qr_scan"}, "lat": 38.92492166666667, "is_disabled": 0, "lon": -77.04158633333333}, {"fusion_lat": 0.0, "type": "electric_scooter", "name": "26ea640a980b40d686717168770f3771", "fusion_lon": 0.0, "bike_id": "26ea640a980b40d686717168770f3771", "is_reserved": 0, "rental_uris": {"android": "https://dc.lft.to/lastmile_qr_scan", "ios": "https://dc.lft.to/lastmile_qr_scan"}, "lat": 38.872873166666665, "is_disabled": 0, "lon": -77.00987633333334}, {"fusion_lat": 0.0, "type": "electric_scooter", "name": "f44bbfbf3a2e290380523a5e94f91e0e", "fusion_lon": 0.0, "bike_id": "f44bbfbf3a2e290380523a5e94f91e0e", "is_reserved": 0, "rental_uris": {"android": "https://dc.lft.to/lastmile_qr_scan", "ios": "https://dc.lft.to/lastmile_qr_scan"}, "lat": 38.898969666666666, "is_disabled": 0, "lon": -77.03933683333334}, {"fusion_lat": 0.0, "type": "electric_scooter", "name": "b56f0d36d8df001fb56a6bedbe413843", "fusion_lon": 0.0, "bike_id": "b56f0d36d8df001fb56a6bedbe413843", "is_reserved": 0, "rental_uris": {"android": "https://dc.lft.to/lastmile_qr_scan", "ios": "https://dc.lft.to/lastmile_qr_scan"}, "lat": 38.924067, "is_disabled": 0, "lon": -77.02977616666666}, {"fusion_lat": 0.0, "type": "electric_scooter", "name": "cfd87b9bf80d357437ac7ef634623fd8", "fusion_lon": 0.0, "bike_id": "cfd87b9bf80d357437ac7ef634623fd8", "is_reserved": 0, "rental_uris": {"android": "https://dc.lft.to/lastmile_qr_scan", "ios": "https://dc.lft.to/lastmile_qr_scan"}, "lat": 38.86011366666666, "is_disabled": 0, "lon": -76.98520083333334}, {"fusion_lat": 0.0, "type": "electric_scooter", "name": "b91e91ce64250adb4d41c4e7a69902ab", "fusion_lon": 0.0, "bike_id": "b91e91ce64250adb4d41c4e7a69902ab", "is_reserved": 0, "rental_uris": {"android": "https://dc.lft.to/lastmile_qr_scan", "ios": "https://dc.lft.to/lastmile_qr_scan"}, "lat": 38.91683116666667, "is_disabled": 0, "lon": -77.01577383333333}, {"fusion_lat": 0.0, "type": "electric_scooter", "name": "19bb1dcc9f7b432cb876d936989da6b1", "fusion_lon": 0.0, "bike_id": "19bb1dcc9f7b432cb876d936989da6b1", "is_reserved": 0, "rental_uris": {"android": "https://dc.lft.to/lastmile_qr_scan", "ios": "https://dc.lft.to/lastmile_qr_scan"}, "lat": 38.935753166666665, "is_disabled": 0, "lon": -77.0352265}, {"fusion_lat": 0.0, "type": "electric_scooter", "name": "254d9a05f73f453d293bcd0debed827c", "fusion_lon": 0.0, "bike_id": "254d9a05f73f453d293bcd0debed827c", "is_reserved": 0, "rental_uris": {"android": "https://dc.lft.to/lastmile_qr_scan", "ios": "https://dc.lft.to/lastmile_qr_scan"}, "lat": 38.883469166666664, "is_disabled": 0, "lon": -76.985666}, {"fusion_lat": 0.0, "type": "electric_scooter", "name": "b0da19cf858b15f020bb9fe5154ecca8", "fusion_lon": 0.0, "bike_id": "b0da19cf858b15f020bb9fe5154ecca8", "is_reserved": 0, "rental_uris": {"android": "https://dc.lft.to/lastmile_qr_scan", "ios": "https://dc.lft.to/lastmile_qr_scan"}, "lat": 38.9318365, "is_disabled": 0, "lon": -77.038488}, {"fusion_lat": 0.0, "type": "electric_scooter", "name": "fc592012f43563b63b539bfbecc1f531", "fusion_lon": 0.0, "bike_id": "fc592012f43563b63b539bfbecc1f531", "is_reserved": 0, "rental_uris": {"android": "https://dc.lft.to/lastmile_qr_scan", "ios": "https://dc.lft.to/lastmile_qr_scan"}, "lat": 38.86699383333333, "is_disabled": 0, "lon": -76.98714383333333}, {"fusion_lat": 0.0, "type": "electric_scooter", "name": "48fa080c63e0b4655b73638fb0964073", "fusion_lon": 0.0, "bike_id": "48fa080c63e0b4655b73638fb0964073", "is_reserved": 0, "rental_uris": {"android": "https://dc.lft.to/lastmile_qr_scan", "ios": "https://dc.lft.to/lastmile_qr_scan"}, "lat": 38.92739016666667, "is_disabled": 0, "lon": -77.07335183333333}, {"fusion_lat": 0.0, "type": "electric_scooter", "name": "c59211b0ba27d9537e2e2c98595d03a1", "fusion_lon": 0.0, "bike_id": "c59211b0ba27d9537e2e2c98595d03a1", "is_reserved": 0, "rental_uris": {"android": "https://dc.lft.to/lastmile_qr_scan", "ios": "https://dc.lft.to/lastmile_qr_scan"}, "lat": 38.925067166666665, "is_disabled": 0, "lon": -77.05761966666667}, {"fusion_lat": 0.0, "type": "electric_bike", "name": "5e2d50a6670e5f15ed484d6a307421fe", "fusion_lon": 0.0, "bike_id": "5e2d50a6670e5f15ed484d6a307421fe", "is_reserved": 0, "rental_uris": {"android": "https://dc.lft.to/lastmile_qr_scan", "ios": "https://dc.lft.to/lastmile_qr_scan"}, "lat": 38.992327333333336, "is_disabled": 0, "lon": -77.03224133333333}, {"fusion_lat": 0.0, "type": "electric_scooter", "name": "c791e4d1ba341fa37a85a4ed2ce6e9ad", "fusion_lon": 0.0, "bike_id": "c791e4d1ba341fa37a85a4ed2ce6e9ad", "is_reserved": 0, "rental_uris": {"android": "https://dc.lft.to/lastmile_qr_scan", "ios": "https://dc.lft.to/lastmile_qr_scan"}, "lat": 38.8922655, "is_disabled": 0, "lon": -77.03181733333334}, {"fusion_lat": 0.0, "type": "electric_scooter", "name": "ee890ee2c9c6daad9cadb3b14a5e7f40", "fusion_lon": 0.0, "bike_id": "ee890ee2c9c6daad9cadb3b14a5e7f40", "is_reserved": 0, "rental_uris": {"android": "https://dc.lft.to/lastmile_qr_scan", "ios": "https://dc.lft.to/lastmile_qr_scan"}, "lat": 38.914883833333334, "is_disabled": 0, "lon": -77.02185966666667}, {"fusion_lat": 0.0, "type": "electric_scooter", "name": "50d4884c7b43e5b936e76e79e8c34661", "fusion_lon": 0.0, "bike_id": "50d4884c7b43e5b936e76e79e8c34661", "is_reserved": 0, "rental_uris": {"android": "https://dc.lft.to/lastmile_qr_scan", "ios": "https://dc.lft.to/lastmile_qr_scan"}, "lat": 38.9049225, "is_disabled": 0, "lon": -77.038695}, {"fusion_lat": 0.0, "type": "electric_scooter", "name": "e0aff611461270c3918edc47ac16ec0d", "fusion_lon": 0.0, "bike_id": "e0aff611461270c3918edc47ac16ec0d", "is_reserved": 0, "rental_uris": {"android": "https://dc.lft.to/lastmile_qr_scan", "ios": "https://dc.lft.to/lastmile_qr_scan"}, "lat": 38.91343533333333, "is_disabled": 0, "lon": -77.00922583333333}, {"fusion_lat": 0.0, "type": "electric_scooter", "name": "d40e3c4a44cd824cc63f89b19c9746dd", "fusion_lon": 0.0, "bike_id": "d40e3c4a44cd824cc63f89b19c9746dd", "is_reserved": 0, "rental_uris": {"android": "https://dc.lft.to/lastmile_qr_scan", "ios": "https://dc.lft.to/lastmile_qr_scan"}, "lat": 38.922003833333335, "is_disabled": 0, "lon": -77.02980266666667}, {"fusion_lat": 0.0, "type": "electric_bike", "name": "fedb30f01369b29572292e2b4ca4db89", "fusion_lon": 0.0, "bike_id": "fedb30f01369b29572292e2b4ca4db89", "is_reserved": 0, "rental_uris": {"android": "https://dc.lft.to/lastmile_qr_scan", "ios": "https://dc.lft.to/lastmile_qr_scan"}, "lat": 38.88046283333333, "is_disabled": 0, "lon": -77.01131833333334}, {"fusion_lat": 0.0, "type": "electric_scooter", "name": "17030de4118932766b1e5b5251352e36", "fusion_lon": 0.0, "bike_id": "17030de4118932766b1e5b5251352e36", "is_reserved": 0, "rental_uris": {"android": "https://dc.lft.to/lastmile_qr_scan", "ios": "https://dc.lft.to/lastmile_qr_scan"}, "lat": 38.874741, "is_disabled": 0, "lon": -77.008735}, {"fusion_lat": 0.0, "type": "electric_scooter", "name": "5c73b1104c6310099ca55041637ea9d3", "fusion_lon": 0.0, "bike_id": "5c73b1104c6310099ca55041637ea9d3", "is_reserved": 0, "rental_uris": {"android": "https://dc.lft.to/lastmile_qr_scan", "ios": "https://dc.lft.to/lastmile_qr_scan"}, "lat": 38.93907816666667, "is_disabled": 0, "lon": -77.024741}, {"fusion_lat": 0.0, "type": "electric_bike", "name": "370b6378d697c4b7bd0e43cc9057ab32", "fusion_lon": 0.0, "bike_id": "370b6378d697c4b7bd0e43cc9057ab32", "is_reserved": 0, "rental_uris": {"android": "https://dc.lft.to/lastmile_qr_scan", "ios": "https://dc.lft.to/lastmile_qr_scan"}, "lat": 38.954237, "is_disabled": 0, "lon": -76.93280366666667}, {"fusion_lat": 0.0, "type": "electric_scooter", "name": "18b87c4d702861007326edf04b3654a3", "fusion_lon": 0.0, "bike_id": "18b87c4d702861007326edf04b3654a3", "is_reserved": 0, "rental_uris": {"android": "https://dc.lft.to/lastmile_qr_scan", "ios": "https://dc.lft.to/lastmile_qr_scan"}, "lat": 38.93959383333333, "is_disabled": 0, "lon": -77.0725}, {"fusion_lat": 0.0, "type": "electric_bike", "name": "fd1e9fc949a0b6131d6749df46ed272c", "fusion_lon": 0.0, "bike_id": "fd1e9fc949a0b6131d6749df46ed272c", "is_reserved": 0, "rental_uris": {"android": "https://dc.lft.to/lastmile_qr_scan", "ios": "https://dc.lft.to/lastmile_qr_scan"}, "lat": 38.86581116666667, "is_disabled": 0, "lon": -77.04763316666667}, {"fusion_lat": 0.0, "type": "electric_scooter", "name": "a93f58b4fd68a2a12ec2825df103b06a", "fusion_lon": 0.0, "bike_id": "a93f58b4fd68a2a12ec2825df103b06a", "is_reserved": 0, "rental_uris": {"android": "https://dc.lft.to/lastmile_qr_scan", "ios": "https://dc.lft.to/lastmile_qr_scan"}, "lat": 38.9305065, "is_disabled": 0, "lon": -77.033548}, {"fusion_lat": 0.0, "type": "electric_scooter", "name": "298f3bcfad63ea7b6ceded464e31032a", "fusion_lon": 0.0, "bike_id": "298f3bcfad63ea7b6ceded464e31032a", "is_reserved": 0, "rental_uris": {"android": "https://dc.lft.to/lastmile_qr_scan", "ios": "https://dc.lft.to/lastmile_qr_scan"}, "lat": 38.942016833333334, "is_disabled": 0, "lon": -77.02504516666667}, {"fusion_lat": 0.0, "type": "electric_scooter", "name": "7366876ed12e553a107f696d15982d6c", "fusion_lon": 0.0, "bike_id": "7366876ed12e553a107f696d15982d6c", "is_reserved": 0, "rental_uris": {"android": "https://dc.lft.to/lastmile_qr_scan", "ios": "https://dc.lft.to/lastmile_qr_scan"}, "lat": 38.9292475, "is_disabled": 0, "lon": -77.037468}, {"fusion_lat": 0.0, "type": "electric_scooter", "name": "20c93cda233a80bfd1fe9a2f85b0ba14", "fusion_lon": 0.0, "bike_id": "20c93cda233a80bfd1fe9a2f85b0ba14", "is_reserved": 0, "rental_uris": {"android": "https://dc.lft.to/lastmile_qr_scan", "ios": "https://dc.lft.to/lastmile_qr_scan"}, "lat": 38.887442, "is_disabled": 0, "lon": -77.0273605}, {"fusion_lat": 0.0, "type": "electric_scooter", "name": "15cc076d432241043d6f3b9889f4670d", "fusion_lon": 0.0, "bike_id": "15cc076d432241043d6f3b9889f4670d", "is_reserved": 0, "rental_uris": {"android": "https://dc.lft.to/lastmile_qr_scan", "ios": "https://dc.lft.to/lastmile_qr_scan"}, "lat": 38.90429116666667, "is_disabled": 0, "lon": -77.04356716666666}, {"fusion_lat": 0.0, "type": "electric_scooter", "name": "401c771aa0c7d92b2324c105cc189d3f", "fusion_lon": 0.0, "bike_id": "401c771aa0c7d92b2324c105cc189d3f", "is_reserved": 0, "rental_uris": {"android": "https://dc.lft.to/lastmile_qr_scan", "ios": "https://dc.lft.to/lastmile_qr_scan"}, "lat": 38.92259266666667, "is_disabled": 0, "lon": -77.04305533333333}, {"fusion_lat": 0.0, "type": "electric_scooter", "name": "65dc8c91f0f2ae2c0576a12791f98a9d", "fusion_lon": 0.0, "bike_id": "65dc8c91f0f2ae2c0576a12791f98a9d", "is_reserved": 0, "rental_uris": {"android": "https://dc.lft.to/lastmile_qr_scan", "ios": "https://dc.lft.to/lastmile_qr_scan"}, "lat": 38.918208, "is_disabled": 0, "lon": -77.0418115}, {"fusion_lat": 0.0, "type": "electric_scooter", "name": "0d9b5dd9170fcfa7d2c62a01d28e5113", "fusion_lon": 0.0, "bike_id": "0d9b5dd9170fcfa7d2c62a01d28e5113", "is_reserved": 0, "rental_uris": {"android": "https://dc.lft.to/lastmile_qr_scan", "ios": "https://dc.lft.to/lastmile_qr_scan"}, "lat": 38.909015833333335, "is_disabled": 0, "lon": -77.01890983333334}, {"fusion_lat": 0.0, "type": "electric_scooter", "name": "9c6a1cd9f058d491ae0bf107f1acf116", "fusion_lon": 0.0, "bike_id": "9c6a1cd9f058d491ae0bf107f1acf116", "is_reserved": 0, "rental_uris": {"android": "https://dc.lft.to/lastmile_qr_scan", "ios": "https://dc.lft.to/lastmile_qr_scan"}, "lat": 38.905395166666665, "is_disabled": 0, "lon": -77.05702383333333}, {"fusion_lat": 0.0, "type": "electric_bike", "name": "2987be47cf08f1773e142ce0b4fa70f6", "fusion_lon": 0.0, "bike_id": "2987be47cf08f1773e142ce0b4fa70f6", "is_reserved": 0, "rental_uris": {"android": "https://dc.lft.to/lastmile_qr_scan", "ios": "https://dc.lft.to/lastmile_qr_scan"}, "lat": 38.86522566666667, "is_disabled": 0, "lon": -76.97343966666666}, {"fusion_lat": 0.0, "type": "electric_scooter", "name": "6960c5841cc2cbf422f394f6fecb2304", "fusion_lon": 0.0, "bike_id": "6960c5841cc2cbf422f394f6fecb2304", "is_reserved": 0, "rental_uris": {"android": "https://dc.lft.to/lastmile_qr_scan", "ios": "https://dc.lft.to/lastmile_qr_scan"}, "lat": 38.865050833333335, "is_disabled": 0, "lon": -76.99007383333333}, {"fusion_lat": 0.0, "type": "electric_scooter", "name": "d33e98315147b85ac1dc737c873b4d58", "fusion_lon": 0.0, "bike_id": "d33e98315147b85ac1dc737c873b4d58", "is_reserved": 0, "rental_uris": {"android": "https://dc.lft.to/lastmile_qr_scan", "ios": "https://dc.lft.to/lastmile_qr_scan"}, "lat": 38.924864666666664, "is_disabled": 0, "lon": -77.02143966666667}, {"fusion_lat": 0.0, "type": "electric_scooter", "name": "f026996e8b32bf24b43c5a561ddf0e1d", "fusion_lon": 0.0, "bike_id": "f026996e8b32bf24b43c5a561ddf0e1d", "is_reserved": 0, "rental_uris": {"android": "https://dc.lft.to/lastmile_qr_scan", "ios": "https://dc.lft.to/lastmile_qr_scan"}, "lat": 38.897509666666664, "is_disabled": 0, "lon": -77.0272965}, {"fusion_lat": 0.0, "type": "electric_scooter", "name": "a0cd1e196bfede8982a4faa61f07ce3b", "fusion_lon": 0.0, "bike_id": "a0cd1e196bfede8982a4faa61f07ce3b", "is_reserved": 0, "rental_uris": {"android": "https://dc.lft.to/lastmile_qr_scan", "ios": "https://dc.lft.to/lastmile_qr_scan"}, "lat": 38.90132466666667, "is_disabled": 0, "lon": -77.0162105}, {"fusion_lat": 0.0, "type": "electric_scooter", "name": "d0b69f333454d90c6f0fe542b4239108", "fusion_lon": 0.0, "bike_id": "d0b69f333454d90c6f0fe542b4239108", "is_reserved": 0, "rental_uris": {"android": "https://dc.lft.to/lastmile_qr_scan", "ios": "https://dc.lft.to/lastmile_qr_scan"}, "lat": 38.91921716666667, "is_disabled": 0, "lon": -77.03146316666667}, {"fusion_lat": 0.0, "type": "electric_scooter", "name": "b346a3e44698e1cdbd85b39ccc2e8234", "fusion_lon": 0.0, "bike_id": "b346a3e44698e1cdbd85b39ccc2e8234", "is_reserved": 0, "rental_uris": {"android": "https://dc.lft.to/lastmile_qr_scan", "ios": "https://dc.lft.to/lastmile_qr_scan"}, "lat": 38.8922475, "is_disabled": 0, "lon": -77.03217616666667}, {"fusion_lat": 0.0, "type": "electric_bike", "name": "24a150c39c84c2b340f6879418e191a1", "fusion_lon": 0.0, "bike_id": "24a150c39c84c2b340f6879418e191a1", "is_reserved": 0, "rental_uris": {"android": "https://dc.lft.to/lastmile_qr_scan", "ios": "https://dc.lft.to/lastmile_qr_scan"}, "lat": 38.9048195, "is_disabled": 0, "lon": -76.97326833333334}, {"fusion_lat": 0.0, "type": "electric_scooter", "name": "3012e3fc67b8aa5887c44d2c17275b0e", "fusion_lon": 0.0, "bike_id": "3012e3fc67b8aa5887c44d2c17275b0e", "is_reserved": 0, "rental_uris": {"android": "https://dc.lft.to/lastmile_qr_scan", "ios": "https://dc.lft.to/lastmile_qr_scan"}, "lat": 38.925408, "is_disabled": 0, "lon": -76.97222933333333}, {"fusion_lat": 0.0, "type": "electric_scooter", "name": "a3dcb2b929a441926b32165f8f6768b6", "fusion_lon": 0.0, "bike_id": "a3dcb2b929a441926b32165f8f6768b6", "is_reserved": 0, "rental_uris": {"android": "https://dc.lft.to/lastmile_qr_scan", "ios": "https://dc.lft.to/lastmile_qr_scan"}, "lat": 38.924532, "is_disabled": 0, "lon": -77.03404566666667}, {"fusion_lat": 0.0, "type": "electric_scooter", "name": "a07301bda9c80b83f0b8fa7e519cab92", "fusion_lon": 0.0, "bike_id": "a07301bda9c80b83f0b8fa7e519cab92", "is_reserved": 0, "rental_uris": {"android": "https://dc.lft.to/lastmile_qr_scan", "ios": "https://dc.lft.to/lastmile_qr_scan"}, "lat": 38.93629116666666, "is_disabled": 0, "lon": -77.03668216666667}, {"fusion_lat": 0.0, "type": "electric_scooter", "name": "7658cefc3741a5ccc1ebd5f06141e691", "fusion_lon": 0.0, "bike_id": "7658cefc3741a5ccc1ebd5f06141e691", "is_reserved": 0, "rental_uris": {"android": "https://dc.lft.to/lastmile_qr_scan", "ios": "https://dc.lft.to/lastmile_qr_scan"}, "lat": 38.90013483333333, "is_disabled": 0, "lon": -76.93030633333333}, {"fusion_lat": 0.0, "type": "electric_scooter", "name": "483b796407ad30dd4ad6ea47a7a5a160", "fusion_lon": 0.0, "bike_id": "483b796407ad30dd4ad6ea47a7a5a160", "is_reserved": 0, "rental_uris": {"android": "https://dc.lft.to/lastmile_qr_scan", "ios": "https://dc.lft.to/lastmile_qr_scan"}, "lat": 38.86700066666667, "is_disabled": 0, "lon": -76.98592683333334}, {"fusion_lat": 0.0, "type": "electric_scooter", "name": "f23132b806a8cac97dd0763eb0828e03", "fusion_lon": 0.0, "bike_id": "f23132b806a8cac97dd0763eb0828e03", "is_reserved": 0, "rental_uris": {"android": "https://dc.lft.to/lastmile_qr_scan", "ios": "https://dc.lft.to/lastmile_qr_scan"}, "lat": 38.907462833333334, "is_disabled": 0, "lon": -77.04492}, {"fusion_lat": 0.0, "type": "electric_scooter", "name": "2aff60d5506b7b64ac633c0f17ab8adb", "fusion_lon": 0.0, "bike_id": "2aff60d5506b7b64ac633c0f17ab8adb", "is_reserved": 0, "rental_uris": {"android": "https://dc.lft.to/lastmile_qr_scan", "ios": "https://dc.lft.to/lastmile_qr_scan"}, "lat": 38.91891716666667, "is_disabled": 0, "lon": -77.0297365}, {"fusion_lat": 0.0, "type": "electric_scooter", "name": "a55c7de94040450b04cc3d920288f2ce", "fusion_lon": 0.0, "bike_id": "a55c7de94040450b04cc3d920288f2ce", "is_reserved": 0, "rental_uris": {"android": "https://dc.lft.to/lastmile_qr_scan", "ios": "https://dc.lft.to/lastmile_qr_scan"}, "lat": 38.911569, "is_disabled": 0, "lon": -77.04344033333334}, {"fusion_lat": 0.0, "type": "electric_scooter", "name": "ee1ba873ee0554c9823f7c2f657895a0", "fusion_lon": 0.0, "bike_id": "ee1ba873ee0554c9823f7c2f657895a0", "is_reserved": 0, "rental_uris": {"android": "https://dc.lft.to/lastmile_qr_scan", "ios": "https://dc.lft.to/lastmile_qr_scan"}, "lat": 38.930413, "is_disabled": 0, "lon": -77.03797366666667}, {"fusion_lat": 0.0, "type": "electric_scooter", "name": "7212cb5553c69ff453745a8979a0134e", "fusion_lon": 0.0, "bike_id": "7212cb5553c69ff453745a8979a0134e", "is_reserved": 0, "rental_uris": {"android": "https://dc.lft.to/lastmile_qr_scan", "ios": "https://dc.lft.to/lastmile_qr_scan"}, "lat": 38.942044333333335, "is_disabled": 0, "lon": -77.0251395}, {"fusion_lat": 0.0, "type": "electric_scooter", "name": "c9767ff1a96c5ee13ea0efdda0e19a9c", "fusion_lon": 0.0, "bike_id": "c9767ff1a96c5ee13ea0efdda0e19a9c", "is_reserved": 0, "rental_uris": {"android": "https://dc.lft.to/lastmile_qr_scan", "ios": "https://dc.lft.to/lastmile_qr_scan"}, "lat": 38.904197333333336, "is_disabled": 0, "lon": -77.04286816666666}, {"fusion_lat": 0.0, "type": "electric_scooter", "name": "28a27c9cc09c426df6316eb992bdcff9", "fusion_lon": 0.0, "bike_id": "28a27c9cc09c426df6316eb992bdcff9", "is_reserved": 0, "rental_uris": {"android": "https://dc.lft.to/lastmile_qr_scan", "ios": "https://dc.lft.to/lastmile_qr_scan"}, "lat": 38.857673166666665, "is_disabled": 0, "lon": -76.99296233333334}, {"fusion_lat": 0.0, "type": "electric_scooter", "name": "9cd6690f2887cb0ebe583db0644566a7", "fusion_lon": 0.0, "bike_id": "9cd6690f2887cb0ebe583db0644566a7", "is_reserved": 0, "rental_uris": {"android": "https://dc.lft.to/lastmile_qr_scan", "ios": "https://dc.lft.to/lastmile_qr_scan"}, "lat": 38.90571533333333, "is_disabled": 0, "lon": -77.01970466666667}, {"fusion_lat": 0.0, "type": "electric_scooter", "name": "6627528cd9624d0c12e9996d5337942d", "fusion_lon": 0.0, "bike_id": "6627528cd9624d0c12e9996d5337942d", "is_reserved": 0, "rental_uris": {"android": "https://dc.lft.to/lastmile_qr_scan", "ios": "https://dc.lft.to/lastmile_qr_scan"}, "lat": 38.91982466666666, "is_disabled": 0, "lon": -77.03318366666667}, {"fusion_lat": 0.0, "type": "electric_scooter", "name": "79a86b8434662d773299fa80f7712509", "fusion_lon": 0.0, "bike_id": "79a86b8434662d773299fa80f7712509", "is_reserved": 0, "rental_uris": {"android": "https://dc.lft.to/lastmile_qr_scan", "ios": "https://dc.lft.to/lastmile_qr_scan"}, "lat": 38.93091833333333, "is_disabled": 0, "lon": -77.0253905}, {"fusion_lat": 0.0, "type": "electric_scooter", "name": "4c2b0d3d8348ff9939809a4fe0a60628", "fusion_lon": 0.0, "bike_id": "4c2b0d3d8348ff9939809a4fe0a60628", "is_reserved": 0, "rental_uris": {"android": "https://dc.lft.to/lastmile_qr_scan", "ios": "https://dc.lft.to/lastmile_qr_scan"}, "lat": 38.89224316666667, "is_disabled": 0, "lon": -77.0318835}, {"fusion_lat": 0.0, "type": "electric_bike", "name": "114d76b1b8e82eb5ef95405212d0d175", "fusion_lon": 0.0, "bike_id": "114d76b1b8e82eb5ef95405212d0d175", "is_reserved": 0, "rental_uris": {"android": "https://dc.lft.to/lastmile_qr_scan", "ios": "https://dc.lft.to/lastmile_qr_scan"}, "lat": 38.88567333333334, "is_disabled": 0, "lon": -77.16693016666666}, {"fusion_lat": 0.0, "type": "electric_scooter", "name": "5aabcbef2bef77490f37017fd6fb0744", "fusion_lon": 0.0, "bike_id": "5aabcbef2bef77490f37017fd6fb0744", "is_reserved": 0, "rental_uris": {"android": "https://dc.lft.to/lastmile_qr_scan", "ios": "https://dc.lft.to/lastmile_qr_scan"}, "lat": 38.907283166666666, "is_disabled": 0, "lon": -77.0347445}, {"fusion_lat": 0.0, "type": "electric_scooter", "name": "6fb2ff1840c0807c10cf0cc51268ae85", "fusion_lon": 0.0, "bike_id": "6fb2ff1840c0807c10cf0cc51268ae85", "is_reserved": 0, "rental_uris": {"android": "https://dc.lft.to/lastmile_qr_scan", "ios": "https://dc.lft.to/lastmile_qr_scan"}, "lat": 38.885074833333334, "is_disabled": 0, "lon": -77.02022766666667}, {"fusion_lat": 0.0, "type": "electric_scooter", "name": "c4b9e7a1f9a1b68a0374e9f023b2f100", "fusion_lon": 0.0, "bike_id": "c4b9e7a1f9a1b68a0374e9f023b2f100", "is_reserved": 0, "rental_uris": {"android": "https://dc.lft.to/lastmile_qr_scan", "ios": "https://dc.lft.to/lastmile_qr_scan"}, "lat": 38.892283166666665, "is_disabled": 0, "lon": -77.0218075}, {"fusion_lat": 0.0, "type": "electric_scooter", "name": "1f3a5ab6d7cd3a8a6321ea2cfe1417c8", "fusion_lon": 0.0, "bike_id": "1f3a5ab6d7cd3a8a6321ea2cfe1417c8", "is_reserved": 0, "rental_uris": {"android": "https://dc.lft.to/lastmile_qr_scan", "ios": "https://dc.lft.to/lastmile_qr_scan"}, "lat": 38.8922475, "is_disabled": 0, "lon": -77.03185116666667}, {"fusion_lat": 0.0, "type": "electric_scooter", "name": "e518a9774d3ff50053d5f5387ba4b002", "fusion_lon": 0.0, "bike_id": "e518a9774d3ff50053d5f5387ba4b002", "is_reserved": 0, "rental_uris": {"android": "https://dc.lft.to/lastmile_qr_scan", "ios": "https://dc.lft.to/lastmile_qr_scan"}, "lat": 38.9337815, "is_disabled": 0, "lon": -77.03562933333333}, {"fusion_lat": 0.0, "type": "electric_scooter", "name": "bc1800906c2340627275e21106512b0e", "fusion_lon": 0.0, "bike_id": "bc1800906c2340627275e21106512b0e", "is_reserved": 0, "rental_uris": {"android": "https://dc.lft.to/lastmile_qr_scan", "ios": "https://dc.lft.to/lastmile_qr_scan"}, "lat": 38.8955955, "is_disabled": 0, "lon": -77.04676783333333}, {"fusion_lat": 0.0, "type": "electric_scooter", "name": "d055173200d4ebad1bc8140fec100d5b", "fusion_lon": 0.0, "bike_id": "d055173200d4ebad1bc8140fec100d5b", "is_reserved": 0, "rental_uris": {"android": "https://dc.lft.to/lastmile_qr_scan", "ios": "https://dc.lft.to/lastmile_qr_scan"}, "lat": 38.92788783333334, "is_disabled": 0, "lon": -77.05267033333334}, {"fusion_lat": 0.0, "type": "electric_scooter", "name": "97ae4cc2279cb051d9545c91a0495c5c", "fusion_lon": 0.0, "bike_id": "97ae4cc2279cb051d9545c91a0495c5c", "is_reserved": 0, "rental_uris": {"android": "https://dc.lft.to/lastmile_qr_scan", "ios": "https://dc.lft.to/lastmile_qr_scan"}, "lat": 38.907393166666665, "is_disabled": 0, "lon": -77.02694783333334}, {"fusion_lat": 0.0, "type": "electric_scooter", "name": "5b63e621e38403addb892f40eb945fd1", "fusion_lon": 0.0, "bike_id": "5b63e621e38403addb892f40eb945fd1", "is_reserved": 0, "rental_uris": {"android": "https://dc.lft.to/lastmile_qr_scan", "ios": "https://dc.lft.to/lastmile_qr_scan"}, "lat": 38.918819, "is_disabled": 0, "lon": -77.03477516666666}, {"fusion_lat": 0.0, "type": "electric_scooter", "name": "1a7536a23a89b7cec51053b753f60c71", "fusion_lon": 0.0, "bike_id": "1a7536a23a89b7cec51053b753f60c71", "is_reserved": 0, "rental_uris": {"android": "https://dc.lft.to/lastmile_qr_scan", "ios": "https://dc.lft.to/lastmile_qr_scan"}, "lat": 38.904102, "is_disabled": 0, "lon": -77.02940766666667}, {"fusion_lat": 0.0, "type": "electric_scooter", "name": "37a7cd3eec31a187039e48920d1c9dfa", "fusion_lon": 0.0, "bike_id": "37a7cd3eec31a187039e48920d1c9dfa", "is_reserved": 0, "rental_uris": {"android": "https://dc.lft.to/lastmile_qr_scan", "ios": "https://dc.lft.to/lastmile_qr_scan"}, "lat": 38.929004, "is_disabled": 0, "lon": -77.05456066666666}, {"fusion_lat": 0.0, "type": "electric_scooter", "name": "909046f4333a361cde54a9c73a5fc6a3", "fusion_lon": 0.0, "bike_id": "909046f4333a361cde54a9c73a5fc6a3", "is_reserved": 0, "rental_uris": {"android": "https://dc.lft.to/lastmile_qr_scan", "ios": "https://dc.lft.to/lastmile_qr_scan"}, "lat": 38.9291535, "is_disabled": 0, "lon": -77.0209165}, {"fusion_lat": 0.0, "type": "electric_scooter", "name": "029528c54bb52efb48be03c165ee28ad", "fusion_lon": 0.0, "bike_id": "029528c54bb52efb48be03c165ee28ad", "is_reserved": 0, "rental_uris": {"android": "https://dc.lft.to/lastmile_qr_scan", "ios": "https://dc.lft.to/lastmile_qr_scan"}, "lat": 38.91124533333333, "is_disabled": 0, "lon": -77.06529416666666}, {"fusion_lat": 0.0, "type": "electric_scooter", "name": "11ba54f577ab41f07abfb5bda5156680", "fusion_lon": 0.0, "bike_id": "11ba54f577ab41f07abfb5bda5156680", "is_reserved": 0, "rental_uris": {"android": "https://dc.lft.to/lastmile_qr_scan", "ios": "https://dc.lft.to/lastmile_qr_scan"}, "lat": 38.880903, "is_disabled": 0, "lon": -76.930097}, {"fusion_lat": 0.0, "type": "electric_scooter", "name": "f7baa1fe5a2f75f215fa72e9a449ed90", "fusion_lon": 0.0, "bike_id": "f7baa1fe5a2f75f215fa72e9a449ed90", "is_reserved": 0, "rental_uris": {"android": "https://dc.lft.to/lastmile_qr_scan", "ios": "https://dc.lft.to/lastmile_qr_scan"}, "lat": 38.91810483333333, "is_disabled": 0, "lon": -77.03171983333333}, {"fusion_lat": 0.0, "type": "electric_scooter", "name": "3d532bee18ef79dabef30a3f42060647", "fusion_lon": 0.0, "bike_id": "3d532bee18ef79dabef30a3f42060647", "is_reserved": 0, "rental_uris": {"android": "https://dc.lft.to/lastmile_qr_scan", "ios": "https://dc.lft.to/lastmile_qr_scan"}, "lat": 38.85197216666667, "is_disabled": 0, "lon": -76.97073483333334}, {"fusion_lat": 0.0, "type": "electric_bike", "name": "053f3f7c96009406f61282ff989ba212", "fusion_lon": 0.0, "bike_id": "053f3f7c96009406f61282ff989ba212", "is_reserved": 0, "rental_uris": {"android": "https://dc.lft.to/lastmile_qr_scan", "ios": "https://dc.lft.to/lastmile_qr_scan"}, "lat": 38.8981665, "is_disabled": 0, "lon": -76.9907455}, {"fusion_lat": 0.0, "type": "electric_scooter", "name": "57882ec81bbb22a19e65cbad4b098b75", "fusion_lon": 0.0, "bike_id": "57882ec81bbb22a19e65cbad4b098b75", "is_reserved": 0, "rental_uris": {"android": "https://dc.lft.to/lastmile_qr_scan", "ios": "https://dc.lft.to/lastmile_qr_scan"}, "lat": 38.92342466666667, "is_disabled": 0, "lon": -77.0352695}, {"fusion_lat": 0.0, "type": "electric_bike", "name": "7f4b28c0c073c05bc230e0d37dbd677e", "fusion_lon": 0.0, "bike_id": "7f4b28c0c073c05bc230e0d37dbd677e", "is_reserved": 0, "rental_uris": {"android": "https://dc.lft.to/lastmile_qr_scan", "ios": "https://dc.lft.to/lastmile_qr_scan"}, "lat": 38.81204283333334, "is_disabled": 0, "lon": -77.10839483333334}, {"fusion_lat": 0.0, "type": "electric_scooter", "name": "c62432f002da06bfa2a18c935caa7c00", "fusion_lon": 0.0, "bike_id": "c62432f002da06bfa2a18c935caa7c00", "is_reserved": 0, "rental_uris": {"android": "https://dc.lft.to/lastmile_qr_scan", "ios": "https://dc.lft.to/lastmile_qr_scan"}, "lat": 38.865075166666664, "is_disabled": 0, "lon": -76.99004833333333}, {"fusion_lat": 0.0, "type": "electric_scooter", "name": "e12180705a79793a231f42ba0d6f85ee", "fusion_lon": 0.0, "bike_id": "e12180705a79793a231f42ba0d6f85ee", "is_reserved": 0, "rental_uris": {"android": "https://dc.lft.to/lastmile_qr_scan", "ios": "https://dc.lft.to/lastmile_qr_scan"}, "lat": 38.90388316666667, "is_disabled": 0, "lon": -77.01753683333334}, {"fusion_lat": 0.0, "type": "electric_scooter", "name": "90ee95f142b9fb5085c637608b0fadca", "fusion_lon": 0.0, "bike_id": "90ee95f142b9fb5085c637608b0fadca", "is_reserved": 0, "rental_uris": {"android": "https://dc.lft.to/lastmile_qr_scan", "ios": "https://dc.lft.to/lastmile_qr_scan"}, "lat": 38.89312433333333, "is_disabled": 0, "lon": -76.9291405}, {"fusion_lat": 0.0, "type": "electric_scooter", "name": "3f0cdf72fc614efdecdaf7bbb4a034e2", "fusion_lon": 0.0, "bike_id": "3f0cdf72fc614efdecdaf7bbb4a034e2", "is_reserved": 0, "rental_uris": {"android": "https://dc.lft.to/lastmile_qr_scan", "ios": "https://dc.lft.to/lastmile_qr_scan"}, "lat": 38.90753, "is_disabled": 0, "lon": -77.00101533333333}, {"fusion_lat": 0.0, "type": "electric_scooter", "name": "217f7c4baa3f828f0f112d79c69aab71", "fusion_lon": 0.0, "bike_id": "217f7c4baa3f828f0f112d79c69aab71", "is_reserved": 0, "rental_uris": {"android": "https://dc.lft.to/lastmile_qr_scan", "ios": "https://dc.lft.to/lastmile_qr_scan"}, "lat": 38.927482166666664, "is_disabled": 0, "lon": -77.02264683333334}, {"fusion_lat": 0.0, "type": "electric_scooter", "name": "ea277fe3257365453ecc2bde9e9bf919", "fusion_lon": 0.0, "bike_id": "ea277fe3257365453ecc2bde9e9bf919", "is_reserved": 0, "rental_uris": {"android": "https://dc.lft.to/lastmile_qr_scan", "ios": "https://dc.lft.to/lastmile_qr_scan"}, "lat": 38.926634166666666, "is_disabled": 0, "lon": -77.02275516666667}, {"fusion_lat": 0.0, "type": "electric_scooter", "name": "b9c7a6cdb4752439e0231e677aa11b46", "fusion_lon": 0.0, "bike_id": "b9c7a6cdb4752439e0231e677aa11b46", "is_reserved": 0, "rental_uris": {"android": "https://dc.lft.to/lastmile_qr_scan", "ios": "https://dc.lft.to/lastmile_qr_scan"}, "lat": 38.89251566666667, "is_disabled": 0, "lon": -77.039608}, {"fusion_lat": 0.0, "type": "electric_scooter", "name": "bef2a6df1306316626288ab4e8d3324f", "fusion_lon": 0.0, "bike_id": "bef2a6df1306316626288ab4e8d3324f", "is_reserved": 0, "rental_uris": {"android": "https://dc.lft.to/lastmile_qr_scan", "ios": "https://dc.lft.to/lastmile_qr_scan"}, "lat": 38.91356433333333, "is_disabled": 0, "lon": -77.033246}, {"fusion_lat": 0.0, "type": "electric_scooter", "name": "ef3c5b3ace34dd8f78741bed37803f50", "fusion_lon": 0.0, "bike_id": "ef3c5b3ace34dd8f78741bed37803f50", "is_reserved": 0, "rental_uris": {"android": "https://dc.lft.to/lastmile_qr_scan", "ios": "https://dc.lft.to/lastmile_qr_scan"}, "lat": 38.89551683333333, "is_disabled": 0, "lon": -77.00919516666667}, {"fusion_lat": 0.0, "type": "electric_scooter", "name": "a718b42526ce0b198ab04e2429333f83", "fusion_lon": 0.0, "bike_id": "a718b42526ce0b198ab04e2429333f83", "is_reserved": 0, "rental_uris": {"android": "https://dc.lft.to/lastmile_qr_scan", "ios": "https://dc.lft.to/lastmile_qr_scan"}, "lat": 38.90126983333333, "is_disabled": 0, "lon": -77.0512845}, {"fusion_lat": 0.0, "type": "electric_scooter", "name": "caa1ee5b9c39d22407c015e7138e7751", "fusion_lon": 0.0, "bike_id": "caa1ee5b9c39d22407c015e7138e7751", "is_reserved": 0, "rental_uris": {"android": "https://dc.lft.to/lastmile_qr_scan", "ios": "https://dc.lft.to/lastmile_qr_scan"}, "lat": 38.898564, "is_disabled": 0, "lon": -77.03335366666667}, {"fusion_lat": 0.0, "type": "electric_bike", "name": "7f5caf12713ea74dfb3fc675ecdf417f", "fusion_lon": 0.0, "bike_id": "7f5caf12713ea74dfb3fc675ecdf417f", "is_reserved": 0, "rental_uris": {"android": "https://dc.lft.to/lastmile_qr_scan", "ios": "https://dc.lft.to/lastmile_qr_scan"}, "lat": 38.94605266666667, "is_disabled": 0, "lon": -77.00716383333334}, {"fusion_lat": 0.0, "type": "electric_scooter", "name": "789d95978e1064fc96d64fe624b7dbc6", "fusion_lon": 0.0, "bike_id": "789d95978e1064fc96d64fe624b7dbc6", "is_reserved": 0, "rental_uris": {"android": "https://dc.lft.to/lastmile_qr_scan", "ios": "https://dc.lft.to/lastmile_qr_scan"}, "lat": 38.94870083333333, "is_disabled": 0, "lon": -77.03886716666666}, {"fusion_lat": 0.0, "type": "electric_scooter", "name": "92e335b8f78acc893b72ef515bf46c74", "fusion_lon": 0.0, "bike_id": "92e335b8f78acc893b72ef515bf46c74", "is_reserved": 0, "rental_uris": {"android": "https://dc.lft.to/lastmile_qr_scan", "ios": "https://dc.lft.to/lastmile_qr_scan"}, "lat": 38.895766333333334, "is_disabled": 0, "lon": -77.015837}, {"fusion_lat": 0.0, "type": "electric_bike", "name": "fde1f428acc7de0f418db95cdfac1b8f", "fusion_lon": 0.0, "bike_id": "fde1f428acc7de0f418db95cdfac1b8f", "is_reserved": 0, "rental_uris": {"android": "https://dc.lft.to/lastmile_qr_scan", "ios": "https://dc.lft.to/lastmile_qr_scan"}, "lat": 38.9069505, "is_disabled": 0, "lon": -76.95256333333333}, {"fusion_lat": 0.0, "type": "electric_scooter", "name": "06170edbeeb6a29368750161384fd365", "fusion_lon": 0.0, "bike_id": "06170edbeeb6a29368750161384fd365", "is_reserved": 0, "rental_uris": {"android": "https://dc.lft.to/lastmile_qr_scan", "ios": "https://dc.lft.to/lastmile_qr_scan"}, "lat": 38.92356383333333, "is_disabled": 0, "lon": -77.052813}, {"fusion_lat": 0.0, "type": "electric_scooter", "name": "60286caa21068e6e0d05e6d959a0a36a", "fusion_lon": 0.0, "bike_id": "60286caa21068e6e0d05e6d959a0a36a", "is_reserved": 0, "rental_uris": {"android": "https://dc.lft.to/lastmile_qr_scan", "ios": "https://dc.lft.to/lastmile_qr_scan"}, "lat": 38.90396783333333, "is_disabled": 0, "lon": -77.041859}, {"fusion_lat": 0.0, "type": "electric_scooter", "name": "11ea7be9de014d241675e9c10ecbc27c", "fusion_lon": 0.0, "bike_id": "11ea7be9de014d241675e9c10ecbc27c", "is_reserved": 0, "rental_uris": {"android": "https://dc.lft.to/lastmile_qr_scan", "ios": "https://dc.lft.to/lastmile_qr_scan"}, "lat": 38.901127, "is_disabled": 0, "lon": -77.04480666666667}, {"fusion_lat": 0.0, "type": "electric_scooter", "name": "ea26604319c17252150399ef790622fb", "fusion_lon": 0.0, "bike_id": "ea26604319c17252150399ef790622fb", "is_reserved": 0, "rental_uris": {"android": "https://dc.lft.to/lastmile_qr_scan", "ios": "https://dc.lft.to/lastmile_qr_scan"}, "lat": 38.925652666666664, "is_disabled": 0, "lon": -77.03746766666667}, {"fusion_lat": 0.0, "type": "electric_scooter", "name": "b5f416205ca8c2b78cf5b3f7f41305ce", "fusion_lon": 0.0, "bike_id": "b5f416205ca8c2b78cf5b3f7f41305ce", "is_reserved": 0, "rental_uris": {"android": "https://dc.lft.to/lastmile_qr_scan", "ios": "https://dc.lft.to/lastmile_qr_scan"}, "lat": 38.89173016666667, "is_disabled": 0, "lon": -76.95184916666666}, {"fusion_lat": 0.0, "type": "electric_scooter", "name": "516b0d83bac7b03c2ec4d965c899ceca", "fusion_lon": 0.0, "bike_id": "516b0d83bac7b03c2ec4d965c899ceca", "is_reserved": 0, "rental_uris": {"android": "https://dc.lft.to/lastmile_qr_scan", "ios": "https://dc.lft.to/lastmile_qr_scan"}, "lat": 38.8922465, "is_disabled": 0, "lon": -77.03183483333333}, {"fusion_lat": 0.0, "type": "electric_bike", "name": "9467d7a89be90578fedc987c2e60fdfd", "fusion_lon": 0.0, "bike_id": "9467d7a89be90578fedc987c2e60fdfd", "is_reserved": 0, "rental_uris": {"android": "https://dc.lft.to/lastmile_qr_scan", "ios": "https://dc.lft.to/lastmile_qr_scan"}, "lat": 38.956461166666664, "is_disabled": 0, "lon": -77.0225665}, {"fusion_lat": 0.0, "type": "electric_scooter", "name": "b06dbcd1094c0a8e3466eafbab1c7796", "fusion_lon": 0.0, "bike_id": "b06dbcd1094c0a8e3466eafbab1c7796", "is_reserved": 0, "rental_uris": {"android": "https://dc.lft.to/lastmile_qr_scan", "ios": "https://dc.lft.to/lastmile_qr_scan"}, "lat": 38.9420625, "is_disabled": 0, "lon": -77.025201}, {"fusion_lat": 0.0, "type": "electric_scooter", "name": "0ece4c10055984ef4559908492efc5ee", "fusion_lon": 0.0, "bike_id": "0ece4c10055984ef4559908492efc5ee", "is_reserved": 0, "rental_uris": {"android": "https://dc.lft.to/lastmile_qr_scan", "ios": "https://dc.lft.to/lastmile_qr_scan"}, "lat": 38.936078, "is_disabled": 0, "lon": -77.02920083333333}, {"fusion_lat": 0.0, "type": "electric_scooter", "name": "ea93f4e31f072ce45893d3a647ce2912", "fusion_lon": 0.0, "bike_id": "ea93f4e31f072ce45893d3a647ce2912", "is_reserved": 0, "rental_uris": {"android": "https://dc.lft.to/lastmile_qr_scan", "ios": "https://dc.lft.to/lastmile_qr_scan"}, "lat": 38.939825666666664, "is_disabled": 0, "lon": -77.03256416666666}, {"fusion_lat": 0.0, "type": "electric_scooter", "name": "42770b1eedf254688a1284decc70c5f0", "fusion_lon": 0.0, "bike_id": "42770b1eedf254688a1284decc70c5f0", "is_reserved": 0, "rental_uris": {"android": "https://dc.lft.to/lastmile_qr_scan", "ios": "https://dc.lft.to/lastmile_qr_scan"}, "lat": 38.892251, "is_disabled": 0, "lon": -77.02779133333334}, {"fusion_lat": 0.0, "type": "electric_bike", "name": "c7cd762b0c32500c44d6a3d4efc9fed5", "fusion_lon": 0.0, "bike_id": "c7cd762b0c32500c44d6a3d4efc9fed5", "is_reserved": 0, "rental_uris": {"android": "https://dc.lft.to/lastmile_qr_scan", "ios": "https://dc.lft.to/lastmile_qr_scan"}, "lat": 38.82330266666666, "is_disabled": 0, "lon": -77.05629833333333}, {"fusion_lat": 0.0, "type": "electric_scooter", "name": "ea132ecd934dab0ef4d9e3c073a34f74", "fusion_lon": 0.0, "bike_id": "ea132ecd934dab0ef4d9e3c073a34f74", "is_reserved": 0, "rental_uris": {"android": "https://dc.lft.to/lastmile_qr_scan", "ios": "https://dc.lft.to/lastmile_qr_scan"}, "lat": 38.887452833333334, "is_disabled": 0, "lon": -77.03167066666667}, {"fusion_lat": 0.0, "type": "electric_scooter", "name": "84a4ce5d136b3e7e4da33facd15d69cb", "fusion_lon": 0.0, "bike_id": "84a4ce5d136b3e7e4da33facd15d69cb", "is_reserved": 0, "rental_uris": {"android": "https://dc.lft.to/lastmile_qr_scan", "ios": "https://dc.lft.to/lastmile_qr_scan"}, "lat": 38.9105135, "is_disabled": 0, "lon": -77.03198916666666}, {"fusion_lat": 0.0, "type": "electric_scooter", "name": "17bfd8f844ee98e05caa8d1a73935b0c", "fusion_lon": 0.0, "bike_id": "17bfd8f844ee98e05caa8d1a73935b0c", "is_reserved": 0, "rental_uris": {"android": "https://dc.lft.to/lastmile_qr_scan", "ios": "https://dc.lft.to/lastmile_qr_scan"}, "lat": 38.916599166666664, "is_disabled": 0, "lon": -77.0218925}, {"fusion_lat": 0.0, "type": "electric_scooter", "name": "e5c769afcc0e077c2d67e54f3a5b603c", "fusion_lon": 0.0, "bike_id": "e5c769afcc0e077c2d67e54f3a5b603c", "is_reserved": 0, "rental_uris": {"android": "https://dc.lft.to/lastmile_qr_scan", "ios": "https://dc.lft.to/lastmile_qr_scan"}, "lat": 38.912128333333335, "is_disabled": 0, "lon": -77.03843366666666}, {"fusion_lat": 0.0, "type": "electric_scooter", "name": "21fca99dbd985a42b737dd58a1f4e932", "fusion_lon": 0.0, "bike_id": "21fca99dbd985a42b737dd58a1f4e932", "is_reserved": 0, "rental_uris": {"android": "https://dc.lft.to/lastmile_qr_scan", "ios": "https://dc.lft.to/lastmile_qr_scan"}, "lat": 38.92708016666667, "is_disabled": 0, "lon": -77.03626066666666}, {"fusion_lat": 0.0, "type": "electric_scooter", "name": "ca766998134070a9417330103b21104d", "fusion_lon": 0.0, "bike_id": "ca766998134070a9417330103b21104d", "is_reserved": 0, "rental_uris": {"android": "https://dc.lft.to/lastmile_qr_scan", "ios": "https://dc.lft.to/lastmile_qr_scan"}, "lat": 38.905762333333335, "is_disabled": 0, "lon": -77.02987016666667}, {"fusion_lat": 0.0, "type": "electric_scooter", "name": "7e24bccd7c5238de51237202ddfec991", "fusion_lon": 0.0, "bike_id": "7e24bccd7c5238de51237202ddfec991", "is_reserved": 0, "rental_uris": {"android": "https://dc.lft.to/lastmile_qr_scan", "ios": "https://dc.lft.to/lastmile_qr_scan"}, "lat": 38.88129966666666, "is_disabled": 0, "lon": -77.0167035}, {"fusion_lat": 0.0, "type": "electric_scooter", "name": "86ff6e345924fce9114ffeb1daf24b41", "fusion_lon": 0.0, "bike_id": "86ff6e345924fce9114ffeb1daf24b41", "is_reserved": 0, "rental_uris": {"android": "https://dc.lft.to/lastmile_qr_scan", "ios": "https://dc.lft.to/lastmile_qr_scan"}, "lat": 38.89549183333333, "is_disabled": 0, "lon": -77.05659}, {"fusion_lat": 0.0, "type": "electric_bike", "name": "5e4cc0ed7c8d2a9518b0d516d8ef1c19", "fusion_lon": 0.0, "bike_id": "5e4cc0ed7c8d2a9518b0d516d8ef1c19", "is_reserved": 0, "rental_uris": {"android": "https://dc.lft.to/lastmile_qr_scan", "ios": "https://dc.lft.to/lastmile_qr_scan"}, "lat": 38.82379733333333, "is_disabled": 0, "lon": -77.0022725}, {"fusion_lat": 0.0, "type": "electric_scooter", "name": "103e2872fe426c54bdd9d602511a011b", "fusion_lon": 0.0, "bike_id": "103e2872fe426c54bdd9d602511a011b", "is_reserved": 0, "rental_uris": {"android": "https://dc.lft.to/lastmile_qr_scan", "ios": "https://dc.lft.to/lastmile_qr_scan"}, "lat": 38.9232545, "is_disabled": 0, "lon": -77.02972716666666}, {"fusion_lat": 0.0, "type": "electric_scooter", "name": "59699219cb71d2979988baf4752ea06a", "fusion_lon": 0.0, "bike_id": "59699219cb71d2979988baf4752ea06a", "is_reserved": 0, "rental_uris": {"android": "https://dc.lft.to/lastmile_qr_scan", "ios": "https://dc.lft.to/lastmile_qr_scan"}, "lat": 38.91245033333333, "is_disabled": 0, "lon": -77.041625}, {"fusion_lat": 0.0, "type": "electric_bike", "name": "59ce748e07167c505a88949fb3094424", "fusion_lon": 0.0, "bike_id": "59ce748e07167c505a88949fb3094424", "is_reserved": 0, "rental_uris": {"android": "https://dc.lft.to/lastmile_qr_scan", "ios": "https://dc.lft.to/lastmile_qr_scan"}, "lat": 38.953625833333334, "is_disabled": 0, "lon": -76.9809395}, {"fusion_lat": 0.0, "type": "electric_scooter", "name": "8a6ed953c26cba4ad00be77364080729", "fusion_lon": 0.0, "bike_id": "8a6ed953c26cba4ad00be77364080729", "is_reserved": 0, "rental_uris": {"android": "https://dc.lft.to/lastmile_qr_scan", "ios": "https://dc.lft.to/lastmile_qr_scan"}, "lat": 38.950697166666664, "is_disabled": 0, "lon": -76.99564233333334}, {"fusion_lat": 0.0, "type": "electric_scooter", "name": "230ee6503701ea4c6b7beaf6506dccea", "fusion_lon": 0.0, "bike_id": "230ee6503701ea4c6b7beaf6506dccea", "is_reserved": 0, "rental_uris": {"android": "https://dc.lft.to/lastmile_qr_scan", "ios": "https://dc.lft.to/lastmile_qr_scan"}, "lat": 38.89734083333333, "is_disabled": 0, "lon": -77.02705783333333}, {"fusion_lat": 0.0, "type": "electric_scooter", "name": "b8fd0389b9139ffcfc2bb33a60117e2d", "fusion_lon": 0.0, "bike_id": "b8fd0389b9139ffcfc2bb33a60117e2d", "is_reserved": 0, "rental_uris": {"android": "https://dc.lft.to/lastmile_qr_scan", "ios": "https://dc.lft.to/lastmile_qr_scan"}, "lat": 38.900037833333336, "is_disabled": 0, "lon": -77.026377}, {"fusion_lat": 0.0, "type": "electric_scooter", "name": "9f8f73f6f64de19d6681fa4963342bb9", "fusion_lon": 0.0, "bike_id": "9f8f73f6f64de19d6681fa4963342bb9", "is_reserved": 0, "rental_uris": {"android": "https://dc.lft.to/lastmile_qr_scan", "ios": "https://dc.lft.to/lastmile_qr_scan"}, "lat": 38.89225833333333, "is_disabled": 0, "lon": -77.02345033333333}, {"fusion_lat": 0.0, "type": "electric_scooter", "name": "3c09043d999f40c1d1dafd25e783049e", "fusion_lon": 0.0, "bike_id": "3c09043d999f40c1d1dafd25e783049e", "is_reserved": 0, "rental_uris": {"android": "https://dc.lft.to/lastmile_qr_scan", "ios": "https://dc.lft.to/lastmile_qr_scan"}, "lat": 38.8884965, "is_disabled": 0, "lon": -76.926833}, {"fusion_lat": 0.0, "type": "electric_scooter", "name": "a75d2eeaab9d339930831f04da81db73", "fusion_lon": 0.0, "bike_id": "a75d2eeaab9d339930831f04da81db73", "is_reserved": 0, "rental_uris": {"android": "https://dc.lft.to/lastmile_qr_scan", "ios": "https://dc.lft.to/lastmile_qr_scan"}, "lat": 38.90496666666667, "is_disabled": 0, "lon": -77.04810783333333}, {"fusion_lat": 0.0, "type": "electric_scooter", "name": "236c3f07a8805dd6ad2b185c000dd50d", "fusion_lon": 0.0, "bike_id": "236c3f07a8805dd6ad2b185c000dd50d", "is_reserved": 0, "rental_uris": {"android": "https://dc.lft.to/lastmile_qr_scan", "ios": "https://dc.lft.to/lastmile_qr_scan"}, "lat": 38.88593783333334, "is_disabled": 0, "lon": -77.0123035}, {"fusion_lat": 0.0, "type": "electric_scooter", "name": "5b537a63cce01cc00df55e903063683e", "fusion_lon": 0.0, "bike_id": "5b537a63cce01cc00df55e903063683e", "is_reserved": 0, "rental_uris": {"android": "https://dc.lft.to/lastmile_qr_scan", "ios": "https://dc.lft.to/lastmile_qr_scan"}, "lat": 38.8928145, "is_disabled": 0, "lon": -77.031859}, {"fusion_lat": 0.0, "type": "electric_scooter", "name": "3923534c41b80af69ddb915887857b37", "fusion_lon": 0.0, "bike_id": "3923534c41b80af69ddb915887857b37", "is_reserved": 0, "rental_uris": {"android": "https://dc.lft.to/lastmile_qr_scan", "ios": "https://dc.lft.to/lastmile_qr_scan"}, "lat": 38.872369166666665, "is_disabled": 0, "lon": -77.01180366666667}, {"fusion_lat": 0.0, "type": "electric_bike", "name": "8427af315d7cfdb18f1ba7295f3bbd01", "fusion_lon": 0.0, "bike_id": "8427af315d7cfdb18f1ba7295f3bbd01", "is_reserved": 0, "rental_uris": {"android": "https://dc.lft.to/lastmile_qr_scan", "ios": "https://dc.lft.to/lastmile_qr_scan"}, "lat": 38.86940233333333, "is_disabled": 0, "lon": -77.09469516666667}, {"fusion_lat": 0.0, "type": "electric_scooter", "name": "fbde76f28f6fcc478ea05271269935e1", "fusion_lon": 0.0, "bike_id": "fbde76f28f6fcc478ea05271269935e1", "is_reserved": 0, "rental_uris": {"android": "https://dc.lft.to/lastmile_qr_scan", "ios": "https://dc.lft.to/lastmile_qr_scan"}, "lat": 38.930956333333334, "is_disabled": 0, "lon": -77.03275316666667}, {"fusion_lat": 0.0, "type": "electric_scooter", "name": "4daf4a70b1430f37db8855ed59e05d9c", "fusion_lon": 0.0, "bike_id": "4daf4a70b1430f37db8855ed59e05d9c", "is_reserved": 0, "rental_uris": {"android": "https://dc.lft.to/lastmile_qr_scan", "ios": "https://dc.lft.to/lastmile_qr_scan"}, "lat": 38.905144666666665, "is_disabled": 0, "lon": -77.06856833333333}, {"fusion_lat": 0.0, "type": "electric_scooter", "name": "f293bc859df6140f7f97302f91309f2c", "fusion_lon": 0.0, "bike_id": "f293bc859df6140f7f97302f91309f2c", "is_reserved": 0, "rental_uris": {"android": "https://dc.lft.to/lastmile_qr_scan", "ios": "https://dc.lft.to/lastmile_qr_scan"}, "lat": 38.91965366666667, "is_disabled": 0, "lon": -77.0451085}, {"fusion_lat": 0.0, "type": "electric_bike", "name": "4d158d5008c164cb7a0c8e51ff508a38", "fusion_lon": 0.0, "bike_id": "4d158d5008c164cb7a0c8e51ff508a38", "is_reserved": 0, "rental_uris": {"android": "https://dc.lft.to/lastmile_qr_scan", "ios": "https://dc.lft.to/lastmile_qr_scan"}, "lat": 38.98548316666667, "is_disabled": 0, "lon": -77.00400183333333}, {"fusion_lat": 0.0, "type": "electric_scooter", "name": "9e49b74bc1dc5a9c99e584b2193cda46", "fusion_lon": 0.0, "bike_id": "9e49b74bc1dc5a9c99e584b2193cda46", "is_reserved": 0, "rental_uris": {"android": "https://dc.lft.to/lastmile_qr_scan", "ios": "https://dc.lft.to/lastmile_qr_scan"}, "lat": 38.91823016666667, "is_disabled": 0, "lon": -77.0336115}, {"fusion_lat": 0.0, "type": "electric_scooter", "name": "4dbb2f659d9d0a23e339778c096e689d", "fusion_lon": 0.0, "bike_id": "4dbb2f659d9d0a23e339778c096e689d", "is_reserved": 0, "rental_uris": {"android": "https://dc.lft.to/lastmile_qr_scan", "ios": "https://dc.lft.to/lastmile_qr_scan"}, "lat": 38.916492, "is_disabled": 0, "lon": -77.03659033333334}, {"fusion_lat": 0.0, "type": "electric_scooter", "name": "c3109e56647d9a8fbf97d774dab83948", "fusion_lon": 0.0, "bike_id": "c3109e56647d9a8fbf97d774dab83948", "is_reserved": 0, "rental_uris": {"android": "https://dc.lft.to/lastmile_qr_scan", "ios": "https://dc.lft.to/lastmile_qr_scan"}, "lat": 38.907297166666666, "is_disabled": 0, "lon": -77.00756483333333}, {"fusion_lat": 0.0, "type": "electric_scooter", "name": "7925b2c8e443694c0ffb7129781b921f", "fusion_lon": 0.0, "bike_id": "7925b2c8e443694c0ffb7129781b921f", "is_reserved": 0, "rental_uris": {"android": "https://dc.lft.to/lastmile_qr_scan", "ios": "https://dc.lft.to/lastmile_qr_scan"}, "lat": 38.87203183333333, "is_disabled": 0, "lon": -77.00573416666667}, {"fusion_lat": 0.0, "type": "electric_scooter", "name": "5780748bf7454ba2a31c5b6658aa3993", "fusion_lon": 0.0, "bike_id": "5780748bf7454ba2a31c5b6658aa3993", "is_reserved": 0, "rental_uris": {"android": "https://dc.lft.to/lastmile_qr_scan", "ios": "https://dc.lft.to/lastmile_qr_scan"}, "lat": 38.912682, "is_disabled": 0, "lon": -77.01370283333334}, {"fusion_lat": 0.0, "type": "electric_scooter", "name": "506e4c9078c62c1f69a2ced872bab85f", "fusion_lon": 0.0, "bike_id": "506e4c9078c62c1f69a2ced872bab85f", "is_reserved": 0, "rental_uris": {"android": "https://dc.lft.to/lastmile_qr_scan", "ios": "https://dc.lft.to/lastmile_qr_scan"}, "lat": 38.844325, "is_disabled": 0, "lon": -76.99778166666667}, {"fusion_lat": 0.0, "type": "electric_scooter", "name": "1247200c907d6afa2a64b6aadecf6abd", "fusion_lon": 0.0, "bike_id": "1247200c907d6afa2a64b6aadecf6abd", "is_reserved": 0, "rental_uris": {"android": "https://dc.lft.to/lastmile_qr_scan", "ios": "https://dc.lft.to/lastmile_qr_scan"}, "lat": 38.92652416666667, "is_disabled": 0, "lon": -77.04137516666667}, {"fusion_lat": 0.0, "type": "electric_scooter", "name": "ef03d73a94100d2e74591a209d5572d1", "fusion_lon": 0.0, "bike_id": "ef03d73a94100d2e74591a209d5572d1", "is_reserved": 0, "rental_uris": {"android": "https://dc.lft.to/lastmile_qr_scan", "ios": "https://dc.lft.to/lastmile_qr_scan"}, "lat": 38.923853666666666, "is_disabled": 0, "lon": -77.03658833333333}, {"fusion_lat": 0.0, "type": "electric_scooter", "name": "9fcd2e5f59aae7c0eacfbb7f80569da0", "fusion_lon": 0.0, "bike_id": "9fcd2e5f59aae7c0eacfbb7f80569da0", "is_reserved": 0, "rental_uris": {"android": "https://dc.lft.to/lastmile_qr_scan", "ios": "https://dc.lft.to/lastmile_qr_scan"}, "lat": 38.903471333333336, "is_disabled": 0, "lon": -77.06124666666666}, {"fusion_lat": 0.0, "type": "electric_scooter", "name": "1280c7de9978778289312f06f7d43ed6", "fusion_lon": 0.0, "bike_id": "1280c7de9978778289312f06f7d43ed6", "is_reserved": 0, "rental_uris": {"android": "https://dc.lft.to/lastmile_qr_scan", "ios": "https://dc.lft.to/lastmile_qr_scan"}, "lat": 38.93508283333333, "is_disabled": 0, "lon": -77.0241345},