{"data": {"bikes": [{"bike_id": "d45943c76db9f8ee14f7c3cb92c4d5fd", "fusion_lon": 0.0, "name": "d45943c76db9f8ee14f7c3cb92c4d5fd", "lat": 38.899118333333334, "is_disabled": 0, "is_reserved": 0, "lon": -77.032984, "type": "electric_scooter", "fusion_lat": 0.0, "rental_uris": {"android": "https://dc.lft.to/lastmile_qr_scan", "ios": "https://dc.lft.to/lastmile_qr_scan"}}, {"bike_id": "a1ba803600ee8924b64bedfd67fe356f", "fusion_lon": 0.0, "name": "a1ba803600ee8924b64bedfd67fe356f", "lat": 38.92099566666667, "is_disabled": 0, "is_reserved": 0, "lon": -77.01318316666666, "type": "electric_scooter", "fusion_lat": 0.0, "rental_uris": {"android": "https://dc.lft.to/lastmile_qr_scan", "ios": "https://dc.lft.to/lastmile_qr_scan"}}, {"bike_id": "076647fdf33e64e8b06ba3eb22c322e1", "fusion_lon": 0.0, "name": "076647fdf33e64e8b06ba3eb22c322e1", "lat": 38.917103, "is_disabled": 0, "is_reserved": 0, "lon": -77.03474233333333, "type": "electric_scooter", "fusion_lat": 0.0, "rental_uris": {"android": "https://dc.lft.to/lastmile_qr_scan", "ios": "https://dc.lft.to/lastmile_qr_scan"}}, {"bike_id": "71aa65ef70984b8ed7d1817d31c49e07", "fusion_lon": 0.0, "name": "71aa65ef70984b8ed7d1817d31c49e07", "lat": 38.92110683333333, "is_disabled": 0, "is_reserved": 0, "lon": -77.0438605, "type": "electric_scooter", "fusion_lat": 0.0, "rental_uris": {"android": "https://dc.lft.to/lastmile_qr_scan", "ios": "https://dc.lft.to/lastmile_qr_scan"}}, {"bike_id": "d9bf0405dd28f0cfbfa8eb5a81c0011f", "fusion_lon": 0.0, "name": "d9bf0405dd28f0cfbfa8eb5a81c0011f", "lat": 38.8846385, "is_disabled": 0, "is_reserved": 0, "lon": -76.94981416666667, "type": "electric_scooter", "fusion_lat": 0.0, "rental_uris": {"android": "https://dc.lft.to/lastmile_qr_scan", "ios": "https://dc.lft.to/lastmile_qr_scan"}}, {"bike_id": "1c081507050fed4ab777a0ad77e41ba1", "fusion_lon": 0.0, "name": "1c081507050fed4ab777a0ad77e41ba1", "lat": 38.936711333333335, "is_disabled": 0, "is_reserved": 0, "lon": -77.03589883333333, "type": "electric_scooter", "fusion_lat": 0.0, "rental_uris": {"android": "https://dc.lft.to/lastmile_qr_scan", "ios": "https://dc.lft.to/lastmile_qr_scan"}}, {"bike_id": "bf4489cdd402dc1932b308ddd31992d9", "fusion_lon": 0.0, "name": "bf4489cdd402dc1932b308ddd31992d9", "lat": 38.902415500000004, "is_disabled": 0, "is_reserved": 0, "lon": -77.04596783333334, "type": "electric_scooter", "fusion_lat": 0.0, "rental_uris": {"android": "https://dc.lft.to/lastmile_qr_scan", "ios": "https://dc.lft.to/lastmile_qr_scan"}}, {"bike_id": "2973a5deb0a770da85811b9260a4b28d", "fusion_lon": 0.0, "name": "2973a5deb0a770da85811b9260a4b28d", "lat": 38.883253, "is_disabled": 0, "is_reserved": 0, "lon": -77.01773366666667, "type": "electric_scooter", "fusion_lat": 0.0, "rental_uris": {"android": "https://dc.lft.to/lastmile_qr_scan", "ios": "https://dc.lft.to/lastmile_qr_scan"}}, {"bike_id": "9bbbf37a99aad9b968cbc6e50d0d14ac", "fusion_lon": 0.0, "name": "9bbbf37a99aad9b968cbc6e50d0d14ac", "lat": 38.89502483333333, "is_disabled": 0, "is_reserved": 0, "lon": -77.02201633333334, "type": "electric_scooter", "fusion_lat": 0.0, "rental_uris": {"android": "https://dc.lft.to/lastmile_qr_scan", "ios": "https://dc.lft.to/lastmile_qr_scan"}}, {"bike_id": "afb11fb6bf44c7025720f17d53c65d59", "fusion_lon": 0.0, "name": "afb11fb6bf44c7025720f17d53c65d59", "lat": 38.91638, "is_disabled": 0, "is_reserved": 0, "lon": -77.04787066666667, "type": "electric_scooter", "fusion_lat": 0.0, "rental_uris": {"android": "https://dc.lft.to/lastmile_qr_scan", "ios": "https://dc.lft.to/lastmile_qr_scan"}}, {"bike_id": "c0f2e88c02027fda202952221735bc7c", "fusion_lon": 0.0, "name": "c0f2e88c02027fda202952221735bc7c", "lat": 38.90173083333333, "is_disabled": 0, "is_reserved": 0, "lon": -76.92899533333333, "type": "electric_scooter", "fusion_lat": 0.0, "rental_uris": {"android": "https://dc.lft.to/lastmile_qr_scan", "ios": "https://dc.lft.to/lastmile_qr_scan"}}, {"bike_id": "8de2497811d480bd59cfdc14e7fc42cc", "fusion_lon": 0.0, "name": "8de2497811d480bd59cfdc14e7fc42cc", "lat": 38.90137083333333, "is_disabled": 0, "is_reserved": 0, "lon": -77.04890533333334, "type": "electric_scooter", "fusion_lat": 0.0, "rental_uris": {"android": "https://dc.lft.to/lastmile_qr_scan", "ios": "https://dc.lft.to/lastmile_qr_scan"}}, {"bike_id": "094c4d0d57022332104280b092408c3f", "fusion_lon": 0.0, "name": "094c4d0d57022332104280b092408c3f", "lat": 38.8921965, "is_disabled": 0, "is_reserved": 0, "lon": -77.022272, "type": "electric_scooter", "fusion_lat": 0.0, "rental_uris": {"android": "https://dc.lft.to/lastmile_qr_scan", "ios": "https://dc.lft.to/lastmile_qr_scan"}}, {"bike_id": "a038ea6eb2517f59d560f1f8808f9e63", "fusion_lon": 0.0, "name": "a038ea6eb2517f59d560f1f8808f9e63", "lat": 38.88630766666667, "is_disabled": 0, "is_reserved": 0, "lon": -76.92583033333334, "type": "electric_scooter", "fusion_lat": 0.0, "rental_uris": {"android": "https://dc.lft.to/lastmile_qr_scan", "ios": "https://dc.lft.to/lastmile_qr_scan"}}, {"bike_id": "c5a02e8c09da8491a9a0fb1624d1a157", "fusion_lon": 0.0, "name": "c5a02e8c09da8491a9a0fb1624d1a157", "lat": 38.876070166666665, "is_disabled": 0, "is_reserved": 0, "lon": -76.965661, "type": "electric_scooter", "fusion_lat": 0.0, "rental_uris": {"android": "https://dc.lft.to/lastmile_qr_scan", "ios": "https://dc.lft.to/lastmile_qr_scan"}}, {"bike_id": "1ab01e3a44a50632a1f0bd97fdc2653b", "fusion_lon": 0.0, "name": "1ab01e3a44a50632a1f0bd97fdc2653b", "lat": 38.9282375, "is_disabled": 0, "is_reserved": 0, "lon": -77.0543945, "type": "electric_scooter", "fusion_lat": 0.0, "rental_uris": {"android": "https://dc.lft.to/lastmile_qr_scan", "ios": "https://dc.lft.to/lastmile_qr_scan"}}, {"bike_id": "a8c7efbe180f49e3535bed3a0100f429", "fusion_lon": 0.0, "name": "a8c7efbe180f49e3535bed3a0100f429", "lat": 38.89742416666667, "is_disabled": 0, "is_reserved": 0, "lon": -77.02714316666666, "type": "electric_scooter", "fusion_lat": 0.0, "rental_uris": {"android": "https://dc.lft.to/lastmile_qr_scan", "ios": "https://dc.lft.to/lastmile_qr_scan"}}, {"bike_id": "875fbb1a24ab06c1277b987f5076de8a", "fusion_lon": 0.0, "name": "875fbb1a24ab06c1277b987f5076de8a", "lat": 38.855070166666664, "is_disabled": 0, "is_reserved": 0, "lon": -77.10535466666667, "type": "electric_bike", "fusion_lat": 0.0, "rental_uris": {"android": "https://dc.lft.to/lastmile_qr_scan", "ios": "https://dc.lft.to/lastmile_qr_scan"}}, {"bike_id": "d3ecab5b5a3425fce04ffd66716bae98", "fusion_lon": 0.0, "name": "d3ecab5b5a3425fce04ffd66716bae98", "lat": 38.8799085, "is_disabled": 0, "is_reserved": 0, "lon": -76.98532983333334, "type": "electric_scooter", "fusion_lat": 0.0, "rental_uris": {"android": "https://dc.lft.to/lastmile_qr_scan", "ios": "https://dc.lft.to/lastmile_qr_scan"}}, {"bike_id": "166efbfbfad202a5b185ae102898becf", "fusion_lon": 0.0, "name": "166efbfbfad202a5b185ae102898becf", "lat": 38.89220066666667, "is_disabled": 0, "is_reserved": 0, "lon": -77.0480695, "type": "electric_scooter", "fusion_lat": 0.0, "rental_uris": {"android": "https://dc.lft.to/lastmile_qr_scan", "ios": "https://dc.lft.to/lastmile_qr_scan"}}, {"bike_id": "5e751a08abd7555dacb5b960103c3032", "fusion_lon": 0.0, "name": "5e751a08abd7555dacb5b960103c3032", "lat": 38.91691466666666, "is_disabled": 0, "is_reserved": 0, "lon": -77.03156716666666, "type": "electric_scooter", "fusion_lat": 0.0, "rental_uris": {"android": "https://dc.lft.to/lastmile_qr_scan", "ios": "https://dc.lft.to/lastmile_qr_scan"}}, {"bike_id": "880c28dc0486bd437a77b740b1b9ee8f", "fusion_lon": 0.0, "name": "880c28dc0486bd437a77b740b1b9ee8f", "lat": 38.907223333333334, "is_disabled": 0, "is_reserved": 0, "lon": -77.02544316666666, "type": "electric_scooter", "fusion_lat": 0.0, "rental_uris": {"android": "https://dc.lft.to/lastmile_qr_scan", "ios": "https://dc.lft.to/lastmile_qr_scan"}}, {"bike_id": "2b3e6c2ea52f3b8d153471264cc6fa4e", "fusion_lon": 0.0, "name": "2b3e6c2ea52f3b8d153471264cc6fa4e", "lat": 38.920471166666665, "is_disabled": 0, "is_reserved": 0, "lon": -77.0020745, "type": "electric_scooter", "fusion_lat": 0.0, "rental_uris": {"android": "https://dc.lft.to/lastmile_qr_scan", "ios": "https://dc.lft.to/lastmile_qr_scan"}}, {"bike_id": "8f6b9ac5c6830090bb9609afc0da82e3", "fusion_lon": 0.0, "name": "8f6b9ac5c6830090bb9609afc0da82e3", "lat": 38.90826783333333, "is_disabled": 0, "is_reserved": 0, "lon": -76.9826095, "type": "electric_scooter", "fusion_lat": 0.0, "rental_uris": {"android": "https://dc.lft.to/lastmile_qr_scan", "ios": "https://dc.lft.to/lastmile_qr_scan"}}, {"bike_id": "bddbf145d7e25c87d7d4ea1e0c242f73", "fusion_lon": 0.0, "name": "bddbf145d7e25c87d7d4ea1e0c242f73", "lat": 38.90001866666667, "is_disabled": 0, "is_reserved": 0, "lon": -77.0111875, "type": "electric_scooter", "fusion_lat": 0.0, "rental_uris": {"android": "https://dc.lft.to/lastmile_qr_scan", "ios": "https://dc.lft.to/lastmile_qr_scan"}}, {"bike_id": "1eaea906fe51fab17190ecdd881270ad", "fusion_lon": 0.0, "name": "1eaea906fe51fab17190ecdd881270ad", "lat": 38.94324233333333, "is_disabled": 0, "is_reserved": 0, "lon": -77.013113, "type": "electric_scooter", "fusion_lat": 0.0, "rental_uris": {"android": "https://dc.lft.to/lastmile_qr_scan", "ios": "https://dc.lft.to/lastmile_qr_scan"}}, {"bike_id": "19192f08f8a211028845a535c31ce4af", "fusion_lon": 0.0, "name": "19192f08f8a211028845a535c31ce4af", "lat": 38.93680783333333, "is_disabled": 0, "is_reserved": 0, "lon": -77.03631666666666, "type": "electric_scooter", "fusion_lat": 0.0, "rental_uris": {"android": "https://dc.lft.to/lastmile_qr_scan", "ios": "https://dc.lft.to/lastmile_qr_scan"}}, {"bike_id": "1228e016488126068d1dc57e9d859a27", "fusion_lon": 0.0, "name": "1228e016488126068d1dc57e9d859a27", "lat": 38.892956166666664, "is_disabled": 0, "is_reserved": 0, "lon": -76.9752285, "type": "electric_scooter", "fusion_lat": 0.0, "rental_uris": {"android": "https://dc.lft.to/lastmile_qr_scan", "ios": "https://dc.lft.to/lastmile_qr_scan"}}, {"bike_id": "cf4495ca4ff0f12c1c3cd434ece86c92", "fusion_lon": 0.0, "name": "cf4495ca4ff0f12c1c3cd434ece86c92", "lat": 38.90482083333333, "is_disabled": 0, "is_reserved": 0, "lon": -77.04481433333333, "type": "electric_scooter", "fusion_lat": 0.0, "rental_uris": {"android": "https://dc.lft.to/lastmile_qr_scan", "ios": "https://dc.lft.to/lastmile_qr_scan"}}, {"bike_id": "15a736cca256075a2e82a4e8a364cb34", "fusion_lon": 0.0, "name": "15a736cca256075a2e82a4e8a364cb34", "lat": 38.91301433333334, "is_disabled": 0, "is_reserved": 0, "lon": -77.04872316666666, "type": "electric_scooter", "fusion_lat": 0.0, "rental_uris": {"android": "https://dc.lft.to/lastmile_qr_scan", "ios": "https://dc.lft.to/lastmile_qr_scan"}}, {"bike_id": "eb131742da584f4ac0a396315c93504c", "fusion_lon": 0.0, "name": "eb131742da584f4ac0a396315c93504c", "lat": 38.901632666666664, "is_disabled": 0, "is_reserved": 0, "lon": -77.01317683333333, "type": "electric_scooter", "fusion_lat": 0.0, "rental_uris": {"android": "https://dc.lft.to/lastmile_qr_scan", "ios": "https://dc.lft.to/lastmile_qr_scan"}}, {"bike_id": "ca3c6e7f3cf0e540e5026985152394e1", "fusion_lon": 0.0, "name": "ca3c6e7f3cf0e540e5026985152394e1", "lat": 38.892288, "is_disabled": 0, "is_reserved": 0, "lon": -77.02827666666667, "type": "electric_scooter", "fusion_lat": 0.0, "rental_uris": {"android": "https://dc.lft.to/lastmile_qr_scan", "ios": "https://dc.lft.to/lastmile_qr_scan"}}, {"bike_id": "7f38a215d42e018436f3ecee5ac6c9fe", "fusion_lon": 0.0, "name": "7f38a215d42e018436f3ecee5ac6c9fe", "lat": 38.920723833333334, "is_disabled": 0, "is_reserved": 0, "lon": -77.04104566666666, "type": "electric_scooter", "fusion_lat": 0.0, "rental_uris": {"android": "https://dc.lft.to/lastmile_qr_scan", "ios": "https://dc.lft.to/lastmile_qr_scan"}}, {"bike_id": "6ea59c9eb25df41c16adf068d3bacf34", "fusion_lon": 0.0, "name": "6ea59c9eb25df41c16adf068d3bacf34", "lat": 38.892807, "is_disabled": 0, "is_reserved": 0, "lon": -76.983047, "type": "electric_scooter", "fusion_lat": 0.0, "rental_uris": {"android": "https://dc.lft.to/lastmile_qr_scan", "ios": "https://dc.lft.to/lastmile_qr_scan"}}, {"bike_id": "df69bf03eb721254992332cb420e0fe4", "fusion_lon": 0.0, "name": "df69bf03eb721254992332cb420e0fe4", "lat": 38.86167066666667, "is_disabled": 0, "is_reserved": 0, "lon": -76.983682, "type": "electric_scooter", "fusion_lat": 0.0, "rental_uris": {"android": "https://dc.lft.to/lastmile_qr_scan", "ios": "https://dc.lft.to/lastmile_qr_scan"}}, {"bike_id": "17631f6cd4d1b7bddc6a9b2dbbbc7832", "fusion_lon": 0.0, "name": "17631f6cd4d1b7bddc6a9b2dbbbc7832", "lat": 38.907117, "is_disabled": 0, "is_reserved": 0, "lon": -77.0255545, "type": "electric_scooter", "fusion_lat": 0.0, "rental_uris": {"android": "https://dc.lft.to/lastmile_qr_scan", "ios": "https://dc.lft.to/lastmile_qr_scan"}}, {"bike_id": "fcc570e4eebca63d9eddae6c1a9b0b82", "fusion_lon": 0.0, "name": "fcc570e4eebca63d9eddae6c1a9b0b82", "lat": 38.90968, "is_disabled": 0, "is_reserved": 0, "lon": -77.04057916666666, "type": "electric_scooter", "fusion_lat": 0.0, "rental_uris": {"android": "https://dc.lft.to/lastmile_qr_scan", "ios": "https://dc.lft.to/lastmile_qr_scan"}}, {"bike_id": "458f99ba4c3116c2d901bd5464e88d96", "fusion_lon": 0.0, "name": "458f99ba4c3116c2d901bd5464e88d96", "lat": 38.956326, "is_disabled": 0, "is_reserved": 0, "lon": -77.033049, "type": "electric_scooter", "fusion_lat": 0.0, "rental_uris": {"android": "https://dc.lft.to/lastmile_qr_scan", "ios": "https://dc.lft.to/lastmile_qr_scan"}}, {"bike_id": "f97629508cebc023b19649f0748aaef8", "fusion_lon": 0.0, "name": "f97629508cebc023b19649f0748aaef8", "lat": 38.92038983333333, "is_disabled": 0, "is_reserved": 0, "lon": -77.01677366666667, "type": "electric_scooter", "fusion_lat": 0.0, "rental_uris": {"android": "https://dc.lft.to/lastmile_qr_scan", "ios": "https://dc.lft.to/lastmile_qr_scan"}}, {"bike_id": "1407747899d11c276dc07fbff4441db3", "fusion_lon": 0.0, "name": "1407747899d11c276dc07fbff4441db3", "lat": 38.90793083333333, "is_disabled": 0, "is_reserved": 0, "lon": -77.0320165, "type": "electric_scooter", "fusion_lat": 0.0, "rental_uris": {"android": "https://dc.lft.to/lastmile_qr_scan", "ios": "https://dc.lft.to/lastmile_qr_scan"}}, {"bike_id": "1f8025db1fc0fec5dcca0bae68a4b389", "fusion_lon": 0.0, "name": "1f8025db1fc0fec5dcca0bae68a4b389", "lat": 38.89223366666667, "is_disabled": 0, "is_reserved": 0, "lon": -77.03327616666667, "type": "electric_scooter", "fusion_lat": 0.0, "rental_uris": {"android": "https://dc.lft.to/lastmile_qr_scan", "ios": "https://dc.lft.to/lastmile_qr_scan"}}, {"bike_id": "49e466e2cd3065ca7656f0f6159bf1b6", "fusion_lon": 0.0, "name": "49e466e2cd3065ca7656f0f6159bf1b6", "lat": 38.908614, "is_disabled": 0, "is_reserved": 0, "lon": -76.99952833333333, "type": "electric_scooter", "fusion_lat": 0.0, "rental_uris": {"android": "https://dc.lft.to/lastmile_qr_scan", "ios": "https://dc.lft.to/lastmile_qr_scan"}}, {"bike_id": "39bb7cebde3d888823d54e98902e2116", "fusion_lon": 0.0, "name": "39bb7cebde3d888823d54e98902e2116", "lat": 38.892204, "is_disabled": 0, "is_reserved": 0, "lon": -77.047723, "type": "electric_scooter", "fusion_lat": 0.0, "rental_uris": {"android": "https://dc.lft.to/lastmile_qr_scan", "ios": "https://dc.lft.to/lastmile_qr_scan"}}, {"bike_id": "d9f13a363338f45176faf6928fce8744", "fusion_lon": 0.0, "name": "d9f13a363338f45176faf6928fce8744", "lat": 38.8993505, "is_disabled": 0, "is_reserved": 0, "lon": -77.04191566666667, "type": "electric_scooter", "fusion_lat": 0.0, "rental_uris": {"android": "https://dc.lft.to/lastmile_qr_scan", "ios": "https://dc.lft.to/lastmile_qr_scan"}}, {"bike_id": "69d86a394d7019c4391ca105dfff9493", "fusion_lon": 0.0, "name": "69d86a394d7019c4391ca105dfff9493", "lat": 38.92028783333333, "is_disabled": 0, "is_reserved": 0, "lon": -77.01286133333333, "type": "electric_scooter", "fusion_lat": 0.0, "rental_uris": {"android": "https://dc.lft.to/lastmile_qr_scan", "ios": "https://dc.lft.to/lastmile_qr_scan"}}, {"bike_id": "d23f571d45272045b1cccbc08312f45a", "fusion_lon": 0.0, "name": "d23f571d45272045b1cccbc08312f45a", "lat": 38.871323333333336, "is_disabled": 0, "is_reserved": 0, "lon": -77.10028333333334, "type": "electric_bike", "fusion_lat": 0.0, "rental_uris": {"android": "https://dc.lft.to/lastmile_qr_scan", "ios": "https://dc.lft.to/lastmile_qr_scan"}}, {"bike_id": "9ff8781c00af48d27a88111f41742eeb", "fusion_lon": 0.0, "name": "9ff8781c00af48d27a88111f41742eeb", "lat": 38.923074166666666, "is_disabled": 0, "is_reserved": 0, "lon": -77.041796, "type": "electric_scooter", "fusion_lat": 0.0, "rental_uris": {"android": "https://dc.lft.to/lastmile_qr_scan", "ios": "https://dc.lft.to/lastmile_qr_scan"}}, {"bike_id": "120d43d0a80619a0c4b24bad799ed71a", "fusion_lon": 0.0, "name": "120d43d0a80619a0c4b24bad799ed71a", "lat": 38.882530833333334, "is_disabled": 0, "is_reserved": 0, "lon": -76.99485466666667, "type": "electric_scooter", "fusion_lat": 0.0, "rental_uris": {"android": "https://dc.lft.to/lastmile_qr_scan", "ios": "https://dc.lft.to/lastmile_qr_scan"}}, {"bike_id": "f0e9de5fadfdfbf5ed0af5358b84bdc2", "fusion_lon": 0.0, "name": "f0e9de5fadfdfbf5ed0af5358b84bdc2", "lat": 38.865549666666666, "is_disabled": 0, "is_reserved": 0, "lon": -76.98350316666667, "type": "electric_scooter", "fusion_lat": 0.0, "rental_uris": {"android": "https://dc.lft.to/lastmile_qr_scan", "ios": "https://dc.lft.to/lastmile_qr_scan"}}, {"bike_id": "c8d154adb8ceb3d0f00c834bb479df46", "fusion_lon": 0.0, "name": "c8d154adb8ceb3d0f00c834bb479df46", "lat": 38.907456833333335, "is_disabled": 0, "is_reserved": 0, "lon": -77.043284, "type": "electric_scooter", "fusion_lat": 0.0, "rental_uris": {"android": "https://dc.lft.to/lastmile_qr_scan", "ios": "https://dc.lft.to/lastmile_qr_scan"}}, {"bike_id": "c790cbdc0712198b36b46137c2978294", "fusion_lon": 0.0, "name": "c790cbdc0712198b36b46137c2978294", "lat": 38.91238216666667, "is_disabled": 0, "is_reserved": 0, "lon": -77.044981, "type": "electric_scooter", "fusion_lat": 0.0, "rental_uris": {"android": "https://dc.lft.to/lastmile_qr_scan", "ios": "https://dc.lft.to/lastmile_qr_scan"}}, {"bike_id": "d3aaa098e497455ff16117d190a389f3", "fusion_lon": 0.0, "name": "d3aaa098e497455ff16117d190a389f3", "lat": 38.8775685, "is_disabled": 0, "is_reserved": 0, "lon": -77.00717566666667, "type": "electric_scooter", "fusion_lat": 0.0, "rental_uris": {"android": "https://dc.lft.to/lastmile_qr_scan", "ios": "https://dc.lft.to/lastmile_qr_scan"}}, {"bike_id": "5a0e23d99913c8b58a270753580a6fa3", "fusion_lon": 0.0, "name": "5a0e23d99913c8b58a270753580a6fa3", "lat": 38.89603183333333, "is_disabled": 0, "is_reserved": 0, "lon": -77.05438483333333, "type": "electric_scooter", "fusion_lat": 0.0, "rental_uris": {"android": "https://dc.lft.to/lastmile_qr_scan", "ios": "https://dc.lft.to/lastmile_qr_scan"}}, {"bike_id": "24d6c308b26bd103c7dc1e291d2505b4", "fusion_lon": 0.0, "name": "24d6c308b26bd103c7dc1e291d2505b4", "lat": 38.9056985, "is_disabled": 0, "is_reserved": 0, "lon": -77.02402016666667, "type": "electric_scooter", "fusion_lat": 0.0, "rental_uris": {"android": "https://dc.lft.to/lastmile_qr_scan", "ios": "https://dc.lft.to/lastmile_qr_scan"}}, {"bike_id": "d55ac3df7270d737fdebbe71896cad3b", "fusion_lon": 0.0, "name": "d55ac3df7270d737fdebbe71896cad3b", "lat": 38.912501166666665, "is_disabled": 0, "is_reserved": 0, "lon": -77.03212733333334, "type": "electric_scooter", "fusion_lat": 0.0, "rental_uris": {"android": "https://dc.lft.to/lastmile_qr_scan", "ios": "https://dc.lft.to/lastmile_qr_scan"}}, {"bike_id": "47e6ee98c1ddec53faa1a49885e62e84", "fusion_lon": 0.0, "name": "47e6ee98c1ddec53faa1a49885e62e84", "lat": 38.92466833333334, "is_disabled": 0, "is_reserved": 0, "lon": -77.02208466666667, "type": "electric_scooter", "fusion_lat": 0.0, "rental_uris": {"android": "https://dc.lft.to/lastmile_qr_scan", "ios": "https://dc.lft.to/lastmile_qr_scan"}}, {"bike_id": "4a1044a5465b9fe19d248a75f58f21d5", "fusion_lon": 0.0, "name": "4a1044a5465b9fe19d248a75f58f21d5", "lat": 38.85767633333333, "is_disabled": 0, "is_reserved": 0, "lon": -76.987689, "type": "electric_bike", "fusion_lat": 0.0, "rental_uris": {"android": "https://dc.lft.to/lastmile_qr_scan", "ios": "https://dc.lft.to/lastmile_qr_scan"}}, {"bike_id": "1853b8c1d1a1e23b31f62b3fa5f13764", "fusion_lon": 0.0, "name": "1853b8c1d1a1e23b31f62b3fa5f13764", "lat": 38.9123065, "is_disabled": 0, "is_reserved": 0, "lon": -77.04865933333333, "type": "electric_scooter", "fusion_lat": 0.0, "rental_uris": {"android": "https://dc.lft.to/lastmile_qr_scan", "ios": "https://dc.lft.to/lastmile_qr_scan"}}, {"bike_id": "c6c9913f4b7377066ac2a425eb8384c1", "fusion_lon": 0.0, "name": "c6c9913f4b7377066ac2a425eb8384c1", "lat": 38.897272, "is_disabled": 0, "is_reserved": 0, "lon": -77.03967216666666, "type": "electric_scooter", "fusion_lat": 0.0, "rental_uris": {"android": "https://dc.lft.to/lastmile_qr_scan", "ios": "https://dc.lft.to/lastmile_qr_scan"}}, {"bike_id": "924da0bc41fe64f14aa7f8cee7cd33b4", "fusion_lon": 0.0, "name": "924da0bc41fe64f14aa7f8cee7cd33b4", "lat": 38.92670716666667, "is_disabled": 0, "is_reserved": 0, "lon": -77.01511666666667, "type": "electric_scooter", "fusion_lat": 0.0, "rental_uris": {"android": "https://dc.lft.to/lastmile_qr_scan", "ios": "https://dc.lft.to/lastmile_qr_scan"}}, {"bike_id": "c49787ea55d3c084b242fb963c56425f", "fusion_lon": 0.0, "name": "c49787ea55d3c084b242fb963c56425f", "lat": 38.9051095, "is_disabled": 0, "is_reserved": 0, "lon": -77.02598283333333, "type": "electric_scooter", "fusion_lat": 0.0, "rental_uris": {"android": "https://dc.lft.to/lastmile_qr_scan", "ios": "https://dc.lft.to/lastmile_qr_scan"}}, {"bike_id": "0f1aaf72ca54c1a0b474a9a0d0122f18", "fusion_lon": 0.0, "name": "0f1aaf72ca54c1a0b474a9a0d0122f18", "lat": 38.86190416666667, "is_disabled": 0, "is_reserved": 0, "lon": -77.05977166666666, "type": "electric_bike", "fusion_lat": 0.0, "rental_uris": {"android": "https://dc.lft.to/lastmile_qr_scan", "ios": "https://dc.lft.to/lastmile_qr_scan"}}, {"bike_id": "3b025a587d578b823e489cb3eb98a0bf", "fusion_lon": 0.0, "name": "3b025a587d578b823e489cb3eb98a0bf", "lat": 38.91117883333333, "is_disabled": 0, "is_reserved": 0, "lon": -77.0423525, "type": "electric_scooter", "fusion_lat": 0.0, "rental_uris": {"android": "https://dc.lft.to/lastmile_qr_scan", "ios": "https://dc.lft.to/lastmile_qr_scan"}}, {"bike_id": "0703b281e601fee10aeadf7d1ba82f1f", "fusion_lon": 0.0, "name": "0703b281e601fee10aeadf7d1ba82f1f", "lat": 38.916943333333336, "is_disabled": 0, "is_reserved": 0, "lon": -77.04107633333334, "type": "electric_scooter", "fusion_lat": 0.0, "rental_uris": {"android": "https://dc.lft.to/lastmile_qr_scan", "ios": "https://dc.lft.to/lastmile_qr_scan"}}, {"bike_id": "014bb05ce6a9420077c9c5e7bc6b1604", "fusion_lon": 0.0, "name": "014bb05ce6a9420077c9c5e7bc6b1604", "lat": 38.9072415, "is_disabled": 0, "is_reserved": 0, "lon": -77.03440716666667, "type": "electric_scooter", "fusion_lat": 0.0, "rental_uris": {"android": "https://dc.lft.to/lastmile_qr_scan", "ios": "https://dc.lft.to/lastmile_qr_scan"}}, {"bike_id": "78159bb38aead1b17c6a58140a89a1bd", "fusion_lon": 0.0, "name": "78159bb38aead1b17c6a58140a89a1bd", "lat": 38.9038665, "is_disabled": 0, "is_reserved": 0, "lon": -77.0320485, "type": "electric_scooter", "fusion_lat": 0.0, "rental_uris": {"android": "https://dc.lft.to/lastmile_qr_scan", "ios": "https://dc.lft.to/lastmile_qr_scan"}}, {"bike_id": "71e2d1d6b3d10ff8c8a905170866751e", "fusion_lon": 0.0, "name": "71e2d1d6b3d10ff8c8a905170866751e", "lat": 38.898067166666664, "is_disabled": 0, "is_reserved": 0, "lon": -77.0282135, "type": "electric_scooter", "fusion_lat": 0.0, "rental_uris": {"android": "https://dc.lft.to/lastmile_qr_scan", "ios": "https://dc.lft.to/lastmile_qr_scan"}}, {"bike_id": "33958fc14bae9df91c71867c3ce7b508", "fusion_lon": 0.0, "name": "33958fc14bae9df91c71867c3ce7b508", "lat": 38.933968, "is_disabled": 0, "is_reserved": 0, "lon": -77.05739316666667, "type": "electric_scooter", "fusion_lat": 0.0, "rental_uris": {"android": "https://dc.lft.to/lastmile_qr_scan", "ios": "https://dc.lft.to/lastmile_qr_scan"}}, {"bike_id": "d66bc566512be3632fa71cdecf69971b", "fusion_lon": 0.0, "name": "d66bc566512be3632fa71cdecf69971b", "lat": 38.9097435, "is_disabled": 0, "is_reserved": 0, "lon": -77.034373, "type": "electric_scooter", "fusion_lat": 0.0, "rental_uris": {"android": "https://dc.lft.to/lastmile_qr_scan", "ios": "https://dc.lft.to/lastmile_qr_scan"}}, {"bike_id": "415b8c1118ecad1b07bb38e456a9480d", "fusion_lon": 0.0, "name": "415b8c1118ecad1b07bb38e456a9480d", "lat": 38.91608866666667, "is_disabled": 0, "is_reserved": 0, "lon": -77.046218, "type": "electric_scooter", "fusion_lat": 0.0, "rental_uris": {"android": "https://dc.lft.to/lastmile_qr_scan", "ios": "https://dc.lft.to/lastmile_qr_scan"}}, {"bike_id": "876fc6f517e3acb31b37a2f96c239f71", "fusion_lon": 0.0, "name": "876fc6f517e3acb31b37a2f96c239f71", "lat": 38.896695333333334, "is_disabled": 0, "is_reserved": 0, "lon": -77.0051765, "type": "electric_scooter", "fusion_lat": 0.0, "rental_uris": {"android": "https://dc.lft.to/lastmile_qr_scan", "ios": "https://dc.lft.to/lastmile_qr_scan"}}, {"bike_id": "e02d7649ed9e50783bdf912480bf7cca", "fusion_lon": 0.0, "name": "e02d7649ed9e50783bdf912480bf7cca", "lat": 38.910518833333334, "is_disabled": 0, "is_reserved": 0, "lon": -77.04103183333334, "type": "electric_scooter", "fusion_lat": 0.0, "rental_uris": {"android": "https://dc.lft.to/lastmile_qr_scan", "ios": "https://dc.lft.to/lastmile_qr_scan"}}, {"bike_id": "914eee6ee0a84e05b16217e34f8c035d", "fusion_lon": 0.0, "name": "914eee6ee0a84e05b16217e34f8c035d", "lat": 38.9241195, "is_disabled": 0, "is_reserved": 0, "lon": -77.02029883333333, "type": "electric_scooter", "fusion_lat": 0.0, "rental_uris": {"android": "https://dc.lft.to/lastmile_qr_scan", "ios": "https://dc.lft.to/lastmile_qr_scan"}}, {"bike_id": "0bab88fe3d0e3361c97c441098d24b4d", "fusion_lon": 0.0, "name": "0bab88fe3d0e3361c97c441098d24b4d", "lat": 38.88592033333333, "is_disabled": 0, "is_reserved": 0, "lon": -77.017186, "type": "electric_scooter", "fusion_lat": 0.0, "rental_uris": {"android": "https://dc.lft.to/lastmile_qr_scan", "ios": "https://dc.lft.to/lastmile_qr_scan"}}, {"bike_id": "98fbdd186344bab820166a3ddd6849dd", "fusion_lon": 0.0, "name": "98fbdd186344bab820166a3ddd6849dd", "lat": 38.917200333333334, "is_disabled": 0, "is_reserved": 0, "lon": -77.02588983333334, "type": "electric_scooter", "fusion_lat": 0.0, "rental_uris": {"android": "https://dc.lft.to/lastmile_qr_scan", "ios": "https://dc.lft.to/lastmile_qr_scan"}}, {"bike_id": "c6fa2609df0814520d16cd426d29ecac", "fusion_lon": 0.0, "name": "c6fa2609df0814520d16cd426d29ecac", "lat": 38.9103195, "is_disabled": 0, "is_reserved": 0, "lon": -77.0292575, "type": "electric_scooter", "fusion_lat": 0.0, "rental_uris": {"android": "https://dc.lft.to/lastmile_qr_scan", "ios": "https://dc.lft.to/lastmile_qr_scan"}}, {"bike_id": "6a5ab092f82c21be03dd6e5885f83e9b", "fusion_lon": 0.0, "name": "6a5ab092f82c21be03dd6e5885f83e9b", "lat": 38.898533666666665, "is_disabled": 0, "is_reserved": 0, "lon": -77.0416355, "type": "electric_scooter", "fusion_lat": 0.0, "rental_uris": {"android": "https://dc.lft.to/lastmile_qr_scan", "ios": "https://dc.lft.to/lastmile_qr_scan"}}, {"bike_id": "bddc54ebf55ca5aa67b20d852d32e834", "fusion_lon": 0.0, "name": "bddc54ebf55ca5aa67b20d852d32e834", "lat": 38.924089, "is_disabled": 0, "is_reserved": 0, "lon": -77.0445355, "type": "electric_scooter", "fusion_lat": 0.0, "rental_uris": {"android": "https://dc.lft.to/lastmile_qr_scan", "ios": "https://dc.lft.to/lastmile_qr_scan"}}, {"bike_id": "1394f7dc660d65af5d51c49d8cde5084", "fusion_lon": 0.0, "name": "1394f7dc660d65af5d51c49d8cde5084", "lat": 38.924074166666664, "is_disabled": 0, "is_reserved": 0, "lon": -77.0194165, "type": "electric_scooter", "fusion_lat": 0.0, "rental_uris": {"android": "https://dc.lft.to/lastmile_qr_scan", "ios": "https://dc.lft.to/lastmile_qr_scan"}}, {"bike_id": "b095678fc7bdcbfff3b2507372ae8629", "fusion_lon": 0.0, "name": "b095678fc7bdcbfff3b2507372ae8629", "lat": 38.896129333333334, "is_disabled": 0, "is_reserved": 0, "lon": -76.90742466666667, "type": "electric_bike", "fusion_lat": 0.0, "rental_uris": {"android": "https://dc.lft.to/lastmile_qr_scan", "ios": "https://dc.lft.to/lastmile_qr_scan"}}, {"bike_id": "a0c2f9c4146f776d73bd159ef021f57c", "fusion_lon": 0.0, "name": "a0c2f9c4146f776d73bd159ef021f57c", "lat": 38.92047516666667, "is_disabled": 0, "is_reserved": 0, "lon": -77.0418315, "type": "electric_scooter", "fusion_lat": 0.0, "rental_uris": {"android": "https://dc.lft.to/lastmile_qr_scan", "ios": "https://dc.lft.to/lastmile_qr_scan"}}, {"bike_id": "be00fabb7a3e9218b9db1551a65b5d21", "fusion_lon": 0.0, "name": "be00fabb7a3e9218b9db1551a65b5d21", "lat": 38.901687833333334, "is_disabled": 0, "is_reserved": 0, "lon": -77.01610583333333, "type": "electric_scooter", "fusion_lat": 0.0, "rental_uris": {"android": "https://dc.lft.to/lastmile_qr_scan", "ios": "https://dc.lft.to/lastmile_qr_scan"}}, {"bike_id": "9558ac577f6641e015d67846a7253b72", "fusion_lon": 0.0, "name": "9558ac577f6641e015d67846a7253b72", "lat": 38.887180666666666, "is_disabled": 0, "is_reserved": 0, "lon": -76.99688883333333, "type": "electric_scooter", "fusion_lat": 0.0, "rental_uris": {"android": "https://dc.lft.to/lastmile_qr_scan", "ios": "https://dc.lft.to/lastmile_qr_scan"}}, {"bike_id": "045c2b93843f777be9633f4a8bf9f293", "fusion_lon": 0.0, "name": "045c2b93843f777be9633f4a8bf9f293", "lat": 38.90520083333333, "is_disabled": 0, "is_reserved": 0, "lon": -77.04748666666667, "type": "electric_scooter", "fusion_lat": 0.0, "rental_uris": {"android": "https://dc.lft.to/lastmile_qr_scan", "ios": "https://dc.lft.to/lastmile_qr_scan"}}, {"bike_id": "a606faa189f7cde0c1e41378ced139bd", "fusion_lon": 0.0, "name": "a606faa189f7cde0c1e41378ced139bd", "lat": 38.9266565, "is_disabled": 0, "is_reserved": 0, "lon": -77.014805, "type": "electric_scooter", "fusion_lat": 0.0, "rental_uris": {"android": "https://dc.lft.to/lastmile_qr_scan", "ios": "https://dc.lft.to/lastmile_qr_scan"}}, {"bike_id": "043484fb06ed04ebba2d5f1fd1b9f2e0", "fusion_lon": 0.0, "name": "043484fb06ed04ebba2d5f1fd1b9f2e0", "lat": 38.93227816666667, "is_disabled": 0, "is_reserved": 0, "lon": -77.0296245, "type": "electric_scooter", "fusion_lat": 0.0, "rental_uris": {"android": "https://dc.lft.to/lastmile_qr_scan", "ios": "https://dc.lft.to/lastmile_qr_scan"}}, {"bike_id": "df2dce660a99590ce9af0bc8d01a3a8d", "fusion_lon": 0.0, "name": "df2dce660a99590ce9af0bc8d01a3a8d", "lat": 38.900522, "is_disabled": 0, "is_reserved": 0, "lon": -77.0007185, "type": "electric_scooter", "fusion_lat": 0.0, "rental_uris": {"android": "https://dc.lft.to/lastmile_qr_scan", "ios": "https://dc.lft.to/lastmile_qr_scan"}}, {"bike_id": "31f2bba93cd6a605dae7067128f37372", "fusion_lon": 0.0, "name": "31f2bba93cd6a605dae7067128f37372", "lat": 38.90385583333333, "is_disabled": 0, "is_reserved": 0, "lon": -77.032037, "type": "electric_scooter", "fusion_lat": 0.0, "rental_uris": {"android": "https://dc.lft.to/lastmile_qr_scan", "ios": "https://dc.lft.to/lastmile_qr_scan"}}, {"bike_id": "e79eb22eae5b5a7fbb47d0c16424b899", "fusion_lon": 0.0, "name": "e79eb22eae5b5a7fbb47d0c16424b899", "lat": 38.90264166666667, "is_disabled": 0, "is_reserved": 0, "lon": -77.0531885, "type": "electric_scooter", "fusion_lat": 0.0, "rental_uris": {"android": "https://dc.lft.to/lastmile_qr_scan", "ios": "https://dc.lft.to/lastmile_qr_scan"}}, {"bike_id": "7d2fec63dfc76bde43b0dd76f0ea0aff", "fusion_lon": 0.0, "name": "7d2fec63dfc76bde43b0dd76f0ea0aff", "lat": 38.90575416666667, "is_disabled": 0, "is_reserved": 0, "lon": -77.00299083333333, "type": "electric_bike", "fusion_lat": 0.0, "rental_uris": {"android": "https://dc.lft.to/lastmile_qr_scan", "ios": "https://dc.lft.to/lastmile_qr_scan"}}, {"bike_id": "2ed6de2090ce7b74cc4a4513213c19f9", "fusion_lon": 0.0, "name": "2ed6de2090ce7b74cc4a4513213c19f9", "lat": 38.908498, "is_disabled": 0, "is_reserved": 0, "lon": -76.9980005, "type": "electric_scooter", "fusion_lat": 0.0, "rental_uris": {"android": "https://dc.lft.to/lastmile_qr_scan", "ios": "https://dc.lft.to/lastmile_qr_scan"}}, {"bike_id": "c33927474426fce29799c534bcab6360", "fusion_lon": 0.0, "name": "c33927474426fce29799c534bcab6360", "lat": 38.9226075, "is_disabled": 0, "is_reserved": 0, "lon": -77.019498, "type": "electric_scooter", "fusion_lat": 0.0, "rental_uris": {"android": "https://dc.lft.to/lastmile_qr_scan", "ios": "https://dc.lft.to/lastmile_qr_scan"}}, {"bike_id": "26175266a4a9ea253b0586e148fb02c4", "fusion_lon": 0.0, "name": "26175266a4a9ea253b0586e148fb02c4", "lat": 38.9110755, "is_disabled": 0, "is_reserved": 0, "lon": -77.03827, "type": "electric_scooter", "fusion_lat": 0.0, "rental_uris": {"android": "https://dc.lft.to/lastmile_qr_scan", "ios": "https://dc.lft.to/lastmile_qr_scan"}}, {"bike_id": "6100ba560721a7450bf2c791cc4f616b", "fusion_lon": 0.0, "name": "6100ba560721a7450bf2c791cc4f616b", "lat": 38.9111545, "is_disabled": 0, "is_reserved": 0, "lon": -77.00603566666666, "type": "electric_scooter", "fusion_lat": 0.0, "rental_uris": {"android": "https://dc.lft.to/lastmile_qr_scan", "ios": "https://dc.lft.to/lastmile_qr_scan"}}, {"bike_id": "afc21d05fe366e70387c7dd6deb6e9e0", "fusion_lon": 0.0, "name": "afc21d05fe366e70387c7dd6deb6e9e0", "lat": 38.88419, "is_disabled": 0, "is_reserved": 0, "lon": -76.95406266666667, "type": "electric_bike", "fusion_lat": 0.0, "rental_uris": {"android": "https://dc.lft.to/lastmile_qr_scan", "ios": "https://dc.lft.to/lastmile_qr_scan"}}, {"bike_id": "d7242654fa89b6f207d20eb5106248fe", "fusion_lon": 0.0, "name": "d7242654fa89b6f207d20eb5106248fe", "lat": 38.91307283333333, "is_disabled": 0, "is_reserved": 0, "lon": -77.03188283333333, "type": "electric_scooter", "fusion_lat": 0.0, "rental_uris": {"android": "https://dc.lft.to/lastmile_qr_scan", "ios": "https://dc.lft.to/lastmile_qr_scan"}}, {"bike_id": "64e31568778b8ac934bd9ddc1a380df8", "fusion_lon": 0.0, "name": "64e31568778b8ac934bd9ddc1a380df8", "lat": 38.87793383333333, "is_disabled": 0, "is_reserved": 0, "lon": -77.0012075, "type": "electric_scooter", "fusion_lat": 0.0, "rental_uris": {"android": "https://dc.lft.to/lastmile_qr_scan", "ios": "https://dc.lft.to/lastmile_qr_scan"}}, {"bike_id": "a7576dde4d7447cc04b7211c6db92b37", "fusion_lon": 0.0, "name": "a7576dde4d7447cc04b7211c6db92b37", "lat": 38.9350975, "is_disabled": 0, "is_reserved": 0, "lon": -77.058383, "type": "electric_scooter", "fusion_lat": 0.0, "rental_uris": {"android": "https://dc.lft.to/lastmile_qr_scan", "ios": "https://dc.lft.to/lastmile_qr_scan"}}, {"bike_id": "fd367ee726a9e787c39ed1cbd2d87dd0", "fusion_lon": 0.0, "name": "fd367ee726a9e787c39ed1cbd2d87dd0", "lat": 38.887413333333335, "is_disabled": 0, "is_reserved": 0, "lon": -77.02124266666667, "type": "electric_scooter", "fusion_lat": 0.0, "rental_uris": {"android": "https://dc.lft.to/lastmile_qr_scan", "ios": "https://dc.lft.to/lastmile_qr_scan"}}, {"bike_id": "502387547e67592715c2cabb9c733689", "fusion_lon": 0.0, "name": "502387547e67592715c2cabb9c733689", "lat": 38.90674583333333, "is_disabled": 0, "is_reserved": 0, "lon": -77.07188583333334, "type": "electric_scooter", "fusion_lat": 0.0, "rental_uris": {"android": "https://dc.lft.to/lastmile_qr_scan", "ios": "https://dc.lft.to/lastmile_qr_scan"}}, {"bike_id": "622bbaa664af74d87b6966c5793be96d", "fusion_lon": 0.0, "name": "622bbaa664af74d87b6966c5793be96d", "lat": 38.91821933333333, "is_disabled": 0, "is_reserved": 0, "lon": -77.04173316666666, "type": "electric_scooter", "fusion_lat": 0.0, "rental_uris": {"android": "https://dc.lft.to/lastmile_qr_scan", "ios": "https://dc.lft.to/lastmile_qr_scan"}}, {"bike_id": "361456dcf6054cd287cbc82d64b42e2d", "fusion_lon": 0.0, "name": "361456dcf6054cd287cbc82d64b42e2d", "lat": 38.9013755, "is_disabled": 0, "is_reserved": 0, "lon": -77.06072333333333, "type": "electric_scooter", "fusion_lat": 0.0, "rental_uris": {"android": "https://dc.lft.to/lastmile_qr_scan", "ios": "https://dc.lft.to/lastmile_qr_scan"}}, {"bike_id": "5fd9a098b1b1e752fcdd17072cf52d29", "fusion_lon": 0.0, "name": "5fd9a098b1b1e752fcdd17072cf52d29", "lat": 38.90338833333333, "is_disabled": 0, "is_reserved": 0, "lon": -77.043354, "type": "electric_scooter", "fusion_lat": 0.0, "rental_uris": {"android": "https://dc.lft.to/lastmile_qr_scan", "ios": "https://dc.lft.to/lastmile_qr_scan"}}, {"bike_id": "883739e573afe1c56b2bb06250c0fb50", "fusion_lon": 0.0, "name": "883739e573afe1c56b2bb06250c0fb50", "lat": 38.958655666666665, "is_disabled": 0, "is_reserved": 0, "lon": -77.00869333333333, "type": "electric_scooter", "fusion_lat": 0.0, "rental_uris": {"android": "https://dc.lft.to/lastmile_qr_scan", "ios": "https://dc.lft.to/lastmile_qr_scan"}}, {"bike_id": "27761267f6640e6db370005ca47f9720", "fusion_lon": 0.0, "name": "27761267f6640e6db370005ca47f9720", "lat": 38.901221166666666, "is_disabled": 0, "is_reserved": 0, "lon": -77.046174, "type": "electric_scooter", "fusion_lat": 0.0, "rental_uris": {"android": "https://dc.lft.to/lastmile_qr_scan", "ios": "https://dc.lft.to/lastmile_qr_scan"}}, {"bike_id": "cb2335654e59a9963d471fb0fb62a894", "fusion_lon": 0.0, "name": "cb2335654e59a9963d471fb0fb62a894", "lat": 38.867551, "is_disabled": 0, "is_reserved": 0, "lon": -76.98276366666667, "type": "electric_scooter", "fusion_lat": 0.0, "rental_uris": {"android": "https://dc.lft.to/lastmile_qr_scan", "ios": "https://dc.lft.to/lastmile_qr_scan"}}, {"bike_id": "054b042b25b63710bee6f7caf7046745", "fusion_lon": 0.0, "name": "054b042b25b63710bee6f7caf7046745", "lat": 38.88482483333333, "is_disabled": 0, "is_reserved": 0, "lon": -77.007104, "type": "electric_scooter", "fusion_lat": 0.0, "rental_uris": {"android": "https://dc.lft.to/lastmile_qr_scan", "ios": "https://dc.lft.to/lastmile_qr_scan"}}, {"bike_id": "5812c10a82bd1b7447d38c3c9b51f04b", "fusion_lon": 0.0, "name": "5812c10a82bd1b7447d38c3c9b51f04b", "lat": 38.894293, "is_disabled": 0, "is_reserved": 0, "lon": -76.97718016666667, "type": "electric_scooter", "fusion_lat": 0.0, "rental_uris": {"android": "https://dc.lft.to/lastmile_qr_scan", "ios": "https://dc.lft.to/lastmile_qr_scan"}}, {"bike_id": "5bd5aa7edeec7a4cb65e549ab6b3819a", "fusion_lon": 0.0, "name": "5bd5aa7edeec7a4cb65e549ab6b3819a", "lat": 38.903979166666666, "is_disabled": 0, "is_reserved": 0, "lon": -77.03456833333334, "type": "electric_scooter", "fusion_lat": 0.0, "rental_uris": {"android": "https://dc.lft.to/lastmile_qr_scan", "ios": "https://dc.lft.to/lastmile_qr_scan"}}, {"bike_id": "57add892ba0c2ce8a00811189f4e752f", "fusion_lon": 0.0, "name": "57add892ba0c2ce8a00811189f4e752f", "lat": 38.922171666666664, "is_disabled": 0, "is_reserved": 0, "lon": -76.99352966666666, "type": "electric_scooter", "fusion_lat": 0.0, "rental_uris": {"android": "https://dc.lft.to/lastmile_qr_scan", "ios": "https://dc.lft.to/lastmile_qr_scan"}}, {"bike_id": "21b53c721cc447fcc30c23746f3280e0", "fusion_lon": 0.0, "name": "21b53c721cc447fcc30c23746f3280e0", "lat": 38.913235, "is_disabled": 0, "is_reserved": 0, "lon": -77.02953783333334, "type": "electric_scooter", "fusion_lat": 0.0, "rental_uris": {"android": "https://dc.lft.to/lastmile_qr_scan", "ios": "https://dc.lft.to/lastmile_qr_scan"}}, {"bike_id": "01f4f102a3d60046927fde6888867107", "fusion_lon": 0.0, "name": "01f4f102a3d60046927fde6888867107", "lat": 38.92662716666667, "is_disabled": 0, "is_reserved": 0, "lon": -77.09844516666666, "type": "electric_bike", "fusion_lat": 0.0, "rental_uris": {"android": "https://dc.lft.to/lastmile_qr_scan", "ios": "https://dc.lft.to/lastmile_qr_scan"}}, {"bike_id": "44997bb1855d60e45741a3a3e507ff20", "fusion_lon": 0.0, "name": "44997bb1855d60e45741a3a3e507ff20", "lat": 38.89734, "is_disabled": 0, "is_reserved": 0, "lon": -77.02014483333333, "type": "electric_scooter", "fusion_lat": 0.0, "rental_uris": {"android": "https://dc.lft.to/lastmile_qr_scan", "ios": "https://dc.lft.to/lastmile_qr_scan"}}, {"bike_id": "49dc981a3f764cddb8dfa8554e9e4059", "fusion_lon": 0.0, "name": "49dc981a3f764cddb8dfa8554e9e4059", "lat": 38.916549, "is_disabled": 0, "is_reserved": 0, "lon": -77.03852916666666, "type": "electric_scooter", "fusion_lat": 0.0, "rental_uris": {"android": "https://dc.lft.to/lastmile_qr_scan", "ios": "https://dc.lft.to/lastmile_qr_scan"}}, {"bike_id": "1578edd990aaca71102a73c945969775", "fusion_lon": 0.0, "name": "1578edd990aaca71102a73c945969775", "lat": 38.91426666666667, "is_disabled": 0, "is_reserved": 0, "lon": -77.02815116666666, "type": "electric_scooter", "fusion_lat": 0.0, "rental_uris": {"android": "https://dc.lft.to/lastmile_qr_scan", "ios": "https://dc.lft.to/lastmile_qr_scan"}}, {"bike_id": "33b31220110bb54b0b3e8d56af8e58fd", "fusion_lon": 0.0, "name": "33b31220110bb54b0b3e8d56af8e58fd", "lat": 38.90663166666667, "is_disabled": 0, "is_reserved": 0, "lon": -77.025891, "type": "electric_scooter", "fusion_lat": 0.0, "rental_uris": {"android": "https://dc.lft.to/lastmile_qr_scan", "ios": "https://dc.lft.to/lastmile_qr_scan"}}, {"bike_id": "4073a2b9b1a1ec0ebe8fd2453f5be242", "fusion_lon": 0.0, "name": "4073a2b9b1a1ec0ebe8fd2453f5be242", "lat": 38.91561516666667, "is_disabled": 0, "is_reserved": 0, "lon": -77.0314185, "type": "electric_scooter", "fusion_lat": 0.0, "rental_uris": {"android": "https://dc.lft.to/lastmile_qr_scan", "ios": "https://dc.lft.to/lastmile_qr_scan"}}, {"bike_id": "8ccb3cde9a88789fd03d4d130540eb89", "fusion_lon": 0.0, "name": "8ccb3cde9a88789fd03d4d130540eb89", "lat": 38.95735616666666, "is_disabled": 0, "is_reserved": 0, "lon": -76.972527, "type": "electric_bike", "fusion_lat": 0.0, "rental_uris": {"android": "https://dc.lft.to/lastmile_qr_scan", "ios": "https://dc.lft.to/lastmile_qr_scan"}}, {"bike_id": "0ab544360498a7839043bce05c09795d", "fusion_lon": 0.0, "name": "0ab544360498a7839043bce05c09795d", "lat": 38.957445, "is_disabled": 0, "is_reserved": 0, "lon": -76.97255166666666, "type": "electric_bike", "fusion_lat": 0.0, "rental_uris": {"android": "https://dc.lft.to/lastmile_qr_scan", "ios": "https://dc.lft.to/lastmile_qr_scan"}}, {"bike_id": "970e54fde4d186491dc287c6350efc40", "fusion_lon": 0.0, "name": "970e54fde4d186491dc287c6350efc40", "lat": 38.905284, "is_disabled": 0, "is_reserved": 0, "lon": -77.0572, "type": "electric_scooter", "fusion_lat": 0.0, "rental_uris": {"android": "https://dc.lft.to/lastmile_qr_scan", "ios": "https://dc.lft.to/lastmile_qr_scan"}}, {"bike_id": "36933ce8cc9378c6b9e230326e9e5558", "fusion_lon": 0.0, "name": "36933ce8cc9378c6b9e230326e9e5558", "lat": 38.89438066666666, "is_disabled": 0, "is_reserved": 0, "lon": -77.02633066666667, "type": "electric_scooter", "fusion_lat": 0.0, "rental_uris": {"android": "https://dc.lft.to/lastmile_qr_scan", "ios": "https://dc.lft.to/lastmile_qr_scan"}}, {"bike_id": "5bf42bd30afcf30298d175b21b784acc", "fusion_lon": 0.0, "name": "5bf42bd30afcf30298d175b21b784acc", "lat": 38.916948166666664, "is_disabled": 0, "is_reserved": 0, "lon": -77.00737916666667, "type": "electric_scooter", "fusion_lat": 0.0, "rental_uris": {"android": "https://dc.lft.to/lastmile_qr_scan", "ios": "https://dc.lft.to/lastmile_qr_scan"}}, {"bike_id": "ee20a703f1465f4dfe3cc19807199efc", "fusion_lon": 0.0, "name": "ee20a703f1465f4dfe3cc19807199efc", "lat": 38.902443, "is_disabled": 0, "is_reserved": 0, "lon": -77.0435855, "type": "electric_scooter", "fusion_lat": 0.0, "rental_uris": {"android": "https://dc.lft.to/lastmile_qr_scan", "ios": "https://dc.lft.to/lastmile_qr_scan"}}, {"bike_id": "2043a2d8b073b21e1714f50f3b0ce344", "fusion_lon": 0.0, "name": "2043a2d8b073b21e1714f50f3b0ce344", "lat": 38.89487166666667, "is_disabled": 0, "is_reserved": 0, "lon": -77.00980333333334, "type": "electric_scooter", "fusion_lat": 0.0, "rental_uris": {"android": "https://dc.lft.to/lastmile_qr_scan", "ios": "https://dc.lft.to/lastmile_qr_scan"}}, {"bike_id": "7d980c203ce907641402985afee48801", "fusion_lon": 0.0, "name": "7d980c203ce907641402985afee48801", "lat": 38.88364383333333, "is_disabled": 0, "is_reserved": 0, "lon": -76.99485416666667, "type": "electric_scooter", "fusion_lat": 0.0, "rental_uris": {"android": "https://dc.lft.to/lastmile_qr_scan", "ios": "https://dc.lft.to/lastmile_qr_scan"}}, {"bike_id": "25f65e5872ab9f8eef090077d85cb06f", "fusion_lon": 0.0, "name": "25f65e5872ab9f8eef090077d85cb06f", "lat": 38.8768045, "is_disabled": 0, "is_reserved": 0, "lon": -76.99422216666666, "type": "electric_scooter", "fusion_lat": 0.0, "rental_uris": {"android": "https://dc.lft.to/lastmile_qr_scan", "ios": "https://dc.lft.to/lastmile_qr_scan"}}, {"bike_id": "7186fd77b4f97ceeac6842f0843cfdc0", "fusion_lon": 0.0, "name": "7186fd77b4f97ceeac6842f0843cfdc0", "lat": 38.92478283333333, "is_disabled": 0, "is_reserved": 0, "lon": -77.05207033333333, "type": "electric_scooter", "fusion_lat": 0.0, "rental_uris": {"android": "https://dc.lft.to/lastmile_qr_scan", "ios": "https://dc.lft.to/lastmile_qr_scan"}}, {"bike_id": "89a242eeca9e6ec84a0179ac3aff701e", "fusion_lon": 0.0, "name": "89a242eeca9e6ec84a0179ac3aff701e", "lat": 38.92732266666667, "is_disabled": 0, "is_reserved": 0, "lon": -77.022775, "type": "electric_scooter", "fusion_lat": 0.0, "rental_uris": {"android": "https://dc.lft.to/lastmile_qr_scan", "ios": "https://dc.lft.to/lastmile_qr_scan"}}, {"bike_id": "74ea449a329b3947571fbefe1e49a713", "fusion_lon": 0.0, "name": "74ea449a329b3947571fbefe1e49a713", "lat": 38.893520333333335, "is_disabled": 0, "is_reserved": 0, "lon": -77.18744033333333, "type": "electric_bike", "fusion_lat": 0.0, "rental_uris": {"android": "https://dc.lft.to/lastmile_qr_scan", "ios": "https://dc.lft.to/lastmile_qr_scan"}}, {"bike_id": "d565c2516e5ca3d8d14813b20bf0b3b0", "fusion_lon": 0.0, "name": "d565c2516e5ca3d8d14813b20bf0b3b0", "lat": 38.89429916666667, "is_disabled": 0, "is_reserved": 0, "lon": -77.001039, "type": "electric_scooter", "fusion_lat": 0.0, "rental_uris": {"android": "https://dc.lft.to/lastmile_qr_scan", "ios": "https://dc.lft.to/lastmile_qr_scan"}}, {"bike_id": "e93ea11be6c4b48082fcc4a9bda39993", "fusion_lon": 0.0, "name": "e93ea11be6c4b48082fcc4a9bda39993", "lat": 38.89218616666667, "is_disabled": 0, "is_reserved": 0, "lon": -77.03131266666666, "type": "electric_scooter", "fusion_lat": 0.0, "rental_uris": {"android": "https://dc.lft.to/lastmile_qr_scan", "ios": "https://dc.lft.to/lastmile_qr_scan"}}, {"bike_id": "2f97516ca2eca50d197938130821023c", "fusion_lon": 0.0, "name": "2f97516ca2eca50d197938130821023c", "lat": 38.90489933333333, "is_disabled": 0, "is_reserved": 0, "lon": -76.97579083333333, "type": "electric_bike", "fusion_lat": 0.0, "rental_uris": {"android": "https://dc.lft.to/lastmile_qr_scan", "ios": "https://dc.lft.to/lastmile_qr_scan"}}, {"bike_id": "d4c0e1371562ecaa3e93f7575c2ffa65", "fusion_lon": 0.0, "name": "d4c0e1371562ecaa3e93f7575c2ffa65", "lat": 38.913999833333335, "is_disabled": 0, "is_reserved": 0, "lon": -77.024238, "type": "electric_scooter", "fusion_lat": 0.0, "rental_uris": {"android": "https://dc.lft.to/lastmile_qr_scan", "ios": "https://dc.lft.to/lastmile_qr_scan"}}, {"bike_id": "773a9a40d35230680dc77bd8004cc998", "fusion_lon": 0.0, "name": "773a9a40d35230680dc77bd8004cc998", "lat": 38.90397883333333, "is_disabled": 0, "is_reserved": 0, "lon": -77.06306616666667, "type": "electric_scooter", "fusion_lat": 0.0, "rental_uris": {"android": "https://dc.lft.to/lastmile_qr_scan", "ios": "https://dc.lft.to/lastmile_qr_scan"}}, {"bike_id": "975e3d7b477226986a752f570097ee01", "fusion_lon": 0.0, "name": "975e3d7b477226986a752f570097ee01", "lat": 38.911130666666665, "is_disabled": 0, "is_reserved": 0, "lon": -77.04152, "type": "electric_scooter", "fusion_lat": 0.0, "rental_uris": {"android": "https://dc.lft.to/lastmile_qr_scan", "ios": "https://dc.lft.to/lastmile_qr_scan"}}, {"bike_id": "34159e1af295f75705e6d35f9c30c305", "fusion_lon": 0.0, "name": "34159e1af295f75705e6d35f9c30c305", "lat": 38.86508716666667, "is_disabled": 0, "is_reserved": 0, "lon": -76.9900815, "type": "electric_scooter", "fusion_lat": 0.0, "rental_uris": {"android": "https://dc.lft.to/lastmile_qr_scan", "ios": "https://dc.lft.to/lastmile_qr_scan"}}, {"bike_id": "605b5e098cee8d70509cd151f1101b7c", "fusion_lon": 0.0, "name": "605b5e098cee8d70509cd151f1101b7c", "lat": 38.8193685, "is_disabled": 0, "is_reserved": 0, "lon": -77.0020175, "type": "electric_bike", "fusion_lat": 0.0, "rental_uris": {"android": "https://dc.lft.to/lastmile_qr_scan", "ios": "https://dc.lft.to/lastmile_qr_scan"}}, {"bike_id": "6a322be8f26b60db0929b593a0e4f080", "fusion_lon": 0.0, "name": "6a322be8f26b60db0929b593a0e4f080", "lat": 38.92145166666667, "is_disabled": 0, "is_reserved": 0, "lon": -77.04351916666667, "type": "electric_scooter", "fusion_lat": 0.0, "rental_uris": {"android": "https://dc.lft.to/lastmile_qr_scan", "ios": "https://dc.lft.to/lastmile_qr_scan"}}, {"bike_id": "9683c9f8beb8973fdb9fe7eee73802dc", "fusion_lon": 0.0, "name": "9683c9f8beb8973fdb9fe7eee73802dc", "lat": 38.92414633333333, "is_disabled": 0, "is_reserved": 0, "lon": -77.01946333333333, "type": "electric_scooter", "fusion_lat": 0.0, "rental_uris": {"android": "https://dc.lft.to/lastmile_qr_scan", "ios": "https://dc.lft.to/lastmile_qr_scan"}}, {"bike_id": "17995835a4959a83a16b25c94a581ec7", "fusion_lon": 0.0, "name": "17995835a4959a83a16b25c94a581ec7", "lat": 38.92224383333333, "is_disabled": 0, "is_reserved": 0, "lon": -77.04636883333333, "type": "electric_scooter", "fusion_lat": 0.0, "rental_uris": {"android": "https://dc.lft.to/lastmile_qr_scan", "ios": "https://dc.lft.to/lastmile_qr_scan"}}, {"bike_id": "496622b6e72c1a13c0f5d81ca0b1d073", "fusion_lon": 0.0, "name": "496622b6e72c1a13c0f5d81ca0b1d073", "lat": 38.90323133333333, "is_disabled": 0, "is_reserved": 0, "lon": -77.05012816666667, "type": "electric_scooter", "fusion_lat": 0.0, "rental_uris": {"android": "https://dc.lft.to/lastmile_qr_scan", "ios": "https://dc.lft.to/lastmile_qr_scan"}}, {"bike_id": "a6e1da3abb146ea5bbd9abf9bffdd39b", "fusion_lon": 0.0, "name": "a6e1da3abb146ea5bbd9abf9bffdd39b", "lat": 38.9811095, "is_disabled": 0, "is_reserved": 0, "lon": -77.026616, "type": "electric_scooter", "fusion_lat": 0.0, "rental_uris": {"android": "https://dc.lft.to/lastmile_qr_scan", "ios": "https://dc.lft.to/lastmile_qr_scan"}}, {"bike_id": "8670e86762ba69077496de9a6f4980f1", "fusion_lon": 0.0, "name": "8670e86762ba69077496de9a6f4980f1", "lat": 38.891009, "is_disabled": 0, "is_reserved": 0, "lon": -76.93479033333334, "type": "electric_bike", "fusion_lat": 0.0, "rental_uris": {"android": "https://dc.lft.to/lastmile_qr_scan", "ios": "https://dc.lft.to/lastmile_qr_scan"}}, {"bike_id": "e68edca1b93647f2cb0a901ad8aea8dd", "fusion_lon": 0.0, "name": "e68edca1b93647f2cb0a901ad8aea8dd", "lat": 38.914055, "is_disabled": 0, "is_reserved": 0, "lon": -77.03262416666666, "type": "electric_scooter", "fusion_lat": 0.0, "rental_uris": {"android": "https://dc.lft.to/lastmile_qr_scan", "ios": "https://dc.lft.to/lastmile_qr_scan"}}, {"bike_id": "5ecc2cef1000f5b7c82fa56969f3ca83", "fusion_lon": 0.0, "name": "5ecc2cef1000f5b7c82fa56969f3ca83", "lat": 38.88902433333333, "is_disabled": 0, "is_reserved": 0, "lon": -76.99207233333334, "type": "electric_scooter", "fusion_lat": 0.0, "rental_uris": {"android": "https://dc.lft.to/lastmile_qr_scan", "ios": "https://dc.lft.to/lastmile_qr_scan"}}, {"bike_id": "d2190182592b83252d4f5e0343b9f0b4", "fusion_lon": 0.0, "name": "d2190182592b83252d4f5e0343b9f0b4", "lat": 38.8921945, "is_disabled": 0, "is_reserved": 0, "lon": -77.02222633333334, "type": "electric_scooter", "fusion_lat": 0.0, "rental_uris": {"android": "https://dc.lft.to/lastmile_qr_scan", "ios": "https://dc.lft.to/lastmile_qr_scan"}}, {"bike_id": "726cd3cef04573979936c8c27fbc77c7", "fusion_lon": 0.0, "name": "726cd3cef04573979936c8c27fbc77c7", "lat": 38.849848333333334, "is_disabled": 0, "is_reserved": 0, "lon": -77.09760266666666, "type": "electric_bike", "fusion_lat": 0.0, "rental_uris": {"android": "https://dc.lft.to/lastmile_qr_scan", "ios": "https://dc.lft.to/lastmile_qr_scan"}}, {"bike_id": "35f635b5a02e20d4d859c42b1cd9f6d5", "fusion_lon": 0.0, "name": "35f635b5a02e20d4d859c42b1cd9f6d5", "lat": 38.91705416666667, "is_disabled": 0, "is_reserved": 0, "lon": -77.04144, "type": "electric_scooter", "fusion_lat": 0.0, "rental_uris": {"android": "https://dc.lft.to/lastmile_qr_scan", "ios": "https://dc.lft.to/lastmile_qr_scan"}}, {"bike_id": "ff93ac71206413fa1985b5efc8a63d44", "fusion_lon": 0.0, "name": "ff93ac71206413fa1985b5efc8a63d44", "lat": 38.9027875, "is_disabled": 0, "is_reserved": 0, "lon": -77.02313216666667, "type": "electric_scooter", "fusion_lat": 0.0, "rental_uris": {"android": "https://dc.lft.to/lastmile_qr_scan", "ios": "https://dc.lft.to/lastmile_qr_scan"}}, {"bike_id": "1cd015a715405e8d57e96fbd5d9ec071", "fusion_lon": 0.0, "name": "1cd015a715405e8d57e96fbd5d9ec071", "lat": 38.92073166666667, "is_disabled": 0, "is_reserved": 0, "lon": -76.99727416666667, "type": "electric_scooter", "fusion_lat": 0.0, "rental_uris": {"android": "https://dc.lft.to/lastmile_qr_scan", "ios": "https://dc.lft.to/lastmile_qr_scan"}}, {"bike_id": "cc527dc3aa718ef10ce9cccb25223d10", "fusion_lon": 0.0, "name": "cc527dc3aa718ef10ce9cccb25223d10", "lat": 38.813274166666666, "is_disabled": 0, "is_reserved": 0, "lon": -77.0508945, "type": "electric_bike", "fusion_lat": 0.0, "rental_uris": {"android": "https://dc.lft.to/lastmile_qr_scan", "ios": "https://dc.lft.to/lastmile_qr_scan"}}, {"bike_id": "d278c5ab7feac37d69eb2b3c957027d5", "fusion_lon": 0.0, "name": "d278c5ab7feac37d69eb2b3c957027d5", "lat": 38.91673483333334, "is_disabled": 0, "is_reserved": 0, "lon": -77.03691183333333, "type": "electric_scooter", "fusion_lat": 0.0, "rental_uris": {"android": "https://dc.lft.to/lastmile_qr_scan", "ios": "https://dc.lft.to/lastmile_qr_scan"}}, {"bike_id": "36e3255c87aef1cbf0e081d3ec1c5a0c", "fusion_lon": 0.0, "name": "36e3255c87aef1cbf0e081d3ec1c5a0c", "lat": 38.9319335, "is_disabled": 0, "is_reserved": 0, "lon": -77.22930066666666, "type": "electric_bike", "fusion_lat": 0.0, "rental_uris": {"android": "https://dc.lft.to/lastmile_qr_scan", "ios": "https://dc.lft.to/lastmile_qr_scan"}}, {"bike_id": "8e66c62ab413bc358123b3de4e8692c9", "fusion_lon": 0.0, "name": "8e66c62ab413bc358123b3de4e8692c9", "lat": 38.88292666666667, "is_disabled": 0, "is_reserved": 0, "lon": -77.024787, "type": "electric_scooter", "fusion_lat": 0.0, "rental_uris": {"android": "https://dc.lft.to/lastmile_qr_scan", "ios": "https://dc.lft.to/lastmile_qr_scan"}}, {"bike_id": "b7b1acf17511f95b1139ba5ef7ec9f02", "fusion_lon": 0.0, "name": "b7b1acf17511f95b1139ba5ef7ec9f02", "lat": 38.88380183333334, "is_disabled": 0, "is_reserved": 0, "lon": -77.01989633333334, "type": "electric_scooter", "fusion_lat": 0.0, "rental_uris": {"android": "https://dc.lft.to/lastmile_qr_scan", "ios": "https://dc.lft.to/lastmile_qr_scan"}}, {"bike_id": "ea99df73fb56c730cd1dc7b409cdc154", "fusion_lon": 0.0, "name": "ea99df73fb56c730cd1dc7b409cdc154", "lat": 38.91351, "is_disabled": 0, "is_reserved": 0, "lon": -77.03437266666667, "type": "electric_scooter", "fusion_lat": 0.0, "rental_uris": {"android": "https://dc.lft.to/lastmile_qr_scan", "ios": "https://dc.lft.to/lastmile_qr_scan"}}, {"bike_id": "a33e5bdc9fa2c103c7b5341a7d08c6f3", "fusion_lon": 0.0, "name": "a33e5bdc9fa2c103c7b5341a7d08c6f3", "lat": 38.91113633333333, "is_disabled": 0, "is_reserved": 0, "lon": -77.08131316666666, "type": "electric_scooter", "fusion_lat": 0.0, "rental_uris": {"android": "https://dc.lft.to/lastmile_qr_scan", "ios": "https://dc.lft.to/lastmile_qr_scan"}}, {"bike_id": "d2603ef4b377cab51999432f1c90f0f1", "fusion_lon": 0.0, "name": "d2603ef4b377cab51999432f1c90f0f1", "lat": 38.936053333333334, "is_disabled": 0, "is_reserved": 0, "lon": -77.05856566666667, "type": "electric_scooter", "fusion_lat": 0.0, "rental_uris": {"android": "https://dc.lft.to/lastmile_qr_scan", "ios": "https://dc.lft.to/lastmile_qr_scan"}}, {"bike_id": "a1fb3eb365e79be2b3f1da94827afd1a", "fusion_lon": 0.0, "name": "a1fb3eb365e79be2b3f1da94827afd1a", "lat": 38.9095595, "is_disabled": 0, "is_reserved": 0, "lon": -76.9843295, "type": "electric_bike", "fusion_lat": 0.0, "rental_uris": {"android": "https://dc.lft.to/lastmile_qr_scan", "ios": "https://dc.lft.to/lastmile_qr_scan"}}, {"bike_id": "2da59cee5a1f90a8a346ba7a8120ad85", "fusion_lon": 0.0, "name": "2da59cee5a1f90a8a346ba7a8120ad85", "lat": 38.902673, "is_disabled": 0, "is_reserved": 0, "lon": -77.05314866666667, "type": "electric_scooter", "fusion_lat": 0.0, "rental_uris": {"android": "https://dc.lft.to/lastmile_qr_scan", "ios": "https://dc.lft.to/lastmile_qr_scan"}}, {"bike_id": "1dc48f6b24367c1653b5c292e6a1bca1", "fusion_lon": 0.0, "name": "1dc48f6b24367c1653b5c292e6a1bca1", "lat": 38.827893833333334, "is_disabled": 0, "is_reserved": 0, "lon": -77.12490033333333, "type": "electric_bike", "fusion_lat": 0.0, "rental_uris": {"android": "https://dc.lft.to/lastmile_qr_scan", "ios": "https://dc.lft.to/lastmile_qr_scan"}}, {"bike_id": "884101a3a0962c674908aa4c6d78a23d", "fusion_lon": 0.0, "name": "884101a3a0962c674908aa4c6d78a23d", "lat": 38.88733783333333, "is_disabled": 0, "is_reserved": 0, "lon": -77.01531716666666, "type": "electric_scooter", "fusion_lat": 0.0, "rental_uris": {"android": "https://dc.lft.to/lastmile_qr_scan", "ios": "https://dc.lft.to/lastmile_qr_scan"}}, {"bike_id": "d9f7886bc7b889982a31a5c07c68e53e", "fusion_lon": 0.0, "name": "d9f7886bc7b889982a31a5c07c68e53e", "lat": 38.86679933333333, "is_disabled": 0, "is_reserved": 0, "lon": -76.98572466666667, "type": "electric_scooter", "fusion_lat": 0.0, "rental_uris": {"android": "https://dc.lft.to/lastmile_qr_scan", "ios": "https://dc.lft.to/lastmile_qr_scan"}}, {"bike_id": "a0541fe95d2afc00f7e415305f181e8e", "fusion_lon": 0.0, "name": "a0541fe95d2afc00f7e415305f181e8e", "lat": 38.920195166666666, "is_disabled": 0, "is_reserved": 0, "lon": -77.03149583333334, "type": "electric_scooter", "fusion_lat": 0.0, "rental_uris": {"android": "https://dc.lft.to/lastmile_qr_scan", "ios": "https://dc.lft.to/lastmile_qr_scan"}}, {"bike_id": "8ab59531db9a051b85ba19be9ddfa435", "fusion_lon": 0.0, "name": "8ab59531db9a051b85ba19be9ddfa435", "lat": 38.8662915, "is_disabled": 0, "is_reserved": 0, "lon": -76.98712916666666, "type": "electric_scooter", "fusion_lat": 0.0, "rental_uris": {"android": "https://dc.lft.to/lastmile_qr_scan", "ios": "https://dc.lft.to/lastmile_qr_scan"}}, {"bike_id": "0421b1d481dc04f3431d8e4fe662625d", "fusion_lon": 0.0, "name": "0421b1d481dc04f3431d8e4fe662625d", "lat": 38.917040666666665, "is_disabled": 0, "is_reserved": 0, "lon": -77.041737, "type": "electric_scooter", "fusion_lat": 0.0, "rental_uris": {"android": "https://dc.lft.to/lastmile_qr_scan", "ios": "https://dc.lft.to/lastmile_qr_scan"}}, {"bike_id": "986d14009eda4e12787b6ffa456f7d07", "fusion_lon": 0.0, "name": "986d14009eda4e12787b6ffa456f7d07", "lat": 38.927127666666664, "is_disabled": 0, "is_reserved": 0, "lon": -77.03993083333333, "type": "electric_scooter", "fusion_lat": 0.0, "rental_uris": {"android": "https://dc.lft.to/lastmile_qr_scan", "ios": "https://dc.lft.to/lastmile_qr_scan"}}, {"bike_id": "95eb666a72791a1191efdd00d612b9dc", "fusion_lon": 0.0, "name": "95eb666a72791a1191efdd00d612b9dc", "lat": 38.887474, "is_disabled": 0, "is_reserved": 0, "lon": -77.02846666666667, "type": "electric_scooter", "fusion_lat": 0.0, "rental_uris": {"android": "https://dc.lft.to/lastmile_qr_scan", "ios": "https://dc.lft.to/lastmile_qr_scan"}}, {"bike_id": "29d69fa0617d59c3339bfd72a1510619", "fusion_lon": 0.0, "name": "29d69fa0617d59c3339bfd72a1510619", "lat": 38.882949833333335, "is_disabled": 0, "is_reserved": 0, "lon": -77.00355466666667, "type": "electric_scooter", "fusion_lat": 0.0, "rental_uris": {"android": "https://dc.lft.to/lastmile_qr_scan", "ios": "https://dc.lft.to/lastmile_qr_scan"}}, {"bike_id": "55f59aacdf9a56a5a2e93ae4e95b8bcd", "fusion_lon": 0.0, "name": "55f59aacdf9a56a5a2e93ae4e95b8bcd", "lat": 38.88534766666667, "is_disabled": 0, "is_reserved": 0, "lon": -77.00053133333333, "type": "electric_scooter", "fusion_lat": 0.0, "rental_uris": {"android": "https://dc.lft.to/lastmile_qr_scan", "ios": "https://dc.lft.to/lastmile_qr_scan"}}, {"bike_id": "edfd0a054cf6479612f37fb1f1e01814", "fusion_lon": 0.0, "name": "edfd0a054cf6479612f37fb1f1e01814", "lat": 38.860291833333335, "is_disabled": 0, "is_reserved": 0, "lon": -76.98373533333333, "type": "electric_scooter", "fusion_lat": 0.0, "rental_uris": {"android": "https://dc.lft.to/lastmile_qr_scan", "ios": "https://dc.lft.to/lastmile_qr_scan"}}, {"bike_id": "dd4fe408f5f804152203e68d5aa59d93", "fusion_lon": 0.0, "name": "dd4fe408f5f804152203e68d5aa59d93", "lat": 38.865113666666666, "is_disabled": 0, "is_reserved": 0, "lon": -76.973282, "type": "electric_bike", "fusion_lat": 0.0, "rental_uris": {"android": "https://dc.lft.to/lastmile_qr_scan", "ios": "https://dc.lft.to/lastmile_qr_scan"}}, {"bike_id": "64046444d43de5c2f732da5d5d241db5", "fusion_lon": 0.0, "name": "64046444d43de5c2f732da5d5d241db5", "lat": 38.9072885, "is_disabled": 0, "is_reserved": 0, "lon": -77.02369916666666, "type": "electric_scooter", "fusion_lat": 0.0, "rental_uris": {"android": "https://dc.lft.to/lastmile_qr_scan", "ios": "https://dc.lft.to/lastmile_qr_scan"}}, {"bike_id": "fdcf3ffb3bf39096ad22302e47819ec2", "fusion_lon": 0.0, "name": "fdcf3ffb3bf39096ad22302e47819ec2", "lat": 38.924680333333335, "is_disabled": 0, "is_reserved": 0, "lon": -77.0221445, "type": "electric_scooter", "fusion_lat": 0.0, "rental_uris": {"android": "https://dc.lft.to/lastmile_qr_scan", "ios": "https://dc.lft.to/lastmile_qr_scan"}}, {"bike_id": "a352da465522a548a4bcf4b4ef7cfb14", "fusion_lon": 0.0, "name": "a352da465522a548a4bcf4b4ef7cfb14", "lat": 38.89225, "is_disabled": 0, "is_reserved": 0, "lon": -77.04180683333334, "type": "electric_scooter", "fusion_lat": 0.0, "rental_uris": {"android": "https://dc.lft.to/lastmile_qr_scan", "ios": "https://dc.lft.to/lastmile_qr_scan"}}, {"bike_id": "3b614a969b11ef41ffc87b438c26ce33", "fusion_lon": 0.0, "name": "3b614a969b11ef41ffc87b438c26ce33", "lat": 38.89830033333333, "is_disabled": 0, "is_reserved": 0, "lon": -77.04831733333333, "type": "electric_scooter", "fusion_lat": 0.0, "rental_uris": {"android": "https://dc.lft.to/lastmile_qr_scan", "ios": "https://dc.lft.to/lastmile_qr_scan"}}, {"bike_id": "891ad39638a23ad55719683d8d531f73", "fusion_lon": 0.0, "name": "891ad39638a23ad55719683d8d531f73", "lat": 38.904037333333335, "is_disabled": 0, "is_reserved": 0, "lon": -77.024089, "type": "electric_scooter", "fusion_lat": 0.0, "rental_uris": {"android": "https://dc.lft.to/lastmile_qr_scan", "ios": "https://dc.lft.to/lastmile_qr_scan"}}, {"bike_id": "78875bceaccf3d57347d782b99855ad9", "fusion_lon": 0.0, "name": "78875bceaccf3d57347d782b99855ad9", "lat": 38.913033, "is_disabled": 0, "is_reserved": 0, "lon": -77.03174416666667, "type": "electric_scooter", "fusion_lat": 0.0, "rental_uris": {"android": "https://dc.lft.to/lastmile_qr_scan", "ios": "https://dc.lft.to/lastmile_qr_scan"}}, {"bike_id": "e3700b440d0e1c6335650e6012e01626", "fusion_lon": 0.0, "name": "e3700b440d0e1c6335650e6012e01626", "lat": 38.949596166666666, "is_disabled": 0, "is_reserved": 0, "lon": -77.07525266666667, "type": "electric_scooter", "fusion_lat": 0.0, "rental_uris": {"android": "https://dc.lft.to/lastmile_qr_scan", "ios": "https://dc.lft.to/lastmile_qr_scan"}}, {"bike_id": "3744279ae9f9f291d170ee0fe1b19391", "fusion_lon": 0.0, "name": "3744279ae9f9f291d170ee0fe1b19391", "lat": 38.88383416666667, "is_disabled": 0, "is_reserved": 0, "lon": -76.9304505, "type": "electric_scooter", "fusion_lat": 0.0, "rental_uris": {"android": "https://dc.lft.to/lastmile_qr_scan", "ios": "https://dc.lft.to/lastmile_qr_scan"}}, {"bike_id": "ca9493e30373fa878e1426e83a2cc42b", "fusion_lon": 0.0, "name": "ca9493e30373fa878e1426e83a2cc42b", "lat": 38.906743, "is_disabled": 0, "is_reserved": 0, "lon": -77.03757883333333, "type": "electric_scooter", "fusion_lat": 0.0, "rental_uris": {"android": "https://dc.lft.to/lastmile_qr_scan", "ios": "https://dc.lft.to/lastmile_qr_scan"}}, {"bike_id": "62daf0f46a52e3b557203e4e0cddc8ef", "fusion_lon": 0.0, "name": "62daf0f46a52e3b557203e4e0cddc8ef", "lat": 38.909941, "is_disabled": 0, "is_reserved": 0, "lon": -77.02685333333334, "type": "electric_scooter", "fusion_lat": 0.0, "rental_uris": {"android": "https://dc.lft.to/lastmile_qr_scan", "ios": "https://dc.lft.to/lastmile_qr_scan"}}, {"bike_id": "0cc3a6701b06e28a19336f5aab7a0696", "fusion_lon": 0.0, "name": "0cc3a6701b06e28a19336f5aab7a0696", "lat": 38.9346905, "is_disabled": 0, "is_reserved": 0, "lon": -77.02972283333334, "type": "electric_scooter", "fusion_lat": 0.0, "rental_uris": {"android": "https://dc.lft.to/lastmile_qr_scan", "ios": "https://dc.lft.to/lastmile_qr_scan"}}, {"bike_id": "80601529a89741bd242ad89a667c2c1a", "fusion_lon": 0.0, "name": "80601529a89741bd242ad89a667c2c1a", "lat": 38.9013365, "is_disabled": 0, "is_reserved": 0, "lon": -77.04731, "type": "electric_scooter", "fusion_lat": 0.0, "rental_uris": {"android": "https://dc.lft.to/lastmile_qr_scan", "ios": "https://dc.lft.to/lastmile_qr_scan"}}, {"bike_id": "c643cb0483aafa76fecbaaf58cea0db1", "fusion_lon": 0.0, "name": "c643cb0483aafa76fecbaaf58cea0db1", "lat": 38.92243366666667, "is_disabled": 0, "is_reserved": 0, "lon": -77.08078166666667, "type": "electric_scooter", "fusion_lat": 0.0, "rental_uris": {"android": "https://dc.lft.to/lastmile_qr_scan", "ios": "https://dc.lft.to/lastmile_qr_scan"}}, {"bike_id": "a71fb9339c25d9812a130f657c841854", "fusion_lon": 0.0, "name": "a71fb9339c25d9812a130f657c841854", "lat": 38.9176215, "is_disabled": 0, "is_reserved": 0, "lon": -77.028114, "type": "electric_scooter", "fusion_lat": 0.0, "rental_uris": {"android": "https://dc.lft.to/lastmile_qr_scan", "ios": "https://dc.lft.to/lastmile_qr_scan"}}, {"bike_id": "3a7a4f7dff551cf55c0401d40e9856d9", "fusion_lon": 0.0, "name": "3a7a4f7dff551cf55c0401d40e9856d9", "lat": 38.8757985, "is_disabled": 0, "is_reserved": 0, "lon": -77.23413983333333, "type": "electric_bike", "fusion_lat": 0.0, "rental_uris": {"android": "https://dc.lft.to/lastmile_qr_scan", "ios": "https://dc.lft.to/lastmile_qr_scan"}}, {"bike_id": "240c3401d79175841f54ebf7ae0bdcc4", "fusion_lon": 0.0, "name": "240c3401d79175841f54ebf7ae0bdcc4", "lat": 38.892356166666666, "is_disabled": 0, "is_reserved": 0, "lon": -77.02610833333334, "type": "electric_scooter", "fusion_lat": 0.0, "rental_uris": {"android": "https://dc.lft.to/lastmile_qr_scan", "ios": "https://dc.lft.to/lastmile_qr_scan"}}, {"bike_id": "a4a95e1562bd1a39846a0e4886a0c609", "fusion_lon": 0.0, "name": "a4a95e1562bd1a39846a0e4886a0c609", "lat": 38.89238616666667, "is_disabled": 0, "is_reserved": 0, "lon": -77.02611583333334, "type": "electric_scooter", "fusion_lat": 0.0, "rental_uris": {"android": "https://dc.lft.to/lastmile_qr_scan", "ios": "https://dc.lft.to/lastmile_qr_scan"}}, {"bike_id": "461d3d4831ef2d60959be388d45b53f2", "fusion_lon": 0.0, "name": "461d3d4831ef2d60959be388d45b53f2", "lat": 38.93251566666667, "is_disabled": 0, "is_reserved": 0, "lon": -77.03273666666666, "type": "electric_scooter", "fusion_lat": 0.0, "rental_uris": {"android": "https://dc.lft.to/lastmile_qr_scan", "ios": "https://dc.lft.to/lastmile_qr_scan"}}, {"bike_id": "66fb9411179e2dc39706c9ef2c242645", "fusion_lon": 0.0, "name": "66fb9411179e2dc39706c9ef2c242645", "lat": 38.928686666666664, "is_disabled": 0, "is_reserved": 0, "lon": -77.0323995, "type": "electric_scooter", "fusion_lat": 0.0, "rental_uris": {"android": "https://dc.lft.to/lastmile_qr_scan", "ios": "https://dc.lft.to/lastmile_qr_scan"}}, {"bike_id": "05d3fc3421adf2a4c64f807c5131bf95", "fusion_lon": 0.0, "name": "05d3fc3421adf2a4c64f807c5131bf95", "lat": 38.92996566666667, "is_disabled": 0, "is_reserved": 0, "lon": -77.03794683333334, "type": "electric_scooter", "fusion_lat": 0.0, "rental_uris": {"android": "https://dc.lft.to/lastmile_qr_scan", "ios": "https://dc.lft.to/lastmile_qr_scan"}}, {"bike_id": "20f8b6d5112895397638b462452dde0d", "fusion_lon": 0.0, "name": "20f8b6d5112895397638b462452dde0d", "lat": 38.91606783333334, "is_disabled": 0, "is_reserved": 0, "lon": -77.03138716666666, "type": "electric_scooter", "fusion_lat": 0.0, "rental_uris": {"android": "https://dc.lft.to/lastmile_qr_scan", "ios": "https://dc.lft.to/lastmile_qr_scan"}}, {"bike_id": "b284cdea6d3c0eea915a9e779a24c472", "fusion_lon": 0.0, "name": "b284cdea6d3c0eea915a9e779a24c472", "lat": 38.89513733333333, "is_disabled": 0, "is_reserved": 0, "lon": -77.022988, "type": "electric_scooter", "fusion_lat": 0.0, "rental_uris": {"android": "https://dc.lft.to/lastmile_qr_scan", "ios": "https://dc.lft.to/lastmile_qr_scan"}}, {"bike_id": "bc6f69e13a246d1dc2209e059d535d64", "fusion_lon": 0.0, "name": "bc6f69e13a246d1dc2209e059d535d64", "lat": 38.9072335, "is_disabled": 0, "is_reserved": 0, "lon": -77.0236965, "type": "electric_scooter", "fusion_lat": 0.0, "rental_uris": {"android": "https://dc.lft.to/lastmile_qr_scan", "ios": "https://dc.lft.to/lastmile_qr_scan"}}, {"bike_id": "8aba420dead568c2af540a9ef502f74f", "fusion_lon": 0.0, "name": "8aba420dead568c2af540a9ef502f74f", "lat": 38.88520166666667, "is_disabled": 0, "is_reserved": 0, "lon": -76.92917933333334, "type": "electric_scooter", "fusion_lat": 0.0, "rental_uris": {"android": "https://dc.lft.to/lastmile_qr_scan", "ios": "https://dc.lft.to/lastmile_qr_scan"}}, {"bike_id": "51977536426e466a9e3b33c4a9d238c2", "fusion_lon": 0.0, "name": "51977536426e466a9e3b33c4a9d238c2", "lat": 38.90550266666666, "is_disabled": 0, "is_reserved": 0, "lon": -77.032458, "type": "electric_scooter", "fusion_lat": 0.0, "rental_uris": {"android": "https://dc.lft.to/lastmile_qr_scan", "ios": "https://dc.lft.to/lastmile_qr_scan"}}, {"bike_id": "711feaae3c4e9009076e16ae4007bdd2", "fusion_lon": 0.0, "name": "711feaae3c4e9009076e16ae4007bdd2", "lat": 38.90031233333333, "is_disabled": 0, "is_reserved": 0, "lon": -77.00766033333333, "type": "electric_bike", "fusion_lat": 0.0, "rental_uris": {"android": "https://dc.lft.to/lastmile_qr_scan", "ios": "https://dc.lft.to/lastmile_qr_scan"}}, {"bike_id": "2ec47630c8488ff8edf4a6e8946c0ed6", "fusion_lon": 0.0, "name": "2ec47630c8488ff8edf4a6e8946c0ed6", "lat": 38.892715, "is_disabled": 0, "is_reserved": 0, "lon": -77.05030483333333, "type": "electric_scooter", "fusion_lat": 0.0, "rental_uris": {"android": "https://dc.lft.to/lastmile_qr_scan", "ios": "https://dc.lft.to/lastmile_qr_scan"}}, {"bike_id": "037d295633a152e067a88f5a87c3b391", "fusion_lon": 0.0, "name": "037d295633a152e067a88f5a87c3b391", "lat": 38.907888, "is_disabled": 0, "is_reserved": 0, "lon": -77.04330166666666, "type": "electric_scooter", "fusion_lat": 0.0, "rental_uris": {"android": "https://dc.lft.to/lastmile_qr_scan", "ios": "https://dc.lft.to/lastmile_qr_scan"}}, {"bike_id": "53bac0d16fb27d7773cb9654b4de352a", "fusion_lon": 0.0, "name": "53bac0d16fb27d7773cb9654b4de352a", "lat": 38.89221216666667, "is_disabled": 0, "is_reserved": 0, "lon": -77.041955, "type": "electric_scooter", "fusion_lat": 0.0, "rental_uris": {"android": "https://dc.lft.to/lastmile_qr_scan", "ios": "https://dc.lft.to/lastmile_qr_scan"}}, {"bike_id": "095f553dd4fe4ceb4be0d5ca86cd9935", "fusion_lon": 0.0, "name": "095f553dd4fe4ceb4be0d5ca86cd9935", "lat": 38.95491666666667, "is_disabled": 0, "is_reserved": 0, "lon": -77.017224, "type": "electric_scooter", "fusion_lat": 0.0, "rental_uris": {"android": "https://dc.lft.to/lastmile_qr_scan", "ios": "https://dc.lft.to/lastmile_qr_scan"}}, {"bike_id": "35c4ed3a2b5242cf3a57c2b84e221486", "fusion_lon": 0.0, "name": "35c4ed3a2b5242cf3a57c2b84e221486", "lat": 38.89225033333334, "is_disabled": 0, "is_reserved": 0, "lon": -77.01385416666666, "type": "electric_bike", "fusion_lat": 0.0, "rental_uris": {"android": "https://dc.lft.to/lastmile_qr_scan", "ios": "https://dc.lft.to/lastmile_qr_scan"}}, {"bike_id": "66ac1ed0554dfa177ee8978faa327a32", "fusion_lon": 0.0, "name": "66ac1ed0554dfa177ee8978faa327a32", "lat": 38.92407016666667, "is_disabled": 0, "is_reserved": 0, "lon": -77.020433, "type": "electric_scooter", "fusion_lat": 0.0, "rental_uris": {"android": "https://dc.lft.to/lastmile_qr_scan", "ios": "https://dc.lft.to/lastmile_qr_scan"}}, {"bike_id": "66d5b73becc3ea79573ece3e8a1a9b3e", "fusion_lon": 0.0, "name": "66d5b73becc3ea79573ece3e8a1a9b3e", "lat": 38.916313, "is_disabled": 0, "is_reserved": 0, "lon": -77.04004683333334, "type": "electric_scooter", "fusion_lat": 0.0, "rental_uris": {"android": "https://dc.lft.to/lastmile_qr_scan", "ios": "https://dc.lft.to/lastmile_qr_scan"}}, {"bike_id": "a77459be7b5e693bca7ac9e58ff44b2d", "fusion_lon": 0.0, "name": "a77459be7b5e693bca7ac9e58ff44b2d", "lat": 38.927838666666666, "is_disabled": 0, "is_reserved": 0, "lon": -77.03147816666667, "type": "electric_scooter", "fusion_lat": 0.0, "rental_uris": {"android": "https://dc.lft.to/lastmile_qr_scan", "ios": "https://dc.lft.to/lastmile_qr_scan"}}, {"bike_id": "a39232d286e983d1f9da90433eb33401", "fusion_lon": 0.0, "name": "a39232d286e983d1f9da90433eb33401", "lat": 38.90557533333333, "is_disabled": 0, "is_reserved": 0, "lon": -77.04639933333333, "type": "electric_scooter", "fusion_lat": 0.0, "rental_uris": {"android": "https://dc.lft.to/lastmile_qr_scan", "ios": "https://dc.lft.to/lastmile_qr_scan"}}, {"bike_id": "6c6f52333cdfe1bb82c4bcbb68a5a0f5", "fusion_lon": 0.0, "name": "6c6f52333cdfe1bb82c4bcbb68a5a0f5", "lat": 38.909601, "is_disabled": 0, "is_reserved": 0, "lon": -77.045407, "type": "electric_scooter", "fusion_lat": 0.0, "rental_uris": {"android": "https://dc.lft.to/lastmile_qr_scan", "ios": "https://dc.lft.to/lastmile_qr_scan"}}, {"bike_id": "ef5c62cbb140847e3eb737c22c891247", "fusion_lon": 0.0, "name": "ef5c62cbb140847e3eb737c22c891247", "lat": 38.928574, "is_disabled": 0, "is_reserved": 0, "lon": -77.01414433333333, "type": "electric_scooter", "fusion_lat": 0.0, "rental_uris": {"android": "https://dc.lft.to/lastmile_qr_scan", "ios": "https://dc.lft.to/lastmile_qr_scan"}}, {"bike_id": "69665c215849521711ffdab083e92158", "fusion_lon": 0.0, "name": "69665c215849521711ffdab083e92158", "lat": 38.8645795, "is_disabled": 0, "is_reserved": 0, "lon": -76.94529933333334, "type": "electric_bike", "fusion_lat": 0.0, "rental_uris": {"android": "https://dc.lft.to/lastmile_qr_scan", "ios": "https://dc.lft.to/lastmile_qr_scan"}}, {"bike_id": "8c502cf4219f8e98c9d3c548d0a12551", "fusion_lon": 0.0, "name": "8c502cf4219f8e98c9d3c548d0a12551", "lat": 38.921072333333335, "is_disabled": 0, "is_reserved": 0, "lon": -77.063293, "type": "electric_bike", "fusion_lat": 0.0, "rental_uris": {"android": "https://dc.lft.to/lastmile_qr_scan", "ios": "https://dc.lft.to/lastmile_qr_scan"}}, {"bike_id": "c82794441188e3c182cc5a10d2c42a8f", "fusion_lon": 0.0, "name": "c82794441188e3c182cc5a10d2c42a8f", "lat": 38.908586166666666, "is_disabled": 0, "is_reserved": 0, "lon": -76.99951133333333, "type": "electric_bike", "fusion_lat": 0.0, "rental_uris": {"android": "https://dc.lft.to/lastmile_qr_scan", "ios": "https://dc.lft.to/lastmile_qr_scan"}}, {"bike_id": "36be1b805b9ea2b40a17db8d229067b5", "fusion_lon": 0.0, "name": "36be1b805b9ea2b40a17db8d229067b5", "lat": 38.92100966666667, "is_disabled": 0, "is_reserved": 0, "lon": -77.04700083333333, "type": "electric_scooter", "fusion_lat": 0.0, "rental_uris": {"android": "https://dc.lft.to/lastmile_qr_scan", "ios": "https://dc.lft.to/lastmile_qr_scan"}}, {"bike_id": "627bd7aae1494cea7ef3b2336f558811", "fusion_lon": 0.0, "name": "627bd7aae1494cea7ef3b2336f558811", "lat": 38.898606666666666, "is_disabled": 0, "is_reserved": 0, "lon": -76.94632983333334, "type": "electric_scooter", "fusion_lat": 0.0, "rental_uris": {"android": "https://dc.lft.to/lastmile_qr_scan", "ios": "https://dc.lft.to/lastmile_qr_scan"}}, {"bike_id": "598b0124da3225a788b4fd853b3e1a3e", "fusion_lon": 0.0, "name": "598b0124da3225a788b4fd853b3e1a3e", "lat": 38.934564333333334, "is_disabled": 0, "is_reserved": 0, "lon": -77.04123166666666, "type": "electric_scooter", "fusion_lat": 0.0, "rental_uris": {"android": "https://dc.lft.to/lastmile_qr_scan", "ios": "https://dc.lft.to/lastmile_qr_scan"}}, {"bike_id": "ad515af7240b8a378b995be5c2c89d68", "fusion_lon": 0.0, "name": "ad515af7240b8a378b995be5c2c89d68", "lat": 38.95587033333334, "is_disabled": 0, "is_reserved": 0, "lon": -77.00632833333333, "type": "electric_scooter", "fusion_lat": 0.0, "rental_uris": {"android": "https://dc.lft.to/lastmile_qr_scan", "ios": "https://dc.lft.to/lastmile_qr_scan"}}, {"bike_id": "b3f0af486120ee97c98d0d92b575e56f", "fusion_lon": 0.0, "name": "b3f0af486120ee97c98d0d92b575e56f", "lat": 38.84277183333333, "is_disabled": 0, "is_reserved": 0, "lon": -77.04494866666667, "type": "electric_bike", "fusion_lat": 0.0, "rental_uris": {"android": "https://dc.lft.to/lastmile_qr_scan", "ios": "https://dc.lft.to/lastmile_qr_scan"}}, {"bike_id": "a3d352c08f31f24ffcfdc2433ec0e21b", "fusion_lon": 0.0, "name": "a3d352c08f31f24ffcfdc2433ec0e21b", "lat": 38.884828166666665, "is_disabled": 0, "is_reserved": 0, "lon": -77.007096, "type": "electric_scooter", "fusion_lat": 0.0, "rental_uris": {"android": "https://dc.lft.to/lastmile_qr_scan", "ios": "https://dc.lft.to/lastmile_qr_scan"}}, {"bike_id": "7ae7d3909326728a86358d541b89c931", "fusion_lon": 0.0, "name": "7ae7d3909326728a86358d541b89c931", "lat": 38.910929333333335, "is_disabled": 0, "is_reserved": 0, "lon": -77.03843883333333, "type": "electric_scooter", "fusion_lat": 0.0, "rental_uris": {"android": "https://dc.lft.to/lastmile_qr_scan", "ios": "https://dc.lft.to/lastmile_qr_scan"}}, {"bike_id": "5a50806d13fd5d5d0f10fd7e6db3ee3a", "fusion_lon": 0.0, "name": "5a50806d13fd5d5d0f10fd7e6db3ee3a", "lat": 38.90370566666667, "is_disabled": 0, "is_reserved": 0, "lon": -77.01648683333333, "type": "electric_scooter", "fusion_lat": 0.0, "rental_uris": {"android": "https://dc.lft.to/lastmile_qr_scan", "ios": "https://dc.lft.to/lastmile_qr_scan"}}, {"bike_id": "e3b2509b10460691c003a91ff92ccb46", "fusion_lon": 0.0, "name": "e3b2509b10460691c003a91ff92ccb46", "lat": 38.928716333333334, "is_disabled": 0, "is_reserved": 0, "lon": -77.03380383333334, "type": "electric_scooter", "fusion_lat": 0.0, "rental_uris": {"android": "https://dc.lft.to/lastmile_qr_scan", "ios": "https://dc.lft.to/lastmile_qr_scan"}}, {"bike_id": "ee45c1727a7f8b10791cce866418e9aa", "fusion_lon": 0.0, "name": "ee45c1727a7f8b10791cce866418e9aa", "lat": 38.86679983333333, "is_disabled": 0, "is_reserved": 0, "lon": -76.98565716666667, "type": "electric_scooter", "fusion_lat": 0.0, "rental_uris": {"android": "https://dc.lft.to/lastmile_qr_scan", "ios": "https://dc.lft.to/lastmile_qr_scan"}}, {"bike_id": "32be2c337ab238c64504e1da92bc4ba2", "fusion_lon": 0.0, "name": "32be2c337ab238c64504e1da92bc4ba2", "lat": 38.902416833333334, "is_disabled": 0, "is_reserved": 0, "lon": -77.034314, "type": "electric_scooter", "fusion_lat": 0.0, "rental_uris": {"android": "https://dc.lft.to/lastmile_qr_scan", "ios": "https://dc.lft.to/lastmile_qr_scan"}}, {"bike_id": "ef1f43cfb8f5b1f2ec98eef32906626e", "fusion_lon": 0.0, "name": "ef1f43cfb8f5b1f2ec98eef32906626e", "lat": 38.90958583333333, "is_disabled": 0, "is_reserved": 0, "lon": -77.04235733333333, "type": "electric_scooter", "fusion_lat": 0.0, "rental_uris": {"android": "https://dc.lft.to/lastmile_qr_scan", "ios": "https://dc.lft.to/lastmile_qr_scan"}}, {"bike_id": "0f69e58e2347b6aded4030c066ab9c6d", "fusion_lon": 0.0, "name": "0f69e58e2347b6aded4030c066ab9c6d", "lat": 38.90009366666666, "is_disabled": 0, "is_reserved": 0, "lon": -77.00683916666667, "type": "electric_scooter", "fusion_lat": 0.0, "rental_uris": {"android": "https://dc.lft.to/lastmile_qr_scan", "ios": "https://dc.lft.to/lastmile_qr_scan"}}, {"bike_id": "336df6480e62ab83f4076046b227b04f", "fusion_lon": 0.0, "name": "336df6480e62ab83f4076046b227b04f", "lat": 38.928381, "is_disabled": 0, "is_reserved": 0, "lon": -77.0326995, "type": "electric_scooter", "fusion_lat": 0.0, "rental_uris": {"android": "https://dc.lft.to/lastmile_qr_scan", "ios": "https://dc.lft.to/lastmile_qr_scan"}}, {"bike_id": "cc4889df3675ae9d61e8d397a2a3ec51", "fusion_lon": 0.0, "name": "cc4889df3675ae9d61e8d397a2a3ec51", "lat": 38.91116383333333, "is_disabled": 0, "is_reserved": 0, "lon": -77.0446, "type": "electric_scooter", "fusion_lat": 0.0, "rental_uris": {"android": "https://dc.lft.to/lastmile_qr_scan", "ios": "https://dc.lft.to/lastmile_qr_scan"}}, {"bike_id": "5bfe960328823096fb342ced94f374d4", "fusion_lon": 0.0, "name": "5bfe960328823096fb342ced94f374d4", "lat": 38.89230766666667, "is_disabled": 0, "is_reserved": 0, "lon": -77.0171395, "type": "electric_scooter", "fusion_lat": 0.0, "rental_uris": {"android": "https://dc.lft.to/lastmile_qr_scan", "ios": "https://dc.lft.to/lastmile_qr_scan"}}, {"bike_id": "9d5af23edbe4a40fbb95089fecae1110", "fusion_lon": 0.0, "name": "9d5af23edbe4a40fbb95089fecae1110", "lat": 38.884869, "is_disabled": 0, "is_reserved": 0, "lon": -77.007092, "type": "electric_scooter", "fusion_lat": 0.0, "rental_uris": {"android": "https://dc.lft.to/lastmile_qr_scan", "ios": "https://dc.lft.to/lastmile_qr_scan"}}, {"bike_id": "0dfb5a153d32435279d20ffc175ec7c7", "fusion_lon": 0.0, "name": "0dfb5a153d32435279d20ffc175ec7c7", "lat": 39.034031666666664, "is_disabled": 0, "is_reserved": 0, "lon": -77.0415435, "type": "electric_bike", "fusion_lat": 0.0, "rental_uris": {"android": "https://dc.lft.to/lastmile_qr_scan", "ios": "https://dc.lft.to/lastmile_qr_scan"}}, {"bike_id": "c5193f7d9fa383008a7004dfd070bdc2", "fusion_lon": 0.0, "name": "c5193f7d9fa383008a7004dfd070bdc2", "lat": 38.915283333333335, "is_disabled": 0, "is_reserved": 0, "lon": -77.01224066666667, "type": "electric_scooter", "fusion_lat": 0.0, "rental_uris": {"android": "https://dc.lft.to/lastmile_qr_scan", "ios": "https://dc.lft.to/lastmile_qr_scan"}}, {"bike_id": "47543c9eaf406a67c39ecd98c4dbf272", "fusion_lon": 0.0, "name": "47543c9eaf406a67c39ecd98c4dbf272", "lat": 38.919028833333336, "is_disabled": 0, "is_reserved": 0, "lon": -77.0316705, "type": "electric_scooter", "fusion_lat": 0.0, "rental_uris": {"android": "https://dc.lft.to/lastmile_qr_scan", "ios": "https://dc.lft.to/lastmile_qr_scan"}}, {"bike_id": "9a70af74c04523d648a321cefb3197a2", "fusion_lon": 0.0, "name": "9a70af74c04523d648a321cefb3197a2", "lat": 38.908437, "is_disabled": 0, "is_reserved": 0, "lon": -77.05575816666666, "type": "electric_scooter", "fusion_lat": 0.0, "rental_uris": {"android": "https://dc.lft.to/lastmile_qr_scan", "ios": "https://dc.lft.to/lastmile_qr_scan"}}, {"bike_id": "7a2653f14321d970ca6e8795aa193450", "fusion_lon": 0.0, "name": "7a2653f14321d970ca6e8795aa193450", "lat": 38.92369933333333, "is_disabled": 0, "is_reserved": 0, "lon": -77.03127833333333, "type": "electric_scooter", "fusion_lat": 0.0, "rental_uris": {"android": "https://dc.lft.to/lastmile_qr_scan", "ios": "https://dc.lft.to/lastmile_qr_scan"}}, {"bike_id": "3c97718db44b6bf040cfd6265176ae34", "fusion_lon": 0.0, "name": "3c97718db44b6bf040cfd6265176ae34", "lat": 38.90597366666667, "is_disabled": 0, "is_reserved": 0, "lon": -77.06561983333333, "type": "electric_scooter", "fusion_lat": 0.0, "rental_uris": {"android": "https://dc.lft.to/lastmile_qr_scan", "ios": "https://dc.lft.to/lastmile_qr_scan"}}, {"bike_id": "55ba241d62d5e333558dd58a4a405e5b", "fusion_lon": 0.0, "name": "55ba241d62d5e333558dd58a4a405e5b", "lat": 38.886352333333335, "is_disabled": 0, "is_reserved": 0, "lon": -77.015395, "type": "electric_scooter", "fusion_lat": 0.0, "rental_uris": {"android": "https://dc.lft.to/lastmile_qr_scan", "ios": "https://dc.lft.to/lastmile_qr_scan"}}, {"bike_id": "6e671ed6750372a45f71044082e8265f", "fusion_lon": 0.0, "name": "6e671ed6750372a45f71044082e8265f", "lat": 38.905669833333334, "is_disabled": 0, "is_reserved": 0, "lon": -77.00546733333333, "type": "electric_scooter", "fusion_lat": 0.0, "rental_uris": {"android": "https://dc.lft.to/lastmile_qr_scan", "ios": "https://dc.lft.to/lastmile_qr_scan"}}, {"bike_id": "28a78f5a33afb93b9019ac7316b4f8b8", "fusion_lon": 0.0, "name": "28a78f5a33afb93b9019ac7316b4f8b8", "lat": 38.854557, "is_disabled": 0, "is_reserved": 0, "lon": -76.97217516666667, "type": "electric_scooter", "fusion_lat": 0.0, "rental_uris": {"android": "https://dc.lft.to/lastmile_qr_scan", "ios": "https://dc.lft.to/lastmile_qr_scan"}}, {"bike_id": "2172418df3af8466deec19bb1834fca1", "fusion_lon": 0.0, "name": "2172418df3af8466deec19bb1834fca1", "lat": 38.916908166666666, "is_disabled": 0, "is_reserved": 0, "lon": -77.0259815, "type": "electric_scooter", "fusion_lat": 0.0, "rental_uris": {"android": "https://dc.lft.to/lastmile_qr_scan", "ios": "https://dc.lft.to/lastmile_qr_scan"}}, {"bike_id": "b5862aa6d25f77691321a8fd633a380f", "fusion_lon": 0.0, "name": "b5862aa6d25f77691321a8fd633a380f", "lat": 38.9207255, "is_disabled": 0, "is_reserved": 0, "lon": -77.03207183333333, "type": "electric_scooter", "fusion_lat": 0.0, "rental_uris": {"android": "https://dc.lft.to/lastmile_qr_scan", "ios": "https://dc.lft.to/lastmile_qr_scan"}}, {"bike_id": "9db5df66289a26ca0ae722163bf21bf7", "fusion_lon": 0.0, "name": "9db5df66289a26ca0ae722163bf21bf7", "lat": 38.9259935, "is_disabled": 0, "is_reserved": 0, "lon": -77.02153366666667, "type": "electric_scooter", "fusion_lat": 0.0, "rental_uris": {"android": "https://dc.lft.to/lastmile_qr_scan", "ios": "https://dc.lft.to/lastmile_qr_scan"}}, {"bike_id": "46bf7b4d37bedcc8e22c62eabf86a79b", "fusion_lon": 0.0, "name": "46bf7b4d37bedcc8e22c62eabf86a79b", "lat": 38.88764033333333, "is_disabled": 0, "is_reserved": 0, "lon": -76.97748716666666, "type": "electric_scooter", "fusion_lat": 0.0, "rental_uris": {"android": "https://dc.lft.to/lastmile_qr_scan", "ios": "https://dc.lft.to/lastmile_qr_scan"}}, {"bike_id": "6345264016088c209720a6d1e923d895", "fusion_lon": 0.0, "name": "6345264016088c209720a6d1e923d895", "lat": 38.919189, "is_disabled": 0, "is_reserved": 0, "lon": -77.03181033333334, "type": "electric_scooter", "fusion_lat": 0.0, "rental_uris": {"android": "https://dc.lft.to/lastmile_qr_scan", "ios": "https://dc.lft.to/lastmile_qr_scan"}}, {"bike_id": "6127107f2235c7a22cc52be3ce98a154", "fusion_lon": 0.0, "name": "6127107f2235c7a22cc52be3ce98a154", "lat": 38.902190833333336, "is_disabled": 0, "is_reserved": 0, "lon": -77.022444, "type": "electric_scooter", "fusion_lat": 0.0, "rental_uris": {"android": "https://dc.lft.to/lastmile_qr_scan", "ios": "https://dc.lft.to/lastmile_qr_scan"}}, {"bike_id": "97fc481719cfc90b898f1bc810217095", "fusion_lon": 0.0, "name": "97fc481719cfc90b898f1bc810217095", "lat": 38.906851333333336, "is_disabled": 0, "is_reserved": 0, "lon": -76.985001, "type": "electric_scooter", "fusion_lat": 0.0, "rental_uris": {"android": "https://dc.lft.to/lastmile_qr_scan", "ios": "https://dc.lft.to/lastmile_qr_scan"}}, {"bike_id": "5bb810c618efddc0d1feb19d6c22b154", "fusion_lon": 0.0, "name": "5bb810c618efddc0d1feb19d6c22b154", "lat": 38.9564155, "is_disabled": 0, "is_reserved": 0, "lon": -77.022903, "type": "electric_scooter", "fusion_lat": 0.0, "rental_uris": {"android": "https://dc.lft.to/lastmile_qr_scan", "ios": "https://dc.lft.to/lastmile_qr_scan"}}, {"bike_id": "94ae809b958d8e62d7b74dee5c1d8e2b", "fusion_lon": 0.0, "name": "94ae809b958d8e62d7b74dee5c1d8e2b", "lat": 39.012199, "is_disabled": 0, "is_reserved": 0, "lon": -77.11088983333333, "type": "electric_bike", "fusion_lat": 0.0, "rental_uris": {"android": "https://dc.lft.to/lastmile_qr_scan", "ios": "https://dc.lft.to/lastmile_qr_scan"}}, {"bike_id": "98ccebcc2a15046b369eb2a05c719533", "fusion_lon": 0.0, "name": "98ccebcc2a15046b369eb2a05c719533", "lat": 38.89712866666667, "is_disabled": 0, "is_reserved": 0, "lon": -77.00792533333333, "type": "electric_scooter", "fusion_lat": 0.0, "rental_uris": {"android": "https://dc.lft.to/lastmile_qr_scan", "ios": "https://dc.lft.to/lastmile_qr_scan"}}, {"bike_id": "07871d52fb3d834928963425d4049d1d", "fusion_lon": 0.0, "name": "07871d52fb3d834928963425d4049d1d", "lat": 38.884645, "is_disabled": 0, "is_reserved": 0, "lon": -77.01512683333333, "type": "electric_scooter", "fusion_lat": 0.0, "rental_uris": {"android": "https://dc.lft.to/lastmile_qr_scan", "ios": "https://dc.lft.to/lastmile_qr_scan"}}, {"bike_id": "0f12a7bee9998d9abc66be01aaa22d95", "fusion_lon": 0.0, "name": "0f12a7bee9998d9abc66be01aaa22d95", "lat": 38.9096995, "is_disabled": 0, "is_reserved": 0, "lon": -77.03443316666667, "type": "electric_scooter", "fusion_lat": 0.0, "rental_uris": {"android": "https://dc.lft.to/lastmile_qr_scan", "ios": "https://dc.lft.to/lastmile_qr_scan"}}, {"bike_id": "6ce8de351cae907d6a966b6a9517280e", "fusion_lon": 0.0, "name": "6ce8de351cae907d6a966b6a9517280e", "lat": 38.93356583333333, "is_disabled": 0, "is_reserved": 0, "lon": -77.07357816666666, "type": "electric_scooter", "fusion_lat": 0.0, "rental_uris": {"android": "https://dc.lft.to/lastmile_qr_scan", "ios": "https://dc.lft.to/lastmile_qr_scan"}}, {"bike_id": "2623b73d83a577adfb6ff88ca62f8389", "fusion_lon": 0.0, "name": "2623b73d83a577adfb6ff88ca62f8389", "lat": 38.90544966666667, "is_disabled": 0, "is_reserved": 0, "lon": -77.043528, "type": "electric_scooter", "fusion_lat": 0.0, "rental_uris": {"android": "https://dc.lft.to/lastmile_qr_scan", "ios": "https://dc.lft.to/lastmile_qr_scan"}}, {"bike_id": "3cfd54f5bf833f9011d1514c795078b2", "fusion_lon": 0.0, "name": "3cfd54f5bf833f9011d1514c795078b2", "lat": 38.88312966666667, "is_disabled": 0, "is_reserved": 0, "lon": -77.01678916666667, "type": "electric_scooter", "fusion_lat": 0.0, "rental_uris": {"android": "https://dc.lft.to/lastmile_qr_scan", "ios": "https://dc.lft.to/lastmile_qr_scan"}}, {"bike_id": "1d01e405cd919723f460d857e7f48e8b", "fusion_lon": 0.0, "name": "1d01e405cd919723f460d857e7f48e8b", "lat": 38.923709, "is_disabled": 0, "is_reserved": 0, "lon": -77.019022, "type": "electric_scooter", "fusion_lat": 0.0, "rental_uris": {"android": "https://dc.lft.to/lastmile_qr_scan", "ios": "https://dc.lft.to/lastmile_qr_scan"}}, {"bike_id": "ebbca0bf06239b3f131c42d0332736b7", "fusion_lon": 0.0, "name": "ebbca0bf06239b3f131c42d0332736b7", "lat": 38.92750566666667, "is_disabled": 0, "is_reserved": 0, "lon": -77.03310016666667, "type": "electric_scooter", "fusion_lat": 0.0, "rental_uris": {"android": "https://dc.lft.to/lastmile_qr_scan", "ios": "https://dc.lft.to/lastmile_qr_scan"}}, {"bike_id": "e53888820c9482471c75c94482aafba0", "fusion_lon": 0.0, "name": "e53888820c9482471c75c94482aafba0", "lat": 38.92367516666667, "is_disabled": 0, "is_reserved": 0, "lon": -77.05031283333334, "type": "electric_scooter", "fusion_lat": 0.0, "rental_uris": {"android": "https://dc.lft.to/lastmile_qr_scan", "ios": "https://dc.lft.to/lastmile_qr_scan"}}, {"bike_id": "3758224687b9b5c773647ba10e72d9f0", "fusion_lon": 0.0, "name": "3758224687b9b5c773647ba10e72d9f0", "lat": 38.92496933333334, "is_disabled": 0, "is_reserved": 0, "lon": -77.02152333333333, "type": "electric_scooter", "fusion_lat": 0.0, "rental_uris": {"android": "https://dc.lft.to/lastmile_qr_scan", "ios": "https://dc.lft.to/lastmile_qr_scan"}}, {"bike_id": "de8a0c8531e3bfac35f7a8d0bb8acf70", "fusion_lon": 0.0, "name": "de8a0c8531e3bfac35f7a8d0bb8acf70", "lat": 39.00382316666666, "is_disabled": 0, "is_reserved": 0, "lon": -77.0128295, "type": "electric_bike", "fusion_lat": 0.0, "rental_uris": {"android": "https://dc.lft.to/lastmile_qr_scan", "ios": "https://dc.lft.to/lastmile_qr_scan"}}, {"bike_id": "3235c97dbebbc9278d9c8795e20ca6c3", "fusion_lon": 0.0, "name": "3235c97dbebbc9278d9c8795e20ca6c3", "lat": 38.884922833333334, "is_disabled": 0, "is_reserved": 0, "lon": -77.01086016666666, "type": "electric_scooter", "fusion_lat": 0.0, "rental_uris": {"android": "https://dc.lft.to/lastmile_qr_scan", "ios": "https://dc.lft.to/lastmile_qr_scan"}}, {"bike_id": "a5f10103883712c0f3896d0e683bdd63", "fusion_lon": 0.0, "name": "a5f10103883712c0f3896d0e683bdd63", "lat": 38.904132833333335, "is_disabled": 0, "is_reserved": 0, "lon": -77.02875, "type": "electric_scooter", "fusion_lat": 0.0, "rental_uris": {"android": "https://dc.lft.to/lastmile_qr_scan", "ios": "https://dc.lft.to/lastmile_qr_scan"}}, {"bike_id": "85809c6faa4a4429328ee882f21c464b", "fusion_lon": 0.0, "name": "85809c6faa4a4429328ee882f21c464b", "lat": 38.8981685, "is_disabled": 0, "is_reserved": 0, "lon": -77.024093, "type": "electric_scooter", "fusion_lat": 0.0, "rental_uris": {"android": "https://dc.lft.to/lastmile_qr_scan", "ios": "https://dc.lft.to/lastmile_qr_scan"}}, {"bike_id": "b722f6ab22bb7ddf4a06fb73c7bef323", "fusion_lon": 0.0, "name": "b722f6ab22bb7ddf4a06fb73c7bef323", "lat": 38.94439416666667, "is_disabled": 0, "is_reserved": 0, "lon": -77.06408266666666, "type": "electric_scooter", "fusion_lat": 0.0, "rental_uris": {"android": "https://dc.lft.to/lastmile_qr_scan", "ios": "https://dc.lft.to/lastmile_qr_scan"}}, {"bike_id": "15abacb28cefdc3e53fe2cd6271dd0a9", "fusion_lon": 0.0, "name": "15abacb28cefdc3e53fe2cd6271dd0a9", "lat": 38.89726183333333, "is_disabled": 0, "is_reserved": 0, "lon": -77.0021405, "type": "electric_scooter", "fusion_lat": 0.0, "rental_uris": {"android": "https://dc.lft.to/lastmile_qr_scan", "ios": "https://dc.lft.to/lastmile_qr_scan"}}, {"bike_id": "693789104882a210c7c60f7aba645dd1", "fusion_lon": 0.0, "name": "693789104882a210c7c60f7aba645dd1", "lat": 38.9037835, "is_disabled": 0, "is_reserved": 0, "lon": -77.0163505, "type": "electric_scooter", "fusion_lat": 0.0, "rental_uris": {"android": "https://dc.lft.to/lastmile_qr_scan", "ios": "https://dc.lft.to/lastmile_qr_scan"}}, {"bike_id": "6c1c7b0db26b7145ba87354152e04237", "fusion_lon": 0.0, "name": "6c1c7b0db26b7145ba87354152e04237", "lat": 38.90405716666667, "is_disabled": 0, "is_reserved": 0, "lon": -76.9733045, "type": "electric_scooter", "fusion_lat": 0.0, "rental_uris": {"android": "https://dc.lft.to/lastmile_qr_scan", "ios": "https://dc.lft.to/lastmile_qr_scan"}}, {"bike_id": "f8c87ec87db709ba09df2929ab781dd9", "fusion_lon": 0.0, "name": "f8c87ec87db709ba09df2929ab781dd9", "lat": 38.9232595, "is_disabled": 0, "is_reserved": 0, "lon": -77.0195435, "type": "electric_scooter", "fusion_lat": 0.0, "rental_uris": {"android": "https://dc.lft.to/lastmile_qr_scan", "ios": "https://dc.lft.to/lastmile_qr_scan"}}, {"bike_id": "366bae5fac921aeaa7e92bb46acd045e", "fusion_lon": 0.0, "name": "366bae5fac921aeaa7e92bb46acd045e", "lat": 38.892138333333335, "is_disabled": 0, "is_reserved": 0, "lon": -77.0201895, "type": "electric_scooter", "fusion_lat": 0.0, "rental_uris": {"android": "https://dc.lft.to/lastmile_qr_scan", "ios": "https://dc.lft.to/lastmile_qr_scan"}}, {"bike_id": "d3731a3ed0dbfd7f251cfa58db4c41f5", "fusion_lon": 0.0, "name": "d3731a3ed0dbfd7f251cfa58db4c41f5", "lat": 38.931697666666665, "is_disabled": 0, "is_reserved": 0, "lon": -77.04301866666667, "type": "electric_scooter", "fusion_lat": 0.0, "rental_uris": {"android": "https://dc.lft.to/lastmile_qr_scan", "ios": "https://dc.lft.to/lastmile_qr_scan"}}, {"bike_id": "2eee004967cde625ac343e9f33f75565", "fusion_lon": 0.0, "name": "2eee004967cde625ac343e9f33f75565", "lat": 38.88547616666666, "is_disabled": 0, "is_reserved": 0, "lon": -76.99777716666667, "type": "electric_scooter", "fusion_lat": 0.0, "rental_uris": {"android": "https://dc.lft.to/lastmile_qr_scan", "ios": "https://dc.lft.to/lastmile_qr_scan"}}, {"bike_id": "a4465b8b93e4dcfda0f84c0feec31fc0", "fusion_lon": 0.0, "name": "a4465b8b93e4dcfda0f84c0feec31fc0", "lat": 38.90958116666667, "is_disabled": 0, "is_reserved": 0, "lon": -77.032864, "type": "electric_scooter", "fusion_lat": 0.0, "rental_uris": {"android": "https://dc.lft.to/lastmile_qr_scan", "ios": "https://dc.lft.to/lastmile_qr_scan"}}, {"bike_id": "414a0208765f4cf0fced604715ea9a57", "fusion_lon": 0.0, "name": "414a0208765f4cf0fced604715ea9a57", "lat": 38.887307166666666, "is_disabled": 0, "is_reserved": 0, "lon": -77.02579116666666, "type": "electric_scooter", "fusion_lat": 0.0, "rental_uris": {"android": "https://dc.lft.to/lastmile_qr_scan", "ios": "https://dc.lft.to/lastmile_qr_scan"}}, {"bike_id": "286180125af32de6586f7001a867bfa7", "fusion_lon": 0.0, "name": "286180125af32de6586f7001a867bfa7", "lat": 38.9013785, "is_disabled": 0, "is_reserved": 0, "lon": -77.03560166666666, "type": "electric_scooter", "fusion_lat": 0.0, "rental_uris": {"android": "https://dc.lft.to/lastmile_qr_scan", "ios": "https://dc.lft.to/lastmile_qr_scan"}}, {"bike_id": "ba46a52e5809e20000a78aa2e0f16ea4", "fusion_lon": 0.0, "name": "ba46a52e5809e20000a78aa2e0f16ea4", "lat": 38.9063825, "is_disabled": 0, "is_reserved": 0, "lon": -77.02409583333333, "type": "electric_scooter", "fusion_lat": 0.0, "rental_uris": {"android": "https://dc.lft.to/lastmile_qr_scan", "ios": "https://dc.lft.to/lastmile_qr_scan"}}, {"bike_id": "5e316d4fc59a5546cc6e5c3978c710ab", "fusion_lon": 0.0, "name": "5e316d4fc59a5546cc6e5c3978c710ab", "lat": 38.866807, "is_disabled": 0, "is_reserved": 0, "lon": -76.98571316666667, "type": "electric_scooter", "fusion_lat": 0.0, "rental_uris": {"android": "https://dc.lft.to/lastmile_qr_scan", "ios": "https://dc.lft.to/lastmile_qr_scan"}}, {"bike_id": "e1c4a202f3fb5bc5a25cd2fad68be6d9", "fusion_lon": 0.0, "name": "e1c4a202f3fb5bc5a25cd2fad68be6d9", "lat": 38.91102333333333, "is_disabled": 0, "is_reserved": 0, "lon": -77.03561966666666, "type": "electric_scooter", "fusion_lat": 0.0, "rental_uris": {"android": "https://dc.lft.to/lastmile_qr_scan", "ios": "https://dc.lft.to/lastmile_qr_scan"}}, {"bike_id": "54362d855b66611b6e48c679fbb16a00", "fusion_lon": 0.0, "name": "54362d855b66611b6e48c679fbb16a00", "lat": 38.899893, "is_disabled": 0, "is_reserved": 0, "lon": -77.0093615, "type": "electric_scooter", "fusion_lat": 0.0, "rental_uris": {"android": "https://dc.lft.to/lastmile_qr_scan", "ios": "https://dc.lft.to/lastmile_qr_scan"}}, {"bike_id": "c647be31445b2f095c29955855a73810", "fusion_lon": 0.0, "name": "c647be31445b2f095c29955855a73810", "lat": 38.90964966666667, "is_disabled": 0, "is_reserved": 0, "lon": -77.0228375, "type": "electric_scooter", "fusion_lat": 0.0, "rental_uris": {"android": "https://dc.lft.to/lastmile_qr_scan", "ios": "https://dc.lft.to/lastmile_qr_scan"}}, {"bike_id": "a54f1a9b57253cf15f095ab7f2b04210", "fusion_lon": 0.0, "name": "a54f1a9b57253cf15f095ab7f2b04210", "lat": 38.90142483333333, "is_disabled": 0, "is_reserved": 0, "lon": -77.041587, "type": "electric_scooter", "fusion_lat": 0.0, "rental_uris": {"android": "https://dc.lft.to/lastmile_qr_scan", "ios": "https://dc.lft.to/lastmile_qr_scan"}}, {"bike_id": "68f232c31e11625482b28079b28055c8", "fusion_lon": 0.0, "name": "68f232c31e11625482b28079b28055c8", "lat": 38.8667665, "is_disabled": 0, "is_reserved": 0, "lon": -76.98562716666666, "type": "electric_scooter", "fusion_lat": 0.0, "rental_uris": {"android": "https://dc.lft.to/lastmile_qr_scan", "ios": "https://dc.lft.to/lastmile_qr_scan"}}, {"bike_id": "5d0aa6c0e2c138ed9feab25c5f609778", "fusion_lon": 0.0, "name": "5d0aa6c0e2c138ed9feab25c5f609778", "lat": 38.905042, "is_disabled": 0, "is_reserved": 0, "lon": -77.05125816666667, "type": "electric_scooter", "fusion_lat": 0.0, "rental_uris": {"android": "https://dc.lft.to/lastmile_qr_scan", "ios": "https://dc.lft.to/lastmile_qr_scan"}}, {"bike_id": "64f1b95b6616c31aacce7a1250a424ad", "fusion_lon": 0.0, "name": "64f1b95b6616c31aacce7a1250a424ad", "lat": 38.925161333333335, "is_disabled": 0, "is_reserved": 0, "lon": -76.99571033333334, "type": "electric_scooter", "fusion_lat": 0.0, "rental_uris": {"android": "https://dc.lft.to/lastmile_qr_scan", "ios": "https://dc.lft.to/lastmile_qr_scan"}}, {"bike_id": "262cc66435ba25675e488655ef01058c", "fusion_lon": 0.0, "name": "262cc66435ba25675e488655ef01058c", "lat": 38.895382166666664, "is_disabled": 0, "is_reserved": 0, "lon": -77.0121315, "type": "electric_scooter", "fusion_lat": 0.0, "rental_uris": {"android": "https://dc.lft.to/lastmile_qr_scan", "ios": "https://dc.lft.to/lastmile_qr_scan"}},