{"data": {"bikes": [{"lon": -77.03405333333333, "bike_id": "5035455ad7aea4c0edfeb3c0cb9cb0e8", "lat": 38.917108166666665, "fusion_lon": 0.0, "fusion_lat": 0.0, "type": "electric_scooter", "name": "5035455ad7aea4c0edfeb3c0cb9cb0e8", "is_disabled": 0, "rental_uris": {"ios": "https://dc.lft.to/lastmile_qr_scan", "android": "https://dc.lft.to/lastmile_qr_scan"}, "is_reserved": 0}, {"lon": -77.02202016666666, "bike_id": "ca1c9e907c6c38420e4bff2fd5ce084c", "lat": 38.91060366666667, "fusion_lon": 0.0, "fusion_lat": 0.0, "type": "electric_scooter", "name": "ca1c9e907c6c38420e4bff2fd5ce084c", "is_disabled": 0, "rental_uris": {"ios": "https://dc.lft.to/lastmile_qr_scan", "android": "https://dc.lft.to/lastmile_qr_scan"}, "is_reserved": 0}, {"lon": -76.91599566666666, "bike_id": "39915f0e6850e29e751174d0ba32b82d", "lat": 38.87983416666667, "fusion_lon": 0.0, "fusion_lat": 0.0, "type": "electric_bike", "name": "39915f0e6850e29e751174d0ba32b82d", "is_disabled": 0, "rental_uris": {"ios": "https://dc.lft.to/lastmile_qr_scan", "android": "https://dc.lft.to/lastmile_qr_scan"}, "is_reserved": 0}, {"lon": -77.04246683333334, "bike_id": "5048bb8c900163af46878b1ba62441ce", "lat": 38.92421683333333, "fusion_lon": 0.0, "fusion_lat": 0.0, "type": "electric_scooter", "name": "5048bb8c900163af46878b1ba62441ce", "is_disabled": 0, "rental_uris": {"ios": "https://dc.lft.to/lastmile_qr_scan", "android": "https://dc.lft.to/lastmile_qr_scan"}, "is_reserved": 0}, {"lon": -77.0557795, "bike_id": "59a733abf90be32b466f409785c6d1a3", "lat": 38.916032666666666, "fusion_lon": 0.0, "fusion_lat": 0.0, "type": "electric_scooter", "name": "59a733abf90be32b466f409785c6d1a3", "is_disabled": 0, "rental_uris": {"ios": "https://dc.lft.to/lastmile_qr_scan", "android": "https://dc.lft.to/lastmile_qr_scan"}, "is_reserved": 0}, {"lon": -77.0512945, "bike_id": "173bb388fc1fd375c5ab5395264905b6", "lat": 38.92363366666667, "fusion_lon": 0.0, "fusion_lat": 0.0, "type": "electric_scooter", "name": "173bb388fc1fd375c5ab5395264905b6", "is_disabled": 0, "rental_uris": {"ios": "https://dc.lft.to/lastmile_qr_scan", "android": "https://dc.lft.to/lastmile_qr_scan"}, "is_reserved": 0}, {"lon": -76.99503483333334, "bike_id": "0e72a759d46d90aa2a6d33e037ae4018", "lat": 38.8830205, "fusion_lon": 0.0, "fusion_lat": 0.0, "type": "electric_scooter", "name": "0e72a759d46d90aa2a6d33e037ae4018", "is_disabled": 0, "rental_uris": {"ios": "https://dc.lft.to/lastmile_qr_scan", "android": "https://dc.lft.to/lastmile_qr_scan"}, "is_reserved": 0}, {"lon": -77.02672666666666, "bike_id": "a74d721080ceab06722cda81f5602585", "lat": 38.90048066666667, "fusion_lon": 0.0, "fusion_lat": 0.0, "type": "electric_scooter", "name": "a74d721080ceab06722cda81f5602585", "is_disabled": 0, "rental_uris": {"ios": "https://dc.lft.to/lastmile_qr_scan", "android": "https://dc.lft.to/lastmile_qr_scan"}, "is_reserved": 0}, {"lon": -77.021646, "bike_id": "18d92341532f9da108af3732b47e925c", "lat": 38.897285333333336, "fusion_lon": 0.0, "fusion_lat": 0.0, "type": "electric_scooter", "name": "18d92341532f9da108af3732b47e925c", "is_disabled": 0, "rental_uris": {"ios": "https://dc.lft.to/lastmile_qr_scan", "android": "https://dc.lft.to/lastmile_qr_scan"}, "is_reserved": 0}, {"lon": -77.05860116666666, "bike_id": "5eabbab584e0fe704b2bb177c1d5cf5e", "lat": 38.936027, "fusion_lon": 0.0, "fusion_lat": 0.0, "type": "electric_scooter", "name": "5eabbab584e0fe704b2bb177c1d5cf5e", "is_disabled": 0, "rental_uris": {"ios": "https://dc.lft.to/lastmile_qr_scan", "android": "https://dc.lft.to/lastmile_qr_scan"}, "is_reserved": 0}, {"lon": -76.990492, "bike_id": "e5cc2e3046066ad83764f73f6e7b315e", "lat": 38.8841785, "fusion_lon": 0.0, "fusion_lat": 0.0, "type": "electric_scooter", "name": "e5cc2e3046066ad83764f73f6e7b315e", "is_disabled": 0, "rental_uris": {"ios": "https://dc.lft.to/lastmile_qr_scan", "android": "https://dc.lft.to/lastmile_qr_scan"}, "is_reserved": 0}, {"lon": -76.94883816666666, "bike_id": "8c28a03277f78d9537930040a9ae5c84", "lat": 38.895106, "fusion_lon": 0.0, "fusion_lat": 0.0, "type": "electric_scooter", "name": "8c28a03277f78d9537930040a9ae5c84", "is_disabled": 0, "rental_uris": {"ios": "https://dc.lft.to/lastmile_qr_scan", "android": "https://dc.lft.to/lastmile_qr_scan"}, "is_reserved": 0}, {"lon": -76.97329566666667, "bike_id": "4ec8e5dc2f523e18659ea34a5cc37eb6", "lat": 38.904818, "fusion_lon": 0.0, "fusion_lat": 0.0, "type": "electric_bike", "name": "4ec8e5dc2f523e18659ea34a5cc37eb6", "is_disabled": 0, "rental_uris": {"ios": "https://dc.lft.to/lastmile_qr_scan", "android": "https://dc.lft.to/lastmile_qr_scan"}, "is_reserved": 0}, {"lon": -76.93276366666667, "bike_id": "6a348a36752153d25128eafe1f3a2248", "lat": 38.954222333333334, "fusion_lon": 0.0, "fusion_lat": 0.0, "type": "electric_bike", "name": "6a348a36752153d25128eafe1f3a2248", "is_disabled": 0, "rental_uris": {"ios": "https://dc.lft.to/lastmile_qr_scan", "android": "https://dc.lft.to/lastmile_qr_scan"}, "is_reserved": 0}, {"lon": -77.0229815, "bike_id": "882e58ad317c5db2967f198155f7db3b", "lat": 38.91674583333333, "fusion_lon": 0.0, "fusion_lat": 0.0, "type": "electric_scooter", "name": "882e58ad317c5db2967f198155f7db3b", "is_disabled": 0, "rental_uris": {"ios": "https://dc.lft.to/lastmile_qr_scan", "android": "https://dc.lft.to/lastmile_qr_scan"}, "is_reserved": 0}, {"lon": -77.03631033333333, "bike_id": "4e12bfa9d08a9f884c1488f18480c3c0", "lat": 38.9155365, "fusion_lon": 0.0, "fusion_lat": 0.0, "type": "electric_scooter", "name": "4e12bfa9d08a9f884c1488f18480c3c0", "is_disabled": 0, "rental_uris": {"ios": "https://dc.lft.to/lastmile_qr_scan", "android": "https://dc.lft.to/lastmile_qr_scan"}, "is_reserved": 0}, {"lon": -77.0165865, "bike_id": "2c82bff986ffa4583edef9e0a01bdbff", "lat": 38.900091833333335, "fusion_lon": 0.0, "fusion_lat": 0.0, "type": "electric_scooter", "name": "2c82bff986ffa4583edef9e0a01bdbff", "is_disabled": 0, "rental_uris": {"ios": "https://dc.lft.to/lastmile_qr_scan", "android": "https://dc.lft.to/lastmile_qr_scan"}, "is_reserved": 0}, {"lon": -77.02959183333333, "bike_id": "2e6e00fddd51ee9d1edfad5499ae3cbd", "lat": 38.8964975, "fusion_lon": 0.0, "fusion_lat": 0.0, "type": "electric_scooter", "name": "2e6e00fddd51ee9d1edfad5499ae3cbd", "is_disabled": 0, "rental_uris": {"ios": "https://dc.lft.to/lastmile_qr_scan", "android": "https://dc.lft.to/lastmile_qr_scan"}, "is_reserved": 0}, {"lon": -77.00536866666667, "bike_id": "bbaf5623086b60d8dc32eb173fbd5d7e", "lat": 38.87544366666667, "fusion_lon": 0.0, "fusion_lat": 0.0, "type": "electric_scooter", "name": "bbaf5623086b60d8dc32eb173fbd5d7e", "is_disabled": 0, "rental_uris": {"ios": "https://dc.lft.to/lastmile_qr_scan", "android": "https://dc.lft.to/lastmile_qr_scan"}, "is_reserved": 0}, {"lon": -77.0013045, "bike_id": "c5a50b0d83011a0acecc2df4a349f96e", "lat": 38.8781685, "fusion_lon": 0.0, "fusion_lat": 0.0, "type": "electric_scooter", "name": "c5a50b0d83011a0acecc2df4a349f96e", "is_disabled": 0, "rental_uris": {"ios": "https://dc.lft.to/lastmile_qr_scan", "android": "https://dc.lft.to/lastmile_qr_scan"}, "is_reserved": 0}, {"lon": -77.045038, "bike_id": "f30cddaa6243756db553602a96fa1c8d", "lat": 38.91109866666667, "fusion_lon": 0.0, "fusion_lat": 0.0, "type": "electric_scooter", "name": "f30cddaa6243756db553602a96fa1c8d", "is_disabled": 0, "rental_uris": {"ios": "https://dc.lft.to/lastmile_qr_scan", "android": "https://dc.lft.to/lastmile_qr_scan"}, "is_reserved": 0}, {"lon": -77.0237855, "bike_id": "0ea1e673a2796c84cf2fbd87d78bb755", "lat": 38.906329166666666, "fusion_lon": 0.0, "fusion_lat": 0.0, "type": "electric_scooter", "name": "0ea1e673a2796c84cf2fbd87d78bb755", "is_disabled": 0, "rental_uris": {"ios": "https://dc.lft.to/lastmile_qr_scan", "android": "https://dc.lft.to/lastmile_qr_scan"}, "is_reserved": 0}, {"lon": -77.03499283333333, "bike_id": "3ed82b060ca94b465a79faa3fc45ef6e", "lat": 38.911810333333335, "fusion_lon": 0.0, "fusion_lat": 0.0, "type": "electric_scooter", "name": "3ed82b060ca94b465a79faa3fc45ef6e", "is_disabled": 0, "rental_uris": {"ios": "https://dc.lft.to/lastmile_qr_scan", "android": "https://dc.lft.to/lastmile_qr_scan"}, "is_reserved": 0}, {"lon": -77.032732, "bike_id": "ed87e56b2e44012aab2ae943266896e3", "lat": 38.92865533333333, "fusion_lon": 0.0, "fusion_lat": 0.0, "type": "electric_scooter", "name": "ed87e56b2e44012aab2ae943266896e3", "is_disabled": 0, "rental_uris": {"ios": "https://dc.lft.to/lastmile_qr_scan", "android": "https://dc.lft.to/lastmile_qr_scan"}, "is_reserved": 0}, {"lon": -77.0209145, "bike_id": "cff90cef34d67672e25cfc0f35a06dee", "lat": 38.929120166666664, "fusion_lon": 0.0, "fusion_lat": 0.0, "type": "electric_scooter", "name": "cff90cef34d67672e25cfc0f35a06dee", "is_disabled": 0, "rental_uris": {"ios": "https://dc.lft.to/lastmile_qr_scan", "android": "https://dc.lft.to/lastmile_qr_scan"}, "is_reserved": 0}, {"lon": -77.0318895, "bike_id": "87ca09b01888ed5711788bf91b809553", "lat": 38.91570266666667, "fusion_lon": 0.0, "fusion_lat": 0.0, "type": "electric_scooter", "name": "87ca09b01888ed5711788bf91b809553", "is_disabled": 0, "rental_uris": {"ios": "https://dc.lft.to/lastmile_qr_scan", "android": "https://dc.lft.to/lastmile_qr_scan"}, "is_reserved": 0}, {"lon": -77.06119033333333, "bike_id": "143bc9792053782e411553a4b0267b49", "lat": 38.904750166666666, "fusion_lon": 0.0, "fusion_lat": 0.0, "type": "electric_scooter", "name": "143bc9792053782e411553a4b0267b49", "is_disabled": 0, "rental_uris": {"ios": "https://dc.lft.to/lastmile_qr_scan", "android": "https://dc.lft.to/lastmile_qr_scan"}, "is_reserved": 0}, {"lon": -77.03214766666666, "bike_id": "54152f40ad34c0759ab022741a7d916c", "lat": 38.9361745, "fusion_lon": 0.0, "fusion_lat": 0.0, "type": "electric_scooter", "name": "54152f40ad34c0759ab022741a7d916c", "is_disabled": 0, "rental_uris": {"ios": "https://dc.lft.to/lastmile_qr_scan", "android": "https://dc.lft.to/lastmile_qr_scan"}, "is_reserved": 0}, {"lon": -77.05601166666666, "bike_id": "e694a4620f91fd8c95420f75e474a1f5", "lat": 38.9369685, "fusion_lon": 0.0, "fusion_lat": 0.0, "type": "electric_scooter", "name": "e694a4620f91fd8c95420f75e474a1f5", "is_disabled": 0, "rental_uris": {"ios": "https://dc.lft.to/lastmile_qr_scan", "android": "https://dc.lft.to/lastmile_qr_scan"}, "is_reserved": 0}, {"lon": -77.03852316666666, "bike_id": "4413d902d4ddacde388d9ccfe3c5074e", "lat": 38.916616166666664, "fusion_lon": 0.0, "fusion_lat": 0.0, "type": "electric_scooter", "name": "4413d902d4ddacde388d9ccfe3c5074e", "is_disabled": 0, "rental_uris": {"ios": "https://dc.lft.to/lastmile_qr_scan", "android": "https://dc.lft.to/lastmile_qr_scan"}, "is_reserved": 0}, {"lon": -76.95004933333334, "bike_id": "94d788b4ec50f86cdf67c58476e92077", "lat": 38.89384316666667, "fusion_lon": 0.0, "fusion_lat": 0.0, "type": "electric_scooter", "name": "94d788b4ec50f86cdf67c58476e92077", "is_disabled": 0, "rental_uris": {"ios": "https://dc.lft.to/lastmile_qr_scan", "android": "https://dc.lft.to/lastmile_qr_scan"}, "is_reserved": 0}, {"lon": -76.99443966666666, "bike_id": "6a95bc37ef6669a788417100e8a1224e", "lat": 38.862791666666666, "fusion_lon": 0.0, "fusion_lat": 0.0, "type": "electric_scooter", "name": "6a95bc37ef6669a788417100e8a1224e", "is_disabled": 0, "rental_uris": {"ios": "https://dc.lft.to/lastmile_qr_scan", "android": "https://dc.lft.to/lastmile_qr_scan"}, "is_reserved": 0}, {"lon": -76.96543233333334, "bike_id": "9fac7c012a38e3ac52335580c7a25ee9", "lat": 38.9183695, "fusion_lon": 0.0, "fusion_lat": 0.0, "type": "electric_scooter", "name": "9fac7c012a38e3ac52335580c7a25ee9", "is_disabled": 0, "rental_uris": {"ios": "https://dc.lft.to/lastmile_qr_scan", "android": "https://dc.lft.to/lastmile_qr_scan"}, "is_reserved": 0}, {"lon": -76.988903, "bike_id": "b1cab689a765e5b01b901ecad77e90af", "lat": 38.86657816666666, "fusion_lon": 0.0, "fusion_lat": 0.0, "type": "electric_scooter", "name": "b1cab689a765e5b01b901ecad77e90af", "is_disabled": 0, "rental_uris": {"ios": "https://dc.lft.to/lastmile_qr_scan", "android": "https://dc.lft.to/lastmile_qr_scan"}, "is_reserved": 0}, {"lon": -77.039766, "bike_id": "1829f5ac71fdfcb2c7c6b873c669e199", "lat": 38.928024, "fusion_lon": 0.0, "fusion_lat": 0.0, "type": "electric_scooter", "name": "1829f5ac71fdfcb2c7c6b873c669e199", "is_disabled": 0, "rental_uris": {"ios": "https://dc.lft.to/lastmile_qr_scan", "android": "https://dc.lft.to/lastmile_qr_scan"}, "is_reserved": 0}, {"lon": -76.97300333333334, "bike_id": "80f17d38f2398ab1c03cc07d74f85612", "lat": 38.91650933333333, "fusion_lon": 0.0, "fusion_lat": 0.0, "type": "electric_bike", "name": "80f17d38f2398ab1c03cc07d74f85612", "is_disabled": 0, "rental_uris": {"ios": "https://dc.lft.to/lastmile_qr_scan", "android": "https://dc.lft.to/lastmile_qr_scan"}, "is_reserved": 0}, {"lon": -77.00893783333333, "bike_id": "3f899373e6733a82829b95443e7e411b", "lat": 38.92275933333333, "fusion_lon": 0.0, "fusion_lat": 0.0, "type": "electric_scooter", "name": "3f899373e6733a82829b95443e7e411b", "is_disabled": 0, "rental_uris": {"ios": "https://dc.lft.to/lastmile_qr_scan", "android": "https://dc.lft.to/lastmile_qr_scan"}, "is_reserved": 0}, {"lon": -77.001027, "bike_id": "bc5afbda5587a4b0af4a0b401641f937", "lat": 38.912414166666665, "fusion_lon": 0.0, "fusion_lat": 0.0, "type": "electric_scooter", "name": "bc5afbda5587a4b0af4a0b401641f937", "is_disabled": 0, "rental_uris": {"ios": "https://dc.lft.to/lastmile_qr_scan", "android": "https://dc.lft.to/lastmile_qr_scan"}, "is_reserved": 0}, {"lon": -77.02800116666667, "bike_id": "8aea86ed7218c96d53e37d946efdd502", "lat": 38.929642666666666, "fusion_lon": 0.0, "fusion_lat": 0.0, "type": "electric_scooter", "name": "8aea86ed7218c96d53e37d946efdd502", "is_disabled": 0, "rental_uris": {"ios": "https://dc.lft.to/lastmile_qr_scan", "android": "https://dc.lft.to/lastmile_qr_scan"}, "is_reserved": 0}, {"lon": -77.03155833333334, "bike_id": "ecc3418c477a5e7b4dd1c70a5ae5c8a3", "lat": 38.9169065, "fusion_lon": 0.0, "fusion_lat": 0.0, "type": "electric_scooter", "name": "ecc3418c477a5e7b4dd1c70a5ae5c8a3", "is_disabled": 0, "rental_uris": {"ios": "https://dc.lft.to/lastmile_qr_scan", "android": "https://dc.lft.to/lastmile_qr_scan"}, "is_reserved": 0}, {"lon": -77.02698083333334, "bike_id": "5a93ad0c02ad855678372f63e091bdd7", "lat": 38.90843116666667, "fusion_lon": 0.0, "fusion_lat": 0.0, "type": "electric_scooter", "name": "5a93ad0c02ad855678372f63e091bdd7", "is_disabled": 0, "rental_uris": {"ios": "https://dc.lft.to/lastmile_qr_scan", "android": "https://dc.lft.to/lastmile_qr_scan"}, "is_reserved": 0}, {"lon": -77.23329483333333, "bike_id": "b3cc946f781e977e2cbb6663ddc6459d", "lat": 38.872786, "fusion_lon": 0.0, "fusion_lat": 0.0, "type": "electric_bike", "name": "b3cc946f781e977e2cbb6663ddc6459d", "is_disabled": 0, "rental_uris": {"ios": "https://dc.lft.to/lastmile_qr_scan", "android": "https://dc.lft.to/lastmile_qr_scan"}, "is_reserved": 0}, {"lon": -76.985171, "bike_id": "7147cb38a6a51c251f08a99053c16f6a", "lat": 38.866836666666664, "fusion_lon": 0.0, "fusion_lat": 0.0, "type": "electric_scooter", "name": "7147cb38a6a51c251f08a99053c16f6a", "is_disabled": 0, "rental_uris": {"ios": "https://dc.lft.to/lastmile_qr_scan", "android": "https://dc.lft.to/lastmile_qr_scan"}, "is_reserved": 0}, {"lon": -77.03072066666667, "bike_id": "ab7f5450c19ffdbe66dbee8bfa10b8f3", "lat": 38.88390833333333, "fusion_lon": 0.0, "fusion_lat": 0.0, "type": "electric_scooter", "name": "ab7f5450c19ffdbe66dbee8bfa10b8f3", "is_disabled": 0, "rental_uris": {"ios": "https://dc.lft.to/lastmile_qr_scan", "android": "https://dc.lft.to/lastmile_qr_scan"}, "is_reserved": 0}, {"lon": -77.07460033333334, "bike_id": "937ebb5ba13ab1ec65b6406cc4dba3d9", "lat": 38.9451415, "fusion_lon": 0.0, "fusion_lat": 0.0, "type": "electric_scooter", "name": "937ebb5ba13ab1ec65b6406cc4dba3d9", "is_disabled": 0, "rental_uris": {"ios": "https://dc.lft.to/lastmile_qr_scan", "android": "https://dc.lft.to/lastmile_qr_scan"}, "is_reserved": 0}, {"lon": -77.03628266666666, "bike_id": "808b59ab782a03d5ee363998a9377f92", "lat": 38.9308005, "fusion_lon": 0.0, "fusion_lat": 0.0, "type": "electric_scooter", "name": "808b59ab782a03d5ee363998a9377f92", "is_disabled": 0, "rental_uris": {"ios": "https://dc.lft.to/lastmile_qr_scan", "android": "https://dc.lft.to/lastmile_qr_scan"}, "is_reserved": 0}, {"lon": -76.9992875, "bike_id": "5f5a5c48aa7887bf42076aedc3632711", "lat": 38.84314166666667, "fusion_lon": 0.0, "fusion_lat": 0.0, "type": "electric_scooter", "name": "5f5a5c48aa7887bf42076aedc3632711", "is_disabled": 0, "rental_uris": {"ios": "https://dc.lft.to/lastmile_qr_scan", "android": "https://dc.lft.to/lastmile_qr_scan"}, "is_reserved": 0}, {"lon": -77.0343395, "bike_id": "d6a5582f5c63ea68e2f83e2846bbbde5", "lat": 38.909710833333335, "fusion_lon": 0.0, "fusion_lat": 0.0, "type": "electric_scooter", "name": "d6a5582f5c63ea68e2f83e2846bbbde5", "is_disabled": 0, "rental_uris": {"ios": "https://dc.lft.to/lastmile_qr_scan", "android": "https://dc.lft.to/lastmile_qr_scan"}, "is_reserved": 0}, {"lon": -77.02706966666666, "bike_id": "a2048eb77c7b7e6f8c82987b4e7ec4a3", "lat": 38.90669533333333, "fusion_lon": 0.0, "fusion_lat": 0.0, "type": "electric_scooter", "name": "a2048eb77c7b7e6f8c82987b4e7ec4a3", "is_disabled": 0, "rental_uris": {"ios": "https://dc.lft.to/lastmile_qr_scan", "android": "https://dc.lft.to/lastmile_qr_scan"}, "is_reserved": 0}, {"lon": -77.017423, "bike_id": "8d9b3d6ecb1a61d676d986cbe4f46653", "lat": 38.942062, "fusion_lon": 0.0, "fusion_lat": 0.0, "type": "electric_scooter", "name": "8d9b3d6ecb1a61d676d986cbe4f46653", "is_disabled": 0, "rental_uris": {"ios": "https://dc.lft.to/lastmile_qr_scan", "android": "https://dc.lft.to/lastmile_qr_scan"}, "is_reserved": 0}, {"lon": -77.0269675, "bike_id": "a5426948fcec8631b4ad6e087d2d9080", "lat": 38.917769, "fusion_lon": 0.0, "fusion_lat": 0.0, "type": "electric_scooter", "name": "a5426948fcec8631b4ad6e087d2d9080", "is_disabled": 0, "rental_uris": {"ios": "https://dc.lft.to/lastmile_qr_scan", "android": "https://dc.lft.to/lastmile_qr_scan"}, "is_reserved": 0}, {"lon": -77.05431233333333, "bike_id": "2197546c8283abf9c368c34ba0db4197", "lat": 38.928563833333335, "fusion_lon": 0.0, "fusion_lat": 0.0, "type": "electric_scooter", "name": "2197546c8283abf9c368c34ba0db4197", "is_disabled": 0, "rental_uris": {"ios": "https://dc.lft.to/lastmile_qr_scan", "android": "https://dc.lft.to/lastmile_qr_scan"}, "is_reserved": 0}, {"lon": -77.02388683333334, "bike_id": "aeeaf92ec6ab5a439ad0b2391c992cfd", "lat": 38.907279833333334, "fusion_lon": 0.0, "fusion_lat": 0.0, "type": "electric_scooter", "name": "aeeaf92ec6ab5a439ad0b2391c992cfd", "is_disabled": 0, "rental_uris": {"ios": "https://dc.lft.to/lastmile_qr_scan", "android": "https://dc.lft.to/lastmile_qr_scan"}, "is_reserved": 0}, {"lon": -77.0394475, "bike_id": "ca956c9d105eaf23bbf61ece49827a5e", "lat": 38.93061933333333, "fusion_lon": 0.0, "fusion_lat": 0.0, "type": "electric_scooter", "name": "ca956c9d105eaf23bbf61ece49827a5e", "is_disabled": 0, "rental_uris": {"ios": "https://dc.lft.to/lastmile_qr_scan", "android": "https://dc.lft.to/lastmile_qr_scan"}, "is_reserved": 0}, {"lon": -77.03195933333333, "bike_id": "e5513de308dcc4ab0bd1e4dd271b7aed", "lat": 38.9118735, "fusion_lon": 0.0, "fusion_lat": 0.0, "type": "electric_scooter", "name": "e5513de308dcc4ab0bd1e4dd271b7aed", "is_disabled": 0, "rental_uris": {"ios": "https://dc.lft.to/lastmile_qr_scan", "android": "https://dc.lft.to/lastmile_qr_scan"}, "is_reserved": 0}, {"lon": -77.038651, "bike_id": "7576cbcf391fb222f429baad54b98976", "lat": 38.91263333333333, "fusion_lon": 0.0, "fusion_lat": 0.0, "type": "electric_scooter", "name": "7576cbcf391fb222f429baad54b98976", "is_disabled": 0, "rental_uris": {"ios": "https://dc.lft.to/lastmile_qr_scan", "android": "https://dc.lft.to/lastmile_qr_scan"}, "is_reserved": 0}, {"lon": -77.06754433333333, "bike_id": "0bc64b808a0f78d11847b8aadb7d2027", "lat": 38.903363, "fusion_lon": 0.0, "fusion_lat": 0.0, "type": "electric_scooter", "name": "0bc64b808a0f78d11847b8aadb7d2027", "is_disabled": 0, "rental_uris": {"ios": "https://dc.lft.to/lastmile_qr_scan", "android": "https://dc.lft.to/lastmile_qr_scan"}, "is_reserved": 0}, {"lon": -77.0450565, "bike_id": "5903d778f1fbf91670b28baa0da3e2a7", "lat": 38.900732, "fusion_lon": 0.0, "fusion_lat": 0.0, "type": "electric_scooter", "name": "5903d778f1fbf91670b28baa0da3e2a7", "is_disabled": 0, "rental_uris": {"ios": "https://dc.lft.to/lastmile_qr_scan", "android": "https://dc.lft.to/lastmile_qr_scan"}, "is_reserved": 0}, {"lon": -77.04341583333333, "bike_id": "2b29e40228106bc9bb0103a8af60c866", "lat": 38.929672333333336, "fusion_lon": 0.0, "fusion_lat": 0.0, "type": "electric_scooter", "name": "2b29e40228106bc9bb0103a8af60c866", "is_disabled": 0, "rental_uris": {"ios": "https://dc.lft.to/lastmile_qr_scan", "android": "https://dc.lft.to/lastmile_qr_scan"}, "is_reserved": 0}, {"lon": -77.03175316666666, "bike_id": "2b8d67a03dfdc1091dad1bf5feb61133", "lat": 38.887321166666666, "fusion_lon": 0.0, "fusion_lat": 0.0, "type": "electric_scooter", "name": "2b8d67a03dfdc1091dad1bf5feb61133", "is_disabled": 0, "rental_uris": {"ios": "https://dc.lft.to/lastmile_qr_scan", "android": "https://dc.lft.to/lastmile_qr_scan"}, "is_reserved": 0}, {"lon": -76.98370816666667, "bike_id": "70ebcb02cf5599128ff3e59a3c3616e7", "lat": 38.8997875, "fusion_lon": 0.0, "fusion_lat": 0.0, "type": "electric_scooter", "name": "70ebcb02cf5599128ff3e59a3c3616e7", "is_disabled": 0, "rental_uris": {"ios": "https://dc.lft.to/lastmile_qr_scan", "android": "https://dc.lft.to/lastmile_qr_scan"}, "is_reserved": 0}, {"lon": -77.02296516666667, "bike_id": "bf5fad7fbae9e96ab85e288ddb4396a9", "lat": 38.9097275, "fusion_lon": 0.0, "fusion_lat": 0.0, "type": "electric_scooter", "name": "bf5fad7fbae9e96ab85e288ddb4396a9", "is_disabled": 0, "rental_uris": {"ios": "https://dc.lft.to/lastmile_qr_scan", "android": "https://dc.lft.to/lastmile_qr_scan"}, "is_reserved": 0}, {"lon": -77.02692566666667, "bike_id": "59a559f1aae09997159f025928083f67", "lat": 38.90618683333334, "fusion_lon": 0.0, "fusion_lat": 0.0, "type": "electric_scooter", "name": "59a559f1aae09997159f025928083f67", "is_disabled": 0, "rental_uris": {"ios": "https://dc.lft.to/lastmile_qr_scan", "android": "https://dc.lft.to/lastmile_qr_scan"}, "is_reserved": 0}, {"lon": -76.93370483333334, "bike_id": "900171eeb667db9a8676030765543458", "lat": 38.8991255, "fusion_lon": 0.0, "fusion_lat": 0.0, "type": "electric_scooter", "name": "900171eeb667db9a8676030765543458", "is_disabled": 0, "rental_uris": {"ios": "https://dc.lft.to/lastmile_qr_scan", "android": "https://dc.lft.to/lastmile_qr_scan"}, "is_reserved": 0}, {"lon": -77.02975366666666, "bike_id": "98835992ac1ab8cf4dc9cb0bca8e1791", "lat": 38.93279666666667, "fusion_lon": 0.0, "fusion_lat": 0.0, "type": "electric_scooter", "name": "98835992ac1ab8cf4dc9cb0bca8e1791", "is_disabled": 0, "rental_uris": {"ios": "https://dc.lft.to/lastmile_qr_scan", "android": "https://dc.lft.to/lastmile_qr_scan"}, "is_reserved": 0}, {"lon": -77.04353133333333, "bike_id": "5f0905050e8341b83ab28178e1927a75", "lat": 38.9104215, "fusion_lon": 0.0, "fusion_lat": 0.0, "type": "electric_scooter", "name": "5f0905050e8341b83ab28178e1927a75", "is_disabled": 0, "rental_uris": {"ios": "https://dc.lft.to/lastmile_qr_scan", "android": "https://dc.lft.to/lastmile_qr_scan"}, "is_reserved": 0}, {"lon": -77.03658016666667, "bike_id": "50ced6bdea89faf8eb5688643951b9e8", "lat": 38.91285633333333, "fusion_lon": 0.0, "fusion_lat": 0.0, "type": "electric_scooter", "name": "50ced6bdea89faf8eb5688643951b9e8", "is_disabled": 0, "rental_uris": {"ios": "https://dc.lft.to/lastmile_qr_scan", "android": "https://dc.lft.to/lastmile_qr_scan"}, "is_reserved": 0}, {"lon": -77.04350133333334, "bike_id": "7659d5b4a04948fac5d642d5b86991e4", "lat": 38.9104275, "fusion_lon": 0.0, "fusion_lat": 0.0, "type": "electric_scooter", "name": "7659d5b4a04948fac5d642d5b86991e4", "is_disabled": 0, "rental_uris": {"ios": "https://dc.lft.to/lastmile_qr_scan", "android": "https://dc.lft.to/lastmile_qr_scan"}, "is_reserved": 0}, {"lon": -77.022394, "bike_id": "8774d6cbf21aad7c578dab7713cdc30b", "lat": 38.908616, "fusion_lon": 0.0, "fusion_lat": 0.0, "type": "electric_scooter", "name": "8774d6cbf21aad7c578dab7713cdc30b", "is_disabled": 0, "rental_uris": {"ios": "https://dc.lft.to/lastmile_qr_scan", "android": "https://dc.lft.to/lastmile_qr_scan"}, "is_reserved": 0}, {"lon": -77.057349, "bike_id": "104d686573152cc1c1154999cc5032e3", "lat": 38.92431233333333, "fusion_lon": 0.0, "fusion_lat": 0.0, "type": "electric_scooter", "name": "104d686573152cc1c1154999cc5032e3", "is_disabled": 0, "rental_uris": {"ios": "https://dc.lft.to/lastmile_qr_scan", "android": "https://dc.lft.to/lastmile_qr_scan"}, "is_reserved": 0}, {"lon": -77.033337, "bike_id": "9814fcfde0998f24489e4d30fec1f55c", "lat": 38.960497, "fusion_lon": 0.0, "fusion_lat": 0.0, "type": "electric_scooter", "name": "9814fcfde0998f24489e4d30fec1f55c", "is_disabled": 0, "rental_uris": {"ios": "https://dc.lft.to/lastmile_qr_scan", "android": "https://dc.lft.to/lastmile_qr_scan"}, "is_reserved": 0}, {"lon": -77.019766, "bike_id": "79a3bfe97d2b6918e598cec4c5b3c10e", "lat": 38.9109755, "fusion_lon": 0.0, "fusion_lat": 0.0, "type": "electric_scooter", "name": "79a3bfe97d2b6918e598cec4c5b3c10e", "is_disabled": 0, "rental_uris": {"ios": "https://dc.lft.to/lastmile_qr_scan", "android": "https://dc.lft.to/lastmile_qr_scan"}, "is_reserved": 0}, {"lon": -77.03127066666667, "bike_id": "41d509b8b03ed9e972a2ed0e0d250bfe", "lat": 38.9883065, "fusion_lon": 0.0, "fusion_lat": 0.0, "type": "electric_scooter", "name": "41d509b8b03ed9e972a2ed0e0d250bfe", "is_disabled": 0, "rental_uris": {"ios": "https://dc.lft.to/lastmile_qr_scan", "android": "https://dc.lft.to/lastmile_qr_scan"}, "is_reserved": 0}, {"lon": -77.00353033333333, "bike_id": "4069d3d30855f4f928245043dc21403f", "lat": 38.89919783333333, "fusion_lon": 0.0, "fusion_lat": 0.0, "type": "electric_scooter", "name": "4069d3d30855f4f928245043dc21403f", "is_disabled": 0, "rental_uris": {"ios": "https://dc.lft.to/lastmile_qr_scan", "android": "https://dc.lft.to/lastmile_qr_scan"}, "is_reserved": 0}, {"lon": -76.96385983333333, "bike_id": "28093845a8e426eb6bd3512f31aa2002", "lat": 38.951805, "fusion_lon": 0.0, "fusion_lat": 0.0, "type": "electric_bike", "name": "28093845a8e426eb6bd3512f31aa2002", "is_disabled": 0, "rental_uris": {"ios": "https://dc.lft.to/lastmile_qr_scan", "android": "https://dc.lft.to/lastmile_qr_scan"}, "is_reserved": 0}, {"lon": -77.22801883333334, "bike_id": "d011f015af5b18dd40aca07deab14cf7", "lat": 38.91014466666667, "fusion_lon": 0.0, "fusion_lat": 0.0, "type": "electric_bike", "name": "d011f015af5b18dd40aca07deab14cf7", "is_disabled": 0, "rental_uris": {"ios": "https://dc.lft.to/lastmile_qr_scan", "android": "https://dc.lft.to/lastmile_qr_scan"}, "is_reserved": 0}, {"lon": -77.02257416666667, "bike_id": "f25371b8019001c9537af3cd233cfb89", "lat": 38.928194166666664, "fusion_lon": 0.0, "fusion_lat": 0.0, "type": "electric_scooter", "name": "f25371b8019001c9537af3cd233cfb89", "is_disabled": 0, "rental_uris": {"ios": "https://dc.lft.to/lastmile_qr_scan", "android": "https://dc.lft.to/lastmile_qr_scan"}, "is_reserved": 0}, {"lon": -77.04325933333334, "bike_id": "577cd469110cdf1f4796f3eb4082fbe8", "lat": 38.9071425, "fusion_lon": 0.0, "fusion_lat": 0.0, "type": "electric_scooter", "name": "577cd469110cdf1f4796f3eb4082fbe8", "is_disabled": 0, "rental_uris": {"ios": "https://dc.lft.to/lastmile_qr_scan", "android": "https://dc.lft.to/lastmile_qr_scan"}, "is_reserved": 0}, {"lon": -77.0531855, "bike_id": "a98576ce50e9389190c3f747138fbf28", "lat": 38.941025333333336, "fusion_lon": 0.0, "fusion_lat": 0.0, "type": "electric_bike", "name": "a98576ce50e9389190c3f747138fbf28", "is_disabled": 0, "rental_uris": {"ios": "https://dc.lft.to/lastmile_qr_scan", "android": "https://dc.lft.to/lastmile_qr_scan"}, "is_reserved": 0}, {"lon": -77.027961, "bike_id": "1a04a083c81059a661e256c7d711f867", "lat": 38.95409866666667, "fusion_lon": 0.0, "fusion_lat": 0.0, "type": "electric_scooter", "name": "1a04a083c81059a661e256c7d711f867", "is_disabled": 0, "rental_uris": {"ios": "https://dc.lft.to/lastmile_qr_scan", "android": "https://dc.lft.to/lastmile_qr_scan"}, "is_reserved": 0}, {"lon": -77.00747083333333, "bike_id": "980e8ff72696ae3021687d22685d67e5", "lat": 38.9253085, "fusion_lon": 0.0, "fusion_lat": 0.0, "type": "electric_scooter", "name": "980e8ff72696ae3021687d22685d67e5", "is_disabled": 0, "rental_uris": {"ios": "https://dc.lft.to/lastmile_qr_scan", "android": "https://dc.lft.to/lastmile_qr_scan"}, "is_reserved": 0}, {"lon": -77.020939, "bike_id": "e3e0043fb3d7786275f4f49a6338b2df", "lat": 38.92914116666667, "fusion_lon": 0.0, "fusion_lat": 0.0, "type": "electric_scooter", "name": "e3e0043fb3d7786275f4f49a6338b2df", "is_disabled": 0, "rental_uris": {"ios": "https://dc.lft.to/lastmile_qr_scan", "android": "https://dc.lft.to/lastmile_qr_scan"}, "is_reserved": 0}, {"lon": -77.021621, "bike_id": "f91506240c5df8532471d82222be9e24", "lat": 38.89728933333333, "fusion_lon": 0.0, "fusion_lat": 0.0, "type": "electric_scooter", "name": "f91506240c5df8532471d82222be9e24", "is_disabled": 0, "rental_uris": {"ios": "https://dc.lft.to/lastmile_qr_scan", "android": "https://dc.lft.to/lastmile_qr_scan"}, "is_reserved": 0}, {"lon": -76.931888, "bike_id": "a36914ad12f488b569e6155fe3318455", "lat": 38.898756666666664, "fusion_lon": 0.0, "fusion_lat": 0.0, "type": "electric_scooter", "name": "a36914ad12f488b569e6155fe3318455", "is_disabled": 0, "rental_uris": {"ios": "https://dc.lft.to/lastmile_qr_scan", "android": "https://dc.lft.to/lastmile_qr_scan"}, "is_reserved": 0}, {"lon": -77.00374683333334, "bike_id": "b45ef9ccc09bf898f1ed4c5011a61df1", "lat": 38.897386833333336, "fusion_lon": 0.0, "fusion_lat": 0.0, "type": "electric_scooter", "name": "b45ef9ccc09bf898f1ed4c5011a61df1", "is_disabled": 0, "rental_uris": {"ios": "https://dc.lft.to/lastmile_qr_scan", "android": "https://dc.lft.to/lastmile_qr_scan"}, "is_reserved": 0}, {"lon": -76.9950535, "bike_id": "af3429c40e99e618d08c0ca1fb866887", "lat": 38.87773116666666, "fusion_lon": 0.0, "fusion_lat": 0.0, "type": "electric_scooter", "name": "af3429c40e99e618d08c0ca1fb866887", "is_disabled": 0, "rental_uris": {"ios": "https://dc.lft.to/lastmile_qr_scan", "android": "https://dc.lft.to/lastmile_qr_scan"}, "is_reserved": 0}, {"lon": -77.080044, "bike_id": "4e5927ddbadf41e3e9117999c2ad8d6d", "lat": 38.964866, "fusion_lon": 0.0, "fusion_lat": 0.0, "type": "electric_scooter", "name": "4e5927ddbadf41e3e9117999c2ad8d6d", "is_disabled": 0, "rental_uris": {"ios": "https://dc.lft.to/lastmile_qr_scan", "android": "https://dc.lft.to/lastmile_qr_scan"}, "is_reserved": 0}, {"lon": -77.07749583333333, "bike_id": "f9c8b43fe6d89a66b78a62853593d6e2", "lat": 38.841919, "fusion_lon": 0.0, "fusion_lat": 0.0, "type": "electric_bike", "name": "f9c8b43fe6d89a66b78a62853593d6e2", "is_disabled": 0, "rental_uris": {"ios": "https://dc.lft.to/lastmile_qr_scan", "android": "https://dc.lft.to/lastmile_qr_scan"}, "is_reserved": 0}, {"lon": -77.03634483333333, "bike_id": "078c50dccdf22f0aded43b93e3856778", "lat": 38.9273965, "fusion_lon": 0.0, "fusion_lat": 0.0, "type": "electric_scooter", "name": "078c50dccdf22f0aded43b93e3856778", "is_disabled": 0, "rental_uris": {"ios": "https://dc.lft.to/lastmile_qr_scan", "android": "https://dc.lft.to/lastmile_qr_scan"}, "is_reserved": 0}, {"lon": -77.02070716666667, "bike_id": "f7f2430df4228732414c004d3c362948", "lat": 38.89982366666667, "fusion_lon": 0.0, "fusion_lat": 0.0, "type": "electric_scooter", "name": "f7f2430df4228732414c004d3c362948", "is_disabled": 0, "rental_uris": {"ios": "https://dc.lft.to/lastmile_qr_scan", "android": "https://dc.lft.to/lastmile_qr_scan"}, "is_reserved": 0}, {"lon": -76.98038383333333, "bike_id": "c0bd2c106014db740bce5026894cca02", "lat": 38.8896735, "fusion_lon": 0.0, "fusion_lat": 0.0, "type": "electric_scooter", "name": "c0bd2c106014db740bce5026894cca02", "is_disabled": 0, "rental_uris": {"ios": "https://dc.lft.to/lastmile_qr_scan", "android": "https://dc.lft.to/lastmile_qr_scan"}, "is_reserved": 0}, {"lon": -77.0343655, "bike_id": "c0f0cdee4b0ed1ca29ce15f7826b5426", "lat": 38.9101325, "fusion_lon": 0.0, "fusion_lat": 0.0, "type": "electric_scooter", "name": "c0f0cdee4b0ed1ca29ce15f7826b5426", "is_disabled": 0, "rental_uris": {"ios": "https://dc.lft.to/lastmile_qr_scan", "android": "https://dc.lft.to/lastmile_qr_scan"}, "is_reserved": 0}, {"lon": -77.02573033333333, "bike_id": "66842e60f4cfb694d16b2576238349dc", "lat": 38.91413083333333, "fusion_lon": 0.0, "fusion_lat": 0.0, "type": "electric_scooter", "name": "66842e60f4cfb694d16b2576238349dc", "is_disabled": 0, "rental_uris": {"ios": "https://dc.lft.to/lastmile_qr_scan", "android": "https://dc.lft.to/lastmile_qr_scan"}, "is_reserved": 0}, {"lon": -76.98338316666667, "bike_id": "061a47595a71f5fa12b829291e4e7865", "lat": 38.866394, "fusion_lon": 0.0, "fusion_lat": 0.0, "type": "electric_scooter", "name": "061a47595a71f5fa12b829291e4e7865", "is_disabled": 0, "rental_uris": {"ios": "https://dc.lft.to/lastmile_qr_scan", "android": "https://dc.lft.to/lastmile_qr_scan"}, "is_reserved": 0}, {"lon": -76.98403966666666, "bike_id": "d5dde0f3a7b77df9c562515e23a8198d", "lat": 38.90629233333333, "fusion_lon": 0.0, "fusion_lat": 0.0, "type": "electric_scooter", "name": "d5dde0f3a7b77df9c562515e23a8198d", "is_disabled": 0, "rental_uris": {"ios": "https://dc.lft.to/lastmile_qr_scan", "android": "https://dc.lft.to/lastmile_qr_scan"}, "is_reserved": 0}, {"lon": -76.987763, "bike_id": "6b7d53a2a9e3a9785b2a0181f8a31680", "lat": 38.86610133333333, "fusion_lon": 0.0, "fusion_lat": 0.0, "type": "electric_bike", "name": "6b7d53a2a9e3a9785b2a0181f8a31680", "is_disabled": 0, "rental_uris": {"ios": "https://dc.lft.to/lastmile_qr_scan", "android": "https://dc.lft.to/lastmile_qr_scan"}, "is_reserved": 0}, {"lon": -77.03773616666666, "bike_id": "20728c2067936c4ba3dcca7b936baa65", "lat": 38.92967016666667, "fusion_lon": 0.0, "fusion_lat": 0.0, "type": "electric_scooter", "name": "20728c2067936c4ba3dcca7b936baa65", "is_disabled": 0, "rental_uris": {"ios": "https://dc.lft.to/lastmile_qr_scan", "android": "https://dc.lft.to/lastmile_qr_scan"}, "is_reserved": 0}, {"lon": -76.989322, "bike_id": "c1be00c7db13c224b43b6a7e7cdb7a64", "lat": 38.9183795, "fusion_lon": 0.0, "fusion_lat": 0.0, "type": "electric_scooter", "name": "c1be00c7db13c224b43b6a7e7cdb7a64", "is_disabled": 0, "rental_uris": {"ios": "https://dc.lft.to/lastmile_qr_scan", "android": "https://dc.lft.to/lastmile_qr_scan"}, "is_reserved": 0}, {"lon": -77.02999366666667, "bike_id": "d1cd14a4837074921ca1fef7e1015c2e", "lat": 38.9126, "fusion_lon": 0.0, "fusion_lat": 0.0, "type": "electric_scooter", "name": "d1cd14a4837074921ca1fef7e1015c2e", "is_disabled": 0, "rental_uris": {"ios": "https://dc.lft.to/lastmile_qr_scan", "android": "https://dc.lft.to/lastmile_qr_scan"}, "is_reserved": 0}, {"lon": -77.03695716666667, "bike_id": "f9cb6afdd186636cd519579875ba0b80", "lat": 38.9352495, "fusion_lon": 0.0, "fusion_lat": 0.0, "type": "electric_scooter", "name": "f9cb6afdd186636cd519579875ba0b80", "is_disabled": 0, "rental_uris": {"ios": "https://dc.lft.to/lastmile_qr_scan", "android": "https://dc.lft.to/lastmile_qr_scan"}, "is_reserved": 0}, {"lon": -77.02576083333334, "bike_id": "a57091e87ad767a0b8f27bee2f767f4b", "lat": 38.9133585, "fusion_lon": 0.0, "fusion_lat": 0.0, "type": "electric_scooter", "name": "a57091e87ad767a0b8f27bee2f767f4b", "is_disabled": 0, "rental_uris": {"ios": "https://dc.lft.to/lastmile_qr_scan", "android": "https://dc.lft.to/lastmile_qr_scan"}, "is_reserved": 0}, {"lon": -77.025075, "bike_id": "91cd4a3d61ab6bb204a91c589f422271", "lat": 38.9207485, "fusion_lon": 0.0, "fusion_lat": 0.0, "type": "electric_scooter", "name": "91cd4a3d61ab6bb204a91c589f422271", "is_disabled": 0, "rental_uris": {"ios": "https://dc.lft.to/lastmile_qr_scan", "android": "https://dc.lft.to/lastmile_qr_scan"}, "is_reserved": 0}, {"lon": -77.02627733333334, "bike_id": "b5c1d1ff457e9e405000dde1fd0ee906", "lat": 38.96227733333333, "fusion_lon": 0.0, "fusion_lat": 0.0, "type": "electric_bike", "name": "b5c1d1ff457e9e405000dde1fd0ee906", "is_disabled": 0, "rental_uris": {"ios": "https://dc.lft.to/lastmile_qr_scan", "android": "https://dc.lft.to/lastmile_qr_scan"}, "is_reserved": 0}, {"lon": -77.02533716666667, "bike_id": "bf58d4e2bc47e5277ffef14535a6db4b", "lat": 38.927428666666664, "fusion_lon": 0.0, "fusion_lat": 0.0, "type": "electric_scooter", "name": "bf58d4e2bc47e5277ffef14535a6db4b", "is_disabled": 0, "rental_uris": {"ios": "https://dc.lft.to/lastmile_qr_scan", "android": "https://dc.lft.to/lastmile_qr_scan"}, "is_reserved": 0}, {"lon": -77.0386285, "bike_id": "680da144c9841edddb1ed4f545a6244b", "lat": 38.91176166666666, "fusion_lon": 0.0, "fusion_lat": 0.0, "type": "electric_scooter", "name": "680da144c9841edddb1ed4f545a6244b", "is_disabled": 0, "rental_uris": {"ios": "https://dc.lft.to/lastmile_qr_scan", "android": "https://dc.lft.to/lastmile_qr_scan"}, "is_reserved": 0}, {"lon": -77.01029416666667, "bike_id": "ff34e0630a0e26264769093e6320f477", "lat": 38.894822833333336, "fusion_lon": 0.0, "fusion_lat": 0.0, "type": "electric_scooter", "name": "ff34e0630a0e26264769093e6320f477", "is_disabled": 0, "rental_uris": {"ios": "https://dc.lft.to/lastmile_qr_scan", "android": "https://dc.lft.to/lastmile_qr_scan"}, "is_reserved": 0}, {"lon": -77.04227716666666, "bike_id": "1c48f9552dbb0eb208913f5963e67841", "lat": 38.9170655, "fusion_lon": 0.0, "fusion_lat": 0.0, "type": "electric_scooter", "name": "1c48f9552dbb0eb208913f5963e67841", "is_disabled": 0, "rental_uris": {"ios": "https://dc.lft.to/lastmile_qr_scan", "android": "https://dc.lft.to/lastmile_qr_scan"}, "is_reserved": 0}, {"lon": -77.0192175, "bike_id": "977bd5f9f9e148b61b48a8e27078bec6", "lat": 38.88630783333333, "fusion_lon": 0.0, "fusion_lat": 0.0, "type": "electric_scooter", "name": "977bd5f9f9e148b61b48a8e27078bec6", "is_disabled": 0, "rental_uris": {"ios": "https://dc.lft.to/lastmile_qr_scan", "android": "https://dc.lft.to/lastmile_qr_scan"}, "is_reserved": 0}, {"lon": -76.995322, "bike_id": "0e64edac686fff2b1f87152692eb64f1", "lat": 38.883684833333334, "fusion_lon": 0.0, "fusion_lat": 0.0, "type": "electric_scooter", "name": "0e64edac686fff2b1f87152692eb64f1", "is_disabled": 0, "rental_uris": {"ios": "https://dc.lft.to/lastmile_qr_scan", "android": "https://dc.lft.to/lastmile_qr_scan"}, "is_reserved": 0}, {"lon": -77.04552816666667, "bike_id": "a2ed75568c29bc152db889074ea801d2", "lat": 38.913482333333334, "fusion_lon": 0.0, "fusion_lat": 0.0, "type": "electric_scooter", "name": "a2ed75568c29bc152db889074ea801d2", "is_disabled": 0, "rental_uris": {"ios": "https://dc.lft.to/lastmile_qr_scan", "android": "https://dc.lft.to/lastmile_qr_scan"}, "is_reserved": 0}, {"lon": -77.02578016666666, "bike_id": "152e6095118f46fae940e92bfc87cbc7", "lat": 38.904838, "fusion_lon": 0.0, "fusion_lat": 0.0, "type": "electric_scooter", "name": "152e6095118f46fae940e92bfc87cbc7", "is_disabled": 0, "rental_uris": {"ios": "https://dc.lft.to/lastmile_qr_scan", "android": "https://dc.lft.to/lastmile_qr_scan"}, "is_reserved": 0}, {"lon": -77.03172416666666, "bike_id": "1185715cbd06c7ba1be6055e2f9e2e37", "lat": 38.887358, "fusion_lon": 0.0, "fusion_lat": 0.0, "type": "electric_scooter", "name": "1185715cbd06c7ba1be6055e2f9e2e37", "is_disabled": 0, "rental_uris": {"ios": "https://dc.lft.to/lastmile_qr_scan", "android": "https://dc.lft.to/lastmile_qr_scan"}, "is_reserved": 0}, {"lon": -77.03342383333333, "bike_id": "1a8611c6699dee96bbc696df08c0b50a", "lat": 38.93028316666667, "fusion_lon": 0.0, "fusion_lat": 0.0, "type": "electric_scooter", "name": "1a8611c6699dee96bbc696df08c0b50a", "is_disabled": 0, "rental_uris": {"ios": "https://dc.lft.to/lastmile_qr_scan", "android": "https://dc.lft.to/lastmile_qr_scan"}, "is_reserved": 0}, {"lon": -77.02166766666667, "bike_id": "0401c57ce555ca93db9cdeaf43158299", "lat": 38.89725883333333, "fusion_lon": 0.0, "fusion_lat": 0.0, "type": "electric_scooter", "name": "0401c57ce555ca93db9cdeaf43158299", "is_disabled": 0, "rental_uris": {"ios": "https://dc.lft.to/lastmile_qr_scan", "android": "https://dc.lft.to/lastmile_qr_scan"}, "is_reserved": 0}, {"lon": -77.05231, "bike_id": "892c58add2dff8d20d566d4b44a73840", "lat": 38.924623833333335, "fusion_lon": 0.0, "fusion_lat": 0.0, "type": "electric_scooter", "name": "892c58add2dff8d20d566d4b44a73840", "is_disabled": 0, "rental_uris": {"ios": "https://dc.lft.to/lastmile_qr_scan", "android": "https://dc.lft.to/lastmile_qr_scan"}, "is_reserved": 0}, {"lon": -77.02903933333333, "bike_id": "2b742047f9e645ec0758e74ef43fb6dc", "lat": 38.92814216666667, "fusion_lon": 0.0, "fusion_lat": 0.0, "type": "electric_scooter", "name": "2b742047f9e645ec0758e74ef43fb6dc", "is_disabled": 0, "rental_uris": {"ios": "https://dc.lft.to/lastmile_qr_scan", "android": "https://dc.lft.to/lastmile_qr_scan"}, "is_reserved": 0}, {"lon": -77.0450375, "bike_id": "eb397dae9a7b14ed59eda78ef436314a", "lat": 38.910097666666665, "fusion_lon": 0.0, "fusion_lat": 0.0, "type": "electric_bike", "name": "eb397dae9a7b14ed59eda78ef436314a", "is_disabled": 0, "rental_uris": {"ios": "https://dc.lft.to/lastmile_qr_scan", "android": "https://dc.lft.to/lastmile_qr_scan"}, "is_reserved": 0}, {"lon": -76.97998266666667, "bike_id": "ffbf8769e7da6f1b4d55a872b54c36ab", "lat": 38.9067775, "fusion_lon": 0.0, "fusion_lat": 0.0, "type": "electric_scooter", "name": "ffbf8769e7da6f1b4d55a872b54c36ab", "is_disabled": 0, "rental_uris": {"ios": "https://dc.lft.to/lastmile_qr_scan", "android": "https://dc.lft.to/lastmile_qr_scan"}, "is_reserved": 0}, {"lon": -76.987179, "bike_id": "353cac054f10a4b30d67d8bdc428b89d", "lat": 38.866285, "fusion_lon": 0.0, "fusion_lat": 0.0, "type": "electric_scooter", "name": "353cac054f10a4b30d67d8bdc428b89d", "is_disabled": 0, "rental_uris": {"ios": "https://dc.lft.to/lastmile_qr_scan", "android": "https://dc.lft.to/lastmile_qr_scan"}, "is_reserved": 0}, {"lon": -77.026895, "bike_id": "30a667d56a2b72f4b4b8324f8bb81136", "lat": 38.909541833333336, "fusion_lon": 0.0, "fusion_lat": 0.0, "type": "electric_scooter", "name": "30a667d56a2b72f4b4b8324f8bb81136", "is_disabled": 0, "rental_uris": {"ios": "https://dc.lft.to/lastmile_qr_scan", "android": "https://dc.lft.to/lastmile_qr_scan"}, "is_reserved": 0}, {"lon": -77.01963516666666, "bike_id": "25bfa502b0b60fdb6ff541673b0b5d9c", "lat": 38.921973, "fusion_lon": 0.0, "fusion_lat": 0.0, "type": "electric_scooter", "name": "25bfa502b0b60fdb6ff541673b0b5d9c", "is_disabled": 0, "rental_uris": {"ios": "https://dc.lft.to/lastmile_qr_scan", "android": "https://dc.lft.to/lastmile_qr_scan"}, "is_reserved": 0}, {"lon": -77.02722366666667, "bike_id": "d6be37c601aaab3d25b41892e2577141", "lat": 38.913416833333336, "fusion_lon": 0.0, "fusion_lat": 0.0, "type": "electric_scooter", "name": "d6be37c601aaab3d25b41892e2577141", "is_disabled": 0, "rental_uris": {"ios": "https://dc.lft.to/lastmile_qr_scan", "android": "https://dc.lft.to/lastmile_qr_scan"}, "is_reserved": 0}, {"lon": -76.951873, "bike_id": "b4da0a1e5abb138ae0b70147183d67b9", "lat": 38.907383833333334, "fusion_lon": 0.0, "fusion_lat": 0.0, "type": "electric_scooter", "name": "b4da0a1e5abb138ae0b70147183d67b9", "is_disabled": 0, "rental_uris": {"ios": "https://dc.lft.to/lastmile_qr_scan", "android": "https://dc.lft.to/lastmile_qr_scan"}, "is_reserved": 0}, {"lon": -77.023894, "bike_id": "0c9b6759f5fef840d86acfd9d1439642", "lat": 38.9198485, "fusion_lon": 0.0, "fusion_lat": 0.0, "type": "electric_scooter", "name": "0c9b6759f5fef840d86acfd9d1439642", "is_disabled": 0, "rental_uris": {"ios": "https://dc.lft.to/lastmile_qr_scan", "android": "https://dc.lft.to/lastmile_qr_scan"}, "is_reserved": 0}, {"lon": -76.98197533333334, "bike_id": "92357e890b596d1166d7afa8faf1914e", "lat": 38.89947133333333, "fusion_lon": 0.0, "fusion_lat": 0.0, "type": "electric_scooter", "name": "92357e890b596d1166d7afa8faf1914e", "is_disabled": 0, "rental_uris": {"ios": "https://dc.lft.to/lastmile_qr_scan", "android": "https://dc.lft.to/lastmile_qr_scan"}, "is_reserved": 0}, {"lon": -77.0052725, "bike_id": "181040ca19fcb423aff20b09864cd2ca", "lat": 38.88046216666667, "fusion_lon": 0.0, "fusion_lat": 0.0, "type": "electric_scooter", "name": "181040ca19fcb423aff20b09864cd2ca", "is_disabled": 0, "rental_uris": {"ios": "https://dc.lft.to/lastmile_qr_scan", "android": "https://dc.lft.to/lastmile_qr_scan"}, "is_reserved": 0}, {"lon": -77.0195045, "bike_id": "e7aefaf1ca2f11b919f01cae1b54d44b", "lat": 38.9225185, "fusion_lon": 0.0, "fusion_lat": 0.0, "type": "electric_scooter", "name": "e7aefaf1ca2f11b919f01cae1b54d44b", "is_disabled": 0, "rental_uris": {"ios": "https://dc.lft.to/lastmile_qr_scan", "android": "https://dc.lft.to/lastmile_qr_scan"}, "is_reserved": 0}, {"lon": -77.06362383333334, "bike_id": "9f729355da35235dc811640eb5e3af90", "lat": 38.908522166666664, "fusion_lon": 0.0, "fusion_lat": 0.0, "type": "electric_bike", "name": "9f729355da35235dc811640eb5e3af90", "is_disabled": 0, "rental_uris": {"ios": "https://dc.lft.to/lastmile_qr_scan", "android": "https://dc.lft.to/lastmile_qr_scan"}, "is_reserved": 0}, {"lon": -77.02798033333333, "bike_id": "9d60018eddf0aaf93d8044c3d874d1b5", "lat": 38.929602833333334, "fusion_lon": 0.0, "fusion_lat": 0.0, "type": "electric_scooter", "name": "9d60018eddf0aaf93d8044c3d874d1b5", "is_disabled": 0, "rental_uris": {"ios": "https://dc.lft.to/lastmile_qr_scan", "android": "https://dc.lft.to/lastmile_qr_scan"}, "is_reserved": 0}, {"lon": -76.982639, "bike_id": "18fa2391e071ad2655a86ad88837cb4c", "lat": 38.908583166666666, "fusion_lon": 0.0, "fusion_lat": 0.0, "type": "electric_scooter", "name": "18fa2391e071ad2655a86ad88837cb4c", "is_disabled": 0, "rental_uris": {"ios": "https://dc.lft.to/lastmile_qr_scan", "android": "https://dc.lft.to/lastmile_qr_scan"}, "is_reserved": 0}, {"lon": -77.04594566666667, "bike_id": "030479ca22803ee07b27d094b2788ded", "lat": 38.9138145, "fusion_lon": 0.0, "fusion_lat": 0.0, "type": "electric_scooter", "name": "030479ca22803ee07b27d094b2788ded", "is_disabled": 0, "rental_uris": {"ios": "https://dc.lft.to/lastmile_qr_scan", "android": "https://dc.lft.to/lastmile_qr_scan"}, "is_reserved": 0}, {"lon": -76.99105016666667, "bike_id": "344dbdd6f9ea0e6a6272077ccfa5c8fe", "lat": 38.903219, "fusion_lon": 0.0, "fusion_lat": 0.0, "type": "electric_scooter", "name": "344dbdd6f9ea0e6a6272077ccfa5c8fe", "is_disabled": 0, "rental_uris": {"ios": "https://dc.lft.to/lastmile_qr_scan", "android": "https://dc.lft.to/lastmile_qr_scan"}, "is_reserved": 0}, {"lon": -77.01867616666667, "bike_id": "f4346ffe49c39fe43a080ce89c469598", "lat": 38.95149166666667, "fusion_lon": 0.0, "fusion_lat": 0.0, "type": "electric_scooter", "name": "f4346ffe49c39fe43a080ce89c469598", "is_disabled": 0, "rental_uris": {"ios": "https://dc.lft.to/lastmile_qr_scan", "android": "https://dc.lft.to/lastmile_qr_scan"}, "is_reserved": 0}, {"lon": -77.03928066666667, "bike_id": "0d83d1912532c03142ae8f0822d02fba", "lat": 38.9279575, "fusion_lon": 0.0, "fusion_lat": 0.0, "type": "electric_scooter", "name": "0d83d1912532c03142ae8f0822d02fba", "is_disabled": 0, "rental_uris": {"ios": "https://dc.lft.to/lastmile_qr_scan", "android": "https://dc.lft.to/lastmile_qr_scan"}, "is_reserved": 0}, {"lon": -77.00616116666667, "bike_id": "ad38b285142463af623f93a13f7d79a6", "lat": 38.899964833333335, "fusion_lon": 0.0, "fusion_lat": 0.0, "type": "electric_scooter", "name": "ad38b285142463af623f93a13f7d79a6", "is_disabled": 0, "rental_uris": {"ios": "https://dc.lft.to/lastmile_qr_scan", "android": "https://dc.lft.to/lastmile_qr_scan"}, "is_reserved": 0}, {"lon": -77.01608733333333, "bike_id": "55bc5892e1e202bfdd655e30dcc3d650", "lat": 38.90168233333333, "fusion_lon": 0.0, "fusion_lat": 0.0, "type": "electric_scooter", "name": "55bc5892e1e202bfdd655e30dcc3d650", "is_disabled": 0, "rental_uris": {"ios": "https://dc.lft.to/lastmile_qr_scan", "android": "https://dc.lft.to/lastmile_qr_scan"}, "is_reserved": 0}, {"lon": -76.952362, "bike_id": "7a613ec8f95959ebf48202850bd35a3b", "lat": 38.891010333333334, "fusion_lon": 0.0, "fusion_lat": 0.0, "type": "electric_scooter", "name": "7a613ec8f95959ebf48202850bd35a3b", "is_disabled": 0, "rental_uris": {"ios": "https://dc.lft.to/lastmile_qr_scan", "android": "https://dc.lft.to/lastmile_qr_scan"}, "is_reserved": 0}, {"lon": -77.03180083333334, "bike_id": "5580e50f27e08215f7c07b342ba55616", "lat": 38.9051935, "fusion_lon": 0.0, "fusion_lat": 0.0, "type": "electric_scooter", "name": "5580e50f27e08215f7c07b342ba55616", "is_disabled": 0, "rental_uris": {"ios": "https://dc.lft.to/lastmile_qr_scan", "android": "https://dc.lft.to/lastmile_qr_scan"}, "is_reserved": 0}, {"lon": -76.9761745, "bike_id": "762d35fcab0a27a9a7d3cb7b28331518", "lat": 38.926525833333336, "fusion_lon": 0.0, "fusion_lat": 0.0, "type": "electric_scooter", "name": "762d35fcab0a27a9a7d3cb7b28331518", "is_disabled": 0, "rental_uris": {"ios": "https://dc.lft.to/lastmile_qr_scan", "android": "https://dc.lft.to/lastmile_qr_scan"}, "is_reserved": 0}, {"lon": -77.08810383333334, "bike_id": "b08c179eda632e7f65a32425b0888df4", "lat": 38.9117425, "fusion_lon": 0.0, "fusion_lat": 0.0, "type": "electric_bike", "name": "b08c179eda632e7f65a32425b0888df4", "is_disabled": 0, "rental_uris": {"ios": "https://dc.lft.to/lastmile_qr_scan", "android": "https://dc.lft.to/lastmile_qr_scan"}, "is_reserved": 0}, {"lon": -77.01915, "bike_id": "dcb39b7798078c3dbb391387904bedb1", "lat": 38.877440666666665, "fusion_lon": 0.0, "fusion_lat": 0.0, "type": "electric_scooter", "name": "dcb39b7798078c3dbb391387904bedb1", "is_disabled": 0, "rental_uris": {"ios": "https://dc.lft.to/lastmile_qr_scan", "android": "https://dc.lft.to/lastmile_qr_scan"}, "is_reserved": 0}, {"lon": -77.03171516666667, "bike_id": "ba162d30e4f3de9f0bb2571a53be24a5", "lat": 38.897502333333335, "fusion_lon": 0.0, "fusion_lat": 0.0, "type": "electric_scooter", "name": "ba162d30e4f3de9f0bb2571a53be24a5", "is_disabled": 0, "rental_uris": {"ios": "https://dc.lft.to/lastmile_qr_scan", "android": "https://dc.lft.to/lastmile_qr_scan"}, "is_reserved": 0}, {"lon": -77.02264716666667, "bike_id": "31450d01c20673b540dd2572aacc5e06", "lat": 38.90721383333333, "fusion_lon": 0.0, "fusion_lat": 0.0, "type": "electric_scooter", "name": "31450d01c20673b540dd2572aacc5e06", "is_disabled": 0, "rental_uris": {"ios": "https://dc.lft.to/lastmile_qr_scan", "android": "https://dc.lft.to/lastmile_qr_scan"}, "is_reserved": 0}, {"lon": -77.0404225, "bike_id": "00e8e1eb94a90068f731074ac07347e2", "lat": 38.9040775, "fusion_lon": 0.0, "fusion_lat": 0.0, "type": "electric_scooter", "name": "00e8e1eb94a90068f731074ac07347e2", "is_disabled": 0, "rental_uris": {"ios": "https://dc.lft.to/lastmile_qr_scan", "android": "https://dc.lft.to/lastmile_qr_scan"}, "is_reserved": 0}, {"lon": -77.03862933333333, "bike_id": "b686c77a913900e09bb44f4250b3d8e7", "lat": 38.9155045, "fusion_lon": 0.0, "fusion_lat": 0.0, "type": "electric_scooter", "name": "b686c77a913900e09bb44f4250b3d8e7", "is_disabled": 0, "rental_uris": {"ios": "https://dc.lft.to/lastmile_qr_scan", "android": "https://dc.lft.to/lastmile_qr_scan"}, "is_reserved": 0}, {"lon": -77.026869, "bike_id": "0887476d5852f637d30efde31d5ff8f8", "lat": 38.971749833333334, "fusion_lon": 0.0, "fusion_lat": 0.0, "type": "electric_scooter", "name": "0887476d5852f637d30efde31d5ff8f8", "is_disabled": 0, "rental_uris": {"ios": "https://dc.lft.to/lastmile_qr_scan", "android": "https://dc.lft.to/lastmile_qr_scan"}, "is_reserved": 0}, {"lon": -77.0218565, "bike_id": "5eedf249af2c1ef3c8021995b98043ac", "lat": 38.90952566666667, "fusion_lon": 0.0, "fusion_lat": 0.0, "type": "electric_scooter", "name": "5eedf249af2c1ef3c8021995b98043ac", "is_disabled": 0, "rental_uris": {"ios": "https://dc.lft.to/lastmile_qr_scan", "android": "https://dc.lft.to/lastmile_qr_scan"}, "is_reserved": 0}, {"lon": -77.0415895, "bike_id": "927259759a747bc16b652df46dfcdd31", "lat": 38.9124955, "fusion_lon": 0.0, "fusion_lat": 0.0, "type": "electric_scooter", "name": "927259759a747bc16b652df46dfcdd31", "is_disabled": 0, "rental_uris": {"ios": "https://dc.lft.to/lastmile_qr_scan", "android": "https://dc.lft.to/lastmile_qr_scan"}, "is_reserved": 0}, {"lon": -77.03361783333334, "bike_id": "57787c48f21e739e6fc4826d90861b48", "lat": 38.92343866666667, "fusion_lon": 0.0, "fusion_lat": 0.0, "type": "electric_scooter", "name": "57787c48f21e739e6fc4826d90861b48", "is_disabled": 0, "rental_uris": {"ios": "https://dc.lft.to/lastmile_qr_scan", "android": "https://dc.lft.to/lastmile_qr_scan"}, "is_reserved": 0}, {"lon": -76.982359, "bike_id": "c6e3dad585f72923240bbcba718076e7", "lat": 38.88860666666667, "fusion_lon": 0.0, "fusion_lat": 0.0, "type": "electric_scooter", "name": "c6e3dad585f72923240bbcba718076e7", "is_disabled": 0, "rental_uris": {"ios": "https://dc.lft.to/lastmile_qr_scan", "android": "https://dc.lft.to/lastmile_qr_scan"}, "is_reserved": 0}, {"lon": -77.06495183333334, "bike_id": "511f30134627bc5270f0ceeae5b5f4b1", "lat": 38.92905483333333, "fusion_lon": 0.0, "fusion_lat": 0.0, "type": "electric_scooter", "name": "511f30134627bc5270f0ceeae5b5f4b1", "is_disabled": 0, "rental_uris": {"ios": "https://dc.lft.to/lastmile_qr_scan", "android": "https://dc.lft.to/lastmile_qr_scan"}, "is_reserved": 0}, {"lon": -77.04808816666667, "bike_id": "2df67e091e71972a2dc7488ffc94cbea", "lat": 38.91405183333333, "fusion_lon": 0.0, "fusion_lat": 0.0, "type": "electric_scooter", "name": "2df67e091e71972a2dc7488ffc94cbea", "is_disabled": 0, "rental_uris": {"ios": "https://dc.lft.to/lastmile_qr_scan", "android": "https://dc.lft.to/lastmile_qr_scan"}, "is_reserved": 0}, {"lon": -77.025208, "bike_id": "6f2b6aad6ebb4a0fdd65e8e50824b955", "lat": 38.88408116666667, "fusion_lon": 0.0, "fusion_lat": 0.0, "type": "electric_scooter", "name": "6f2b6aad6ebb4a0fdd65e8e50824b955", "is_disabled": 0, "rental_uris": {"ios": "https://dc.lft.to/lastmile_qr_scan", "android": "https://dc.lft.to/lastmile_qr_scan"}, "is_reserved": 0}, {"lon": -77.03556066666667, "bike_id": "c321abd48f3ba4047b01e41cedad8bb7", "lat": 38.927408, "fusion_lon": 0.0, "fusion_lat": 0.0, "type": "electric_scooter", "name": "c321abd48f3ba4047b01e41cedad8bb7", "is_disabled": 0, "rental_uris": {"ios": "https://dc.lft.to/lastmile_qr_scan", "android": "https://dc.lft.to/lastmile_qr_scan"}, "is_reserved": 0}, {"lon": -77.00886083333333, "bike_id": "a6c93f9816ef4ba36373dadafec2e038", "lat": 38.91715216666667, "fusion_lon": 0.0, "fusion_lat": 0.0, "type": "electric_scooter", "name": "a6c93f9816ef4ba36373dadafec2e038", "is_disabled": 0, "rental_uris": {"ios": "https://dc.lft.to/lastmile_qr_scan", "android": "https://dc.lft.to/lastmile_qr_scan"}, "is_reserved": 0}, {"lon": -76.9903375, "bike_id": "8ff98a85a744f2cb93dd53fce8b7c79b", "lat": 38.898525166666666, "fusion_lon": 0.0, "fusion_lat": 0.0, "type": "electric_scooter", "name": "8ff98a85a744f2cb93dd53fce8b7c79b", "is_disabled": 0, "rental_uris": {"ios": "https://dc.lft.to/lastmile_qr_scan", "android": "https://dc.lft.to/lastmile_qr_scan"}, "is_reserved": 0}, {"lon": -77.00195483333333, "bike_id": "617e207717a8502b5c0a14795fe73312", "lat": 38.9003535, "fusion_lon": 0.0, "fusion_lat": 0.0, "type": "electric_scooter", "name": "617e207717a8502b5c0a14795fe73312", "is_disabled": 0, "rental_uris": {"ios": "https://dc.lft.to/lastmile_qr_scan", "android": "https://dc.lft.to/lastmile_qr_scan"}, "is_reserved": 0}, {"lon": -77.03397766666667, "bike_id": "e14a11c3f9a13462a20696d47d32dd49", "lat": 38.93120316666667, "fusion_lon": 0.0, "fusion_lat": 0.0, "type": "electric_scooter", "name": "e14a11c3f9a13462a20696d47d32dd49", "is_disabled": 0, "rental_uris": {"ios": "https://dc.lft.to/lastmile_qr_scan", "android": "https://dc.lft.to/lastmile_qr_scan"}, "is_reserved": 0}, {"lon": -76.9615165, "bike_id": "3ededf439f3a2092272c460787458c84", "lat": 38.883561, "fusion_lon": 0.0, "fusion_lat": 0.0, "type": "electric_scooter", "name": "3ededf439f3a2092272c460787458c84", "is_disabled": 0, "rental_uris": {"ios": "https://dc.lft.to/lastmile_qr_scan", "android": "https://dc.lft.to/lastmile_qr_scan"}, "is_reserved": 0}, {"lon": -76.96773316666666, "bike_id": "72bfd9c4b04cb8e835d7bfac8aa06509", "lat": 38.86837166666667, "fusion_lon": 0.0, "fusion_lat": 0.0, "type": "electric_scooter", "name": "72bfd9c4b04cb8e835d7bfac8aa06509", "is_disabled": 0, "rental_uris": {"ios": "https://dc.lft.to/lastmile_qr_scan", "android": "https://dc.lft.to/lastmile_qr_scan"}, "is_reserved": 0}, {"lon": -76.99049866666667, "bike_id": "e0bfa432b0b0bc25a2518b67f580d760", "lat": 38.8875745, "fusion_lon": 0.0, "fusion_lat": 0.0, "type": "electric_scooter", "name": "e0bfa432b0b0bc25a2518b67f580d760", "is_disabled": 0, "rental_uris": {"ios": "https://dc.lft.to/lastmile_qr_scan", "android": "https://dc.lft.to/lastmile_qr_scan"}, "is_reserved": 0}, {"lon": -77.02620983333334, "bike_id": "598acb2a4dd8d8976fdc5f82173a6d31", "lat": 38.91708, "fusion_lon": 0.0, "fusion_lat": 0.0, "type": "electric_scooter", "name": "598acb2a4dd8d8976fdc5f82173a6d31", "is_disabled": 0, "rental_uris": {"ios": "https://dc.lft.to/lastmile_qr_scan", "android": "https://dc.lft.to/lastmile_qr_scan"}, "is_reserved": 0}, {"lon": -77.02871966666666, "bike_id": "3ef7c41e1538723ae291a2c831bc2c6e", "lat": 38.8985495, "fusion_lon": 0.0, "fusion_lat": 0.0, "type": "electric_scooter", "name": "3ef7c41e1538723ae291a2c831bc2c6e", "is_disabled": 0, "rental_uris": {"ios": "https://dc.lft.to/lastmile_qr_scan", "android": "https://dc.lft.to/lastmile_qr_scan"}, "is_reserved": 0}, {"lon": -77.0342385, "bike_id": "13b90242a666a19d60c7630fdddfc16f", "lat": 38.90239966666667, "fusion_lon": 0.0, "fusion_lat": 0.0, "type": "electric_scooter", "name": "13b90242a666a19d60c7630fdddfc16f", "is_disabled": 0, "rental_uris": {"ios": "https://dc.lft.to/lastmile_qr_scan", "android": "https://dc.lft.to/lastmile_qr_scan"}, "is_reserved": 0}, {"lon": -77.038655, "bike_id": "a4a9d0f1c4d24286b15956e67f01624b", "lat": 38.945023, "fusion_lon": 0.0, "fusion_lat": 0.0, "type": "electric_scooter", "name": "a4a9d0f1c4d24286b15956e67f01624b", "is_disabled": 0, "rental_uris": {"ios": "https://dc.lft.to/lastmile_qr_scan", "android": "https://dc.lft.to/lastmile_qr_scan"}, "is_reserved": 0}, {"lon": -76.93532283333333, "bike_id": "4ff03772499e2c02fd577c04d4a567f0", "lat": 38.896807833333334, "fusion_lon": 0.0, "fusion_lat": 0.0, "type": "electric_scooter", "name": "4ff03772499e2c02fd577c04d4a567f0", "is_disabled": 0, "rental_uris": {"ios": "https://dc.lft.to/lastmile_qr_scan", "android": "https://dc.lft.to/lastmile_qr_scan"}, "is_reserved": 0}, {"lon": -76.98099016666667, "bike_id": "283f49688fbb01d492562d068da0e53c", "lat": 38.89550883333333, "fusion_lon": 0.0, "fusion_lat": 0.0, "type": "electric_scooter", "name": "283f49688fbb01d492562d068da0e53c", "is_disabled": 0, "rental_uris": {"ios": "https://dc.lft.to/lastmile_qr_scan", "android": "https://dc.lft.to/lastmile_qr_scan"}, "is_reserved": 0}, {"lon": -77.02715933333333, "bike_id": "c309cd9f45600719de897521c8634d5c", "lat": 38.92465766666667, "fusion_lon": 0.0, "fusion_lat": 0.0, "type": "electric_scooter", "name": "c309cd9f45600719de897521c8634d5c", "is_disabled": 0, "rental_uris": {"ios": "https://dc.lft.to/lastmile_qr_scan", "android": "https://dc.lft.to/lastmile_qr_scan"}, "is_reserved": 0}, {"lon": -77.00814766666667, "bike_id": "a381427fac26ed9ecabc1c12e19938d8", "lat": 38.905512, "fusion_lon": 0.0, "fusion_lat": 0.0, "type": "electric_scooter", "name": "a381427fac26ed9ecabc1c12e19938d8", "is_disabled": 0, "rental_uris": {"ios": "https://dc.lft.to/lastmile_qr_scan", "android": "https://dc.lft.to/lastmile_qr_scan"}, "is_reserved": 0}, {"lon": -77.01753083333334, "bike_id": "c98301596193013c51dcc71538b4014b", "lat": 38.902833333333334, "fusion_lon": 0.0, "fusion_lat": 0.0, "type": "electric_scooter", "name": "c98301596193013c51dcc71538b4014b", "is_disabled": 0, "rental_uris": {"ios": "https://dc.lft.to/lastmile_qr_scan", "android": "https://dc.lft.to/lastmile_qr_scan"}, "is_reserved": 0}, {"lon": -77.04327966666666, "bike_id": "c8bb58b7b935f5ed4c8e501c08b2c300", "lat": 38.90835033333333, "fusion_lon": 0.0, "fusion_lat": 0.0, "type": "electric_scooter", "name": "c8bb58b7b935f5ed4c8e501c08b2c300", "is_disabled": 0, "rental_uris": {"ios": "https://dc.lft.to/lastmile_qr_scan", "android": "https://dc.lft.to/lastmile_qr_scan"}, "is_reserved": 0}, {"lon": -77.021405, "bike_id": "5d9a4654901d1edf3b2c3d4647b52b88", "lat": 38.90087416666667, "fusion_lon": 0.0, "fusion_lat": 0.0, "type": "electric_scooter", "name": "5d9a4654901d1edf3b2c3d4647b52b88", "is_disabled": 0, "rental_uris": {"ios": "https://dc.lft.to/lastmile_qr_scan", "android": "https://dc.lft.to/lastmile_qr_scan"}, "is_reserved": 0}, {"lon": -77.0094265, "bike_id": "a1d1ad4ca58043c23ee9dfd8b1dfb35f", "lat": 38.87111516666667, "fusion_lon": 0.0, "fusion_lat": 0.0, "type": "electric_scooter", "name": "a1d1ad4ca58043c23ee9dfd8b1dfb35f", "is_disabled": 0, "rental_uris": {"ios": "https://dc.lft.to/lastmile_qr_scan", "android": "https://dc.lft.to/lastmile_qr_scan"}, "is_reserved": 0}, {"lon": -77.03824466666667, "bike_id": "eba6b9cc3409fdb4d2057ad8ead39589", "lat": 38.90667333333333, "fusion_lon": 0.0, "fusion_lat": 0.0, "type": "electric_scooter", "name": "eba6b9cc3409fdb4d2057ad8ead39589", "is_disabled": 0, "rental_uris": {"ios": "https://dc.lft.to/lastmile_qr_scan", "android": "https://dc.lft.to/lastmile_qr_scan"}, "is_reserved": 0}, {"lon": -77.0586135, "bike_id": "578bf66fdf26224aa10ea6f0d45fe501", "lat": 38.936076666666665, "fusion_lon": 0.0, "fusion_lat": 0.0, "type": "electric_scooter", "name": "578bf66fdf26224aa10ea6f0d45fe501", "is_disabled": 0, "rental_uris": {"ios": "https://dc.lft.to/lastmile_qr_scan", "android": "https://dc.lft.to/lastmile_qr_scan"}, "is_reserved": 0}, {"lon": -77.0275845, "bike_id": "bbde3cb646cbe964f5d623a048e0e2f5", "lat": 38.944048333333335, "fusion_lon": 0.0, "fusion_lat": 0.0, "type": "electric_scooter", "name": "bbde3cb646cbe964f5d623a048e0e2f5", "is_disabled": 0, "rental_uris": {"ios": "https://dc.lft.to/lastmile_qr_scan", "android": "https://dc.lft.to/lastmile_qr_scan"}, "is_reserved": 0}, {"lon": -77.04551616666667, "bike_id": "b2c82ebf21478773e882bba383a15723", "lat": 38.912702333333336, "fusion_lon": 0.0, "fusion_lat": 0.0, "type": "electric_scooter", "name": "b2c82ebf21478773e882bba383a15723", "is_disabled": 0, "rental_uris": {"ios": "https://dc.lft.to/lastmile_qr_scan", "android": "https://dc.lft.to/lastmile_qr_scan"}, "is_reserved": 0}, {"lon": -77.03185883333333, "bike_id": "f1994640835d7bf50e11439a6a784903", "lat": 38.9173965, "fusion_lon": 0.0, "fusion_lat": 0.0, "type": "electric_scooter", "name": "f1994640835d7bf50e11439a6a784903", "is_disabled": 0, "rental_uris": {"ios": "https://dc.lft.to/lastmile_qr_scan", "android": "https://dc.lft.to/lastmile_qr_scan"}, "is_reserved": 0}, {"lon": -77.023912, "bike_id": "0a33f39758d5cf0fb78e523b87be9352", "lat": 38.920004, "fusion_lon": 0.0, "fusion_lat": 0.0, "type": "electric_scooter", "name": "0a33f39758d5cf0fb78e523b87be9352", "is_disabled": 0, "rental_uris": {"ios": "https://dc.lft.to/lastmile_qr_scan", "android": "https://dc.lft.to/lastmile_qr_scan"}, "is_reserved": 0}, {"lon": -77.02000766666667, "bike_id": "c74db28f90f869e403d6bdf18213356a", "lat": 38.91363366666667, "fusion_lon": 0.0, "fusion_lat": 0.0, "type": "electric_scooter", "name": "c74db28f90f869e403d6bdf18213356a", "is_disabled": 0, "rental_uris": {"ios": "https://dc.lft.to/lastmile_qr_scan", "android": "https://dc.lft.to/lastmile_qr_scan"}, "is_reserved": 0}, {"lon": -77.02468566666667, "bike_id": "0a6b290f9776eb78a4607377702999d1", "lat": 38.900783833333335, "fusion_lon": 0.0, "fusion_lat": 0.0, "type": "electric_scooter", "name": "0a6b290f9776eb78a4607377702999d1", "is_disabled": 0, "rental_uris": {"ios": "https://dc.lft.to/lastmile_qr_scan", "android": "https://dc.lft.to/lastmile_qr_scan"}, "is_reserved": 0}, {"lon": -77.02125516666666, "bike_id": "5a061f11701b9fb1a810881cf9889fde", "lat": 38.909736, "fusion_lon": 0.0, "fusion_lat": 0.0, "type": "electric_scooter", "name": "5a061f11701b9fb1a810881cf9889fde", "is_disabled": 0, "rental_uris": {"ios": "https://dc.lft.to/lastmile_qr_scan", "android": "https://dc.lft.to/lastmile_qr_scan"}, "is_reserved": 0}, {"lon": -77.0307265, "bike_id": "4d3b9ea25ed97a5ff4483b27af091e99", "lat": 38.902740333333334, "fusion_lon": 0.0, "fusion_lat": 0.0, "type": "electric_scooter", "name": "4d3b9ea25ed97a5ff4483b27af091e99", "is_disabled": 0, "rental_uris": {"ios": "https://dc.lft.to/lastmile_qr_scan", "android": "https://dc.lft.to/lastmile_qr_scan"}, "is_reserved": 0}, {"lon": -76.97534816666666, "bike_id": "370a38237fc77cacf6cc2701b292fe23", "lat": 38.90327383333333, "fusion_lon": 0.0, "fusion_lat": 0.0, "type": "electric_bike", "name": "370a38237fc77cacf6cc2701b292fe23", "is_disabled": 0, "rental_uris": {"ios": "https://dc.lft.to/lastmile_qr_scan", "android": "https://dc.lft.to/lastmile_qr_scan"}, "is_reserved": 0}, {"lon": -77.02433416666666, "bike_id": "a4b431a4ffdcc99f00bab2a538088139", "lat": 38.923448, "fusion_lon": 0.0, "fusion_lat": 0.0, "type": "electric_scooter", "name": "a4b431a4ffdcc99f00bab2a538088139", "is_disabled": 0, "rental_uris": {"ios": "https://dc.lft.to/lastmile_qr_scan", "android": "https://dc.lft.to/lastmile_qr_scan"}, "is_reserved": 0}, {"lon": -77.0505565, "bike_id": "6af82f1ce78448f0093fc01e2512a9fa", "lat": 38.925827, "fusion_lon": 0.0, "fusion_lat": 0.0, "type": "electric_scooter", "name": "6af82f1ce78448f0093fc01e2512a9fa", "is_disabled": 0, "rental_uris": {"ios": "https://dc.lft.to/lastmile_qr_scan", "android": "https://dc.lft.to/lastmile_qr_scan"}, "is_reserved": 0}, {"lon": -77.04148766666667, "bike_id": "c00ea364646a3cf3d2e64e0a779197f2", "lat": 38.90633116666667, "fusion_lon": 0.0, "fusion_lat": 0.0, "type": "electric_scooter", "name": "c00ea364646a3cf3d2e64e0a779197f2", "is_disabled": 0, "rental_uris": {"ios": "https://dc.lft.to/lastmile_qr_scan", "android": "https://dc.lft.to/lastmile_qr_scan"}, "is_reserved": 0}, {"lon": -77.03764416666667, "bike_id": "759883fdc818b165d5552595da6f7d99", "lat": 38.928757, "fusion_lon": 0.0, "fusion_lat": 0.0, "type": "electric_scooter", "name": "759883fdc818b165d5552595da6f7d99", "is_disabled": 0, "rental_uris": {"ios": "https://dc.lft.to/lastmile_qr_scan", "android": "https://dc.lft.to/lastmile_qr_scan"}, "is_reserved": 0}, {"lon": -77.03285083333333, "bike_id": "565affe859d236dcfb9e35a4902a47b2", "lat": 38.93881733333333, "fusion_lon": 0.0, "fusion_lat": 0.0, "type": "electric_scooter", "name": "565affe859d236dcfb9e35a4902a47b2", "is_disabled": 0, "rental_uris": {"ios": "https://dc.lft.to/lastmile_qr_scan", "android": "https://dc.lft.to/lastmile_qr_scan"}, "is_reserved": 0}, {"lon": -76.98456716666666, "bike_id": "f90895099b02ec7bc21c2ed933781363", "lat": 38.905520833333334, "fusion_lon": 0.0, "fusion_lat": 0.0, "type": "electric_scooter", "name": "f90895099b02ec7bc21c2ed933781363", "is_disabled": 0, "rental_uris": {"ios": "https://dc.lft.to/lastmile_qr_scan", "android": "https://dc.lft.to/lastmile_qr_scan"}, "is_reserved": 0}, {"lon": -77.00348, "bike_id": "fc910a809c2568ec008607b77fa2427b", "lat": 38.91623933333333, "fusion_lon": 0.0, "fusion_lat": 0.0, "type": "electric_scooter", "name": "fc910a809c2568ec008607b77fa2427b", "is_disabled": 0, "rental_uris": {"ios": "https://dc.lft.to/lastmile_qr_scan", "android": "https://dc.lft.to/lastmile_qr_scan"}, "is_reserved": 0}, {"lon": -76.99177016666667, "bike_id": "95cd02aed05e1ef879603b7919a2ace7", "lat": 38.889874, "fusion_lon": 0.0, "fusion_lat": 0.0, "type": "electric_scooter", "name": "95cd02aed05e1ef879603b7919a2ace7", "is_disabled": 0, "rental_uris": {"ios": "https://dc.lft.to/lastmile_qr_scan", "android": "https://dc.lft.to/lastmile_qr_scan"}, "is_reserved": 0}, {"lon": -77.0222205, "bike_id": "f2929bd39b0253992ddd54d193e435d9", "lat": 38.892201666666665, "fusion_lon": 0.0, "fusion_lat": 0.0, "type": "electric_scooter", "name": "f2929bd39b0253992ddd54d193e435d9", "is_disabled": 0, "rental_uris": {"ios": "https://dc.lft.to/lastmile_qr_scan", "android": "https://dc.lft.to/lastmile_qr_scan"}, "is_reserved": 0}, {"lon": -76.99003166666667, "bike_id": "975a86a5fd5b38823530d8ad3e44b7f5", "lat": 38.86513033333333, "fusion_lon": 0.0, "fusion_lat": 0.0, "type": "electric_scooter", "name": "975a86a5fd5b38823530d8ad3e44b7f5", "is_disabled": 0, "rental_uris": {"ios": "https://dc.lft.to/lastmile_qr_scan", "android": "https://dc.lft.to/lastmile_qr_scan"}, "is_reserved": 0}, {"lon": -77.0374505, "bike_id": "ae410ec2b8ba37322b267b78ddd585b1", "lat": 38.91805266666667, "fusion_lon": 0.0, "fusion_lat": 0.0, "type": "electric_scooter", "name": "ae410ec2b8ba37322b267b78ddd585b1", "is_disabled": 0, "rental_uris": {"ios": "https://dc.lft.to/lastmile_qr_scan", "android": "https://dc.lft.to/lastmile_qr_scan"}, "is_reserved": 0}, {"lon": -77.027239, "bike_id": "c68ba1ed1194f210e0298281e15f9397", "lat": 38.91337883333333, "fusion_lon": 0.0, "fusion_lat": 0.0, "type": "electric_scooter", "name": "c68ba1ed1194f210e0298281e15f9397", "is_disabled": 0, "rental_uris": {"ios": "https://dc.lft.to/lastmile_qr_scan", "android": "https://dc.lft.to/lastmile_qr_scan"}, "is_reserved": 0}, {"lon": -77.02754466666667, "bike_id": "961355670b3a6e12ac1613a21faac7c8", "lat": 38.89726816666666, "fusion_lon": 0.0, "fusion_lat": 0.0, "type": "electric_scooter", "name": "961355670b3a6e12ac1613a21faac7c8", "is_disabled": 0, "rental_uris": {"ios": "https://dc.lft.to/lastmile_qr_scan", "android": "https://dc.lft.to/lastmile_qr_scan"}, "is_reserved": 0}, {"lon": -77.03185883333333, "bike_id": "c0738a67e6dab9b4de4beaa7caf67cdf", "lat": 38.895762500000004, "fusion_lon": 0.0, "fusion_lat": 0.0, "type": "electric_scooter", "name": "c0738a67e6dab9b4de4beaa7caf67cdf", "is_disabled": 0, "rental_uris": {"ios": "https://dc.lft.to/lastmile_qr_scan", "android": "https://dc.lft.to/lastmile_qr_scan"}, "is_reserved": 0}, {"lon": -77.02210133333334, "bike_id": "df9a0218f1b886b1d6a1f75d4d374532", "lat": 38.91414666666667, "fusion_lon": 0.0, "fusion_lat": 0.0, "type": "electric_scooter", "name": "df9a0218f1b886b1d6a1f75d4d374532", "is_disabled": 0, "rental_uris": {"ios": "https://dc.lft.to/lastmile_qr_scan", "android": "https://dc.lft.to/lastmile_qr_scan"}, "is_reserved": 0}, {"lon": -77.02769533333333, "bike_id": "0b444a936d16e43daffed4371ea08439", "lat": 38.8922, "fusion_lon": 0.0, "fusion_lat": 0.0, "type": "electric_scooter", "name": "0b444a936d16e43daffed4371ea08439", "is_disabled": 0, "rental_uris": {"ios": "https://dc.lft.to/lastmile_qr_scan", "android": "https://dc.lft.to/lastmile_qr_scan"}, "is_reserved": 0}, {"lon": -76.99460766666667, "bike_id": "3bf1aef7adf972651573a683e168b655", "lat": 38.9662135, "fusion_lon": 0.0, "fusion_lat": 0.0, "type": "electric_bike", "name": "3bf1aef7adf972651573a683e168b655", "is_disabled": 0, "rental_uris": {"ios": "https://dc.lft.to/lastmile_qr_scan", "android": "https://dc.lft.to/lastmile_qr_scan"}, "is_reserved": 0}, {"lon": -77.08183166666667, "bike_id": "c96c5df5e9b9e3a8ce40da19fc63525e", "lat": 38.949610666666665, "fusion_lon": 0.0, "fusion_lat": 0.0, "type": "electric_scooter", "name": "c96c5df5e9b9e3a8ce40da19fc63525e", "is_disabled": 0, "rental_uris": {"ios": "https://dc.lft.to/lastmile_qr_scan", "android": "https://dc.lft.to/lastmile_qr_scan"}, "is_reserved": 0}, {"lon": -76.99030983333333, "bike_id": "f9c6b95ced6b8740b903d3ac9a59f47e", "lat": 38.8985265, "fusion_lon": 0.0, "fusion_lat": 0.0, "type": "electric_scooter", "name": "f9c6b95ced6b8740b903d3ac9a59f47e", "is_disabled": 0, "rental_uris": {"ios": "https://dc.lft.to/lastmile_qr_scan", "android": "https://dc.lft.to/lastmile_qr_scan"}, "is_reserved": 0}, {"lon": -77.0432835, "bike_id": "cf77281fba766c33f3c218a59617ab54", "lat": 38.90720433333333, "fusion_lon": 0.0, "fusion_lat": 0.0, "type": "electric_scooter", "name": "cf77281fba766c33f3c218a59617ab54", "is_disabled": 0, "rental_uris": {"ios": "https://dc.lft.to/lastmile_qr_scan", "android": "https://dc.lft.to/lastmile_qr_scan"}, "is_reserved": 0}, {"lon": -76.97928216666666, "bike_id": "fdb0770d944e73b096bb55b459a95b5a", "lat": 38.905035166666664, "fusion_lon": 0.0, "fusion_lat": 0.0, "type": "electric_scooter", "name": "fdb0770d944e73b096bb55b459a95b5a", "is_disabled": 0, "rental_uris": {"ios": "https://dc.lft.to/lastmile_qr_scan", "android": "https://dc.lft.to/lastmile_qr_scan"}, "is_reserved": 0}, {"lon": -76.99376366666667, "bike_id": "a38b95138cc99332864ea0587e2ab1f7", "lat": 38.87975816666667, "fusion_lon": 0.0, "fusion_lat": 0.0, "type": "electric_scooter", "name": "a38b95138cc99332864ea0587e2ab1f7", "is_disabled": 0, "rental_uris": {"ios": "https://dc.lft.to/lastmile_qr_scan", "android": "https://dc.lft.to/lastmile_qr_scan"}, "is_reserved": 0}, {"lon": -77.0132325, "bike_id": "c87ecd109b32dd40e5f38629dc11079d", "lat": 38.871493, "fusion_lon": 0.0, "fusion_lat": 0.0, "type": "electric_scooter", "name": "c87ecd109b32dd40e5f38629dc11079d", "is_disabled": 0, "rental_uris": {"ios": "https://dc.lft.to/lastmile_qr_scan", "android": "https://dc.lft.to/lastmile_qr_scan"}, "is_reserved": 0}, {"lon": -76.99228133333334, "bike_id": "efd4277119f6a5940b31acc1d34bc08b", "lat": 38.922152, "fusion_lon": 0.0, "fusion_lat": 0.0, "type": "electric_scooter", "name": "efd4277119f6a5940b31acc1d34bc08b", "is_disabled": 0, "rental_uris": {"ios": "https://dc.lft.to/lastmile_qr_scan", "android": "https://dc.lft.to/lastmile_qr_scan"}, "is_reserved": 0}, {"lon": -77.03878433333334, "bike_id": "d9d589725eb93d3d89e73e27666dab15", "lat": 38.9038465, "fusion_lon": 0.0, "fusion_lat": 0.0, "type": "electric_scooter", "name": "d9d589725eb93d3d89e73e27666dab15", "is_disabled": 0, "rental_uris": {"ios": "https://dc.lft.to/lastmile_qr_scan", "android": "https://dc.lft.to/lastmile_qr_scan"}, "is_reserved": 0}, {"lon": -77.04876316666666, "bike_id": "821d3bf9ce8d9dc68104c3e60e5a467c", "lat": 38.8923205, "fusion_lon": 0.0, "fusion_lat": 0.0, "type": "electric_scooter", "name": "821d3bf9ce8d9dc68104c3e60e5a467c", "is_disabled": 0, "rental_uris": {"ios": "https://dc.lft.to/lastmile_qr_scan", "android": "https://dc.lft.to/lastmile_qr_scan"}, "is_reserved": 0}, {"lon": -77.029468, "bike_id": "11fea668c907fc6e33cdf4db10f3a8b0", "lat": 38.9064265, "fusion_lon": 0.0, "fusion_lat": 0.0, "type": "electric_scooter", "name": "11fea668c907fc6e33cdf4db10f3a8b0", "is_disabled": 0, "rental_uris": {"ios": "https://dc.lft.to/lastmile_qr_scan", "android": "https://dc.lft.to/lastmile_qr_scan"}, "is_reserved": 0}, {"lon": -77.04424983333334, "bike_id": "2190a677156c34332c19a35235def20d", "lat": 38.91007416666667, "fusion_lon": 0.0, "fusion_lat": 0.0, "type": "electric_scooter", "name": "2190a677156c34332c19a35235def20d", "is_disabled": 0, "rental_uris": {"ios": "https://dc.lft.to/lastmile_qr_scan", "android": "https://dc.lft.to/lastmile_qr_scan"}, "is_reserved": 0}, {"lon": -77.02177533333334, "bike_id": "d86a7c6670a5e2bad756af0e0f4d4f12", "lat": 38.8973445, "fusion_lon": 0.0, "fusion_lat": 0.0, "type": "electric_scooter", "name": "d86a7c6670a5e2bad756af0e0f4d4f12", "is_disabled": 0, "rental_uris": {"ios": "https://dc.lft.to/lastmile_qr_scan", "android": "https://dc.lft.to/lastmile_qr_scan"}, "is_reserved": 0}, {"lon": -77.02812616666667, "bike_id": "dd0803cae4cd5e2df7d06a5ada3231c8", "lat": 38.895352333333335, "fusion_lon": 0.0, "fusion_lat": 0.0, "type": "electric_scooter", "name": "dd0803cae4cd5e2df7d06a5ada3231c8", "is_disabled": 0, "rental_uris": {"ios": "https://dc.lft.to/lastmile_qr_scan", "android": "https://dc.lft.to/lastmile_qr_scan"}, "is_reserved": 0}, {"lon": -77.02232116666667, "bike_id": "2feaeaecb41f57429358c34cac7a1aa0", "lat": 38.962005166666664, "fusion_lon": 0.0, "fusion_lat": 0.0, "type": "electric_scooter", "name": "2feaeaecb41f57429358c34cac7a1aa0", "is_disabled": 0, "rental_uris": {"ios": "https://dc.lft.to/lastmile_qr_scan", "android": "https://dc.lft.to/lastmile_qr_scan"}, "is_reserved": 0}, {"lon": -76.946381, "bike_id": "933cdcac6940f35e41a491cc08a767ce", "lat": 38.89832766666667, "fusion_lon": 0.0, "fusion_lat": 0.0, "type": "electric_scooter", "name": "933cdcac6940f35e41a491cc08a767ce", "is_disabled": 0, "rental_uris": {"ios": "https://dc.lft.to/lastmile_qr_scan", "android": "https://dc.lft.to/lastmile_qr_scan"}, "is_reserved": 0}, {"lon": -76.93361833333333, "bike_id": "62b2646adbd043dab74d778c994fc448", "lat": 38.887970333333335, "fusion_lon": 0.0, "fusion_lat": 0.0, "type": "electric_scooter", "name": "62b2646adbd043dab74d778c994fc448", "is_disabled": 0, "rental_uris": {"ios": "https://dc.lft.to/lastmile_qr_scan", "android": "https://dc.lft.to/lastmile_qr_scan"}, "is_reserved": 0}, {"lon": -77.0480365, "bike_id": "9d658f5f97b7f0b225db03f0eee62970", "lat": 38.90978583333333, "fusion_lon": 0.0, "fusion_lat": 0.0, "type": "electric_scooter", "name": "9d658f5f97b7f0b225db03f0eee62970", "is_disabled": 0, "rental_uris": {"ios": "https://dc.lft.to/lastmile_qr_scan", "android": "https://dc.lft.to/lastmile_qr_scan"}, "is_reserved": 0}, {"lon": -77.04252683333333, "bike_id": "b574e11a2e344af2a3d7f9ac383a0e1c", "lat": 38.90722683333333, "fusion_lon": 0.0, "fusion_lat": 0.0, "type": "electric_scooter", "name": "b574e11a2e344af2a3d7f9ac383a0e1c", "is_disabled": 0, "rental_uris": {"ios": "https://dc.lft.to/lastmile_qr_scan", "android": "https://dc.lft.to/lastmile_qr_scan"}, "is_reserved": 0}, {"lon": -77.0100435, "bike_id": "b6116d63bdc0879631fd1c1cc9e2374a", "lat": 38.919247666666664, "fusion_lon": 0.0, "fusion_lat": 0.0, "type": "electric_scooter", "name": "b6116d63bdc0879631fd1c1cc9e2374a", "is_disabled": 0, "rental_uris": {"ios": "https://dc.lft.to/lastmile_qr_scan", "android": "https://dc.lft.to/lastmile_qr_scan"}, "is_reserved": 0}, {"lon": -77.03172116666667, "bike_id": "4a7e4e707aa497101cbae022dde26ad3", "lat": 38.9141505, "fusion_lon": 0.0, "fusion_lat": 0.0, "type": "electric_scooter", "name": "4a7e4e707aa497101cbae022dde26ad3", "is_disabled": 0, "rental_uris": {"ios": "https://dc.lft.to/lastmile_qr_scan", "android": "https://dc.lft.to/lastmile_qr_scan"}, "is_reserved": 0}, {"lon": -77.0251095, "bike_id": "ce674b26e54b5bd97e1a1bfbb99a398b", "lat": 38.930905833333334, "fusion_lon": 0.0, "fusion_lat": 0.0, "type": "electric_scooter", "name": "ce674b26e54b5bd97e1a1bfbb99a398b", "is_disabled": 0, "rental_uris": {"ios": "https://dc.lft.to/lastmile_qr_scan", "android": "https://dc.lft.to/lastmile_qr_scan"}, "is_reserved": 0}, {"lon": -77.02952483333334, "bike_id": "b8b81e5c3bb08688d0dec3a3c8b782f9", "lat": 38.9237095, "fusion_lon": 0.0, "fusion_lat": 0.0, "type": "electric_scooter", "name": "b8b81e5c3bb08688d0dec3a3c8b782f9", "is_disabled": 0, "rental_uris": {"ios": "https://dc.lft.to/lastmile_qr_scan", "android": "https://dc.lft.to/lastmile_qr_scan"}, "is_reserved": 0}, {"lon": -77.02223083333334, "bike_id": "b573207335966fa15819c63c868b5a86", "lat": 38.892192333333334, "fusion_lon": 0.0, "fusion_lat": 0.0, "type": "electric_scooter", "name": "b573207335966fa15819c63c868b5a86", "is_disabled": 0, "rental_uris": {"ios": "https://dc.lft.to/lastmile_qr_scan", "android": "https://dc.lft.to/lastmile_qr_scan"}, "is_reserved": 0}, {"lon": -77.0486855, "bike_id": "436ad798ca2cdae4969d23fcd684506e", "lat": 38.9162325, "fusion_lon": 0.0, "fusion_lat": 0.0, "type": "electric_scooter", "name": "436ad798ca2cdae4969d23fcd684506e", "is_disabled": 0, "rental_uris": {"ios": "https://dc.lft.to/lastmile_qr_scan", "android": "https://dc.lft.to/lastmile_qr_scan"}, "is_reserved": 0}, {"lon": -77.04188633333334, "bike_id": "abc335dc6a4a3937ea11259697863fe2", "lat": 38.91125133333333, "fusion_lon": 0.0, "fusion_lat": 0.0, "type": "electric_scooter", "name": "abc335dc6a4a3937ea11259697863fe2", "is_disabled": 0, "rental_uris": {"ios": "https://dc.lft.to/lastmile_qr_scan", "android": "https://dc.lft.to/lastmile_qr_scan"}, "is_reserved": 0}, {"lon": -76.98608983333334, "bike_id": "caf11458f708c33a3b935b8795605927", "lat": 38.906232333333335, "fusion_lon": 0.0, "fusion_lat": 0.0, "type": "electric_bike", "name": "caf11458f708c33a3b935b8795605927", "is_disabled": 0, "rental_uris": {"ios": "https://dc.lft.to/lastmile_qr_scan", "android": "https://dc.lft.to/lastmile_qr_scan"}, "is_reserved": 0}, {"lon": -77.03184316666666, "bike_id": "a90967e3f25ecd719fe179f05330f46b", "lat": 38.917406166666666, "fusion_lon": 0.0, "fusion_lat": 0.0, "type": "electric_scooter", "name": "a90967e3f25ecd719fe179f05330f46b", "is_disabled": 0, "rental_uris": {"ios": "https://dc.lft.to/lastmile_qr_scan", "android": "https://dc.lft.to/lastmile_qr_scan"}, "is_reserved": 0}, {"lon": -77.000673, "bike_id": "683eb65cef0789c81c5e3910b1f5cbd0", "lat": 38.8999635, "fusion_lon": 0.0, "fusion_lat": 0.0, "type": "electric_scooter", "name": "683eb65cef0789c81c5e3910b1f5cbd0", "is_disabled": 0, "rental_uris": {"ios": "https://dc.lft.to/lastmile_qr_scan", "android": "https://dc.lft.to/lastmile_qr_scan"}, "is_reserved": 0}, {"lon": -77.021605, "bike_id": "8e7a1691c80f5746e1e3341ac868741e", "lat": 38.92610216666667, "fusion_lon": 0.0, "fusion_lat": 0.0, "type": "electric_scooter", "name": "8e7a1691c80f5746e1e3341ac868741e", "is_disabled": 0, "rental_uris": {"ios": "https://dc.lft.to/lastmile_qr_scan", "android": "https://dc.lft.to/lastmile_qr_scan"}, "is_reserved": 0}, {"lon": -77.04379333333333, "bike_id": "aa4520a2416286d8245e099399d25a79", "lat": 38.91878633333334, "fusion_lon": 0.0, "fusion_lat": 0.0, "type": "electric_scooter", "name": "aa4520a2416286d8245e099399d25a79", "is_disabled": 0, "rental_uris": {"ios": "https://dc.lft.to/lastmile_qr_scan", "android": "https://dc.lft.to/lastmile_qr_scan"}, "is_reserved": 0}, {"lon": -77.034134, "bike_id": "d8936fadfd0a51b47bbb7fafaadd8058", "lat": 38.9024335, "fusion_lon": 0.0, "fusion_lat": 0.0, "type": "electric_scooter", "name": "d8936fadfd0a51b47bbb7fafaadd8058", "is_disabled": 0, "rental_uris": {"ios": "https://dc.lft.to/lastmile_qr_scan", "android": "https://dc.lft.to/lastmile_qr_scan"}, "is_reserved": 0}, {"lon": -77.01102, "bike_id": "1d32c324bf0a635402d01fd16e702f43", "lat": 38.903668833333334, "fusion_lon": 0.0, "fusion_lat": 0.0, "type": "electric_scooter", "name": "1d32c324bf0a635402d01fd16e702f43", "is_disabled": 0, "rental_uris": {"ios": "https://dc.lft.to/lastmile_qr_scan", "android": "https://dc.lft.to/lastmile_qr_scan"}, "is_reserved": 0}, {"lon": -77.0184705, "bike_id": "7d20b17a7588946a6a82c9a11f5ac37f", "lat": 38.912606833333335, "fusion_lon": 0.0, "fusion_lat": 0.0, "type": "electric_scooter", "name": "7d20b17a7588946a6a82c9a11f5ac37f", "is_disabled": 0, "rental_uris": {"ios": "https://dc.lft.to/lastmile_qr_scan", "android": "https://dc.lft.to/lastmile_qr_scan"}, "is_reserved": 0}, {"lon": -77.03439533333334, "bike_id": "f02d56592d9596885e958e3733e3487f", "lat": 38.909715, "fusion_lon": 0.0, "fusion_lat": 0.0, "type": "electric_scooter", "name": "f02d56592d9596885e958e3733e3487f", "is_disabled": 0, "rental_uris": {"ios": "https://dc.lft.to/lastmile_qr_scan", "android": "https://dc.lft.to/lastmile_qr_scan"}, "is_reserved": 0}, {"lon": -77.0004345, "bike_id": "1d4d4afec3af4b888464d037b4a7304a", "lat": 38.96791983333333, "fusion_lon": 0.0, "fusion_lat": 0.0, "type": "electric_bike", "name": "1d4d4afec3af4b888464d037b4a7304a", "is_disabled": 0, "rental_uris": {"ios": "https://dc.lft.to/lastmile_qr_scan", "android": "https://dc.lft.to/lastmile_qr_scan"}, "is_reserved": 0}, {"lon": -77.033431, "bike_id": "277ea5d064ed6f82da89d86392eae2e2", "lat": 38.897198333333336, "fusion_lon": 0.0, "fusion_lat": 0.0, "type": "electric_scooter", "name": "277ea5d064ed6f82da89d86392eae2e2", "is_disabled": 0, "rental_uris": {"ios": "https://dc.lft.to/lastmile_qr_scan", "android": "https://dc.lft.to/lastmile_qr_scan"}, "is_reserved": 0}, {"lon": -77.0344095, "bike_id": "19dd27b5518fbd1d893d25bdc1690b86", "lat": 38.9180445, "fusion_lon": 0.0, "fusion_lat": 0.0, "type": "electric_scooter", "name": "19dd27b5518fbd1d893d25bdc1690b86", "is_disabled": 0, "rental_uris": {"ios": "https://dc.lft.to/lastmile_qr_scan", "android": "https://dc.lft.to/lastmile_qr_scan"}, "is_reserved": 0}, {"lon": -77.03656583333333, "bike_id": "7ff24ad345e91e93f4bf7594e1622d0e", "lat": 38.92081733333333, "fusion_lon": 0.0, "fusion_lat": 0.0, "type": "electric_scooter", "name": "7ff24ad345e91e93f4bf7594e1622d0e", "is_disabled": 0, "rental_uris": {"ios": "https://dc.lft.to/lastmile_qr_scan", "android": "https://dc.lft.to/lastmile_qr_scan"}, "is_reserved": 0}, {"lon": -77.0320385, "bike_id": "729ab17f7602ab8dafd69efa8867d5fb", "lat": 38.94410116666667, "fusion_lon": 0.0, "fusion_lat": 0.0, "type": "electric_scooter", "name": "729ab17f7602ab8dafd69efa8867d5fb", "is_disabled": 0, "rental_uris": {"ios": "https://dc.lft.to/lastmile_qr_scan", "android": "https://dc.lft.to/lastmile_qr_scan"}, "is_reserved": 0}, {"lon": -77.03755716666667, "bike_id": "c833ba1e7c069f2494a41d4e43dc5d40", "lat": 38.929314166666664, "fusion_lon": 0.0, "fusion_lat": 0.0, "type": "electric_scooter", "name": "c833ba1e7c069f2494a41d4e43dc5d40", "is_disabled": 0, "rental_uris": {"ios": "https://dc.lft.to/lastmile_qr_scan", "android": "https://dc.lft.to/lastmile_qr_scan"}, "is_reserved": 0}, {"lon": -77.02445116666667, "bike_id": "a316a4cc0d672782390c98fe186b257a", "lat": 38.91414066666667, "fusion_lon": 0.0, "fusion_lat": 0.0, "type": "electric_scooter", "name": "a316a4cc0d672782390c98fe186b257a", "is_disabled": 0, "rental_uris": {"ios": "https://dc.lft.to/lastmile_qr_scan", "android": "https://dc.lft.to/lastmile_qr_scan"}, "is_reserved": 0}, {"lon": -77.02372933333334, "bike_id": "e32975b5cfce55408b9e3c00c0e4ff9d", "lat": 38.902142, "fusion_lon": 0.0, "fusion_lat": 0.0, "type": "electric_scooter", "name": "e32975b5cfce55408b9e3c00c0e4ff9d", "is_disabled": 0, "rental_uris": {"ios": "https://dc.lft.to/lastmile_qr_scan", "android": "https://dc.lft.to/lastmile_qr_scan"}, "is_reserved": 0}, {"lon": -77.0054555, "bike_id": "e4b992537ec8ac27d8e1616c17f4e4f9", "lat": 38.8745945, "fusion_lon": 0.0, "fusion_lat": 0.0, "type": "electric_scooter", "name": "e4b992537ec8ac27d8e1616c17f4e4f9", "is_disabled": 0, "rental_uris": {"ios": "https://dc.lft.to/lastmile_qr_scan", "android": "https://dc.lft.to/lastmile_qr_scan"}, "is_reserved": 0}, {"lon": -77.0541585, "bike_id": "b12730d15a6d772b3466ce8c4298238d", "lat": 38.90144866666667, "fusion_lon": 0.0, "fusion_lat": 0.0, "type": "electric_scooter", "name": "b12730d15a6d772b3466ce8c4298238d", "is_disabled": 0, "rental_uris": {"ios": "https://dc.lft.to/lastmile_qr_scan", "android": "https://dc.lft.to/lastmile_qr_scan"}, "is_reserved": 0}, {"lon": -77.03439716666666, "bike_id": "5d435849ad09997f9a2e4d15aa27a92b", "lat": 38.918004, "fusion_lon": 0.0, "fusion_lat": 0.0, "type": "electric_scooter", "name": "5d435849ad09997f9a2e4d15aa27a92b", "is_disabled": 0, "rental_uris": {"ios": "https://dc.lft.to/lastmile_qr_scan", "android": "https://dc.lft.to/lastmile_qr_scan"}, "is_reserved": 0}, {"lon": -77.00072516666667, "bike_id": "e3f607b5db85d88ef72287c29cde595c", "lat": 38.897287166666665, "fusion_lon": 0.0, "fusion_lat": 0.0, "type": "electric_scooter", "name": "e3f607b5db85d88ef72287c29cde595c", "is_disabled": 0, "rental_uris": {"ios": "https://dc.lft.to/lastmile_qr_scan", "android": "https://dc.lft.to/lastmile_qr_scan"}, "is_reserved": 0}, {"lon": -77.03901433333333, "bike_id": "49de2e2c2ad0f8f083130ff7c1892fb9", "lat": 38.91841766666667, "fusion_lon": 0.0, "fusion_lat": 0.0, "type": "electric_scooter", "name": "49de2e2c2ad0f8f083130ff7c1892fb9", "is_disabled": 0, "rental_uris": {"ios": "https://dc.lft.to/lastmile_qr_scan", "android": "https://dc.lft.to/lastmile_qr_scan"}, "is_reserved": 0}, {"lon": -77.03179866666666, "bike_id": "01c7aaf3552f271343a4ad7fea20f70a", "lat": 38.892202833333336, "fusion_lon": 0.0, "fusion_lat": 0.0, "type": "electric_scooter", "name": "01c7aaf3552f271343a4ad7fea20f70a", "is_disabled": 0, "rental_uris": {"ios": "https://dc.lft.to/lastmile_qr_scan", "android": "https://dc.lft.to/lastmile_qr_scan"}, "is_reserved": 0}, {"lon": -77.0123165, "bike_id": "6ecf0b1599a9bfbe3a673062e08985d4", "lat": 38.892951833333335, "fusion_lon": 0.0, "fusion_lat": 0.0, "type": "electric_scooter", "name": "6ecf0b1599a9bfbe3a673062e08985d4", "is_disabled": 0, "rental_uris": {"ios": "https://dc.lft.to/lastmile_qr_scan", "android": "https://dc.lft.to/lastmile_qr_scan"}, "is_reserved": 0}, {"lon": -77.016305, "bike_id": "21c0c10b7bd25e5221bccc7eaa0b3d4f", "lat": 38.9057, "fusion_lon": 0.0, "fusion_lat": 0.0, "type": "electric_scooter", "name": "21c0c10b7bd25e5221bccc7eaa0b3d4f", "is_disabled": 0, "rental_uris": {"ios": "https://dc.lft.to/lastmile_qr_scan", "android": "https://dc.lft.to/lastmile_qr_scan"}, "is_reserved": 0}, {"lon": -77.02698216666667, "bike_id": "389866d6c6452b41c72bd6070784c198", "lat": 38.917776, "fusion_lon": 0.0, "fusion_lat": 0.0, "type": "electric_scooter", "name": "389866d6c6452b41c72bd6070784c198", "is_disabled": 0, "rental_uris": {"ios": "https://dc.lft.to/lastmile_qr_scan", "android": "https://dc.lft.to/lastmile_qr_scan"}, "is_reserved": 0}, {"lon": -77.03556233333333, "bike_id": "612e9b0d5638a929df6a3a1a20b19836", "lat": 38.908451666666664, "fusion_lon": 0.0, "fusion_lat": 0.0, "type": "electric_scooter", "name": "612e9b0d5638a929df6a3a1a20b19836", "is_disabled": 0, "rental_uris": {"ios": "https://dc.lft.to/lastmile_qr_scan", "android": "https://dc.lft.to/lastmile_qr_scan"}, "is_reserved": 0}, {"lon": -76.98855566666667, "bike_id": "e9cf804017caf03562774dbc4d87582d", "lat": 38.900303666666666, "fusion_lon": 0.0, "fusion_lat": 0.0, "type": "electric_scooter", "name": "e9cf804017caf03562774dbc4d87582d", "is_disabled": 0, "rental_uris": {"ios": "https://dc.lft.to/lastmile_qr_scan", "android": "https://dc.lft.to/lastmile_qr_scan"}, "is_reserved": 0}, {"lon": -77.02213416666666, "bike_id": "10d6cd0522dc9557f40ad64dd2081c52", "lat": 38.8935335, "fusion_lon": 0.0, "fusion_lat": 0.0, "type": "electric_scooter", "name": "10d6cd0522dc9557f40ad64dd2081c52", "is_disabled": 0, "rental_uris": {"ios": "https://dc.lft.to/lastmile_qr_scan", "android": "https://dc.lft.to/lastmile_qr_scan"}, "is_reserved": 0}, {"lon": -77.00873666666666, "bike_id": "f7aa4c8a15854530bf436aa9d67e1ff0", "lat": 38.825332, "fusion_lon": 0.0, "fusion_lat": 0.0, "type": "electric_scooter", "name": "f7aa4c8a15854530bf436aa9d67e1ff0", "is_disabled": 0, "rental_uris": {"ios": "https://dc.lft.to/lastmile_qr_scan", "android": "https://dc.lft.to/lastmile_qr_scan"}, "is_reserved": 0}, {"lon": -76.97210833333334, "bike_id": "aaf24d7946f35a44ca22365c887b11d7", "lat": 38.892905999999996, "fusion_lon": 0.0, "fusion_lat": 0.0, "type": "electric_bike", "name": "aaf24d7946f35a44ca22365c887b11d7", "is_disabled": 0, "rental_uris": {"ios": "https://dc.lft.to/lastmile_qr_scan", "android": "https://dc.lft.to/lastmile_qr_scan"}, "is_reserved": 0}, {"lon": -77.05508516666667, "bike_id": "44a696221f015b99888728e1cae3b97b", "lat": 38.92984, "fusion_lon": 0.0, "fusion_lat": 0.0, "type": "electric_scooter", "name": "44a696221f015b99888728e1cae3b97b", "is_disabled": 0, "rental_uris": {"ios": "https://dc.lft.to/lastmile_qr_scan", "android": "https://dc.lft.to/lastmile_qr_scan"}, "is_reserved": 0}, {"lon": -77.00975183333334, "bike_id": "f0503ca8cad15c79009ac399b6244c52", "lat": 38.870736, "fusion_lon": 0.0, "fusion_lat": 0.0, "type": "electric_scooter", "name": "f0503ca8cad15c79009ac399b6244c52", "is_disabled": 0, "rental_uris": {"ios": "https://dc.lft.to/lastmile_qr_scan", "android": "https://dc.lft.to/lastmile_qr_scan"}, "is_reserved": 0}, {"lon": -76.99507133333333, "bike_id": "828951f3878a6b823d9c9024d71dc614", "lat": 38.86248766666667, "fusion_lon": 0.0, "fusion_lat": 0.0, "type": "electric_scooter", "name": "828951f3878a6b823d9c9024d71dc614", "is_disabled": 0, "rental_uris": {"ios": "https://dc.lft.to/lastmile_qr_scan", "android": "https://dc.lft.to/lastmile_qr_scan"}, "is_reserved": 0}, {"lon": -76.98842283333333, "bike_id": "5d97f8fab8fd1a44a1c433af7cba2c40", "lat": 38.896661333333334, "fusion_lon": 0.0, "fusion_lat": 0.0, "type": "electric_scooter", "name": "5d97f8fab8fd1a44a1c433af7cba2c40", "is_disabled": 0, "rental_uris": {"ios": "https://dc.lft.to/lastmile_qr_scan", "android": "https://dc.lft.to/lastmile_qr_scan"}, "is_reserved": 0}, {"lon": -77.05623916666667, "bike_id": "0a06401fa6cab5772c813eb4212dae77", "lat": 38.92337216666667, "fusion_lon": 0.0, "fusion_lat": 0.0, "type": "electric_scooter", "name": "0a06401fa6cab5772c813eb4212dae77", "is_disabled": 0, "rental_uris": {"ios": "https://dc.lft.to/lastmile_qr_scan", "android": "https://dc.lft.to/lastmile_qr_scan"}, "is_reserved": 0}, {"lon": -77.13921933333333, "bike_id": "ffc9e3d3ae3eb5f4b27df99d8e2e3c78", "lat": 38.8729945, "fusion_lon": 0.0, "fusion_lat": 0.0, "type": "electric_bike", "name": "ffc9e3d3ae3eb5f4b27df99d8e2e3c78", "is_disabled": 0, "rental_uris": {"ios": "https://dc.lft.to/lastmile_qr_scan", "android": "https://dc.lft.to/lastmile_qr_scan"}, "is_reserved": 0}, {"lon": -77.07763366666667, "bike_id": "ab5f03422a2a8e576f29462f739b9f17", "lat": 38.95767933333333, "fusion_lon": 0.0, "fusion_lat": 0.0, "type": "electric_scooter", "name": "ab5f03422a2a8e576f29462f739b9f17", "is_disabled": 0, "rental_uris": {"ios": "https://dc.lft.to/lastmile_qr_scan", "android": "https://dc.lft.to/lastmile_qr_scan"}, "is_reserved": 0}, {"lon": -77.04860366666666, "bike_id": "b4300c8cf9a428465519df33e86b9298", "lat": 38.90955316666667, "fusion_lon": 0.0, "fusion_lat": 0.0, "type": "electric_scooter", "name": "b4300c8cf9a428465519df33e86b9298", "is_disabled": 0, "rental_uris": {"ios": "https://dc.lft.to/lastmile_qr_scan", "android": "https://dc.lft.to/lastmile_qr_scan"}, "is_reserved": 0}, {"lon": -76.921062, "bike_id": "2cdbfa7940551ccb258903569237da86", "lat": 38.891064166666666, "fusion_lon": 0.0, "fusion_lat": 0.0, "type": "electric_scooter", "name": "2cdbfa7940551ccb258903569237da86", "is_disabled": 0, "rental_uris": {"ios": "https://dc.lft.to/lastmile_qr_scan", "android": "https://dc.lft.to/lastmile_qr_scan"}, "is_reserved": 0}, {"lon": -77.019301, "bike_id": "7e01735e18683f6381de8f61d31fa705", "lat": 38.92220533333333, "fusion_lon": 0.0, "fusion_lat": 0.0, "type": "electric_scooter", "name": "7e01735e18683f6381de8f61d31fa705", "is_disabled": 0, "rental_uris": {"ios": "https://dc.lft.to/lastmile_qr_scan", "android": "https://dc.lft.to/lastmile_qr_scan"}, "is_reserved": 0}, {"lon": -77.0211805, "bike_id": "b32c899dd88a2bb3ed059a01384cd010", "lat": 38.914183666666666, "fusion_lon": 0.0, "fusion_lat": 0.0, "type": "electric_scooter", "name": "b32c899dd88a2bb3ed059a01384cd010", "is_disabled": 0, "rental_uris": {"ios": "https://dc.lft.to/lastmile_qr_scan", "android": "https://dc.lft.to/lastmile_qr_scan"}, "is_reserved": 0}, {"lon": -77.0638415, "bike_id": "ca050285eb24380f84325fe07459a523", "lat": 38.908310666666665, "fusion_lon": 0.0, "fusion_lat": 0.0, "type": "electric_scooter", "name": "ca050285eb24380f84325fe07459a523", "is_disabled": 0, "rental_uris": {"ios": "https://dc.lft.to/lastmile_qr_scan", "android": "https://dc.lft.to/lastmile_qr_scan"}, "is_reserved": 0}, {"lon": -77.00349866666667, "bike_id": "ca086bf9135389fe7e7566e4a0c3ebc0", "lat": 38.88707816666667, "fusion_lon": 0.0, "fusion_lat": 0.0, "type": "electric_scooter", "name": "ca086bf9135389fe7e7566e4a0c3ebc0", "is_disabled": 0, "rental_uris": {"ios": "https://dc.lft.to/lastmile_qr_scan", "android": "https://dc.lft.to/lastmile_qr_scan"}, "is_reserved": 0}, {"lon": -77.0507055, "bike_id": "5af760380a1e346a018b21236498d222", "lat": 38.900626333333335, "fusion_lon": 0.0, "fusion_lat": 0.0, "type": "electric_scooter", "name": "5af760380a1e346a018b21236498d222", "is_disabled": 0, "rental_uris": {"ios": "https://dc.lft.to/lastmile_qr_scan", "android": "https://dc.lft.to/lastmile_qr_scan"}, "is_reserved": 0}, {"lon": -77.1310205, "bike_id": "31fd9a245fc6f22ef528ec2245f4b29f", "lat": 39.024339833333336, "fusion_lon": 0.0, "fusion_lat": 0.0, "type": "electric_bike", "name": "31fd9a245fc6f22ef528ec2245f4b29f", "is_disabled": 0, "rental_uris": {"ios": "https://dc.lft.to/lastmile_qr_scan", "android": "https://dc.lft.to/lastmile_qr_scan"}, "is_reserved": 0}, {"lon": -77.00371516666667, "bike_id": "30d929b9c80f12666d7b080036c55f0b", "lat": 38.897321, "fusion_lon": 0.0, "fusion_lat": 0.0, "type": "electric_scooter", "name": "30d929b9c80f12666d7b080036c55f0b", "is_disabled": 0, "rental_uris": {"ios": "https://dc.lft.to/lastmile_qr_scan", "android": "https://dc.lft.to/lastmile_qr_scan"}, "is_reserved": 0}, {"lon": -77.026211, "bike_id": "975166106a9a4de43fe29de48d7ee21f", "lat": 38.9171125, "fusion_lon": 0.0, "fusion_lat": 0.0, "type": "electric_scooter", "name": "975166106a9a4de43fe29de48d7ee21f", "is_disabled": 0, "rental_uris": {"ios": "https://dc.lft.to/lastmile_qr_scan", "android": "https://dc.lft.to/lastmile_qr_scan"}, "is_reserved": 0}, {"lon": -76.9801945, "bike_id": "08cdebb72024081f5cfea867f9d8512e", "lat": 38.903336333333336, "fusion_lon": 0.0, "fusion_lat": 0.0, "type": "electric_scooter", "name": "08cdebb72024081f5cfea867f9d8512e", "is_disabled": 0, "rental_uris": {"ios": "https://dc.lft.to/lastmile_qr_scan", "android": "https://dc.lft.to/lastmile_qr_scan"}, "is_reserved": 0}, {"lon": -77.02834816666666, "bike_id": "5798b5f92fed411c987b5273a01b280a", "lat": 38.93273716666667, "fusion_lon": 0.0, "fusion_lat": 0.0, "type": "electric_scooter", "name": "5798b5f92fed411c987b5273a01b280a", "is_disabled": 0, "rental_uris": {"ios": "https://dc.lft.to/lastmile_qr_scan", "android": "https://dc.lft.to/lastmile_qr_scan"}, "is_reserved": 0}, {"lon": -77.04319316666667, "bike_id": "7d7c68956f8e57f2b7a441cea6c24a93", "lat": 38.918763, "fusion_lon": 0.0, "fusion_lat": 0.0, "type": "electric_scooter", "name": "7d7c68956f8e57f2b7a441cea6c24a93", "is_disabled": 0, "rental_uris": {"ios": "https://dc.lft.to/lastmile_qr_scan", "android": "https://dc.lft.to/lastmile_qr_scan"}, "is_reserved": 0}, {"lon": -77.00340866666667, "bike_id": "d7fd25b9ac6f8559c56185764c340d4f", "lat": 38.90602116666667, "fusion_lon": 0.0, "fusion_lat": 0.0, "type": "electric_scooter", "name": "d7fd25b9ac6f8559c56185764c340d4f", "is_disabled": 0, "rental_uris": {"ios": "https://dc.lft.to/lastmile_qr_scan", "android": "https://dc.lft.to/lastmile_qr_scan"}, "is_reserved": 0}, {"lon": -77.06421216666666, "bike_id": "927b4ef95961bcbe35b451d1b8147a65", "lat": 38.90881266666667, "fusion_lon": 0.0, "fusion_lat": 0.0, "type": "electric_scooter", "name": "927b4ef95961bcbe35b451d1b8147a65", "is_disabled": 0, "rental_uris": {"ios": "https://dc.lft.to/lastmile_qr_scan", "android": "https://dc.lft.to/lastmile_qr_scan"}, "is_reserved": 0}, {"lon": -76.9985495, "bike_id": "5fc9e53bed907aba9018e857f07841f5", "lat": 38.841622, "fusion_lon": 0.0, "fusion_lat": 0.0, "type": "electric_scooter", "name": "5fc9e53bed907aba9018e857f07841f5", "is_disabled": 0, "rental_uris": {"ios": "https://dc.lft.to/lastmile_qr_scan", "android": "https://dc.lft.to/lastmile_qr_scan"}, "is_reserved": 0}, {"lon": -77.03425933333334, "bike_id": "14972ac4011d85c567812e6d2e6ba18d", "lat": 38.92751283333333, "fusion_lon": 0.0, "fusion_lat": 0.0, "type": "electric_scooter", "name": "14972ac4011d85c567812e6d2e6ba18d", "is_disabled": 0, "rental_uris": {"ios": "https://dc.lft.to/lastmile_qr_scan", "android": "https://dc.lft.to/lastmile_qr_scan"}, "is_reserved": 0}, {"lon": -76.96581433333333, "bike_id": "f0a01c46773637a6be9328f151ec4f87", "lat": 38.871354833333335, "fusion_lon": 0.0, "fusion_lat": 0.0, "type": "electric_scooter", "name": "f0a01c46773637a6be9328f151ec4f87", "is_disabled": 0, "rental_uris": {"ios": "https://dc.lft.to/lastmile_qr_scan", "android": "https://dc.lft.to/lastmile_qr_scan"}, "is_reserved": 0},