{"data": {"bikes": [{"lon": -77.03196033333333, "fusion_lat": 0.0, "type": "electric_scooter", "lat": 38.89405816666667, "is_disabled": 0, "name": "34241f737f4f8e47f61d1df7fa8fb351", "is_reserved": 0, "bike_id": "34241f737f4f8e47f61d1df7fa8fb351", "fusion_lon": 0.0, "rental_uris": {"ios": "https://dc.lft.to/lastmile_qr_scan", "android": "https://dc.lft.to/lastmile_qr_scan"}}, {"lon": -77.027072, "fusion_lat": 0.0, "type": "electric_scooter", "lat": 38.900742, "is_disabled": 0, "name": "767817360ba11f40f49e53a5b692f89f", "is_reserved": 0, "bike_id": "767817360ba11f40f49e53a5b692f89f", "fusion_lon": 0.0, "rental_uris": {"ios": "https://dc.lft.to/lastmile_qr_scan", "android": "https://dc.lft.to/lastmile_qr_scan"}}, {"lon": -77.03969783333334, "fusion_lat": 0.0, "type": "electric_scooter", "lat": 38.90126883333333, "is_disabled": 0, "name": "00830147c63617f279d53b29f4525276", "is_reserved": 0, "bike_id": "00830147c63617f279d53b29f4525276", "fusion_lon": 0.0, "rental_uris": {"ios": "https://dc.lft.to/lastmile_qr_scan", "android": "https://dc.lft.to/lastmile_qr_scan"}}, {"lon": -77.03429666666666, "fusion_lat": 0.0, "type": "electric_bike", "lat": 38.96620383333333, "is_disabled": 0, "name": "6caa32d03a5ea93ff5d80479d32874e5", "is_reserved": 0, "bike_id": "6caa32d03a5ea93ff5d80479d32874e5", "fusion_lon": 0.0, "rental_uris": {"ios": "https://dc.lft.to/lastmile_qr_scan", "android": "https://dc.lft.to/lastmile_qr_scan"}}, {"lon": -77.0419605, "fusion_lat": 0.0, "type": "electric_scooter", "lat": 38.905651, "is_disabled": 0, "name": "c12ab5121a84b000631b8aca5d4b947d", "is_reserved": 0, "bike_id": "c12ab5121a84b000631b8aca5d4b947d", "fusion_lon": 0.0, "rental_uris": {"ios": "https://dc.lft.to/lastmile_qr_scan", "android": "https://dc.lft.to/lastmile_qr_scan"}}, {"lon": -77.050512, "fusion_lat": 0.0, "type": "electric_scooter", "lat": 38.903622666666664, "is_disabled": 0, "name": "646393bc4078f649320b07dc1099dbd2", "is_reserved": 0, "bike_id": "646393bc4078f649320b07dc1099dbd2", "fusion_lon": 0.0, "rental_uris": {"ios": "https://dc.lft.to/lastmile_qr_scan", "android": "https://dc.lft.to/lastmile_qr_scan"}}, {"lon": -77.02401283333333, "fusion_lat": 0.0, "type": "electric_scooter", "lat": 38.916035666666666, "is_disabled": 0, "name": "4fcce7e35169835b91d13889cd3a08db", "is_reserved": 0, "bike_id": "4fcce7e35169835b91d13889cd3a08db", "fusion_lon": 0.0, "rental_uris": {"ios": "https://dc.lft.to/lastmile_qr_scan", "android": "https://dc.lft.to/lastmile_qr_scan"}}, {"lon": -77.04869566666666, "fusion_lat": 0.0, "type": "electric_scooter", "lat": 38.90475516666667, "is_disabled": 0, "name": "1f5663681e8b179fa90774d6a9c2e536", "is_reserved": 0, "bike_id": "1f5663681e8b179fa90774d6a9c2e536", "fusion_lon": 0.0, "rental_uris": {"ios": "https://dc.lft.to/lastmile_qr_scan", "android": "https://dc.lft.to/lastmile_qr_scan"}}, {"lon": -77.019426, "fusion_lat": 0.0, "type": "electric_scooter", "lat": 38.9244015, "is_disabled": 0, "name": "79bdc8d86e67b79f8b28f8d44b8fa4c2", "is_reserved": 0, "bike_id": "79bdc8d86e67b79f8b28f8d44b8fa4c2", "fusion_lon": 0.0, "rental_uris": {"ios": "https://dc.lft.to/lastmile_qr_scan", "android": "https://dc.lft.to/lastmile_qr_scan"}}, {"lon": -77.02342816666666, "fusion_lat": 0.0, "type": "electric_scooter", "lat": 38.949681166666664, "is_disabled": 0, "name": "b16c3e962eeb8c7120be6ee04f00f684", "is_reserved": 0, "bike_id": "b16c3e962eeb8c7120be6ee04f00f684", "fusion_lon": 0.0, "rental_uris": {"ios": "https://dc.lft.to/lastmile_qr_scan", "android": "https://dc.lft.to/lastmile_qr_scan"}}, {"lon": -77.02019483333333, "fusion_lat": 0.0, "type": "electric_scooter", "lat": 38.924414666666664, "is_disabled": 0, "name": "d91543a1d6049e8950e51c6fedea4b95", "is_reserved": 0, "bike_id": "d91543a1d6049e8950e51c6fedea4b95", "fusion_lon": 0.0, "rental_uris": {"ios": "https://dc.lft.to/lastmile_qr_scan", "android": "https://dc.lft.to/lastmile_qr_scan"}}, {"lon": -77.02593783333333, "fusion_lat": 0.0, "type": "electric_scooter", "lat": 38.917178166666666, "is_disabled": 0, "name": "cb10b91af3f5f60e3d1a1b474201c15c", "is_reserved": 0, "bike_id": "cb10b91af3f5f60e3d1a1b474201c15c", "fusion_lon": 0.0, "rental_uris": {"ios": "https://dc.lft.to/lastmile_qr_scan", "android": "https://dc.lft.to/lastmile_qr_scan"}}, {"lon": -76.94888383333333, "fusion_lat": 0.0, "type": "electric_bike", "lat": 38.84223883333333, "is_disabled": 0, "name": "47d1dc917357546fc38450f2bb243630", "is_reserved": 0, "bike_id": "47d1dc917357546fc38450f2bb243630", "fusion_lon": 0.0, "rental_uris": {"ios": "https://dc.lft.to/lastmile_qr_scan", "android": "https://dc.lft.to/lastmile_qr_scan"}}, {"lon": -77.01967683333334, "fusion_lat": 0.0, "type": "electric_scooter", "lat": 38.91569033333333, "is_disabled": 0, "name": "08fe09aab33736626e90694a07dc2075", "is_reserved": 0, "bike_id": "08fe09aab33736626e90694a07dc2075", "fusion_lon": 0.0, "rental_uris": {"ios": "https://dc.lft.to/lastmile_qr_scan", "android": "https://dc.lft.to/lastmile_qr_scan"}}, {"lon": -77.04593383333334, "fusion_lat": 0.0, "type": "electric_scooter", "lat": 38.897369166666664, "is_disabled": 0, "name": "f4a891ff01b3913086db73de4b9c27a5", "is_reserved": 0, "bike_id": "f4a891ff01b3913086db73de4b9c27a5", "fusion_lon": 0.0, "rental_uris": {"ios": "https://dc.lft.to/lastmile_qr_scan", "android": "https://dc.lft.to/lastmile_qr_scan"}}, {"lon": -77.0436205, "fusion_lat": 0.0, "type": "electric_scooter", "lat": 38.91962866666667, "is_disabled": 0, "name": "05a5d6dabf312e2f1d201f46efc8d804", "is_reserved": 0, "bike_id": "05a5d6dabf312e2f1d201f46efc8d804", "fusion_lon": 0.0, "rental_uris": {"ios": "https://dc.lft.to/lastmile_qr_scan", "android": "https://dc.lft.to/lastmile_qr_scan"}}, {"lon": -77.02116333333333, "fusion_lat": 0.0, "type": "electric_scooter", "lat": 38.917520833333334, "is_disabled": 0, "name": "c750331440fed8f8ff44b694d450b67c", "is_reserved": 0, "bike_id": "c750331440fed8f8ff44b694d450b67c", "fusion_lon": 0.0, "rental_uris": {"ios": "https://dc.lft.to/lastmile_qr_scan", "android": "https://dc.lft.to/lastmile_qr_scan"}}, {"lon": -77.01685716666667, "fusion_lat": 0.0, "type": "electric_scooter", "lat": 38.902526333333334, "is_disabled": 0, "name": "6ca0a4713c0bddd8b51173623773ac2f", "is_reserved": 0, "bike_id": "6ca0a4713c0bddd8b51173623773ac2f", "fusion_lon": 0.0, "rental_uris": {"ios": "https://dc.lft.to/lastmile_qr_scan", "android": "https://dc.lft.to/lastmile_qr_scan"}}, {"lon": -77.04561566666666, "fusion_lat": 0.0, "type": "electric_scooter", "lat": 38.8987265, "is_disabled": 0, "name": "c8bee71e8e840894dcbd68ea2b206c30", "is_reserved": 0, "bike_id": "c8bee71e8e840894dcbd68ea2b206c30", "fusion_lon": 0.0, "rental_uris": {"ios": "https://dc.lft.to/lastmile_qr_scan", "android": "https://dc.lft.to/lastmile_qr_scan"}}, {"lon": -77.00588183333333, "fusion_lat": 0.0, "type": "electric_bike", "lat": 38.9262055, "is_disabled": 0, "name": "70e6a9032397131f0cb154ea4fb31384", "is_reserved": 0, "bike_id": "70e6a9032397131f0cb154ea4fb31384", "fusion_lon": 0.0, "rental_uris": {"ios": "https://dc.lft.to/lastmile_qr_scan", "android": "https://dc.lft.to/lastmile_qr_scan"}}, {"lon": -77.00592816666666, "fusion_lat": 0.0, "type": "electric_scooter", "lat": 38.87561566666667, "is_disabled": 0, "name": "730b04ef825ec9725b287b08cdc31359", "is_reserved": 0, "bike_id": "730b04ef825ec9725b287b08cdc31359", "fusion_lon": 0.0, "rental_uris": {"ios": "https://dc.lft.to/lastmile_qr_scan", "android": "https://dc.lft.to/lastmile_qr_scan"}}, {"lon": -77.06912483333333, "fusion_lat": 0.0, "type": "electric_scooter", "lat": 38.9123245, "is_disabled": 0, "name": "690cfff1fb96728cd068f23050d42061", "is_reserved": 0, "bike_id": "690cfff1fb96728cd068f23050d42061", "fusion_lon": 0.0, "rental_uris": {"ios": "https://dc.lft.to/lastmile_qr_scan", "android": "https://dc.lft.to/lastmile_qr_scan"}}, {"lon": -77.0430365, "fusion_lat": 0.0, "type": "electric_scooter", "lat": 38.9014435, "is_disabled": 0, "name": "4ee9c6e2f45347b0abb118f86bf8a987", "is_reserved": 0, "bike_id": "4ee9c6e2f45347b0abb118f86bf8a987", "fusion_lon": 0.0, "rental_uris": {"ios": "https://dc.lft.to/lastmile_qr_scan", "android": "https://dc.lft.to/lastmile_qr_scan"}}, {"lon": -77.04855233333333, "fusion_lat": 0.0, "type": "electric_scooter", "lat": 38.8995495, "is_disabled": 0, "name": "6e12bff9e566177d89815b3c25feec41", "is_reserved": 0, "bike_id": "6e12bff9e566177d89815b3c25feec41", "fusion_lon": 0.0, "rental_uris": {"ios": "https://dc.lft.to/lastmile_qr_scan", "android": "https://dc.lft.to/lastmile_qr_scan"}}, {"lon": -77.02007466666667, "fusion_lat": 0.0, "type": "electric_scooter", "lat": 38.90402916666667, "is_disabled": 0, "name": "639753b0ff26f538d693e50118922f23", "is_reserved": 0, "bike_id": "639753b0ff26f538d693e50118922f23", "fusion_lon": 0.0, "rental_uris": {"ios": "https://dc.lft.to/lastmile_qr_scan", "android": "https://dc.lft.to/lastmile_qr_scan"}}, {"lon": -77.031915, "fusion_lat": 0.0, "type": "electric_scooter", "lat": 38.91574, "is_disabled": 0, "name": "4aefc60d947caa4e5b900a2749594478", "is_reserved": 0, "bike_id": "4aefc60d947caa4e5b900a2749594478", "fusion_lon": 0.0, "rental_uris": {"ios": "https://dc.lft.to/lastmile_qr_scan", "android": "https://dc.lft.to/lastmile_qr_scan"}}, {"lon": -77.040886, "fusion_lat": 0.0, "type": "electric_scooter", "lat": 38.910621, "is_disabled": 0, "name": "9c8012a17642bcf00d31da31133ec5f7", "is_reserved": 0, "bike_id": "9c8012a17642bcf00d31da31133ec5f7", "fusion_lon": 0.0, "rental_uris": {"ios": "https://dc.lft.to/lastmile_qr_scan", "android": "https://dc.lft.to/lastmile_qr_scan"}}, {"lon": -77.02472083333333, "fusion_lat": 0.0, "type": "electric_scooter", "lat": 38.91660916666667, "is_disabled": 0, "name": "863f0976639d8e7daedac643d2dfbdc4", "is_reserved": 0, "bike_id": "863f0976639d8e7daedac643d2dfbdc4", "fusion_lon": 0.0, "rental_uris": {"ios": "https://dc.lft.to/lastmile_qr_scan", "android": "https://dc.lft.to/lastmile_qr_scan"}}, {"lon": -77.0526635, "fusion_lat": 0.0, "type": "electric_scooter", "lat": 38.92760716666667, "is_disabled": 0, "name": "6217bd246be32536d5c0274e8120ab99", "is_reserved": 0, "bike_id": "6217bd246be32536d5c0274e8120ab99", "fusion_lon": 0.0, "rental_uris": {"ios": "https://dc.lft.to/lastmile_qr_scan", "android": "https://dc.lft.to/lastmile_qr_scan"}}, {"lon": -77.00253816666667, "fusion_lat": 0.0, "type": "electric_scooter", "lat": 38.876417333333336, "is_disabled": 0, "name": "336ed50e042bed8936a5ea80f064ffb1", "is_reserved": 0, "bike_id": "336ed50e042bed8936a5ea80f064ffb1", "fusion_lon": 0.0, "rental_uris": {"ios": "https://dc.lft.to/lastmile_qr_scan", "android": "https://dc.lft.to/lastmile_qr_scan"}}, {"lon": -77.02181383333334, "fusion_lat": 0.0, "type": "electric_scooter", "lat": 38.915290166666665, "is_disabled": 0, "name": "f89b95208f813d0e7df64fb894220d6b", "is_reserved": 0, "bike_id": "f89b95208f813d0e7df64fb894220d6b", "fusion_lon": 0.0, "rental_uris": {"ios": "https://dc.lft.to/lastmile_qr_scan", "android": "https://dc.lft.to/lastmile_qr_scan"}}, {"lon": -77.05038016666667, "fusion_lat": 0.0, "type": "electric_scooter", "lat": 38.90044016666667, "is_disabled": 0, "name": "92c19cea01a81754f87c6895f91fa9fb", "is_reserved": 0, "bike_id": "92c19cea01a81754f87c6895f91fa9fb", "fusion_lon": 0.0, "rental_uris": {"ios": "https://dc.lft.to/lastmile_qr_scan", "android": "https://dc.lft.to/lastmile_qr_scan"}}, {"lon": -77.0334305, "fusion_lat": 0.0, "type": "electric_scooter", "lat": 38.909789333333336, "is_disabled": 0, "name": "8f194ee5a0625606ae2525319e262a36", "is_reserved": 0, "bike_id": "8f194ee5a0625606ae2525319e262a36", "fusion_lon": 0.0, "rental_uris": {"ios": "https://dc.lft.to/lastmile_qr_scan", "android": "https://dc.lft.to/lastmile_qr_scan"}}, {"lon": -77.0146265, "fusion_lat": 0.0, "type": "electric_scooter", "lat": 38.92662466666667, "is_disabled": 0, "name": "7e4253112e844a6fef46f65fc6a7055f", "is_reserved": 0, "bike_id": "7e4253112e844a6fef46f65fc6a7055f", "fusion_lon": 0.0, "rental_uris": {"ios": "https://dc.lft.to/lastmile_qr_scan", "android": "https://dc.lft.to/lastmile_qr_scan"}}, {"lon": -76.98347116666666, "fusion_lat": 0.0, "type": "electric_bike", "lat": 38.93511316666667, "is_disabled": 0, "name": "a5be6965f06b3e74f8c21ecd1fc337f8", "is_reserved": 0, "bike_id": "a5be6965f06b3e74f8c21ecd1fc337f8", "fusion_lon": 0.0, "rental_uris": {"ios": "https://dc.lft.to/lastmile_qr_scan", "android": "https://dc.lft.to/lastmile_qr_scan"}}, {"lon": -77.03462866666666, "fusion_lat": 0.0, "type": "electric_scooter", "lat": 38.905584833333336, "is_disabled": 0, "name": "00872c75a610ed3777bf78f77c35172b", "is_reserved": 0, "bike_id": "00872c75a610ed3777bf78f77c35172b", "fusion_lon": 0.0, "rental_uris": {"ios": "https://dc.lft.to/lastmile_qr_scan", "android": "https://dc.lft.to/lastmile_qr_scan"}}, {"lon": -77.03694583333333, "fusion_lat": 0.0, "type": "electric_scooter", "lat": 38.9012, "is_disabled": 0, "name": "c8d13f5fe6d2b067b686fdbbe95f8576", "is_reserved": 0, "bike_id": "c8d13f5fe6d2b067b686fdbbe95f8576", "fusion_lon": 0.0, "rental_uris": {"ios": "https://dc.lft.to/lastmile_qr_scan", "android": "https://dc.lft.to/lastmile_qr_scan"}}, {"lon": -77.08406283333333, "fusion_lat": 0.0, "type": "electric_bike", "lat": 38.832963166666666, "is_disabled": 0, "name": "8041aa3c36e02e9595acbc7ab2044c1f", "is_reserved": 0, "bike_id": "8041aa3c36e02e9595acbc7ab2044c1f", "fusion_lon": 0.0, "rental_uris": {"ios": "https://dc.lft.to/lastmile_qr_scan", "android": "https://dc.lft.to/lastmile_qr_scan"}}, {"lon": -77.0348225, "fusion_lat": 0.0, "type": "electric_scooter", "lat": 38.91923883333333, "is_disabled": 0, "name": "f522b6c57a5c04cd3901bfb76e9e012c", "is_reserved": 0, "bike_id": "f522b6c57a5c04cd3901bfb76e9e012c", "fusion_lon": 0.0, "rental_uris": {"ios": "https://dc.lft.to/lastmile_qr_scan", "android": "https://dc.lft.to/lastmile_qr_scan"}}, {"lon": -77.00539983333333, "fusion_lat": 0.0, "type": "electric_scooter", "lat": 38.8851455, "is_disabled": 0, "name": "4dd4b3917bfee93a6fc526345411b315", "is_reserved": 0, "bike_id": "4dd4b3917bfee93a6fc526345411b315", "fusion_lon": 0.0, "rental_uris": {"ios": "https://dc.lft.to/lastmile_qr_scan", "android": "https://dc.lft.to/lastmile_qr_scan"}}, {"lon": -77.02455233333333, "fusion_lat": 0.0, "type": "electric_scooter", "lat": 38.899137, "is_disabled": 0, "name": "faeb28ba368348341bfe6ffb6856f4b2", "is_reserved": 0, "bike_id": "faeb28ba368348341bfe6ffb6856f4b2", "fusion_lon": 0.0, "rental_uris": {"ios": "https://dc.lft.to/lastmile_qr_scan", "android": "https://dc.lft.to/lastmile_qr_scan"}}, {"lon": -77.00577316666667, "fusion_lat": 0.0, "type": "electric_scooter", "lat": 38.875723666666666, "is_disabled": 0, "name": "6a6c15546c7e5c41fddb9c1da0a45cb7", "is_reserved": 0, "bike_id": "6a6c15546c7e5c41fddb9c1da0a45cb7", "fusion_lon": 0.0, "rental_uris": {"ios": "https://dc.lft.to/lastmile_qr_scan", "android": "https://dc.lft.to/lastmile_qr_scan"}}, {"lon": -77.012278, "fusion_lat": 0.0, "type": "electric_scooter", "lat": 38.91580316666666, "is_disabled": 0, "name": "00e4d631213453af35db66b8b5a6884e", "is_reserved": 0, "bike_id": "00e4d631213453af35db66b8b5a6884e", "fusion_lon": 0.0, "rental_uris": {"ios": "https://dc.lft.to/lastmile_qr_scan", "android": "https://dc.lft.to/lastmile_qr_scan"}}, {"lon": -77.01846333333333, "fusion_lat": 0.0, "type": "electric_scooter", "lat": 38.877113666666666, "is_disabled": 0, "name": "26835c83e142326d51dcc9d0a481b244", "is_reserved": 0, "bike_id": "26835c83e142326d51dcc9d0a481b244", "fusion_lon": 0.0, "rental_uris": {"ios": "https://dc.lft.to/lastmile_qr_scan", "android": "https://dc.lft.to/lastmile_qr_scan"}}, {"lon": -76.9576515, "fusion_lat": 0.0, "type": "electric_scooter", "lat": 38.884405666666666, "is_disabled": 0, "name": "652ea3dfa148d9eaa66cdead623d6d40", "is_reserved": 0, "bike_id": "652ea3dfa148d9eaa66cdead623d6d40", "fusion_lon": 0.0, "rental_uris": {"ios": "https://dc.lft.to/lastmile_qr_scan", "android": "https://dc.lft.to/lastmile_qr_scan"}}, {"lon": -77.03792616666667, "fusion_lat": 0.0, "type": "electric_scooter", "lat": 38.906906, "is_disabled": 0, "name": "5d67b4fcd56f7bc462c8586eb54f790a", "is_reserved": 0, "bike_id": "5d67b4fcd56f7bc462c8586eb54f790a", "fusion_lon": 0.0, "rental_uris": {"ios": "https://dc.lft.to/lastmile_qr_scan", "android": "https://dc.lft.to/lastmile_qr_scan"}}, {"lon": -77.02115233333333, "fusion_lat": 0.0, "type": "electric_scooter", "lat": 38.899601833333335, "is_disabled": 0, "name": "e86d9b60cab2db69d3a974a5b92bf8a2", "is_reserved": 0, "bike_id": "e86d9b60cab2db69d3a974a5b92bf8a2", "fusion_lon": 0.0, "rental_uris": {"ios": "https://dc.lft.to/lastmile_qr_scan", "android": "https://dc.lft.to/lastmile_qr_scan"}}, {"lon": -77.03169316666667, "fusion_lat": 0.0, "type": "electric_scooter", "lat": 38.914128833333336, "is_disabled": 0, "name": "eb1b6861365f66cb48c0c2ff0e61a02b", "is_reserved": 0, "bike_id": "eb1b6861365f66cb48c0c2ff0e61a02b", "fusion_lon": 0.0, "rental_uris": {"ios": "https://dc.lft.to/lastmile_qr_scan", "android": "https://dc.lft.to/lastmile_qr_scan"}}, {"lon": -77.01947833333334, "fusion_lat": 0.0, "type": "electric_scooter", "lat": 38.923240166666666, "is_disabled": 0, "name": "cbb44f59f12705e561275a85cf4d315d", "is_reserved": 0, "bike_id": "cbb44f59f12705e561275a85cf4d315d", "fusion_lon": 0.0, "rental_uris": {"ios": "https://dc.lft.to/lastmile_qr_scan", "android": "https://dc.lft.to/lastmile_qr_scan"}}, {"lon": -77.08319066666667, "fusion_lat": 0.0, "type": "electric_bike", "lat": 38.85434816666667, "is_disabled": 0, "name": "39d85170318458b05ef03742b405a33b", "is_reserved": 0, "bike_id": "39d85170318458b05ef03742b405a33b", "fusion_lon": 0.0, "rental_uris": {"ios": "https://dc.lft.to/lastmile_qr_scan", "android": "https://dc.lft.to/lastmile_qr_scan"}}, {"lon": -77.0298105, "fusion_lat": 0.0, "type": "electric_scooter", "lat": 38.9507685, "is_disabled": 0, "name": "06c9b5117feef5b8a8ce0d581f468af3", "is_reserved": 0, "bike_id": "06c9b5117feef5b8a8ce0d581f468af3", "fusion_lon": 0.0, "rental_uris": {"ios": "https://dc.lft.to/lastmile_qr_scan", "android": "https://dc.lft.to/lastmile_qr_scan"}}, {"lon": -77.00589166666667, "fusion_lat": 0.0, "type": "electric_scooter", "lat": 38.9063915, "is_disabled": 0, "name": "d8f1d5046165fc2ff712d228997a9fff", "is_reserved": 0, "bike_id": "d8f1d5046165fc2ff712d228997a9fff", "fusion_lon": 0.0, "rental_uris": {"ios": "https://dc.lft.to/lastmile_qr_scan", "android": "https://dc.lft.to/lastmile_qr_scan"}}, {"lon": -77.02157533333333, "fusion_lat": 0.0, "type": "electric_scooter", "lat": 38.92611566666667, "is_disabled": 0, "name": "9c4e5185c139ae9793451f48254346e8", "is_reserved": 0, "bike_id": "9c4e5185c139ae9793451f48254346e8", "fusion_lon": 0.0, "rental_uris": {"ios": "https://dc.lft.to/lastmile_qr_scan", "android": "https://dc.lft.to/lastmile_qr_scan"}}, {"lon": -76.90856633333334, "fusion_lat": 0.0, "type": "electric_bike", "lat": 38.99888083333333, "is_disabled": 0, "name": "b1f62d38e3bfe4a36261955a9ac9084b", "is_reserved": 0, "bike_id": "b1f62d38e3bfe4a36261955a9ac9084b", "fusion_lon": 0.0, "rental_uris": {"ios": "https://dc.lft.to/lastmile_qr_scan", "android": "https://dc.lft.to/lastmile_qr_scan"}}, {"lon": -77.020148, "fusion_lat": 0.0, "type": "electric_scooter", "lat": 38.92451616666666, "is_disabled": 0, "name": "553827106c746390c4372d1342ca9acc", "is_reserved": 0, "bike_id": "553827106c746390c4372d1342ca9acc", "fusion_lon": 0.0, "rental_uris": {"ios": "https://dc.lft.to/lastmile_qr_scan", "android": "https://dc.lft.to/lastmile_qr_scan"}}, {"lon": -77.00205883333334, "fusion_lat": 0.0, "type": "electric_scooter", "lat": 38.9051805, "is_disabled": 0, "name": "77d27f7a714f0c2d1f973da51ad19d0e", "is_reserved": 0, "bike_id": "77d27f7a714f0c2d1f973da51ad19d0e", "fusion_lon": 0.0, "rental_uris": {"ios": "https://dc.lft.to/lastmile_qr_scan", "android": "https://dc.lft.to/lastmile_qr_scan"}}, {"lon": -76.99119816666666, "fusion_lat": 0.0, "type": "electric_scooter", "lat": 38.8970905, "is_disabled": 0, "name": "ccc27c92b4bd4ed8c4dafbc1ade903f7", "is_reserved": 0, "bike_id": "ccc27c92b4bd4ed8c4dafbc1ade903f7", "fusion_lon": 0.0, "rental_uris": {"ios": "https://dc.lft.to/lastmile_qr_scan", "android": "https://dc.lft.to/lastmile_qr_scan"}}, {"lon": -76.9759345, "fusion_lat": 0.0, "type": "electric_scooter", "lat": 38.903347333333336, "is_disabled": 0, "name": "3f8723a49c3cb9c39faa4d4c9671182e", "is_reserved": 0, "bike_id": "3f8723a49c3cb9c39faa4d4c9671182e", "fusion_lon": 0.0, "rental_uris": {"ios": "https://dc.lft.to/lastmile_qr_scan", "android": "https://dc.lft.to/lastmile_qr_scan"}}, {"lon": -77.004267, "fusion_lat": 0.0, "type": "electric_scooter", "lat": 38.90395483333333, "is_disabled": 0, "name": "bdb2159691f2b4b911ef80627380c96c", "is_reserved": 0, "bike_id": "bdb2159691f2b4b911ef80627380c96c", "fusion_lon": 0.0, "rental_uris": {"ios": "https://dc.lft.to/lastmile_qr_scan", "android": "https://dc.lft.to/lastmile_qr_scan"}}, {"lon": -76.99549016666667, "fusion_lat": 0.0, "type": "electric_scooter", "lat": 38.92665083333333, "is_disabled": 0, "name": "38dca8fdd0fc241d53639eb6b31881f2", "is_reserved": 0, "bike_id": "38dca8fdd0fc241d53639eb6b31881f2", "fusion_lon": 0.0, "rental_uris": {"ios": "https://dc.lft.to/lastmile_qr_scan", "android": "https://dc.lft.to/lastmile_qr_scan"}}, {"lon": -76.99327066666666, "fusion_lat": 0.0, "type": "electric_bike", "lat": 38.9467735, "is_disabled": 0, "name": "21efdfb291722d77977be3fade3ff37e", "is_reserved": 0, "bike_id": "21efdfb291722d77977be3fade3ff37e", "fusion_lon": 0.0, "rental_uris": {"ios": "https://dc.lft.to/lastmile_qr_scan", "android": "https://dc.lft.to/lastmile_qr_scan"}}, {"lon": -77.03930233333334, "fusion_lat": 0.0, "type": "electric_scooter", "lat": 38.912544, "is_disabled": 0, "name": "b4aea6c4a4bc538d3c7b6dcf4d92f8fa", "is_reserved": 0, "bike_id": "b4aea6c4a4bc538d3c7b6dcf4d92f8fa", "fusion_lon": 0.0, "rental_uris": {"ios": "https://dc.lft.to/lastmile_qr_scan", "android": "https://dc.lft.to/lastmile_qr_scan"}}, {"lon": -76.93714666666666, "fusion_lat": 0.0, "type": "electric_scooter", "lat": 38.890184, "is_disabled": 0, "name": "5f48ad3ca94ef080629e58a66efd6396", "is_reserved": 0, "bike_id": "5f48ad3ca94ef080629e58a66efd6396", "fusion_lon": 0.0, "rental_uris": {"ios": "https://dc.lft.to/lastmile_qr_scan", "android": "https://dc.lft.to/lastmile_qr_scan"}}, {"lon": -77.19127316666666, "fusion_lat": 0.0, "type": "electric_bike", "lat": 38.89456233333333, "is_disabled": 0, "name": "24762ad3d9b0bf2746700213424bfded", "is_reserved": 0, "bike_id": "24762ad3d9b0bf2746700213424bfded", "fusion_lon": 0.0, "rental_uris": {"ios": "https://dc.lft.to/lastmile_qr_scan", "android": "https://dc.lft.to/lastmile_qr_scan"}}, {"lon": -77.04346083333333, "fusion_lat": 0.0, "type": "electric_scooter", "lat": 38.908468, "is_disabled": 0, "name": "ec9e01b738ba45a1a64528f752bdf5e9", "is_reserved": 0, "bike_id": "ec9e01b738ba45a1a64528f752bdf5e9", "fusion_lon": 0.0, "rental_uris": {"ios": "https://dc.lft.to/lastmile_qr_scan", "android": "https://dc.lft.to/lastmile_qr_scan"}}, {"lon": -77.05337, "fusion_lat": 0.0, "type": "electric_scooter", "lat": 38.903500666666666, "is_disabled": 0, "name": "e2f97e689ea4358cdcaed28f97f60e2a", "is_reserved": 0, "bike_id": "e2f97e689ea4358cdcaed28f97f60e2a", "fusion_lon": 0.0, "rental_uris": {"ios": "https://dc.lft.to/lastmile_qr_scan", "android": "https://dc.lft.to/lastmile_qr_scan"}}, {"lon": -76.947818, "fusion_lat": 0.0, "type": "electric_scooter", "lat": 38.8963425, "is_disabled": 0, "name": "ed7ce01b03bd593ca9238d9f5d4b3be0", "is_reserved": 0, "bike_id": "ed7ce01b03bd593ca9238d9f5d4b3be0", "fusion_lon": 0.0, "rental_uris": {"ios": "https://dc.lft.to/lastmile_qr_scan", "android": "https://dc.lft.to/lastmile_qr_scan"}}, {"lon": -76.9473065, "fusion_lat": 0.0, "type": "electric_scooter", "lat": 38.896787333333336, "is_disabled": 0, "name": "eb5e370b00a7c5044d0c21066b0df154", "is_reserved": 0, "bike_id": "eb5e370b00a7c5044d0c21066b0df154", "fusion_lon": 0.0, "rental_uris": {"ios": "https://dc.lft.to/lastmile_qr_scan", "android": "https://dc.lft.to/lastmile_qr_scan"}}, {"lon": -77.03992116666667, "fusion_lat": 0.0, "type": "electric_scooter", "lat": 38.905833, "is_disabled": 0, "name": "9f3be6ea3d391b8d76cbdfd53e96dbf3", "is_reserved": 0, "bike_id": "9f3be6ea3d391b8d76cbdfd53e96dbf3", "fusion_lon": 0.0, "rental_uris": {"ios": "https://dc.lft.to/lastmile_qr_scan", "android": "https://dc.lft.to/lastmile_qr_scan"}}, {"lon": -77.00686666666667, "fusion_lat": 0.0, "type": "electric_scooter", "lat": 38.90009883333333, "is_disabled": 0, "name": "a0f29dd8ecf8a21590545f46db13cc4d", "is_reserved": 0, "bike_id": "a0f29dd8ecf8a21590545f46db13cc4d", "fusion_lon": 0.0, "rental_uris": {"ios": "https://dc.lft.to/lastmile_qr_scan", "android": "https://dc.lft.to/lastmile_qr_scan"}}, {"lon": -77.04656883333334, "fusion_lat": 0.0, "type": "electric_scooter", "lat": 38.8925105, "is_disabled": 0, "name": "f2863096d2033cae778b3f9b3a85246f", "is_reserved": 0, "bike_id": "f2863096d2033cae778b3f9b3a85246f", "fusion_lon": 0.0, "rental_uris": {"ios": "https://dc.lft.to/lastmile_qr_scan", "android": "https://dc.lft.to/lastmile_qr_scan"}}, {"lon": -77.01824716666667, "fusion_lat": 0.0, "type": "electric_scooter", "lat": 38.92229116666667, "is_disabled": 0, "name": "058c29508a45e2212125ed4fa109f73f", "is_reserved": 0, "bike_id": "058c29508a45e2212125ed4fa109f73f", "fusion_lon": 0.0, "rental_uris": {"ios": "https://dc.lft.to/lastmile_qr_scan", "android": "https://dc.lft.to/lastmile_qr_scan"}}, {"lon": -76.98989316666666, "fusion_lat": 0.0, "type": "electric_bike", "lat": 38.936691, "is_disabled": 0, "name": "1899769f356de2fce8bde0cc40a1d3da", "is_reserved": 0, "bike_id": "1899769f356de2fce8bde0cc40a1d3da", "fusion_lon": 0.0, "rental_uris": {"ios": "https://dc.lft.to/lastmile_qr_scan", "android": "https://dc.lft.to/lastmile_qr_scan"}}, {"lon": -77.05150816666666, "fusion_lat": 0.0, "type": "electric_scooter", "lat": 38.89796966666667, "is_disabled": 0, "name": "00364e8d88eedcbb6f43dc52e2b3f536", "is_reserved": 0, "bike_id": "00364e8d88eedcbb6f43dc52e2b3f536", "fusion_lon": 0.0, "rental_uris": {"ios": "https://dc.lft.to/lastmile_qr_scan", "android": "https://dc.lft.to/lastmile_qr_scan"}}, {"lon": -77.03358416666667, "fusion_lat": 0.0, "type": "electric_scooter", "lat": 38.90161366666667, "is_disabled": 0, "name": "1c561c2bcf6dedc8d306879625748bd0", "is_reserved": 0, "bike_id": "1c561c2bcf6dedc8d306879625748bd0", "fusion_lon": 0.0, "rental_uris": {"ios": "https://dc.lft.to/lastmile_qr_scan", "android": "https://dc.lft.to/lastmile_qr_scan"}}, {"lon": -77.03501016666667, "fusion_lat": 0.0, "type": "electric_scooter", "lat": 38.916251833333334, "is_disabled": 0, "name": "39a5eb891b74ab9fc82a928c81fb593b", "is_reserved": 0, "bike_id": "39a5eb891b74ab9fc82a928c81fb593b", "fusion_lon": 0.0, "rental_uris": {"ios": "https://dc.lft.to/lastmile_qr_scan", "android": "https://dc.lft.to/lastmile_qr_scan"}}, {"lon": -77.03503533333334, "fusion_lat": 0.0, "type": "electric_scooter", "lat": 38.91180833333333, "is_disabled": 0, "name": "ba4e1b424d91737de4b263a6b6c49c5f", "is_reserved": 0, "bike_id": "ba4e1b424d91737de4b263a6b6c49c5f", "fusion_lon": 0.0, "rental_uris": {"ios": "https://dc.lft.to/lastmile_qr_scan", "android": "https://dc.lft.to/lastmile_qr_scan"}}, {"lon": -77.09577716666666, "fusion_lat": 0.0, "type": "electric_bike", "lat": 38.917057, "is_disabled": 0, "name": "dfabec68f4ad597c1d8788f488821fd9", "is_reserved": 0, "bike_id": "dfabec68f4ad597c1d8788f488821fd9", "fusion_lon": 0.0, "rental_uris": {"ios": "https://dc.lft.to/lastmile_qr_scan", "android": "https://dc.lft.to/lastmile_qr_scan"}}, {"lon": -76.9317365, "fusion_lat": 0.0, "type": "electric_scooter", "lat": 38.89884683333333, "is_disabled": 0, "name": "735ddec88cbfbfbb10adeb206901d2e2", "is_reserved": 0, "bike_id": "735ddec88cbfbfbb10adeb206901d2e2", "fusion_lon": 0.0, "rental_uris": {"ios": "https://dc.lft.to/lastmile_qr_scan", "android": "https://dc.lft.to/lastmile_qr_scan"}}, {"lon": -77.01918, "fusion_lat": 0.0, "type": "electric_scooter", "lat": 38.92171733333333, "is_disabled": 0, "name": "18d1eefb1373039ea924bfecbfc0a886", "is_reserved": 0, "bike_id": "18d1eefb1373039ea924bfecbfc0a886", "fusion_lon": 0.0, "rental_uris": {"ios": "https://dc.lft.to/lastmile_qr_scan", "android": "https://dc.lft.to/lastmile_qr_scan"}}, {"lon": -77.02156266666667, "fusion_lat": 0.0, "type": "electric_scooter", "lat": 38.92604566666667, "is_disabled": 0, "name": "96472460bca707e18d93db144345c4c8", "is_reserved": 0, "bike_id": "96472460bca707e18d93db144345c4c8", "fusion_lon": 0.0, "rental_uris": {"ios": "https://dc.lft.to/lastmile_qr_scan", "android": "https://dc.lft.to/lastmile_qr_scan"}}, {"lon": -77.04478416666667, "fusion_lat": 0.0, "type": "electric_scooter", "lat": 38.91085116666667, "is_disabled": 0, "name": "6b3a0d461fe70d63d8e22f7271bda9f1", "is_reserved": 0, "bike_id": "6b3a0d461fe70d63d8e22f7271bda9f1", "fusion_lon": 0.0, "rental_uris": {"ios": "https://dc.lft.to/lastmile_qr_scan", "android": "https://dc.lft.to/lastmile_qr_scan"}}, {"lon": -77.04348583333334, "fusion_lat": 0.0, "type": "electric_scooter", "lat": 38.89681516666667, "is_disabled": 0, "name": "5ea8edd35c3aecb38f18e50ae1409c86", "is_reserved": 0, "bike_id": "5ea8edd35c3aecb38f18e50ae1409c86", "fusion_lon": 0.0, "rental_uris": {"ios": "https://dc.lft.to/lastmile_qr_scan", "android": "https://dc.lft.to/lastmile_qr_scan"}}, {"lon": -77.04375516666667, "fusion_lat": 0.0, "type": "electric_scooter", "lat": 38.9104915, "is_disabled": 0, "name": "06a9348b54a007316c73fa3e1265c337", "is_reserved": 0, "bike_id": "06a9348b54a007316c73fa3e1265c337", "fusion_lon": 0.0, "rental_uris": {"ios": "https://dc.lft.to/lastmile_qr_scan", "android": "https://dc.lft.to/lastmile_qr_scan"}}, {"lon": -77.028837, "fusion_lat": 0.0, "type": "electric_scooter", "lat": 38.89726183333333, "is_disabled": 0, "name": "2d53f1dfca290735c8147dc366f28431", "is_reserved": 0, "bike_id": "2d53f1dfca290735c8147dc366f28431", "fusion_lon": 0.0, "rental_uris": {"ios": "https://dc.lft.to/lastmile_qr_scan", "android": "https://dc.lft.to/lastmile_qr_scan"}}, {"lon": -77.0338265, "fusion_lat": 0.0, "type": "electric_scooter", "lat": 38.92824566666667, "is_disabled": 0, "name": "23e1779dfbd5471849f7cca8fc308bee", "is_reserved": 0, "bike_id": "23e1779dfbd5471849f7cca8fc308bee", "fusion_lon": 0.0, "rental_uris": {"ios": "https://dc.lft.to/lastmile_qr_scan", "android": "https://dc.lft.to/lastmile_qr_scan"}}, {"lon": -76.99812183333333, "fusion_lat": 0.0, "type": "electric_scooter", "lat": 38.92924566666667, "is_disabled": 0, "name": "bd795f6ff2d9ad42f4ddcc8da9c126ab", "is_reserved": 0, "bike_id": "bd795f6ff2d9ad42f4ddcc8da9c126ab", "fusion_lon": 0.0, "rental_uris": {"ios": "https://dc.lft.to/lastmile_qr_scan", "android": "https://dc.lft.to/lastmile_qr_scan"}}, {"lon": -77.02697133333334, "fusion_lat": 0.0, "type": "electric_scooter", "lat": 38.9069725, "is_disabled": 0, "name": "491d1ab6ef0d9d96378f26e159824cf5", "is_reserved": 0, "bike_id": "491d1ab6ef0d9d96378f26e159824cf5", "fusion_lon": 0.0, "rental_uris": {"ios": "https://dc.lft.to/lastmile_qr_scan", "android": "https://dc.lft.to/lastmile_qr_scan"}}, {"lon": -77.04459866666667, "fusion_lat": 0.0, "type": "electric_scooter", "lat": 38.9117755, "is_disabled": 0, "name": "9a50175987e9cecf24611eddf44f8268", "is_reserved": 0, "bike_id": "9a50175987e9cecf24611eddf44f8268", "fusion_lon": 0.0, "rental_uris": {"ios": "https://dc.lft.to/lastmile_qr_scan", "android": "https://dc.lft.to/lastmile_qr_scan"}}, {"lon": -76.998039, "fusion_lat": 0.0, "type": "electric_scooter", "lat": 38.908508833333336, "is_disabled": 0, "name": "b1c70b123eb273822afa871be2b12694", "is_reserved": 0, "bike_id": "b1c70b123eb273822afa871be2b12694", "fusion_lon": 0.0, "rental_uris": {"ios": "https://dc.lft.to/lastmile_qr_scan", "android": "https://dc.lft.to/lastmile_qr_scan"}}, {"lon": -77.03514733333333, "fusion_lat": 0.0, "type": "electric_scooter", "lat": 38.9225765, "is_disabled": 0, "name": "fc9f0189a511d7630f62a55634244556", "is_reserved": 0, "bike_id": "fc9f0189a511d7630f62a55634244556", "fusion_lon": 0.0, "rental_uris": {"ios": "https://dc.lft.to/lastmile_qr_scan", "android": "https://dc.lft.to/lastmile_qr_scan"}}, {"lon": -77.02201883333333, "fusion_lat": 0.0, "type": "electric_scooter", "lat": 38.9145345, "is_disabled": 0, "name": "032418799bb46e926ab82174ee5b2916", "is_reserved": 0, "bike_id": "032418799bb46e926ab82174ee5b2916", "fusion_lon": 0.0, "rental_uris": {"ios": "https://dc.lft.to/lastmile_qr_scan", "android": "https://dc.lft.to/lastmile_qr_scan"}}, {"lon": -77.04207133333334, "fusion_lat": 0.0, "type": "electric_scooter", "lat": 38.8926715, "is_disabled": 0, "name": "633a731910fa7c2d8d65de8db6fb9946", "is_reserved": 0, "bike_id": "633a731910fa7c2d8d65de8db6fb9946", "fusion_lon": 0.0, "rental_uris": {"ios": "https://dc.lft.to/lastmile_qr_scan", "android": "https://dc.lft.to/lastmile_qr_scan"}}, {"lon": -77.03218933333333, "fusion_lat": 0.0, "type": "electric_scooter", "lat": 38.88728033333334, "is_disabled": 0, "name": "6645c1339c8b0cd5751e4421e8af8709", "is_reserved": 0, "bike_id": "6645c1339c8b0cd5751e4421e8af8709", "fusion_lon": 0.0, "rental_uris": {"ios": "https://dc.lft.to/lastmile_qr_scan", "android": "https://dc.lft.to/lastmile_qr_scan"}}, {"lon": -77.04349366666666, "fusion_lat": 0.0, "type": "electric_scooter", "lat": 38.904001666666666, "is_disabled": 0, "name": "1149c107e4f13676a00809dc13a1126b", "is_reserved": 0, "bike_id": "1149c107e4f13676a00809dc13a1126b", "fusion_lon": 0.0, "rental_uris": {"ios": "https://dc.lft.to/lastmile_qr_scan", "android": "https://dc.lft.to/lastmile_qr_scan"}}, {"lon": -77.01781666666666, "fusion_lat": 0.0, "type": "electric_scooter", "lat": 38.9199245, "is_disabled": 0, "name": "1179541e4448dc1f14d25d5aca2743f1", "is_reserved": 0, "bike_id": "1179541e4448dc1f14d25d5aca2743f1", "fusion_lon": 0.0, "rental_uris": {"ios": "https://dc.lft.to/lastmile_qr_scan", "android": "https://dc.lft.to/lastmile_qr_scan"}}, {"lon": -77.02540133333333, "fusion_lat": 0.0, "type": "electric_scooter", "lat": 38.91851366666667, "is_disabled": 0, "name": "4445f3e4c3cc683ed380c074e0956198", "is_reserved": 0, "bike_id": "4445f3e4c3cc683ed380c074e0956198", "fusion_lon": 0.0, "rental_uris": {"ios": "https://dc.lft.to/lastmile_qr_scan", "android": "https://dc.lft.to/lastmile_qr_scan"}}, {"lon": -77.02994216666667, "fusion_lat": 0.0, "type": "electric_scooter", "lat": 38.91703433333333, "is_disabled": 0, "name": "cd148343d0ab8e3b6855fa3fc6617d9f", "is_reserved": 0, "bike_id": "cd148343d0ab8e3b6855fa3fc6617d9f", "fusion_lon": 0.0, "rental_uris": {"ios": "https://dc.lft.to/lastmile_qr_scan", "android": "https://dc.lft.to/lastmile_qr_scan"}}, {"lon": -77.34455933333334, "fusion_lat": 0.0, "type": "electric_bike", "lat": 38.9453575, "is_disabled": 0, "name": "9bf136ee78986d412d1a0447a42b2a9b", "is_reserved": 0, "bike_id": "9bf136ee78986d412d1a0447a42b2a9b", "fusion_lon": 0.0, "rental_uris": {"ios": "https://dc.lft.to/lastmile_qr_scan", "android": "https://dc.lft.to/lastmile_qr_scan"}}, {"lon": -76.95144783333333, "fusion_lat": 0.0, "type": "electric_bike", "lat": 39.084310333333335, "is_disabled": 0, "name": "2dea545daebdd77b78159497d03a9b32", "is_reserved": 0, "bike_id": "2dea545daebdd77b78159497d03a9b32", "fusion_lon": 0.0, "rental_uris": {"ios": "https://dc.lft.to/lastmile_qr_scan", "android": "https://dc.lft.to/lastmile_qr_scan"}}, {"lon": -76.9367275, "fusion_lat": 0.0, "type": "electric_scooter", "lat": 38.88661666666667, "is_disabled": 0, "name": "9c40b51a178b38eac206c8be11e22717", "is_reserved": 0, "bike_id": "9c40b51a178b38eac206c8be11e22717", "fusion_lon": 0.0, "rental_uris": {"ios": "https://dc.lft.to/lastmile_qr_scan", "android": "https://dc.lft.to/lastmile_qr_scan"}}, {"lon": -77.021578, "fusion_lat": 0.0, "type": "electric_scooter", "lat": 38.924523, "is_disabled": 0, "name": "95b62f2feabdf0757b2e6d006c02f932", "is_reserved": 0, "bike_id": "95b62f2feabdf0757b2e6d006c02f932", "fusion_lon": 0.0, "rental_uris": {"ios": "https://dc.lft.to/lastmile_qr_scan", "android": "https://dc.lft.to/lastmile_qr_scan"}}, {"lon": -77.02685616666666, "fusion_lat": 0.0, "type": "electric_scooter", "lat": 38.906768, "is_disabled": 0, "name": "14d42b7f698d3ac8607bd43aacddff83", "is_reserved": 0, "bike_id": "14d42b7f698d3ac8607bd43aacddff83", "fusion_lon": 0.0, "rental_uris": {"ios": "https://dc.lft.to/lastmile_qr_scan", "android": "https://dc.lft.to/lastmile_qr_scan"}}, {"lon": -77.04168416666667, "fusion_lat": 0.0, "type": "electric_scooter", "lat": 38.90590666666667, "is_disabled": 0, "name": "b06c061a507c576299760f150ca76069", "is_reserved": 0, "bike_id": "b06c061a507c576299760f150ca76069", "fusion_lon": 0.0, "rental_uris": {"ios": "https://dc.lft.to/lastmile_qr_scan", "android": "https://dc.lft.to/lastmile_qr_scan"}}, {"lon": -77.03419766666667, "fusion_lat": 0.0, "type": "electric_scooter", "lat": 38.92876916666667, "is_disabled": 0, "name": "44b2c2eda9bd274c986b89f458ccba7d", "is_reserved": 0, "bike_id": "44b2c2eda9bd274c986b89f458ccba7d", "fusion_lon": 0.0, "rental_uris": {"ios": "https://dc.lft.to/lastmile_qr_scan", "android": "https://dc.lft.to/lastmile_qr_scan"}}, {"lon": -77.01754533333333, "fusion_lat": 0.0, "type": "electric_scooter", "lat": 38.875331333333335, "is_disabled": 0, "name": "d872d19e36d2707fe68df6a1121ca0d4", "is_reserved": 0, "bike_id": "d872d19e36d2707fe68df6a1121ca0d4", "fusion_lon": 0.0, "rental_uris": {"ios": "https://dc.lft.to/lastmile_qr_scan", "android": "https://dc.lft.to/lastmile_qr_scan"}}, {"lon": -77.0467035, "fusion_lat": 0.0, "type": "electric_scooter", "lat": 38.910626666666666, "is_disabled": 0, "name": "e74fc18667b34db221d23237a525b556", "is_reserved": 0, "bike_id": "e74fc18667b34db221d23237a525b556", "fusion_lon": 0.0, "rental_uris": {"ios": "https://dc.lft.to/lastmile_qr_scan", "android": "https://dc.lft.to/lastmile_qr_scan"}}, {"lon": -77.02141483333334, "fusion_lat": 0.0, "type": "electric_scooter", "lat": 38.924438, "is_disabled": 0, "name": "98894aeebaa0a6f586358db6469ce6b4", "is_reserved": 0, "bike_id": "98894aeebaa0a6f586358db6469ce6b4", "fusion_lon": 0.0, "rental_uris": {"ios": "https://dc.lft.to/lastmile_qr_scan", "android": "https://dc.lft.to/lastmile_qr_scan"}}, {"lon": -76.98611933333333, "fusion_lat": 0.0, "type": "electric_scooter", "lat": 38.903474, "is_disabled": 0, "name": "d8318574ca476a210fb2eeb60cccab21", "is_reserved": 0, "bike_id": "d8318574ca476a210fb2eeb60cccab21", "fusion_lon": 0.0, "rental_uris": {"ios": "https://dc.lft.to/lastmile_qr_scan", "android": "https://dc.lft.to/lastmile_qr_scan"}}, {"lon": -76.93960633333333, "fusion_lat": 0.0, "type": "electric_scooter", "lat": 38.893124, "is_disabled": 0, "name": "5ee3beeffcfbe5e03589173e0ef3c3ab", "is_reserved": 0, "bike_id": "5ee3beeffcfbe5e03589173e0ef3c3ab", "fusion_lon": 0.0, "rental_uris": {"ios": "https://dc.lft.to/lastmile_qr_scan", "android": "https://dc.lft.to/lastmile_qr_scan"}}, {"lon": -77.02705683333333, "fusion_lat": 0.0, "type": "electric_scooter", "lat": 38.973086, "is_disabled": 0, "name": "d44ceb4127bb2555a59d2d4af0d47695", "is_reserved": 0, "bike_id": "d44ceb4127bb2555a59d2d4af0d47695", "fusion_lon": 0.0, "rental_uris": {"ios": "https://dc.lft.to/lastmile_qr_scan", "android": "https://dc.lft.to/lastmile_qr_scan"}}, {"lon": -77.053705, "fusion_lat": 0.0, "type": "electric_bike", "lat": 38.84753883333333, "is_disabled": 0, "name": "e27f37c1c13df79652178426ee6d11af", "is_reserved": 0, "bike_id": "e27f37c1c13df79652178426ee6d11af", "fusion_lon": 0.0, "rental_uris": {"ios": "https://dc.lft.to/lastmile_qr_scan", "android": "https://dc.lft.to/lastmile_qr_scan"}}, {"lon": -77.05025166666667, "fusion_lat": 0.0, "type": "electric_scooter", "lat": 38.905351833333334, "is_disabled": 0, "name": "45df601b2f89e2009a67a17f65e97393", "is_reserved": 0, "bike_id": "45df601b2f89e2009a67a17f65e97393", "fusion_lon": 0.0, "rental_uris": {"ios": "https://dc.lft.to/lastmile_qr_scan", "android": "https://dc.lft.to/lastmile_qr_scan"}}, {"lon": -76.97328233333333, "fusion_lat": 0.0, "type": "electric_scooter", "lat": 38.9041075, "is_disabled": 0, "name": "ce15dc71cfc9ed2457d9cb2948757cf9", "is_reserved": 0, "bike_id": "ce15dc71cfc9ed2457d9cb2948757cf9", "fusion_lon": 0.0, "rental_uris": {"ios": "https://dc.lft.to/lastmile_qr_scan", "android": "https://dc.lft.to/lastmile_qr_scan"}}, {"lon": -77.027992, "fusion_lat": 0.0, "type": "electric_scooter", "lat": 38.916846666666665, "is_disabled": 0, "name": "e0310acbc7b9167429e4645c77798d8d", "is_reserved": 0, "bike_id": "e0310acbc7b9167429e4645c77798d8d", "fusion_lon": 0.0, "rental_uris": {"ios": "https://dc.lft.to/lastmile_qr_scan", "android": "https://dc.lft.to/lastmile_qr_scan"}}, {"lon": -77.003327, "fusion_lat": 0.0, "type": "electric_scooter", "lat": 38.893557, "is_disabled": 0, "name": "0fd0558eeb93c25da8245123284601af", "is_reserved": 0, "bike_id": "0fd0558eeb93c25da8245123284601af", "fusion_lon": 0.0, "rental_uris": {"ios": "https://dc.lft.to/lastmile_qr_scan", "android": "https://dc.lft.to/lastmile_qr_scan"}}, {"lon": -77.05014783333333, "fusion_lat": 0.0, "type": "electric_scooter", "lat": 38.90670566666667, "is_disabled": 0, "name": "21349c9b9e7becb95b64b40df4ac7cab", "is_reserved": 0, "bike_id": "21349c9b9e7becb95b64b40df4ac7cab", "fusion_lon": 0.0, "rental_uris": {"ios": "https://dc.lft.to/lastmile_qr_scan", "android": "https://dc.lft.to/lastmile_qr_scan"}}, {"lon": -77.02723066666667, "fusion_lat": 0.0, "type": "electric_scooter", "lat": 38.896764, "is_disabled": 0, "name": "3c7c1ceb389898e77afe74e5ff365372", "is_reserved": 0, "bike_id": "3c7c1ceb389898e77afe74e5ff365372", "fusion_lon": 0.0, "rental_uris": {"ios": "https://dc.lft.to/lastmile_qr_scan", "android": "https://dc.lft.to/lastmile_qr_scan"}}, {"lon": -77.04384983333334, "fusion_lat": 0.0, "type": "electric_scooter", "lat": 38.9012535, "is_disabled": 0, "name": "a389495dad827a778097adce3ea70114", "is_reserved": 0, "bike_id": "a389495dad827a778097adce3ea70114", "fusion_lon": 0.0, "rental_uris": {"ios": "https://dc.lft.to/lastmile_qr_scan", "android": "https://dc.lft.to/lastmile_qr_scan"}}, {"lon": -77.01404916666667, "fusion_lat": 0.0, "type": "electric_scooter", "lat": 38.928552333333336, "is_disabled": 0, "name": "7d6f12030a807e76f5f12105ef096e61", "is_reserved": 0, "bike_id": "7d6f12030a807e76f5f12105ef096e61", "fusion_lon": 0.0, "rental_uris": {"ios": "https://dc.lft.to/lastmile_qr_scan", "android": "https://dc.lft.to/lastmile_qr_scan"}}, {"lon": -77.02806966666667, "fusion_lat": 0.0, "type": "electric_scooter", "lat": 38.9109105, "is_disabled": 0, "name": "d3313a4de78821f02bb2954b76981e7f", "is_reserved": 0, "bike_id": "d3313a4de78821f02bb2954b76981e7f", "fusion_lon": 0.0, "rental_uris": {"ios": "https://dc.lft.to/lastmile_qr_scan", "android": "https://dc.lft.to/lastmile_qr_scan"}}, {"lon": -76.98833483333334, "fusion_lat": 0.0, "type": "electric_scooter", "lat": 38.901781166666666, "is_disabled": 0, "name": "59a6f2cbcb7be4a7deff0416a700a88c", "is_reserved": 0, "bike_id": "59a6f2cbcb7be4a7deff0416a700a88c", "fusion_lon": 0.0, "rental_uris": {"ios": "https://dc.lft.to/lastmile_qr_scan", "android": "https://dc.lft.to/lastmile_qr_scan"}}, {"lon": -76.97531366666666, "fusion_lat": 0.0, "type": "electric_scooter", "lat": 38.92230166666667, "is_disabled": 0, "name": "049dd2da2c8320e190205f2fb25e16d6", "is_reserved": 0, "bike_id": "049dd2da2c8320e190205f2fb25e16d6", "fusion_lon": 0.0, "rental_uris": {"ios": "https://dc.lft.to/lastmile_qr_scan", "android": "https://dc.lft.to/lastmile_qr_scan"}}, {"lon": -76.91924866666666, "fusion_lat": 0.0, "type": "electric_scooter", "lat": 38.890890166666665, "is_disabled": 0, "name": "8f6dae5e03df7106d32b95e29746d240", "is_reserved": 0, "bike_id": "8f6dae5e03df7106d32b95e29746d240", "fusion_lon": 0.0, "rental_uris": {"ios": "https://dc.lft.to/lastmile_qr_scan", "android": "https://dc.lft.to/lastmile_qr_scan"}}, {"lon": -77.0411095, "fusion_lat": 0.0, "type": "electric_scooter", "lat": 38.927221, "is_disabled": 0, "name": "16caccca39feb17c04429acaafd3e916", "is_reserved": 0, "bike_id": "16caccca39feb17c04429acaafd3e916", "fusion_lon": 0.0, "rental_uris": {"ios": "https://dc.lft.to/lastmile_qr_scan", "android": "https://dc.lft.to/lastmile_qr_scan"}}, {"lon": -77.01899566666667, "fusion_lat": 0.0, "type": "electric_scooter", "lat": 38.92340866666667, "is_disabled": 0, "name": "e4c6c5c76cb8842d50450506f56cdaaa", "is_reserved": 0, "bike_id": "e4c6c5c76cb8842d50450506f56cdaaa", "fusion_lon": 0.0, "rental_uris": {"ios": "https://dc.lft.to/lastmile_qr_scan", "android": "https://dc.lft.to/lastmile_qr_scan"}}, {"lon": -76.93710966666667, "fusion_lat": 0.0, "type": "electric_scooter", "lat": 38.890214666666665, "is_disabled": 0, "name": "236620018697e741f0888880ef9b2202", "is_reserved": 0, "bike_id": "236620018697e741f0888880ef9b2202", "fusion_lon": 0.0, "rental_uris": {"ios": "https://dc.lft.to/lastmile_qr_scan", "android": "https://dc.lft.to/lastmile_qr_scan"}}, {"lon": -77.02560383333334, "fusion_lat": 0.0, "type": "electric_scooter", "lat": 38.920689333333335, "is_disabled": 0, "name": "5ad13908285acb269b47eb162bfc077b", "is_reserved": 0, "bike_id": "5ad13908285acb269b47eb162bfc077b", "fusion_lon": 0.0, "rental_uris": {"ios": "https://dc.lft.to/lastmile_qr_scan", "android": "https://dc.lft.to/lastmile_qr_scan"}}, {"lon": -76.97909933333334, "fusion_lat": 0.0, "type": "electric_scooter", "lat": 38.86658833333333, "is_disabled": 0, "name": "ccc90e959180d5656f7876e0b79e4b8f", "is_reserved": 0, "bike_id": "ccc90e959180d5656f7876e0b79e4b8f", "fusion_lon": 0.0, "rental_uris": {"ios": "https://dc.lft.to/lastmile_qr_scan", "android": "https://dc.lft.to/lastmile_qr_scan"}}, {"lon": -77.016563, "fusion_lat": 0.0, "type": "electric_scooter", "lat": 38.913255, "is_disabled": 0, "name": "f40387ec7b5899fa1283bcdd4dd1b205", "is_reserved": 0, "bike_id": "f40387ec7b5899fa1283bcdd4dd1b205", "fusion_lon": 0.0, "rental_uris": {"ios": "https://dc.lft.to/lastmile_qr_scan", "android": "https://dc.lft.to/lastmile_qr_scan"}}, {"lon": -77.02740416666667, "fusion_lat": 0.0, "type": "electric_scooter", "lat": 38.91887416666667, "is_disabled": 0, "name": "da7c6cb252e2d81d44010c93108c050f", "is_reserved": 0, "bike_id": "da7c6cb252e2d81d44010c93108c050f", "fusion_lon": 0.0, "rental_uris": {"ios": "https://dc.lft.to/lastmile_qr_scan", "android": "https://dc.lft.to/lastmile_qr_scan"}}, {"lon": -77.02599533333333, "fusion_lat": 0.0, "type": "electric_scooter", "lat": 38.88735033333333, "is_disabled": 0, "name": "8c6bc98ce9088f370790b2b8b11d28dc", "is_reserved": 0, "bike_id": "8c6bc98ce9088f370790b2b8b11d28dc", "fusion_lon": 0.0, "rental_uris": {"ios": "https://dc.lft.to/lastmile_qr_scan", "android": "https://dc.lft.to/lastmile_qr_scan"}}, {"lon": -76.98811883333333, "fusion_lat": 0.0, "type": "electric_bike", "lat": 38.803799166666664, "is_disabled": 0, "name": "ef9c55722c0044b5c6600da17ee52600", "is_reserved": 0, "bike_id": "ef9c55722c0044b5c6600da17ee52600", "fusion_lon": 0.0, "rental_uris": {"ios": "https://dc.lft.to/lastmile_qr_scan", "android": "https://dc.lft.to/lastmile_qr_scan"}}, {"lon": -76.99513983333334, "fusion_lat": 0.0, "type": "electric_bike", "lat": 38.90011766666667, "is_disabled": 0, "name": "d10361d76a35fc365c48fe97438ced85", "is_reserved": 0, "bike_id": "d10361d76a35fc365c48fe97438ced85", "fusion_lon": 0.0, "rental_uris": {"ios": "https://dc.lft.to/lastmile_qr_scan", "android": "https://dc.lft.to/lastmile_qr_scan"}}, {"lon": -77.034842, "fusion_lat": 0.0, "type": "electric_scooter", "lat": 38.90584066666667, "is_disabled": 0, "name": "933506e24dac97e3ba60805130db316e", "is_reserved": 0, "bike_id": "933506e24dac97e3ba60805130db316e", "fusion_lon": 0.0, "rental_uris": {"ios": "https://dc.lft.to/lastmile_qr_scan", "android": "https://dc.lft.to/lastmile_qr_scan"}}, {"lon": -76.93715366666666, "fusion_lat": 0.0, "type": "electric_scooter", "lat": 38.890194, "is_disabled": 0, "name": "bed80a35ac15f62155476459a5ead586", "is_reserved": 0, "bike_id": "bed80a35ac15f62155476459a5ead586", "fusion_lon": 0.0, "rental_uris": {"ios": "https://dc.lft.to/lastmile_qr_scan", "android": "https://dc.lft.to/lastmile_qr_scan"}}, {"lon": -77.02852433333334, "fusion_lat": 0.0, "type": "electric_scooter", "lat": 38.93529383333333, "is_disabled": 0, "name": "10844e22e80cad85f182f773f11ef4d6", "is_reserved": 0, "bike_id": "10844e22e80cad85f182f773f11ef4d6", "fusion_lon": 0.0, "rental_uris": {"ios": "https://dc.lft.to/lastmile_qr_scan", "android": "https://dc.lft.to/lastmile_qr_scan"}}, {"lon": -76.93665033333333, "fusion_lat": 0.0, "type": "electric_scooter", "lat": 38.89680966666667, "is_disabled": 0, "name": "972b46a53e6f1e6e4c17870d32d41ad2", "is_reserved": 0, "bike_id": "972b46a53e6f1e6e4c17870d32d41ad2", "fusion_lon": 0.0, "rental_uris": {"ios": "https://dc.lft.to/lastmile_qr_scan", "android": "https://dc.lft.to/lastmile_qr_scan"}}, {"lon": -77.04210983333333, "fusion_lat": 0.0, "type": "electric_scooter", "lat": 38.9024955, "is_disabled": 0, "name": "67b95ed16e695be2e4ee3f8355e73a5c", "is_reserved": 0, "bike_id": "67b95ed16e695be2e4ee3f8355e73a5c", "fusion_lon": 0.0, "rental_uris": {"ios": "https://dc.lft.to/lastmile_qr_scan", "android": "https://dc.lft.to/lastmile_qr_scan"}}, {"lon": -77.030533, "fusion_lat": 0.0, "type": "electric_scooter", "lat": 38.92371083333333, "is_disabled": 0, "name": "298d6be13480cad1289fd0aa61f8f437", "is_reserved": 0, "bike_id": "298d6be13480cad1289fd0aa61f8f437", "fusion_lon": 0.0, "rental_uris": {"ios": "https://dc.lft.to/lastmile_qr_scan", "android": "https://dc.lft.to/lastmile_qr_scan"}}, {"lon": -77.02153416666667, "fusion_lat": 0.0, "type": "electric_scooter", "lat": 38.926039, "is_disabled": 0, "name": "957123155002d43e73b36c5ecffffdd1", "is_reserved": 0, "bike_id": "957123155002d43e73b36c5ecffffdd1", "fusion_lon": 0.0, "rental_uris": {"ios": "https://dc.lft.to/lastmile_qr_scan", "android": "https://dc.lft.to/lastmile_qr_scan"}}, {"lon": -77.02298566666667, "fusion_lat": 0.0, "type": "electric_scooter", "lat": 38.920616333333335, "is_disabled": 0, "name": "d359f654fd4bc6e984f4705ec0e52203", "is_reserved": 0, "bike_id": "d359f654fd4bc6e984f4705ec0e52203", "fusion_lon": 0.0, "rental_uris": {"ios": "https://dc.lft.to/lastmile_qr_scan", "android": "https://dc.lft.to/lastmile_qr_scan"}}, {"lon": -77.03253516666666, "fusion_lat": 0.0, "type": "electric_scooter", "lat": 38.93525433333333, "is_disabled": 0, "name": "d6228e1cd531978885b0f032f7d2fca2", "is_reserved": 0, "bike_id": "d6228e1cd531978885b0f032f7d2fca2", "fusion_lon": 0.0, "rental_uris": {"ios": "https://dc.lft.to/lastmile_qr_scan", "android": "https://dc.lft.to/lastmile_qr_scan"}}, {"lon": -77.06117166666667, "fusion_lat": 0.0, "type": "electric_scooter", "lat": 38.90199483333333, "is_disabled": 0, "name": "f771ac00259c5de59ba2a1ca94b98628", "is_reserved": 0, "bike_id": "f771ac00259c5de59ba2a1ca94b98628", "fusion_lon": 0.0, "rental_uris": {"ios": "https://dc.lft.to/lastmile_qr_scan", "android": "https://dc.lft.to/lastmile_qr_scan"}}, {"lon": -77.02903616666667, "fusion_lat": 0.0, "type": "electric_scooter", "lat": 38.9236865, "is_disabled": 0, "name": "44975264f978d0d560454e2bc0f4e89c", "is_reserved": 0, "bike_id": "44975264f978d0d560454e2bc0f4e89c", "fusion_lon": 0.0, "rental_uris": {"ios": "https://dc.lft.to/lastmile_qr_scan", "android": "https://dc.lft.to/lastmile_qr_scan"}}, {"lon": -77.03208, "fusion_lat": 0.0, "type": "electric_scooter", "lat": 38.91092483333333, "is_disabled": 0, "name": "1f776805ba326039df44fd1fa7e7a882", "is_reserved": 0, "bike_id": "1f776805ba326039df44fd1fa7e7a882", "fusion_lon": 0.0, "rental_uris": {"ios": "https://dc.lft.to/lastmile_qr_scan", "android": "https://dc.lft.to/lastmile_qr_scan"}}, {"lon": -77.02298533333334, "fusion_lat": 0.0, "type": "electric_scooter", "lat": 38.92060033333333, "is_disabled": 0, "name": "692cb722e6255038f073fa3bbb4bfa29", "is_reserved": 0, "bike_id": "692cb722e6255038f073fa3bbb4bfa29", "fusion_lon": 0.0, "rental_uris": {"ios": "https://dc.lft.to/lastmile_qr_scan", "android": "https://dc.lft.to/lastmile_qr_scan"}}, {"lon": -77.02428266666666, "fusion_lat": 0.0, "type": "electric_scooter", "lat": 38.95622783333334, "is_disabled": 0, "name": "59b0130d75482515d4ce612949041d39", "is_reserved": 0, "bike_id": "59b0130d75482515d4ce612949041d39", "fusion_lon": 0.0, "rental_uris": {"ios": "https://dc.lft.to/lastmile_qr_scan", "android": "https://dc.lft.to/lastmile_qr_scan"}}, {"lon": -77.02180783333333, "fusion_lat": 0.0, "type": "electric_scooter", "lat": 38.90414666666667, "is_disabled": 0, "name": "547ed392f0b6083b9aa4ab4ae884a0ec", "is_reserved": 0, "bike_id": "547ed392f0b6083b9aa4ab4ae884a0ec", "fusion_lon": 0.0, "rental_uris": {"ios": "https://dc.lft.to/lastmile_qr_scan", "android": "https://dc.lft.to/lastmile_qr_scan"}}, {"lon": -77.0169595, "fusion_lat": 0.0, "type": "electric_scooter", "lat": 38.9026055, "is_disabled": 0, "name": "91ea871af056f2d47dafc5445eace64c", "is_reserved": 0, "bike_id": "91ea871af056f2d47dafc5445eace64c", "fusion_lon": 0.0, "rental_uris": {"ios": "https://dc.lft.to/lastmile_qr_scan", "android": "https://dc.lft.to/lastmile_qr_scan"}}, {"lon": -76.93025016666667, "fusion_lat": 0.0, "type": "electric_scooter", "lat": 38.90016383333333, "is_disabled": 0, "name": "7c34d156cffdc1978de1948d4702c7f9", "is_reserved": 0, "bike_id": "7c34d156cffdc1978de1948d4702c7f9", "fusion_lon": 0.0, "rental_uris": {"ios": "https://dc.lft.to/lastmile_qr_scan", "android": "https://dc.lft.to/lastmile_qr_scan"}}, {"lon": -77.00580583333333, "fusion_lat": 0.0, "type": "electric_scooter", "lat": 38.876007666666666, "is_disabled": 0, "name": "49a084fe20b54ee0777325acb820a4a0", "is_reserved": 0, "bike_id": "49a084fe20b54ee0777325acb820a4a0", "fusion_lon": 0.0, "rental_uris": {"ios": "https://dc.lft.to/lastmile_qr_scan", "android": "https://dc.lft.to/lastmile_qr_scan"}}, {"lon": -76.9911165, "fusion_lat": 0.0, "type": "electric_scooter", "lat": 38.90901133333333, "is_disabled": 0, "name": "5fd0726d5cb37939ebafa1968584a227", "is_reserved": 0, "bike_id": "5fd0726d5cb37939ebafa1968584a227", "fusion_lon": 0.0, "rental_uris": {"ios": "https://dc.lft.to/lastmile_qr_scan", "android": "https://dc.lft.to/lastmile_qr_scan"}}, {"lon": -77.001818, "fusion_lat": 0.0, "type": "electric_scooter", "lat": 38.90246333333333, "is_disabled": 0, "name": "19ace80463f0bc5ba7e57591a3a189a0", "is_reserved": 0, "bike_id": "19ace80463f0bc5ba7e57591a3a189a0", "fusion_lon": 0.0, "rental_uris": {"ios": "https://dc.lft.to/lastmile_qr_scan", "android": "https://dc.lft.to/lastmile_qr_scan"}}, {"lon": -77.03030833333334, "fusion_lat": 0.0, "type": "electric_scooter", "lat": 38.926716166666665, "is_disabled": 0, "name": "b9e6742e178f8f3fe4cb7903f7383580", "is_reserved": 0, "bike_id": "b9e6742e178f8f3fe4cb7903f7383580", "fusion_lon": 0.0, "rental_uris": {"ios": "https://dc.lft.to/lastmile_qr_scan", "android": "https://dc.lft.to/lastmile_qr_scan"}}, {"lon": -76.9371295, "fusion_lat": 0.0, "type": "electric_scooter", "lat": 38.890169666666665, "is_disabled": 0, "name": "e95bc90723478ea4250fcc87eeef7e45", "is_reserved": 0, "bike_id": "e95bc90723478ea4250fcc87eeef7e45", "fusion_lon": 0.0, "rental_uris": {"ios": "https://dc.lft.to/lastmile_qr_scan", "android": "https://dc.lft.to/lastmile_qr_scan"}}, {"lon": -76.9967575, "fusion_lat": 0.0, "type": "electric_scooter", "lat": 38.8872285, "is_disabled": 0, "name": "c714ecefbcb27119b69190fa60f6f9b5", "is_reserved": 0, "bike_id": "c714ecefbcb27119b69190fa60f6f9b5", "fusion_lon": 0.0, "rental_uris": {"ios": "https://dc.lft.to/lastmile_qr_scan", "android": "https://dc.lft.to/lastmile_qr_scan"}}, {"lon": -77.00027533333333, "fusion_lat": 0.0, "type": "electric_scooter", "lat": 38.873952, "is_disabled": 0, "name": "9f040843c328c2143294fe167b1580f7", "is_reserved": 0, "bike_id": "9f040843c328c2143294fe167b1580f7", "fusion_lon": 0.0, "rental_uris": {"ios": "https://dc.lft.to/lastmile_qr_scan", "android": "https://dc.lft.to/lastmile_qr_scan"}}, {"lon": -76.97704416666667, "fusion_lat": 0.0, "type": "electric_scooter", "lat": 38.88818166666667, "is_disabled": 0, "name": "08690a4461b95f90715d54bba02766c3", "is_reserved": 0, "bike_id": "08690a4461b95f90715d54bba02766c3", "fusion_lon": 0.0, "rental_uris": {"ios": "https://dc.lft.to/lastmile_qr_scan", "android": "https://dc.lft.to/lastmile_qr_scan"}}, {"lon": -77.026879, "fusion_lat": 0.0, "type": "electric_scooter", "lat": 38.89981433333333, "is_disabled": 0, "name": "1389f284a53f56578089a935f6f9e48a", "is_reserved": 0, "bike_id": "1389f284a53f56578089a935f6f9e48a", "fusion_lon": 0.0, "rental_uris": {"ios": "https://dc.lft.to/lastmile_qr_scan", "android": "https://dc.lft.to/lastmile_qr_scan"}}, {"lon": -77.021509, "fusion_lat": 0.0, "type": "electric_scooter", "lat": 38.926024, "is_disabled": 0, "name": "68822b3740c0f14d3f7b95a507516f9a", "is_reserved": 0, "bike_id": "68822b3740c0f14d3f7b95a507516f9a", "fusion_lon": 0.0, "rental_uris": {"ios": "https://dc.lft.to/lastmile_qr_scan", "android": "https://dc.lft.to/lastmile_qr_scan"}}, {"lon": -77.0215765, "fusion_lat": 0.0, "type": "electric_scooter", "lat": 38.9261065, "is_disabled": 0, "name": "c33b92c190414cbf4a4984f6219e4a76", "is_reserved": 0, "bike_id": "c33b92c190414cbf4a4984f6219e4a76", "fusion_lon": 0.0, "rental_uris": {"ios": "https://dc.lft.to/lastmile_qr_scan", "android": "https://dc.lft.to/lastmile_qr_scan"}}, {"lon": -76.9970395, "fusion_lat": 0.0, "type": "electric_scooter", "lat": 38.90833083333333, "is_disabled": 0, "name": "8e4d6dad130b0c5edb8420c362a58141", "is_reserved": 0, "bike_id": "8e4d6dad130b0c5edb8420c362a58141", "fusion_lon": 0.0, "rental_uris": {"ios": "https://dc.lft.to/lastmile_qr_scan", "android": "https://dc.lft.to/lastmile_qr_scan"}}, {"lon": -77.00201166666666, "fusion_lat": 0.0, "type": "electric_scooter", "lat": 38.9002745, "is_disabled": 0, "name": "01dff4e464c7c6601a8772164f15a534", "is_reserved": 0, "bike_id": "01dff4e464c7c6601a8772164f15a534", "fusion_lon": 0.0, "rental_uris": {"ios": "https://dc.lft.to/lastmile_qr_scan", "android": "https://dc.lft.to/lastmile_qr_scan"}}, {"lon": -77.02525666666666, "fusion_lat": 0.0, "type": "electric_scooter", "lat": 38.905688166666664, "is_disabled": 0, "name": "fb414c52be05ecdc573b0743006f5127", "is_reserved": 0, "bike_id": "fb414c52be05ecdc573b0743006f5127", "fusion_lon": 0.0, "rental_uris": {"ios": "https://dc.lft.to/lastmile_qr_scan", "android": "https://dc.lft.to/lastmile_qr_scan"}}, {"lon": -77.0310675, "fusion_lat": 0.0, "type": "electric_scooter", "lat": 38.91695683333333, "is_disabled": 0, "name": "8be85093678e1acb2ee8f67a32a273bd", "is_reserved": 0, "bike_id": "8be85093678e1acb2ee8f67a32a273bd", "fusion_lon": 0.0, "rental_uris": {"ios": "https://dc.lft.to/lastmile_qr_scan", "android": "https://dc.lft.to/lastmile_qr_scan"}}, {"lon": -76.92989616666667, "fusion_lat": 0.0, "type": "electric_scooter", "lat": 38.89300933333333, "is_disabled": 0, "name": "8b903f886bf862fce96dc6a96db20d89", "is_reserved": 0, "bike_id": "8b903f886bf862fce96dc6a96db20d89", "fusion_lon": 0.0, "rental_uris": {"ios": "https://dc.lft.to/lastmile_qr_scan", "android": "https://dc.lft.to/lastmile_qr_scan"}}, {"lon": -77.00735266666666, "fusion_lat": 0.0, "type": "electric_scooter", "lat": 38.89829566666667, "is_disabled": 0, "name": "2bcef5614e9bce23e7b8ef9aa37f834d", "is_reserved": 0, "bike_id": "2bcef5614e9bce23e7b8ef9aa37f834d", "fusion_lon": 0.0, "rental_uris": {"ios": "https://dc.lft.to/lastmile_qr_scan", "android": "https://dc.lft.to/lastmile_qr_scan"}}, {"lon": -77.0058585, "fusion_lat": 0.0, "type": "electric_scooter", "lat": 38.87753466666667, "is_disabled": 0, "name": "795fa7efd18622d437f58316ad974941", "is_reserved": 0, "bike_id": "795fa7efd18622d437f58316ad974941", "fusion_lon": 0.0, "rental_uris": {"ios": "https://dc.lft.to/lastmile_qr_scan", "android": "https://dc.lft.to/lastmile_qr_scan"}}, {"lon": -77.01764433333334, "fusion_lat": 0.0, "type": "electric_scooter", "lat": 38.93893516666667, "is_disabled": 0, "name": "d86fd88b61218a3ff9aa242b9af2811b", "is_reserved": 0, "bike_id": "d86fd88b61218a3ff9aa242b9af2811b", "fusion_lon": 0.0, "rental_uris": {"ios": "https://dc.lft.to/lastmile_qr_scan", "android": "https://dc.lft.to/lastmile_qr_scan"}}, {"lon": -77.02004166666667, "fusion_lat": 0.0, "type": "electric_scooter", "lat": 38.892452666666664, "is_disabled": 0, "name": "46f3bfef9c1b73cf4d3d2b2a4ee43819", "is_reserved": 0, "bike_id": "46f3bfef9c1b73cf4d3d2b2a4ee43819", "fusion_lon": 0.0, "rental_uris": {"ios": "https://dc.lft.to/lastmile_qr_scan", "android": "https://dc.lft.to/lastmile_qr_scan"}}, {"lon": -77.02427016666667, "fusion_lat": 0.0, "type": "electric_scooter", "lat": 38.9602595, "is_disabled": 0, "name": "4f076762a164ae238beaca4e6492de7e", "is_reserved": 0, "bike_id": "4f076762a164ae238beaca4e6492de7e", "fusion_lon": 0.0, "rental_uris": {"ios": "https://dc.lft.to/lastmile_qr_scan", "android": "https://dc.lft.to/lastmile_qr_scan"}}, {"lon": -77.0327865, "fusion_lat": 0.0, "type": "electric_scooter", "lat": 38.929478, "is_disabled": 0, "name": "4f2b5442500177c016c4f29d574fc80e", "is_reserved": 0, "bike_id": "4f2b5442500177c016c4f29d574fc80e", "fusion_lon": 0.0, "rental_uris": {"ios": "https://dc.lft.to/lastmile_qr_scan", "android": "https://dc.lft.to/lastmile_qr_scan"}}, {"lon": -77.0282355, "fusion_lat": 0.0, "type": "electric_scooter", "lat": 38.902585333333334, "is_disabled": 0, "name": "b8c77b080ce9e3ee276901c27e5a2565", "is_reserved": 0, "bike_id": "b8c77b080ce9e3ee276901c27e5a2565", "fusion_lon": 0.0, "rental_uris": {"ios": "https://dc.lft.to/lastmile_qr_scan", "android": "https://dc.lft.to/lastmile_qr_scan"}}, {"lon": -76.97705216666667, "fusion_lat": 0.0, "type": "electric_scooter", "lat": 38.88820916666667, "is_disabled": 0, "name": "b0f40654a1d44a485a8f4152e137fed4", "is_reserved": 0, "bike_id": "b0f40654a1d44a485a8f4152e137fed4", "fusion_lon": 0.0, "rental_uris": {"ios": "https://dc.lft.to/lastmile_qr_scan", "android": "https://dc.lft.to/lastmile_qr_scan"}}, {"lon": -77.0431715, "fusion_lat": 0.0, "type": "electric_scooter", "lat": 38.90042016666666, "is_disabled": 0, "name": "805117cf346b3f22c11d662b75e6b11e", "is_reserved": 0, "bike_id": "805117cf346b3f22c11d662b75e6b11e", "fusion_lon": 0.0, "rental_uris": {"ios": "https://dc.lft.to/lastmile_qr_scan", "android": "https://dc.lft.to/lastmile_qr_scan"}}, {"lon": -77.08759966666666, "fusion_lat": 0.0, "type": "electric_bike", "lat": 38.806533, "is_disabled": 0, "name": "389d07dc054f45cbf02c695df2b432cc", "is_reserved": 0, "bike_id": "389d07dc054f45cbf02c695df2b432cc", "fusion_lon": 0.0, "rental_uris": {"ios": "https://dc.lft.to/lastmile_qr_scan", "android": "https://dc.lft.to/lastmile_qr_scan"}}, {"lon": -77.04876566666667, "fusion_lat": 0.0, "type": "electric_scooter", "lat": 38.89860016666667, "is_disabled": 0, "name": "57fd1a5a3c868b190068532df433e201", "is_reserved": 0, "bike_id": "57fd1a5a3c868b190068532df433e201", "fusion_lon": 0.0, "rental_uris": {"ios": "https://dc.lft.to/lastmile_qr_scan", "android": "https://dc.lft.to/lastmile_qr_scan"}}, {"lon": -76.97458983333334, "fusion_lat": 0.0, "type": "electric_bike", "lat": 38.8559385, "is_disabled": 0, "name": "5f9a528d39cffb4ff84ba55d11dcf2ec", "is_reserved": 0, "bike_id": "5f9a528d39cffb4ff84ba55d11dcf2ec", "fusion_lon": 0.0, "rental_uris": {"ios": "https://dc.lft.to/lastmile_qr_scan", "android": "https://dc.lft.to/lastmile_qr_scan"}}, {"lon": -77.05573516666666, "fusion_lat": 0.0, "type": "electric_scooter", "lat": 38.93058116666667, "is_disabled": 0, "name": "9a1d357cab4316a862dec07a2828bdd2", "is_reserved": 0, "bike_id": "9a1d357cab4316a862dec07a2828bdd2", "fusion_lon": 0.0, "rental_uris": {"ios": "https://dc.lft.to/lastmile_qr_scan", "android": "https://dc.lft.to/lastmile_qr_scan"}}, {"lon": -77.0404435, "fusion_lat": 0.0, "type": "electric_scooter", "lat": 38.90605433333333, "is_disabled": 0, "name": "c53cfeb85003d17240b080a8457dead9", "is_reserved": 0, "bike_id": "c53cfeb85003d17240b080a8457dead9", "fusion_lon": 0.0, "rental_uris": {"ios": "https://dc.lft.to/lastmile_qr_scan", "android": "https://dc.lft.to/lastmile_qr_scan"}}, {"lon": -76.99015016666667, "fusion_lat": 0.0, "type": "electric_bike", "lat": 38.943132, "is_disabled": 0, "name": "1c1299d5a0e42d95274a46aa251035ce", "is_reserved": 0, "bike_id": "1c1299d5a0e42d95274a46aa251035ce", "fusion_lon": 0.0, "rental_uris": {"ios": "https://dc.lft.to/lastmile_qr_scan", "android": "https://dc.lft.to/lastmile_qr_scan"}}, {"lon": -77.02201866666667, "fusion_lat": 0.0, "type": "electric_scooter", "lat": 38.9247335, "is_disabled": 0, "name": "bf0d24ffa433b7075d45ca64fbbb8238", "is_reserved": 0, "bike_id": "bf0d24ffa433b7075d45ca64fbbb8238", "fusion_lon": 0.0, "rental_uris": {"ios": "https://dc.lft.to/lastmile_qr_scan", "android": "https://dc.lft.to/lastmile_qr_scan"}}, {"lon": -77.035325, "fusion_lat": 0.0, "type": "electric_scooter", "lat": 38.903937, "is_disabled": 0, "name": "fec71bc87d825fc801ecb6742b9b9b32", "is_reserved": 0, "bike_id": "fec71bc87d825fc801ecb6742b9b9b32", "fusion_lon": 0.0, "rental_uris": {"ios": "https://dc.lft.to/lastmile_qr_scan", "android": "https://dc.lft.to/lastmile_qr_scan"}}, {"lon": -77.02396033333333, "fusion_lat": 0.0, "type": "electric_scooter", "lat": 38.896445, "is_disabled": 0, "name": "1043b935ce9036b1bad46f0b291c0098", "is_reserved": 0, "bike_id": "1043b935ce9036b1bad46f0b291c0098", "fusion_lon": 0.0, "rental_uris": {"ios": "https://dc.lft.to/lastmile_qr_scan", "android": "https://dc.lft.to/lastmile_qr_scan"}}, {"lon": -77.01656066666666, "fusion_lat": 0.0, "type": "electric_scooter", "lat": 38.87634166666667, "is_disabled": 0, "name": "d95113bb9108f6dd5721d8e0cc371161", "is_reserved": 0, "bike_id": "d95113bb9108f6dd5721d8e0cc371161", "fusion_lon": 0.0, "rental_uris": {"ios": "https://dc.lft.to/lastmile_qr_scan", "android": "https://dc.lft.to/lastmile_qr_scan"}}, {"lon": -76.927405, "fusion_lat": 0.0, "type": "electric_scooter", "lat": 38.90069833333333, "is_disabled": 0, "name": "69ebc2b1a5fe852001eadbf188c7ccb7", "is_reserved": 0, "bike_id": "69ebc2b1a5fe852001eadbf188c7ccb7", "fusion_lon": 0.0, "rental_uris": {"ios": "https://dc.lft.to/lastmile_qr_scan", "android": "https://dc.lft.to/lastmile_qr_scan"}}, {"lon": -77.07146916666666, "fusion_lat": 0.0, "type": "electric_scooter", "lat": 38.920229666666664, "is_disabled": 0, "name": "78f075518e28f3054ddd79165c04351d", "is_reserved": 0, "bike_id": "78f075518e28f3054ddd79165c04351d", "fusion_lon": 0.0, "rental_uris": {"ios": "https://dc.lft.to/lastmile_qr_scan", "android": "https://dc.lft.to/lastmile_qr_scan"}}, {"lon": -77.0220715, "fusion_lat": 0.0, "type": "electric_scooter", "lat": 38.9219405, "is_disabled": 0, "name": "f66a8d7035191726dacb186528e3486d", "is_reserved": 0, "bike_id": "f66a8d7035191726dacb186528e3486d", "fusion_lon": 0.0, "rental_uris": {"ios": "https://dc.lft.to/lastmile_qr_scan", "android": "https://dc.lft.to/lastmile_qr_scan"}}, {"lon": -76.99198066666666, "fusion_lat": 0.0, "type": "electric_scooter", "lat": 38.88268083333333, "is_disabled": 0, "name": "ec9856be5b6da0dd9b91e529b8be7930", "is_reserved": 0, "bike_id": "ec9856be5b6da0dd9b91e529b8be7930", "fusion_lon": 0.0, "rental_uris": {"ios": "https://dc.lft.to/lastmile_qr_scan", "android": "https://dc.lft.to/lastmile_qr_scan"}}, {"lon": -77.0284055, "fusion_lat": 0.0, "type": "electric_scooter", "lat": 38.93528633333333, "is_disabled": 0, "name": "e5545494ab5aa2f3bba5bfb9883abee9", "is_reserved": 0, "bike_id": "e5545494ab5aa2f3bba5bfb9883abee9", "fusion_lon": 0.0, "rental_uris": {"ios": "https://dc.lft.to/lastmile_qr_scan", "android": "https://dc.lft.to/lastmile_qr_scan"}}, {"lon": -77.035628, "fusion_lat": 0.0, "type": "electric_scooter", "lat": 38.9073955, "is_disabled": 0, "name": "61f6435605549b2f758d602ac385c3de", "is_reserved": 0, "bike_id": "61f6435605549b2f758d602ac385c3de", "fusion_lon": 0.0, "rental_uris": {"ios": "https://dc.lft.to/lastmile_qr_scan", "android": "https://dc.lft.to/lastmile_qr_scan"}}, {"lon": -76.99761766666667, "fusion_lat": 0.0, "type": "electric_bike", "lat": 38.95308583333333, "is_disabled": 0, "name": "6602864f905d814ea2333cb2606a8bad", "is_reserved": 0, "bike_id": "6602864f905d814ea2333cb2606a8bad", "fusion_lon": 0.0, "rental_uris": {"ios": "https://dc.lft.to/lastmile_qr_scan", "android": "https://dc.lft.to/lastmile_qr_scan"}}, {"lon": -77.03469216666667, "fusion_lat": 0.0, "type": "electric_scooter", "lat": 38.90566416666667, "is_disabled": 0, "name": "178c09ddb6324d7dc8a05e086b4dbba1", "is_reserved": 0, "bike_id": "178c09ddb6324d7dc8a05e086b4dbba1", "fusion_lon": 0.0, "rental_uris": {"ios": "https://dc.lft.to/lastmile_qr_scan", "android": "https://dc.lft.to/lastmile_qr_scan"}}, {"lon": -77.03757333333333, "fusion_lat": 0.0, "type": "electric_scooter", "lat": 38.9268435, "is_disabled": 0, "name": "77f40ee7f05953adfff43f243e23e0ca", "is_reserved": 0, "bike_id": "77f40ee7f05953adfff43f243e23e0ca", "fusion_lon": 0.0, "rental_uris": {"ios": "https://dc.lft.to/lastmile_qr_scan", "android": "https://dc.lft.to/lastmile_qr_scan"}}, {"lon": -77.025899, "fusion_lat": 0.0, "type": "electric_scooter", "lat": 38.90430583333333, "is_disabled": 0, "name": "e52bd97bb478e935e3fdb53ed9d8b6cf", "is_reserved": 0, "bike_id": "e52bd97bb478e935e3fdb53ed9d8b6cf", "fusion_lon": 0.0, "rental_uris": {"ios": "https://dc.lft.to/lastmile_qr_scan", "android": "https://dc.lft.to/lastmile_qr_scan"}}, {"lon": -77.0245715, "fusion_lat": 0.0, "type": "electric_scooter", "lat": 38.94730833333333, "is_disabled": 0, "name": "fa622daac078597233dcc78f779ff9e6", "is_reserved": 0, "bike_id": "fa622daac078597233dcc78f779ff9e6", "fusion_lon": 0.0, "rental_uris": {"ios": "https://dc.lft.to/lastmile_qr_scan", "android": "https://dc.lft.to/lastmile_qr_scan"}}, {"lon": -77.01171033333334, "fusion_lat": 0.0, "type": "electric_scooter", "lat": 38.89616816666667, "is_disabled": 0, "name": "e7fc93741c07792adb369ebbf82a0863", "is_reserved": 0, "bike_id": "e7fc93741c07792adb369ebbf82a0863", "fusion_lon": 0.0, "rental_uris": {"ios": "https://dc.lft.to/lastmile_qr_scan", "android": "https://dc.lft.to/lastmile_qr_scan"}}, {"lon": -77.013742, "fusion_lat": 0.0, "type": "electric_scooter", "lat": 38.8868605, "is_disabled": 0, "name": "09525c8620b0b661faed52ce3bf0382a", "is_reserved": 0, "bike_id": "09525c8620b0b661faed52ce3bf0382a", "fusion_lon": 0.0, "rental_uris": {"ios": "https://dc.lft.to/lastmile_qr_scan", "android": "https://dc.lft.to/lastmile_qr_scan"}}, {"lon": -77.02697133333334, "fusion_lat": 0.0, "type": "electric_scooter", "lat": 38.91991616666667, "is_disabled": 0, "name": "925b68e14c2d51df9a130a5d7a3a0083", "is_reserved": 0, "bike_id": "925b68e14c2d51df9a130a5d7a3a0083", "fusion_lon": 0.0, "rental_uris": {"ios": "https://dc.lft.to/lastmile_qr_scan", "android": "https://dc.lft.to/lastmile_qr_scan"}}, {"lon": -77.03568666666666, "fusion_lat": 0.0, "type": "electric_scooter", "lat": 38.90563816666667, "is_disabled": 0, "name": "1eee6f7dfd9013689436e155427398da", "is_reserved": 0, "bike_id": "1eee6f7dfd9013689436e155427398da", "fusion_lon": 0.0, "rental_uris": {"ios": "https://dc.lft.to/lastmile_qr_scan", "android": "https://dc.lft.to/lastmile_qr_scan"}}, {"lon": -77.0415535, "fusion_lat": 0.0, "type": "electric_scooter", "lat": 38.917433833333334, "is_disabled": 0, "name": "9d66573f972e92550e69fc29980bb9e0", "is_reserved": 0, "bike_id": "9d66573f972e92550e69fc29980bb9e0", "fusion_lon": 0.0, "rental_uris": {"ios": "https://dc.lft.to/lastmile_qr_scan", "android": "https://dc.lft.to/lastmile_qr_scan"}}, {"lon": -77.03736633333334, "fusion_lat": 0.0, "type": "electric_scooter", "lat": 38.8799485, "is_disabled": 0, "name": "8ff4012901eaa7c24e5fb0db79c0d527", "is_reserved": 0, "bike_id": "8ff4012901eaa7c24e5fb0db79c0d527", "fusion_lon": 0.0, "rental_uris": {"ios": "https://dc.lft.to/lastmile_qr_scan", "android": "https://dc.lft.to/lastmile_qr_scan"}}, {"lon": -77.03205166666666, "fusion_lat": 0.0, "type": "electric_scooter", "lat": 38.9297305, "is_disabled": 0, "name": "1adafc569db8708bd69bf5ece2d49d0f", "is_reserved": 0, "bike_id": "1adafc569db8708bd69bf5ece2d49d0f", "fusion_lon": 0.0, "rental_uris": {"ios": "https://dc.lft.to/lastmile_qr_scan", "android": "https://dc.lft.to/lastmile_qr_scan"}}, {"lon": -77.01018666666667, "fusion_lat": 0.0, "type": "electric_scooter", "lat": 38.916541333333335, "is_disabled": 0, "name": "ff3c9c75b082972a1161e902035f662c", "is_reserved": 0, "bike_id": "ff3c9c75b082972a1161e902035f662c", "fusion_lon": 0.0, "rental_uris": {"ios": "https://dc.lft.to/lastmile_qr_scan", "android": "https://dc.lft.to/lastmile_qr_scan"}}, {"lon": -77.0313885, "fusion_lat": 0.0, "type": "electric_scooter", "lat": 38.902664333333334, "is_disabled": 0, "name": "6b8bda5cd8d3f77571a46b17097a468e", "is_reserved": 0, "bike_id": "6b8bda5cd8d3f77571a46b17097a468e", "fusion_lon": 0.0, "rental_uris": {"ios": "https://dc.lft.to/lastmile_qr_scan", "android": "https://dc.lft.to/lastmile_qr_scan"}}, {"lon": -77.01218233333333, "fusion_lat": 0.0, "type": "electric_scooter", "lat": 38.8979935, "is_disabled": 0, "name": "664e6fb44c97b6fab8e5a36bf1374784", "is_reserved": 0, "bike_id": "664e6fb44c97b6fab8e5a36bf1374784", "fusion_lon": 0.0, "rental_uris": {"ios": "https://dc.lft.to/lastmile_qr_scan", "android": "https://dc.lft.to/lastmile_qr_scan"}}, {"lon": -76.99257716666666, "fusion_lat": 0.0, "type": "electric_bike", "lat": 38.807333666666665, "is_disabled": 0, "name": "62ca75ddd9173bfb39d3ad463a0a679d", "is_reserved": 0, "bike_id": "62ca75ddd9173bfb39d3ad463a0a679d", "fusion_lon": 0.0, "rental_uris": {"ios": "https://dc.lft.to/lastmile_qr_scan", "android": "https://dc.lft.to/lastmile_qr_scan"}}, {"lon": -76.93022416666666, "fusion_lat": 0.0, "type": "electric_scooter", "lat": 38.901687, "is_disabled": 0, "name": "191e651a2ce92ee5052bfc0b793b064a", "is_reserved": 0, "bike_id": "191e651a2ce92ee5052bfc0b793b064a", "fusion_lon": 0.0, "rental_uris": {"ios": "https://dc.lft.to/lastmile_qr_scan", "android": "https://dc.lft.to/lastmile_qr_scan"}}, {"lon": -77.03157066666667, "fusion_lat": 0.0, "type": "electric_scooter", "lat": 38.9059805, "is_disabled": 0, "name": "ba5c9e63059e1913de99f40f82bef14f", "is_reserved": 0, "bike_id": "ba5c9e63059e1913de99f40f82bef14f", "fusion_lon": 0.0, "rental_uris": {"ios": "https://dc.lft.to/lastmile_qr_scan", "android": "https://dc.lft.to/lastmile_qr_scan"}}, {"lon": -77.02962383333333, "fusion_lat": 0.0, "type": "electric_scooter", "lat": 38.92683983333333, "is_disabled": 0, "name": "0eccd4ba56ce42ba442895ff4de25f8d", "is_reserved": 0, "bike_id": "0eccd4ba56ce42ba442895ff4de25f8d", "fusion_lon": 0.0, "rental_uris": {"ios": "https://dc.lft.to/lastmile_qr_scan", "android": "https://dc.lft.to/lastmile_qr_scan"}}, {"lon": -77.0229665, "fusion_lat": 0.0, "type": "electric_scooter", "lat": 38.902051666666665, "is_disabled": 0, "name": "334c4870b14079788038aec618881793", "is_reserved": 0, "bike_id": "334c4870b14079788038aec618881793", "fusion_lon": 0.0, "rental_uris": {"ios": "https://dc.lft.to/lastmile_qr_scan", "android": "https://dc.lft.to/lastmile_qr_scan"}}, {"lon": -76.98000516666667, "fusion_lat": 0.0, "type": "electric_scooter", "lat": 38.898832666666664, "is_disabled": 0, "name": "4afc3ac8714919d601fe0e9a6889ca31", "is_reserved": 0, "bike_id": "4afc3ac8714919d601fe0e9a6889ca31", "fusion_lon": 0.0, "rental_uris": {"ios": "https://dc.lft.to/lastmile_qr_scan", "android": "https://dc.lft.to/lastmile_qr_scan"}}, {"lon": -77.04200216666666, "fusion_lat": 0.0, "type": "electric_scooter", "lat": 38.90739266666667, "is_disabled": 0, "name": "a0ff69fa9169fadb6b3525ee5a137bb6", "is_reserved": 0, "bike_id": "a0ff69fa9169fadb6b3525ee5a137bb6", "fusion_lon": 0.0, "rental_uris": {"ios": "https://dc.lft.to/lastmile_qr_scan", "android": "https://dc.lft.to/lastmile_qr_scan"}}, {"lon": -77.061482, "fusion_lat": 0.0, "type": "electric_scooter", "lat": 38.943093166666664, "is_disabled": 0, "name": "8a8917ea96d5341fa87b4e7d7fdcd1ce", "is_reserved": 0, "bike_id": "8a8917ea96d5341fa87b4e7d7fdcd1ce", "fusion_lon": 0.0, "rental_uris": {"ios": "https://dc.lft.to/lastmile_qr_scan", "android": "https://dc.lft.to/lastmile_qr_scan"}}, {"lon": -76.99774383333333, "fusion_lat": 0.0, "type": "electric_scooter", "lat": 38.922891666666665, "is_disabled": 0, "name": "0b8126fbdf3a8cfab19e3d3b29931a71", "is_reserved": 0, "bike_id": "0b8126fbdf3a8cfab19e3d3b29931a71", "fusion_lon": 0.0, "rental_uris": {"ios": "https://dc.lft.to/lastmile_qr_scan", "android": "https://dc.lft.to/lastmile_qr_scan"}}, {"lon": -77.04504583333333, "fusion_lat": 0.0, "type": "electric_scooter", "lat": 38.89222783333334, "is_disabled": 0, "name": "67a0828ad2ac6d3af3fc4ace07173db4", "is_reserved": 0, "bike_id": "67a0828ad2ac6d3af3fc4ace07173db4", "fusion_lon": 0.0, "rental_uris": {"ios": "https://dc.lft.to/lastmile_qr_scan", "android": "https://dc.lft.to/lastmile_qr_scan"}}, {"lon": -77.02151766666667, "fusion_lat": 0.0, "type": "electric_scooter", "lat": 38.8791895, "is_disabled": 0, "name": "22282898feb069ee17b160cf8f168080", "is_reserved": 0, "bike_id": "22282898feb069ee17b160cf8f168080", "fusion_lon": 0.0, "rental_uris": {"ios": "https://dc.lft.to/lastmile_qr_scan", "android": "https://dc.lft.to/lastmile_qr_scan"}}, {"lon": -76.98466716666667, "fusion_lat": 0.0, "type": "electric_bike", "lat": 38.90022716666667, "is_disabled": 0, "name": "135ad6dfb7f2daab2a601b6c3027c632", "is_reserved": 0, "bike_id": "135ad6dfb7f2daab2a601b6c3027c632", "fusion_lon": 0.0, "rental_uris": {"ios": "https://dc.lft.to/lastmile_qr_scan", "android": "https://dc.lft.to/lastmile_qr_scan"}}, {"lon": -77.0418605, "fusion_lat": 0.0, "type": "electric_scooter", "lat": 38.899766166666666, "is_disabled": 0, "name": "0d57392b6f6a9f181b0f4e1ec5462b13", "is_reserved": 0, "bike_id": "0d57392b6f6a9f181b0f4e1ec5462b13", "fusion_lon": 0.0, "rental_uris": {"ios": "https://dc.lft.to/lastmile_qr_scan", "android": "https://dc.lft.to/lastmile_qr_scan"}}, {"lon": -77.02301933333334, "fusion_lat": 0.0, "type": "electric_scooter", "lat": 38.920582833333334, "is_disabled": 0, "name": "4a0dd9212dcc2432013b27c735662846", "is_reserved": 0, "bike_id": "4a0dd9212dcc2432013b27c735662846", "fusion_lon": 0.0, "rental_uris": {"ios": "https://dc.lft.to/lastmile_qr_scan", "android": "https://dc.lft.to/lastmile_qr_scan"}}, {"lon": -77.0209975, "fusion_lat": 0.0, "type": "electric_scooter", "lat": 38.92151333333333, "is_disabled": 0, "name": "7f97a47e9d3ff3d3be913e931ce55fb3", "is_reserved": 0, "bike_id": "7f97a47e9d3ff3d3be913e931ce55fb3", "fusion_lon": 0.0, "rental_uris": {"ios": "https://dc.lft.to/lastmile_qr_scan", "android": "https://dc.lft.to/lastmile_qr_scan"}}, {"lon": -77.08758416666667, "fusion_lat": 0.0, "type": "electric_scooter", "lat": 38.9356505, "is_disabled": 0, "name": "862171e08a31c711cf037abf77c32f5a", "is_reserved": 0, "bike_id": "862171e08a31c711cf037abf77c32f5a", "fusion_lon": 0.0, "rental_uris": {"ios": "https://dc.lft.to/lastmile_qr_scan", "android": "https://dc.lft.to/lastmile_qr_scan"}}, {"lon": -77.00355183333333, "fusion_lat": 0.0, "type": "electric_scooter", "lat": 38.88994116666667, "is_disabled": 0, "name": "a7bf79284e3bbdf5c9c660ecdf2629bf", "is_reserved": 0, "bike_id": "a7bf79284e3bbdf5c9c660ecdf2629bf", "fusion_lon": 0.0, "rental_uris": {"ios": "https://dc.lft.to/lastmile_qr_scan", "android": "https://dc.lft.to/lastmile_qr_scan"}}, {"lon": -77.03255966666667, "fusion_lat": 0.0, "type": "electric_scooter", "lat": 38.93525283333334, "is_disabled": 0, "name": "034ad08c012f502ee3217d35a2dcbc77", "is_reserved": 0, "bike_id": "034ad08c012f502ee3217d35a2dcbc77", "fusion_lon": 0.0, "rental_uris": {"ios": "https://dc.lft.to/lastmile_qr_scan", "android": "https://dc.lft.to/lastmile_qr_scan"}}, {"lon": -77.03403316666666, "fusion_lat": 0.0, "type": "electric_scooter", "lat": 38.91689316666667, "is_disabled": 0, "name": "3b00b0bfe43295c1f1c12e71fa7f5255", "is_reserved": 0, "bike_id": "3b00b0bfe43295c1f1c12e71fa7f5255", "fusion_lon": 0.0, "rental_uris": {"ios": "https://dc.lft.to/lastmile_qr_scan", "android": "https://dc.lft.to/lastmile_qr_scan"}}, {"lon": -77.01748833333333, "fusion_lat": 0.0, "type": "electric_scooter", "lat": 38.893529, "is_disabled": 0, "name": "a402543d379f786da83b11e9b6ec9b9f", "is_reserved": 0, "bike_id": "a402543d379f786da83b11e9b6ec9b9f", "fusion_lon": 0.0, "rental_uris": {"ios": "https://dc.lft.to/lastmile_qr_scan", "android": "https://dc.lft.to/lastmile_qr_scan"}}, {"lon": -77.031973, "fusion_lat": 0.0, "type": "electric_scooter", "lat": 38.9298115, "is_disabled": 0, "name": "27f3b52fe4e8365f1fd05e2a2b863188", "is_reserved": 0, "bike_id": "27f3b52fe4e8365f1fd05e2a2b863188", "fusion_lon": 0.0, "rental_uris": {"ios": "https://dc.lft.to/lastmile_qr_scan", "android": "https://dc.lft.to/lastmile_qr_scan"}}, {"lon": -76.98828633333333, "fusion_lat": 0.0, "type": "electric_scooter", "lat": 38.90031533333333, "is_disabled": 0, "name": "25042f6572e2012ab11e9808289f3867", "is_reserved": 0, "bike_id": "25042f6572e2012ab11e9808289f3867", "fusion_lon": 0.0, "rental_uris": {"ios": "https://dc.lft.to/lastmile_qr_scan", "android": "https://dc.lft.to/lastmile_qr_scan"}}, {"lon": -76.97741516666666, "fusion_lat": 0.0, "type": "electric_scooter", "lat": 38.86484133333333, "is_disabled": 0, "name": "bacac32e2e62893fdc1c5679dcc14c48", "is_reserved": 0, "bike_id": "bacac32e2e62893fdc1c5679dcc14c48", "fusion_lon": 0.0, "rental_uris": {"ios": "https://dc.lft.to/lastmile_qr_scan", "android": "https://dc.lft.to/lastmile_qr_scan"}}, {"lon": -77.03442216666667, "fusion_lat": 0.0, "type": "electric_scooter", "lat": 38.9191205, "is_disabled": 0, "name": "f34f7f8b44a93f275dafaf580c78711a", "is_reserved": 0, "bike_id": "f34f7f8b44a93f275dafaf580c78711a", "fusion_lon": 0.0, "rental_uris": {"ios": "https://dc.lft.to/lastmile_qr_scan", "android": "https://dc.lft.to/lastmile_qr_scan"}}, {"lon": -76.9957515, "fusion_lat": 0.0, "type": "electric_scooter", "lat": 38.8948115, "is_disabled": 0, "name": "96f3bc5d4f8ac081c44e4505a391bc2a", "is_reserved": 0, "bike_id": "96f3bc5d4f8ac081c44e4505a391bc2a", "fusion_lon": 0.0, "rental_uris": {"ios": "https://dc.lft.to/lastmile_qr_scan", "android": "https://dc.lft.to/lastmile_qr_scan"}}, {"lon": -77.01955116666667, "fusion_lat": 0.0, "type": "electric_scooter", "lat": 38.923723833333334, "is_disabled": 0, "name": "b02177935e7dac739e5c8c3412e55a27", "is_reserved": 0, "bike_id": "b02177935e7dac739e5c8c3412e55a27", "fusion_lon": 0.0, "rental_uris": {"ios": "https://dc.lft.to/lastmile_qr_scan", "android": "https://dc.lft.to/lastmile_qr_scan"}}, {"lon": -76.9425215, "fusion_lat": 0.0, "type": "electric_scooter", "lat": 38.89175483333333, "is_disabled": 0, "name": "73a88f0ff427f027c9d1e2cacbdb51de", "is_reserved": 0, "bike_id": "73a88f0ff427f027c9d1e2cacbdb51de", "fusion_lon": 0.0, "rental_uris": {"ios": "https://dc.lft.to/lastmile_qr_scan", "android": "https://dc.lft.to/lastmile_qr_scan"}}, {"lon": -77.04481066666666, "fusion_lat": 0.0, "type": "electric_scooter", "lat": 38.89833816666667, "is_disabled": 0, "name": "f8ad8637f6974b9f0d435a40eacf1fc8", "is_reserved": 0, "bike_id": "f8ad8637f6974b9f0d435a40eacf1fc8", "fusion_lon": 0.0, "rental_uris": {"ios": "https://dc.lft.to/lastmile_qr_scan", "android": "https://dc.lft.to/lastmile_qr_scan"}}, {"lon": -76.92778816666667, "fusion_lat": 0.0, "type": "electric_scooter", "lat": 38.89536866666667, "is_disabled": 0, "name": "f9aee62752dfeffd346550b3bbb7933b", "is_reserved": 0, "bike_id": "f9aee62752dfeffd346550b3bbb7933b", "fusion_lon": 0.0, "rental_uris": {"ios": "https://dc.lft.to/lastmile_qr_scan", "android": "https://dc.lft.to/lastmile_qr_scan"}}, {"lon": -77.02227466666666, "fusion_lat": 0.0, "type": "electric_scooter", "lat": 38.91268316666667, "is_disabled": 0, "name": "1b6083634c951567087c242f7454b10c", "is_reserved": 0, "bike_id": "1b6083634c951567087c242f7454b10c", "fusion_lon": 0.0, "rental_uris": {"ios": "https://dc.lft.to/lastmile_qr_scan", "android": "https://dc.lft.to/lastmile_qr_scan"}}, {"lon": -77.03607666666667, "fusion_lat": 0.0, "type": "electric_scooter", "lat": 38.96678133333333, "is_disabled": 0, "name": "b6a8f26ce9d014f6e2865edcd912c78e", "is_reserved": 0, "bike_id": "b6a8f26ce9d014f6e2865edcd912c78e", "fusion_lon": 0.0, "rental_uris": {"ios": "https://dc.lft.to/lastmile_qr_scan", "android": "https://dc.lft.to/lastmile_qr_scan"}}, {"lon": -77.0317465, "fusion_lat": 0.0, "type": "electric_scooter", "lat": 38.886754833333335, "is_disabled": 0, "name": "4e74333a29d2a6962e891cd151d1eeca", "is_reserved": 0, "bike_id": "4e74333a29d2a6962e891cd151d1eeca", "fusion_lon": 0.0, "rental_uris": {"ios": "https://dc.lft.to/lastmile_qr_scan", "android": "https://dc.lft.to/lastmile_qr_scan"}}, {"lon": -77.0176965, "fusion_lat": 0.0, "type": "electric_scooter", "lat": 38.90450666666667, "is_disabled": 0, "name": "452a2965434e920d52db26037b40787b", "is_reserved": 0, "bike_id": "452a2965434e920d52db26037b40787b", "fusion_lon": 0.0, "rental_uris": {"ios": "https://dc.lft.to/lastmile_qr_scan", "android": "https://dc.lft.to/lastmile_qr_scan"}}, {"lon": -77.00277666666666, "fusion_lat": 0.0, "type": "electric_scooter", "lat": 38.95238616666666, "is_disabled": 0, "name": "e82d9d5a22a351b5ee8091c838023d34", "is_reserved": 0, "bike_id": "e82d9d5a22a351b5ee8091c838023d34", "fusion_lon": 0.0, "rental_uris": {"ios": "https://dc.lft.to/lastmile_qr_scan", "android": "https://dc.lft.to/lastmile_qr_scan"}}, {"lon": -76.98333083333333, "fusion_lat": 0.0, "type": "electric_scooter", "lat": 38.895449, "is_disabled": 0, "name": "51d69aefe2b1eadd8d3bbbeb22bf26c4", "is_reserved": 0, "bike_id": "51d69aefe2b1eadd8d3bbbeb22bf26c4", "fusion_lon": 0.0, "rental_uris": {"ios": "https://dc.lft.to/lastmile_qr_scan", "android": "https://dc.lft.to/lastmile_qr_scan"}}, {"lon": -77.007679, "fusion_lat": 0.0, "type": "electric_scooter", "lat": 38.953449, "is_disabled": 0, "name": "b2f2faeb63c10955b496d07d2c25477b", "is_reserved": 0, "bike_id": "b2f2faeb63c10955b496d07d2c25477b", "fusion_lon": 0.0, "rental_uris": {"ios": "https://dc.lft.to/lastmile_qr_scan", "android": "https://dc.lft.to/lastmile_qr_scan"}}, {"lon": -77.038299, "fusion_lat": 0.0, "type": "electric_scooter", "lat": 38.91119333333333, "is_disabled": 0, "name": "594e384c2382d1516848f9d055aefa59", "is_reserved": 0, "bike_id": "594e384c2382d1516848f9d055aefa59", "fusion_lon": 0.0, "rental_uris": {"ios": "https://dc.lft.to/lastmile_qr_scan", "android": "https://dc.lft.to/lastmile_qr_scan"}}, {"lon": -76.97002366666666, "fusion_lat": 0.0, "type": "electric_scooter", "lat": 38.86012916666667, "is_disabled": 0, "name": "14c9b073b1c9f2294a32eac19c256c61", "is_reserved": 0, "bike_id": "14c9b073b1c9f2294a32eac19c256c61", "fusion_lon": 0.0, "rental_uris": {"ios": "https://dc.lft.to/lastmile_qr_scan", "android": "https://dc.lft.to/lastmile_qr_scan"}}, {"lon": -77.02518016666667, "fusion_lat": 0.0, "type": "electric_scooter", "lat": 38.918403833333336, "is_disabled": 0, "name": "99cc5ce3f97a19074cde1a9e2d83a92a", "is_reserved": 0, "bike_id": "99cc5ce3f97a19074cde1a9e2d83a92a", "fusion_lon": 0.0, "rental_uris": {"ios": "https://dc.lft.to/lastmile_qr_scan", "android": "https://dc.lft.to/lastmile_qr_scan"}}, {"lon": -77.04158733333334, "fusion_lat": 0.0, "type": "electric_scooter", "lat": 38.913555333333335, "is_disabled": 0, "name": "fd00d748202fd9c6d57e2040bc351e7b", "is_reserved": 0, "bike_id": "fd00d748202fd9c6d57e2040bc351e7b", "fusion_lon": 0.0, "rental_uris": {"ios": "https://dc.lft.to/lastmile_qr_scan", "android": "https://dc.lft.to/lastmile_qr_scan"}}, {"lon": -77.03301233333333, "fusion_lat": 0.0, "type": "electric_scooter", "lat": 38.94726283333333, "is_disabled": 0, "name": "baa3d8c6b66abc6fa807806b70233958", "is_reserved": 0, "bike_id": "baa3d8c6b66abc6fa807806b70233958", "fusion_lon": 0.0, "rental_uris": {"ios": "https://dc.lft.to/lastmile_qr_scan", "android": "https://dc.lft.to/lastmile_qr_scan"}}, {"lon": -77.09522133333333, "fusion_lat": 0.0, "type": "electric_bike", "lat": 38.83810066666667, "is_disabled": 0, "name": "8805f2f454493cb9116c290149057e45", "is_reserved": 0, "bike_id": "8805f2f454493cb9116c290149057e45", "fusion_lon": 0.0, "rental_uris": {"ios": "https://dc.lft.to/lastmile_qr_scan", "android": "https://dc.lft.to/lastmile_qr_scan"}}, {"lon": -77.02953, "fusion_lat": 0.0, "type": "electric_scooter", "lat": 38.95626433333334, "is_disabled": 0, "name": "77368559f29be7ab6ebaba2044a8cc68", "is_reserved": 0, "bike_id": "77368559f29be7ab6ebaba2044a8cc68", "fusion_lon": 0.0, "rental_uris": {"ios": "https://dc.lft.to/lastmile_qr_scan", "android": "https://dc.lft.to/lastmile_qr_scan"}}, {"lon": -77.032576, "fusion_lat": 0.0, "type": "electric_scooter", "lat": 38.9025325, "is_disabled": 0, "name": "ed2e32e90a5687ea83d661247d6f443a", "is_reserved": 0, "bike_id": "ed2e32e90a5687ea83d661247d6f443a", "fusion_lon": 0.0, "rental_uris": {"ios": "https://dc.lft.to/lastmile_qr_scan", "android": "https://dc.lft.to/lastmile_qr_scan"}}, {"lon": -77.0365995, "fusion_lat": 0.0, "type": "electric_scooter", "lat": 38.915531666666666, "is_disabled": 0, "name": "34d5a7c1639c2d0e1488f7794596f2e0", "is_reserved": 0, "bike_id": "34d5a7c1639c2d0e1488f7794596f2e0", "fusion_lon": 0.0, "rental_uris": {"ios": "https://dc.lft.to/lastmile_qr_scan", "android": "https://dc.lft.to/lastmile_qr_scan"}}, {"lon": -76.92975216666666, "fusion_lat": 0.0, "type": "electric_scooter", "lat": 38.8961575, "is_disabled": 0, "name": "5d9196275a0bdfae13e31b06f2ed2a2c", "is_reserved": 0, "bike_id": "5d9196275a0bdfae13e31b06f2ed2a2c", "fusion_lon": 0.0, "rental_uris": {"ios": "https://dc.lft.to/lastmile_qr_scan", "android": "https://dc.lft.to/lastmile_qr_scan"}}, {"lon": -77.01935833333333, "fusion_lat": 0.0, "type": "electric_scooter", "lat": 38.883754833333334, "is_disabled": 0, "name": "6730d66897ad7e4cfc7a8221742186b8", "is_reserved": 0, "bike_id": "6730d66897ad7e4cfc7a8221742186b8", "fusion_lon": 0.0, "rental_uris": {"ios": "https://dc.lft.to/lastmile_qr_scan", "android": "https://dc.lft.to/lastmile_qr_scan"}}, {"lon": -76.984624, "fusion_lat": 0.0, "type": "electric_scooter", "lat": 38.8936685, "is_disabled": 0, "name": "43b27deb7bad8ac660e553f4f81d0c1f", "is_reserved": 0, "bike_id": "43b27deb7bad8ac660e553f4f81d0c1f", "fusion_lon": 0.0, "rental_uris": {"ios": "https://dc.lft.to/lastmile_qr_scan", "android": "https://dc.lft.to/lastmile_qr_scan"}}, {"lon": -77.1272935, "fusion_lat": 0.0, "type": "electric_bike", "lat": 38.895646666666664, "is_disabled": 0, "name": "6b09af200cdbbedcba74e03a324dfce3", "is_reserved": 0, "bike_id": "6b09af200cdbbedcba74e03a324dfce3", "fusion_lon": 0.0, "rental_uris": {"ios": "https://dc.lft.to/lastmile_qr_scan", "android": "https://dc.lft.to/lastmile_qr_scan"}}, {"lon": -77.03719933333333, "fusion_lat": 0.0, "type": "electric_scooter", "lat": 38.8807425, "is_disabled": 0, "name": "e740756062fb00fda942c27eac3f9304", "is_reserved": 0, "bike_id": "e740756062fb00fda942c27eac3f9304", "fusion_lon": 0.0, "rental_uris": {"ios": "https://dc.lft.to/lastmile_qr_scan", "android": "https://dc.lft.to/lastmile_qr_scan"}}, {"lon": -77.03186583333333, "fusion_lat": 0.0, "type": "electric_scooter", "lat": 38.9160085, "is_disabled": 0, "name": "26542f0c1e472d5e367437db63854761", "is_reserved": 0, "bike_id": "26542f0c1e472d5e367437db63854761", "fusion_lon": 0.0, "rental_uris": {"ios": "https://dc.lft.to/lastmile_qr_scan", "android": "https://dc.lft.to/lastmile_qr_scan"}}, {"lon": -77.04310316666667, "fusion_lat": 0.0, "type": "electric_scooter", "lat": 38.900457333333335, "is_disabled": 0, "name": "87c94e3d2dcecab477c77048298c3826", "is_reserved": 0, "bike_id": "87c94e3d2dcecab477c77048298c3826", "fusion_lon": 0.0, "rental_uris": {"ios": "https://dc.lft.to/lastmile_qr_scan", "android": "https://dc.lft.to/lastmile_qr_scan"}}, {"lon": -76.95914366666666, "fusion_lat": 0.0, "type": "electric_bike", "lat": 38.949253666666664, "is_disabled": 0, "name": "c67f60e67bd3c461daecf97f0b1280be", "is_reserved": 0, "bike_id": "c67f60e67bd3c461daecf97f0b1280be", "fusion_lon": 0.0, "rental_uris": {"ios": "https://dc.lft.to/lastmile_qr_scan", "android": "https://dc.lft.to/lastmile_qr_scan"}}, {"lon": -77.0000185, "fusion_lat": 0.0, "type": "electric_bike", "lat": 38.923955166666666, "is_disabled": 0, "name": "072860b8fbfc39e65df48d3fca8d2130", "is_reserved": 0, "bike_id": "072860b8fbfc39e65df48d3fca8d2130", "fusion_lon": 0.0, "rental_uris": {"ios": "https://dc.lft.to/lastmile_qr_scan", "android": "https://dc.lft.to/lastmile_qr_scan"}}, {"lon": -77.02965066666667, "fusion_lat": 0.0, "type": "electric_scooter", "lat": 38.929284833333334, "is_disabled": 0, "name": "a7bdbabe35c98c45a63156a2401dcd23", "is_reserved": 0, "bike_id": "a7bdbabe35c98c45a63156a2401dcd23", "fusion_lon": 0.0, "rental_uris": {"ios": "https://dc.lft.to/lastmile_qr_scan", "android": "https://dc.lft.to/lastmile_qr_scan"}}, {"lon": -77.00159033333334, "fusion_lat": 0.0, "type": "electric_bike", "lat": 38.899283833333335, "is_disabled": 0, "name": "512598ca88c8654c2afa5dae22a30036", "is_reserved": 0, "bike_id": "512598ca88c8654c2afa5dae22a30036", "fusion_lon": 0.0, "rental_uris": {"ios": "https://dc.lft.to/lastmile_qr_scan", "android": "https://dc.lft.to/lastmile_qr_scan"}}, {"lon": -77.025561, "fusion_lat": 0.0, "type": "electric_scooter", "lat": 38.90713933333333, "is_disabled": 0, "name": "3a091ff8ed31e78286b9556c3ef34ba1", "is_reserved": 0, "bike_id": "3a091ff8ed31e78286b9556c3ef34ba1", "fusion_lon": 0.0, "rental_uris": {"ios": "https://dc.lft.to/lastmile_qr_scan", "android": "https://dc.lft.to/lastmile_qr_scan"}}, {"lon": -77.0365985, "fusion_lat": 0.0, "type": "electric_scooter", "lat": 38.922222, "is_disabled": 0, "name": "0157c449a781284860db7ac38d96cd5f", "is_reserved": 0, "bike_id": "0157c449a781284860db7ac38d96cd5f", "fusion_lon": 0.0, "rental_uris": {"ios": "https://dc.lft.to/lastmile_qr_scan", "android": "https://dc.lft.to/lastmile_qr_scan"}}, {"lon": -77.02725983333333, "fusion_lat": 0.0, "type": "electric_scooter", "lat": 38.934555833333334, "is_disabled": 0, "name": "fc80cbb354d95a9481f09245c45fef52", "is_reserved": 0, "bike_id": "fc80cbb354d95a9481f09245c45fef52", "fusion_lon": 0.0, "rental_uris": {"ios": "https://dc.lft.to/lastmile_qr_scan", "android": "https://dc.lft.to/lastmile_qr_scan"}}, {"lon": -77.00596083333333, "fusion_lat": 0.0, "type": "electric_scooter", "lat": 38.8791105, "is_disabled": 0, "name": "e9224b21c2f0d47ba149629db382c966", "is_reserved": 0, "bike_id": "e9224b21c2f0d47ba149629db382c966", "fusion_lon": 0.0, "rental_uris": {"ios": "https://dc.lft.to/lastmile_qr_scan", "android": "https://dc.lft.to/lastmile_qr_scan"}}, {"lon": -77.03918316666666, "fusion_lat": 0.0, "type": "electric_scooter", "lat": 38.899351833333334, "is_disabled": 0, "name": "cc9d294f733bc60b556f7830730a2ec0", "is_reserved": 0, "bike_id": "cc9d294f733bc60b556f7830730a2ec0", "fusion_lon": 0.0, "rental_uris": {"ios": "https://dc.lft.to/lastmile_qr_scan", "android": "https://dc.lft.to/lastmile_qr_scan"}}, {"lon": -77.02557366666667, "fusion_lat": 0.0, "type": "electric_scooter", "lat": 38.941644833333335, "is_disabled": 0, "name": "8666b293866a71cacf0df32608b4663c", "is_reserved": 0, "bike_id": "8666b293866a71cacf0df32608b4663c", "fusion_lon": 0.0, "rental_uris": {"ios": "https://dc.lft.to/lastmile_qr_scan", "android": "https://dc.lft.to/lastmile_qr_scan"}}, {"lon": -77.04374, "fusion_lat": 0.0, "type": "electric_scooter", "lat": 38.898558666666666, "is_disabled": 0, "name": "e25e7870e8fdaa54852b464f616a1110", "is_reserved": 0, "bike_id": "e25e7870e8fdaa54852b464f616a1110", "fusion_lon": 0.0, "rental_uris": {"ios": "https://dc.lft.to/lastmile_qr_scan", "android": "https://dc.lft.to/lastmile_qr_scan"}}, {"lon": -77.04221083333333, "fusion_lat": 0.0, "type": "electric_scooter", "lat": 38.9058275, "is_disabled": 0, "name": "a641db27cdb64c36834ccce9d2c85579", "is_reserved": 0, "bike_id": "a641db27cdb64c36834ccce9d2c85579", "fusion_lon": 0.0, "rental_uris": {"ios": "https://dc.lft.to/lastmile_qr_scan", "android": "https://dc.lft.to/lastmile_qr_scan"}}, {"lon": -77.034635, "fusion_lat": 0.0, "type": "electric_scooter", "lat": 38.92064716666667, "is_disabled": 0, "name": "b9f85914d6788ea186e0273991b936ea", "is_reserved": 0, "bike_id": "b9f85914d6788ea186e0273991b936ea", "fusion_lon": 0.0, "rental_uris": {"ios": "https://dc.lft.to/lastmile_qr_scan", "android": "https://dc.lft.to/lastmile_qr_scan"}}, {"lon": -77.00014816666666, "fusion_lat": 0.0, "type": "electric_scooter", "lat": 38.907452666666664, "is_disabled": 0, "name": "47fef55b52126e9668b1f3d7ba329ace", "is_reserved": 0, "bike_id": "47fef55b52126e9668b1f3d7ba329ace", "fusion_lon": 0.0, "rental_uris": {"ios": "https://dc.lft.to/lastmile_qr_scan", "android": "https://dc.lft.to/lastmile_qr_scan"}}, {"lon": -77.02184733333333, "fusion_lat": 0.0, "type": "electric_scooter", "lat": 38.88495916666667, "is_disabled": 0, "name": "b217a0106f4bd1eef15aa289eb73b8df", "is_reserved": 0, "bike_id": "b217a0106f4bd1eef15aa289eb73b8df", "fusion_lon": 0.0, "rental_uris": {"ios": "https://dc.lft.to/lastmile_qr_scan", "android": "https://dc.lft.to/lastmile_qr_scan"}}, {"lon": -77.05907883333333, "fusion_lat": 0.0, "type": "electric_scooter", "lat": 38.905394666666666, "is_disabled": 0, "name": "3ee2d5b07997f69341af63838c4ea4e1", "is_reserved": 0, "bike_id": "3ee2d5b07997f69341af63838c4ea4e1", "fusion_lon": 0.0, "rental_uris": {"ios": "https://dc.lft.to/lastmile_qr_scan", "android": "https://dc.lft.to/lastmile_qr_scan"}}, {"lon": -77.03188016666667, "fusion_lat": 0.0, "type": "electric_scooter", "lat": 38.92117183333333, "is_disabled": 0, "name": "d4d73917d4f0471fe9b4daf1f8b1b243", "is_reserved": 0, "bike_id": "d4d73917d4f0471fe9b4daf1f8b1b243", "fusion_lon": 0.0, "rental_uris": {"ios": "https://dc.lft.to/lastmile_qr_scan", "android": "https://dc.lft.to/lastmile_qr_scan"}}, {"lon": -77.08015633333333, "fusion_lat": 0.0, "type": "electric_scooter", "lat": 38.94853066666667, "is_disabled": 0, "name": "7f9ab63ae559e46e1243c830abe63161", "is_reserved": 0, "bike_id": "7f9ab63ae559e46e1243c830abe63161", "fusion_lon": 0.0, "rental_uris": {"ios": "https://dc.lft.to/lastmile_qr_scan", "android": "https://dc.lft.to/lastmile_qr_scan"}}, {"lon": -77.00222233333334, "fusion_lat": 0.0, "type": "electric_scooter", "lat": 38.885014166666664, "is_disabled": 0, "name": "d0da9f5e9bacd19222efa34cb2549dc9", "is_reserved": 0, "bike_id": "d0da9f5e9bacd19222efa34cb2549dc9", "fusion_lon": 0.0, "rental_uris": {"ios": "https://dc.lft.to/lastmile_qr_scan", "android": "https://dc.lft.to/lastmile_qr_scan"}}, {"lon": -77.0215445, "fusion_lat": 0.0, "type": "electric_scooter", "lat": 38.926034, "is_disabled": 0, "name": "6606ce5e4ccdf876cdb00a4d825435c7", "is_reserved": 0, "bike_id": "6606ce5e4ccdf876cdb00a4d825435c7", "fusion_lon": 0.0, "rental_uris": {"ios": "https://dc.lft.to/lastmile_qr_scan", "android": "https://dc.lft.to/lastmile_qr_scan"}}, {"lon": -77.02332816666667, "fusion_lat": 0.0, "type": "electric_scooter", "lat": 38.911698666666666, "is_disabled": 0, "name": "6c315d38e86a5c9a605d904728922980", "is_reserved": 0, "bike_id": "6c315d38e86a5c9a605d904728922980", "fusion_lon": 0.0, "rental_uris": {"ios": "https://dc.lft.to/lastmile_qr_scan", "android": "https://dc.lft.to/lastmile_qr_scan"}}, {"lon": -77.02141066666667, "fusion_lat": 0.0, "type": "electric_scooter", "lat": 38.925004333333334, "is_disabled": 0, "name": "0b490ee0002d6a82a4de77d3e77beee5", "is_reserved": 0, "bike_id": "0b490ee0002d6a82a4de77d3e77beee5", "fusion_lon": 0.0, "rental_uris": {"ios": "https://dc.lft.to/lastmile_qr_scan", "android": "https://dc.lft.to/lastmile_qr_scan"}}, {"lon": -77.0324255, "fusion_lat": 0.0, "type": "electric_scooter", "lat": 38.91477033333334, "is_disabled": 0, "name": "4192ea44e640247bb680edb0df0bfd27", "is_reserved": 0, "bike_id": "4192ea44e640247bb680edb0df0bfd27", "fusion_lon": 0.0, "rental_uris": {"ios": "https://dc.lft.to/lastmile_qr_scan", "android": "https://dc.lft.to/lastmile_qr_scan"}},