{"data": {"bikes": [{"lon": -77.0030785, "bike_id": "3741a307b3a35d0bb6d171df8609f2f5", "lat": 38.92354683333333, "fusion_lon": 0.0, "fusion_lat": 0.0, "type": "electric_scooter", "name": "3741a307b3a35d0bb6d171df8609f2f5", "is_disabled": 0, "rental_uris": {"ios": "https://dc.lft.to/lastmile_qr_scan", "android": "https://dc.lft.to/lastmile_qr_scan"}, "is_reserved": 0}, {"lon": -77.04126933333333, "bike_id": "e204b49dfd992a0a00e2098e92d4665c", "lat": 38.923703333333336, "fusion_lon": 0.0, "fusion_lat": 0.0, "type": "electric_scooter", "name": "e204b49dfd992a0a00e2098e92d4665c", "is_disabled": 0, "rental_uris": {"ios": "https://dc.lft.to/lastmile_qr_scan", "android": "https://dc.lft.to/lastmile_qr_scan"}, "is_reserved": 0}, {"lon": -76.94635966666667, "bike_id": "57ff3d502806784c9b7a6fa415294e17", "lat": 38.898354, "fusion_lon": 0.0, "fusion_lat": 0.0, "type": "electric_scooter", "name": "57ff3d502806784c9b7a6fa415294e17", "is_disabled": 0, "rental_uris": {"ios": "https://dc.lft.to/lastmile_qr_scan", "android": "https://dc.lft.to/lastmile_qr_scan"}, "is_reserved": 0}, {"lon": -77.030799, "bike_id": "464bf5a99f27200151222ec94f386f68", "lat": 38.910026333333334, "fusion_lon": 0.0, "fusion_lat": 0.0, "type": "electric_scooter", "name": "464bf5a99f27200151222ec94f386f68", "is_disabled": 0, "rental_uris": {"ios": "https://dc.lft.to/lastmile_qr_scan", "android": "https://dc.lft.to/lastmile_qr_scan"}, "is_reserved": 0}, {"lon": -76.98500333333334, "bike_id": "e69daac73dccb90e11c5664512d383c0", "lat": 38.8793925, "fusion_lon": 0.0, "fusion_lat": 0.0, "type": "electric_bike", "name": "e69daac73dccb90e11c5664512d383c0", "is_disabled": 0, "rental_uris": {"ios": "https://dc.lft.to/lastmile_qr_scan", "android": "https://dc.lft.to/lastmile_qr_scan"}, "is_reserved": 0}, {"lon": -77.044699, "bike_id": "d68735a9f46f8bbf0c786e7560f97844", "lat": 38.8921915, "fusion_lon": 0.0, "fusion_lat": 0.0, "type": "electric_scooter", "name": "d68735a9f46f8bbf0c786e7560f97844", "is_disabled": 0, "rental_uris": {"ios": "https://dc.lft.to/lastmile_qr_scan", "android": "https://dc.lft.to/lastmile_qr_scan"}, "is_reserved": 0}, {"lon": -77.00035583333333, "bike_id": "14a8f54aac3e52524724a9309dd3e25b", "lat": 38.9069885, "fusion_lon": 0.0, "fusion_lat": 0.0, "type": "electric_scooter", "name": "14a8f54aac3e52524724a9309dd3e25b", "is_disabled": 0, "rental_uris": {"ios": "https://dc.lft.to/lastmile_qr_scan", "android": "https://dc.lft.to/lastmile_qr_scan"}, "is_reserved": 0}, {"lon": -77.0231215, "bike_id": "92a167efb2b03359ef854ec9cd63c868", "lat": 38.878845, "fusion_lon": 0.0, "fusion_lat": 0.0, "type": "electric_scooter", "name": "92a167efb2b03359ef854ec9cd63c868", "is_disabled": 0, "rental_uris": {"ios": "https://dc.lft.to/lastmile_qr_scan", "android": "https://dc.lft.to/lastmile_qr_scan"}, "is_reserved": 0}, {"lon": -77.03639783333334, "bike_id": "15c1c6c2fac923d0490c6663536625d4", "lat": 38.9118205, "fusion_lon": 0.0, "fusion_lat": 0.0, "type": "electric_scooter", "name": "15c1c6c2fac923d0490c6663536625d4", "is_disabled": 0, "rental_uris": {"ios": "https://dc.lft.to/lastmile_qr_scan", "android": "https://dc.lft.to/lastmile_qr_scan"}, "is_reserved": 0}, {"lon": -77.0689175, "bike_id": "0b7d9ece16faef7a56862a0d94c73ac5", "lat": 38.905132, "fusion_lon": 0.0, "fusion_lat": 0.0, "type": "electric_scooter", "name": "0b7d9ece16faef7a56862a0d94c73ac5", "is_disabled": 0, "rental_uris": {"ios": "https://dc.lft.to/lastmile_qr_scan", "android": "https://dc.lft.to/lastmile_qr_scan"}, "is_reserved": 0}, {"lon": -77.0237785, "bike_id": "7b25b15be9767646baac7bd87d3dba45", "lat": 38.916992666666665, "fusion_lon": 0.0, "fusion_lat": 0.0, "type": "electric_scooter", "name": "7b25b15be9767646baac7bd87d3dba45", "is_disabled": 0, "rental_uris": {"ios": "https://dc.lft.to/lastmile_qr_scan", "android": "https://dc.lft.to/lastmile_qr_scan"}, "is_reserved": 0}, {"lon": -76.98372483333333, "bike_id": "782bb9c621aa5cd8e7d6457cf6afcca3", "lat": 38.90643166666667, "fusion_lon": 0.0, "fusion_lat": 0.0, "type": "electric_scooter", "name": "782bb9c621aa5cd8e7d6457cf6afcca3", "is_disabled": 0, "rental_uris": {"ios": "https://dc.lft.to/lastmile_qr_scan", "android": "https://dc.lft.to/lastmile_qr_scan"}, "is_reserved": 0}, {"lon": -77.02316433333333, "bike_id": "c52e04ad91cc872f7cefc05b067068ab", "lat": 38.91711266666667, "fusion_lon": 0.0, "fusion_lat": 0.0, "type": "electric_scooter", "name": "c52e04ad91cc872f7cefc05b067068ab", "is_disabled": 0, "rental_uris": {"ios": "https://dc.lft.to/lastmile_qr_scan", "android": "https://dc.lft.to/lastmile_qr_scan"}, "is_reserved": 0}, {"lon": -77.04181883333334, "bike_id": "53000717b0f323c66727d037f2184693", "lat": 38.89227666666667, "fusion_lon": 0.0, "fusion_lat": 0.0, "type": "electric_scooter", "name": "53000717b0f323c66727d037f2184693", "is_disabled": 0, "rental_uris": {"ios": "https://dc.lft.to/lastmile_qr_scan", "android": "https://dc.lft.to/lastmile_qr_scan"}, "is_reserved": 0}, {"lon": -77.05159033333334, "bike_id": "9f1b11cdb3695cf8b39a6a1ff420c9dc", "lat": 39.04304883333333, "fusion_lon": 0.0, "fusion_lat": 0.0, "type": "electric_bike", "name": "9f1b11cdb3695cf8b39a6a1ff420c9dc", "is_disabled": 0, "rental_uris": {"ios": "https://dc.lft.to/lastmile_qr_scan", "android": "https://dc.lft.to/lastmile_qr_scan"}, "is_reserved": 0}, {"lon": -76.982311, "bike_id": "f85e901fb9d7e7cf809f91f954fa525d", "lat": 38.86648666666667, "fusion_lon": 0.0, "fusion_lat": 0.0, "type": "electric_scooter", "name": "f85e901fb9d7e7cf809f91f954fa525d", "is_disabled": 0, "rental_uris": {"ios": "https://dc.lft.to/lastmile_qr_scan", "android": "https://dc.lft.to/lastmile_qr_scan"}, "is_reserved": 0}, {"lon": -77.043602, "bike_id": "abbca0677a83dea4151ba310f6acae93", "lat": 38.901263666666665, "fusion_lon": 0.0, "fusion_lat": 0.0, "type": "electric_scooter", "name": "abbca0677a83dea4151ba310f6acae93", "is_disabled": 0, "rental_uris": {"ios": "https://dc.lft.to/lastmile_qr_scan", "android": "https://dc.lft.to/lastmile_qr_scan"}, "is_reserved": 0}, {"lon": -77.0382765, "bike_id": "7d837caa2c8c9e3ef28c73e1ba8e225c", "lat": 38.91122566666667, "fusion_lon": 0.0, "fusion_lat": 0.0, "type": "electric_scooter", "name": "7d837caa2c8c9e3ef28c73e1ba8e225c", "is_disabled": 0, "rental_uris": {"ios": "https://dc.lft.to/lastmile_qr_scan", "android": "https://dc.lft.to/lastmile_qr_scan"}, "is_reserved": 0}, {"lon": -76.92998133333333, "bike_id": "65caaa577f27c68fc4b18221a9d39199", "lat": 38.891959666666665, "fusion_lon": 0.0, "fusion_lat": 0.0, "type": "electric_scooter", "name": "65caaa577f27c68fc4b18221a9d39199", "is_disabled": 0, "rental_uris": {"ios": "https://dc.lft.to/lastmile_qr_scan", "android": "https://dc.lft.to/lastmile_qr_scan"}, "is_reserved": 0}, {"lon": -77.057193, "bike_id": "714b87d536abb2a866f28d5fecbddea4", "lat": 38.9338015, "fusion_lon": 0.0, "fusion_lat": 0.0, "type": "electric_scooter", "name": "714b87d536abb2a866f28d5fecbddea4", "is_disabled": 0, "rental_uris": {"ios": "https://dc.lft.to/lastmile_qr_scan", "android": "https://dc.lft.to/lastmile_qr_scan"}, "is_reserved": 0}, {"lon": -77.02471833333334, "bike_id": "ddaf482a9832b7fbe57977b191f2ec39", "lat": 38.91820516666667, "fusion_lon": 0.0, "fusion_lat": 0.0, "type": "electric_scooter", "name": "ddaf482a9832b7fbe57977b191f2ec39", "is_disabled": 0, "rental_uris": {"ios": "https://dc.lft.to/lastmile_qr_scan", "android": "https://dc.lft.to/lastmile_qr_scan"}, "is_reserved": 0}, {"lon": -77.00053333333334, "bike_id": "2128eb5c5e6a4d871f0c0052bd696e1c", "lat": 38.894996166666665, "fusion_lon": 0.0, "fusion_lat": 0.0, "type": "electric_scooter", "name": "2128eb5c5e6a4d871f0c0052bd696e1c", "is_disabled": 0, "rental_uris": {"ios": "https://dc.lft.to/lastmile_qr_scan", "android": "https://dc.lft.to/lastmile_qr_scan"}, "is_reserved": 0}, {"lon": -77.0416135, "bike_id": "c010d86a511e29dad2baa02ea0e19d41", "lat": 38.914222, "fusion_lon": 0.0, "fusion_lat": 0.0, "type": "electric_scooter", "name": "c010d86a511e29dad2baa02ea0e19d41", "is_disabled": 0, "rental_uris": {"ios": "https://dc.lft.to/lastmile_qr_scan", "android": "https://dc.lft.to/lastmile_qr_scan"}, "is_reserved": 0}, {"lon": -77.0569315, "bike_id": "75088a68835703583ba61ee0f95fcbea", "lat": 38.93718033333333, "fusion_lon": 0.0, "fusion_lat": 0.0, "type": "electric_scooter", "name": "75088a68835703583ba61ee0f95fcbea", "is_disabled": 0, "rental_uris": {"ios": "https://dc.lft.to/lastmile_qr_scan", "android": "https://dc.lft.to/lastmile_qr_scan"}, "is_reserved": 0}, {"lon": -77.11150966666666, "bike_id": "b6a1922d6d2ccce30c244b4dfdc6d0f3", "lat": 38.85522983333333, "fusion_lon": 0.0, "fusion_lat": 0.0, "type": "electric_bike", "name": "b6a1922d6d2ccce30c244b4dfdc6d0f3", "is_disabled": 0, "rental_uris": {"ios": "https://dc.lft.to/lastmile_qr_scan", "android": "https://dc.lft.to/lastmile_qr_scan"}, "is_reserved": 0}, {"lon": -77.10486116666667, "bike_id": "c150a9b7d48606a82ed5cf31bf015feb", "lat": 38.85603316666667, "fusion_lon": 0.0, "fusion_lat": 0.0, "type": "electric_bike", "name": "c150a9b7d48606a82ed5cf31bf015feb", "is_disabled": 0, "rental_uris": {"ios": "https://dc.lft.to/lastmile_qr_scan", "android": "https://dc.lft.to/lastmile_qr_scan"}, "is_reserved": 0}, {"lon": -77.02776916666667, "bike_id": "4904fa138d0511557f34bde53a86cf43", "lat": 38.89218433333333, "fusion_lon": 0.0, "fusion_lat": 0.0, "type": "electric_scooter", "name": "4904fa138d0511557f34bde53a86cf43", "is_disabled": 0, "rental_uris": {"ios": "https://dc.lft.to/lastmile_qr_scan", "android": "https://dc.lft.to/lastmile_qr_scan"}, "is_reserved": 0}, {"lon": -77.0277455, "bike_id": "8494fe0d34ad332e4fa1d89520a13e42", "lat": 38.89219083333333, "fusion_lon": 0.0, "fusion_lat": 0.0, "type": "electric_scooter", "name": "8494fe0d34ad332e4fa1d89520a13e42", "is_disabled": 0, "rental_uris": {"ios": "https://dc.lft.to/lastmile_qr_scan", "android": "https://dc.lft.to/lastmile_qr_scan"}, "is_reserved": 0}, {"lon": -76.98225616666667, "bike_id": "8d2a35c4e8940259965cbb4a3c938fd2", "lat": 38.886455166666664, "fusion_lon": 0.0, "fusion_lat": 0.0, "type": "electric_scooter", "name": "8d2a35c4e8940259965cbb4a3c938fd2", "is_disabled": 0, "rental_uris": {"ios": "https://dc.lft.to/lastmile_qr_scan", "android": "https://dc.lft.to/lastmile_qr_scan"}, "is_reserved": 0}, {"lon": -77.02145816666666, "bike_id": "7ee6473e99a775da47a4c6993f693482", "lat": 38.903789833333335, "fusion_lon": 0.0, "fusion_lat": 0.0, "type": "electric_scooter", "name": "7ee6473e99a775da47a4c6993f693482", "is_disabled": 0, "rental_uris": {"ios": "https://dc.lft.to/lastmile_qr_scan", "android": "https://dc.lft.to/lastmile_qr_scan"}, "is_reserved": 0}, {"lon": -77.04331983333333, "bike_id": "0aed6f33c9e6481443ad2224441d008c", "lat": 38.92221166666667, "fusion_lon": 0.0, "fusion_lat": 0.0, "type": "electric_scooter", "name": "0aed6f33c9e6481443ad2224441d008c", "is_disabled": 0, "rental_uris": {"ios": "https://dc.lft.to/lastmile_qr_scan", "android": "https://dc.lft.to/lastmile_qr_scan"}, "is_reserved": 0}, {"lon": -77.04283916666667, "bike_id": "d234f073886f624645f03acdae6c0588", "lat": 38.90729816666666, "fusion_lon": 0.0, "fusion_lat": 0.0, "type": "electric_scooter", "name": "d234f073886f624645f03acdae6c0588", "is_disabled": 0, "rental_uris": {"ios": "https://dc.lft.to/lastmile_qr_scan", "android": "https://dc.lft.to/lastmile_qr_scan"}, "is_reserved": 0}, {"lon": -77.0399455, "bike_id": "f4736567ffda047e3d42bace594e690f", "lat": 38.914111, "fusion_lon": 0.0, "fusion_lat": 0.0, "type": "electric_scooter", "name": "f4736567ffda047e3d42bace594e690f", "is_disabled": 0, "rental_uris": {"ios": "https://dc.lft.to/lastmile_qr_scan", "android": "https://dc.lft.to/lastmile_qr_scan"}, "is_reserved": 0}, {"lon": -77.01206883333333, "bike_id": "824df996bc21799149cffbdcf6cfbb7e", "lat": 38.9212365, "fusion_lon": 0.0, "fusion_lat": 0.0, "type": "electric_scooter", "name": "824df996bc21799149cffbdcf6cfbb7e", "is_disabled": 0, "rental_uris": {"ios": "https://dc.lft.to/lastmile_qr_scan", "android": "https://dc.lft.to/lastmile_qr_scan"}, "is_reserved": 0}, {"lon": -77.02384983333333, "bike_id": "f2d767de521175097c33655cbd9e9e8a", "lat": 38.91993983333333, "fusion_lon": 0.0, "fusion_lat": 0.0, "type": "electric_scooter", "name": "f2d767de521175097c33655cbd9e9e8a", "is_disabled": 0, "rental_uris": {"ios": "https://dc.lft.to/lastmile_qr_scan", "android": "https://dc.lft.to/lastmile_qr_scan"}, "is_reserved": 0}, {"lon": -77.02398383333333, "bike_id": "8e3b50fc768a7678679820f5a548d075", "lat": 38.93099933333333, "fusion_lon": 0.0, "fusion_lat": 0.0, "type": "electric_scooter", "name": "8e3b50fc768a7678679820f5a548d075", "is_disabled": 0, "rental_uris": {"ios": "https://dc.lft.to/lastmile_qr_scan", "android": "https://dc.lft.to/lastmile_qr_scan"}, "is_reserved": 0}, {"lon": -77.03884866666667, "bike_id": "5ed669bdb107006961510a06c1d04f70", "lat": 38.902779833333334, "fusion_lon": 0.0, "fusion_lat": 0.0, "type": "electric_scooter", "name": "5ed669bdb107006961510a06c1d04f70", "is_disabled": 0, "rental_uris": {"ios": "https://dc.lft.to/lastmile_qr_scan", "android": "https://dc.lft.to/lastmile_qr_scan"}, "is_reserved": 0}, {"lon": -77.02056666666667, "bike_id": "485b94185df537c6963ebf7cba11e25f", "lat": 38.95755, "fusion_lon": 0.0, "fusion_lat": 0.0, "type": "electric_bike", "name": "485b94185df537c6963ebf7cba11e25f", "is_disabled": 0, "rental_uris": {"ios": "https://dc.lft.to/lastmile_qr_scan", "android": "https://dc.lft.to/lastmile_qr_scan"}, "is_reserved": 0}, {"lon": -77.02592666666666, "bike_id": "7f38c1616bc1b6b92d43aac7f7bb1e15", "lat": 38.963945333333335, "fusion_lon": 0.0, "fusion_lat": 0.0, "type": "electric_scooter", "name": "7f38c1616bc1b6b92d43aac7f7bb1e15", "is_disabled": 0, "rental_uris": {"ios": "https://dc.lft.to/lastmile_qr_scan", "android": "https://dc.lft.to/lastmile_qr_scan"}, "is_reserved": 0}, {"lon": -76.93727783333334, "bike_id": "b94a80322f2739bd88b330f5faac4d82", "lat": 38.890177, "fusion_lon": 0.0, "fusion_lat": 0.0, "type": "electric_scooter", "name": "b94a80322f2739bd88b330f5faac4d82", "is_disabled": 0, "rental_uris": {"ios": "https://dc.lft.to/lastmile_qr_scan", "android": "https://dc.lft.to/lastmile_qr_scan"}, "is_reserved": 0}, {"lon": -77.03273483333334, "bike_id": "9808036e488e44f72aeb31a353a37ba0", "lat": 38.9199655, "fusion_lon": 0.0, "fusion_lat": 0.0, "type": "electric_scooter", "name": "9808036e488e44f72aeb31a353a37ba0", "is_disabled": 0, "rental_uris": {"ios": "https://dc.lft.to/lastmile_qr_scan", "android": "https://dc.lft.to/lastmile_qr_scan"}, "is_reserved": 0}, {"lon": -77.02979816666667, "bike_id": "2467abc9f4ba4fc448909657641ebf59", "lat": 38.92875333333333, "fusion_lon": 0.0, "fusion_lat": 0.0, "type": "electric_scooter", "name": "2467abc9f4ba4fc448909657641ebf59", "is_disabled": 0, "rental_uris": {"ios": "https://dc.lft.to/lastmile_qr_scan", "android": "https://dc.lft.to/lastmile_qr_scan"}, "is_reserved": 0}, {"lon": -76.98707666666667, "bike_id": "d66949bd1aaf870f67c04e4262dfce94", "lat": 38.867028166666664, "fusion_lon": 0.0, "fusion_lat": 0.0, "type": "electric_scooter", "name": "d66949bd1aaf870f67c04e4262dfce94", "is_disabled": 0, "rental_uris": {"ios": "https://dc.lft.to/lastmile_qr_scan", "android": "https://dc.lft.to/lastmile_qr_scan"}, "is_reserved": 0}, {"lon": -77.04488333333333, "bike_id": "b4041436c28c4c050033943787f97c92", "lat": 38.903797833333336, "fusion_lon": 0.0, "fusion_lat": 0.0, "type": "electric_scooter", "name": "b4041436c28c4c050033943787f97c92", "is_disabled": 0, "rental_uris": {"ios": "https://dc.lft.to/lastmile_qr_scan", "android": "https://dc.lft.to/lastmile_qr_scan"}, "is_reserved": 0}, {"lon": -77.026914, "bike_id": "ea1a76176c1672d3ad7230815ab53317", "lat": 38.90459283333333, "fusion_lon": 0.0, "fusion_lat": 0.0, "type": "electric_scooter", "name": "ea1a76176c1672d3ad7230815ab53317", "is_disabled": 0, "rental_uris": {"ios": "https://dc.lft.to/lastmile_qr_scan", "android": "https://dc.lft.to/lastmile_qr_scan"}, "is_reserved": 0}, {"lon": -76.98227833333334, "bike_id": "b9ef3aa8196ff75366437c9d6c311871", "lat": 38.868914333333336, "fusion_lon": 0.0, "fusion_lat": 0.0, "type": "electric_scooter", "name": "b9ef3aa8196ff75366437c9d6c311871", "is_disabled": 0, "rental_uris": {"ios": "https://dc.lft.to/lastmile_qr_scan", "android": "https://dc.lft.to/lastmile_qr_scan"}, "is_reserved": 0}, {"lon": -77.04511716666667, "bike_id": "6b3be10f39f7d74eae6f0249848b5842", "lat": 38.93533633333333, "fusion_lon": 0.0, "fusion_lat": 0.0, "type": "electric_scooter", "name": "6b3be10f39f7d74eae6f0249848b5842", "is_disabled": 0, "rental_uris": {"ios": "https://dc.lft.to/lastmile_qr_scan", "android": "https://dc.lft.to/lastmile_qr_scan"}, "is_reserved": 0}, {"lon": -77.03177166666667, "bike_id": "993aff047f2a5111f0e934ca118b91c7", "lat": 38.893663833333335, "fusion_lon": 0.0, "fusion_lat": 0.0, "type": "electric_scooter", "name": "993aff047f2a5111f0e934ca118b91c7", "is_disabled": 0, "rental_uris": {"ios": "https://dc.lft.to/lastmile_qr_scan", "android": "https://dc.lft.to/lastmile_qr_scan"}, "is_reserved": 0}, {"lon": -76.99197233333334, "bike_id": "11ef04054625d712e9bc9689b41f994f", "lat": 38.8629035, "fusion_lon": 0.0, "fusion_lat": 0.0, "type": "electric_scooter", "name": "11ef04054625d712e9bc9689b41f994f", "is_disabled": 0, "rental_uris": {"ios": "https://dc.lft.to/lastmile_qr_scan", "android": "https://dc.lft.to/lastmile_qr_scan"}, "is_reserved": 0}, {"lon": -77.04188816666667, "bike_id": "002ac957400868d3774dbf4b737d3590", "lat": 38.905561166666665, "fusion_lon": 0.0, "fusion_lat": 0.0, "type": "electric_scooter", "name": "002ac957400868d3774dbf4b737d3590", "is_disabled": 0, "rental_uris": {"ios": "https://dc.lft.to/lastmile_qr_scan", "android": "https://dc.lft.to/lastmile_qr_scan"}, "is_reserved": 0}, {"lon": -77.03855616666667, "bike_id": "adadf52b222841b983f7ee0b2e319e86", "lat": 38.91283816666667, "fusion_lon": 0.0, "fusion_lat": 0.0, "type": "electric_scooter", "name": "adadf52b222841b983f7ee0b2e319e86", "is_disabled": 0, "rental_uris": {"ios": "https://dc.lft.to/lastmile_qr_scan", "android": "https://dc.lft.to/lastmile_qr_scan"}, "is_reserved": 0}, {"lon": -77.04330733333333, "bike_id": "e5364c1f9037cc982001bb9cc0ff80e2", "lat": 38.90248033333334, "fusion_lon": 0.0, "fusion_lat": 0.0, "type": "electric_scooter", "name": "e5364c1f9037cc982001bb9cc0ff80e2", "is_disabled": 0, "rental_uris": {"ios": "https://dc.lft.to/lastmile_qr_scan", "android": "https://dc.lft.to/lastmile_qr_scan"}, "is_reserved": 0}, {"lon": -77.04212916666667, "bike_id": "f1fae655023dc3c27429b9a43267ed90", "lat": 38.921282166666664, "fusion_lon": 0.0, "fusion_lat": 0.0, "type": "electric_scooter", "name": "f1fae655023dc3c27429b9a43267ed90", "is_disabled": 0, "rental_uris": {"ios": "https://dc.lft.to/lastmile_qr_scan", "android": "https://dc.lft.to/lastmile_qr_scan"}, "is_reserved": 0}, {"lon": -77.0120335, "bike_id": "95a862d49a5853a0a0f412c93aa73c81", "lat": 38.900171666666665, "fusion_lon": 0.0, "fusion_lat": 0.0, "type": "electric_bike", "name": "95a862d49a5853a0a0f412c93aa73c81", "is_disabled": 0, "rental_uris": {"ios": "https://dc.lft.to/lastmile_qr_scan", "android": "https://dc.lft.to/lastmile_qr_scan"}, "is_reserved": 0}, {"lon": -77.04501116666667, "bike_id": "2588d252fa308978f8e374a482bed6ec", "lat": 38.8978305, "fusion_lon": 0.0, "fusion_lat": 0.0, "type": "electric_scooter", "name": "2588d252fa308978f8e374a482bed6ec", "is_disabled": 0, "rental_uris": {"ios": "https://dc.lft.to/lastmile_qr_scan", "android": "https://dc.lft.to/lastmile_qr_scan"}, "is_reserved": 0}, {"lon": -77.02151266666667, "bike_id": "3bd4915f8121fceb55d99d39f5041f23", "lat": 38.89712866666667, "fusion_lon": 0.0, "fusion_lat": 0.0, "type": "electric_scooter", "name": "3bd4915f8121fceb55d99d39f5041f23", "is_disabled": 0, "rental_uris": {"ios": "https://dc.lft.to/lastmile_qr_scan", "android": "https://dc.lft.to/lastmile_qr_scan"}, "is_reserved": 0}, {"lon": -77.0283815, "bike_id": "53adaa75e16c2603d39c93f7ec91d57e", "lat": 38.9257875, "fusion_lon": 0.0, "fusion_lat": 0.0, "type": "electric_scooter", "name": "53adaa75e16c2603d39c93f7ec91d57e", "is_disabled": 0, "rental_uris": {"ios": "https://dc.lft.to/lastmile_qr_scan", "android": "https://dc.lft.to/lastmile_qr_scan"}, "is_reserved": 0}, {"lon": -77.03214883333334, "bike_id": "68a0d89bc8006c2cafd5b6568481a980", "lat": 38.89635916666667, "fusion_lon": 0.0, "fusion_lat": 0.0, "type": "electric_scooter", "name": "68a0d89bc8006c2cafd5b6568481a980", "is_disabled": 0, "rental_uris": {"ios": "https://dc.lft.to/lastmile_qr_scan", "android": "https://dc.lft.to/lastmile_qr_scan"}, "is_reserved": 0}, {"lon": -77.06707116666666, "bike_id": "1131106a8936edede507b40f4fea0a48", "lat": 38.914432, "fusion_lon": 0.0, "fusion_lat": 0.0, "type": "electric_scooter", "name": "1131106a8936edede507b40f4fea0a48", "is_disabled": 0, "rental_uris": {"ios": "https://dc.lft.to/lastmile_qr_scan", "android": "https://dc.lft.to/lastmile_qr_scan"}, "is_reserved": 0}, {"lon": -77.02486316666666, "bike_id": "65787f28a3df26de4554c581f5bc7310", "lat": 38.916941333333334, "fusion_lon": 0.0, "fusion_lat": 0.0, "type": "electric_scooter", "name": "65787f28a3df26de4554c581f5bc7310", "is_disabled": 0, "rental_uris": {"ios": "https://dc.lft.to/lastmile_qr_scan", "android": "https://dc.lft.to/lastmile_qr_scan"}, "is_reserved": 0}, {"lon": -77.0737455, "bike_id": "ad51a0edd4fc39b1e39bc8d649db6c16", "lat": 38.96182266666667, "fusion_lon": 0.0, "fusion_lat": 0.0, "type": "electric_bike", "name": "ad51a0edd4fc39b1e39bc8d649db6c16", "is_disabled": 0, "rental_uris": {"ios": "https://dc.lft.to/lastmile_qr_scan", "android": "https://dc.lft.to/lastmile_qr_scan"}, "is_reserved": 0}, {"lon": -77.03854433333333, "bike_id": "93c861ede4f23a425bf27d97b46906bf", "lat": 38.90658533333333, "fusion_lon": 0.0, "fusion_lat": 0.0, "type": "electric_scooter", "name": "93c861ede4f23a425bf27d97b46906bf", "is_disabled": 0, "rental_uris": {"ios": "https://dc.lft.to/lastmile_qr_scan", "android": "https://dc.lft.to/lastmile_qr_scan"}, "is_reserved": 0}, {"lon": -77.03574266666666, "bike_id": "91234f827d97374a7588f3152e245a4a", "lat": 38.917736833333336, "fusion_lon": 0.0, "fusion_lat": 0.0, "type": "electric_scooter", "name": "91234f827d97374a7588f3152e245a4a", "is_disabled": 0, "rental_uris": {"ios": "https://dc.lft.to/lastmile_qr_scan", "android": "https://dc.lft.to/lastmile_qr_scan"}, "is_reserved": 0}, {"lon": -77.05433366666666, "bike_id": "9c112bfca58e905016f3674b060cea01", "lat": 38.93524133333333, "fusion_lon": 0.0, "fusion_lat": 0.0, "type": "electric_bike", "name": "9c112bfca58e905016f3674b060cea01", "is_disabled": 0, "rental_uris": {"ios": "https://dc.lft.to/lastmile_qr_scan", "android": "https://dc.lft.to/lastmile_qr_scan"}, "is_reserved": 0}, {"lon": -77.0239055, "bike_id": "1ec3d192d4ef7f432169aa9eef6dfd47", "lat": 38.9167635, "fusion_lon": 0.0, "fusion_lat": 0.0, "type": "electric_scooter", "name": "1ec3d192d4ef7f432169aa9eef6dfd47", "is_disabled": 0, "rental_uris": {"ios": "https://dc.lft.to/lastmile_qr_scan", "android": "https://dc.lft.to/lastmile_qr_scan"}, "is_reserved": 0}, {"lon": -77.040106, "bike_id": "8178a9befc6837cd3e61ada78c782427", "lat": 38.91118316666667, "fusion_lon": 0.0, "fusion_lat": 0.0, "type": "electric_scooter", "name": "8178a9befc6837cd3e61ada78c782427", "is_disabled": 0, "rental_uris": {"ios": "https://dc.lft.to/lastmile_qr_scan", "android": "https://dc.lft.to/lastmile_qr_scan"}, "is_reserved": 0}, {"lon": -76.92999566666667, "bike_id": "9420a16779b19da29b747b9177f6a9d9", "lat": 38.90187383333333, "fusion_lon": 0.0, "fusion_lat": 0.0, "type": "electric_scooter", "name": "9420a16779b19da29b747b9177f6a9d9", "is_disabled": 0, "rental_uris": {"ios": "https://dc.lft.to/lastmile_qr_scan", "android": "https://dc.lft.to/lastmile_qr_scan"}, "is_reserved": 0}, {"lon": -77.02227466666666, "bike_id": "e7971acfcdb46b3ab9b511748d789e1d", "lat": 38.935571833333334, "fusion_lon": 0.0, "fusion_lat": 0.0, "type": "electric_scooter", "name": "e7971acfcdb46b3ab9b511748d789e1d", "is_disabled": 0, "rental_uris": {"ios": "https://dc.lft.to/lastmile_qr_scan", "android": "https://dc.lft.to/lastmile_qr_scan"}, "is_reserved": 0}, {"lon": -77.03270616666667, "bike_id": "40d8ad6b2034f9b1cfd721d27cde4459", "lat": 38.91998266666667, "fusion_lon": 0.0, "fusion_lat": 0.0, "type": "electric_scooter", "name": "40d8ad6b2034f9b1cfd721d27cde4459", "is_disabled": 0, "rental_uris": {"ios": "https://dc.lft.to/lastmile_qr_scan", "android": "https://dc.lft.to/lastmile_qr_scan"}, "is_reserved": 0}, {"lon": -77.02771066666666, "bike_id": "8fa6c0aadfd6dab8b2978f17e6b2f1c7", "lat": 38.90441083333333, "fusion_lon": 0.0, "fusion_lat": 0.0, "type": "electric_bike", "name": "8fa6c0aadfd6dab8b2978f17e6b2f1c7", "is_disabled": 0, "rental_uris": {"ios": "https://dc.lft.to/lastmile_qr_scan", "android": "https://dc.lft.to/lastmile_qr_scan"}, "is_reserved": 0}, {"lon": -76.98196166666666, "bike_id": "7be62645a0d96c057d32e51a080fd471", "lat": 38.967412333333336, "fusion_lon": 0.0, "fusion_lat": 0.0, "type": "electric_bike", "name": "7be62645a0d96c057d32e51a080fd471", "is_disabled": 0, "rental_uris": {"ios": "https://dc.lft.to/lastmile_qr_scan", "android": "https://dc.lft.to/lastmile_qr_scan"}, "is_reserved": 0}, {"lon": -77.02970666666667, "bike_id": "724b24ca33f7bada8ae022aacd47a360", "lat": 38.9145345, "fusion_lon": 0.0, "fusion_lat": 0.0, "type": "electric_scooter", "name": "724b24ca33f7bada8ae022aacd47a360", "is_disabled": 0, "rental_uris": {"ios": "https://dc.lft.to/lastmile_qr_scan", "android": "https://dc.lft.to/lastmile_qr_scan"}, "is_reserved": 0}, {"lon": -77.02871566666667, "bike_id": "4943bea402aa97f6be9cad39a1697c0b", "lat": 38.9170035, "fusion_lon": 0.0, "fusion_lat": 0.0, "type": "electric_scooter", "name": "4943bea402aa97f6be9cad39a1697c0b", "is_disabled": 0, "rental_uris": {"ios": "https://dc.lft.to/lastmile_qr_scan", "android": "https://dc.lft.to/lastmile_qr_scan"}, "is_reserved": 0}, {"lon": -77.02458883333334, "bike_id": "93bf770ad5ece1dff02d6509964a0710", "lat": 38.918923166666666, "fusion_lon": 0.0, "fusion_lat": 0.0, "type": "electric_scooter", "name": "93bf770ad5ece1dff02d6509964a0710", "is_disabled": 0, "rental_uris": {"ios": "https://dc.lft.to/lastmile_qr_scan", "android": "https://dc.lft.to/lastmile_qr_scan"}, "is_reserved": 0}, {"lon": -77.037536, "bike_id": "23f6a634dae087d82e6c91d0aec50597", "lat": 38.90782883333333, "fusion_lon": 0.0, "fusion_lat": 0.0, "type": "electric_scooter", "name": "23f6a634dae087d82e6c91d0aec50597", "is_disabled": 0, "rental_uris": {"ios": "https://dc.lft.to/lastmile_qr_scan", "android": "https://dc.lft.to/lastmile_qr_scan"}, "is_reserved": 0}, {"lon": -77.06641416666666, "bike_id": "ae8179c51c8dc58534a7ab530981d9e1", "lat": 38.9059395, "fusion_lon": 0.0, "fusion_lat": 0.0, "type": "electric_scooter", "name": "ae8179c51c8dc58534a7ab530981d9e1", "is_disabled": 0, "rental_uris": {"ios": "https://dc.lft.to/lastmile_qr_scan", "android": "https://dc.lft.to/lastmile_qr_scan"}, "is_reserved": 0}, {"lon": -77.02842483333333, "bike_id": "f34970af91371227f74899f6b412293d", "lat": 38.934166833333336, "fusion_lon": 0.0, "fusion_lat": 0.0, "type": "electric_scooter", "name": "f34970af91371227f74899f6b412293d", "is_disabled": 0, "rental_uris": {"ios": "https://dc.lft.to/lastmile_qr_scan", "android": "https://dc.lft.to/lastmile_qr_scan"}, "is_reserved": 0}, {"lon": -76.99829633333333, "bike_id": "da6d29a069b10096e001d0034daf3df7", "lat": 38.894532166666664, "fusion_lon": 0.0, "fusion_lat": 0.0, "type": "electric_scooter", "name": "da6d29a069b10096e001d0034daf3df7", "is_disabled": 0, "rental_uris": {"ios": "https://dc.lft.to/lastmile_qr_scan", "android": "https://dc.lft.to/lastmile_qr_scan"}, "is_reserved": 0}, {"lon": -77.001975, "bike_id": "e72cfcef4a04f846dcefdaee6e8cafa4", "lat": 38.902408333333334, "fusion_lon": 0.0, "fusion_lat": 0.0, "type": "electric_scooter", "name": "e72cfcef4a04f846dcefdaee6e8cafa4", "is_disabled": 0, "rental_uris": {"ios": "https://dc.lft.to/lastmile_qr_scan", "android": "https://dc.lft.to/lastmile_qr_scan"}, "is_reserved": 0}, {"lon": -77.01345733333333, "bike_id": "de0355ffb141f2c90f7766d556c4406b", "lat": 38.878126, "fusion_lon": 0.0, "fusion_lat": 0.0, "type": "electric_scooter", "name": "de0355ffb141f2c90f7766d556c4406b", "is_disabled": 0, "rental_uris": {"ios": "https://dc.lft.to/lastmile_qr_scan", "android": "https://dc.lft.to/lastmile_qr_scan"}, "is_reserved": 0}, {"lon": -77.0208965, "bike_id": "6547d0bfbd06cb9742e6caaa9160ca80", "lat": 38.881807333333334, "fusion_lon": 0.0, "fusion_lat": 0.0, "type": "electric_scooter", "name": "6547d0bfbd06cb9742e6caaa9160ca80", "is_disabled": 0, "rental_uris": {"ios": "https://dc.lft.to/lastmile_qr_scan", "android": "https://dc.lft.to/lastmile_qr_scan"}, "is_reserved": 0}, {"lon": -77.04928683333333, "bike_id": "a8f0766568c72a76eac2bcd7e0a45606", "lat": 38.9021715, "fusion_lon": 0.0, "fusion_lat": 0.0, "type": "electric_scooter", "name": "a8f0766568c72a76eac2bcd7e0a45606", "is_disabled": 0, "rental_uris": {"ios": "https://dc.lft.to/lastmile_qr_scan", "android": "https://dc.lft.to/lastmile_qr_scan"}, "is_reserved": 0}, {"lon": -77.03496033333333, "bike_id": "39b130563e5cee82a0ea3c98cdb80d32", "lat": 38.9327715, "fusion_lon": 0.0, "fusion_lat": 0.0, "type": "electric_scooter", "name": "39b130563e5cee82a0ea3c98cdb80d32", "is_disabled": 0, "rental_uris": {"ios": "https://dc.lft.to/lastmile_qr_scan", "android": "https://dc.lft.to/lastmile_qr_scan"}, "is_reserved": 0}, {"lon": -77.02284266666666, "bike_id": "21985ee327ffec6fe135bc25a36c24cf", "lat": 38.90789683333333, "fusion_lon": 0.0, "fusion_lat": 0.0, "type": "electric_scooter", "name": "21985ee327ffec6fe135bc25a36c24cf", "is_disabled": 0, "rental_uris": {"ios": "https://dc.lft.to/lastmile_qr_scan", "android": "https://dc.lft.to/lastmile_qr_scan"}, "is_reserved": 0}, {"lon": -77.03282316666666, "bike_id": "01bdae72892322ac997d807573acc40f", "lat": 38.94157533333333, "fusion_lon": 0.0, "fusion_lat": 0.0, "type": "electric_scooter", "name": "01bdae72892322ac997d807573acc40f", "is_disabled": 0, "rental_uris": {"ios": "https://dc.lft.to/lastmile_qr_scan", "android": "https://dc.lft.to/lastmile_qr_scan"}, "is_reserved": 0}, {"lon": -77.02399233333334, "bike_id": "1824767af6cfad3e3a957f85155181e3", "lat": 38.93414883333333, "fusion_lon": 0.0, "fusion_lat": 0.0, "type": "electric_bike", "name": "1824767af6cfad3e3a957f85155181e3", "is_disabled": 0, "rental_uris": {"ios": "https://dc.lft.to/lastmile_qr_scan", "android": "https://dc.lft.to/lastmile_qr_scan"}, "is_reserved": 0}, {"lon": -76.97530983333333, "bike_id": "59985b0f503b63703bffbfa7ebbd2b59", "lat": 38.9033135, "fusion_lon": 0.0, "fusion_lat": 0.0, "type": "electric_bike", "name": "59985b0f503b63703bffbfa7ebbd2b59", "is_disabled": 0, "rental_uris": {"ios": "https://dc.lft.to/lastmile_qr_scan", "android": "https://dc.lft.to/lastmile_qr_scan"}, "is_reserved": 0}, {"lon": -77.0426375, "bike_id": "ce67032e8c43477f7ea441bb244ac0d8", "lat": 38.922378, "fusion_lon": 0.0, "fusion_lat": 0.0, "type": "electric_scooter", "name": "ce67032e8c43477f7ea441bb244ac0d8", "is_disabled": 0, "rental_uris": {"ios": "https://dc.lft.to/lastmile_qr_scan", "android": "https://dc.lft.to/lastmile_qr_scan"}, "is_reserved": 0}, {"lon": -77.0166175, "bike_id": "18ca16a58559755ec538a2971df26347", "lat": 38.91737333333333, "fusion_lon": 0.0, "fusion_lat": 0.0, "type": "electric_scooter", "name": "18ca16a58559755ec538a2971df26347", "is_disabled": 0, "rental_uris": {"ios": "https://dc.lft.to/lastmile_qr_scan", "android": "https://dc.lft.to/lastmile_qr_scan"}, "is_reserved": 0}, {"lon": -77.11781766666667, "bike_id": "8ed7c15995e9f6ba113a7c06a5b17136", "lat": 39.0549655, "fusion_lon": 0.0, "fusion_lat": 0.0, "type": "electric_bike", "name": "8ed7c15995e9f6ba113a7c06a5b17136", "is_disabled": 0, "rental_uris": {"ios": "https://dc.lft.to/lastmile_qr_scan", "android": "https://dc.lft.to/lastmile_qr_scan"}, "is_reserved": 0}, {"lon": -77.036222, "bike_id": "d4e70d9c21292834aec8b7dcac48d27d", "lat": 38.923157, "fusion_lon": 0.0, "fusion_lat": 0.0, "type": "electric_scooter", "name": "d4e70d9c21292834aec8b7dcac48d27d", "is_disabled": 0, "rental_uris": {"ios": "https://dc.lft.to/lastmile_qr_scan", "android": "https://dc.lft.to/lastmile_qr_scan"}, "is_reserved": 0}, {"lon": -77.0486415, "bike_id": "a889d63267443520c50637d26ffdaad6", "lat": 38.904777333333335, "fusion_lon": 0.0, "fusion_lat": 0.0, "type": "electric_bike", "name": "a889d63267443520c50637d26ffdaad6", "is_disabled": 0, "rental_uris": {"ios": "https://dc.lft.to/lastmile_qr_scan", "android": "https://dc.lft.to/lastmile_qr_scan"}, "is_reserved": 0}, {"lon": -77.0416885, "bike_id": "18a9e8ef882387c56d81b50aac022c2a", "lat": 38.9197095, "fusion_lon": 0.0, "fusion_lat": 0.0, "type": "electric_scooter", "name": "18a9e8ef882387c56d81b50aac022c2a", "is_disabled": 0, "rental_uris": {"ios": "https://dc.lft.to/lastmile_qr_scan", "android": "https://dc.lft.to/lastmile_qr_scan"}, "is_reserved": 0}, {"lon": -77.04489216666667, "bike_id": "5b378076f53448372aaa1bc691a98cd1", "lat": 38.8924275, "fusion_lon": 0.0, "fusion_lat": 0.0, "type": "electric_scooter", "name": "5b378076f53448372aaa1bc691a98cd1", "is_disabled": 0, "rental_uris": {"ios": "https://dc.lft.to/lastmile_qr_scan", "android": "https://dc.lft.to/lastmile_qr_scan"}, "is_reserved": 0}, {"lon": -77.05811783333333, "bike_id": "5641f5e2a383727f914b73d11d44695e", "lat": 38.93511, "fusion_lon": 0.0, "fusion_lat": 0.0, "type": "electric_scooter", "name": "5641f5e2a383727f914b73d11d44695e", "is_disabled": 0, "rental_uris": {"ios": "https://dc.lft.to/lastmile_qr_scan", "android": "https://dc.lft.to/lastmile_qr_scan"}, "is_reserved": 0}, {"lon": -77.0165265, "bike_id": "1d547d64168f61d8ef3c94e7b5b10bfc", "lat": 38.928954, "fusion_lon": 0.0, "fusion_lat": 0.0, "type": "electric_scooter", "name": "1d547d64168f61d8ef3c94e7b5b10bfc", "is_disabled": 0, "rental_uris": {"ios": "https://dc.lft.to/lastmile_qr_scan", "android": "https://dc.lft.to/lastmile_qr_scan"}, "is_reserved": 0}, {"lon": -77.02356633333333, "bike_id": "b0bc766bee9ba731207f1f8c79dc0c26", "lat": 38.892207, "fusion_lon": 0.0, "fusion_lat": 0.0, "type": "electric_scooter", "name": "b0bc766bee9ba731207f1f8c79dc0c26", "is_disabled": 0, "rental_uris": {"ios": "https://dc.lft.to/lastmile_qr_scan", "android": "https://dc.lft.to/lastmile_qr_scan"}, "is_reserved": 0}, {"lon": -77.03210616666667, "bike_id": "0ebef8830a6c5ad6f1883afabca6d605", "lat": 38.912246, "fusion_lon": 0.0, "fusion_lat": 0.0, "type": "electric_scooter", "name": "0ebef8830a6c5ad6f1883afabca6d605", "is_disabled": 0, "rental_uris": {"ios": "https://dc.lft.to/lastmile_qr_scan", "android": "https://dc.lft.to/lastmile_qr_scan"}, "is_reserved": 0}, {"lon": -77.03641333333333, "bike_id": "106cf92384be29414f4d93cec152f87d", "lat": 38.923055166666664, "fusion_lon": 0.0, "fusion_lat": 0.0, "type": "electric_scooter", "name": "106cf92384be29414f4d93cec152f87d", "is_disabled": 0, "rental_uris": {"ios": "https://dc.lft.to/lastmile_qr_scan", "android": "https://dc.lft.to/lastmile_qr_scan"}, "is_reserved": 0}, {"lon": -76.93132816666666, "bike_id": "6a35fad57cc27699a192db307c5cd4c9", "lat": 38.87850266666667, "fusion_lon": 0.0, "fusion_lat": 0.0, "type": "electric_scooter", "name": "6a35fad57cc27699a192db307c5cd4c9", "is_disabled": 0, "rental_uris": {"ios": "https://dc.lft.to/lastmile_qr_scan", "android": "https://dc.lft.to/lastmile_qr_scan"}, "is_reserved": 0}, {"lon": -77.02589516666667, "bike_id": "2a6861a14bf39d032a32f09a1c7c87e5", "lat": 38.943062, "fusion_lon": 0.0, "fusion_lat": 0.0, "type": "electric_scooter", "name": "2a6861a14bf39d032a32f09a1c7c87e5", "is_disabled": 0, "rental_uris": {"ios": "https://dc.lft.to/lastmile_qr_scan", "android": "https://dc.lft.to/lastmile_qr_scan"}, "is_reserved": 0}, {"lon": -77.07761716666667, "bike_id": "783a307f631efc9effaeff970b6e5259", "lat": 38.92564083333333, "fusion_lon": 0.0, "fusion_lat": 0.0, "type": "electric_scooter", "name": "783a307f631efc9effaeff970b6e5259", "is_disabled": 0, "rental_uris": {"ios": "https://dc.lft.to/lastmile_qr_scan", "android": "https://dc.lft.to/lastmile_qr_scan"}, "is_reserved": 0}, {"lon": -77.02478333333333, "bike_id": "e930f796760ca8eebe94aae9281b28d5", "lat": 38.919214333333336, "fusion_lon": 0.0, "fusion_lat": 0.0, "type": "electric_scooter", "name": "e930f796760ca8eebe94aae9281b28d5", "is_disabled": 0, "rental_uris": {"ios": "https://dc.lft.to/lastmile_qr_scan", "android": "https://dc.lft.to/lastmile_qr_scan"}, "is_reserved": 0}, {"lon": -77.04433966666667, "bike_id": "3cf1b8ffc587fd7c910d557f11834b6e", "lat": 38.92122766666667, "fusion_lon": 0.0, "fusion_lat": 0.0, "type": "electric_scooter", "name": "3cf1b8ffc587fd7c910d557f11834b6e", "is_disabled": 0, "rental_uris": {"ios": "https://dc.lft.to/lastmile_qr_scan", "android": "https://dc.lft.to/lastmile_qr_scan"}, "is_reserved": 0}, {"lon": -77.07296433333333, "bike_id": "fc0d2923deea7dfb374f83742cce9190", "lat": 38.93096166666667, "fusion_lon": 0.0, "fusion_lat": 0.0, "type": "electric_scooter", "name": "fc0d2923deea7dfb374f83742cce9190", "is_disabled": 0, "rental_uris": {"ios": "https://dc.lft.to/lastmile_qr_scan", "android": "https://dc.lft.to/lastmile_qr_scan"}, "is_reserved": 0}, {"lon": -77.03351716666667, "bike_id": "223ddf77171ffaf099d12417e1b5ee86", "lat": 38.892398, "fusion_lon": 0.0, "fusion_lat": 0.0, "type": "electric_scooter", "name": "223ddf77171ffaf099d12417e1b5ee86", "is_disabled": 0, "rental_uris": {"ios": "https://dc.lft.to/lastmile_qr_scan", "android": "https://dc.lft.to/lastmile_qr_scan"}, "is_reserved": 0}, {"lon": -77.02169766666667, "bike_id": "f17580a0bc3761657a2c4a1a92c6e17d", "lat": 38.908507666666665, "fusion_lon": 0.0, "fusion_lat": 0.0, "type": "electric_scooter", "name": "f17580a0bc3761657a2c4a1a92c6e17d", "is_disabled": 0, "rental_uris": {"ios": "https://dc.lft.to/lastmile_qr_scan", "android": "https://dc.lft.to/lastmile_qr_scan"}, "is_reserved": 0}, {"lon": -77.02320883333333, "bike_id": "3781db867baf6f013d48c5bbff41a956", "lat": 38.9170165, "fusion_lon": 0.0, "fusion_lat": 0.0, "type": "electric_scooter", "name": "3781db867baf6f013d48c5bbff41a956", "is_disabled": 0, "rental_uris": {"ios": "https://dc.lft.to/lastmile_qr_scan", "android": "https://dc.lft.to/lastmile_qr_scan"}, "is_reserved": 0}, {"lon": -77.041578, "bike_id": "20787c3a27053137eae1470e3fc129ac", "lat": 38.91249966666667, "fusion_lon": 0.0, "fusion_lat": 0.0, "type": "electric_scooter", "name": "20787c3a27053137eae1470e3fc129ac", "is_disabled": 0, "rental_uris": {"ios": "https://dc.lft.to/lastmile_qr_scan", "android": "https://dc.lft.to/lastmile_qr_scan"}, "is_reserved": 0}, {"lon": -77.043792, "bike_id": "8e9e04de979eba3f2da7c2a29060abab", "lat": 38.920693166666666, "fusion_lon": 0.0, "fusion_lat": 0.0, "type": "electric_scooter", "name": "8e9e04de979eba3f2da7c2a29060abab", "is_disabled": 0, "rental_uris": {"ios": "https://dc.lft.to/lastmile_qr_scan", "android": "https://dc.lft.to/lastmile_qr_scan"}, "is_reserved": 0}, {"lon": -77.0206255, "bike_id": "01258b663e25dafbe0f65b2706fc7c19", "lat": 38.899885833333336, "fusion_lon": 0.0, "fusion_lat": 0.0, "type": "electric_scooter", "name": "01258b663e25dafbe0f65b2706fc7c19", "is_disabled": 0, "rental_uris": {"ios": "https://dc.lft.to/lastmile_qr_scan", "android": "https://dc.lft.to/lastmile_qr_scan"}, "is_reserved": 0}, {"lon": -76.98526366666667, "bike_id": "07915f373efdc916d7de782136eac838", "lat": 38.866853166666665, "fusion_lon": 0.0, "fusion_lat": 0.0, "type": "electric_scooter", "name": "07915f373efdc916d7de782136eac838", "is_disabled": 0, "rental_uris": {"ios": "https://dc.lft.to/lastmile_qr_scan", "android": "https://dc.lft.to/lastmile_qr_scan"}, "is_reserved": 0}, {"lon": -77.02033616666667, "bike_id": "58059bf774f80e71c16b4529166e591a", "lat": 38.908665, "fusion_lon": 0.0, "fusion_lat": 0.0, "type": "electric_scooter", "name": "58059bf774f80e71c16b4529166e591a", "is_disabled": 0, "rental_uris": {"ios": "https://dc.lft.to/lastmile_qr_scan", "android": "https://dc.lft.to/lastmile_qr_scan"}, "is_reserved": 0}, {"lon": -77.02227483333333, "bike_id": "c1aa07256ebce8d54f52f1076aa25c7c", "lat": 38.91252866666667, "fusion_lon": 0.0, "fusion_lat": 0.0, "type": "electric_scooter", "name": "c1aa07256ebce8d54f52f1076aa25c7c", "is_disabled": 0, "rental_uris": {"ios": "https://dc.lft.to/lastmile_qr_scan", "android": "https://dc.lft.to/lastmile_qr_scan"}, "is_reserved": 0}, {"lon": -77.01471983333333, "bike_id": "be479e1370ef289094dc51c8582b8dc4", "lat": 38.9406845, "fusion_lon": 0.0, "fusion_lat": 0.0, "type": "electric_bike", "name": "be479e1370ef289094dc51c8582b8dc4", "is_disabled": 0, "rental_uris": {"ios": "https://dc.lft.to/lastmile_qr_scan", "android": "https://dc.lft.to/lastmile_qr_scan"}, "is_reserved": 0}, {"lon": -76.9305465, "bike_id": "0a699b33aeab6e75913d53a6f218c8f7", "lat": 38.88395, "fusion_lon": 0.0, "fusion_lat": 0.0, "type": "electric_scooter", "name": "0a699b33aeab6e75913d53a6f218c8f7", "is_disabled": 0, "rental_uris": {"ios": "https://dc.lft.to/lastmile_qr_scan", "android": "https://dc.lft.to/lastmile_qr_scan"}, "is_reserved": 0}, {"lon": -77.02659233333334, "bike_id": "8b26707ac053a2e5c3a8b803f282d721", "lat": 38.9169485, "fusion_lon": 0.0, "fusion_lat": 0.0, "type": "electric_scooter", "name": "8b26707ac053a2e5c3a8b803f282d721", "is_disabled": 0, "rental_uris": {"ios": "https://dc.lft.to/lastmile_qr_scan", "android": "https://dc.lft.to/lastmile_qr_scan"}, "is_reserved": 0}, {"lon": -77.02663166666666, "bike_id": "2b8e524ab35a2b81e340defea53b7a42", "lat": 38.92181466666667, "fusion_lon": 0.0, "fusion_lat": 0.0, "type": "electric_scooter", "name": "2b8e524ab35a2b81e340defea53b7a42", "is_disabled": 0, "rental_uris": {"ios": "https://dc.lft.to/lastmile_qr_scan", "android": "https://dc.lft.to/lastmile_qr_scan"}, "is_reserved": 0}, {"lon": -77.04350333333333, "bike_id": "f01b5d889febd24763a0679fdd844baf", "lat": 38.9217465, "fusion_lon": 0.0, "fusion_lat": 0.0, "type": "electric_scooter", "name": "f01b5d889febd24763a0679fdd844baf", "is_disabled": 0, "rental_uris": {"ios": "https://dc.lft.to/lastmile_qr_scan", "android": "https://dc.lft.to/lastmile_qr_scan"}, "is_reserved": 0}, {"lon": -77.0034255, "bike_id": "6377c75f21c16a3d5c544e7c27a5d430", "lat": 38.899276, "fusion_lon": 0.0, "fusion_lat": 0.0, "type": "electric_scooter", "name": "6377c75f21c16a3d5c544e7c27a5d430", "is_disabled": 0, "rental_uris": {"ios": "https://dc.lft.to/lastmile_qr_scan", "android": "https://dc.lft.to/lastmile_qr_scan"}, "is_reserved": 0}, {"lon": -77.031789, "bike_id": "2dde927cdd5df9c780ce0493f52e5ace", "lat": 38.8920095, "fusion_lon": 0.0, "fusion_lat": 0.0, "type": "electric_scooter", "name": "2dde927cdd5df9c780ce0493f52e5ace", "is_disabled": 0, "rental_uris": {"ios": "https://dc.lft.to/lastmile_qr_scan", "android": "https://dc.lft.to/lastmile_qr_scan"}, "is_reserved": 0}, {"lon": -77.02262466666667, "bike_id": "e7ba2ed57d8914c0297d1a9a8726b87e", "lat": 38.937626, "fusion_lon": 0.0, "fusion_lat": 0.0, "type": "electric_scooter", "name": "e7ba2ed57d8914c0297d1a9a8726b87e", "is_disabled": 0, "rental_uris": {"ios": "https://dc.lft.to/lastmile_qr_scan", "android": "https://dc.lft.to/lastmile_qr_scan"}, "is_reserved": 0}, {"lon": -77.02711983333333, "bike_id": "b324960d57cdbf6feaa2f6a7cf839456", "lat": 38.926652, "fusion_lon": 0.0, "fusion_lat": 0.0, "type": "electric_scooter", "name": "b324960d57cdbf6feaa2f6a7cf839456", "is_disabled": 0, "rental_uris": {"ios": "https://dc.lft.to/lastmile_qr_scan", "android": "https://dc.lft.to/lastmile_qr_scan"}, "is_reserved": 0}, {"lon": -77.04485466666667, "bike_id": "f1b4f5b8d91f5e06ad2116787e33ba97", "lat": 38.89242466666666, "fusion_lon": 0.0, "fusion_lat": 0.0, "type": "electric_scooter", "name": "f1b4f5b8d91f5e06ad2116787e33ba97", "is_disabled": 0, "rental_uris": {"ios": "https://dc.lft.to/lastmile_qr_scan", "android": "https://dc.lft.to/lastmile_qr_scan"}, "is_reserved": 0}, {"lon": -77.01279266666667, "bike_id": "dc6c5d3c0b99e8fdab3d11e935c6532c", "lat": 38.915683, "fusion_lon": 0.0, "fusion_lat": 0.0, "type": "electric_scooter", "name": "dc6c5d3c0b99e8fdab3d11e935c6532c", "is_disabled": 0, "rental_uris": {"ios": "https://dc.lft.to/lastmile_qr_scan", "android": "https://dc.lft.to/lastmile_qr_scan"}, "is_reserved": 0}, {"lon": -77.00528866666667, "bike_id": "3ee45783a95eeb0aadbb3b7cf102096f", "lat": 38.929759, "fusion_lon": 0.0, "fusion_lat": 0.0, "type": "electric_scooter", "name": "3ee45783a95eeb0aadbb3b7cf102096f", "is_disabled": 0, "rental_uris": {"ios": "https://dc.lft.to/lastmile_qr_scan", "android": "https://dc.lft.to/lastmile_qr_scan"}, "is_reserved": 0}, {"lon": -77.05263, "bike_id": "9ad61542e059f25126a0fb1f6cba60d5", "lat": 38.92572766666667, "fusion_lon": 0.0, "fusion_lat": 0.0, "type": "electric_scooter", "name": "9ad61542e059f25126a0fb1f6cba60d5", "is_disabled": 0, "rental_uris": {"ios": "https://dc.lft.to/lastmile_qr_scan", "android": "https://dc.lft.to/lastmile_qr_scan"}, "is_reserved": 0}, {"lon": -76.97430233333333, "bike_id": "ce6576b430cd59b48749ace99271cd39", "lat": 38.864123166666666, "fusion_lon": 0.0, "fusion_lat": 0.0, "type": "electric_scooter", "name": "ce6576b430cd59b48749ace99271cd39", "is_disabled": 0, "rental_uris": {"ios": "https://dc.lft.to/lastmile_qr_scan", "android": "https://dc.lft.to/lastmile_qr_scan"}, "is_reserved": 0}, {"lon": -77.050262, "bike_id": "86d8846d155245408459e8f31b979744", "lat": 38.901597333333335, "fusion_lon": 0.0, "fusion_lat": 0.0, "type": "electric_scooter", "name": "86d8846d155245408459e8f31b979744", "is_disabled": 0, "rental_uris": {"ios": "https://dc.lft.to/lastmile_qr_scan", "android": "https://dc.lft.to/lastmile_qr_scan"}, "is_reserved": 0}, {"lon": -77.04102083333333, "bike_id": "a5ef314ccfa4fa81961fe3add4b9377d", "lat": 38.923162166666664, "fusion_lon": 0.0, "fusion_lat": 0.0, "type": "electric_scooter", "name": "a5ef314ccfa4fa81961fe3add4b9377d", "is_disabled": 0, "rental_uris": {"ios": "https://dc.lft.to/lastmile_qr_scan", "android": "https://dc.lft.to/lastmile_qr_scan"}, "is_reserved": 0}, {"lon": -77.0319925, "bike_id": "7893bdb97dba514783b3092fdf582ec7", "lat": 38.912517, "fusion_lon": 0.0, "fusion_lat": 0.0, "type": "electric_scooter", "name": "7893bdb97dba514783b3092fdf582ec7", "is_disabled": 0, "rental_uris": {"ios": "https://dc.lft.to/lastmile_qr_scan", "android": "https://dc.lft.to/lastmile_qr_scan"}, "is_reserved": 0}, {"lon": -77.03090766666666, "bike_id": "0f67fef033316e32c38d9a8dcf9e7988", "lat": 38.909950333333335, "fusion_lon": 0.0, "fusion_lat": 0.0, "type": "electric_scooter", "name": "0f67fef033316e32c38d9a8dcf9e7988", "is_disabled": 0, "rental_uris": {"ios": "https://dc.lft.to/lastmile_qr_scan", "android": "https://dc.lft.to/lastmile_qr_scan"}, "is_reserved": 0}, {"lon": -77.02965383333333, "bike_id": "383608a032f86c27bcbc884f3304db47", "lat": 38.922884333333336, "fusion_lon": 0.0, "fusion_lat": 0.0, "type": "electric_scooter", "name": "383608a032f86c27bcbc884f3304db47", "is_disabled": 0, "rental_uris": {"ios": "https://dc.lft.to/lastmile_qr_scan", "android": "https://dc.lft.to/lastmile_qr_scan"}, "is_reserved": 0}, {"lon": -76.935456, "bike_id": "a3b8ac1390de6b7fc4ea142b83cd325b", "lat": 38.890267333333334, "fusion_lon": 0.0, "fusion_lat": 0.0, "type": "electric_scooter", "name": "a3b8ac1390de6b7fc4ea142b83cd325b", "is_disabled": 0, "rental_uris": {"ios": "https://dc.lft.to/lastmile_qr_scan", "android": "https://dc.lft.to/lastmile_qr_scan"}, "is_reserved": 0}, {"lon": -77.04482383333334, "bike_id": "aae1040757b9b6f601ef91129c05fcd1", "lat": 38.90859116666667, "fusion_lon": 0.0, "fusion_lat": 0.0, "type": "electric_scooter", "name": "aae1040757b9b6f601ef91129c05fcd1", "is_disabled": 0, "rental_uris": {"ios": "https://dc.lft.to/lastmile_qr_scan", "android": "https://dc.lft.to/lastmile_qr_scan"}, "is_reserved": 0}, {"lon": -77.0366005, "bike_id": "a29dd72f1ab4abf90053bcdacef56303", "lat": 38.92283616666667, "fusion_lon": 0.0, "fusion_lat": 0.0, "type": "electric_scooter", "name": "a29dd72f1ab4abf90053bcdacef56303", "is_disabled": 0, "rental_uris": {"ios": "https://dc.lft.to/lastmile_qr_scan", "android": "https://dc.lft.to/lastmile_qr_scan"}, "is_reserved": 0}, {"lon": -76.95751616666666, "bike_id": "1a793c1175fa0a10078bc381f2c9257c", "lat": 38.88425766666667, "fusion_lon": 0.0, "fusion_lat": 0.0, "type": "electric_scooter", "name": "1a793c1175fa0a10078bc381f2c9257c", "is_disabled": 0, "rental_uris": {"ios": "https://dc.lft.to/lastmile_qr_scan", "android": "https://dc.lft.to/lastmile_qr_scan"}, "is_reserved": 0}, {"lon": -77.03047866666667, "bike_id": "31d738759ed73c469ed890b8fc928429", "lat": 38.884274166666664, "fusion_lon": 0.0, "fusion_lat": 0.0, "type": "electric_scooter", "name": "31d738759ed73c469ed890b8fc928429", "is_disabled": 0, "rental_uris": {"ios": "https://dc.lft.to/lastmile_qr_scan", "android": "https://dc.lft.to/lastmile_qr_scan"}, "is_reserved": 0}, {"lon": -77.0635825, "bike_id": "72ff74082cec4f616dac1934ce0368a5", "lat": 38.943970166666666, "fusion_lon": 0.0, "fusion_lat": 0.0, "type": "electric_bike", "name": "72ff74082cec4f616dac1934ce0368a5", "is_disabled": 0, "rental_uris": {"ios": "https://dc.lft.to/lastmile_qr_scan", "android": "https://dc.lft.to/lastmile_qr_scan"}, "is_reserved": 0}, {"lon": -77.06102383333334, "bike_id": "5d7132e69d1ecd27f7fcf8446e4a8a00", "lat": 38.90525366666667, "fusion_lon": 0.0, "fusion_lat": 0.0, "type": "electric_scooter", "name": "5d7132e69d1ecd27f7fcf8446e4a8a00", "is_disabled": 0, "rental_uris": {"ios": "https://dc.lft.to/lastmile_qr_scan", "android": "https://dc.lft.to/lastmile_qr_scan"}, "is_reserved": 0}, {"lon": -77.02375433333333, "bike_id": "c6b568402535c0147c8da9cb04cfab70", "lat": 38.90021183333333, "fusion_lon": 0.0, "fusion_lat": 0.0, "type": "electric_scooter", "name": "c6b568402535c0147c8da9cb04cfab70", "is_disabled": 0, "rental_uris": {"ios": "https://dc.lft.to/lastmile_qr_scan", "android": "https://dc.lft.to/lastmile_qr_scan"}, "is_reserved": 0}, {"lon": -77.06873933333334, "bike_id": "ecbdc182b862f6d20078b57c11703d0a", "lat": 38.90398533333333, "fusion_lon": 0.0, "fusion_lat": 0.0, "type": "electric_bike", "name": "ecbdc182b862f6d20078b57c11703d0a", "is_disabled": 0, "rental_uris": {"ios": "https://dc.lft.to/lastmile_qr_scan", "android": "https://dc.lft.to/lastmile_qr_scan"}, "is_reserved": 0}, {"lon": -77.04480383333333, "bike_id": "b5a43fea87c2154db10c140dd54bf9d1", "lat": 38.91466233333333, "fusion_lon": 0.0, "fusion_lat": 0.0, "type": "electric_scooter", "name": "b5a43fea87c2154db10c140dd54bf9d1", "is_disabled": 0, "rental_uris": {"ios": "https://dc.lft.to/lastmile_qr_scan", "android": "https://dc.lft.to/lastmile_qr_scan"}, "is_reserved": 0}, {"lon": -77.029686, "bike_id": "da56fb4cb0fe9d0eb10262f1267dfcb7", "lat": 38.9124745, "fusion_lon": 0.0, "fusion_lat": 0.0, "type": "electric_scooter", "name": "da56fb4cb0fe9d0eb10262f1267dfcb7", "is_disabled": 0, "rental_uris": {"ios": "https://dc.lft.to/lastmile_qr_scan", "android": "https://dc.lft.to/lastmile_qr_scan"}, "is_reserved": 0}, {"lon": -76.98948566666667, "bike_id": "a931d85594fc92cec78d00ebde77e30f", "lat": 38.9018885, "fusion_lon": 0.0, "fusion_lat": 0.0, "type": "electric_scooter", "name": "a931d85594fc92cec78d00ebde77e30f", "is_disabled": 0, "rental_uris": {"ios": "https://dc.lft.to/lastmile_qr_scan", "android": "https://dc.lft.to/lastmile_qr_scan"}, "is_reserved": 0}, {"lon": -77.04190516666667, "bike_id": "938ddae949b4479a9850daf79a060e9b", "lat": 38.89983016666667, "fusion_lon": 0.0, "fusion_lat": 0.0, "type": "electric_scooter", "name": "938ddae949b4479a9850daf79a060e9b", "is_disabled": 0, "rental_uris": {"ios": "https://dc.lft.to/lastmile_qr_scan", "android": "https://dc.lft.to/lastmile_qr_scan"}, "is_reserved": 0}, {"lon": -77.02211883333334, "bike_id": "fba1008ac66c1b25ff23c125a914a9ea", "lat": 38.887297333333336, "fusion_lon": 0.0, "fusion_lat": 0.0, "type": "electric_scooter", "name": "fba1008ac66c1b25ff23c125a914a9ea", "is_disabled": 0, "rental_uris": {"ios": "https://dc.lft.to/lastmile_qr_scan", "android": "https://dc.lft.to/lastmile_qr_scan"}, "is_reserved": 0}, {"lon": -77.04173183333333, "bike_id": "17029f38d3f0bcac633695bf49961309", "lat": 38.9197355, "fusion_lon": 0.0, "fusion_lat": 0.0, "type": "electric_scooter", "name": "17029f38d3f0bcac633695bf49961309", "is_disabled": 0, "rental_uris": {"ios": "https://dc.lft.to/lastmile_qr_scan", "android": "https://dc.lft.to/lastmile_qr_scan"}, "is_reserved": 0}, {"lon": -76.97326516666666, "bike_id": "4c2ec992c832c43e853ef90fabe44227", "lat": 38.904808833333334, "fusion_lon": 0.0, "fusion_lat": 0.0, "type": "electric_bike", "name": "4c2ec992c832c43e853ef90fabe44227", "is_disabled": 0, "rental_uris": {"ios": "https://dc.lft.to/lastmile_qr_scan", "android": "https://dc.lft.to/lastmile_qr_scan"}, "is_reserved": 0}, {"lon": -77.03845066666666, "bike_id": "6a108ee5c9df24b184017e5f3ef257b1", "lat": 38.91039283333333, "fusion_lon": 0.0, "fusion_lat": 0.0, "type": "electric_scooter", "name": "6a108ee5c9df24b184017e5f3ef257b1", "is_disabled": 0, "rental_uris": {"ios": "https://dc.lft.to/lastmile_qr_scan", "android": "https://dc.lft.to/lastmile_qr_scan"}, "is_reserved": 0}, {"lon": -77.02568016666666, "bike_id": "e5b1a2f544bca89ad07b69321744253d", "lat": 38.882949333333336, "fusion_lon": 0.0, "fusion_lat": 0.0, "type": "electric_scooter", "name": "e5b1a2f544bca89ad07b69321744253d", "is_disabled": 0, "rental_uris": {"ios": "https://dc.lft.to/lastmile_qr_scan", "android": "https://dc.lft.to/lastmile_qr_scan"}, "is_reserved": 0}, {"lon": -77.0239045, "bike_id": "0ae9f34b8689ecc3ee1896bcb537860d", "lat": 38.881383166666666, "fusion_lon": 0.0, "fusion_lat": 0.0, "type": "electric_scooter", "name": "0ae9f34b8689ecc3ee1896bcb537860d", "is_disabled": 0, "rental_uris": {"ios": "https://dc.lft.to/lastmile_qr_scan", "android": "https://dc.lft.to/lastmile_qr_scan"}, "is_reserved": 0}, {"lon": -77.03289366666667, "bike_id": "b4e212d4d9d953987575f9c8623178aa", "lat": 38.95652, "fusion_lon": 0.0, "fusion_lat": 0.0, "type": "electric_scooter", "name": "b4e212d4d9d953987575f9c8623178aa", "is_disabled": 0, "rental_uris": {"ios": "https://dc.lft.to/lastmile_qr_scan", "android": "https://dc.lft.to/lastmile_qr_scan"}, "is_reserved": 0}, {"lon": -77.04844833333334, "bike_id": "4ff64e22c23f975bf2d44e1ca2280a48", "lat": 38.91519183333333, "fusion_lon": 0.0, "fusion_lat": 0.0, "type": "electric_scooter", "name": "4ff64e22c23f975bf2d44e1ca2280a48", "is_disabled": 0, "rental_uris": {"ios": "https://dc.lft.to/lastmile_qr_scan", "android": "https://dc.lft.to/lastmile_qr_scan"}, "is_reserved": 0}, {"lon": -77.016142, "bike_id": "b00c098994b484fbd53dc09b82f50d53", "lat": 38.8997085, "fusion_lon": 0.0, "fusion_lat": 0.0, "type": "electric_scooter", "name": "b00c098994b484fbd53dc09b82f50d53", "is_disabled": 0, "rental_uris": {"ios": "https://dc.lft.to/lastmile_qr_scan", "android": "https://dc.lft.to/lastmile_qr_scan"}, "is_reserved": 0}, {"lon": -77.03985633333333, "bike_id": "e112262399706ea23a062767fe75fccc", "lat": 38.933404333333336, "fusion_lon": 0.0, "fusion_lat": 0.0, "type": "electric_scooter", "name": "e112262399706ea23a062767fe75fccc", "is_disabled": 0, "rental_uris": {"ios": "https://dc.lft.to/lastmile_qr_scan", "android": "https://dc.lft.to/lastmile_qr_scan"}, "is_reserved": 0}, {"lon": -76.99790483333334, "bike_id": "b66015be5ca9a1d17ba41fd49d2e66ae", "lat": 38.956465, "fusion_lon": 0.0, "fusion_lat": 0.0, "type": "electric_bike", "name": "b66015be5ca9a1d17ba41fd49d2e66ae", "is_disabled": 0, "rental_uris": {"ios": "https://dc.lft.to/lastmile_qr_scan", "android": "https://dc.lft.to/lastmile_qr_scan"}, "is_reserved": 0}, {"lon": -77.0199565, "bike_id": "c558e462489aa9b37594ac16ee437d4e", "lat": 38.91530266666667, "fusion_lon": 0.0, "fusion_lat": 0.0, "type": "electric_scooter", "name": "c558e462489aa9b37594ac16ee437d4e", "is_disabled": 0, "rental_uris": {"ios": "https://dc.lft.to/lastmile_qr_scan", "android": "https://dc.lft.to/lastmile_qr_scan"}, "is_reserved": 0}, {"lon": -77.0585765, "bike_id": "0d3eb9172cc9585c3ed0682e6845ac23", "lat": 38.93548783333333, "fusion_lon": 0.0, "fusion_lat": 0.0, "type": "electric_scooter", "name": "0d3eb9172cc9585c3ed0682e6845ac23", "is_disabled": 0, "rental_uris": {"ios": "https://dc.lft.to/lastmile_qr_scan", "android": "https://dc.lft.to/lastmile_qr_scan"}, "is_reserved": 0}, {"lon": -77.02055383333334, "bike_id": "a97f0df6ca8b541298a4356a426ef410", "lat": 38.909693833333336, "fusion_lon": 0.0, "fusion_lat": 0.0, "type": "electric_scooter", "name": "a97f0df6ca8b541298a4356a426ef410", "is_disabled": 0, "rental_uris": {"ios": "https://dc.lft.to/lastmile_qr_scan", "android": "https://dc.lft.to/lastmile_qr_scan"}, "is_reserved": 0}, {"lon": -77.00503483333334, "bike_id": "d0f198d788a675cfb86ed1f77a4c203f", "lat": 38.912559333333334, "fusion_lon": 0.0, "fusion_lat": 0.0, "type": "electric_scooter", "name": "d0f198d788a675cfb86ed1f77a4c203f", "is_disabled": 0, "rental_uris": {"ios": "https://dc.lft.to/lastmile_qr_scan", "android": "https://dc.lft.to/lastmile_qr_scan"}, "is_reserved": 0}, {"lon": -77.0464465, "bike_id": "b06164eb641bc8618c1f83b07bb92c42", "lat": 38.91594583333333, "fusion_lon": 0.0, "fusion_lat": 0.0, "type": "electric_scooter", "name": "b06164eb641bc8618c1f83b07bb92c42", "is_disabled": 0, "rental_uris": {"ios": "https://dc.lft.to/lastmile_qr_scan", "android": "https://dc.lft.to/lastmile_qr_scan"}, "is_reserved": 0}, {"lon": -77.0235905, "bike_id": "2c83ea6b1d1e696693ff88e836ff1324", "lat": 38.892191833333335, "fusion_lon": 0.0, "fusion_lat": 0.0, "type": "electric_scooter", "name": "2c83ea6b1d1e696693ff88e836ff1324", "is_disabled": 0, "rental_uris": {"ios": "https://dc.lft.to/lastmile_qr_scan", "android": "https://dc.lft.to/lastmile_qr_scan"}, "is_reserved": 0}, {"lon": -77.03658616666667, "bike_id": "d3f2c5e1a53035ee9049154c60ec2824", "lat": 38.92283883333333, "fusion_lon": 0.0, "fusion_lat": 0.0, "type": "electric_scooter", "name": "d3f2c5e1a53035ee9049154c60ec2824", "is_disabled": 0, "rental_uris": {"ios": "https://dc.lft.to/lastmile_qr_scan", "android": "https://dc.lft.to/lastmile_qr_scan"}, "is_reserved": 0}, {"lon": -77.02404916666667, "bike_id": "341ce1b8405324ab240e1089a252b7bc", "lat": 38.916804, "fusion_lon": 0.0, "fusion_lat": 0.0, "type": "electric_scooter", "name": "341ce1b8405324ab240e1089a252b7bc", "is_disabled": 0, "rental_uris": {"ios": "https://dc.lft.to/lastmile_qr_scan", "android": "https://dc.lft.to/lastmile_qr_scan"}, "is_reserved": 0}, {"lon": -77.058628, "bike_id": "1ab162cc7db393757bd043fb6d36b9c7", "lat": 38.93607433333333, "fusion_lon": 0.0, "fusion_lat": 0.0, "type": "electric_scooter", "name": "1ab162cc7db393757bd043fb6d36b9c7", "is_disabled": 0, "rental_uris": {"ios": "https://dc.lft.to/lastmile_qr_scan", "android": "https://dc.lft.to/lastmile_qr_scan"}, "is_reserved": 0}, {"lon": -77.03405333333333, "bike_id": "cf65e902162733e223e19a5782b0c79e", "lat": 38.92319066666667, "fusion_lon": 0.0, "fusion_lat": 0.0, "type": "electric_scooter", "name": "cf65e902162733e223e19a5782b0c79e", "is_disabled": 0, "rental_uris": {"ios": "https://dc.lft.to/lastmile_qr_scan", "android": "https://dc.lft.to/lastmile_qr_scan"}, "is_reserved": 0}, {"lon": -77.02470016666666, "bike_id": "00b6fbb257b850b41daed4691d12fde1", "lat": 38.900973, "fusion_lon": 0.0, "fusion_lat": 0.0, "type": "electric_scooter", "name": "00b6fbb257b850b41daed4691d12fde1", "is_disabled": 0, "rental_uris": {"ios": "https://dc.lft.to/lastmile_qr_scan", "android": "https://dc.lft.to/lastmile_qr_scan"}, "is_reserved": 0}, {"lon": -77.04325616666667, "bike_id": "fda06168c1d9d69ee71b4b2a60ba6d1a", "lat": 38.902507666666665, "fusion_lon": 0.0, "fusion_lat": 0.0, "type": "electric_scooter", "name": "fda06168c1d9d69ee71b4b2a60ba6d1a", "is_disabled": 0, "rental_uris": {"ios": "https://dc.lft.to/lastmile_qr_scan", "android": "https://dc.lft.to/lastmile_qr_scan"}, "is_reserved": 0}, {"lon": -77.052634, "bike_id": "67e2d3530103377e5d6abbad39731289", "lat": 38.92774, "fusion_lon": 0.0, "fusion_lat": 0.0, "type": "electric_scooter", "name": "67e2d3530103377e5d6abbad39731289", "is_disabled": 0, "rental_uris": {"ios": "https://dc.lft.to/lastmile_qr_scan", "android": "https://dc.lft.to/lastmile_qr_scan"}, "is_reserved": 0}, {"lon": -77.02755266666667, "bike_id": "b3db180f4326e62fd92209ade42fc6f2", "lat": 38.94407733333333, "fusion_lon": 0.0, "fusion_lat": 0.0, "type": "electric_scooter", "name": "b3db180f4326e62fd92209ade42fc6f2", "is_disabled": 0, "rental_uris": {"ios": "https://dc.lft.to/lastmile_qr_scan", "android": "https://dc.lft.to/lastmile_qr_scan"}, "is_reserved": 0}, {"lon": -77.01842033333334, "bike_id": "648dd93104e3db1b12db09b2ef713f10", "lat": 38.914890166666666, "fusion_lon": 0.0, "fusion_lat": 0.0, "type": "electric_scooter", "name": "648dd93104e3db1b12db09b2ef713f10", "is_disabled": 0, "rental_uris": {"ios": "https://dc.lft.to/lastmile_qr_scan", "android": "https://dc.lft.to/lastmile_qr_scan"}, "is_reserved": 0}, {"lon": -77.04556183333334, "bike_id": "eae5004c77e0ace9a6b5e308008b8bfd", "lat": 38.915886666666665, "fusion_lon": 0.0, "fusion_lat": 0.0, "type": "electric_scooter", "name": "eae5004c77e0ace9a6b5e308008b8bfd", "is_disabled": 0, "rental_uris": {"ios": "https://dc.lft.to/lastmile_qr_scan", "android": "https://dc.lft.to/lastmile_qr_scan"}, "is_reserved": 0}, {"lon": -77.0382365, "bike_id": "17c645be969ef14a5612d681ef8279a7", "lat": 38.906725, "fusion_lon": 0.0, "fusion_lat": 0.0, "type": "electric_scooter", "name": "17c645be969ef14a5612d681ef8279a7", "is_disabled": 0, "rental_uris": {"ios": "https://dc.lft.to/lastmile_qr_scan", "android": "https://dc.lft.to/lastmile_qr_scan"}, "is_reserved": 0}, {"lon": -76.98364933333333, "bike_id": "9d6e2311fd849996261fb22409a2d6d3", "lat": 38.91559133333333, "fusion_lon": 0.0, "fusion_lat": 0.0, "type": "electric_scooter", "name": "9d6e2311fd849996261fb22409a2d6d3", "is_disabled": 0, "rental_uris": {"ios": "https://dc.lft.to/lastmile_qr_scan", "android": "https://dc.lft.to/lastmile_qr_scan"}, "is_reserved": 0}, {"lon": -76.99884766666666, "bike_id": "5cd7da23729508a9329411c1b3d9c8f3", "lat": 38.920600666666665, "fusion_lon": 0.0, "fusion_lat": 0.0, "type": "electric_scooter", "name": "5cd7da23729508a9329411c1b3d9c8f3", "is_disabled": 0, "rental_uris": {"ios": "https://dc.lft.to/lastmile_qr_scan", "android": "https://dc.lft.to/lastmile_qr_scan"}, "is_reserved": 0}, {"lon": -77.02180483333333, "bike_id": "963382ee4000c4d26c18f0cce96a8718", "lat": 38.92011683333333, "fusion_lon": 0.0, "fusion_lat": 0.0, "type": "electric_scooter", "name": "963382ee4000c4d26c18f0cce96a8718", "is_disabled": 0, "rental_uris": {"ios": "https://dc.lft.to/lastmile_qr_scan", "android": "https://dc.lft.to/lastmile_qr_scan"}, "is_reserved": 0}, {"lon": -77.05344983333333, "bike_id": "37d7eae710b52ce6933a5177eec60f14", "lat": 38.90269083333333, "fusion_lon": 0.0, "fusion_lat": 0.0, "type": "electric_scooter", "name": "37d7eae710b52ce6933a5177eec60f14", "is_disabled": 0, "rental_uris": {"ios": "https://dc.lft.to/lastmile_qr_scan", "android": "https://dc.lft.to/lastmile_qr_scan"}, "is_reserved": 0}, {"lon": -77.03124833333334, "bike_id": "7ca2f6ffc976af3603cc1f58ee7bfa29", "lat": 38.9156605, "fusion_lon": 0.0, "fusion_lat": 0.0, "type": "electric_bike", "name": "7ca2f6ffc976af3603cc1f58ee7bfa29", "is_disabled": 0, "rental_uris": {"ios": "https://dc.lft.to/lastmile_qr_scan", "android": "https://dc.lft.to/lastmile_qr_scan"}, "is_reserved": 0}, {"lon": -77.03207233333333, "bike_id": "4a3719d056132070ea84ffd1ae3ccb89", "lat": 38.915008666666665, "fusion_lon": 0.0, "fusion_lat": 0.0, "type": "electric_scooter", "name": "4a3719d056132070ea84ffd1ae3ccb89", "is_disabled": 0, "rental_uris": {"ios": "https://dc.lft.to/lastmile_qr_scan", "android": "https://dc.lft.to/lastmile_qr_scan"}, "is_reserved": 0}, {"lon": -77.02647783333333, "bike_id": "47edc3af45427f253082c8f42815a5e5", "lat": 38.938606166666666, "fusion_lon": 0.0, "fusion_lat": 0.0, "type": "electric_scooter", "name": "47edc3af45427f253082c8f42815a5e5", "is_disabled": 0, "rental_uris": {"ios": "https://dc.lft.to/lastmile_qr_scan", "android": "https://dc.lft.to/lastmile_qr_scan"}, "is_reserved": 0}, {"lon": -77.01056983333334, "bike_id": "91e097cd11efd516673e68e265e1ee25", "lat": 38.87869633333333, "fusion_lon": 0.0, "fusion_lat": 0.0, "type": "electric_scooter", "name": "91e097cd11efd516673e68e265e1ee25", "is_disabled": 0, "rental_uris": {"ios": "https://dc.lft.to/lastmile_qr_scan", "android": "https://dc.lft.to/lastmile_qr_scan"}, "is_reserved": 0}, {"lon": -77.03109866666667, "bike_id": "79bd63c91789ffcae50eafca03c08666", "lat": 38.915619, "fusion_lon": 0.0, "fusion_lat": 0.0, "type": "electric_scooter", "name": "79bd63c91789ffcae50eafca03c08666", "is_disabled": 0, "rental_uris": {"ios": "https://dc.lft.to/lastmile_qr_scan", "android": "https://dc.lft.to/lastmile_qr_scan"}, "is_reserved": 0}, {"lon": -76.99354033333333, "bike_id": "b8c6ed252ca036df2db3215f2bf679c0", "lat": 38.8450435, "fusion_lon": 0.0, "fusion_lat": 0.0, "type": "electric_bike", "name": "b8c6ed252ca036df2db3215f2bf679c0", "is_disabled": 0, "rental_uris": {"ios": "https://dc.lft.to/lastmile_qr_scan", "android": "https://dc.lft.to/lastmile_qr_scan"}, "is_reserved": 0}, {"lon": -77.03662816666667, "bike_id": "6a3edf30779125a308105eba5dc36950", "lat": 38.936076666666665, "fusion_lon": 0.0, "fusion_lat": 0.0, "type": "electric_scooter", "name": "6a3edf30779125a308105eba5dc36950", "is_disabled": 0, "rental_uris": {"ios": "https://dc.lft.to/lastmile_qr_scan", "android": "https://dc.lft.to/lastmile_qr_scan"}, "is_reserved": 0}, {"lon": -77.031775, "bike_id": "babf2db3f2274a3681e575c03c49d2d9", "lat": 38.8919935, "fusion_lon": 0.0, "fusion_lat": 0.0, "type": "electric_scooter", "name": "babf2db3f2274a3681e575c03c49d2d9", "is_disabled": 0, "rental_uris": {"ios": "https://dc.lft.to/lastmile_qr_scan", "android": "https://dc.lft.to/lastmile_qr_scan"}, "is_reserved": 0}, {"lon": -76.98891133333333, "bike_id": "8789927abdc7bbae294a8f3ef78b7162", "lat": 38.91349233333333, "fusion_lon": 0.0, "fusion_lat": 0.0, "type": "electric_scooter", "name": "8789927abdc7bbae294a8f3ef78b7162", "is_disabled": 0, "rental_uris": {"ios": "https://dc.lft.to/lastmile_qr_scan", "android": "https://dc.lft.to/lastmile_qr_scan"}, "is_reserved": 0}, {"lon": -77.02589433333333, "bike_id": "6d40dfefca11345ef28d3ff3233abe8a", "lat": 38.914917333333335, "fusion_lon": 0.0, "fusion_lat": 0.0, "type": "electric_scooter", "name": "6d40dfefca11345ef28d3ff3233abe8a", "is_disabled": 0, "rental_uris": {"ios": "https://dc.lft.to/lastmile_qr_scan", "android": "https://dc.lft.to/lastmile_qr_scan"}, "is_reserved": 0}, {"lon": -77.031834, "bike_id": "fddbdcfcf232b7795a90dab1d92752b1", "lat": 38.918361166666664, "fusion_lon": 0.0, "fusion_lat": 0.0, "type": "electric_scooter", "name": "fddbdcfcf232b7795a90dab1d92752b1", "is_disabled": 0, "rental_uris": {"ios": "https://dc.lft.to/lastmile_qr_scan", "android": "https://dc.lft.to/lastmile_qr_scan"}, "is_reserved": 0}, {"lon": -77.0426485, "bike_id": "24546fff02dc5c3b60f820316b01a5b3", "lat": 38.92238783333333, "fusion_lon": 0.0, "fusion_lat": 0.0, "type": "electric_scooter", "name": "24546fff02dc5c3b60f820316b01a5b3", "is_disabled": 0, "rental_uris": {"ios": "https://dc.lft.to/lastmile_qr_scan", "android": "https://dc.lft.to/lastmile_qr_scan"}, "is_reserved": 0}, {"lon": -77.01347316666667, "bike_id": "0b2e10e5916676449711a78fe75c5f68", "lat": 38.91277816666667, "fusion_lon": 0.0, "fusion_lat": 0.0, "type": "electric_scooter", "name": "0b2e10e5916676449711a78fe75c5f68", "is_disabled": 0, "rental_uris": {"ios": "https://dc.lft.to/lastmile_qr_scan", "android": "https://dc.lft.to/lastmile_qr_scan"}, "is_reserved": 0}, {"lon": -77.04338616666666, "bike_id": "a51315445fdd2697c5239703ef09212e", "lat": 38.913224, "fusion_lon": 0.0, "fusion_lat": 0.0, "type": "electric_scooter", "name": "a51315445fdd2697c5239703ef09212e", "is_disabled": 0, "rental_uris": {"ios": "https://dc.lft.to/lastmile_qr_scan", "android": "https://dc.lft.to/lastmile_qr_scan"}, "is_reserved": 0}, {"lon": -77.033771, "bike_id": "0433f0d04e8bf657e9c109e1fced391f", "lat": 38.902665999999996, "fusion_lon": 0.0, "fusion_lat": 0.0, "type": "electric_scooter", "name": "0433f0d04e8bf657e9c109e1fced391f", "is_disabled": 0, "rental_uris": {"ios": "https://dc.lft.to/lastmile_qr_scan", "android": "https://dc.lft.to/lastmile_qr_scan"}, "is_reserved": 0}, {"lon": -77.0284465, "bike_id": "c721d1cfa83c8e2493eb974f466b8bda", "lat": 38.902542833333335, "fusion_lon": 0.0, "fusion_lat": 0.0, "type": "electric_scooter", "name": "c721d1cfa83c8e2493eb974f466b8bda", "is_disabled": 0, "rental_uris": {"ios": "https://dc.lft.to/lastmile_qr_scan", "android": "https://dc.lft.to/lastmile_qr_scan"}, "is_reserved": 0}, {"lon": -77.04091633333333, "bike_id": "77af601b9ca5a68d2410f12d6030aad2", "lat": 38.915690833333336, "fusion_lon": 0.0, "fusion_lat": 0.0, "type": "electric_scooter", "name": "77af601b9ca5a68d2410f12d6030aad2", "is_disabled": 0, "rental_uris": {"ios": "https://dc.lft.to/lastmile_qr_scan", "android": "https://dc.lft.to/lastmile_qr_scan"}, "is_reserved": 0}, {"lon": -77.03831066666666, "bike_id": "4befb8823111f9897ac81d0099db9998", "lat": 38.906754166666666, "fusion_lon": 0.0, "fusion_lat": 0.0, "type": "electric_scooter", "name": "4befb8823111f9897ac81d0099db9998", "is_disabled": 0, "rental_uris": {"ios": "https://dc.lft.to/lastmile_qr_scan", "android": "https://dc.lft.to/lastmile_qr_scan"}, "is_reserved": 0}, {"lon": -77.0071175, "bike_id": "537958e094fbb569e5976242f99d358f", "lat": 38.905187833333336, "fusion_lon": 0.0, "fusion_lat": 0.0, "type": "electric_scooter", "name": "537958e094fbb569e5976242f99d358f", "is_disabled": 0, "rental_uris": {"ios": "https://dc.lft.to/lastmile_qr_scan", "android": "https://dc.lft.to/lastmile_qr_scan"}, "is_reserved": 0}, {"lon": -77.02169183333334, "bike_id": "316261f0e46804e1d682115346cbbb24", "lat": 38.94296116666666, "fusion_lon": 0.0, "fusion_lat": 0.0, "type": "electric_scooter", "name": "316261f0e46804e1d682115346cbbb24", "is_disabled": 0, "rental_uris": {"ios": "https://dc.lft.to/lastmile_qr_scan", "android": "https://dc.lft.to/lastmile_qr_scan"}, "is_reserved": 0}, {"lon": -77.02814616666667, "bike_id": "a685cd36740c14b1a75f2e19e81074c5", "lat": 38.931733333333334, "fusion_lon": 0.0, "fusion_lat": 0.0, "type": "electric_scooter", "name": "a685cd36740c14b1a75f2e19e81074c5", "is_disabled": 0, "rental_uris": {"ios": "https://dc.lft.to/lastmile_qr_scan", "android": "https://dc.lft.to/lastmile_qr_scan"}, "is_reserved": 0}, {"lon": -77.04470033333334, "bike_id": "9b3970cb66bd2acf2fa30eab501f6128", "lat": 38.90543016666667, "fusion_lon": 0.0, "fusion_lat": 0.0, "type": "electric_scooter", "name": "9b3970cb66bd2acf2fa30eab501f6128", "is_disabled": 0, "rental_uris": {"ios": "https://dc.lft.to/lastmile_qr_scan", "android": "https://dc.lft.to/lastmile_qr_scan"}, "is_reserved": 0}, {"lon": -77.02226533333334, "bike_id": "df2a523c600e8ca03c5285692a1cb45f", "lat": 38.89325216666667, "fusion_lon": 0.0, "fusion_lat": 0.0, "type": "electric_scooter", "name": "df2a523c600e8ca03c5285692a1cb45f", "is_disabled": 0, "rental_uris": {"ios": "https://dc.lft.to/lastmile_qr_scan", "android": "https://dc.lft.to/lastmile_qr_scan"}, "is_reserved": 0}, {"lon": -77.03280833333334, "bike_id": "12254bf683a95373912c35ae42306050", "lat": 38.93489833333334, "fusion_lon": 0.0, "fusion_lat": 0.0, "type": "electric_scooter", "name": "12254bf683a95373912c35ae42306050", "is_disabled": 0, "rental_uris": {"ios": "https://dc.lft.to/lastmile_qr_scan", "android": "https://dc.lft.to/lastmile_qr_scan"}, "is_reserved": 0}, {"lon": -77.02305933333334, "bike_id": "5ff6f7ae82f626f4cd0e7d74296b60e8", "lat": 38.932847, "fusion_lon": 0.0, "fusion_lat": 0.0, "type": "electric_scooter", "name": "5ff6f7ae82f626f4cd0e7d74296b60e8", "is_disabled": 0, "rental_uris": {"ios": "https://dc.lft.to/lastmile_qr_scan", "android": "https://dc.lft.to/lastmile_qr_scan"}, "is_reserved": 0}, {"lon": -77.08194683333333, "bike_id": "9f9d5058f427b1336b2dfea1b52f79ea", "lat": 38.9350975, "fusion_lon": 0.0, "fusion_lat": 0.0, "type": "electric_scooter", "name": "9f9d5058f427b1336b2dfea1b52f79ea", "is_disabled": 0, "rental_uris": {"ios": "https://dc.lft.to/lastmile_qr_scan", "android": "https://dc.lft.to/lastmile_qr_scan"}, "is_reserved": 0}, {"lon": -76.93030083333333, "bike_id": "197118af01cc2058e1f00c62c2e9faea", "lat": 38.900146, "fusion_lon": 0.0, "fusion_lat": 0.0, "type": "electric_scooter", "name": "197118af01cc2058e1f00c62c2e9faea", "is_disabled": 0, "rental_uris": {"ios": "https://dc.lft.to/lastmile_qr_scan", "android": "https://dc.lft.to/lastmile_qr_scan"}, "is_reserved": 0}, {"lon": -77.018955, "bike_id": "3c4ae2f97936fec9f3855d19c66e63b0", "lat": 38.904514166666665, "fusion_lon": 0.0, "fusion_lat": 0.0, "type": "electric_scooter", "name": "3c4ae2f97936fec9f3855d19c66e63b0", "is_disabled": 0, "rental_uris": {"ios": "https://dc.lft.to/lastmile_qr_scan", "android": "https://dc.lft.to/lastmile_qr_scan"}, "is_reserved": 0}, {"lon": -77.02773833333333, "bike_id": "ec5dd084ed730d1789949399d3b7b844", "lat": 38.89219416666667, "fusion_lon": 0.0, "fusion_lat": 0.0, "type": "electric_scooter", "name": "ec5dd084ed730d1789949399d3b7b844", "is_disabled": 0, "rental_uris": {"ios": "https://dc.lft.to/lastmile_qr_scan", "android": "https://dc.lft.to/lastmile_qr_scan"}, "is_reserved": 0}, {"lon": -77.041864, "bike_id": "d56c548ff62d184de74f7ad3bd14cc6b", "lat": 38.911275833333335, "fusion_lon": 0.0, "fusion_lat": 0.0, "type": "electric_scooter", "name": "d56c548ff62d184de74f7ad3bd14cc6b", "is_disabled": 0, "rental_uris": {"ios": "https://dc.lft.to/lastmile_qr_scan", "android": "https://dc.lft.to/lastmile_qr_scan"}, "is_reserved": 0}, {"lon": -77.03659116666667, "bike_id": "93204eb7124f09114c72f688ecc9f905", "lat": 38.91716133333333, "fusion_lon": 0.0, "fusion_lat": 0.0, "type": "electric_scooter", "name": "93204eb7124f09114c72f688ecc9f905", "is_disabled": 0, "rental_uris": {"ios": "https://dc.lft.to/lastmile_qr_scan", "android": "https://dc.lft.to/lastmile_qr_scan"}, "is_reserved": 0}, {"lon": -77.058596, "bike_id": "6e23314f2a93f358936c1ea67bb1e9a4", "lat": 38.9360425, "fusion_lon": 0.0, "fusion_lat": 0.0, "type": "electric_scooter", "name": "6e23314f2a93f358936c1ea67bb1e9a4", "is_disabled": 0, "rental_uris": {"ios": "https://dc.lft.to/lastmile_qr_scan", "android": "https://dc.lft.to/lastmile_qr_scan"}, "is_reserved": 0}, {"lon": -77.022782, "bike_id": "2f364654546a322dfb6a0694007a4af4", "lat": 38.91664216666667, "fusion_lon": 0.0, "fusion_lat": 0.0, "type": "electric_scooter", "name": "2f364654546a322dfb6a0694007a4af4", "is_disabled": 0, "rental_uris": {"ios": "https://dc.lft.to/lastmile_qr_scan", "android": "https://dc.lft.to/lastmile_qr_scan"}, "is_reserved": 0}, {"lon": -76.91597483333334, "bike_id": "bec310e3d7aeac36420d899cfce19514", "lat": 38.879842, "fusion_lon": 0.0, "fusion_lat": 0.0, "type": "electric_bike", "name": "bec310e3d7aeac36420d899cfce19514", "is_disabled": 0, "rental_uris": {"ios": "https://dc.lft.to/lastmile_qr_scan", "android": "https://dc.lft.to/lastmile_qr_scan"}, "is_reserved": 0}, {"lon": -77.029605, "bike_id": "2006507900b20093b890e70143081b6f", "lat": 38.9049825, "fusion_lon": 0.0, "fusion_lat": 0.0, "type": "electric_scooter", "name": "2006507900b20093b890e70143081b6f", "is_disabled": 0, "rental_uris": {"ios": "https://dc.lft.to/lastmile_qr_scan", "android": "https://dc.lft.to/lastmile_qr_scan"}, "is_reserved": 0}, {"lon": -77.0194045, "bike_id": "896494665e5c0730a4da2025266240a1", "lat": 38.935281, "fusion_lon": 0.0, "fusion_lat": 0.0, "type": "electric_scooter", "name": "896494665e5c0730a4da2025266240a1", "is_disabled": 0, "rental_uris": {"ios": "https://dc.lft.to/lastmile_qr_scan", "android": "https://dc.lft.to/lastmile_qr_scan"}, "is_reserved": 0}, {"lon": -76.99086583333333, "bike_id": "deab233384acdb69a7a55e2e07e0c7a0", "lat": 38.86238316666667, "fusion_lon": 0.0, "fusion_lat": 0.0, "type": "electric_bike", "name": "deab233384acdb69a7a55e2e07e0c7a0", "is_disabled": 0, "rental_uris": {"ios": "https://dc.lft.to/lastmile_qr_scan", "android": "https://dc.lft.to/lastmile_qr_scan"}, "is_reserved": 0}, {"lon": -76.99532233333333, "bike_id": "e224958dfcc52937f239cbf427ce32bf", "lat": 38.883742833333336, "fusion_lon": 0.0, "fusion_lat": 0.0, "type": "electric_scooter", "name": "e224958dfcc52937f239cbf427ce32bf", "is_disabled": 0, "rental_uris": {"ios": "https://dc.lft.to/lastmile_qr_scan", "android": "https://dc.lft.to/lastmile_qr_scan"}, "is_reserved": 0}, {"lon": -77.006538, "bike_id": "5a3c909385b7388d3c1ddbc6c95dccc8", "lat": 38.926208, "fusion_lon": 0.0, "fusion_lat": 0.0, "type": "electric_scooter", "name": "5a3c909385b7388d3c1ddbc6c95dccc8", "is_disabled": 0, "rental_uris": {"ios": "https://dc.lft.to/lastmile_qr_scan", "android": "https://dc.lft.to/lastmile_qr_scan"}, "is_reserved": 0}, {"lon": -76.9983385, "bike_id": "aa3717dd6a1fae0e9ab40e1d52a94dce", "lat": 38.9049195, "fusion_lon": 0.0, "fusion_lat": 0.0, "type": "electric_scooter", "name": "aa3717dd6a1fae0e9ab40e1d52a94dce", "is_disabled": 0, "rental_uris": {"ios": "https://dc.lft.to/lastmile_qr_scan", "android": "https://dc.lft.to/lastmile_qr_scan"}, "is_reserved": 0}, {"lon": -77.01766416666666, "bike_id": "8aced78d043490de8e6bb41accb724d6", "lat": 38.8872835, "fusion_lon": 0.0, "fusion_lat": 0.0, "type": "electric_scooter", "name": "8aced78d043490de8e6bb41accb724d6", "is_disabled": 0, "rental_uris": {"ios": "https://dc.lft.to/lastmile_qr_scan", "android": "https://dc.lft.to/lastmile_qr_scan"}, "is_reserved": 0}, {"lon": -76.9735445, "bike_id": "f93077f370946cd0672970f7f433db09", "lat": 38.873378333333335, "fusion_lon": 0.0, "fusion_lat": 0.0, "type": "electric_scooter", "name": "f93077f370946cd0672970f7f433db09", "is_disabled": 0, "rental_uris": {"ios": "https://dc.lft.to/lastmile_qr_scan", "android": "https://dc.lft.to/lastmile_qr_scan"}, "is_reserved": 0}, {"lon": -77.08068633333333, "bike_id": "176c85d26bc104fad649fa418ec8e428", "lat": 39.052818333333335, "fusion_lon": 0.0, "fusion_lat": 0.0, "type": "electric_bike", "name": "176c85d26bc104fad649fa418ec8e428", "is_disabled": 0, "rental_uris": {"ios": "https://dc.lft.to/lastmile_qr_scan", "android": "https://dc.lft.to/lastmile_qr_scan"}, "is_reserved": 0}, {"lon": -77.0344775, "bike_id": "8d3af342c85b57e37dd70cbe5d56830f", "lat": 38.907328666666665, "fusion_lon": 0.0, "fusion_lat": 0.0, "type": "electric_scooter", "name": "8d3af342c85b57e37dd70cbe5d56830f", "is_disabled": 0, "rental_uris": {"ios": "https://dc.lft.to/lastmile_qr_scan", "android": "https://dc.lft.to/lastmile_qr_scan"}, "is_reserved": 0}, {"lon": -77.02222983333333, "bike_id": "1a83fb37188882066fd724b2e2ff630f", "lat": 38.956888666666664, "fusion_lon": 0.0, "fusion_lat": 0.0, "type": "electric_bike", "name": "1a83fb37188882066fd724b2e2ff630f", "is_disabled": 0, "rental_uris": {"ios": "https://dc.lft.to/lastmile_qr_scan", "android": "https://dc.lft.to/lastmile_qr_scan"}, "is_reserved": 0}, {"lon": -77.02108633333333, "bike_id": "1b36518c4e44dffc8a1ac89125673f1a", "lat": 38.92709166666667, "fusion_lon": 0.0, "fusion_lat": 0.0, "type": "electric_scooter", "name": "1b36518c4e44dffc8a1ac89125673f1a", "is_disabled": 0, "rental_uris": {"ios": "https://dc.lft.to/lastmile_qr_scan", "android": "https://dc.lft.to/lastmile_qr_scan"}, "is_reserved": 0}, {"lon": -77.02803016666667, "bike_id": "91bfbb7451979fecd15af2eddca3f9bf", "lat": 38.930569, "fusion_lon": 0.0, "fusion_lat": 0.0, "type": "electric_scooter", "name": "91bfbb7451979fecd15af2eddca3f9bf", "is_disabled": 0, "rental_uris": {"ios": "https://dc.lft.to/lastmile_qr_scan", "android": "https://dc.lft.to/lastmile_qr_scan"}, "is_reserved": 0}, {"lon": -77.06517066666666, "bike_id": "5e19e1e6d0fcd0027ecbd9efacd1e00f", "lat": 38.903903166666666, "fusion_lon": 0.0, "fusion_lat": 0.0, "type": "electric_scooter", "name": "5e19e1e6d0fcd0027ecbd9efacd1e00f", "is_disabled": 0, "rental_uris": {"ios": "https://dc.lft.to/lastmile_qr_scan", "android": "https://dc.lft.to/lastmile_qr_scan"}, "is_reserved": 0}, {"lon": -77.04773433333334, "bike_id": "0fc6234ec274f27ccb5f09dc3d334dd6", "lat": 38.91755233333333, "fusion_lon": 0.0, "fusion_lat": 0.0, "type": "electric_scooter", "name": "0fc6234ec274f27ccb5f09dc3d334dd6", "is_disabled": 0, "rental_uris": {"ios": "https://dc.lft.to/lastmile_qr_scan", "android": "https://dc.lft.to/lastmile_qr_scan"}, "is_reserved": 0}, {"lon": -77.04605733333334, "bike_id": "4eff7dfaf8fb5e27a929f382772a6689", "lat": 38.92051716666667, "fusion_lon": 0.0, "fusion_lat": 0.0, "type": "electric_scooter", "name": "4eff7dfaf8fb5e27a929f382772a6689", "is_disabled": 0, "rental_uris": {"ios": "https://dc.lft.to/lastmile_qr_scan", "android": "https://dc.lft.to/lastmile_qr_scan"}, "is_reserved": 0}, {"lon": -77.02496666666667, "bike_id": "b7a0c33c61e5606a2fde1e757ee61fe0", "lat": 38.920627333333336, "fusion_lon": 0.0, "fusion_lat": 0.0, "type": "electric_scooter", "name": "b7a0c33c61e5606a2fde1e757ee61fe0", "is_disabled": 0, "rental_uris": {"ios": "https://dc.lft.to/lastmile_qr_scan", "android": "https://dc.lft.to/lastmile_qr_scan"}, "is_reserved": 0}, {"lon": -76.97476566666667, "bike_id": "2f2df6fcf3f168b5ed5646a65c7819f3", "lat": 38.90351283333333, "fusion_lon": 0.0, "fusion_lat": 0.0, "type": "electric_scooter", "name": "2f2df6fcf3f168b5ed5646a65c7819f3", "is_disabled": 0, "rental_uris": {"ios": "https://dc.lft.to/lastmile_qr_scan", "android": "https://dc.lft.to/lastmile_qr_scan"}, "is_reserved": 0}, {"lon": -77.0585665, "bike_id": "d846551ceeb86a4e50c0a1067dc38c67", "lat": 38.93608066666667, "fusion_lon": 0.0, "fusion_lat": 0.0, "type": "electric_bike", "name": "d846551ceeb86a4e50c0a1067dc38c67", "is_disabled": 0, "rental_uris": {"ios": "https://dc.lft.to/lastmile_qr_scan", "android": "https://dc.lft.to/lastmile_qr_scan"}, "is_reserved": 0}, {"lon": -76.98840216666666, "bike_id": "c725e708196736e9fee445ff99dbc694", "lat": 38.84275133333333, "fusion_lon": 0.0, "fusion_lat": 0.0, "type": "electric_bike", "name": "c725e708196736e9fee445ff99dbc694", "is_disabled": 0, "rental_uris": {"ios": "https://dc.lft.to/lastmile_qr_scan", "android": "https://dc.lft.to/lastmile_qr_scan"}, "is_reserved": 0}, {"lon": -76.98525783333334, "bike_id": "114422c85c452d0fdc14ff6dea3c998c", "lat": 38.8668575, "fusion_lon": 0.0, "fusion_lat": 0.0, "type": "electric_scooter", "name": "114422c85c452d0fdc14ff6dea3c998c", "is_disabled": 0, "rental_uris": {"ios": "https://dc.lft.to/lastmile_qr_scan", "android": "https://dc.lft.to/lastmile_qr_scan"}, "is_reserved": 0}, {"lon": -77.07243466666667, "bike_id": "000d6301b9910e28280693a1deecb0ba", "lat": 38.89924216666667, "fusion_lon": 0.0, "fusion_lat": 0.0, "type": "electric_scooter", "name": "000d6301b9910e28280693a1deecb0ba", "is_disabled": 0, "rental_uris": {"ios": "https://dc.lft.to/lastmile_qr_scan", "android": "https://dc.lft.to/lastmile_qr_scan"}, "is_reserved": 0}, {"lon": -77.03867433333333, "bike_id": "93ed04d6bfe5872a1626fae11159970b", "lat": 38.9127105, "fusion_lon": 0.0, "fusion_lat": 0.0, "type": "electric_scooter", "name": "93ed04d6bfe5872a1626fae11159970b", "is_disabled": 0, "rental_uris": {"ios": "https://dc.lft.to/lastmile_qr_scan", "android": "https://dc.lft.to/lastmile_qr_scan"}, "is_reserved": 0}, {"lon": -77.0146505, "bike_id": "ba5f036256b6f49d1c093cdc37ee4755", "lat": 38.91926466666666, "fusion_lon": 0.0, "fusion_lat": 0.0, "type": "electric_scooter", "name": "ba5f036256b6f49d1c093cdc37ee4755", "is_disabled": 0, "rental_uris": {"ios": "https://dc.lft.to/lastmile_qr_scan", "android": "https://dc.lft.to/lastmile_qr_scan"}, "is_reserved": 0}, {"lon": -77.02800033333334, "bike_id": "aa2e877b924d051f06db7d7a78111347", "lat": 38.914270333333334, "fusion_lon": 0.0, "fusion_lat": 0.0, "type": "electric_scooter", "name": "aa2e877b924d051f06db7d7a78111347", "is_disabled": 0, "rental_uris": {"ios": "https://dc.lft.to/lastmile_qr_scan", "android": "https://dc.lft.to/lastmile_qr_scan"}, "is_reserved": 0}, {"lon": -77.03213333333333, "bike_id": "8fc4485a9e94a2f8ae88696902deeafd", "lat": 38.89223166666667, "fusion_lon": 0.0, "fusion_lat": 0.0, "type": "electric_scooter", "name": "8fc4485a9e94a2f8ae88696902deeafd", "is_disabled": 0, "rental_uris": {"ios": "https://dc.lft.to/lastmile_qr_scan", "android": "https://dc.lft.to/lastmile_qr_scan"}, "is_reserved": 0}, {"lon": -77.05465733333334, "bike_id": "b86aff07cb4cf9b2ba221fad630d893e", "lat": 38.90432333333333, "fusion_lon": 0.0, "fusion_lat": 0.0, "type": "electric_scooter", "name": "b86aff07cb4cf9b2ba221fad630d893e", "is_disabled": 0, "rental_uris": {"ios": "https://dc.lft.to/lastmile_qr_scan", "android": "https://dc.lft.to/lastmile_qr_scan"}, "is_reserved": 0}, {"lon": -76.9723845, "bike_id": "481c3dd632e0d7fb9102742f1626efbd", "lat": 38.90343583333333, "fusion_lon": 0.0, "fusion_lat": 0.0, "type": "electric_scooter", "name": "481c3dd632e0d7fb9102742f1626efbd", "is_disabled": 0, "rental_uris": {"ios": "https://dc.lft.to/lastmile_qr_scan", "android": "https://dc.lft.to/lastmile_qr_scan"}, "is_reserved": 0}, {"lon": -77.076015, "bike_id": "c3bcc87533de9f48cec579ae7612d59c", "lat": 38.91218933333333, "fusion_lon": 0.0, "fusion_lat": 0.0, "type": "electric_scooter", "name": "c3bcc87533de9f48cec579ae7612d59c", "is_disabled": 0, "rental_uris": {"ios": "https://dc.lft.to/lastmile_qr_scan", "android": "https://dc.lft.to/lastmile_qr_scan"}, "is_reserved": 0}, {"lon": -76.99454583333333, "bike_id": "be076f88a5876216f3d4cbc947641180", "lat": 38.903735, "fusion_lon": 0.0, "fusion_lat": 0.0, "type": "electric_scooter", "name": "be076f88a5876216f3d4cbc947641180", "is_disabled": 0, "rental_uris": {"ios": "https://dc.lft.to/lastmile_qr_scan", "android": "https://dc.lft.to/lastmile_qr_scan"}, "is_reserved": 0}, {"lon": -77.03284233333333, "bike_id": "38601d26e4087c5465ff580c3433fb06", "lat": 38.93760433333333, "fusion_lon": 0.0, "fusion_lat": 0.0, "type": "electric_scooter", "name": "38601d26e4087c5465ff580c3433fb06", "is_disabled": 0, "rental_uris": {"ios": "https://dc.lft.to/lastmile_qr_scan", "android": "https://dc.lft.to/lastmile_qr_scan"}, "is_reserved": 0}, {"lon": -77.02179683333334, "bike_id": "0bc0626adca92d36f4c1b74de6cce1c1", "lat": 38.9148075, "fusion_lon": 0.0, "fusion_lat": 0.0, "type": "electric_scooter", "name": "0bc0626adca92d36f4c1b74de6cce1c1", "is_disabled": 0, "rental_uris": {"ios": "https://dc.lft.to/lastmile_qr_scan", "android": "https://dc.lft.to/lastmile_qr_scan"}, "is_reserved": 0}, {"lon": -77.03500066666666, "bike_id": "bac9d6fbf9c1296850d491b4315f1446", "lat": 38.93751266666666, "fusion_lon": 0.0, "fusion_lat": 0.0, "type": "electric_scooter", "name": "bac9d6fbf9c1296850d491b4315f1446", "is_disabled": 0, "rental_uris": {"ios": "https://dc.lft.to/lastmile_qr_scan", "android": "https://dc.lft.to/lastmile_qr_scan"}, "is_reserved": 0}, {"lon": -76.9835335, "bike_id": "fd506b606d04424f684d43cc0845c3ec", "lat": 38.88770316666667, "fusion_lon": 0.0, "fusion_lat": 0.0, "type": "electric_scooter", "name": "fd506b606d04424f684d43cc0845c3ec", "is_disabled": 0, "rental_uris": {"ios": "https://dc.lft.to/lastmile_qr_scan", "android": "https://dc.lft.to/lastmile_qr_scan"}, "is_reserved": 0}, {"lon": -76.97390133333333, "bike_id": "71c80c96ff3f48b3f6243dafafa13eaa", "lat": 38.905557333333334, "fusion_lon": 0.0, "fusion_lat": 0.0, "type": "electric_scooter", "name": "71c80c96ff3f48b3f6243dafafa13eaa", "is_disabled": 0, "rental_uris": {"ios": "https://dc.lft.to/lastmile_qr_scan", "android": "https://dc.lft.to/lastmile_qr_scan"}, "is_reserved": 0}, {"lon": -77.03426516666667, "bike_id": "593543d93072ca09c16f3fd8a1fcd4f1", "lat": 38.92242, "fusion_lon": 0.0, "fusion_lat": 0.0, "type": "electric_scooter", "name": "593543d93072ca09c16f3fd8a1fcd4f1", "is_disabled": 0, "rental_uris": {"ios": "https://dc.lft.to/lastmile_qr_scan", "android": "https://dc.lft.to/lastmile_qr_scan"}, "is_reserved": 0}, {"lon": -77.03858516666666, "bike_id": "1a484fa413dbd79e6025393a6bbbc260", "lat": 38.91660266666667, "fusion_lon": 0.0, "fusion_lat": 0.0, "type": "electric_scooter", "name": "1a484fa413dbd79e6025393a6bbbc260", "is_disabled": 0, "rental_uris": {"ios": "https://dc.lft.to/lastmile_qr_scan", "android": "https://dc.lft.to/lastmile_qr_scan"}, "is_reserved": 0}, {"lon": -77.02389316666667, "bike_id": "1c414e9600fe4ccf25119111c8fd65d2", "lat": 38.92751283333333, "fusion_lon": 0.0, "fusion_lat": 0.0, "type": "electric_scooter", "name": "1c414e9600fe4ccf25119111c8fd65d2", "is_disabled": 0, "rental_uris": {"ios": "https://dc.lft.to/lastmile_qr_scan", "android": "https://dc.lft.to/lastmile_qr_scan"}, "is_reserved": 0}, {"lon": -77.02307516666667, "bike_id": "e1186d8dbffb4be95911224ca041b9e0", "lat": 38.940866, "fusion_lon": 0.0, "fusion_lat": 0.0, "type": "electric_scooter", "name": "e1186d8dbffb4be95911224ca041b9e0", "is_disabled": 0, "rental_uris": {"ios": "https://dc.lft.to/lastmile_qr_scan", "android": "https://dc.lft.to/lastmile_qr_scan"}, "is_reserved": 0}, {"lon": -77.06337333333333, "bike_id": "2caa8cb2d0604a24b87c02681a58131e", "lat": 38.90686183333333, "fusion_lon": 0.0, "fusion_lat": 0.0, "type": "electric_scooter", "name": "2caa8cb2d0604a24b87c02681a58131e", "is_disabled": 0, "rental_uris": {"ios": "https://dc.lft.to/lastmile_qr_scan", "android": "https://dc.lft.to/lastmile_qr_scan"}, "is_reserved": 0}, {"lon": -76.9463825, "bike_id": "9c14068abbb327a42a21134b9e7f1d33", "lat": 38.898328, "fusion_lon": 0.0, "fusion_lat": 0.0, "type": "electric_scooter", "name": "9c14068abbb327a42a21134b9e7f1d33", "is_disabled": 0, "rental_uris": {"ios": "https://dc.lft.to/lastmile_qr_scan", "android": "https://dc.lft.to/lastmile_qr_scan"}, "is_reserved": 0}, {"lon": -77.02146883333333, "bike_id": "61c3d32f94577a10d217942dbe728ef1", "lat": 38.89710766666666, "fusion_lon": 0.0, "fusion_lat": 0.0, "type": "electric_scooter", "name": "61c3d32f94577a10d217942dbe728ef1", "is_disabled": 0, "rental_uris": {"ios": "https://dc.lft.to/lastmile_qr_scan", "android": "https://dc.lft.to/lastmile_qr_scan"}, "is_reserved": 0}, {"lon": -77.084573, "bike_id": "c3153a65e24f41c0fe96e5d4cc6f3286", "lat": 38.848187, "fusion_lon": 0.0, "fusion_lat": 0.0, "type": "electric_bike", "name": "c3153a65e24f41c0fe96e5d4cc6f3286", "is_disabled": 0, "rental_uris": {"ios": "https://dc.lft.to/lastmile_qr_scan", "android": "https://dc.lft.to/lastmile_qr_scan"}, "is_reserved": 0}, {"lon": -77.02716333333333, "bike_id": "d62f716d29e504b0443064815229f466", "lat": 38.897205, "fusion_lon": 0.0, "fusion_lat": 0.0, "type": "electric_scooter", "name": "d62f716d29e504b0443064815229f466", "is_disabled": 0, "rental_uris": {"ios": "https://dc.lft.to/lastmile_qr_scan", "android": "https://dc.lft.to/lastmile_qr_scan"}, "is_reserved": 0}, {"lon": -77.02815683333333, "bike_id": "7ef5d6e61ce5de87317a408aa723e445", "lat": 38.887396833333334, "fusion_lon": 0.0, "fusion_lat": 0.0, "type": "electric_scooter", "name": "7ef5d6e61ce5de87317a408aa723e445", "is_disabled": 0, "rental_uris": {"ios": "https://dc.lft.to/lastmile_qr_scan", "android": "https://dc.lft.to/lastmile_qr_scan"}, "is_reserved": 0}, {"lon": -77.03493566666667, "bike_id": "f6a71873d24e63741e47b2a8a680c8f0", "lat": 38.91885933333333, "fusion_lon": 0.0, "fusion_lat": 0.0, "type": "electric_bike", "name": "f6a71873d24e63741e47b2a8a680c8f0", "is_disabled": 0, "rental_uris": {"ios": "https://dc.lft.to/lastmile_qr_scan", "android": "https://dc.lft.to/lastmile_qr_scan"}, "is_reserved": 0}, {"lon": -77.03502466666667, "bike_id": "97ad009859c92904f2ef72ccc1697268", "lat": 38.91258533333333, "fusion_lon": 0.0, "fusion_lat": 0.0, "type": "electric_scooter", "name": "97ad009859c92904f2ef72ccc1697268", "is_disabled": 0, "rental_uris": {"ios": "https://dc.lft.to/lastmile_qr_scan", "android": "https://dc.lft.to/lastmile_qr_scan"}, "is_reserved": 0}, {"lon": -76.97546166666666, "bike_id": "3e77274932562e9af14bcada8d792d81", "lat": 38.903242666666664, "fusion_lon": 0.0, "fusion_lat": 0.0, "type": "electric_scooter", "name": "3e77274932562e9af14bcada8d792d81", "is_disabled": 0, "rental_uris": {"ios": "https://dc.lft.to/lastmile_qr_scan", "android": "https://dc.lft.to/lastmile_qr_scan"}, "is_reserved": 0}, {"lon": -77.0088405, "bike_id": "326f9d68987fcc4d6bae820e1a0c0238", "lat": 38.91631266666667, "fusion_lon": 0.0, "fusion_lat": 0.0, "type": "electric_bike", "name": "326f9d68987fcc4d6bae820e1a0c0238", "is_disabled": 0, "rental_uris": {"ios": "https://dc.lft.to/lastmile_qr_scan", "android": "https://dc.lft.to/lastmile_qr_scan"}, "is_reserved": 0}, {"lon": -77.013288, "bike_id": "c9af05b6b72c6b77320ec808fe02ca19", "lat": 38.90000933333334, "fusion_lon": 0.0, "fusion_lat": 0.0, "type": "electric_scooter", "name": "c9af05b6b72c6b77320ec808fe02ca19", "is_disabled": 0, "rental_uris": {"ios": "https://dc.lft.to/lastmile_qr_scan", "android": "https://dc.lft.to/lastmile_qr_scan"}, "is_reserved": 0}, {"lon": -76.98525933333333, "bike_id": "5f3576caf284631b2a3096dac903348b", "lat": 38.866871333333336, "fusion_lon": 0.0, "fusion_lat": 0.0, "type": "electric_scooter", "name": "5f3576caf284631b2a3096dac903348b", "is_disabled": 0, "rental_uris": {"ios": "https://dc.lft.to/lastmile_qr_scan", "android": "https://dc.lft.to/lastmile_qr_scan"}, "is_reserved": 0}, {"lon": -76.94201716666667, "bike_id": "5177ddcd8706be7d20ed53c7689657e0", "lat": 38.893157333333335, "fusion_lon": 0.0, "fusion_lat": 0.0, "type": "electric_bike", "name": "5177ddcd8706be7d20ed53c7689657e0", "is_disabled": 0, "rental_uris": {"ios": "https://dc.lft.to/lastmile_qr_scan", "android": "https://dc.lft.to/lastmile_qr_scan"}, "is_reserved": 0}, {"lon": -77.035176, "bike_id": "520798504eb82d073665f850851da67d", "lat": 38.923309833333334, "fusion_lon": 0.0, "fusion_lat": 0.0, "type": "electric_scooter", "name": "520798504eb82d073665f850851da67d", "is_disabled": 0, "rental_uris": {"ios": "https://dc.lft.to/lastmile_qr_scan", "android": "https://dc.lft.to/lastmile_qr_scan"}, "is_reserved": 0}, {"lon": -77.02222566666667, "bike_id": "1a4bed1570920276b88729ec7f9ab7f9", "lat": 38.91253483333333, "fusion_lon": 0.0, "fusion_lat": 0.0, "type": "electric_scooter", "name": "1a4bed1570920276b88729ec7f9ab7f9", "is_disabled": 0, "rental_uris": {"ios": "https://dc.lft.to/lastmile_qr_scan", "android": "https://dc.lft.to/lastmile_qr_scan"}, "is_reserved": 0}, {"lon": -77.024686, "bike_id": "25bdecd58f62091a5762018c91b11c0a", "lat": 38.93851083333333, "fusion_lon": 0.0, "fusion_lat": 0.0, "type": "electric_scooter", "name": "25bdecd58f62091a5762018c91b11c0a", "is_disabled": 0, "rental_uris": {"ios": "https://dc.lft.to/lastmile_qr_scan", "android": "https://dc.lft.to/lastmile_qr_scan"}, "is_reserved": 0}, {"lon": -77.03469116666666, "bike_id": "cde95235544a1b6a223cdc6221d47df9", "lat": 38.907286666666664, "fusion_lon": 0.0, "fusion_lat": 0.0, "type": "electric_scooter", "name": "cde95235544a1b6a223cdc6221d47df9", "is_disabled": 0, "rental_uris": {"ios": "https://dc.lft.to/lastmile_qr_scan", "android": "https://dc.lft.to/lastmile_qr_scan"}, "is_reserved": 0}, {"lon": -77.03367433333334, "bike_id": "74fbbe461c531f520947c2297a699966", "lat": 38.928892, "fusion_lon": 0.0, "fusion_lat": 0.0, "type": "electric_scooter", "name": "74fbbe461c531f520947c2297a699966", "is_disabled": 0, "rental_uris": {"ios": "https://dc.lft.to/lastmile_qr_scan", "android": "https://dc.lft.to/lastmile_qr_scan"}, "is_reserved": 0}, {"lon": -76.97329083333334, "bike_id": "480f8ec659b40d7f0b35f5fda0411f50", "lat": 38.904151666666664, "fusion_lon": 0.0, "fusion_lat": 0.0, "type": "electric_scooter", "name": "480f8ec659b40d7f0b35f5fda0411f50", "is_disabled": 0, "rental_uris": {"ios": "https://dc.lft.to/lastmile_qr_scan", "android": "https://dc.lft.to/lastmile_qr_scan"}, "is_reserved": 0}, {"lon": -77.0329595, "bike_id": "f2da18625b800a6a862a51355597b270", "lat": 38.92628583333333, "fusion_lon": 0.0, "fusion_lat": 0.0, "type": "electric_bike", "name": "f2da18625b800a6a862a51355597b270", "is_disabled": 0, "rental_uris": {"ios": "https://dc.lft.to/lastmile_qr_scan", "android": "https://dc.lft.to/lastmile_qr_scan"}, "is_reserved": 0}, {"lon": -77.032737, "bike_id": "a055cfc97d100f4638f506b261f4c968", "lat": 38.914049166666665, "fusion_lon": 0.0, "fusion_lat": 0.0, "type": "electric_scooter", "name": "a055cfc97d100f4638f506b261f4c968", "is_disabled": 0, "rental_uris": {"ios": "https://dc.lft.to/lastmile_qr_scan", "android": "https://dc.lft.to/lastmile_qr_scan"}, "is_reserved": 0}, {"lon": -77.0387105, "bike_id": "75eb376f5484760481db95f11ef50fa0", "lat": 38.912655, "fusion_lon": 0.0, "fusion_lat": 0.0, "type": "electric_scooter", "name": "75eb376f5484760481db95f11ef50fa0", "is_disabled": 0, "rental_uris": {"ios": "https://dc.lft.to/lastmile_qr_scan", "android": "https://dc.lft.to/lastmile_qr_scan"}, "is_reserved": 0}, {"lon": -77.06857466666666, "bike_id": "a6767fdba7a74b98e3ba12ada68e6aca", "lat": 38.93809, "fusion_lon": 0.0, "fusion_lat": 0.0, "type": "electric_bike", "name": "a6767fdba7a74b98e3ba12ada68e6aca", "is_disabled": 0, "rental_uris": {"ios": "https://dc.lft.to/lastmile_qr_scan", "android": "https://dc.lft.to/lastmile_qr_scan"}, "is_reserved": 0}, {"lon": -77.02586483333333, "bike_id": "4bb1e3450cc4856e7c804b0cbda27a8c", "lat": 38.91413083333333, "fusion_lon": 0.0, "fusion_lat": 0.0, "type": "electric_scooter", "name": "4bb1e3450cc4856e7c804b0cbda27a8c", "is_disabled": 0, "rental_uris": {"ios": "https://dc.lft.to/lastmile_qr_scan", "android": "https://dc.lft.to/lastmile_qr_scan"}, "is_reserved": 0}, {"lon": -77.02508883333333, "bike_id": "954af82419deb7f72d668bbfe3643cfe", "lat": 38.920519666666664, "fusion_lon": 0.0, "fusion_lat": 0.0, "type": "electric_scooter", "name": "954af82419deb7f72d668bbfe3643cfe", "is_disabled": 0, "rental_uris": {"ios": "https://dc.lft.to/lastmile_qr_scan", "android": "https://dc.lft.to/lastmile_qr_scan"}, "is_reserved": 0}, {"lon": -77.04665316666667, "bike_id": "ba7a2ae0f83a8c1fd8fc647d7c31546b", "lat": 38.90038333333333, "fusion_lon": 0.0, "fusion_lat": 0.0, "type": "electric_scooter", "name": "ba7a2ae0f83a8c1fd8fc647d7c31546b", "is_disabled": 0, "rental_uris": {"ios": "https://dc.lft.to/lastmile_qr_scan", "android": "https://dc.lft.to/lastmile_qr_scan"}, "is_reserved": 0}, {"lon": -77.03715016666666, "bike_id": "9d416fc8610f1356c3a5d2f929889380", "lat": 38.914866833333335, "fusion_lon": 0.0, "fusion_lat": 0.0, "type": "electric_scooter", "name": "9d416fc8610f1356c3a5d2f929889380", "is_disabled": 0, "rental_uris": {"ios": "https://dc.lft.to/lastmile_qr_scan", "android": "https://dc.lft.to/lastmile_qr_scan"}, "is_reserved": 0}, {"lon": -77.020123, "bike_id": "2c9fdeaa694da98042bfaeb51b690d1b", "lat": 38.87666216666667, "fusion_lon": 0.0, "fusion_lat": 0.0, "type": "electric_scooter", "name": "2c9fdeaa694da98042bfaeb51b690d1b", "is_disabled": 0, "rental_uris": {"ios": "https://dc.lft.to/lastmile_qr_scan", "android": "https://dc.lft.to/lastmile_qr_scan"}, "is_reserved": 0}, {"lon": -77.027096, "bike_id": "c53ae906da1453462ffc4b5b63b37255", "lat": 38.9067365, "fusion_lon": 0.0, "fusion_lat": 0.0, "type": "electric_scooter", "name": "c53ae906da1453462ffc4b5b63b37255", "is_disabled": 0, "rental_uris": {"ios": "https://dc.lft.to/lastmile_qr_scan", "android": "https://dc.lft.to/lastmile_qr_scan"}, "is_reserved": 0}, {"lon": -77.032557, "bike_id": "294ac3753b88d78a9f24f4bcf26513dd", "lat": 38.932655, "fusion_lon": 0.0, "fusion_lat": 0.0, "type": "electric_scooter", "name": "294ac3753b88d78a9f24f4bcf26513dd", "is_disabled": 0, "rental_uris": {"ios": "https://dc.lft.to/lastmile_qr_scan", "android": "https://dc.lft.to/lastmile_qr_scan"}, "is_reserved": 0}, {"lon": -77.005726, "bike_id": "c8560f13c5bcd173203be86ec39aaae5", "lat": 38.90565566666667, "fusion_lon": 0.0, "fusion_lat": 0.0, "type": "electric_scooter", "name": "c8560f13c5bcd173203be86ec39aaae5", "is_disabled": 0, "rental_uris": {"ios": "https://dc.lft.to/lastmile_qr_scan", "android": "https://dc.lft.to/lastmile_qr_scan"}, "is_reserved": 0},