{"data": {"bikes": [{"is_reserved": 0, "type": "electric_scooter", "bike_id": "b7b719ef228953a680c0353d8504e84d", "lat": 38.9281275, "lon": -77.02976666666666, "rental_uris": {"android": "https://dc.lft.to/lastmile_qr_scan", "ios": "https://dc.lft.to/lastmile_qr_scan"}, "is_disabled": 0, "fusion_lat": 0.0, "name": "b7b719ef228953a680c0353d8504e84d", "fusion_lon": 0.0}, {"is_reserved": 0, "type": "electric_scooter", "bike_id": "401c4ee5fb0d34670c694d799a8db0bd", "lat": 38.884268666666664, "lon": -77.025536, "rental_uris": {"android": "https://dc.lft.to/lastmile_qr_scan", "ios": "https://dc.lft.to/lastmile_qr_scan"}, "is_disabled": 0, "fusion_lat": 0.0, "name": "401c4ee5fb0d34670c694d799a8db0bd", "fusion_lon": 0.0}, {"is_reserved": 0, "type": "electric_scooter", "bike_id": "880cff87524489634bcaaaf425b6e10d", "lat": 38.8922305, "lon": -77.0242435, "rental_uris": {"android": "https://dc.lft.to/lastmile_qr_scan", "ios": "https://dc.lft.to/lastmile_qr_scan"}, "is_disabled": 0, "fusion_lat": 0.0, "name": "880cff87524489634bcaaaf425b6e10d", "fusion_lon": 0.0}, {"is_reserved": 0, "type": "electric_scooter", "bike_id": "88cafb93048fe6c77c0071ff70af576c", "lat": 38.93048133333333, "lon": -77.08316183333334, "rental_uris": {"android": "https://dc.lft.to/lastmile_qr_scan", "ios": "https://dc.lft.to/lastmile_qr_scan"}, "is_disabled": 0, "fusion_lat": 0.0, "name": "88cafb93048fe6c77c0071ff70af576c", "fusion_lon": 0.0}, {"is_reserved": 0, "type": "electric_scooter", "bike_id": "8bc826dc872261a9c2b3569e096efe58", "lat": 38.898338, "lon": -77.04831983333334, "rental_uris": {"android": "https://dc.lft.to/lastmile_qr_scan", "ios": "https://dc.lft.to/lastmile_qr_scan"}, "is_disabled": 0, "fusion_lat": 0.0, "name": "8bc826dc872261a9c2b3569e096efe58", "fusion_lon": 0.0}, {"is_reserved": 0, "type": "electric_scooter", "bike_id": "df1d245633966d28fe7e056e40709a7d", "lat": 38.90616833333333, "lon": -77.03296766666666, "rental_uris": {"android": "https://dc.lft.to/lastmile_qr_scan", "ios": "https://dc.lft.to/lastmile_qr_scan"}, "is_disabled": 0, "fusion_lat": 0.0, "name": "df1d245633966d28fe7e056e40709a7d", "fusion_lon": 0.0}, {"is_reserved": 0, "type": "electric_scooter", "bike_id": "ac3e49cde61a2ba70fd91eaf6095ac25", "lat": 38.91341716666667, "lon": -77.04241166666667, "rental_uris": {"android": "https://dc.lft.to/lastmile_qr_scan", "ios": "https://dc.lft.to/lastmile_qr_scan"}, "is_disabled": 0, "fusion_lat": 0.0, "name": "ac3e49cde61a2ba70fd91eaf6095ac25", "fusion_lon": 0.0}, {"is_reserved": 0, "type": "electric_scooter", "bike_id": "94f11de0c357d968057447c9d737ba87", "lat": 38.901210166666665, "lon": -77.03374916666667, "rental_uris": {"android": "https://dc.lft.to/lastmile_qr_scan", "ios": "https://dc.lft.to/lastmile_qr_scan"}, "is_disabled": 0, "fusion_lat": 0.0, "name": "94f11de0c357d968057447c9d737ba87", "fusion_lon": 0.0}, {"is_reserved": 0, "type": "electric_scooter", "bike_id": "f0e3d8aca4761a1b75785544790be0d6", "lat": 38.89620133333333, "lon": -76.997317, "rental_uris": {"android": "https://dc.lft.to/lastmile_qr_scan", "ios": "https://dc.lft.to/lastmile_qr_scan"}, "is_disabled": 0, "fusion_lat": 0.0, "name": "f0e3d8aca4761a1b75785544790be0d6", "fusion_lon": 0.0}, {"is_reserved": 0, "type": "electric_bike", "bike_id": "6fe57ef04988022feba7d40e81d3b66e", "lat": 38.95870733333334, "lon": -76.97056716666667, "rental_uris": {"android": "https://dc.lft.to/lastmile_qr_scan", "ios": "https://dc.lft.to/lastmile_qr_scan"}, "is_disabled": 0, "fusion_lat": 0.0, "name": "6fe57ef04988022feba7d40e81d3b66e", "fusion_lon": 0.0}, {"is_reserved": 0, "type": "electric_scooter", "bike_id": "38b73d1cac71aa11633a3e7ae58812a1", "lat": 38.902451166666665, "lon": -77.04157916666666, "rental_uris": {"android": "https://dc.lft.to/lastmile_qr_scan", "ios": "https://dc.lft.to/lastmile_qr_scan"}, "is_disabled": 0, "fusion_lat": 0.0, "name": "38b73d1cac71aa11633a3e7ae58812a1", "fusion_lon": 0.0}, {"is_reserved": 0, "type": "electric_scooter", "bike_id": "24cc285d91d5b266dd587c1f16cb4555", "lat": 38.923753, "lon": -77.0288075, "rental_uris": {"android": "https://dc.lft.to/lastmile_qr_scan", "ios": "https://dc.lft.to/lastmile_qr_scan"}, "is_disabled": 0, "fusion_lat": 0.0, "name": "24cc285d91d5b266dd587c1f16cb4555", "fusion_lon": 0.0}, {"is_reserved": 0, "type": "electric_scooter", "bike_id": "16a38ce2bff31f6690af7fdd49cd1752", "lat": 38.90098866666666, "lon": -77.01878433333333, "rental_uris": {"android": "https://dc.lft.to/lastmile_qr_scan", "ios": "https://dc.lft.to/lastmile_qr_scan"}, "is_disabled": 0, "fusion_lat": 0.0, "name": "16a38ce2bff31f6690af7fdd49cd1752", "fusion_lon": 0.0}, {"is_reserved": 0, "type": "electric_scooter", "bike_id": "cbe554f55de021e76d78193de4fe4e46", "lat": 38.9001285, "lon": -76.99172083333333, "rental_uris": {"android": "https://dc.lft.to/lastmile_qr_scan", "ios": "https://dc.lft.to/lastmile_qr_scan"}, "is_disabled": 0, "fusion_lat": 0.0, "name": "cbe554f55de021e76d78193de4fe4e46", "fusion_lon": 0.0}, {"is_reserved": 0, "type": "electric_scooter", "bike_id": "3bc19301c8e8e2da79bed3fef67b8c8e", "lat": 38.93626366666667, "lon": -77.05907716666667, "rental_uris": {"android": "https://dc.lft.to/lastmile_qr_scan", "ios": "https://dc.lft.to/lastmile_qr_scan"}, "is_disabled": 0, "fusion_lat": 0.0, "name": "3bc19301c8e8e2da79bed3fef67b8c8e", "fusion_lon": 0.0}, {"is_reserved": 0, "type": "electric_bike", "bike_id": "860c4773af061493d2ec9f0e32b461ac", "lat": 38.841068166666666, "lon": -77.0894285, "rental_uris": {"android": "https://dc.lft.to/lastmile_qr_scan", "ios": "https://dc.lft.to/lastmile_qr_scan"}, "is_disabled": 0, "fusion_lat": 0.0, "name": "860c4773af061493d2ec9f0e32b461ac", "fusion_lon": 0.0}, {"is_reserved": 0, "type": "electric_scooter", "bike_id": "ebf1c86dd7e594b3ffe72638fafedafe", "lat": 38.9079745, "lon": -77.02818533333334, "rental_uris": {"android": "https://dc.lft.to/lastmile_qr_scan", "ios": "https://dc.lft.to/lastmile_qr_scan"}, "is_disabled": 0, "fusion_lat": 0.0, "name": "ebf1c86dd7e594b3ffe72638fafedafe", "fusion_lon": 0.0}, {"is_reserved": 0, "type": "electric_scooter", "bike_id": "048c12dc3cbc761e8d576c4cc6dcb4c0", "lat": 38.897396666666666, "lon": -77.02179333333333, "rental_uris": {"android": "https://dc.lft.to/lastmile_qr_scan", "ios": "https://dc.lft.to/lastmile_qr_scan"}, "is_disabled": 0, "fusion_lat": 0.0, "name": "048c12dc3cbc761e8d576c4cc6dcb4c0", "fusion_lon": 0.0}, {"is_reserved": 0, "type": "electric_scooter", "bike_id": "5f37ab06deed4b606f1304cdc6398e7e", "lat": 38.920277166666665, "lon": -77.03189666666667, "rental_uris": {"android": "https://dc.lft.to/lastmile_qr_scan", "ios": "https://dc.lft.to/lastmile_qr_scan"}, "is_disabled": 0, "fusion_lat": 0.0, "name": "5f37ab06deed4b606f1304cdc6398e7e", "fusion_lon": 0.0}, {"is_reserved": 0, "type": "electric_scooter", "bike_id": "77e6789d258f7c7a79ba4f24b7da24d5", "lat": 38.9311975, "lon": -77.0231245, "rental_uris": {"android": "https://dc.lft.to/lastmile_qr_scan", "ios": "https://dc.lft.to/lastmile_qr_scan"}, "is_disabled": 0, "fusion_lat": 0.0, "name": "77e6789d258f7c7a79ba4f24b7da24d5", "fusion_lon": 0.0}, {"is_reserved": 0, "type": "electric_scooter", "bike_id": "eec2598bbb348a6d0da8bb841bebd7da", "lat": 38.8792625, "lon": -77.01659933333333, "rental_uris": {"android": "https://dc.lft.to/lastmile_qr_scan", "ios": "https://dc.lft.to/lastmile_qr_scan"}, "is_disabled": 0, "fusion_lat": 0.0, "name": "eec2598bbb348a6d0da8bb841bebd7da", "fusion_lon": 0.0}, {"is_reserved": 0, "type": "electric_bike", "bike_id": "2d736de971c4a5b40a7f1775bc32af7d", "lat": 38.94565383333333, "lon": -76.95839333333333, "rental_uris": {"android": "https://dc.lft.to/lastmile_qr_scan", "ios": "https://dc.lft.to/lastmile_qr_scan"}, "is_disabled": 0, "fusion_lat": 0.0, "name": "2d736de971c4a5b40a7f1775bc32af7d", "fusion_lon": 0.0}, {"is_reserved": 0, "type": "electric_scooter", "bike_id": "b16b553f80fc31381b911d5c49535602", "lat": 38.88772483333333, "lon": -76.99162116666666, "rental_uris": {"android": "https://dc.lft.to/lastmile_qr_scan", "ios": "https://dc.lft.to/lastmile_qr_scan"}, "is_disabled": 0, "fusion_lat": 0.0, "name": "b16b553f80fc31381b911d5c49535602", "fusion_lon": 0.0}, {"is_reserved": 0, "type": "electric_scooter", "bike_id": "a5c4d644b8927bf899e08119fada21e9", "lat": 38.87470733333333, "lon": -77.00546, "rental_uris": {"android": "https://dc.lft.to/lastmile_qr_scan", "ios": "https://dc.lft.to/lastmile_qr_scan"}, "is_disabled": 0, "fusion_lat": 0.0, "name": "a5c4d644b8927bf899e08119fada21e9", "fusion_lon": 0.0}, {"is_reserved": 0, "type": "electric_scooter", "bike_id": "6534adeb0f736005ceea5bceac4f19df", "lat": 38.92396516666667, "lon": -77.050605, "rental_uris": {"android": "https://dc.lft.to/lastmile_qr_scan", "ios": "https://dc.lft.to/lastmile_qr_scan"}, "is_disabled": 0, "fusion_lat": 0.0, "name": "6534adeb0f736005ceea5bceac4f19df", "fusion_lon": 0.0}, {"is_reserved": 0, "type": "electric_scooter", "bike_id": "b02af14faeeac4949e7878510a91a7a0", "lat": 38.8829965, "lon": -76.94851616666666, "rental_uris": {"android": "https://dc.lft.to/lastmile_qr_scan", "ios": "https://dc.lft.to/lastmile_qr_scan"}, "is_disabled": 0, "fusion_lat": 0.0, "name": "b02af14faeeac4949e7878510a91a7a0", "fusion_lon": 0.0}, {"is_reserved": 0, "type": "electric_scooter", "bike_id": "a04fd3b5e12455d63f14a1836f9bd6cc", "lat": 38.91005166666667, "lon": -76.9941075, "rental_uris": {"android": "https://dc.lft.to/lastmile_qr_scan", "ios": "https://dc.lft.to/lastmile_qr_scan"}, "is_disabled": 0, "fusion_lat": 0.0, "name": "a04fd3b5e12455d63f14a1836f9bd6cc", "fusion_lon": 0.0}, {"is_reserved": 0, "type": "electric_scooter", "bike_id": "329dc278d553690b730bfc24a304a99d", "lat": 38.899555166666666, "lon": -77.05389616666666, "rental_uris": {"android": "https://dc.lft.to/lastmile_qr_scan", "ios": "https://dc.lft.to/lastmile_qr_scan"}, "is_disabled": 0, "fusion_lat": 0.0, "name": "329dc278d553690b730bfc24a304a99d", "fusion_lon": 0.0}, {"is_reserved": 0, "type": "electric_scooter", "bike_id": "a54a4870aca63c6766b95f39f12ffd52", "lat": 38.91937033333333, "lon": -77.04614216666667, "rental_uris": {"android": "https://dc.lft.to/lastmile_qr_scan", "ios": "https://dc.lft.to/lastmile_qr_scan"}, "is_disabled": 0, "fusion_lat": 0.0, "name": "a54a4870aca63c6766b95f39f12ffd52", "fusion_lon": 0.0}, {"is_reserved": 0, "type": "electric_scooter", "bike_id": "32c5fd34155bef6503501de555c01e29", "lat": 38.9010075, "lon": -76.9810505, "rental_uris": {"android": "https://dc.lft.to/lastmile_qr_scan", "ios": "https://dc.lft.to/lastmile_qr_scan"}, "is_disabled": 0, "fusion_lat": 0.0, "name": "32c5fd34155bef6503501de555c01e29", "fusion_lon": 0.0}, {"is_reserved": 0, "type": "electric_scooter", "bike_id": "24b2f20ff2baf7e764d85b1e46f10b51", "lat": 38.9215365, "lon": -77.03505933333334, "rental_uris": {"android": "https://dc.lft.to/lastmile_qr_scan", "ios": "https://dc.lft.to/lastmile_qr_scan"}, "is_disabled": 0, "fusion_lat": 0.0, "name": "24b2f20ff2baf7e764d85b1e46f10b51", "fusion_lon": 0.0}, {"is_reserved": 0, "type": "electric_scooter", "bike_id": "de6c6632f764e0a9c8d7453e05b418b7", "lat": 38.926421833333336, "lon": -77.036856, "rental_uris": {"android": "https://dc.lft.to/lastmile_qr_scan", "ios": "https://dc.lft.to/lastmile_qr_scan"}, "is_disabled": 0, "fusion_lat": 0.0, "name": "de6c6632f764e0a9c8d7453e05b418b7", "fusion_lon": 0.0}, {"is_reserved": 0, "type": "electric_scooter", "bike_id": "e00194b6d2941868f9feea00326361d3", "lat": 38.90393516666666, "lon": -76.990071, "rental_uris": {"android": "https://dc.lft.to/lastmile_qr_scan", "ios": "https://dc.lft.to/lastmile_qr_scan"}, "is_disabled": 0, "fusion_lat": 0.0, "name": "e00194b6d2941868f9feea00326361d3", "fusion_lon": 0.0}, {"is_reserved": 0, "type": "electric_scooter", "bike_id": "03a379d62ce05a73c3aa848573b792eb", "lat": 38.87303033333333, "lon": -77.01549283333334, "rental_uris": {"android": "https://dc.lft.to/lastmile_qr_scan", "ios": "https://dc.lft.to/lastmile_qr_scan"}, "is_disabled": 0, "fusion_lat": 0.0, "name": "03a379d62ce05a73c3aa848573b792eb", "fusion_lon": 0.0}, {"is_reserved": 0, "type": "electric_scooter", "bike_id": "13e0387f24e12e97567cb86b49c06831", "lat": 38.886117, "lon": -76.99652583333334, "rental_uris": {"android": "https://dc.lft.to/lastmile_qr_scan", "ios": "https://dc.lft.to/lastmile_qr_scan"}, "is_disabled": 0, "fusion_lat": 0.0, "name": "13e0387f24e12e97567cb86b49c06831", "fusion_lon": 0.0}, {"is_reserved": 0, "type": "electric_scooter", "bike_id": "6d476368f3bfd9fad8cecfcc30339207", "lat": 38.923705166666664, "lon": -77.02799466666667, "rental_uris": {"android": "https://dc.lft.to/lastmile_qr_scan", "ios": "https://dc.lft.to/lastmile_qr_scan"}, "is_disabled": 0, "fusion_lat": 0.0, "name": "6d476368f3bfd9fad8cecfcc30339207", "fusion_lon": 0.0}, {"is_reserved": 0, "type": "electric_scooter", "bike_id": "74c92733f37a8d9d7a85b1eb4f5652c4", "lat": 38.917554, "lon": -77.04153016666666, "rental_uris": {"android": "https://dc.lft.to/lastmile_qr_scan", "ios": "https://dc.lft.to/lastmile_qr_scan"}, "is_disabled": 0, "fusion_lat": 0.0, "name": "74c92733f37a8d9d7a85b1eb4f5652c4", "fusion_lon": 0.0}, {"is_reserved": 0, "type": "electric_scooter", "bike_id": "1ded481cb0a023b87818294a673e5b27", "lat": 38.910928, "lon": -77.04235866666667, "rental_uris": {"android": "https://dc.lft.to/lastmile_qr_scan", "ios": "https://dc.lft.to/lastmile_qr_scan"}, "is_disabled": 0, "fusion_lat": 0.0, "name": "1ded481cb0a023b87818294a673e5b27", "fusion_lon": 0.0}, {"is_reserved": 0, "type": "electric_scooter", "bike_id": "4266671ea392bbfd733587635a7250fe", "lat": 38.894409833333334, "lon": -76.979967, "rental_uris": {"android": "https://dc.lft.to/lastmile_qr_scan", "ios": "https://dc.lft.to/lastmile_qr_scan"}, "is_disabled": 0, "fusion_lat": 0.0, "name": "4266671ea392bbfd733587635a7250fe", "fusion_lon": 0.0}, {"is_reserved": 0, "type": "electric_scooter", "bike_id": "d1c9e72507d82816f9449676425aeed6", "lat": 38.920060166666666, "lon": -77.0322365, "rental_uris": {"android": "https://dc.lft.to/lastmile_qr_scan", "ios": "https://dc.lft.to/lastmile_qr_scan"}, "is_disabled": 0, "fusion_lat": 0.0, "name": "d1c9e72507d82816f9449676425aeed6", "fusion_lon": 0.0}, {"is_reserved": 0, "type": "electric_scooter", "bike_id": "42d6d3cf97a2fa702f5c62544f971596", "lat": 38.898274, "lon": -77.04811216666667, "rental_uris": {"android": "https://dc.lft.to/lastmile_qr_scan", "ios": "https://dc.lft.to/lastmile_qr_scan"}, "is_disabled": 0, "fusion_lat": 0.0, "name": "42d6d3cf97a2fa702f5c62544f971596", "fusion_lon": 0.0}, {"is_reserved": 0, "type": "electric_scooter", "bike_id": "088f53faf1703a615e8ba69ddc6af656", "lat": 38.90508333333333, "lon": -77.04840033333333, "rental_uris": {"android": "https://dc.lft.to/lastmile_qr_scan", "ios": "https://dc.lft.to/lastmile_qr_scan"}, "is_disabled": 0, "fusion_lat": 0.0, "name": "088f53faf1703a615e8ba69ddc6af656", "fusion_lon": 0.0}, {"is_reserved": 0, "type": "electric_scooter", "bike_id": "c527773682e0e99aafa1d699cbe2abb3", "lat": 38.91108216666667, "lon": -77.01905266666667, "rental_uris": {"android": "https://dc.lft.to/lastmile_qr_scan", "ios": "https://dc.lft.to/lastmile_qr_scan"}, "is_disabled": 0, "fusion_lat": 0.0, "name": "c527773682e0e99aafa1d699cbe2abb3", "fusion_lon": 0.0}, {"is_reserved": 0, "type": "electric_scooter", "bike_id": "83b698655d19430525d5d3cf9be00cad", "lat": 38.931369333333336, "lon": -77.0785015, "rental_uris": {"android": "https://dc.lft.to/lastmile_qr_scan", "ios": "https://dc.lft.to/lastmile_qr_scan"}, "is_disabled": 0, "fusion_lat": 0.0, "name": "83b698655d19430525d5d3cf9be00cad", "fusion_lon": 0.0}, {"is_reserved": 0, "type": "electric_scooter", "bike_id": "c340d1bd365ae31575df50b0d3aa5614", "lat": 38.9012175, "lon": -77.01628466666666, "rental_uris": {"android": "https://dc.lft.to/lastmile_qr_scan", "ios": "https://dc.lft.to/lastmile_qr_scan"}, "is_disabled": 0, "fusion_lat": 0.0, "name": "c340d1bd365ae31575df50b0d3aa5614", "fusion_lon": 0.0}, {"is_reserved": 0, "type": "electric_scooter", "bike_id": "3ac9aa34a6c8acaa786b6fde22d51ecf", "lat": 38.911144166666666, "lon": -77.04849666666667, "rental_uris": {"android": "https://dc.lft.to/lastmile_qr_scan", "ios": "https://dc.lft.to/lastmile_qr_scan"}, "is_disabled": 0, "fusion_lat": 0.0, "name": "3ac9aa34a6c8acaa786b6fde22d51ecf", "fusion_lon": 0.0}, {"is_reserved": 0, "type": "electric_scooter", "bike_id": "e218c970ee1ba70a0fcf918a45b98e3e", "lat": 38.899655333333335, "lon": -77.02632416666667, "rental_uris": {"android": "https://dc.lft.to/lastmile_qr_scan", "ios": "https://dc.lft.to/lastmile_qr_scan"}, "is_disabled": 0, "fusion_lat": 0.0, "name": "e218c970ee1ba70a0fcf918a45b98e3e", "fusion_lon": 0.0}, {"is_reserved": 0, "type": "electric_scooter", "bike_id": "bedaf66a6d35860b0b990aa4ce65feb1", "lat": 38.91259733333333, "lon": -77.026622, "rental_uris": {"android": "https://dc.lft.to/lastmile_qr_scan", "ios": "https://dc.lft.to/lastmile_qr_scan"}, "is_disabled": 0, "fusion_lat": 0.0, "name": "bedaf66a6d35860b0b990aa4ce65feb1", "fusion_lon": 0.0}, {"is_reserved": 0, "type": "electric_scooter", "bike_id": "9509b46da7d46bddd1c9a7b5d5553ed1", "lat": 38.92715, "lon": -77.0295345, "rental_uris": {"android": "https://dc.lft.to/lastmile_qr_scan", "ios": "https://dc.lft.to/lastmile_qr_scan"}, "is_disabled": 0, "fusion_lat": 0.0, "name": "9509b46da7d46bddd1c9a7b5d5553ed1", "fusion_lon": 0.0}, {"is_reserved": 0, "type": "electric_scooter", "bike_id": "047ac39ec8975687f0307d1b9f30adba", "lat": 38.86582416666667, "lon": -76.99020266666666, "rental_uris": {"android": "https://dc.lft.to/lastmile_qr_scan", "ios": "https://dc.lft.to/lastmile_qr_scan"}, "is_disabled": 0, "fusion_lat": 0.0, "name": "047ac39ec8975687f0307d1b9f30adba", "fusion_lon": 0.0}, {"is_reserved": 0, "type": "electric_scooter", "bike_id": "019000d2b72b255919f49941832daf4a", "lat": 38.89224, "lon": -77.02229233333334, "rental_uris": {"android": "https://dc.lft.to/lastmile_qr_scan", "ios": "https://dc.lft.to/lastmile_qr_scan"}, "is_disabled": 0, "fusion_lat": 0.0, "name": "019000d2b72b255919f49941832daf4a", "fusion_lon": 0.0}, {"is_reserved": 0, "type": "electric_scooter", "bike_id": "e2a3d2c32fab37e0b80d02b526c81007", "lat": 38.92625866666667, "lon": -77.04330466666667, "rental_uris": {"android": "https://dc.lft.to/lastmile_qr_scan", "ios": "https://dc.lft.to/lastmile_qr_scan"}, "is_disabled": 0, "fusion_lat": 0.0, "name": "e2a3d2c32fab37e0b80d02b526c81007", "fusion_lon": 0.0}, {"is_reserved": 0, "type": "electric_bike", "bike_id": "70c18644b0e612282e322a56197363b9", "lat": 39.084945166666664, "lon": -76.95059983333333, "rental_uris": {"android": "https://dc.lft.to/lastmile_qr_scan", "ios": "https://dc.lft.to/lastmile_qr_scan"}, "is_disabled": 0, "fusion_lat": 0.0, "name": "70c18644b0e612282e322a56197363b9", "fusion_lon": 0.0}, {"is_reserved": 0, "type": "electric_scooter", "bike_id": "de9984c57e6f67af3081f7f7efb66ad2", "lat": 38.921281, "lon": -77.04116883333333, "rental_uris": {"android": "https://dc.lft.to/lastmile_qr_scan", "ios": "https://dc.lft.to/lastmile_qr_scan"}, "is_disabled": 0, "fusion_lat": 0.0, "name": "de9984c57e6f67af3081f7f7efb66ad2", "fusion_lon": 0.0}, {"is_reserved": 0, "type": "electric_scooter", "bike_id": "60d081e6a92342c4f2bba74ae8343e09", "lat": 38.92037033333333, "lon": -77.01221716666667, "rental_uris": {"android": "https://dc.lft.to/lastmile_qr_scan", "ios": "https://dc.lft.to/lastmile_qr_scan"}, "is_disabled": 0, "fusion_lat": 0.0, "name": "60d081e6a92342c4f2bba74ae8343e09", "fusion_lon": 0.0}, {"is_reserved": 0, "type": "electric_scooter", "bike_id": "f69c8dda8c311dae67b5fe573d09b70c", "lat": 38.904481833333335, "lon": -77.03112116666667, "rental_uris": {"android": "https://dc.lft.to/lastmile_qr_scan", "ios": "https://dc.lft.to/lastmile_qr_scan"}, "is_disabled": 0, "fusion_lat": 0.0, "name": "f69c8dda8c311dae67b5fe573d09b70c", "fusion_lon": 0.0}, {"is_reserved": 0, "type": "electric_scooter", "bike_id": "74de3eb955fe1ee2a965e3f41cb58df8", "lat": 38.89999016666667, "lon": -77.022849, "rental_uris": {"android": "https://dc.lft.to/lastmile_qr_scan", "ios": "https://dc.lft.to/lastmile_qr_scan"}, "is_disabled": 0, "fusion_lat": 0.0, "name": "74de3eb955fe1ee2a965e3f41cb58df8", "fusion_lon": 0.0}, {"is_reserved": 0, "type": "electric_scooter", "bike_id": "779f77d246a68320c195aec1e4eb10cf", "lat": 38.9057615, "lon": -77.00601, "rental_uris": {"android": "https://dc.lft.to/lastmile_qr_scan", "ios": "https://dc.lft.to/lastmile_qr_scan"}, "is_disabled": 0, "fusion_lat": 0.0, "name": "779f77d246a68320c195aec1e4eb10cf", "fusion_lon": 0.0}, {"is_reserved": 0, "type": "electric_scooter", "bike_id": "ef86b88d7cae21968f19f1e7a7c15395", "lat": 38.927004, "lon": -76.99771433333333, "rental_uris": {"android": "https://dc.lft.to/lastmile_qr_scan", "ios": "https://dc.lft.to/lastmile_qr_scan"}, "is_disabled": 0, "fusion_lat": 0.0, "name": "ef86b88d7cae21968f19f1e7a7c15395", "fusion_lon": 0.0}, {"is_reserved": 0, "type": "electric_scooter", "bike_id": "aa1d52b5a30fdba38c6c73b7576eae9c", "lat": 38.94435333333333, "lon": -76.979628, "rental_uris": {"android": "https://dc.lft.to/lastmile_qr_scan", "ios": "https://dc.lft.to/lastmile_qr_scan"}, "is_disabled": 0, "fusion_lat": 0.0, "name": "aa1d52b5a30fdba38c6c73b7576eae9c", "fusion_lon": 0.0}, {"is_reserved": 0, "type": "electric_scooter", "bike_id": "d67485c8d78d26dc641ec9d9c59fcc70", "lat": 38.9158525, "lon": -77.012375, "rental_uris": {"android": "https://dc.lft.to/lastmile_qr_scan", "ios": "https://dc.lft.to/lastmile_qr_scan"}, "is_disabled": 0, "fusion_lat": 0.0, "name": "d67485c8d78d26dc641ec9d9c59fcc70", "fusion_lon": 0.0}, {"is_reserved": 0, "type": "electric_scooter", "bike_id": "989d3350ec3efedbb4a72fcf8e676331", "lat": 38.925894, "lon": -77.026003, "rental_uris": {"android": "https://dc.lft.to/lastmile_qr_scan", "ios": "https://dc.lft.to/lastmile_qr_scan"}, "is_disabled": 0, "fusion_lat": 0.0, "name": "989d3350ec3efedbb4a72fcf8e676331", "fusion_lon": 0.0}, {"is_reserved": 0, "type": "electric_scooter", "bike_id": "397d9836f032b84000b0d8e2bec6c06f", "lat": 38.903023166666664, "lon": -77.00221, "rental_uris": {"android": "https://dc.lft.to/lastmile_qr_scan", "ios": "https://dc.lft.to/lastmile_qr_scan"}, "is_disabled": 0, "fusion_lat": 0.0, "name": "397d9836f032b84000b0d8e2bec6c06f", "fusion_lon": 0.0}, {"is_reserved": 0, "type": "electric_scooter", "bike_id": "b2e93eb076917de067fe94cbb05401df", "lat": 38.90594433333333, "lon": -77.0090655, "rental_uris": {"android": "https://dc.lft.to/lastmile_qr_scan", "ios": "https://dc.lft.to/lastmile_qr_scan"}, "is_disabled": 0, "fusion_lat": 0.0, "name": "b2e93eb076917de067fe94cbb05401df", "fusion_lon": 0.0}, {"is_reserved": 0, "type": "electric_scooter", "bike_id": "f54dac87c4145a514632804f333f89ca", "lat": 38.93286366666667, "lon": -77.0361925, "rental_uris": {"android": "https://dc.lft.to/lastmile_qr_scan", "ios": "https://dc.lft.to/lastmile_qr_scan"}, "is_disabled": 0, "fusion_lat": 0.0, "name": "f54dac87c4145a514632804f333f89ca", "fusion_lon": 0.0}, {"is_reserved": 0, "type": "electric_scooter", "bike_id": "d819c3fdac98f13f586af4745d15d314", "lat": 38.89910716666667, "lon": -76.93368166666667, "rental_uris": {"android": "https://dc.lft.to/lastmile_qr_scan", "ios": "https://dc.lft.to/lastmile_qr_scan"}, "is_disabled": 0, "fusion_lat": 0.0, "name": "d819c3fdac98f13f586af4745d15d314", "fusion_lon": 0.0}, {"is_reserved": 0, "type": "electric_scooter", "bike_id": "05f45dfc102342dbe49dce523c020da5", "lat": 38.932258, "lon": -77.0379925, "rental_uris": {"android": "https://dc.lft.to/lastmile_qr_scan", "ios": "https://dc.lft.to/lastmile_qr_scan"}, "is_disabled": 0, "fusion_lat": 0.0, "name": "05f45dfc102342dbe49dce523c020da5", "fusion_lon": 0.0}, {"is_reserved": 0, "type": "electric_scooter", "bike_id": "327944c78fdca10c75f1bfc30c6c2ccc", "lat": 38.912118166666666, "lon": -77.04550566666667, "rental_uris": {"android": "https://dc.lft.to/lastmile_qr_scan", "ios": "https://dc.lft.to/lastmile_qr_scan"}, "is_disabled": 0, "fusion_lat": 0.0, "name": "327944c78fdca10c75f1bfc30c6c2ccc", "fusion_lon": 0.0}, {"is_reserved": 0, "type": "electric_scooter", "bike_id": "d7d6599710104add99281f8ca9f571e2", "lat": 38.90853416666667, "lon": -77.06344983333334, "rental_uris": {"android": "https://dc.lft.to/lastmile_qr_scan", "ios": "https://dc.lft.to/lastmile_qr_scan"}, "is_disabled": 0, "fusion_lat": 0.0, "name": "d7d6599710104add99281f8ca9f571e2", "fusion_lon": 0.0}, {"is_reserved": 0, "type": "electric_scooter", "bike_id": "08ccd316b75ae8c86340797577151358", "lat": 38.9213815, "lon": -77.0458495, "rental_uris": {"android": "https://dc.lft.to/lastmile_qr_scan", "ios": "https://dc.lft.to/lastmile_qr_scan"}, "is_disabled": 0, "fusion_lat": 0.0, "name": "08ccd316b75ae8c86340797577151358", "fusion_lon": 0.0}, {"is_reserved": 0, "type": "electric_scooter", "bike_id": "899c0bc361e57deab89d070f160406fa", "lat": 38.900412833333334, "lon": -76.99154316666667, "rental_uris": {"android": "https://dc.lft.to/lastmile_qr_scan", "ios": "https://dc.lft.to/lastmile_qr_scan"}, "is_disabled": 0, "fusion_lat": 0.0, "name": "899c0bc361e57deab89d070f160406fa", "fusion_lon": 0.0}, {"is_reserved": 0, "type": "electric_scooter", "bike_id": "ba779296ed839e4877fc5e8073a060ab", "lat": 38.94660616666667, "lon": -77.03279766666667, "rental_uris": {"android": "https://dc.lft.to/lastmile_qr_scan", "ios": "https://dc.lft.to/lastmile_qr_scan"}, "is_disabled": 0, "fusion_lat": 0.0, "name": "ba779296ed839e4877fc5e8073a060ab", "fusion_lon": 0.0}, {"is_reserved": 0, "type": "electric_scooter", "bike_id": "328648bdcd0c466921c6f99a2208e11c", "lat": 38.899412833333336, "lon": -77.02200883333333, "rental_uris": {"android": "https://dc.lft.to/lastmile_qr_scan", "ios": "https://dc.lft.to/lastmile_qr_scan"}, "is_disabled": 0, "fusion_lat": 0.0, "name": "328648bdcd0c466921c6f99a2208e11c", "fusion_lon": 0.0}, {"is_reserved": 0, "type": "electric_scooter", "bike_id": "db908c633098dd5546a06ab1f5394e6e", "lat": 38.8937825, "lon": -77.0282335, "rental_uris": {"android": "https://dc.lft.to/lastmile_qr_scan", "ios": "https://dc.lft.to/lastmile_qr_scan"}, "is_disabled": 0, "fusion_lat": 0.0, "name": "db908c633098dd5546a06ab1f5394e6e", "fusion_lon": 0.0}, {"is_reserved": 0, "type": "electric_scooter", "bike_id": "c741dd77f2f058577d503731115c9c58", "lat": 38.904042, "lon": -77.06765383333334, "rental_uris": {"android": "https://dc.lft.to/lastmile_qr_scan", "ios": "https://dc.lft.to/lastmile_qr_scan"}, "is_disabled": 0, "fusion_lat": 0.0, "name": "c741dd77f2f058577d503731115c9c58", "fusion_lon": 0.0}, {"is_reserved": 0, "type": "electric_scooter", "bike_id": "b10e77d82d5a492492fb469c1720b263", "lat": 38.90208033333333, "lon": -77.02185266666666, "rental_uris": {"android": "https://dc.lft.to/lastmile_qr_scan", "ios": "https://dc.lft.to/lastmile_qr_scan"}, "is_disabled": 0, "fusion_lat": 0.0, "name": "b10e77d82d5a492492fb469c1720b263", "fusion_lon": 0.0}, {"is_reserved": 0, "type": "electric_scooter", "bike_id": "b86b3a25f001f5e449d0d97e7b29e194", "lat": 38.9208585, "lon": -77.01371116666667, "rental_uris": {"android": "https://dc.lft.to/lastmile_qr_scan", "ios": "https://dc.lft.to/lastmile_qr_scan"}, "is_disabled": 0, "fusion_lat": 0.0, "name": "b86b3a25f001f5e449d0d97e7b29e194", "fusion_lon": 0.0}, {"is_reserved": 0, "type": "electric_scooter", "bike_id": "209b58055ba9df110c4b83040c5fea34", "lat": 38.923186, "lon": -77.0412235, "rental_uris": {"android": "https://dc.lft.to/lastmile_qr_scan", "ios": "https://dc.lft.to/lastmile_qr_scan"}, "is_disabled": 0, "fusion_lat": 0.0, "name": "209b58055ba9df110c4b83040c5fea34", "fusion_lon": 0.0}, {"is_reserved": 0, "type": "electric_bike", "bike_id": "487e758ce49c3e8bdb173a35c1eb12ab", "lat": 38.90537483333333, "lon": -76.9979875, "rental_uris": {"android": "https://dc.lft.to/lastmile_qr_scan", "ios": "https://dc.lft.to/lastmile_qr_scan"}, "is_disabled": 0, "fusion_lat": 0.0, "name": "487e758ce49c3e8bdb173a35c1eb12ab", "fusion_lon": 0.0}, {"is_reserved": 0, "type": "electric_bike", "bike_id": "b77be910f83e30d08e86cb6c33e2d8a3", "lat": 38.89955916666667, "lon": -76.98578866666666, "rental_uris": {"android": "https://dc.lft.to/lastmile_qr_scan", "ios": "https://dc.lft.to/lastmile_qr_scan"}, "is_disabled": 0, "fusion_lat": 0.0, "name": "b77be910f83e30d08e86cb6c33e2d8a3", "fusion_lon": 0.0}, {"is_reserved": 0, "type": "electric_scooter", "bike_id": "db2479487c3fc7a28f6dded35df561f7", "lat": 38.889892333333336, "lon": -77.0007545, "rental_uris": {"android": "https://dc.lft.to/lastmile_qr_scan", "ios": "https://dc.lft.to/lastmile_qr_scan"}, "is_disabled": 0, "fusion_lat": 0.0, "name": "db2479487c3fc7a28f6dded35df561f7", "fusion_lon": 0.0}, {"is_reserved": 0, "type": "electric_scooter", "bike_id": "2db3b0e6f7f652f3e9d35e37f3b0359b", "lat": 38.925794833333335, "lon": -76.99505383333333, "rental_uris": {"android": "https://dc.lft.to/lastmile_qr_scan", "ios": "https://dc.lft.to/lastmile_qr_scan"}, "is_disabled": 0, "fusion_lat": 0.0, "name": "2db3b0e6f7f652f3e9d35e37f3b0359b", "fusion_lon": 0.0}, {"is_reserved": 0, "type": "electric_scooter", "bike_id": "765fc86568d299e5b82efce34e0c293d", "lat": 38.9097625, "lon": -77.04511, "rental_uris": {"android": "https://dc.lft.to/lastmile_qr_scan", "ios": "https://dc.lft.to/lastmile_qr_scan"}, "is_disabled": 0, "fusion_lat": 0.0, "name": "765fc86568d299e5b82efce34e0c293d", "fusion_lon": 0.0}, {"is_reserved": 0, "type": "electric_scooter", "bike_id": "9591f102ccac13c1639858ac753e1b40", "lat": 38.94980916666667, "lon": -77.024479, "rental_uris": {"android": "https://dc.lft.to/lastmile_qr_scan", "ios": "https://dc.lft.to/lastmile_qr_scan"}, "is_disabled": 0, "fusion_lat": 0.0, "name": "9591f102ccac13c1639858ac753e1b40", "fusion_lon": 0.0}, {"is_reserved": 0, "type": "electric_scooter", "bike_id": "300cea8bf63486668b11b2f0d9d8ba9f", "lat": 38.91813466666667, "lon": -77.0320065, "rental_uris": {"android": "https://dc.lft.to/lastmile_qr_scan", "ios": "https://dc.lft.to/lastmile_qr_scan"}, "is_disabled": 0, "fusion_lat": 0.0, "name": "300cea8bf63486668b11b2f0d9d8ba9f", "fusion_lon": 0.0}, {"is_reserved": 0, "type": "electric_bike", "bike_id": "a987215d19ea892b88233bfa081e95a0", "lat": 38.90801666666667, "lon": -77.02373233333333, "rental_uris": {"android": "https://dc.lft.to/lastmile_qr_scan", "ios": "https://dc.lft.to/lastmile_qr_scan"}, "is_disabled": 0, "fusion_lat": 0.0, "name": "a987215d19ea892b88233bfa081e95a0", "fusion_lon": 0.0}, {"is_reserved": 0, "type": "electric_bike", "bike_id": "ccd57589a9b2e7bd69972bad3e5e9399", "lat": 38.88245883333333, "lon": -76.96260233333334, "rental_uris": {"android": "https://dc.lft.to/lastmile_qr_scan", "ios": "https://dc.lft.to/lastmile_qr_scan"}, "is_disabled": 0, "fusion_lat": 0.0, "name": "ccd57589a9b2e7bd69972bad3e5e9399", "fusion_lon": 0.0}, {"is_reserved": 0, "type": "electric_bike", "bike_id": "f22ebee8b3d0d926e7ecfcc17f5d5596", "lat": 38.95600116666667, "lon": -76.99534733333333, "rental_uris": {"android": "https://dc.lft.to/lastmile_qr_scan", "ios": "https://dc.lft.to/lastmile_qr_scan"}, "is_disabled": 0, "fusion_lat": 0.0, "name": "f22ebee8b3d0d926e7ecfcc17f5d5596", "fusion_lon": 0.0}, {"is_reserved": 0, "type": "electric_scooter", "bike_id": "1b580498cea7ede686673fd8198a272e", "lat": 38.887466833333335, "lon": -77.01744016666666, "rental_uris": {"android": "https://dc.lft.to/lastmile_qr_scan", "ios": "https://dc.lft.to/lastmile_qr_scan"}, "is_disabled": 0, "fusion_lat": 0.0, "name": "1b580498cea7ede686673fd8198a272e", "fusion_lon": 0.0}, {"is_reserved": 0, "type": "electric_scooter", "bike_id": "03693d5f8b6f5a4f7fce44ab7d36948e", "lat": 38.94007766666667, "lon": -77.02731916666667, "rental_uris": {"android": "https://dc.lft.to/lastmile_qr_scan", "ios": "https://dc.lft.to/lastmile_qr_scan"}, "is_disabled": 0, "fusion_lat": 0.0, "name": "03693d5f8b6f5a4f7fce44ab7d36948e", "fusion_lon": 0.0}, {"is_reserved": 0, "type": "electric_scooter", "bike_id": "fe7081cb1e74fb7b6a526bb7457ada54", "lat": 38.92074916666667, "lon": -77.023148, "rental_uris": {"android": "https://dc.lft.to/lastmile_qr_scan", "ios": "https://dc.lft.to/lastmile_qr_scan"}, "is_disabled": 0, "fusion_lat": 0.0, "name": "fe7081cb1e74fb7b6a526bb7457ada54", "fusion_lon": 0.0}, {"is_reserved": 0, "type": "electric_scooter", "bike_id": "dbab66cbfe61178c8cdbb55254fcfe46", "lat": 38.91305466666667, "lon": -77.041647, "rental_uris": {"android": "https://dc.lft.to/lastmile_qr_scan", "ios": "https://dc.lft.to/lastmile_qr_scan"}, "is_disabled": 0, "fusion_lat": 0.0, "name": "dbab66cbfe61178c8cdbb55254fcfe46", "fusion_lon": 0.0}, {"is_reserved": 0, "type": "electric_scooter", "bike_id": "8b43711540427fca8da4866deda4e527", "lat": 38.899530666666664, "lon": -77.05392333333333, "rental_uris": {"android": "https://dc.lft.to/lastmile_qr_scan", "ios": "https://dc.lft.to/lastmile_qr_scan"}, "is_disabled": 0, "fusion_lat": 0.0, "name": "8b43711540427fca8da4866deda4e527", "fusion_lon": 0.0}, {"is_reserved": 0, "type": "electric_scooter", "bike_id": "0024567c93a6e7c286bab0304f4cc29b", "lat": 38.92449233333333, "lon": -77.02034683333333, "rental_uris": {"android": "https://dc.lft.to/lastmile_qr_scan", "ios": "https://dc.lft.to/lastmile_qr_scan"}, "is_disabled": 0, "fusion_lat": 0.0, "name": "0024567c93a6e7c286bab0304f4cc29b", "fusion_lon": 0.0}, {"is_reserved": 0, "type": "electric_scooter", "bike_id": "5a0c3b572935ebcbb8f27dca5b2f19b7", "lat": 38.90552433333333, "lon": -76.99779066666666, "rental_uris": {"android": "https://dc.lft.to/lastmile_qr_scan", "ios": "https://dc.lft.to/lastmile_qr_scan"}, "is_disabled": 0, "fusion_lat": 0.0, "name": "5a0c3b572935ebcbb8f27dca5b2f19b7", "fusion_lon": 0.0}, {"is_reserved": 0, "type": "electric_scooter", "bike_id": "33fe2d59a72df03b6814637436579be1", "lat": 38.90102483333333, "lon": -77.01616716666666, "rental_uris": {"android": "https://dc.lft.to/lastmile_qr_scan", "ios": "https://dc.lft.to/lastmile_qr_scan"}, "is_disabled": 0, "fusion_lat": 0.0, "name": "33fe2d59a72df03b6814637436579be1", "fusion_lon": 0.0}, {"is_reserved": 0, "type": "electric_scooter", "bike_id": "9d202d94aeff166cbedc3bc637bd41ad", "lat": 38.937860666666666, "lon": -77.07452483333333, "rental_uris": {"android": "https://dc.lft.to/lastmile_qr_scan", "ios": "https://dc.lft.to/lastmile_qr_scan"}, "is_disabled": 0, "fusion_lat": 0.0, "name": "9d202d94aeff166cbedc3bc637bd41ad", "fusion_lon": 0.0}, {"is_reserved": 0, "type": "electric_scooter", "bike_id": "0d86b17849694d8db9e5b1ed3d5104bf", "lat": 38.91118316666667, "lon": -77.0035915, "rental_uris": {"android": "https://dc.lft.to/lastmile_qr_scan", "ios": "https://dc.lft.to/lastmile_qr_scan"}, "is_disabled": 0, "fusion_lat": 0.0, "name": "0d86b17849694d8db9e5b1ed3d5104bf", "fusion_lon": 0.0}, {"is_reserved": 0, "type": "electric_scooter", "bike_id": "e66bbd07468a7831726ea631f7686bb9", "lat": 38.914555166666666, "lon": -77.029572, "rental_uris": {"android": "https://dc.lft.to/lastmile_qr_scan", "ios": "https://dc.lft.to/lastmile_qr_scan"}, "is_disabled": 0, "fusion_lat": 0.0, "name": "e66bbd07468a7831726ea631f7686bb9", "fusion_lon": 0.0}, {"is_reserved": 0, "type": "electric_scooter", "bike_id": "23a5cecd39ec4d220efda748f954944a", "lat": 38.9268245, "lon": -77.00735133333333, "rental_uris": {"android": "https://dc.lft.to/lastmile_qr_scan", "ios": "https://dc.lft.to/lastmile_qr_scan"}, "is_disabled": 0, "fusion_lat": 0.0, "name": "23a5cecd39ec4d220efda748f954944a", "fusion_lon": 0.0}, {"is_reserved": 0, "type": "electric_scooter", "bike_id": "5e8715b56866c2659a75c09df1afee77", "lat": 38.8954505, "lon": -76.98338283333334, "rental_uris": {"android": "https://dc.lft.to/lastmile_qr_scan", "ios": "https://dc.lft.to/lastmile_qr_scan"}, "is_disabled": 0, "fusion_lat": 0.0, "name": "5e8715b56866c2659a75c09df1afee77", "fusion_lon": 0.0}, {"is_reserved": 0, "type": "electric_scooter", "bike_id": "93abc3e7c6003fd933658f61a118bd15", "lat": 38.908596, "lon": -77.04655183333334, "rental_uris": {"android": "https://dc.lft.to/lastmile_qr_scan", "ios": "https://dc.lft.to/lastmile_qr_scan"}, "is_disabled": 0, "fusion_lat": 0.0, "name": "93abc3e7c6003fd933658f61a118bd15", "fusion_lon": 0.0}, {"is_reserved": 0, "type": "electric_scooter", "bike_id": "f04d3e510b5541b6c9c5ec43971e2d67", "lat": 38.933906, "lon": -77.02380416666666, "rental_uris": {"android": "https://dc.lft.to/lastmile_qr_scan", "ios": "https://dc.lft.to/lastmile_qr_scan"}, "is_disabled": 0, "fusion_lat": 0.0, "name": "f04d3e510b5541b6c9c5ec43971e2d67", "fusion_lon": 0.0}, {"is_reserved": 0, "type": "electric_scooter", "bike_id": "f12e0bf9743a407387fe60a0be2d8dc9", "lat": 38.9212545, "lon": -77.04365866666667, "rental_uris": {"android": "https://dc.lft.to/lastmile_qr_scan", "ios": "https://dc.lft.to/lastmile_qr_scan"}, "is_disabled": 0, "fusion_lat": 0.0, "name": "f12e0bf9743a407387fe60a0be2d8dc9", "fusion_lon": 0.0}, {"is_reserved": 0, "type": "electric_scooter", "bike_id": "d48d520eec595783d35ba0d62e388bda", "lat": 38.92334916666667, "lon": -77.03716283333333, "rental_uris": {"android": "https://dc.lft.to/lastmile_qr_scan", "ios": "https://dc.lft.to/lastmile_qr_scan"}, "is_disabled": 0, "fusion_lat": 0.0, "name": "d48d520eec595783d35ba0d62e388bda", "fusion_lon": 0.0}, {"is_reserved": 0, "type": "electric_scooter", "bike_id": "f18fd1a31cc6de8af2ca8a05b3d28ea2", "lat": 38.92244983333333, "lon": -77.03513716666667, "rental_uris": {"android": "https://dc.lft.to/lastmile_qr_scan", "ios": "https://dc.lft.to/lastmile_qr_scan"}, "is_disabled": 0, "fusion_lat": 0.0, "name": "f18fd1a31cc6de8af2ca8a05b3d28ea2", "fusion_lon": 0.0}, {"is_reserved": 0, "type": "electric_scooter", "bike_id": "b52b727af2c1914c43562acb7ff526ed", "lat": 38.9388735, "lon": -77.03217133333334, "rental_uris": {"android": "https://dc.lft.to/lastmile_qr_scan", "ios": "https://dc.lft.to/lastmile_qr_scan"}, "is_disabled": 0, "fusion_lat": 0.0, "name": "b52b727af2c1914c43562acb7ff526ed", "fusion_lon": 0.0}, {"is_reserved": 0, "type": "electric_scooter", "bike_id": "e2d574ab034fb40da9c2144c727e05a4", "lat": 38.91419666666667, "lon": -77.0221185, "rental_uris": {"android": "https://dc.lft.to/lastmile_qr_scan", "ios": "https://dc.lft.to/lastmile_qr_scan"}, "is_disabled": 0, "fusion_lat": 0.0, "name": "e2d574ab034fb40da9c2144c727e05a4", "fusion_lon": 0.0}, {"is_reserved": 0, "type": "electric_scooter", "bike_id": "3c60103e79dc41f86248bd7fda4c3f23", "lat": 38.916806, "lon": -77.02298816666666, "rental_uris": {"android": "https://dc.lft.to/lastmile_qr_scan", "ios": "https://dc.lft.to/lastmile_qr_scan"}, "is_disabled": 0, "fusion_lat": 0.0, "name": "3c60103e79dc41f86248bd7fda4c3f23", "fusion_lon": 0.0}, {"is_reserved": 0, "type": "electric_scooter", "bike_id": "2163a99ace1312e5845355ce79da5d47", "lat": 38.872166666666665, "lon": -77.013517, "rental_uris": {"android": "https://dc.lft.to/lastmile_qr_scan", "ios": "https://dc.lft.to/lastmile_qr_scan"}, "is_disabled": 0, "fusion_lat": 0.0, "name": "2163a99ace1312e5845355ce79da5d47", "fusion_lon": 0.0}, {"is_reserved": 0, "type": "electric_scooter", "bike_id": "65610836a13eab6eb498f997af3bba33", "lat": 38.89950916666667, "lon": -76.97920466666666, "rental_uris": {"android": "https://dc.lft.to/lastmile_qr_scan", "ios": "https://dc.lft.to/lastmile_qr_scan"}, "is_disabled": 0, "fusion_lat": 0.0, "name": "65610836a13eab6eb498f997af3bba33", "fusion_lon": 0.0}, {"is_reserved": 0, "type": "electric_scooter", "bike_id": "f5576ef21311dfc1d79f731cff0b8e84", "lat": 38.909333, "lon": -76.996327, "rental_uris": {"android": "https://dc.lft.to/lastmile_qr_scan", "ios": "https://dc.lft.to/lastmile_qr_scan"}, "is_disabled": 0, "fusion_lat": 0.0, "name": "f5576ef21311dfc1d79f731cff0b8e84", "fusion_lon": 0.0}, {"is_reserved": 0, "type": "electric_scooter", "bike_id": "929c6c291ddf8f6f3a88d5c960deb607", "lat": 38.935238, "lon": -77.019431, "rental_uris": {"android": "https://dc.lft.to/lastmile_qr_scan", "ios": "https://dc.lft.to/lastmile_qr_scan"}, "is_disabled": 0, "fusion_lat": 0.0, "name": "929c6c291ddf8f6f3a88d5c960deb607", "fusion_lon": 0.0}, {"is_reserved": 0, "type": "electric_scooter", "bike_id": "6c19e0ffb260dd028255aed18d08bba3", "lat": 38.89997316666667, "lon": -77.02708016666666, "rental_uris": {"android": "https://dc.lft.to/lastmile_qr_scan", "ios": "https://dc.lft.to/lastmile_qr_scan"}, "is_disabled": 0, "fusion_lat": 0.0, "name": "6c19e0ffb260dd028255aed18d08bba3", "fusion_lon": 0.0}, {"is_reserved": 0, "type": "electric_scooter", "bike_id": "717a7b520dc099b668b82f66e9992516", "lat": 38.906498166666665, "lon": -76.98377533333333, "rental_uris": {"android": "https://dc.lft.to/lastmile_qr_scan", "ios": "https://dc.lft.to/lastmile_qr_scan"}, "is_disabled": 0, "fusion_lat": 0.0, "name": "717a7b520dc099b668b82f66e9992516", "fusion_lon": 0.0}, {"is_reserved": 0, "type": "electric_scooter", "bike_id": "3145a79d9ed579310af4c679256c569b", "lat": 38.8854925, "lon": -76.99041333333334, "rental_uris": {"android": "https://dc.lft.to/lastmile_qr_scan", "ios": "https://dc.lft.to/lastmile_qr_scan"}, "is_disabled": 0, "fusion_lat": 0.0, "name": "3145a79d9ed579310af4c679256c569b", "fusion_lon": 0.0}, {"is_reserved": 0, "type": "electric_scooter", "bike_id": "6bc069fb1570040370c92628676ce699", "lat": 38.916463, "lon": -77.03902916666667, "rental_uris": {"android": "https://dc.lft.to/lastmile_qr_scan", "ios": "https://dc.lft.to/lastmile_qr_scan"}, "is_disabled": 0, "fusion_lat": 0.0, "name": "6bc069fb1570040370c92628676ce699", "fusion_lon": 0.0}, {"is_reserved": 0, "type": "electric_scooter", "bike_id": "e9f35932d5f2929a8faa3fae70bcad50", "lat": 38.908420666666665, "lon": -77.029574, "rental_uris": {"android": "https://dc.lft.to/lastmile_qr_scan", "ios": "https://dc.lft.to/lastmile_qr_scan"}, "is_disabled": 0, "fusion_lat": 0.0, "name": "e9f35932d5f2929a8faa3fae70bcad50", "fusion_lon": 0.0}, {"is_reserved": 0, "type": "electric_scooter", "bike_id": "4685d8a2af64930bf15202437d835874", "lat": 38.8922075, "lon": -77.02220233333334, "rental_uris": {"android": "https://dc.lft.to/lastmile_qr_scan", "ios": "https://dc.lft.to/lastmile_qr_scan"}, "is_disabled": 0, "fusion_lat": 0.0, "name": "4685d8a2af64930bf15202437d835874", "fusion_lon": 0.0}, {"is_reserved": 0, "type": "electric_scooter", "bike_id": "c84ce081ae6047ea6bab22dbf71b8a17", "lat": 38.925756166666666, "lon": -76.9949035, "rental_uris": {"android": "https://dc.lft.to/lastmile_qr_scan", "ios": "https://dc.lft.to/lastmile_qr_scan"}, "is_disabled": 0, "fusion_lat": 0.0, "name": "c84ce081ae6047ea6bab22dbf71b8a17", "fusion_lon": 0.0}, {"is_reserved": 0, "type": "electric_scooter", "bike_id": "6c2c285a241966e53d9411526b5c2c6a", "lat": 38.8960925, "lon": -77.046818, "rental_uris": {"android": "https://dc.lft.to/lastmile_qr_scan", "ios": "https://dc.lft.to/lastmile_qr_scan"}, "is_disabled": 0, "fusion_lat": 0.0, "name": "6c2c285a241966e53d9411526b5c2c6a", "fusion_lon": 0.0}, {"is_reserved": 0, "type": "electric_scooter", "bike_id": "ee46230c396b63fa76c20dbd14c89784", "lat": 38.89755566666667, "lon": -77.0020135, "rental_uris": {"android": "https://dc.lft.to/lastmile_qr_scan", "ios": "https://dc.lft.to/lastmile_qr_scan"}, "is_disabled": 0, "fusion_lat": 0.0, "name": "ee46230c396b63fa76c20dbd14c89784", "fusion_lon": 0.0}, {"is_reserved": 0, "type": "electric_scooter", "bike_id": "575decdc1dcf615ad81255e1cb17b7f9", "lat": 38.899210833333335, "lon": -76.97833033333333, "rental_uris": {"android": "https://dc.lft.to/lastmile_qr_scan", "ios": "https://dc.lft.to/lastmile_qr_scan"}, "is_disabled": 0, "fusion_lat": 0.0, "name": "575decdc1dcf615ad81255e1cb17b7f9", "fusion_lon": 0.0}, {"is_reserved": 0, "type": "electric_scooter", "bike_id": "26128e1f27b1bd0a3cccbd1e498ab1e8", "lat": 38.924437166666664, "lon": -77.04028383333333, "rental_uris": {"android": "https://dc.lft.to/lastmile_qr_scan", "ios": "https://dc.lft.to/lastmile_qr_scan"}, "is_disabled": 0, "fusion_lat": 0.0, "name": "26128e1f27b1bd0a3cccbd1e498ab1e8", "fusion_lon": 0.0}, {"is_reserved": 0, "type": "electric_scooter", "bike_id": "e99955252381f83a15fa0f99ec65ee9c", "lat": 38.887308166666664, "lon": -76.98374616666666, "rental_uris": {"android": "https://dc.lft.to/lastmile_qr_scan", "ios": "https://dc.lft.to/lastmile_qr_scan"}, "is_disabled": 0, "fusion_lat": 0.0, "name": "e99955252381f83a15fa0f99ec65ee9c", "fusion_lon": 0.0}, {"is_reserved": 0, "type": "electric_scooter", "bike_id": "fdb1c5781f33e2e223e90ad6097c6fdb", "lat": 38.934005666666664, "lon": -77.039935, "rental_uris": {"android": "https://dc.lft.to/lastmile_qr_scan", "ios": "https://dc.lft.to/lastmile_qr_scan"}, "is_disabled": 0, "fusion_lat": 0.0, "name": "fdb1c5781f33e2e223e90ad6097c6fdb", "fusion_lon": 0.0}, {"is_reserved": 0, "type": "electric_scooter", "bike_id": "7862cb3514e75279548011933872422b", "lat": 38.89840216666666, "lon": -77.02491633333334, "rental_uris": {"android": "https://dc.lft.to/lastmile_qr_scan", "ios": "https://dc.lft.to/lastmile_qr_scan"}, "is_disabled": 0, "fusion_lat": 0.0, "name": "7862cb3514e75279548011933872422b", "fusion_lon": 0.0}, {"is_reserved": 0, "type": "electric_scooter", "bike_id": "f029268275b72085cfad56ea8bf0f8e0", "lat": 38.909732, "lon": -77.00779, "rental_uris": {"android": "https://dc.lft.to/lastmile_qr_scan", "ios": "https://dc.lft.to/lastmile_qr_scan"}, "is_disabled": 0, "fusion_lat": 0.0, "name": "f029268275b72085cfad56ea8bf0f8e0", "fusion_lon": 0.0}, {"is_reserved": 0, "type": "electric_scooter", "bike_id": "30478b8944381043bf8ff40b3ecd139e", "lat": 38.92317716666667, "lon": -77.0412495, "rental_uris": {"android": "https://dc.lft.to/lastmile_qr_scan", "ios": "https://dc.lft.to/lastmile_qr_scan"}, "is_disabled": 0, "fusion_lat": 0.0, "name": "30478b8944381043bf8ff40b3ecd139e", "fusion_lon": 0.0}, {"is_reserved": 0, "type": "electric_bike", "bike_id": "c376213cff9f0ebd01c748d084f854d6", "lat": 38.86267266666667, "lon": -76.983485, "rental_uris": {"android": "https://dc.lft.to/lastmile_qr_scan", "ios": "https://dc.lft.to/lastmile_qr_scan"}, "is_disabled": 0, "fusion_lat": 0.0, "name": "c376213cff9f0ebd01c748d084f854d6", "fusion_lon": 0.0}, {"is_reserved": 0, "type": "electric_scooter", "bike_id": "44b41fc7d53cdbb2b95e507f1782a2b0", "lat": 38.918584, "lon": -77.03566216666667, "rental_uris": {"android": "https://dc.lft.to/lastmile_qr_scan", "ios": "https://dc.lft.to/lastmile_qr_scan"}, "is_disabled": 0, "fusion_lat": 0.0, "name": "44b41fc7d53cdbb2b95e507f1782a2b0", "fusion_lon": 0.0}, {"is_reserved": 0, "type": "electric_scooter", "bike_id": "01cde51edb7fbdc0a9aa30670911c68f", "lat": 38.92650116666667, "lon": -77.02707916666667, "rental_uris": {"android": "https://dc.lft.to/lastmile_qr_scan", "ios": "https://dc.lft.to/lastmile_qr_scan"}, "is_disabled": 0, "fusion_lat": 0.0, "name": "01cde51edb7fbdc0a9aa30670911c68f", "fusion_lon": 0.0}, {"is_reserved": 0, "type": "electric_scooter", "bike_id": "57f64dc70b25b81f09dc52ddbd30c1f1", "lat": 38.909749, "lon": -77.04507, "rental_uris": {"android": "https://dc.lft.to/lastmile_qr_scan", "ios": "https://dc.lft.to/lastmile_qr_scan"}, "is_disabled": 0, "fusion_lat": 0.0, "name": "57f64dc70b25b81f09dc52ddbd30c1f1", "fusion_lon": 0.0}, {"is_reserved": 0, "type": "electric_scooter", "bike_id": "496b25133d375ec4084e0f6f5c203cbb", "lat": 38.90793516666667, "lon": -77.00196133333333, "rental_uris": {"android": "https://dc.lft.to/lastmile_qr_scan", "ios": "https://dc.lft.to/lastmile_qr_scan"}, "is_disabled": 0, "fusion_lat": 0.0, "name": "496b25133d375ec4084e0f6f5c203cbb", "fusion_lon": 0.0}, {"is_reserved": 0, "type": "electric_scooter", "bike_id": "228aa35aec10fa6bbd10c9b17240518b", "lat": 38.910755333333334, "lon": -77.016083, "rental_uris": {"android": "https://dc.lft.to/lastmile_qr_scan", "ios": "https://dc.lft.to/lastmile_qr_scan"}, "is_disabled": 0, "fusion_lat": 0.0, "name": "228aa35aec10fa6bbd10c9b17240518b", "fusion_lon": 0.0}, {"is_reserved": 0, "type": "electric_scooter", "bike_id": "e29894e5ae51f267c7be05b166bd1450", "lat": 38.91819316666667, "lon": -77.03165483333333, "rental_uris": {"android": "https://dc.lft.to/lastmile_qr_scan", "ios": "https://dc.lft.to/lastmile_qr_scan"}, "is_disabled": 0, "fusion_lat": 0.0, "name": "e29894e5ae51f267c7be05b166bd1450", "fusion_lon": 0.0}, {"is_reserved": 0, "type": "electric_bike", "bike_id": "e8f5286905f4e579b45dfda0bc28e4f6", "lat": 38.894617833333335, "lon": -77.10364333333334, "rental_uris": {"android": "https://dc.lft.to/lastmile_qr_scan", "ios": "https://dc.lft.to/lastmile_qr_scan"}, "is_disabled": 0, "fusion_lat": 0.0, "name": "e8f5286905f4e579b45dfda0bc28e4f6", "fusion_lon": 0.0}, {"is_reserved": 0, "type": "electric_scooter", "bike_id": "1bcac0783de95761f8cfefa2fecb9f5f", "lat": 38.93504633333333, "lon": -77.04287233333334, "rental_uris": {"android": "https://dc.lft.to/lastmile_qr_scan", "ios": "https://dc.lft.to/lastmile_qr_scan"}, "is_disabled": 0, "fusion_lat": 0.0, "name": "1bcac0783de95761f8cfefa2fecb9f5f", "fusion_lon": 0.0}, {"is_reserved": 0, "type": "electric_scooter", "bike_id": "bad00342498aeb8f5c1c0523c2f5881b", "lat": 38.9159635, "lon": -77.02128066666667, "rental_uris": {"android": "https://dc.lft.to/lastmile_qr_scan", "ios": "https://dc.lft.to/lastmile_qr_scan"}, "is_disabled": 0, "fusion_lat": 0.0, "name": "bad00342498aeb8f5c1c0523c2f5881b", "fusion_lon": 0.0}, {"is_reserved": 0, "type": "electric_scooter", "bike_id": "30a04d09c21b820fac1248acae37cac0", "lat": 38.8750485, "lon": -77.00035316666667, "rental_uris": {"android": "https://dc.lft.to/lastmile_qr_scan", "ios": "https://dc.lft.to/lastmile_qr_scan"}, "is_disabled": 0, "fusion_lat": 0.0, "name": "30a04d09c21b820fac1248acae37cac0", "fusion_lon": 0.0}, {"is_reserved": 0, "type": "electric_scooter", "bike_id": "0a325fc052eb84956f6e3c0234ecd08e", "lat": 38.87717266666667, "lon": -77.01858016666667, "rental_uris": {"android": "https://dc.lft.to/lastmile_qr_scan", "ios": "https://dc.lft.to/lastmile_qr_scan"}, "is_disabled": 0, "fusion_lat": 0.0, "name": "0a325fc052eb84956f6e3c0234ecd08e", "fusion_lon": 0.0}, {"is_reserved": 0, "type": "electric_scooter", "bike_id": "f8b077f46fb2c7232d9793f05fbce876", "lat": 38.85652116666667, "lon": -76.99675466666666, "rental_uris": {"android": "https://dc.lft.to/lastmile_qr_scan", "ios": "https://dc.lft.to/lastmile_qr_scan"}, "is_disabled": 0, "fusion_lat": 0.0, "name": "f8b077f46fb2c7232d9793f05fbce876", "fusion_lon": 0.0}, {"is_reserved": 0, "type": "electric_scooter", "bike_id": "545d5470a609718e094f285b3ee54b03", "lat": 38.90451266666667, "lon": -76.99622716666667, "rental_uris": {"android": "https://dc.lft.to/lastmile_qr_scan", "ios": "https://dc.lft.to/lastmile_qr_scan"}, "is_disabled": 0, "fusion_lat": 0.0, "name": "545d5470a609718e094f285b3ee54b03", "fusion_lon": 0.0}, {"is_reserved": 0, "type": "electric_scooter", "bike_id": "eec3e9502f1c589047e13bc40d0c9727", "lat": 38.91813616666666, "lon": -77.0247815, "rental_uris": {"android": "https://dc.lft.to/lastmile_qr_scan", "ios": "https://dc.lft.to/lastmile_qr_scan"}, "is_disabled": 0, "fusion_lat": 0.0, "name": "eec3e9502f1c589047e13bc40d0c9727", "fusion_lon": 0.0}, {"is_reserved": 0, "type": "electric_scooter", "bike_id": "58cfa58ed88ccec160e2b078946ae9ed", "lat": 38.92841933333333, "lon": -77.05514983333333, "rental_uris": {"android": "https://dc.lft.to/lastmile_qr_scan", "ios": "https://dc.lft.to/lastmile_qr_scan"}, "is_disabled": 0, "fusion_lat": 0.0, "name": "58cfa58ed88ccec160e2b078946ae9ed", "fusion_lon": 0.0}, {"is_reserved": 0, "type": "electric_scooter", "bike_id": "00243d80af28d658620a6d6b3a16ce02", "lat": 38.9240065, "lon": -77.050441, "rental_uris": {"android": "https://dc.lft.to/lastmile_qr_scan", "ios": "https://dc.lft.to/lastmile_qr_scan"}, "is_disabled": 0, "fusion_lat": 0.0, "name": "00243d80af28d658620a6d6b3a16ce02", "fusion_lon": 0.0}, {"is_reserved": 0, "type": "electric_scooter", "bike_id": "929bffaeba1d6471c9b4ab214a737c8b", "lat": 38.900369, "lon": -76.9883125, "rental_uris": {"android": "https://dc.lft.to/lastmile_qr_scan", "ios": "https://dc.lft.to/lastmile_qr_scan"}, "is_disabled": 0, "fusion_lat": 0.0, "name": "929bffaeba1d6471c9b4ab214a737c8b", "fusion_lon": 0.0}, {"is_reserved": 0, "type": "electric_scooter", "bike_id": "e615dad52d0a3b2d63c87c50f504cd14", "lat": 38.91879083333333, "lon": -77.04254633333333, "rental_uris": {"android": "https://dc.lft.to/lastmile_qr_scan", "ios": "https://dc.lft.to/lastmile_qr_scan"}, "is_disabled": 0, "fusion_lat": 0.0, "name": "e615dad52d0a3b2d63c87c50f504cd14", "fusion_lon": 0.0}, {"is_reserved": 0, "type": "electric_scooter", "bike_id": "33e7d110f5004e247fed5505ae5c432f", "lat": 38.91573416666667, "lon": -77.03660766666667, "rental_uris": {"android": "https://dc.lft.to/lastmile_qr_scan", "ios": "https://dc.lft.to/lastmile_qr_scan"}, "is_disabled": 0, "fusion_lat": 0.0, "name": "33e7d110f5004e247fed5505ae5c432f", "fusion_lon": 0.0}, {"is_reserved": 0, "type": "electric_scooter", "bike_id": "485f1c6f36c5e2ef37e38ac6d715fce3", "lat": 38.911156, "lon": -77.01820916666667, "rental_uris": {"android": "https://dc.lft.to/lastmile_qr_scan", "ios": "https://dc.lft.to/lastmile_qr_scan"}, "is_disabled": 0, "fusion_lat": 0.0, "name": "485f1c6f36c5e2ef37e38ac6d715fce3", "fusion_lon": 0.0}, {"is_reserved": 0, "type": "electric_scooter", "bike_id": "2ddd9e9812c129fc47d6d655aa0ad4f8", "lat": 38.930649, "lon": -77.02842133333333, "rental_uris": {"android": "https://dc.lft.to/lastmile_qr_scan", "ios": "https://dc.lft.to/lastmile_qr_scan"}, "is_disabled": 0, "fusion_lat": 0.0, "name": "2ddd9e9812c129fc47d6d655aa0ad4f8", "fusion_lon": 0.0}, {"is_reserved": 0, "type": "electric_scooter", "bike_id": "0b249f69f56a203be8619a0e17aadb7a", "lat": 38.9073085, "lon": -77.0112995, "rental_uris": {"android": "https://dc.lft.to/lastmile_qr_scan", "ios": "https://dc.lft.to/lastmile_qr_scan"}, "is_disabled": 0, "fusion_lat": 0.0, "name": "0b249f69f56a203be8619a0e17aadb7a", "fusion_lon": 0.0}, {"is_reserved": 0, "type": "electric_bike", "bike_id": "227bfd13d23860ce28efd5290aec8194", "lat": 38.974244, "lon": -77.012586, "rental_uris": {"android": "https://dc.lft.to/lastmile_qr_scan", "ios": "https://dc.lft.to/lastmile_qr_scan"}, "is_disabled": 0, "fusion_lat": 0.0, "name": "227bfd13d23860ce28efd5290aec8194", "fusion_lon": 0.0}, {"is_reserved": 0, "type": "electric_scooter", "bike_id": "d4a4c4a9c2a8c6fe6612ef2881cb89f6", "lat": 38.95634233333333, "lon": -77.03564, "rental_uris": {"android": "https://dc.lft.to/lastmile_qr_scan", "ios": "https://dc.lft.to/lastmile_qr_scan"}, "is_disabled": 0, "fusion_lat": 0.0, "name": "d4a4c4a9c2a8c6fe6612ef2881cb89f6", "fusion_lon": 0.0}, {"is_reserved": 0, "type": "electric_scooter", "bike_id": "bfa9a3df7ed02679f3ea1ac4493f5120", "lat": 38.91269666666667, "lon": -77.044286, "rental_uris": {"android": "https://dc.lft.to/lastmile_qr_scan", "ios": "https://dc.lft.to/lastmile_qr_scan"}, "is_disabled": 0, "fusion_lat": 0.0, "name": "bfa9a3df7ed02679f3ea1ac4493f5120", "fusion_lon": 0.0}, {"is_reserved": 0, "type": "electric_scooter", "bike_id": "e88f32c69473bcbac1247dc43d23a48d", "lat": 38.91415766666667, "lon": -77.022096, "rental_uris": {"android": "https://dc.lft.to/lastmile_qr_scan", "ios": "https://dc.lft.to/lastmile_qr_scan"}, "is_disabled": 0, "fusion_lat": 0.0, "name": "e88f32c69473bcbac1247dc43d23a48d", "fusion_lon": 0.0}, {"is_reserved": 0, "type": "electric_scooter", "bike_id": "d599c8de753239962cfac3708a788aaf", "lat": 38.919958333333334, "lon": -77.02382633333333, "rental_uris": {"android": "https://dc.lft.to/lastmile_qr_scan", "ios": "https://dc.lft.to/lastmile_qr_scan"}, "is_disabled": 0, "fusion_lat": 0.0, "name": "d599c8de753239962cfac3708a788aaf", "fusion_lon": 0.0}, {"is_reserved": 0, "type": "electric_scooter", "bike_id": "86af0f64c8f17b8a3fee4d90cefd4a6f", "lat": 38.92123333333333, "lon": -77.017787, "rental_uris": {"android": "https://dc.lft.to/lastmile_qr_scan", "ios": "https://dc.lft.to/lastmile_qr_scan"}, "is_disabled": 0, "fusion_lat": 0.0, "name": "86af0f64c8f17b8a3fee4d90cefd4a6f", "fusion_lon": 0.0}, {"is_reserved": 0, "type": "electric_scooter", "bike_id": "8ef61e55d7f21ef0149bc13a939bcd40", "lat": 38.93394033333333, "lon": -77.02383883333333, "rental_uris": {"android": "https://dc.lft.to/lastmile_qr_scan", "ios": "https://dc.lft.to/lastmile_qr_scan"}, "is_disabled": 0, "fusion_lat": 0.0, "name": "8ef61e55d7f21ef0149bc13a939bcd40", "fusion_lon": 0.0}, {"is_reserved": 0, "type": "electric_scooter", "bike_id": "8f61a667f24113be0d63c1482198e3ef", "lat": 38.900232833333334, "lon": -77.02713016666667, "rental_uris": {"android": "https://dc.lft.to/lastmile_qr_scan", "ios": "https://dc.lft.to/lastmile_qr_scan"}, "is_disabled": 0, "fusion_lat": 0.0, "name": "8f61a667f24113be0d63c1482198e3ef", "fusion_lon": 0.0}, {"is_reserved": 0, "type": "electric_scooter", "bike_id": "d0810cf3cf2f98d644801b35460d6cad", "lat": 38.9199045, "lon": -77.03221516666666, "rental_uris": {"android": "https://dc.lft.to/lastmile_qr_scan", "ios": "https://dc.lft.to/lastmile_qr_scan"}, "is_disabled": 0, "fusion_lat": 0.0, "name": "d0810cf3cf2f98d644801b35460d6cad", "fusion_lon": 0.0}, {"is_reserved": 0, "type": "electric_scooter", "bike_id": "020902fe8bd96c221078532772065786", "lat": 38.892234, "lon": -77.03151316666667, "rental_uris": {"android": "https://dc.lft.to/lastmile_qr_scan", "ios": "https://dc.lft.to/lastmile_qr_scan"}, "is_disabled": 0, "fusion_lat": 0.0, "name": "020902fe8bd96c221078532772065786", "fusion_lon": 0.0}, {"is_reserved": 0, "type": "electric_scooter", "bike_id": "98a487dc631af7d40341eee9ea84cc1b", "lat": 38.91338616666667, "lon": -77.04162783333334, "rental_uris": {"android": "https://dc.lft.to/lastmile_qr_scan", "ios": "https://dc.lft.to/lastmile_qr_scan"}, "is_disabled": 0, "fusion_lat": 0.0, "name": "98a487dc631af7d40341eee9ea84cc1b", "fusion_lon": 0.0}, {"is_reserved": 0, "type": "electric_scooter", "bike_id": "49862645a4df3310984f1d1d214351cd", "lat": 38.91709933333333, "lon": -77.02939216666667, "rental_uris": {"android": "https://dc.lft.to/lastmile_qr_scan", "ios": "https://dc.lft.to/lastmile_qr_scan"}, "is_disabled": 0, "fusion_lat": 0.0, "name": "49862645a4df3310984f1d1d214351cd", "fusion_lon": 0.0}, {"is_reserved": 0, "type": "electric_scooter", "bike_id": "ee6a476184aea883891de918c1251340", "lat": 38.907319, "lon": -77.04884483333333, "rental_uris": {"android": "https://dc.lft.to/lastmile_qr_scan", "ios": "https://dc.lft.to/lastmile_qr_scan"}, "is_disabled": 0, "fusion_lat": 0.0, "name": "ee6a476184aea883891de918c1251340", "fusion_lon": 0.0}, {"is_reserved": 0, "type": "electric_scooter", "bike_id": "46a5a6735a65472cb508542323c5fe0a", "lat": 38.92765933333333, "lon": -77.0287795, "rental_uris": {"android": "https://dc.lft.to/lastmile_qr_scan", "ios": "https://dc.lft.to/lastmile_qr_scan"}, "is_disabled": 0, "fusion_lat": 0.0, "name": "46a5a6735a65472cb508542323c5fe0a", "fusion_lon": 0.0}, {"is_reserved": 0, "type": "electric_scooter", "bike_id": "0492953d4c4ad565514cfc1faf79e978", "lat": 38.9262835, "lon": -77.03786883333333, "rental_uris": {"android": "https://dc.lft.to/lastmile_qr_scan", "ios": "https://dc.lft.to/lastmile_qr_scan"}, "is_disabled": 0, "fusion_lat": 0.0, "name": "0492953d4c4ad565514cfc1faf79e978", "fusion_lon": 0.0}, {"is_reserved": 0, "type": "electric_bike", "bike_id": "8c1bbe1edf35bf93135d5538e5ee0499", "lat": 38.80385, "lon": -76.98813083333333, "rental_uris": {"android": "https://dc.lft.to/lastmile_qr_scan", "ios": "https://dc.lft.to/lastmile_qr_scan"}, "is_disabled": 0, "fusion_lat": 0.0, "name": "8c1bbe1edf35bf93135d5538e5ee0499", "fusion_lon": 0.0}, {"is_reserved": 0, "type": "electric_scooter", "bike_id": "c8066f92a5cbf2c4932ce042e9b26a33", "lat": 38.90257716666667, "lon": -77.05408266666667, "rental_uris": {"android": "https://dc.lft.to/lastmile_qr_scan", "ios": "https://dc.lft.to/lastmile_qr_scan"}, "is_disabled": 0, "fusion_lat": 0.0, "name": "c8066f92a5cbf2c4932ce042e9b26a33", "fusion_lon": 0.0}, {"is_reserved": 0, "type": "electric_scooter", "bike_id": "5e1598123d1184b16e609b610eb51d55", "lat": 38.92563233333333, "lon": -77.03255066666667, "rental_uris": {"android": "https://dc.lft.to/lastmile_qr_scan", "ios": "https://dc.lft.to/lastmile_qr_scan"}, "is_disabled": 0, "fusion_lat": 0.0, "name": "5e1598123d1184b16e609b610eb51d55", "fusion_lon": 0.0}, {"is_reserved": 0, "type": "electric_scooter", "bike_id": "2d57e2eae2abcdb974726ed759afd8f9", "lat": 38.848265833333336, "lon": -76.97818866666667, "rental_uris": {"android": "https://dc.lft.to/lastmile_qr_scan", "ios": "https://dc.lft.to/lastmile_qr_scan"}, "is_disabled": 0, "fusion_lat": 0.0, "name": "2d57e2eae2abcdb974726ed759afd8f9", "fusion_lon": 0.0}, {"is_reserved": 0, "type": "electric_bike", "bike_id": "7e015f32c758a117fde689ff9aeccef3", "lat": 38.945442, "lon": -77.344601, "rental_uris": {"android": "https://dc.lft.to/lastmile_qr_scan", "ios": "https://dc.lft.to/lastmile_qr_scan"}, "is_disabled": 0, "fusion_lat": 0.0, "name": "7e015f32c758a117fde689ff9aeccef3", "fusion_lon": 0.0}, {"is_reserved": 0, "type": "electric_scooter", "bike_id": "9361211ebca0138eee0b920bfc9589a2", "lat": 38.886591333333335, "lon": -76.936729, "rental_uris": {"android": "https://dc.lft.to/lastmile_qr_scan", "ios": "https://dc.lft.to/lastmile_qr_scan"}, "is_disabled": 0, "fusion_lat": 0.0, "name": "9361211ebca0138eee0b920bfc9589a2", "fusion_lon": 0.0}, {"is_reserved": 0, "type": "electric_scooter", "bike_id": "d5d9d9cfebffcf8cfbba7a633c5ddc17", "lat": 38.882852666666665, "lon": -76.9948605, "rental_uris": {"android": "https://dc.lft.to/lastmile_qr_scan", "ios": "https://dc.lft.to/lastmile_qr_scan"}, "is_disabled": 0, "fusion_lat": 0.0, "name": "d5d9d9cfebffcf8cfbba7a633c5ddc17", "fusion_lon": 0.0}, {"is_reserved": 0, "type": "electric_scooter", "bike_id": "245ac6069d01e4cf75706bc585f84bef", "lat": 38.90083283333333, "lon": -76.9257195, "rental_uris": {"android": "https://dc.lft.to/lastmile_qr_scan", "ios": "https://dc.lft.to/lastmile_qr_scan"}, "is_disabled": 0, "fusion_lat": 0.0, "name": "245ac6069d01e4cf75706bc585f84bef", "fusion_lon": 0.0}, {"is_reserved": 0, "type": "electric_bike", "bike_id": "59c4260a947627cab9a4fd59d73f2730", "lat": 38.819425333333335, "lon": -77.00206466666667, "rental_uris": {"android": "https://dc.lft.to/lastmile_qr_scan", "ios": "https://dc.lft.to/lastmile_qr_scan"}, "is_disabled": 0, "fusion_lat": 0.0, "name": "59c4260a947627cab9a4fd59d73f2730", "fusion_lon": 0.0}, {"is_reserved": 0, "type": "electric_scooter", "bike_id": "435b02be5a02af5a8c82ebd5a3c944bd", "lat": 38.908541, "lon": -77.04742016666667, "rental_uris": {"android": "https://dc.lft.to/lastmile_qr_scan", "ios": "https://dc.lft.to/lastmile_qr_scan"}, "is_disabled": 0, "fusion_lat": 0.0, "name": "435b02be5a02af5a8c82ebd5a3c944bd", "fusion_lon": 0.0}, {"is_reserved": 0, "type": "electric_scooter", "bike_id": "f4f2be32519bf7ca99eee620bd4a5390", "lat": 38.93458783333333, "lon": -77.02090483333333, "rental_uris": {"android": "https://dc.lft.to/lastmile_qr_scan", "ios": "https://dc.lft.to/lastmile_qr_scan"}, "is_disabled": 0, "fusion_lat": 0.0, "name": "f4f2be32519bf7ca99eee620bd4a5390", "fusion_lon": 0.0}, {"is_reserved": 0, "type": "electric_scooter", "bike_id": "edb22c94a88093e2e0ff45ea81269371", "lat": 38.90801166666667, "lon": -77.04482266666666, "rental_uris": {"android": "https://dc.lft.to/lastmile_qr_scan", "ios": "https://dc.lft.to/lastmile_qr_scan"}, "is_disabled": 0, "fusion_lat": 0.0, "name": "edb22c94a88093e2e0ff45ea81269371", "fusion_lon": 0.0}, {"is_reserved": 0, "type": "electric_bike", "bike_id": "79e52e23b4d9c49bc8bdccea080ebcf6", "lat": 39.084338333333335, "lon": -76.95151016666667, "rental_uris": {"android": "https://dc.lft.to/lastmile_qr_scan", "ios": "https://dc.lft.to/lastmile_qr_scan"}, "is_disabled": 0, "fusion_lat": 0.0, "name": "79e52e23b4d9c49bc8bdccea080ebcf6", "fusion_lon": 0.0}, {"is_reserved": 0, "type": "electric_scooter", "bike_id": "27043447bb474d11eb63ebe8ecba5b11", "lat": 38.88991983333333, "lon": -76.993027, "rental_uris": {"android": "https://dc.lft.to/lastmile_qr_scan", "ios": "https://dc.lft.to/lastmile_qr_scan"}, "is_disabled": 0, "fusion_lat": 0.0, "name": "27043447bb474d11eb63ebe8ecba5b11", "fusion_lon": 0.0}, {"is_reserved": 0, "type": "electric_scooter", "bike_id": "15a1e7e2699cccdf7b7a425091c2f97c", "lat": 38.9263235, "lon": -77.042543, "rental_uris": {"android": "https://dc.lft.to/lastmile_qr_scan", "ios": "https://dc.lft.to/lastmile_qr_scan"}, "is_disabled": 0, "fusion_lat": 0.0, "name": "15a1e7e2699cccdf7b7a425091c2f97c", "fusion_lon": 0.0}, {"is_reserved": 0, "type": "electric_scooter", "bike_id": "8bf4e42d54f7e547d992a55f25d0aea5", "lat": 38.91682933333333, "lon": -77.02949233333334, "rental_uris": {"android": "https://dc.lft.to/lastmile_qr_scan", "ios": "https://dc.lft.to/lastmile_qr_scan"}, "is_disabled": 0, "fusion_lat": 0.0, "name": "8bf4e42d54f7e547d992a55f25d0aea5", "fusion_lon": 0.0}, {"is_reserved": 0, "type": "electric_scooter", "bike_id": "cb54d89f8c878a38e25a59bb60ff7dfe", "lat": 38.930437166666664, "lon": -77.05542116666666, "rental_uris": {"android": "https://dc.lft.to/lastmile_qr_scan", "ios": "https://dc.lft.to/lastmile_qr_scan"}, "is_disabled": 0, "fusion_lat": 0.0, "name": "cb54d89f8c878a38e25a59bb60ff7dfe", "fusion_lon": 0.0}, {"is_reserved": 0, "type": "electric_scooter", "bike_id": "90abccad9473ab69aa50bf03752201a2", "lat": 38.92157783333333, "lon": -77.04220083333334, "rental_uris": {"android": "https://dc.lft.to/lastmile_qr_scan", "ios": "https://dc.lft.to/lastmile_qr_scan"}, "is_disabled": 0, "fusion_lat": 0.0, "name": "90abccad9473ab69aa50bf03752201a2", "fusion_lon": 0.0}, {"is_reserved": 0, "type": "electric_scooter", "bike_id": "86a620457448faf3bfc68d88630524be", "lat": 38.909037166666664, "lon": -76.99618216666667, "rental_uris": {"android": "https://dc.lft.to/lastmile_qr_scan", "ios": "https://dc.lft.to/lastmile_qr_scan"}, "is_disabled": 0, "fusion_lat": 0.0, "name": "86a620457448faf3bfc68d88630524be", "fusion_lon": 0.0}, {"is_reserved": 0, "type": "electric_scooter", "bike_id": "e6107bb79a30120fc7e097539b9a42d2", "lat": 38.92099983333333, "lon": -77.04703783333333, "rental_uris": {"android": "https://dc.lft.to/lastmile_qr_scan", "ios": "https://dc.lft.to/lastmile_qr_scan"}, "is_disabled": 0, "fusion_lat": 0.0, "name": "e6107bb79a30120fc7e097539b9a42d2", "fusion_lon": 0.0}, {"is_reserved": 0, "type": "electric_scooter", "bike_id": "9feec3171207f83b2cb8e5ddbeee2d00", "lat": 38.902568, "lon": -77.034703, "rental_uris": {"android": "https://dc.lft.to/lastmile_qr_scan", "ios": "https://dc.lft.to/lastmile_qr_scan"}, "is_disabled": 0, "fusion_lat": 0.0, "name": "9feec3171207f83b2cb8e5ddbeee2d00", "fusion_lon": 0.0}, {"is_reserved": 0, "type": "electric_scooter", "bike_id": "41dcb83379dd25709647e936dfcff597", "lat": 38.94328466666666, "lon": -77.0125845, "rental_uris": {"android": "https://dc.lft.to/lastmile_qr_scan", "ios": "https://dc.lft.to/lastmile_qr_scan"}, "is_disabled": 0, "fusion_lat": 0.0, "name": "41dcb83379dd25709647e936dfcff597", "fusion_lon": 0.0}, {"is_reserved": 0, "type": "electric_scooter", "bike_id": "f218b5abe9b3652806d4eee22d9b9fae", "lat": 38.895382833333336, "lon": -76.97895616666666, "rental_uris": {"android": "https://dc.lft.to/lastmile_qr_scan", "ios": "https://dc.lft.to/lastmile_qr_scan"}, "is_disabled": 0, "fusion_lat": 0.0, "name": "f218b5abe9b3652806d4eee22d9b9fae", "fusion_lon": 0.0}, {"is_reserved": 0, "type": "electric_scooter", "bike_id": "9b540f06b6064b9dbf510d1e2ce6e61e", "lat": 38.9285085, "lon": -77.05425383333333, "rental_uris": {"android": "https://dc.lft.to/lastmile_qr_scan", "ios": "https://dc.lft.to/lastmile_qr_scan"}, "is_disabled": 0, "fusion_lat": 0.0, "name": "9b540f06b6064b9dbf510d1e2ce6e61e", "fusion_lon": 0.0}, {"is_reserved": 0, "type": "electric_scooter", "bike_id": "664ce43500cf25b7aea4710ccc62d9e5", "lat": 38.91922266666667, "lon": -77.04797583333334, "rental_uris": {"android": "https://dc.lft.to/lastmile_qr_scan", "ios": "https://dc.lft.to/lastmile_qr_scan"}, "is_disabled": 0, "fusion_lat": 0.0, "name": "664ce43500cf25b7aea4710ccc62d9e5", "fusion_lon": 0.0}, {"is_reserved": 0, "type": "electric_scooter", "bike_id": "a0a2cd744539e810895d53d2dafcc7a8", "lat": 38.903925666666666, "lon": -77.0162575, "rental_uris": {"android": "https://dc.lft.to/lastmile_qr_scan", "ios": "https://dc.lft.to/lastmile_qr_scan"}, "is_disabled": 0, "fusion_lat": 0.0, "name": "a0a2cd744539e810895d53d2dafcc7a8", "fusion_lon": 0.0}, {"is_reserved": 0, "type": "electric_bike", "bike_id": "351618e179a2749d48d208ce636e2d41", "lat": 38.8354845, "lon": -76.99994216666667, "rental_uris": {"android": "https://dc.lft.to/lastmile_qr_scan", "ios": "https://dc.lft.to/lastmile_qr_scan"}, "is_disabled": 0, "fusion_lat": 0.0, "name": "351618e179a2749d48d208ce636e2d41", "fusion_lon": 0.0}, {"is_reserved": 0, "type": "electric_scooter", "bike_id": "74df41977bf87e456add9d0f906d3cfd", "lat": 38.9312905, "lon": -77.02304716666667, "rental_uris": {"android": "https://dc.lft.to/lastmile_qr_scan", "ios": "https://dc.lft.to/lastmile_qr_scan"}, "is_disabled": 0, "fusion_lat": 0.0, "name": "74df41977bf87e456add9d0f906d3cfd", "fusion_lon": 0.0}, {"is_reserved": 0, "type": "electric_scooter", "bike_id": "8669b08d874d75b8be1abc3a13bf4f03", "lat": 38.96029383333333, "lon": -77.07155266666666, "rental_uris": {"android": "https://dc.lft.to/lastmile_qr_scan", "ios": "https://dc.lft.to/lastmile_qr_scan"}, "is_disabled": 0, "fusion_lat": 0.0, "name": "8669b08d874d75b8be1abc3a13bf4f03", "fusion_lon": 0.0}, {"is_reserved": 0, "type": "electric_scooter", "bike_id": "b1fb1b9d641d462dc75bf0153495d4fd", "lat": 38.92570683333334, "lon": -76.99483716666667, "rental_uris": {"android": "https://dc.lft.to/lastmile_qr_scan", "ios": "https://dc.lft.to/lastmile_qr_scan"}, "is_disabled": 0, "fusion_lat": 0.0, "name": "b1fb1b9d641d462dc75bf0153495d4fd", "fusion_lon": 0.0}, {"is_reserved": 0, "type": "electric_scooter", "bike_id": "c37831505cf168acc3fb09324f655079", "lat": 38.898164333333334, "lon": -77.02403266666667, "rental_uris": {"android": "https://dc.lft.to/lastmile_qr_scan", "ios": "https://dc.lft.to/lastmile_qr_scan"}, "is_disabled": 0, "fusion_lat": 0.0, "name": "c37831505cf168acc3fb09324f655079", "fusion_lon": 0.0}, {"is_reserved": 0, "type": "electric_scooter", "bike_id": "3f3f269a49d8f972c4ab0bd8589e38a5", "lat": 38.93352933333333, "lon": -77.034273, "rental_uris": {"android": "https://dc.lft.to/lastmile_qr_scan", "ios": "https://dc.lft.to/lastmile_qr_scan"}, "is_disabled": 0, "fusion_lat": 0.0, "name": "3f3f269a49d8f972c4ab0bd8589e38a5", "fusion_lon": 0.0}, {"is_reserved": 0, "type": "electric_bike", "bike_id": "f510393fe7f5282c9214f829f1a1a039", "lat": 38.944777, "lon": -76.98690616666667, "rental_uris": {"android": "https://dc.lft.to/lastmile_qr_scan", "ios": "https://dc.lft.to/lastmile_qr_scan"}, "is_disabled": 0, "fusion_lat": 0.0, "name": "f510393fe7f5282c9214f829f1a1a039", "fusion_lon": 0.0}, {"is_reserved": 0, "type": "electric_scooter", "bike_id": "11617a39d8e0318f316f0aaa7ecfeb7d", "lat": 38.918769166666664, "lon": -77.04490816666667, "rental_uris": {"android": "https://dc.lft.to/lastmile_qr_scan", "ios": "https://dc.lft.to/lastmile_qr_scan"}, "is_disabled": 0, "fusion_lat": 0.0, "name": "11617a39d8e0318f316f0aaa7ecfeb7d", "fusion_lon": 0.0}, {"is_reserved": 0, "type": "electric_scooter", "bike_id": "4b350ecab4c8bbd89571899f0d506a33", "lat": 38.90736183333333, "lon": -77.00758483333334, "rental_uris": {"android": "https://dc.lft.to/lastmile_qr_scan", "ios": "https://dc.lft.to/lastmile_qr_scan"}, "is_disabled": 0, "fusion_lat": 0.0, "name": "4b350ecab4c8bbd89571899f0d506a33", "fusion_lon": 0.0}, {"is_reserved": 0, "type": "electric_scooter", "bike_id": "cd7d0565e467603aa91dd0e7968482c8", "lat": 38.9215805, "lon": -77.03321783333334, "rental_uris": {"android": "https://dc.lft.to/lastmile_qr_scan", "ios": "https://dc.lft.to/lastmile_qr_scan"}, "is_disabled": 0, "fusion_lat": 0.0, "name": "cd7d0565e467603aa91dd0e7968482c8", "fusion_lon": 0.0}, {"is_reserved": 0, "type": "electric_scooter", "bike_id": "4d387701a5b96def41d7c1391b57c3fe", "lat": 38.924547833333335, "lon": -77.02034416666666, "rental_uris": {"android": "https://dc.lft.to/lastmile_qr_scan", "ios": "https://dc.lft.to/lastmile_qr_scan"}, "is_disabled": 0, "fusion_lat": 0.0, "name": "4d387701a5b96def41d7c1391b57c3fe", "fusion_lon": 0.0}, {"is_reserved": 0, "type": "electric_scooter", "bike_id": "43baec7305ab72ae9573fd8d8a15043f", "lat": 38.941831, "lon": -77.02562916666666, "rental_uris": {"android": "https://dc.lft.to/lastmile_qr_scan", "ios": "https://dc.lft.to/lastmile_qr_scan"}, "is_disabled": 0, "fusion_lat": 0.0, "name": "43baec7305ab72ae9573fd8d8a15043f", "fusion_lon": 0.0}, {"is_reserved": 0, "type": "electric_bike", "bike_id": "b28671e56b93f50f9b90f743c46b65e3", "lat": 38.958480333333334, "lon": -76.985914, "rental_uris": {"android": "https://dc.lft.to/lastmile_qr_scan", "ios": "https://dc.lft.to/lastmile_qr_scan"}, "is_disabled": 0, "fusion_lat": 0.0, "name": "b28671e56b93f50f9b90f743c46b65e3", "fusion_lon": 0.0}, {"is_reserved": 0, "type": "electric_scooter", "bike_id": "85dae68c1646d4ea2301c908a4671ff3", "lat": 38.918249, "lon": -77.045247, "rental_uris": {"android": "https://dc.lft.to/lastmile_qr_scan", "ios": "https://dc.lft.to/lastmile_qr_scan"}, "is_disabled": 0, "fusion_lat": 0.0, "name": "85dae68c1646d4ea2301c908a4671ff3", "fusion_lon": 0.0}, {"is_reserved": 0, "type": "electric_scooter", "bike_id": "56e6a80c349ae2956b5b040513f11def", "lat": 38.898091666666666, "lon": -76.99501916666667, "rental_uris": {"android": "https://dc.lft.to/lastmile_qr_scan", "ios": "https://dc.lft.to/lastmile_qr_scan"}, "is_disabled": 0, "fusion_lat": 0.0, "name": "56e6a80c349ae2956b5b040513f11def", "fusion_lon": 0.0}, {"is_reserved": 0, "type": "electric_bike", "bike_id": "2123c995c50c4ac172f4873928914e26", "lat": 38.92116583333333, "lon": -76.9888105, "rental_uris": {"android": "https://dc.lft.to/lastmile_qr_scan", "ios": "https://dc.lft.to/lastmile_qr_scan"}, "is_disabled": 0, "fusion_lat": 0.0, "name": "2123c995c50c4ac172f4873928914e26", "fusion_lon": 0.0}, {"is_reserved": 0, "type": "electric_scooter", "bike_id": "44c5db3af1fcaa087805f3f5e5209cd6", "lat": 38.903991500000004, "lon": -76.98941366666666, "rental_uris": {"android": "https://dc.lft.to/lastmile_qr_scan", "ios": "https://dc.lft.to/lastmile_qr_scan"}, "is_disabled": 0, "fusion_lat": 0.0, "name": "44c5db3af1fcaa087805f3f5e5209cd6", "fusion_lon": 0.0}, {"is_reserved": 0, "type": "electric_bike", "bike_id": "4bb435c53df93fd020256bbd75bad387", "lat": 38.8578245, "lon": -76.98759116666666, "rental_uris": {"android": "https://dc.lft.to/lastmile_qr_scan", "ios": "https://dc.lft.to/lastmile_qr_scan"}, "is_disabled": 0, "fusion_lat": 0.0, "name": "4bb435c53df93fd020256bbd75bad387", "fusion_lon": 0.0}, {"is_reserved": 0, "type": "electric_scooter", "bike_id": "78bfb03b841295112b303316c21bebc8", "lat": 38.900126666666665, "lon": -77.01877733333333, "rental_uris": {"android": "https://dc.lft.to/lastmile_qr_scan", "ios": "https://dc.lft.to/lastmile_qr_scan"}, "is_disabled": 0, "fusion_lat": 0.0, "name": "78bfb03b841295112b303316c21bebc8", "fusion_lon": 0.0}, {"is_reserved": 0, "type": "electric_bike", "bike_id": "c34f5dbeed8985f09cfa5a9da72570a4", "lat": 38.872100833333334, "lon": -77.1173625, "rental_uris": {"android": "https://dc.lft.to/lastmile_qr_scan", "ios": "https://dc.lft.to/lastmile_qr_scan"}, "is_disabled": 0, "fusion_lat": 0.0, "name": "c34f5dbeed8985f09cfa5a9da72570a4", "fusion_lon": 0.0}, {"is_reserved": 0, "type": "electric_bike", "bike_id": "f6249eb71bfab21c8e56b3af2f855b6b", "lat": 38.86460266666667, "lon": -76.97751716666667, "rental_uris": {"android": "https://dc.lft.to/lastmile_qr_scan", "ios": "https://dc.lft.to/lastmile_qr_scan"}, "is_disabled": 0, "fusion_lat": 0.0, "name": "f6249eb71bfab21c8e56b3af2f855b6b", "fusion_lon": 0.0}, {"is_reserved": 0, "type": "electric_scooter", "bike_id": "6da2904e97c32bff04d3af9a56ab5c2e", "lat": 38.88428566666666, "lon": -76.995958, "rental_uris": {"android": "https://dc.lft.to/lastmile_qr_scan", "ios": "https://dc.lft.to/lastmile_qr_scan"}, "is_disabled": 0, "fusion_lat": 0.0, "name": "6da2904e97c32bff04d3af9a56ab5c2e", "fusion_lon": 0.0}, {"is_reserved": 0, "type": "electric_scooter", "bike_id": "3508ca60e6d27ef11d5e3a95ce622bb1", "lat": 38.9060115, "lon": -77.03623483333334, "rental_uris": {"android": "https://dc.lft.to/lastmile_qr_scan", "ios": "https://dc.lft.to/lastmile_qr_scan"}, "is_disabled": 0, "fusion_lat": 0.0, "name": "3508ca60e6d27ef11d5e3a95ce622bb1", "fusion_lon": 0.0}, {"is_reserved": 0, "type": "electric_scooter", "bike_id": "27afebc8e01f222b4cf5bc47176a5fc3", "lat": 38.946924, "lon": -77.02245083333334, "rental_uris": {"android": "https://dc.lft.to/lastmile_qr_scan", "ios": "https://dc.lft.to/lastmile_qr_scan"}, "is_disabled": 0, "fusion_lat": 0.0, "name": "27afebc8e01f222b4cf5bc47176a5fc3", "fusion_lon": 0.0}, {"is_reserved": 0, "type": "electric_scooter", "bike_id": "23dc885b8b0506c57ece25024a7d5c42", "lat": 38.93396666666666, "lon": -77.04126366666667, "rental_uris": {"android": "https://dc.lft.to/lastmile_qr_scan", "ios": "https://dc.lft.to/lastmile_qr_scan"}, "is_disabled": 0, "fusion_lat": 0.0, "name": "23dc885b8b0506c57ece25024a7d5c42", "fusion_lon": 0.0}, {"is_reserved": 0, "type": "electric_scooter", "bike_id": "24fac91c2be29e645049e66cdedb4249", "lat": 38.89863916666667, "lon": -76.97759583333334, "rental_uris": {"android": "https://dc.lft.to/lastmile_qr_scan", "ios": "https://dc.lft.to/lastmile_qr_scan"}, "is_disabled": 0, "fusion_lat": 0.0, "name": "24fac91c2be29e645049e66cdedb4249", "fusion_lon": 0.0}, {"is_reserved": 0, "type": "electric_scooter", "bike_id": "ecbd259d7c8129e9b75dbe8a4115445c", "lat": 38.885109666666665, "lon": -77.01763083333333, "rental_uris": {"android": "https://dc.lft.to/lastmile_qr_scan", "ios": "https://dc.lft.to/lastmile_qr_scan"}, "is_disabled": 0, "fusion_lat": 0.0, "name": "ecbd259d7c8129e9b75dbe8a4115445c", "fusion_lon": 0.0}, {"is_reserved": 0, "type": "electric_bike", "bike_id": "fc1f00a85b22c827982845bae02c3080", "lat": 38.94309533333333, "lon": -76.99016633333333, "rental_uris": {"android": "https://dc.lft.to/lastmile_qr_scan", "ios": "https://dc.lft.to/lastmile_qr_scan"}, "is_disabled": 0, "fusion_lat": 0.0, "name": "fc1f00a85b22c827982845bae02c3080", "fusion_lon": 0.0}, {"is_reserved": 0, "type": "electric_scooter", "bike_id": "7d872d933fca8808325d60b58cefd9ef", "lat": 38.882555833333335, "lon": -77.00625, "rental_uris": {"android": "https://dc.lft.to/lastmile_qr_scan", "ios": "https://dc.lft.to/lastmile_qr_scan"}, "is_disabled": 0, "fusion_lat": 0.0, "name": "7d872d933fca8808325d60b58cefd9ef", "fusion_lon": 0.0}, {"is_reserved": 0, "type": "electric_scooter", "bike_id": "0336430c1ed6dc9fbcccf7408ba9faa1", "lat": 38.91272216666667, "lon": -77.03868183333333, "rental_uris": {"android": "https://dc.lft.to/lastmile_qr_scan", "ios": "https://dc.lft.to/lastmile_qr_scan"}, "is_disabled": 0, "fusion_lat": 0.0, "name": "0336430c1ed6dc9fbcccf7408ba9faa1", "fusion_lon": 0.0}, {"is_reserved": 0, "type": "electric_scooter", "bike_id": "f6d3046188b46f7523db67209df7228c", "lat": 38.89233266666667, "lon": -77.048733, "rental_uris": {"android": "https://dc.lft.to/lastmile_qr_scan", "ios": "https://dc.lft.to/lastmile_qr_scan"}, "is_disabled": 0, "fusion_lat": 0.0, "name": "f6d3046188b46f7523db67209df7228c", "fusion_lon": 0.0}, {"is_reserved": 0, "type": "electric_bike", "bike_id": "9db2daa6d246a0d8f9a899970957c3bc", "lat": 39.000283, "lon": -77.04744283333333, "rental_uris": {"android": "https://dc.lft.to/lastmile_qr_scan", "ios": "https://dc.lft.to/lastmile_qr_scan"}, "is_disabled": 0, "fusion_lat": 0.0, "name": "9db2daa6d246a0d8f9a899970957c3bc", "fusion_lon": 0.0}, {"is_reserved": 0, "type": "electric_scooter", "bike_id": "1c6ba2e35a5d4e9680287509aec51101", "lat": 38.92148566666667, "lon": -77.035083, "rental_uris": {"android": "https://dc.lft.to/lastmile_qr_scan", "ios": "https://dc.lft.to/lastmile_qr_scan"}, "is_disabled": 0, "fusion_lat": 0.0, "name": "1c6ba2e35a5d4e9680287509aec51101", "fusion_lon": 0.0}, {"is_reserved": 0, "type": "electric_scooter", "bike_id": "d8f24e63802d3c04deb19f5f10725bb0", "lat": 38.91235116666667, "lon": -77.03862666666667, "rental_uris": {"android": "https://dc.lft.to/lastmile_qr_scan", "ios": "https://dc.lft.to/lastmile_qr_scan"}, "is_disabled": 0, "fusion_lat": 0.0, "name": "d8f24e63802d3c04deb19f5f10725bb0", "fusion_lon": 0.0}, {"is_reserved": 0, "type": "electric_scooter", "bike_id": "6156565ff0f5e3bb33cb13344c1964f6", "lat": 38.932614, "lon": -77.03233366666667, "rental_uris": {"android": "https://dc.lft.to/lastmile_qr_scan", "ios": "https://dc.lft.to/lastmile_qr_scan"}, "is_disabled": 0, "fusion_lat": 0.0, "name": "6156565ff0f5e3bb33cb13344c1964f6", "fusion_lon": 0.0}, {"is_reserved": 0, "type": "electric_bike", "bike_id": "6ab66a19295c4c35a7645380fc1b5cb0", "lat": 38.89293266666667, "lon": -76.976181, "rental_uris": {"android": "https://dc.lft.to/lastmile_qr_scan", "ios": "https://dc.lft.to/lastmile_qr_scan"}, "is_disabled": 0, "fusion_lat": 0.0, "name": "6ab66a19295c4c35a7645380fc1b5cb0", "fusion_lon": 0.0}, {"is_reserved": 0, "type": "electric_scooter", "bike_id": "017086528aac795616f473167ce62fd9", "lat": 38.89600983333333, "lon": -77.02157816666667, "rental_uris": {"android": "https://dc.lft.to/lastmile_qr_scan", "ios": "https://dc.lft.to/lastmile_qr_scan"}, "is_disabled": 0, "fusion_lat": 0.0, "name": "017086528aac795616f473167ce62fd9", "fusion_lon": 0.0}, {"is_reserved": 0, "type": "electric_scooter", "bike_id": "8cab43f47b8654e3109bb3b5787a4571", "lat": 38.89225, "lon": -77.043345, "rental_uris": {"android": "https://dc.lft.to/lastmile_qr_scan", "ios": "https://dc.lft.to/lastmile_qr_scan"}, "is_disabled": 0, "fusion_lat": 0.0, "name": "8cab43f47b8654e3109bb3b5787a4571", "fusion_lon": 0.0}, {"is_reserved": 0, "type": "electric_scooter", "bike_id": "4bcc14a121f81f8c436ecd8d9fd67090", "lat": 38.9045515, "lon": -77.00709566666667, "rental_uris": {"android": "https://dc.lft.to/lastmile_qr_scan", "ios": "https://dc.lft.to/lastmile_qr_scan"}, "is_disabled": 0, "fusion_lat": 0.0, "name": "4bcc14a121f81f8c436ecd8d9fd67090", "fusion_lon": 0.0}, {"is_reserved": 0, "type": "electric_scooter", "bike_id": "c15aab913abb0602a4240a7ac71e8185", "lat": 38.91784416666667, "lon": -77.02284833333333, "rental_uris": {"android": "https://dc.lft.to/lastmile_qr_scan", "ios": "https://dc.lft.to/lastmile_qr_scan"}, "is_disabled": 0, "fusion_lat": 0.0, "name": "c15aab913abb0602a4240a7ac71e8185", "fusion_lon": 0.0}, {"is_reserved": 0, "type": "electric_scooter", "bike_id": "175388954a4ed838dc9356982454aacd", "lat": 38.91129766666667, "lon": -77.02195383333333, "rental_uris": {"android": "https://dc.lft.to/lastmile_qr_scan", "ios": "https://dc.lft.to/lastmile_qr_scan"}, "is_disabled": 0, "fusion_lat": 0.0, "name": "175388954a4ed838dc9356982454aacd", "fusion_lon": 0.0}, {"is_reserved": 0, "type": "electric_scooter", "bike_id": "e057df2796011122c479d04f1f0bc544", "lat": 38.9300705, "lon": -77.03798, "rental_uris": {"android": "https://dc.lft.to/lastmile_qr_scan", "ios": "https://dc.lft.to/lastmile_qr_scan"}, "is_disabled": 0, "fusion_lat": 0.0, "name": "e057df2796011122c479d04f1f0bc544", "fusion_lon": 0.0}, {"is_reserved": 0, "type": "electric_scooter", "bike_id": "2c7f8ea76893f14d8a508792dd72bcf2", "lat": 38.924638, "lon": -77.03288366666666, "rental_uris": {"android": "https://dc.lft.to/lastmile_qr_scan", "ios": "https://dc.lft.to/lastmile_qr_scan"}, "is_disabled": 0, "fusion_lat": 0.0, "name": "2c7f8ea76893f14d8a508792dd72bcf2", "fusion_lon": 0.0}, {"is_reserved": 0, "type": "electric_scooter", "bike_id": "5bfb34c58c7c68f8776809c3c1f7f296", "lat": 38.875116, "lon": -77.00352983333333, "rental_uris": {"android": "https://dc.lft.to/lastmile_qr_scan", "ios": "https://dc.lft.to/lastmile_qr_scan"}, "is_disabled": 0, "fusion_lat": 0.0, "name": "5bfb34c58c7c68f8776809c3c1f7f296", "fusion_lon": 0.0}, {"is_reserved": 0, "type": "electric_scooter", "bike_id": "c62368e87b2e7370e662b8b30baa8fbd", "lat": 38.877312333333336, "lon": -77.01883, "rental_uris": {"android": "https://dc.lft.to/lastmile_qr_scan", "ios": "https://dc.lft.to/lastmile_qr_scan"}, "is_disabled": 0, "fusion_lat": 0.0, "name": "c62368e87b2e7370e662b8b30baa8fbd", "fusion_lon": 0.0}, {"is_reserved": 0, "type": "electric_scooter", "bike_id": "8189663e892a6d4eb6d9107f2ecb0af5", "lat": 38.889736, "lon": -76.9993585, "rental_uris": {"android": "https://dc.lft.to/lastmile_qr_scan", "ios": "https://dc.lft.to/lastmile_qr_scan"}, "is_disabled": 0, "fusion_lat": 0.0, "name": "8189663e892a6d4eb6d9107f2ecb0af5", "fusion_lon": 0.0}, {"is_reserved": 0, "type": "electric_scooter", "bike_id": "258851421e5ddc9ed32efd0da95623ce", "lat": 38.89238833333334, "lon": -77.04485016666666, "rental_uris": {"android": "https://dc.lft.to/lastmile_qr_scan", "ios": "https://dc.lft.to/lastmile_qr_scan"}, "is_disabled": 0, "fusion_lat": 0.0, "name": "258851421e5ddc9ed32efd0da95623ce", "fusion_lon": 0.0}, {"is_reserved": 0, "type": "electric_scooter", "bike_id": "564eb00faf737d6c3a0faad1eb56118b", "lat": 38.881621, "lon": -76.9947515, "rental_uris": {"android": "https://dc.lft.to/lastmile_qr_scan", "ios": "https://dc.lft.to/lastmile_qr_scan"}, "is_disabled": 0, "fusion_lat": 0.0, "name": "564eb00faf737d6c3a0faad1eb56118b", "fusion_lon": 0.0}, {"is_reserved": 0, "type": "electric_scooter", "bike_id": "f9a99c1f643ca5c11db363955571e64c", "lat": 38.91553666666667, "lon": -77.03306416666666, "rental_uris": {"android": "https://dc.lft.to/lastmile_qr_scan", "ios": "https://dc.lft.to/lastmile_qr_scan"}, "is_disabled": 0, "fusion_lat": 0.0, "name": "f9a99c1f643ca5c11db363955571e64c", "fusion_lon": 0.0}, {"is_reserved": 0, "type": "electric_scooter", "bike_id": "f2a8ea8afb6d94b42f44fccad065d8e7", "lat": 38.89910716666667, "lon": -77.0321945, "rental_uris": {"android": "https://dc.lft.to/lastmile_qr_scan", "ios": "https://dc.lft.to/lastmile_qr_scan"}, "is_disabled": 0, "fusion_lat": 0.0, "name": "f2a8ea8afb6d94b42f44fccad065d8e7", "fusion_lon": 0.0}, {"is_reserved": 0, "type": "electric_scooter", "bike_id": "5f17abaeca207a0a2f0973192ebdbeb9", "lat": 38.9000375, "lon": -76.998267, "rental_uris": {"android": "https://dc.lft.to/lastmile_qr_scan", "ios": "https://dc.lft.to/lastmile_qr_scan"}, "is_disabled": 0, "fusion_lat": 0.0, "name": "5f17abaeca207a0a2f0973192ebdbeb9", "fusion_lon": 0.0}, {"is_reserved": 0, "type": "electric_scooter", "bike_id": "bde3256c8071fc9527643a1eb0e0d87a", "lat": 38.9185115, "lon": -77.038722, "rental_uris": {"android": "https://dc.lft.to/lastmile_qr_scan", "ios": "https://dc.lft.to/lastmile_qr_scan"}, "is_disabled": 0, "fusion_lat": 0.0, "name": "bde3256c8071fc9527643a1eb0e0d87a", "fusion_lon": 0.0}, {"is_reserved": 0, "type": "electric_scooter", "bike_id": "142b24b4530b537003fb9ca501b346f6", "lat": 38.92379416666667, "lon": -77.03054183333333, "rental_uris": {"android": "https://dc.lft.to/lastmile_qr_scan", "ios": "https://dc.lft.to/lastmile_qr_scan"}, "is_disabled": 0, "fusion_lat": 0.0, "name": "142b24b4530b537003fb9ca501b346f6", "fusion_lon": 0.0}, {"is_reserved": 0, "type": "electric_scooter", "bike_id": "d93bc6ef663723c1bf7dd1e9393ef2bd", "lat": 38.951523, "lon": -77.018665, "rental_uris": {"android": "https://dc.lft.to/lastmile_qr_scan", "ios": "https://dc.lft.to/lastmile_qr_scan"}, "is_disabled": 0, "fusion_lat": 0.0, "name": "d93bc6ef663723c1bf7dd1e9393ef2bd", "fusion_lon": 0.0}, {"is_reserved": 0, "type": "electric_scooter", "bike_id": "5a03b47026b0cb23b603b25c7d2a67b1", "lat": 38.94328183333333, "lon": -77.075789, "rental_uris": {"android": "https://dc.lft.to/lastmile_qr_scan", "ios": "https://dc.lft.to/lastmile_qr_scan"}, "is_disabled": 0, "fusion_lat": 0.0, "name": "5a03b47026b0cb23b603b25c7d2a67b1", "fusion_lon": 0.0}, {"is_reserved": 0, "type": "electric_scooter", "bike_id": "268812aae4617da97d3f09cadfda1984", "lat": 38.90398483333333, "lon": -77.02737883333333, "rental_uris": {"android": "https://dc.lft.to/lastmile_qr_scan", "ios": "https://dc.lft.to/lastmile_qr_scan"}, "is_disabled": 0, "fusion_lat": 0.0, "name": "268812aae4617da97d3f09cadfda1984", "fusion_lon": 0.0}, {"is_reserved": 0, "type": "electric_scooter", "bike_id": "ed34bbc73c3e2071003fcdaf988d1e16", "lat": 38.902356833333336, "lon": -77.018364, "rental_uris": {"android": "https://dc.lft.to/lastmile_qr_scan", "ios": "https://dc.lft.to/lastmile_qr_scan"}, "is_disabled": 0, "fusion_lat": 0.0, "name": "ed34bbc73c3e2071003fcdaf988d1e16", "fusion_lon": 0.0}, {"is_reserved": 0, "type": "electric_scooter", "bike_id": "ef5d30f472f85555988d7a440a94371a", "lat": 38.907856833333334, "lon": -77.00946783333333, "rental_uris": {"android": "https://dc.lft.to/lastmile_qr_scan", "ios": "https://dc.lft.to/lastmile_qr_scan"}, "is_disabled": 0, "fusion_lat": 0.0, "name": "ef5d30f472f85555988d7a440a94371a", "fusion_lon": 0.0}, {"is_reserved": 0, "type": "electric_scooter", "bike_id": "f899cd04be1333ceddf924e5f05bbb27", "lat": 38.9337825, "lon": -77.02032816666667, "rental_uris": {"android": "https://dc.lft.to/lastmile_qr_scan", "ios": "https://dc.lft.to/lastmile_qr_scan"}, "is_disabled": 0, "fusion_lat": 0.0, "name": "f899cd04be1333ceddf924e5f05bbb27", "fusion_lon": 0.0}, {"is_reserved": 0, "type": "electric_scooter", "bike_id": "528852704ccde686635e8f6eea7784ad", "lat": 38.92665233333334, "lon": -77.03621366666667, "rental_uris": {"android": "https://dc.lft.to/lastmile_qr_scan", "ios": "https://dc.lft.to/lastmile_qr_scan"}, "is_disabled": 0, "fusion_lat": 0.0, "name": "528852704ccde686635e8f6eea7784ad", "fusion_lon": 0.0}, {"is_reserved": 0, "type": "electric_scooter", "bike_id": "5bdab65b669b3d71ff5ba11b478ed1fa", "lat": 38.900347833333335, "lon": -77.0176255, "rental_uris": {"android": "https://dc.lft.to/lastmile_qr_scan", "ios": "https://dc.lft.to/lastmile_qr_scan"}, "is_disabled": 0, "fusion_lat": 0.0, "name": "5bdab65b669b3d71ff5ba11b478ed1fa", "fusion_lon": 0.0}, {"is_reserved": 0, "type": "electric_scooter", "bike_id": "0f9ea1e155e2db90a00f7f13379be709", "lat": 38.9228195, "lon": -77.0365795, "rental_uris": {"android": "https://dc.lft.to/lastmile_qr_scan", "ios": "https://dc.lft.to/lastmile_qr_scan"}, "is_disabled": 0, "fusion_lat": 0.0, "name": "0f9ea1e155e2db90a00f7f13379be709", "fusion_lon": 0.0}, {"is_reserved": 0, "type": "electric_scooter", "bike_id": "9333fdf145946319b2d03f1c01b8e4ad", "lat": 38.91697966666667, "lon": -77.05296616666666, "rental_uris": {"android": "https://dc.lft.to/lastmile_qr_scan", "ios": "https://dc.lft.to/lastmile_qr_scan"}, "is_disabled": 0, "fusion_lat": 0.0, "name": "9333fdf145946319b2d03f1c01b8e4ad", "fusion_lon": 0.0}, {"is_reserved": 0, "type": "electric_scooter", "bike_id": "84c7d61f28536053eef08e3789c4fd3d", "lat": 38.90685033333333, "lon": -77.0561945, "rental_uris": {"android": "https://dc.lft.to/lastmile_qr_scan", "ios": "https://dc.lft.to/lastmile_qr_scan"}, "is_disabled": 0, "fusion_lat": 0.0, "name": "84c7d61f28536053eef08e3789c4fd3d", "fusion_lon": 0.0}, {"is_reserved": 0, "type": "electric_bike", "bike_id": "0d26e470aef54b223cb40d1e56d6eb6a", "lat": 38.900495166666666, "lon": -76.97795266666667, "rental_uris": {"android": "https://dc.lft.to/lastmile_qr_scan", "ios": "https://dc.lft.to/lastmile_qr_scan"}, "is_disabled": 0, "fusion_lat": 0.0, "name": "0d26e470aef54b223cb40d1e56d6eb6a", "fusion_lon": 0.0}, {"is_reserved": 0, "type": "electric_scooter", "bike_id": "4e2b8aa3a0ced269b14e157f9ee82b23", "lat": 38.906869, "lon": -77.06258266666667, "rental_uris": {"android": "https://dc.lft.to/lastmile_qr_scan", "ios": "https://dc.lft.to/lastmile_qr_scan"}, "is_disabled": 0, "fusion_lat": 0.0, "name": "4e2b8aa3a0ced269b14e157f9ee82b23", "fusion_lon": 0.0}, {"is_reserved": 0, "type": "electric_scooter", "bike_id": "a3594487a2649b1653bea45f28225fab", "lat": 38.913901833333334, "lon": -77.03216466666667, "rental_uris": {"android": "https://dc.lft.to/lastmile_qr_scan", "ios": "https://dc.lft.to/lastmile_qr_scan"}, "is_disabled": 0, "fusion_lat": 0.0, "name": "a3594487a2649b1653bea45f28225fab", "fusion_lon": 0.0}, {"is_reserved": 0, "type": "electric_scooter", "bike_id": "dbdbdbc4283eb1d4e1f7b50ca4d2cfa1", "lat": 38.90370983333333, "lon": -77.01844216666667, "rental_uris": {"android": "https://dc.lft.to/lastmile_qr_scan", "ios": "https://dc.lft.to/lastmile_qr_scan"}, "is_disabled": 0, "fusion_lat": 0.0, "name": "dbdbdbc4283eb1d4e1f7b50ca4d2cfa1", "fusion_lon": 0.0}, {"is_reserved": 0, "type": "electric_bike", "bike_id": "dbe27e5616b2076702d8f76711087a9b", "lat": 38.80867383333333, "lon": -77.11256433333334, "rental_uris": {"android": "https://dc.lft.to/lastmile_qr_scan", "ios": "https://dc.lft.to/lastmile_qr_scan"}, "is_disabled": 0, "fusion_lat": 0.0, "name": "dbe27e5616b2076702d8f76711087a9b", "fusion_lon": 0.0}, {"is_reserved": 0, "type": "electric_scooter", "bike_id": "a8f725cc0e4216f0c9a8d86182fb5ad1", "lat": 38.90518333333333, "lon": -77.05667483333333, "rental_uris": {"android": "https://dc.lft.to/lastmile_qr_scan", "ios": "https://dc.lft.to/lastmile_qr_scan"}, "is_disabled": 0, "fusion_lat": 0.0, "name": "a8f725cc0e4216f0c9a8d86182fb5ad1", "fusion_lon": 0.0}, {"is_reserved": 0, "type": "electric_bike", "bike_id": "895b164f697c4593cc4124dceb683a83", "lat": 38.94964933333333, "lon": -76.96102466666666, "rental_uris": {"android": "https://dc.lft.to/lastmile_qr_scan", "ios": "https://dc.lft.to/lastmile_qr_scan"}, "is_disabled": 0, "fusion_lat": 0.0, "name": "895b164f697c4593cc4124dceb683a83", "fusion_lon": 0.0}, {"is_reserved": 0, "type": "electric_scooter", "bike_id": "2398440807506343bc1712d25db16d28", "lat": 38.932528833333336, "lon": -77.03279983333333, "rental_uris": {"android": "https://dc.lft.to/lastmile_qr_scan", "ios": "https://dc.lft.to/lastmile_qr_scan"}, "is_disabled": 0, "fusion_lat": 0.0, "name": "2398440807506343bc1712d25db16d28", "fusion_lon": 0.0}, {"is_reserved": 0, "type": "electric_scooter", "bike_id": "99a0e97aea975bf7a1deb3f9e0c527a1", "lat": 38.893574, "lon": -77.0281935, "rental_uris": {"android": "https://dc.lft.to/lastmile_qr_scan", "ios": "https://dc.lft.to/lastmile_qr_scan"}, "is_disabled": 0, "fusion_lat": 0.0, "name": "99a0e97aea975bf7a1deb3f9e0c527a1", "fusion_lon": 0.0}, {"is_reserved": 0, "type": "electric_scooter", "bike_id": "80e3769a01f9feb13fc6dd21b89a7637", "lat": 38.900955333333336, "lon": -77.01629633333333, "rental_uris": {"android": "https://dc.lft.to/lastmile_qr_scan", "ios": "https://dc.lft.to/lastmile_qr_scan"}, "is_disabled": 0, "fusion_lat": 0.0, "name": "80e3769a01f9feb13fc6dd21b89a7637", "fusion_lon": 0.0}, {"is_reserved": 0, "type": "electric_scooter", "bike_id": "4280126ffbcf8f6215b8270ade51055b", "lat": 38.900852, "lon": -77.0573655, "rental_uris": {"android": "https://dc.lft.to/lastmile_qr_scan", "ios": "https://dc.lft.to/lastmile_qr_scan"}, "is_disabled": 0, "fusion_lat": 0.0, "name": "4280126ffbcf8f6215b8270ade51055b", "fusion_lon": 0.0}, {"is_reserved": 0, "type": "electric_scooter", "bike_id": "bf7dfe2c8c219d0f80eb77492686f1a2", "lat": 38.872786, "lon": -77.0170855, "rental_uris": {"android": "https://dc.lft.to/lastmile_qr_scan", "ios": "https://dc.lft.to/lastmile_qr_scan"}, "is_disabled": 0, "fusion_lat": 0.0, "name": "bf7dfe2c8c219d0f80eb77492686f1a2", "fusion_lon": 0.0}, {"is_reserved": 0, "type": "electric_scooter", "bike_id": "ecb3b989679d3b751e913da4d636363f", "lat": 38.911224833333335, "lon": -77.0436095, "rental_uris": {"android": "https://dc.lft.to/lastmile_qr_scan", "ios": "https://dc.lft.to/lastmile_qr_scan"}, "is_disabled": 0, "fusion_lat": 0.0, "name": "ecb3b989679d3b751e913da4d636363f", "fusion_lon": 0.0}, {"is_reserved": 0, "type": "electric_scooter", "bike_id": "7d7a35940868edbfc4df45afc9ca019b", "lat": 38.871572666666665, "lon": -77.0131575, "rental_uris": {"android": "https://dc.lft.to/lastmile_qr_scan", "ios": "https://dc.lft.to/lastmile_qr_scan"}, "is_disabled": 0, "fusion_lat": 0.0, "name": "7d7a35940868edbfc4df45afc9ca019b", "fusion_lon": 0.0}, {"is_reserved": 0, "type": "electric_scooter", "bike_id": "ac88b454977702448da8c02db1f59450", "lat": 38.905978833333336, "lon": -77.0641955, "rental_uris": {"android": "https://dc.lft.to/lastmile_qr_scan", "ios": "https://dc.lft.to/lastmile_qr_scan"}, "is_disabled": 0, "fusion_lat": 0.0, "name": "ac88b454977702448da8c02db1f59450", "fusion_lon": 0.0}, {"is_reserved": 0, "type": "electric_scooter", "bike_id": "a7b5507ec0dbfeefc297d48a1e84ab79", "lat": 38.893845, "lon": -77.02966166666667, "rental_uris": {"android": "https://dc.lft.to/lastmile_qr_scan", "ios": "https://dc.lft.to/lastmile_qr_scan"}, "is_disabled": 0, "fusion_lat": 0.0, "name": "a7b5507ec0dbfeefc297d48a1e84ab79", "fusion_lon": 0.0}, {"is_reserved": 0, "type": "electric_scooter", "bike_id": "83ab4c9906a42220771e47e93839167e", "lat": 38.910421, "lon": -77.03084283333334, "rental_uris": {"android": "https://dc.lft.to/lastmile_qr_scan", "ios": "https://dc.lft.to/lastmile_qr_scan"}, "is_disabled": 0, "fusion_lat": 0.0, "name": "83ab4c9906a42220771e47e93839167e", "fusion_lon": 0.0}, {"is_reserved": 0, "type": "electric_scooter", "bike_id": "2addb955def9fcb6f457ddbfc3bbbcef", "lat": 38.920926333333334, "lon": -77.07184433333333, "rental_uris": {"android": "https://dc.lft.to/lastmile_qr_scan", "ios": "https://dc.lft.to/lastmile_qr_scan"}, "is_disabled": 0, "fusion_lat": 0.0, "name": "2addb955def9fcb6f457ddbfc3bbbcef", "fusion_lon": 0.0}, {"is_reserved": 0, "type": "electric_scooter", "bike_id": "6d4f58d18ba4d3b10348cddaab5cfa3e", "lat": 38.87765183333333, "lon": -76.9953925, "rental_uris": {"android": "https://dc.lft.to/lastmile_qr_scan", "ios": "https://dc.lft.to/lastmile_qr_scan"}, "is_disabled": 0, "fusion_lat": 0.0, "name": "6d4f58d18ba4d3b10348cddaab5cfa3e", "fusion_lon": 0.0}, {"is_reserved": 0, "type": "electric_scooter", "bike_id": "23d06996d0ef9cfb3d33dc60b4d2e513", "lat": 38.916051833333334, "lon": -77.00273616666666, "rental_uris": {"android": "https://dc.lft.to/lastmile_qr_scan", "ios": "https://dc.lft.to/lastmile_qr_scan"}, "is_disabled": 0, "fusion_lat": 0.0, "name": "23d06996d0ef9cfb3d33dc60b4d2e513", "fusion_lon": 0.0}, {"is_reserved": 0, "type": "electric_scooter", "bike_id": "a833a42206de4d812ec196b2c0ccd724", "lat": 38.952830166666665, "lon": -77.06850516666667, "rental_uris": {"android": "https://dc.lft.to/lastmile_qr_scan", "ios": "https://dc.lft.to/lastmile_qr_scan"}, "is_disabled": 0, "fusion_lat": 0.0, "name": "a833a42206de4d812ec196b2c0ccd724", "fusion_lon": 0.0}, {"is_reserved": 0, "type": "electric_scooter", "bike_id": "b598617612b384a8dfb9ed69ea1bd806", "lat": 38.924581833333335, "lon": -77.00852333333333, "rental_uris": {"android": "https://dc.lft.to/lastmile_qr_scan", "ios": "https://dc.lft.to/lastmile_qr_scan"}, "is_disabled": 0, "fusion_lat": 0.0, "name": "b598617612b384a8dfb9ed69ea1bd806", "fusion_lon": 0.0}, {"is_reserved": 0, "type": "electric_scooter", "bike_id": "fa2bab0aef8b14c072f55f401b24d2bb", "lat": 38.9197325, "lon": -77.02712883333334, "rental_uris": {"android": "https://dc.lft.to/lastmile_qr_scan", "ios": "https://dc.lft.to/lastmile_qr_scan"}, "is_disabled": 0, "fusion_lat": 0.0, "name": "fa2bab0aef8b14c072f55f401b24d2bb", "fusion_lon": 0.0}, {"is_reserved": 0, "type": "electric_scooter", "bike_id": "2c3054cd3a983e10dddb1b4cc26c58a3", "lat": 38.9084245, "lon": -77.00272916666667, "rental_uris": {"android": "https://dc.lft.to/lastmile_qr_scan", "ios": "https://dc.lft.to/lastmile_qr_scan"}, "is_disabled": 0, "fusion_lat": 0.0, "name": "2c3054cd3a983e10dddb1b4cc26c58a3", "fusion_lon": 0.0}, {"is_reserved": 0, "type": "electric_scooter", "bike_id": "6f9d7c880bcb7aedda9ad36ebfd49a0d", "lat": 38.9199835, "lon": -77.031779, "rental_uris": {"android": "https://dc.lft.to/lastmile_qr_scan", "ios": "https://dc.lft.to/lastmile_qr_scan"}, "is_disabled": 0, "fusion_lat": 0.0, "name": "6f9d7c880bcb7aedda9ad36ebfd49a0d", "fusion_lon": 0.0}, {"is_reserved": 0, "type": "electric_scooter", "bike_id": "e0f76efcbc86bb3920001636efcfff52", "lat": 38.897321166666664, "lon": -77.02373316666667, "rental_uris": {"android": "https://dc.lft.to/lastmile_qr_scan", "ios": "https://dc.lft.to/lastmile_qr_scan"},