{"data": {"bikes": [{"lon": -77.001435, "lat": 38.900039166666666, "name": "6217987f388d6eed056ba13a6cb1dc04", "fusion_lat": 0.0, "fusion_lon": 0.0, "rental_uris": {"android": "https://dc.lft.to/lastmile_qr_scan", "ios": "https://dc.lft.to/lastmile_qr_scan"}, "is_reserved": 0, "is_disabled": 0, "type": "electric_scooter", "bike_id": "6217987f388d6eed056ba13a6cb1dc04"}, {"lon": -77.039105, "lat": 38.92173016666667, "name": "90e53132b11377e331097c04b7d7d261", "fusion_lat": 0.0, "fusion_lon": 0.0, "rental_uris": {"android": "https://dc.lft.to/lastmile_qr_scan", "ios": "https://dc.lft.to/lastmile_qr_scan"}, "is_reserved": 0, "is_disabled": 0, "type": "electric_scooter", "bike_id": "90e53132b11377e331097c04b7d7d261"}, {"lon": -77.03358633333333, "lat": 38.928769, "name": "ade97c98cfbd73252eacdb674ade5c4c", "fusion_lat": 0.0, "fusion_lon": 0.0, "rental_uris": {"android": "https://dc.lft.to/lastmile_qr_scan", "ios": "https://dc.lft.to/lastmile_qr_scan"}, "is_reserved": 0, "is_disabled": 0, "type": "electric_scooter", "bike_id": "ade97c98cfbd73252eacdb674ade5c4c"}, {"lon": -77.04162016666666, "lat": 38.916086666666665, "name": "2577333179cc7a03fd754cf357fbc3a4", "fusion_lat": 0.0, "fusion_lon": 0.0, "rental_uris": {"android": "https://dc.lft.to/lastmile_qr_scan", "ios": "https://dc.lft.to/lastmile_qr_scan"}, "is_reserved": 0, "is_disabled": 0, "type": "electric_scooter", "bike_id": "2577333179cc7a03fd754cf357fbc3a4"}, {"lon": -77.02837766666667, "lat": 38.88768183333333, "name": "ad047034a39eac6dff253def16a44977", "fusion_lat": 0.0, "fusion_lon": 0.0, "rental_uris": {"android": "https://dc.lft.to/lastmile_qr_scan", "ios": "https://dc.lft.to/lastmile_qr_scan"}, "is_reserved": 0, "is_disabled": 0, "type": "electric_scooter", "bike_id": "ad047034a39eac6dff253def16a44977"}, {"lon": -77.01860183333334, "lat": 38.939955166666664, "name": "b005c34d2e2efcc4f680a7e1cb60246d", "fusion_lat": 0.0, "fusion_lon": 0.0, "rental_uris": {"android": "https://dc.lft.to/lastmile_qr_scan", "ios": "https://dc.lft.to/lastmile_qr_scan"}, "is_reserved": 0, "is_disabled": 0, "type": "electric_scooter", "bike_id": "b005c34d2e2efcc4f680a7e1cb60246d"}, {"lon": -77.038263, "lat": 38.907758666666666, "name": "d150254230f1c53dde4ebd6e324d3840", "fusion_lat": 0.0, "fusion_lon": 0.0, "rental_uris": {"android": "https://dc.lft.to/lastmile_qr_scan", "ios": "https://dc.lft.to/lastmile_qr_scan"}, "is_reserved": 0, "is_disabled": 0, "type": "electric_scooter", "bike_id": "d150254230f1c53dde4ebd6e324d3840"}, {"lon": -77.02215, "lat": 38.9155085, "name": "e0e0f16225657b56c81e93c08c97514b", "fusion_lat": 0.0, "fusion_lon": 0.0, "rental_uris": {"android": "https://dc.lft.to/lastmile_qr_scan", "ios": "https://dc.lft.to/lastmile_qr_scan"}, "is_reserved": 0, "is_disabled": 0, "type": "electric_scooter", "bike_id": "e0e0f16225657b56c81e93c08c97514b"}, {"lon": -77.0241235, "lat": 38.9110095, "name": "f5746e66bfc5bbebbfcc8b7e3d84ca34", "fusion_lat": 0.0, "fusion_lon": 0.0, "rental_uris": {"android": "https://dc.lft.to/lastmile_qr_scan", "ios": "https://dc.lft.to/lastmile_qr_scan"}, "is_reserved": 0, "is_disabled": 0, "type": "electric_scooter", "bike_id": "f5746e66bfc5bbebbfcc8b7e3d84ca34"}, {"lon": -77.032112, "lat": 38.91743683333333, "name": "98b93b2c921572184cf538482bc73c50", "fusion_lat": 0.0, "fusion_lon": 0.0, "rental_uris": {"android": "https://dc.lft.to/lastmile_qr_scan", "ios": "https://dc.lft.to/lastmile_qr_scan"}, "is_reserved": 0, "is_disabled": 0, "type": "electric_scooter", "bike_id": "98b93b2c921572184cf538482bc73c50"}, {"lon": -77.017004, "lat": 38.92034266666667, "name": "ec0cfdaddf4b2fdfdf87c11b79291998", "fusion_lat": 0.0, "fusion_lon": 0.0, "rental_uris": {"android": "https://dc.lft.to/lastmile_qr_scan", "ios": "https://dc.lft.to/lastmile_qr_scan"}, "is_reserved": 0, "is_disabled": 0, "type": "electric_scooter", "bike_id": "ec0cfdaddf4b2fdfdf87c11b79291998"}, {"lon": -77.0451135, "lat": 38.9127585, "name": "513f4df033d66948e553b9f7e7dda6b4", "fusion_lat": 0.0, "fusion_lon": 0.0, "rental_uris": {"android": "https://dc.lft.to/lastmile_qr_scan", "ios": "https://dc.lft.to/lastmile_qr_scan"}, "is_reserved": 0, "is_disabled": 0, "type": "electric_scooter", "bike_id": "513f4df033d66948e553b9f7e7dda6b4"}, {"lon": -77.026974, "lat": 38.91269233333333, "name": "7d00db62d3d01649fb5e402701334aca", "fusion_lat": 0.0, "fusion_lon": 0.0, "rental_uris": {"android": "https://dc.lft.to/lastmile_qr_scan", "ios": "https://dc.lft.to/lastmile_qr_scan"}, "is_reserved": 0, "is_disabled": 0, "type": "electric_scooter", "bike_id": "7d00db62d3d01649fb5e402701334aca"}, {"lon": -76.98372683333334, "lat": 38.861096833333335, "name": "c0f1ec2db087c15a86b71cd9f92595f0", "fusion_lat": 0.0, "fusion_lon": 0.0, "rental_uris": {"android": "https://dc.lft.to/lastmile_qr_scan", "ios": "https://dc.lft.to/lastmile_qr_scan"}, "is_reserved": 0, "is_disabled": 0, "type": "electric_scooter", "bike_id": "c0f1ec2db087c15a86b71cd9f92595f0"}, {"lon": -77.0115215, "lat": 38.9567265, "name": "1ec064c0683534864e4b5e1277556a42", "fusion_lat": 0.0, "fusion_lon": 0.0, "rental_uris": {"android": "https://dc.lft.to/lastmile_qr_scan", "ios": "https://dc.lft.to/lastmile_qr_scan"}, "is_reserved": 0, "is_disabled": 0, "type": "electric_scooter", "bike_id": "1ec064c0683534864e4b5e1277556a42"}, {"lon": -77.04093066666667, "lat": 38.92011466666666, "name": "f78812f4dffeb52efbdb2dac66ba6338", "fusion_lat": 0.0, "fusion_lon": 0.0, "rental_uris": {"android": "https://dc.lft.to/lastmile_qr_scan", "ios": "https://dc.lft.to/lastmile_qr_scan"}, "is_reserved": 0, "is_disabled": 0, "type": "electric_scooter", "bike_id": "f78812f4dffeb52efbdb2dac66ba6338"}, {"lon": -77.0020235, "lat": 38.822550666666665, "name": "e90fa799a64337477bafb865f270327d", "fusion_lat": 0.0, "fusion_lon": 0.0, "rental_uris": {"android": "https://dc.lft.to/lastmile_qr_scan", "ios": "https://dc.lft.to/lastmile_qr_scan"}, "is_reserved": 0, "is_disabled": 0, "type": "electric_scooter", "bike_id": "e90fa799a64337477bafb865f270327d"}, {"lon": -77.01968216666667, "lat": 38.88377283333333, "name": "10b42283886a75edae0505f6b94e41e3", "fusion_lat": 0.0, "fusion_lon": 0.0, "rental_uris": {"android": "https://dc.lft.to/lastmile_qr_scan", "ios": "https://dc.lft.to/lastmile_qr_scan"}, "is_reserved": 0, "is_disabled": 0, "type": "electric_scooter", "bike_id": "10b42283886a75edae0505f6b94e41e3"}, {"lon": -77.03352083333333, "lat": 38.937327333333336, "name": "da15b13157643d520aad29faa9e76821", "fusion_lat": 0.0, "fusion_lon": 0.0, "rental_uris": {"android": "https://dc.lft.to/lastmile_qr_scan", "ios": "https://dc.lft.to/lastmile_qr_scan"}, "is_reserved": 0, "is_disabled": 0, "type": "electric_scooter", "bike_id": "da15b13157643d520aad29faa9e76821"}, {"lon": -77.02716016666666, "lat": 38.918087166666666, "name": "de9b98ce4da45d886abdf7f588f84767", "fusion_lat": 0.0, "fusion_lon": 0.0, "rental_uris": {"android": "https://dc.lft.to/lastmile_qr_scan", "ios": "https://dc.lft.to/lastmile_qr_scan"}, "is_reserved": 0, "is_disabled": 0, "type": "electric_scooter", "bike_id": "de9b98ce4da45d886abdf7f588f84767"}, {"lon": -77.0021275, "lat": 38.90062, "name": "8e248b535c196abc049eb5fa568607f1", "fusion_lat": 0.0, "fusion_lon": 0.0, "rental_uris": {"android": "https://dc.lft.to/lastmile_qr_scan", "ios": "https://dc.lft.to/lastmile_qr_scan"}, "is_reserved": 0, "is_disabled": 0, "type": "electric_scooter", "bike_id": "8e248b535c196abc049eb5fa568607f1"}, {"lon": -76.94864166666666, "lat": 38.882964, "name": "b730d8998db8052a369a6f607a276e79", "fusion_lat": 0.0, "fusion_lon": 0.0, "rental_uris": {"android": "https://dc.lft.to/lastmile_qr_scan", "ios": "https://dc.lft.to/lastmile_qr_scan"}, "is_reserved": 0, "is_disabled": 0, "type": "electric_scooter", "bike_id": "b730d8998db8052a369a6f607a276e79"}, {"lon": -77.03184733333333, "lat": 38.909874, "name": "e02bee9032a5465887cec79e7f7b57be", "fusion_lat": 0.0, "fusion_lon": 0.0, "rental_uris": {"android": "https://dc.lft.to/lastmile_qr_scan", "ios": "https://dc.lft.to/lastmile_qr_scan"}, "is_reserved": 0, "is_disabled": 0, "type": "electric_scooter", "bike_id": "e02bee9032a5465887cec79e7f7b57be"}, {"lon": -77.02393516666666, "lat": 38.932803166666666, "name": "c8c187699e84d2f6964d7c6723ecf9b8", "fusion_lat": 0.0, "fusion_lon": 0.0, "rental_uris": {"android": "https://dc.lft.to/lastmile_qr_scan", "ios": "https://dc.lft.to/lastmile_qr_scan"}, "is_reserved": 0, "is_disabled": 0, "type": "electric_scooter", "bike_id": "c8c187699e84d2f6964d7c6723ecf9b8"}, {"lon": -77.03643266666667, "lat": 38.94912866666667, "name": "f31db3bc66a6860cd090ac395db26ecd", "fusion_lat": 0.0, "fusion_lon": 0.0, "rental_uris": {"android": "https://dc.lft.to/lastmile_qr_scan", "ios": "https://dc.lft.to/lastmile_qr_scan"}, "is_reserved": 0, "is_disabled": 0, "type": "electric_scooter", "bike_id": "f31db3bc66a6860cd090ac395db26ecd"}, {"lon": -77.06836316666667, "lat": 38.911735166666666, "name": "61b7780e94c03489b1b6f961fc291e71", "fusion_lat": 0.0, "fusion_lon": 0.0, "rental_uris": {"android": "https://dc.lft.to/lastmile_qr_scan", "ios": "https://dc.lft.to/lastmile_qr_scan"}, "is_reserved": 0, "is_disabled": 0, "type": "electric_scooter", "bike_id": "61b7780e94c03489b1b6f961fc291e71"}, {"lon": -77.05374666666667, "lat": 38.923335333333334, "name": "6011adeba84811cfcd2ea70951866c32", "fusion_lat": 0.0, "fusion_lon": 0.0, "rental_uris": {"android": "https://dc.lft.to/lastmile_qr_scan", "ios": "https://dc.lft.to/lastmile_qr_scan"}, "is_reserved": 0, "is_disabled": 0, "type": "electric_scooter", "bike_id": "6011adeba84811cfcd2ea70951866c32"}, {"lon": -77.02961416666666, "lat": 38.911515333333334, "name": "767a985b0a7001dd6b30381592f1073a", "fusion_lat": 0.0, "fusion_lon": 0.0, "rental_uris": {"android": "https://dc.lft.to/lastmile_qr_scan", "ios": "https://dc.lft.to/lastmile_qr_scan"}, "is_reserved": 0, "is_disabled": 0, "type": "electric_bike", "bike_id": "767a985b0a7001dd6b30381592f1073a"}, {"lon": -77.14992733333334, "lat": 39.09457883333334, "name": "169bad8baf06fafff9c0f133f63cd69a", "fusion_lat": 0.0, "fusion_lon": 0.0, "rental_uris": {"android": "https://dc.lft.to/lastmile_qr_scan", "ios": "https://dc.lft.to/lastmile_qr_scan"}, "is_reserved": 0, "is_disabled": 0, "type": "electric_bike", "bike_id": "169bad8baf06fafff9c0f133f63cd69a"}, {"lon": -77.038605, "lat": 38.9321015, "name": "c4bfe65bdb10b6b8b6f9f3c63bb7eea9", "fusion_lat": 0.0, "fusion_lon": 0.0, "rental_uris": {"android": "https://dc.lft.to/lastmile_qr_scan", "ios": "https://dc.lft.to/lastmile_qr_scan"}, "is_reserved": 0, "is_disabled": 0, "type": "electric_scooter", "bike_id": "c4bfe65bdb10b6b8b6f9f3c63bb7eea9"}, {"lon": -77.0035285, "lat": 38.891575833333334, "name": "e37a80a295b0e616479df771e6aea0a9", "fusion_lat": 0.0, "fusion_lon": 0.0, "rental_uris": {"android": "https://dc.lft.to/lastmile_qr_scan", "ios": "https://dc.lft.to/lastmile_qr_scan"}, "is_reserved": 0, "is_disabled": 0, "type": "electric_scooter", "bike_id": "e37a80a295b0e616479df771e6aea0a9"}, {"lon": -77.0904125, "lat": 38.84123566666667, "name": "6fca39d55fded0397e4327c542e5fd9a", "fusion_lat": 0.0, "fusion_lon": 0.0, "rental_uris": {"android": "https://dc.lft.to/lastmile_qr_scan", "ios": "https://dc.lft.to/lastmile_qr_scan"}, "is_reserved": 0, "is_disabled": 0, "type": "electric_bike", "bike_id": "6fca39d55fded0397e4327c542e5fd9a"}, {"lon": -77.07653983333333, "lat": 38.910810833333336, "name": "447e4a82a72e6172981d9e9e02f6374d", "fusion_lat": 0.0, "fusion_lon": 0.0, "rental_uris": {"android": "https://dc.lft.to/lastmile_qr_scan", "ios": "https://dc.lft.to/lastmile_qr_scan"}, "is_reserved": 0, "is_disabled": 0, "type": "electric_scooter", "bike_id": "447e4a82a72e6172981d9e9e02f6374d"}, {"lon": -77.00653783333334, "lat": 38.9086185, "name": "c998b27f3ac0ab2317427e32b9631e8c", "fusion_lat": 0.0, "fusion_lon": 0.0, "rental_uris": {"android": "https://dc.lft.to/lastmile_qr_scan", "ios": "https://dc.lft.to/lastmile_qr_scan"}, "is_reserved": 0, "is_disabled": 0, "type": "electric_scooter", "bike_id": "c998b27f3ac0ab2317427e32b9631e8c"}, {"lon": -77.19911733333333, "lat": 38.87526833333333, "name": "071a330dd56f74137989e47e470347a6", "fusion_lat": 0.0, "fusion_lon": 0.0, "rental_uris": {"android": "https://dc.lft.to/lastmile_qr_scan", "ios": "https://dc.lft.to/lastmile_qr_scan"}, "is_reserved": 0, "is_disabled": 0, "type": "electric_bike", "bike_id": "071a330dd56f74137989e47e470347a6"}, {"lon": -77.045476, "lat": 38.89477733333333, "name": "b3184e7725f42be0e88e4862c25a8307", "fusion_lat": 0.0, "fusion_lon": 0.0, "rental_uris": {"android": "https://dc.lft.to/lastmile_qr_scan", "ios": "https://dc.lft.to/lastmile_qr_scan"}, "is_reserved": 0, "is_disabled": 0, "type": "electric_scooter", "bike_id": "b3184e7725f42be0e88e4862c25a8307"}, {"lon": -77.03191816666667, "lat": 38.9003355, "name": "b539f71f02cea2ac113e39be8c538b4c", "fusion_lat": 0.0, "fusion_lon": 0.0, "rental_uris": {"android": "https://dc.lft.to/lastmile_qr_scan", "ios": "https://dc.lft.to/lastmile_qr_scan"}, "is_reserved": 0, "is_disabled": 0, "type": "electric_scooter", "bike_id": "b539f71f02cea2ac113e39be8c538b4c"}, {"lon": -77.05006583333333, "lat": 38.892296333333334, "name": "f7ede3a2dbd3d698db443173aa603b8e", "fusion_lat": 0.0, "fusion_lon": 0.0, "rental_uris": {"android": "https://dc.lft.to/lastmile_qr_scan", "ios": "https://dc.lft.to/lastmile_qr_scan"}, "is_reserved": 0, "is_disabled": 0, "type": "electric_scooter", "bike_id": "f7ede3a2dbd3d698db443173aa603b8e"}, {"lon": -77.038541, "lat": 38.90767316666667, "name": "d74e73c1bb921fa567aab9d80f5f4525", "fusion_lat": 0.0, "fusion_lon": 0.0, "rental_uris": {"android": "https://dc.lft.to/lastmile_qr_scan", "ios": "https://dc.lft.to/lastmile_qr_scan"}, "is_reserved": 0, "is_disabled": 0, "type": "electric_scooter", "bike_id": "d74e73c1bb921fa567aab9d80f5f4525"}, {"lon": -77.03333566666667, "lat": 38.898465, "name": "09e0ee0e62dee61326be5a69a28b331a", "fusion_lat": 0.0, "fusion_lon": 0.0, "rental_uris": {"android": "https://dc.lft.to/lastmile_qr_scan", "ios": "https://dc.lft.to/lastmile_qr_scan"}, "is_reserved": 0, "is_disabled": 0, "type": "electric_scooter", "bike_id": "09e0ee0e62dee61326be5a69a28b331a"}, {"lon": -77.02701416666666, "lat": 38.909386833333336, "name": "be2bdd121f0b68eb00acd867a80ca51e", "fusion_lat": 0.0, "fusion_lon": 0.0, "rental_uris": {"android": "https://dc.lft.to/lastmile_qr_scan", "ios": "https://dc.lft.to/lastmile_qr_scan"}, "is_reserved": 0, "is_disabled": 0, "type": "electric_scooter", "bike_id": "be2bdd121f0b68eb00acd867a80ca51e"}, {"lon": -77.026568, "lat": 38.88108316666667, "name": "f93a2df46a42a9066e021fc27014c1eb", "fusion_lat": 0.0, "fusion_lon": 0.0, "rental_uris": {"android": "https://dc.lft.to/lastmile_qr_scan", "ios": "https://dc.lft.to/lastmile_qr_scan"}, "is_reserved": 0, "is_disabled": 0, "type": "electric_scooter", "bike_id": "f93a2df46a42a9066e021fc27014c1eb"}, {"lon": -76.94779866666667, "lat": 38.896343, "name": "765c7ee00f554696a1a01b268eab6cd3", "fusion_lat": 0.0, "fusion_lon": 0.0, "rental_uris": {"android": "https://dc.lft.to/lastmile_qr_scan", "ios": "https://dc.lft.to/lastmile_qr_scan"}, "is_reserved": 0, "is_disabled": 0, "type": "electric_bike", "bike_id": "765c7ee00f554696a1a01b268eab6cd3"}, {"lon": -77.0057715, "lat": 38.8765165, "name": "5c08cf4ba7ff084e6c90483afa3204e7", "fusion_lat": 0.0, "fusion_lon": 0.0, "rental_uris": {"android": "https://dc.lft.to/lastmile_qr_scan", "ios": "https://dc.lft.to/lastmile_qr_scan"}, "is_reserved": 0, "is_disabled": 0, "type": "electric_scooter", "bike_id": "5c08cf4ba7ff084e6c90483afa3204e7"}, {"lon": -76.98353866666666, "lat": 38.915327833333336, "name": "f4fb2073a3b85e1de9603b5bfc6c13ab", "fusion_lat": 0.0, "fusion_lon": 0.0, "rental_uris": {"android": "https://dc.lft.to/lastmile_qr_scan", "ios": "https://dc.lft.to/lastmile_qr_scan"}, "is_reserved": 0, "is_disabled": 0, "type": "electric_scooter", "bike_id": "f4fb2073a3b85e1de9603b5bfc6c13ab"}, {"lon": -77.0594165, "lat": 38.93662966666667, "name": "c14c5e1df6bd8b06a16429c5a3738f6c", "fusion_lat": 0.0, "fusion_lon": 0.0, "rental_uris": {"android": "https://dc.lft.to/lastmile_qr_scan", "ios": "https://dc.lft.to/lastmile_qr_scan"}, "is_reserved": 0, "is_disabled": 0, "type": "electric_scooter", "bike_id": "c14c5e1df6bd8b06a16429c5a3738f6c"}, {"lon": -76.99070883333333, "lat": 38.8635765, "name": "7e33ed5becb7ea4102f63a20db6ad3f8", "fusion_lat": 0.0, "fusion_lon": 0.0, "rental_uris": {"android": "https://dc.lft.to/lastmile_qr_scan", "ios": "https://dc.lft.to/lastmile_qr_scan"}, "is_reserved": 0, "is_disabled": 0, "type": "electric_scooter", "bike_id": "7e33ed5becb7ea4102f63a20db6ad3f8"}, {"lon": -77.04741, "lat": 38.911136666666664, "name": "acdaa623326a69760f5c9fd691cd132f", "fusion_lat": 0.0, "fusion_lon": 0.0, "rental_uris": {"android": "https://dc.lft.to/lastmile_qr_scan", "ios": "https://dc.lft.to/lastmile_qr_scan"}, "is_reserved": 0, "is_disabled": 0, "type": "electric_scooter", "bike_id": "acdaa623326a69760f5c9fd691cd132f"}, {"lon": -77.0071715, "lat": 38.8848795, "name": "8a0fb3bef067c17ba746958c3cd86f35", "fusion_lat": 0.0, "fusion_lon": 0.0, "rental_uris": {"android": "https://dc.lft.to/lastmile_qr_scan", "ios": "https://dc.lft.to/lastmile_qr_scan"}, "is_reserved": 0, "is_disabled": 0, "type": "electric_scooter", "bike_id": "8a0fb3bef067c17ba746958c3cd86f35"}, {"lon": -77.04240416666667, "lat": 38.922738333333335, "name": "a713c75073ca8a0ec6d2450cfe4c5d3e", "fusion_lat": 0.0, "fusion_lon": 0.0, "rental_uris": {"android": "https://dc.lft.to/lastmile_qr_scan", "ios": "https://dc.lft.to/lastmile_qr_scan"}, "is_reserved": 0, "is_disabled": 0, "type": "electric_scooter", "bike_id": "a713c75073ca8a0ec6d2450cfe4c5d3e"}, {"lon": -76.98842883333333, "lat": 38.901769333333334, "name": "c053b54f0818702fde411c33d5770351", "fusion_lat": 0.0, "fusion_lon": 0.0, "rental_uris": {"android": "https://dc.lft.to/lastmile_qr_scan", "ios": "https://dc.lft.to/lastmile_qr_scan"}, "is_reserved": 0, "is_disabled": 0, "type": "electric_scooter", "bike_id": "c053b54f0818702fde411c33d5770351"}, {"lon": -77.02761666666666, "lat": 38.95613216666667, "name": "a091182c217d806338825c7fa87235bb", "fusion_lat": 0.0, "fusion_lon": 0.0, "rental_uris": {"android": "https://dc.lft.to/lastmile_qr_scan", "ios": "https://dc.lft.to/lastmile_qr_scan"}, "is_reserved": 0, "is_disabled": 0, "type": "electric_scooter", "bike_id": "a091182c217d806338825c7fa87235bb"}, {"lon": -77.0490655, "lat": 38.88837616666667, "name": "5f88bd3eb417927af99aee9340fbdd8f", "fusion_lat": 0.0, "fusion_lon": 0.0, "rental_uris": {"android": "https://dc.lft.to/lastmile_qr_scan", "ios": "https://dc.lft.to/lastmile_qr_scan"}, "is_reserved": 0, "is_disabled": 0, "type": "electric_scooter", "bike_id": "5f88bd3eb417927af99aee9340fbdd8f"}, {"lon": -77.02963683333333, "lat": 38.95425516666667, "name": "10a2ea9373d70b963519b84b6c2a07a1", "fusion_lat": 0.0, "fusion_lon": 0.0, "rental_uris": {"android": "https://dc.lft.to/lastmile_qr_scan", "ios": "https://dc.lft.to/lastmile_qr_scan"}, "is_reserved": 0, "is_disabled": 0, "type": "electric_scooter", "bike_id": "10a2ea9373d70b963519b84b6c2a07a1"}, {"lon": -77.02279416666667, "lat": 38.9165755, "name": "911019c96b72666af388d2a3da69e95c", "fusion_lat": 0.0, "fusion_lon": 0.0, "rental_uris": {"android": "https://dc.lft.to/lastmile_qr_scan", "ios": "https://dc.lft.to/lastmile_qr_scan"}, "is_reserved": 0, "is_disabled": 0, "type": "electric_scooter", "bike_id": "911019c96b72666af388d2a3da69e95c"}, {"lon": -77.06952616666666, "lat": 38.990444333333336, "name": "e7b1073e03091bffdb1ac519e0e2077b", "fusion_lat": 0.0, "fusion_lon": 0.0, "rental_uris": {"android": "https://dc.lft.to/lastmile_qr_scan", "ios": "https://dc.lft.to/lastmile_qr_scan"}, "is_reserved": 0, "is_disabled": 0, "type": "electric_bike", "bike_id": "e7b1073e03091bffdb1ac519e0e2077b"}, {"lon": -76.93758466666667, "lat": 38.899667, "name": "cedafa12cb5cd530e71c3f83208ca66f", "fusion_lat": 0.0, "fusion_lon": 0.0, "rental_uris": {"android": "https://dc.lft.to/lastmile_qr_scan", "ios": "https://dc.lft.to/lastmile_qr_scan"}, "is_reserved": 0, "is_disabled": 0, "type": "electric_scooter", "bike_id": "cedafa12cb5cd530e71c3f83208ca66f"}, {"lon": -76.9905185, "lat": 38.902946166666666, "name": "3388bf617aca36b7b4ac19f2f19f086a", "fusion_lat": 0.0, "fusion_lon": 0.0, "rental_uris": {"android": "https://dc.lft.to/lastmile_qr_scan", "ios": "https://dc.lft.to/lastmile_qr_scan"}, "is_reserved": 0, "is_disabled": 0, "type": "electric_bike", "bike_id": "3388bf617aca36b7b4ac19f2f19f086a"}, {"lon": -77.04383266666666, "lat": 38.89220483333333, "name": "03d1ccfa29c016db5c927acba6a04fd3", "fusion_lat": 0.0, "fusion_lon": 0.0, "rental_uris": {"android": "https://dc.lft.to/lastmile_qr_scan", "ios": "https://dc.lft.to/lastmile_qr_scan"}, "is_reserved": 0, "is_disabled": 0, "type": "electric_scooter", "bike_id": "03d1ccfa29c016db5c927acba6a04fd3"}, {"lon": -77.01870483333333, "lat": 38.88745983333333, "name": "5a908caf37805850d44267b41ce578a1", "fusion_lat": 0.0, "fusion_lon": 0.0, "rental_uris": {"android": "https://dc.lft.to/lastmile_qr_scan", "ios": "https://dc.lft.to/lastmile_qr_scan"}, "is_reserved": 0, "is_disabled": 0, "type": "electric_scooter", "bike_id": "5a908caf37805850d44267b41ce578a1"}, {"lon": -76.99714216666666, "lat": 38.90009366666666, "name": "4beb4187468255189415c1b81358983b", "fusion_lat": 0.0, "fusion_lon": 0.0, "rental_uris": {"android": "https://dc.lft.to/lastmile_qr_scan", "ios": "https://dc.lft.to/lastmile_qr_scan"}, "is_reserved": 0, "is_disabled": 0, "type": "electric_scooter", "bike_id": "4beb4187468255189415c1b81358983b"}, {"lon": -77.0193545, "lat": 38.90238633333333, "name": "09780dfaa221f01c5fd24d9be336f0d7", "fusion_lat": 0.0, "fusion_lon": 0.0, "rental_uris": {"android": "https://dc.lft.to/lastmile_qr_scan", "ios": "https://dc.lft.to/lastmile_qr_scan"}, "is_reserved": 0, "is_disabled": 0, "type": "electric_scooter", "bike_id": "09780dfaa221f01c5fd24d9be336f0d7"}, {"lon": -77.02603183333333, "lat": 38.9049255, "name": "238dc56e83cc773ed8b99e8e141d91dd", "fusion_lat": 0.0, "fusion_lon": 0.0, "rental_uris": {"android": "https://dc.lft.to/lastmile_qr_scan", "ios": "https://dc.lft.to/lastmile_qr_scan"}, "is_reserved": 0, "is_disabled": 0, "type": "electric_scooter", "bike_id": "238dc56e83cc773ed8b99e8e141d91dd"}, {"lon": -77.049096, "lat": 38.8883575, "name": "ecc5406fe073aa88f989a4858f41dfb4", "fusion_lat": 0.0, "fusion_lon": 0.0, "rental_uris": {"android": "https://dc.lft.to/lastmile_qr_scan", "ios": "https://dc.lft.to/lastmile_qr_scan"}, "is_reserved": 0, "is_disabled": 0, "type": "electric_scooter", "bike_id": "ecc5406fe073aa88f989a4858f41dfb4"}, {"lon": -76.9097275, "lat": 38.854356333333335, "name": "422015156ca54df3b4c9fd20a203ad65", "fusion_lat": 0.0, "fusion_lon": 0.0, "rental_uris": {"android": "https://dc.lft.to/lastmile_qr_scan", "ios": "https://dc.lft.to/lastmile_qr_scan"}, "is_reserved": 0, "is_disabled": 0, "type": "electric_bike", "bike_id": "422015156ca54df3b4c9fd20a203ad65"}, {"lon": -77.03660383333333, "lat": 38.93640116666667, "name": "e8c1be2d5415e9c4c206407e7255c4a0", "fusion_lat": 0.0, "fusion_lon": 0.0, "rental_uris": {"android": "https://dc.lft.to/lastmile_qr_scan", "ios": "https://dc.lft.to/lastmile_qr_scan"}, "is_reserved": 0, "is_disabled": 0, "type": "electric_scooter", "bike_id": "e8c1be2d5415e9c4c206407e7255c4a0"}, {"lon": -77.04174566666667, "lat": 38.9146225, "name": "a840a46d2f0954a8a3cfac1088fc906a", "fusion_lat": 0.0, "fusion_lon": 0.0, "rental_uris": {"android": "https://dc.lft.to/lastmile_qr_scan", "ios": "https://dc.lft.to/lastmile_qr_scan"}, "is_reserved": 0, "is_disabled": 0, "type": "electric_scooter", "bike_id": "a840a46d2f0954a8a3cfac1088fc906a"}, {"lon": -77.02305566666666, "lat": 38.901536, "name": "59bbbbbbf6263d25ea5fc4836d90bd42", "fusion_lat": 0.0, "fusion_lon": 0.0, "rental_uris": {"android": "https://dc.lft.to/lastmile_qr_scan", "ios": "https://dc.lft.to/lastmile_qr_scan"}, "is_reserved": 0, "is_disabled": 0, "type": "electric_scooter", "bike_id": "59bbbbbbf6263d25ea5fc4836d90bd42"}, {"lon": -77.02882533333333, "lat": 38.911267, "name": "f1d279600e73b77a7d3a888bb16d4ddf", "fusion_lat": 0.0, "fusion_lon": 0.0, "rental_uris": {"android": "https://dc.lft.to/lastmile_qr_scan", "ios": "https://dc.lft.to/lastmile_qr_scan"}, "is_reserved": 0, "is_disabled": 0, "type": "electric_scooter", "bike_id": "f1d279600e73b77a7d3a888bb16d4ddf"}, {"lon": -77.02508833333333, "lat": 38.93412716666667, "name": "211d69b96f4ec3ad0a00572237e7ce16", "fusion_lat": 0.0, "fusion_lon": 0.0, "rental_uris": {"android": "https://dc.lft.to/lastmile_qr_scan", "ios": "https://dc.lft.to/lastmile_qr_scan"}, "is_reserved": 0, "is_disabled": 0, "type": "electric_bike", "bike_id": "211d69b96f4ec3ad0a00572237e7ce16"}, {"lon": -77.0481475, "lat": 38.8974845, "name": "ba451696d5c108cdd21c153ccaae3c5a", "fusion_lat": 0.0, "fusion_lon": 0.0, "rental_uris": {"android": "https://dc.lft.to/lastmile_qr_scan", "ios": "https://dc.lft.to/lastmile_qr_scan"}, "is_reserved": 0, "is_disabled": 0, "type": "electric_scooter", "bike_id": "ba451696d5c108cdd21c153ccaae3c5a"}, {"lon": -77.023475, "lat": 38.96202066666667, "name": "8c0a53065a883c1e9b4068d805df28d8", "fusion_lat": 0.0, "fusion_lon": 0.0, "rental_uris": {"android": "https://dc.lft.to/lastmile_qr_scan", "ios": "https://dc.lft.to/lastmile_qr_scan"}, "is_reserved": 0, "is_disabled": 0, "type": "electric_scooter", "bike_id": "8c0a53065a883c1e9b4068d805df28d8"}, {"lon": -77.024694, "lat": 38.91706933333333, "name": "ac2de59bd33fea0db9bc0ebaff6af4d0", "fusion_lat": 0.0, "fusion_lon": 0.0, "rental_uris": {"android": "https://dc.lft.to/lastmile_qr_scan", "ios": "https://dc.lft.to/lastmile_qr_scan"}, "is_reserved": 0, "is_disabled": 0, "type": "electric_scooter", "bike_id": "ac2de59bd33fea0db9bc0ebaff6af4d0"}, {"lon": -76.99546416666666, "lat": 38.884178166666665, "name": "905a0a0fd190fa2ad9f6df56e08b94b5", "fusion_lat": 0.0, "fusion_lon": 0.0, "rental_uris": {"android": "https://dc.lft.to/lastmile_qr_scan", "ios": "https://dc.lft.to/lastmile_qr_scan"}, "is_reserved": 0, "is_disabled": 0, "type": "electric_scooter", "bike_id": "905a0a0fd190fa2ad9f6df56e08b94b5"}, {"lon": -77.05319383333334, "lat": 38.923511, "name": "1ec7fb7dd87e67c5117449fd513f393c", "fusion_lat": 0.0, "fusion_lon": 0.0, "rental_uris": {"android": "https://dc.lft.to/lastmile_qr_scan", "ios": "https://dc.lft.to/lastmile_qr_scan"}, "is_reserved": 0, "is_disabled": 0, "type": "electric_scooter", "bike_id": "1ec7fb7dd87e67c5117449fd513f393c"}, {"lon": -77.03866083333334, "lat": 38.9079945, "name": "8711d57562402d8d3e46cdbab9e5d836", "fusion_lat": 0.0, "fusion_lon": 0.0, "rental_uris": {"android": "https://dc.lft.to/lastmile_qr_scan", "ios": "https://dc.lft.to/lastmile_qr_scan"}, "is_reserved": 0, "is_disabled": 0, "type": "electric_scooter", "bike_id": "8711d57562402d8d3e46cdbab9e5d836"}, {"lon": -77.02976883333334, "lat": 38.91681083333334, "name": "20bcc8f602e8e92cc2a341779c8a699b", "fusion_lat": 0.0, "fusion_lon": 0.0, "rental_uris": {"android": "https://dc.lft.to/lastmile_qr_scan", "ios": "https://dc.lft.to/lastmile_qr_scan"}, "is_reserved": 0, "is_disabled": 0, "type": "electric_scooter", "bike_id": "20bcc8f602e8e92cc2a341779c8a699b"}, {"lon": -77.01585883333334, "lat": 38.88490616666667, "name": "407dd6d1f673b43fccfacea8f799f300", "fusion_lat": 0.0, "fusion_lon": 0.0, "rental_uris": {"android": "https://dc.lft.to/lastmile_qr_scan", "ios": "https://dc.lft.to/lastmile_qr_scan"}, "is_reserved": 0, "is_disabled": 0, "type": "electric_bike", "bike_id": "407dd6d1f673b43fccfacea8f799f300"}, {"lon": -77.01196916666666, "lat": 38.90015966666667, "name": "4dcb61424786e11ee8dc325dc18d2a54", "fusion_lat": 0.0, "fusion_lon": 0.0, "rental_uris": {"android": "https://dc.lft.to/lastmile_qr_scan", "ios": "https://dc.lft.to/lastmile_qr_scan"}, "is_reserved": 0, "is_disabled": 0, "type": "electric_scooter", "bike_id": "4dcb61424786e11ee8dc325dc18d2a54"}, {"lon": -77.0573275, "lat": 38.9336855, "name": "232bc72f846be704cfd1cc07789dd5b6", "fusion_lat": 0.0, "fusion_lon": 0.0, "rental_uris": {"android": "https://dc.lft.to/lastmile_qr_scan", "ios": "https://dc.lft.to/lastmile_qr_scan"}, "is_reserved": 0, "is_disabled": 0, "type": "electric_scooter", "bike_id": "232bc72f846be704cfd1cc07789dd5b6"}, {"lon": -77.022263, "lat": 38.896276, "name": "cc5a2c37a73612cb8d4c6755e8d529d1", "fusion_lat": 0.0, "fusion_lon": 0.0, "rental_uris": {"android": "https://dc.lft.to/lastmile_qr_scan", "ios": "https://dc.lft.to/lastmile_qr_scan"}, "is_reserved": 0, "is_disabled": 0, "type": "electric_scooter", "bike_id": "cc5a2c37a73612cb8d4c6755e8d529d1"}, {"lon": -77.00570233333333, "lat": 38.92718083333333, "name": "8c06edf8446b1083675c44d27e7a6d3c", "fusion_lat": 0.0, "fusion_lon": 0.0, "rental_uris": {"android": "https://dc.lft.to/lastmile_qr_scan", "ios": "https://dc.lft.to/lastmile_qr_scan"}, "is_reserved": 0, "is_disabled": 0, "type": "electric_scooter", "bike_id": "8c06edf8446b1083675c44d27e7a6d3c"}, {"lon": -77.00530466666666, "lat": 38.92887183333333, "name": "dbdd3fe5d2db254913a9dbd438f65a2b", "fusion_lat": 0.0, "fusion_lon": 0.0, "rental_uris": {"android": "https://dc.lft.to/lastmile_qr_scan", "ios": "https://dc.lft.to/lastmile_qr_scan"}, "is_reserved": 0, "is_disabled": 0, "type": "electric_scooter", "bike_id": "dbdd3fe5d2db254913a9dbd438f65a2b"}, {"lon": -77.02416383333333, "lat": 38.90977216666667, "name": "f531758f87939c029fa884ba9a6b9b8c", "fusion_lat": 0.0, "fusion_lon": 0.0, "rental_uris": {"android": "https://dc.lft.to/lastmile_qr_scan", "ios": "https://dc.lft.to/lastmile_qr_scan"}, "is_reserved": 0, "is_disabled": 0, "type": "electric_scooter", "bike_id": "f531758f87939c029fa884ba9a6b9b8c"}, {"lon": -77.03744683333333, "lat": 38.925510833333334, "name": "ace49b7fb9e214f8513f403e9a404b18", "fusion_lat": 0.0, "fusion_lon": 0.0, "rental_uris": {"android": "https://dc.lft.to/lastmile_qr_scan", "ios": "https://dc.lft.to/lastmile_qr_scan"}, "is_reserved": 0, "is_disabled": 0, "type": "electric_scooter", "bike_id": "ace49b7fb9e214f8513f403e9a404b18"}, {"lon": -77.02005966666667, "lat": 38.90477333333333, "name": "b4254c3f122846d437a41e802a87c812", "fusion_lat": 0.0, "fusion_lon": 0.0, "rental_uris": {"android": "https://dc.lft.to/lastmile_qr_scan", "ios": "https://dc.lft.to/lastmile_qr_scan"}, "is_reserved": 0, "is_disabled": 0, "type": "electric_scooter", "bike_id": "b4254c3f122846d437a41e802a87c812"}, {"lon": -77.03156783333333, "lat": 38.897795, "name": "ff16ebfb45e876363458f222e6f536a1", "fusion_lat": 0.0, "fusion_lon": 0.0, "rental_uris": {"android": "https://dc.lft.to/lastmile_qr_scan", "ios": "https://dc.lft.to/lastmile_qr_scan"}, "is_reserved": 0, "is_disabled": 0, "type": "electric_scooter", "bike_id": "ff16ebfb45e876363458f222e6f536a1"}, {"lon": -76.90536349999999, "lat": 38.897355166666664, "name": "d3b4b128b2303964633f8c3f48e96151", "fusion_lat": 0.0, "fusion_lon": 0.0, "rental_uris": {"android": "https://dc.lft.to/lastmile_qr_scan", "ios": "https://dc.lft.to/lastmile_qr_scan"}, "is_reserved": 0, "is_disabled": 0, "type": "electric_bike", "bike_id": "d3b4b128b2303964633f8c3f48e96151"}, {"lon": -77.0232465, "lat": 38.929451, "name": "d0c254b39b42611b88740f5899149ee6", "fusion_lat": 0.0, "fusion_lon": 0.0, "rental_uris": {"android": "https://dc.lft.to/lastmile_qr_scan", "ios": "https://dc.lft.to/lastmile_qr_scan"}, "is_reserved": 0, "is_disabled": 0, "type": "electric_scooter", "bike_id": "d0c254b39b42611b88740f5899149ee6"}, {"lon": -77.00727666666667, "lat": 38.88489416666667, "name": "0f03345401adeb72fa4ec89e13df55b3", "fusion_lat": 0.0, "fusion_lon": 0.0, "rental_uris": {"android": "https://dc.lft.to/lastmile_qr_scan", "ios": "https://dc.lft.to/lastmile_qr_scan"}, "is_reserved": 0, "is_disabled": 0, "type": "electric_scooter", "bike_id": "0f03345401adeb72fa4ec89e13df55b3"}, {"lon": -77.03452333333334, "lat": 38.903518, "name": "4a72ce2f330364be01bf279194585436", "fusion_lat": 0.0, "fusion_lon": 0.0, "rental_uris": {"android": "https://dc.lft.to/lastmile_qr_scan", "ios": "https://dc.lft.to/lastmile_qr_scan"}, "is_reserved": 0, "is_disabled": 0, "type": "electric_scooter", "bike_id": "4a72ce2f330364be01bf279194585436"}, {"lon": -77.04156866666666, "lat": 38.91894716666667, "name": "5603e5c9f7a5936f9d062ca9156f77eb", "fusion_lat": 0.0, "fusion_lon": 0.0, "rental_uris": {"android": "https://dc.lft.to/lastmile_qr_scan", "ios": "https://dc.lft.to/lastmile_qr_scan"}, "is_reserved": 0, "is_disabled": 0, "type": "electric_scooter", "bike_id": "5603e5c9f7a5936f9d062ca9156f77eb"}, {"lon": -77.02399433333333, "lat": 38.90701716666667, "name": "8c7c4ba747df9d613695289409c0c1fe", "fusion_lat": 0.0, "fusion_lon": 0.0, "rental_uris": {"android": "https://dc.lft.to/lastmile_qr_scan", "ios": "https://dc.lft.to/lastmile_qr_scan"}, "is_reserved": 0, "is_disabled": 0, "type": "electric_scooter", "bike_id": "8c7c4ba747df9d613695289409c0c1fe"}, {"lon": -77.008394, "lat": 38.915582, "name": "2465a5b791a32a9d62d690ddea49ed53", "fusion_lat": 0.0, "fusion_lon": 0.0, "rental_uris": {"android": "https://dc.lft.to/lastmile_qr_scan", "ios": "https://dc.lft.to/lastmile_qr_scan"}, "is_reserved": 0, "is_disabled": 0, "type": "electric_scooter", "bike_id": "2465a5b791a32a9d62d690ddea49ed53"}, {"lon": -77.03889283333334, "lat": 38.90246583333333, "name": "d40977bfda8ba6ad8c386db8246d4fe9", "fusion_lat": 0.0, "fusion_lon": 0.0, "rental_uris": {"android": "https://dc.lft.to/lastmile_qr_scan", "ios": "https://dc.lft.to/lastmile_qr_scan"}, "is_reserved": 0, "is_disabled": 0, "type": "electric_scooter", "bike_id": "d40977bfda8ba6ad8c386db8246d4fe9"}, {"lon": -77.030797, "lat": 38.90990333333333, "name": "eb7788c0aac3e3624c9764afb21b9c5f", "fusion_lat": 0.0, "fusion_lon": 0.0, "rental_uris": {"android": "https://dc.lft.to/lastmile_qr_scan", "ios": "https://dc.lft.to/lastmile_qr_scan"}, "is_reserved": 0, "is_disabled": 0, "type": "electric_scooter", "bike_id": "eb7788c0aac3e3624c9764afb21b9c5f"}, {"lon": -77.01516266666667, "lat": 38.887331, "name": "dea07646b49db4c2f9ce251007ff99d4", "fusion_lat": 0.0, "fusion_lon": 0.0, "rental_uris": {"android": "https://dc.lft.to/lastmile_qr_scan", "ios": "https://dc.lft.to/lastmile_qr_scan"}, "is_reserved": 0, "is_disabled": 0, "type": "electric_scooter", "bike_id": "dea07646b49db4c2f9ce251007ff99d4"}, {"lon": -77.04875616666666, "lat": 38.9123685, "name": "2e8219cabe2ebeccf34d06065fbaa6b8", "fusion_lat": 0.0, "fusion_lon": 0.0, "rental_uris": {"android": "https://dc.lft.to/lastmile_qr_scan", "ios": "https://dc.lft.to/lastmile_qr_scan"}, "is_reserved": 0, "is_disabled": 0, "type": "electric_scooter", "bike_id": "2e8219cabe2ebeccf34d06065fbaa6b8"}, {"lon": -76.99762166666666, "lat": 38.92183466666667, "name": "641600655c34ad82da97d7d84852bdb3", "fusion_lat": 0.0, "fusion_lon": 0.0, "rental_uris": {"android": "https://dc.lft.to/lastmile_qr_scan", "ios": "https://dc.lft.to/lastmile_qr_scan"}, "is_reserved": 0, "is_disabled": 0, "type": "electric_scooter", "bike_id": "641600655c34ad82da97d7d84852bdb3"}, {"lon": -77.04040783333333, "lat": 38.923134833333336, "name": "928a7f383cecf9e7595f346409743c8a", "fusion_lat": 0.0, "fusion_lon": 0.0, "rental_uris": {"android": "https://dc.lft.to/lastmile_qr_scan", "ios": "https://dc.lft.to/lastmile_qr_scan"}, "is_reserved": 0, "is_disabled": 0, "type": "electric_scooter", "bike_id": "928a7f383cecf9e7595f346409743c8a"}, {"lon": -77.00725483333333, "lat": 38.884922833333334, "name": "2c5416ad7900ac97eaf717f291fc2555", "fusion_lat": 0.0, "fusion_lon": 0.0, "rental_uris": {"android": "https://dc.lft.to/lastmile_qr_scan", "ios": "https://dc.lft.to/lastmile_qr_scan"}, "is_reserved": 0, "is_disabled": 0, "type": "electric_scooter", "bike_id": "2c5416ad7900ac97eaf717f291fc2555"}, {"lon": -77.02132083333333, "lat": 38.90322666666667, "name": "068c1ae840488f79474cf4a36dd7a009", "fusion_lat": 0.0, "fusion_lon": 0.0, "rental_uris": {"android": "https://dc.lft.to/lastmile_qr_scan", "ios": "https://dc.lft.to/lastmile_qr_scan"}, "is_reserved": 0, "is_disabled": 0, "type": "electric_scooter", "bike_id": "068c1ae840488f79474cf4a36dd7a009"}, {"lon": -77.35314066666666, "lat": 38.949985, "name": "fd3209a1af13a508ccdb714e1234989b", "fusion_lat": 0.0, "fusion_lon": 0.0, "rental_uris": {"android": "https://dc.lft.to/lastmile_qr_scan", "ios": "https://dc.lft.to/lastmile_qr_scan"}, "is_reserved": 0, "is_disabled": 0, "type": "electric_bike", "bike_id": "fd3209a1af13a508ccdb714e1234989b"}, {"lon": -77.03835633333334, "lat": 38.9313785, "name": "dee3db988a0f864ebbfba629b0e2d023", "fusion_lat": 0.0, "fusion_lon": 0.0, "rental_uris": {"android": "https://dc.lft.to/lastmile_qr_scan", "ios": "https://dc.lft.to/lastmile_qr_scan"}, "is_reserved": 0, "is_disabled": 0, "type": "electric_scooter", "bike_id": "dee3db988a0f864ebbfba629b0e2d023"}, {"lon": -76.93175883333333, "lat": 38.89879883333333, "name": "cd46fe2e6365e63ae96848f1d6defec0", "fusion_lat": 0.0, "fusion_lon": 0.0, "rental_uris": {"android": "https://dc.lft.to/lastmile_qr_scan", "ios": "https://dc.lft.to/lastmile_qr_scan"}, "is_reserved": 0, "is_disabled": 0, "type": "electric_scooter", "bike_id": "cd46fe2e6365e63ae96848f1d6defec0"}, {"lon": -77.00428116666667, "lat": 38.876437, "name": "22fcf65783b62cedccf8b0b7fc257524", "fusion_lat": 0.0, "fusion_lon": 0.0, "rental_uris": {"android": "https://dc.lft.to/lastmile_qr_scan", "ios": "https://dc.lft.to/lastmile_qr_scan"}, "is_reserved": 0, "is_disabled": 0, "type": "electric_scooter", "bike_id": "22fcf65783b62cedccf8b0b7fc257524"}, {"lon": -77.02846133333334, "lat": 38.94260516666667, "name": "f98237f4417c586d98f6459a33835bcb", "fusion_lat": 0.0, "fusion_lon": 0.0, "rental_uris": {"android": "https://dc.lft.to/lastmile_qr_scan", "ios": "https://dc.lft.to/lastmile_qr_scan"}, "is_reserved": 0, "is_disabled": 0, "type": "electric_scooter", "bike_id": "f98237f4417c586d98f6459a33835bcb"}, {"lon": -77.0512785, "lat": 38.999652833333336, "name": "f1792cbdfb48985a45ecd890fbdabb17", "fusion_lat": 0.0, "fusion_lon": 0.0, "rental_uris": {"android": "https://dc.lft.to/lastmile_qr_scan", "ios": "https://dc.lft.to/lastmile_qr_scan"}, "is_reserved": 0, "is_disabled": 0, "type": "electric_bike", "bike_id": "f1792cbdfb48985a45ecd890fbdabb17"}, {"lon": -77.024988, "lat": 38.91805133333333, "name": "76b4dbe86c95a5f89c8e50ea0649779f", "fusion_lat": 0.0, "fusion_lon": 0.0, "rental_uris": {"android": "https://dc.lft.to/lastmile_qr_scan", "ios": "https://dc.lft.to/lastmile_qr_scan"}, "is_reserved": 0, "is_disabled": 0, "type": "electric_scooter", "bike_id": "76b4dbe86c95a5f89c8e50ea0649779f"}, {"lon": -77.01637366666667, "lat": 38.903346, "name": "8710532b9a461f028166d5acb473638a", "fusion_lat": 0.0, "fusion_lon": 0.0, "rental_uris": {"android": "https://dc.lft.to/lastmile_qr_scan", "ios": "https://dc.lft.to/lastmile_qr_scan"}, "is_reserved": 0, "is_disabled": 0, "type": "electric_scooter", "bike_id": "8710532b9a461f028166d5acb473638a"}, {"lon": -76.96879, "lat": 38.924412, "name": "b239c1c986462b329237f66fca6910f2", "fusion_lat": 0.0, "fusion_lon": 0.0, "rental_uris": {"android": "https://dc.lft.to/lastmile_qr_scan", "ios": "https://dc.lft.to/lastmile_qr_scan"}, "is_reserved": 0, "is_disabled": 0, "type": "electric_scooter", "bike_id": "b239c1c986462b329237f66fca6910f2"}, {"lon": -77.03347233333334, "lat": 38.9169955, "name": "1d797f6908d2b628a50c9b99b976076c", "fusion_lat": 0.0, "fusion_lon": 0.0, "rental_uris": {"android": "https://dc.lft.to/lastmile_qr_scan", "ios": "https://dc.lft.to/lastmile_qr_scan"}, "is_reserved": 0, "is_disabled": 0, "type": "electric_scooter", "bike_id": "1d797f6908d2b628a50c9b99b976076c"}, {"lon": -77.02816533333333, "lat": 38.88175316666667, "name": "f2146436e0c66b2bc83340be291b8cd8", "fusion_lat": 0.0, "fusion_lon": 0.0, "rental_uris": {"android": "https://dc.lft.to/lastmile_qr_scan", "ios": "https://dc.lft.to/lastmile_qr_scan"}, "is_reserved": 0, "is_disabled": 0, "type": "electric_scooter", "bike_id": "f2146436e0c66b2bc83340be291b8cd8"}, {"lon": -77.01759433333334, "lat": 38.90265683333333, "name": "46265501e474e612a66be970fae30c81", "fusion_lat": 0.0, "fusion_lon": 0.0, "rental_uris": {"android": "https://dc.lft.to/lastmile_qr_scan", "ios": "https://dc.lft.to/lastmile_qr_scan"}, "is_reserved": 0, "is_disabled": 0, "type": "electric_scooter", "bike_id": "46265501e474e612a66be970fae30c81"}, {"lon": -77.04076483333333, "lat": 38.91750116666667, "name": "6531672c8a8348e485f48eee74a75096", "fusion_lat": 0.0, "fusion_lon": 0.0, "rental_uris": {"android": "https://dc.lft.to/lastmile_qr_scan", "ios": "https://dc.lft.to/lastmile_qr_scan"}, "is_reserved": 0, "is_disabled": 0, "type": "electric_scooter", "bike_id": "6531672c8a8348e485f48eee74a75096"}, {"lon": -77.0340635, "lat": 38.922728666666664, "name": "47a6430e89a0a7d904e30a1b61964ba4", "fusion_lat": 0.0, "fusion_lon": 0.0, "rental_uris": {"android": "https://dc.lft.to/lastmile_qr_scan", "ios": "https://dc.lft.to/lastmile_qr_scan"}, "is_reserved": 0, "is_disabled": 0, "type": "electric_scooter", "bike_id": "47a6430e89a0a7d904e30a1b61964ba4"}, {"lon": -77.027583, "lat": 38.89490516666667, "name": "c564a30d9e3f34bae3fb22b03ebfd224", "fusion_lat": 0.0, "fusion_lon": 0.0, "rental_uris": {"android": "https://dc.lft.to/lastmile_qr_scan", "ios": "https://dc.lft.to/lastmile_qr_scan"}, "is_reserved": 0, "is_disabled": 0, "type": "electric_scooter", "bike_id": "c564a30d9e3f34bae3fb22b03ebfd224"}, {"lon": -76.9871455, "lat": 38.8625675, "name": "12750f264ef331391006249623dc6cdb", "fusion_lat": 0.0, "fusion_lon": 0.0, "rental_uris": {"android": "https://dc.lft.to/lastmile_qr_scan", "ios": "https://dc.lft.to/lastmile_qr_scan"}, "is_reserved": 0, "is_disabled": 0, "type": "electric_scooter", "bike_id": "12750f264ef331391006249623dc6cdb"}, {"lon": -77.04616066666667, "lat": 38.92231433333333, "name": "4a860f507dc3b2f85ca9e483cd748aa0", "fusion_lat": 0.0, "fusion_lon": 0.0, "rental_uris": {"android": "https://dc.lft.to/lastmile_qr_scan", "ios": "https://dc.lft.to/lastmile_qr_scan"}, "is_reserved": 0, "is_disabled": 0, "type": "electric_scooter", "bike_id": "4a860f507dc3b2f85ca9e483cd748aa0"}, {"lon": -77.0317565, "lat": 38.91414966666667, "name": "68c9d9204006ae7df84289466beb120e", "fusion_lat": 0.0, "fusion_lon": 0.0, "rental_uris": {"android": "https://dc.lft.to/lastmile_qr_scan", "ios": "https://dc.lft.to/lastmile_qr_scan"}, "is_reserved": 0, "is_disabled": 0, "type": "electric_scooter", "bike_id": "68c9d9204006ae7df84289466beb120e"}, {"lon": -77.0475725, "lat": 38.90385216666667, "name": "c15514fa7e842cdeb00895395d4af0b2", "fusion_lat": 0.0, "fusion_lon": 0.0, "rental_uris": {"android": "https://dc.lft.to/lastmile_qr_scan", "ios": "https://dc.lft.to/lastmile_qr_scan"}, "is_reserved": 0, "is_disabled": 0, "type": "electric_scooter", "bike_id": "c15514fa7e842cdeb00895395d4af0b2"}, {"lon": -76.94722283333333, "lat": 38.8973535, "name": "8c5d1883f350174fb80b41be70efb6c9", "fusion_lat": 0.0, "fusion_lon": 0.0, "rental_uris": {"android": "https://dc.lft.to/lastmile_qr_scan", "ios": "https://dc.lft.to/lastmile_qr_scan"}, "is_reserved": 0, "is_disabled": 0, "type": "electric_scooter", "bike_id": "8c5d1883f350174fb80b41be70efb6c9"}, {"lon": -77.05847533333333, "lat": 38.9342035, "name": "6bd5c6892d00d7e4ee1268f018ea3711", "fusion_lat": 0.0, "fusion_lon": 0.0, "rental_uris": {"android": "https://dc.lft.to/lastmile_qr_scan", "ios": "https://dc.lft.to/lastmile_qr_scan"}, "is_reserved": 0, "is_disabled": 0, "type": "electric_scooter", "bike_id": "6bd5c6892d00d7e4ee1268f018ea3711"}, {"lon": -77.033202, "lat": 38.90961883333333, "name": "8ba44627bfc355f88dc1b25925774aeb", "fusion_lat": 0.0, "fusion_lon": 0.0, "rental_uris": {"android": "https://dc.lft.to/lastmile_qr_scan", "ios": "https://dc.lft.to/lastmile_qr_scan"}, "is_reserved": 0, "is_disabled": 0, "type": "electric_scooter", "bike_id": "8ba44627bfc355f88dc1b25925774aeb"}, {"lon": -77.01390033333334, "lat": 38.92797816666667, "name": "aba0b6292321ced7dbeb8b36757854eb", "fusion_lat": 0.0, "fusion_lon": 0.0, "rental_uris": {"android": "https://dc.lft.to/lastmile_qr_scan", "ios": "https://dc.lft.to/lastmile_qr_scan"}, "is_reserved": 0, "is_disabled": 0, "type": "electric_scooter", "bike_id": "aba0b6292321ced7dbeb8b36757854eb"}, {"lon": -77.04393933333333, "lat": 38.922739666666665, "name": "0893dae73ac45bb2af6161c128202b61", "fusion_lat": 0.0, "fusion_lon": 0.0, "rental_uris": {"android": "https://dc.lft.to/lastmile_qr_scan", "ios": "https://dc.lft.to/lastmile_qr_scan"}, "is_reserved": 0, "is_disabled": 0, "type": "electric_scooter", "bike_id": "0893dae73ac45bb2af6161c128202b61"}, {"lon": -77.0240225, "lat": 38.88738333333333, "name": "dace8b2619f3092bf2e18ba38e2e47f0", "fusion_lat": 0.0, "fusion_lon": 0.0, "rental_uris": {"android": "https://dc.lft.to/lastmile_qr_scan", "ios": "https://dc.lft.to/lastmile_qr_scan"}, "is_reserved": 0, "is_disabled": 0, "type": "electric_scooter", "bike_id": "dace8b2619f3092bf2e18ba38e2e47f0"}, {"lon": -76.971892, "lat": 38.912615333333335, "name": "97cd0f1e67346d7ea031cdd3857ded1b", "fusion_lat": 0.0, "fusion_lon": 0.0, "rental_uris": {"android": "https://dc.lft.to/lastmile_qr_scan", "ios": "https://dc.lft.to/lastmile_qr_scan"}, "is_reserved": 0, "is_disabled": 0, "type": "electric_scooter", "bike_id": "97cd0f1e67346d7ea031cdd3857ded1b"}, {"lon": -77.01830116666666, "lat": 38.908101333333335, "name": "f6a86bd626a84130ed3b51f712c0d3e6", "fusion_lat": 0.0, "fusion_lon": 0.0, "rental_uris": {"android": "https://dc.lft.to/lastmile_qr_scan", "ios": "https://dc.lft.to/lastmile_qr_scan"}, "is_reserved": 0, "is_disabled": 0, "type": "electric_scooter", "bike_id": "f6a86bd626a84130ed3b51f712c0d3e6"}, {"lon": -77.0107495, "lat": 38.8710895, "name": "f6eb5255e3eefd5da6869a2b8be6110d", "fusion_lat": 0.0, "fusion_lon": 0.0, "rental_uris": {"android": "https://dc.lft.to/lastmile_qr_scan", "ios": "https://dc.lft.to/lastmile_qr_scan"}, "is_reserved": 0, "is_disabled": 0, "type": "electric_scooter", "bike_id": "f6eb5255e3eefd5da6869a2b8be6110d"}, {"lon": -77.109277, "lat": 39.05196466666667, "name": "bf6a38f7dbb2d1dd697430c10e980baa", "fusion_lat": 0.0, "fusion_lon": 0.0, "rental_uris": {"android": "https://dc.lft.to/lastmile_qr_scan", "ios": "https://dc.lft.to/lastmile_qr_scan"}, "is_reserved": 0, "is_disabled": 0, "type": "electric_bike", "bike_id": "bf6a38f7dbb2d1dd697430c10e980baa"}, {"lon": -76.99034683333333, "lat": 38.85865, "name": "90d718889e54167b142ddee89d7cc002", "fusion_lat": 0.0, "fusion_lon": 0.0, "rental_uris": {"android": "https://dc.lft.to/lastmile_qr_scan", "ios": "https://dc.lft.to/lastmile_qr_scan"}, "is_reserved": 0, "is_disabled": 0, "type": "electric_scooter", "bike_id": "90d718889e54167b142ddee89d7cc002"}, {"lon": -77.02318816666667, "lat": 38.8873565, "name": "438cded20935e260df1e5f849fb6afa6", "fusion_lat": 0.0, "fusion_lon": 0.0, "rental_uris": {"android": "https://dc.lft.to/lastmile_qr_scan", "ios": "https://dc.lft.to/lastmile_qr_scan"}, "is_reserved": 0, "is_disabled": 0, "type": "electric_scooter", "bike_id": "438cded20935e260df1e5f849fb6afa6"}, {"lon": -77.02226916666666, "lat": 38.886206333333334, "name": "89e5763fa0d2a54a655d97fa6f82b7bd", "fusion_lat": 0.0, "fusion_lon": 0.0, "rental_uris": {"android": "https://dc.lft.to/lastmile_qr_scan", "ios": "https://dc.lft.to/lastmile_qr_scan"}, "is_reserved": 0, "is_disabled": 0, "type": "electric_bike", "bike_id": "89e5763fa0d2a54a655d97fa6f82b7bd"}, {"lon": -77.001018, "lat": 38.87371266666667, "name": "4ffb8da508eff87afa0567118a4e5bf0", "fusion_lat": 0.0, "fusion_lon": 0.0, "rental_uris": {"android": "https://dc.lft.to/lastmile_qr_scan", "ios": "https://dc.lft.to/lastmile_qr_scan"}, "is_reserved": 0, "is_disabled": 0, "type": "electric_scooter", "bike_id": "4ffb8da508eff87afa0567118a4e5bf0"}, {"lon": -76.9761305, "lat": 38.91306516666667, "name": "361e94fc1498ccd32bae48e0ee6c0714", "fusion_lat": 0.0, "fusion_lon": 0.0, "rental_uris": {"android": "https://dc.lft.to/lastmile_qr_scan", "ios": "https://dc.lft.to/lastmile_qr_scan"}, "is_reserved": 0, "is_disabled": 0, "type": "electric_bike", "bike_id": "361e94fc1498ccd32bae48e0ee6c0714"}, {"lon": -77.022072, "lat": 38.91411683333333, "name": "6968c533b1c39fa8ef1ba2771c748b54", "fusion_lat": 0.0, "fusion_lon": 0.0, "rental_uris": {"android": "https://dc.lft.to/lastmile_qr_scan", "ios": "https://dc.lft.to/lastmile_qr_scan"}, "is_reserved": 0, "is_disabled": 0, "type": "electric_scooter", "bike_id": "6968c533b1c39fa8ef1ba2771c748b54"}, {"lon": -77.02006816666666, "lat": 38.892488, "name": "73acf7a32c519ed2b3b117587af9ccc6", "fusion_lat": 0.0, "fusion_lon": 0.0, "rental_uris": {"android": "https://dc.lft.to/lastmile_qr_scan", "ios": "https://dc.lft.to/lastmile_qr_scan"}, "is_reserved": 0, "is_disabled": 0, "type": "electric_scooter", "bike_id": "73acf7a32c519ed2b3b117587af9ccc6"}, {"lon": -77.02735, "lat": 38.92851116666667, "name": "3ede75be59b298e9246f11a24ac34913", "fusion_lat": 0.0, "fusion_lon": 0.0, "rental_uris": {"android": "https://dc.lft.to/lastmile_qr_scan", "ios": "https://dc.lft.to/lastmile_qr_scan"}, "is_reserved": 0, "is_disabled": 0, "type": "electric_scooter", "bike_id": "3ede75be59b298e9246f11a24ac34913"}, {"lon": -76.998234, "lat": 38.888744833333334, "name": "3bfcd18d3d6fa481d0987dfa782914ec", "fusion_lat": 0.0, "fusion_lon": 0.0, "rental_uris": {"android": "https://dc.lft.to/lastmile_qr_scan", "ios": "https://dc.lft.to/lastmile_qr_scan"}, "is_reserved": 0, "is_disabled": 0, "type": "electric_scooter", "bike_id": "3bfcd18d3d6fa481d0987dfa782914ec"}, {"lon": -77.02558316666666, "lat": 38.88423516666667, "name": "c47a8a1cbad199ca1c9722576dd786d6", "fusion_lat": 0.0, "fusion_lon": 0.0, "rental_uris": {"android": "https://dc.lft.to/lastmile_qr_scan", "ios": "https://dc.lft.to/lastmile_qr_scan"}, "is_reserved": 0, "is_disabled": 0, "type": "electric_scooter", "bike_id": "c47a8a1cbad199ca1c9722576dd786d6"}, {"lon": -76.985353, "lat": 38.883936, "name": "9789fea291b91b2a2ce05f8256004aa8", "fusion_lat": 0.0, "fusion_lon": 0.0, "rental_uris": {"android": "https://dc.lft.to/lastmile_qr_scan", "ios": "https://dc.lft.to/lastmile_qr_scan"}, "is_reserved": 0, "is_disabled": 0, "type": "electric_scooter", "bike_id": "9789fea291b91b2a2ce05f8256004aa8"}, {"lon": -77.03180433333333, "lat": 38.918331, "name": "8f68698902ea3d4918a598f318151e23", "fusion_lat": 0.0, "fusion_lon": 0.0, "rental_uris": {"android": "https://dc.lft.to/lastmile_qr_scan", "ios": "https://dc.lft.to/lastmile_qr_scan"}, "is_reserved": 0, "is_disabled": 0, "type": "electric_scooter", "bike_id": "8f68698902ea3d4918a598f318151e23"}, {"lon": -77.01893216666667, "lat": 38.9118965, "name": "bb13183246c329f3356d4e9563e6adbc", "fusion_lat": 0.0, "fusion_lon": 0.0, "rental_uris": {"android": "https://dc.lft.to/lastmile_qr_scan", "ios": "https://dc.lft.to/lastmile_qr_scan"}, "is_reserved": 0, "is_disabled": 0, "type": "electric_scooter", "bike_id": "bb13183246c329f3356d4e9563e6adbc"}, {"lon": -77.03668966666666, "lat": 38.922790166666665, "name": "d48e6cee2bcbd438ba5a64c888d6f9b5", "fusion_lat": 0.0, "fusion_lon": 0.0, "rental_uris": {"android": "https://dc.lft.to/lastmile_qr_scan", "ios": "https://dc.lft.to/lastmile_qr_scan"}, "is_reserved": 0, "is_disabled": 0, "type": "electric_scooter", "bike_id": "d48e6cee2bcbd438ba5a64c888d6f9b5"}, {"lon": -77.04338916666667, "lat": 38.896519166666664, "name": "e703521bf106cfa764dda3afd00ec522", "fusion_lat": 0.0, "fusion_lon": 0.0, "rental_uris": {"android": "https://dc.lft.to/lastmile_qr_scan", "ios": "https://dc.lft.to/lastmile_qr_scan"}, "is_reserved": 0, "is_disabled": 0, "type": "electric_scooter", "bike_id": "e703521bf106cfa764dda3afd00ec522"}, {"lon": -76.98513416666667, "lat": 38.90608116666667, "name": "3887f10f9b00b3f83b597596d070c1a0", "fusion_lat": 0.0, "fusion_lon": 0.0, "rental_uris": {"android": "https://dc.lft.to/lastmile_qr_scan", "ios": "https://dc.lft.to/lastmile_qr_scan"}, "is_reserved": 0, "is_disabled": 0, "type": "electric_scooter", "bike_id": "3887f10f9b00b3f83b597596d070c1a0"}, {"lon": -77.051773, "lat": 38.924261666666666, "name": "d2ef21c36d3172ed9bee4c6f5d150682", "fusion_lat": 0.0, "fusion_lon": 0.0, "rental_uris": {"android": "https://dc.lft.to/lastmile_qr_scan", "ios": "https://dc.lft.to/lastmile_qr_scan"}, "is_reserved": 0, "is_disabled": 0, "type": "electric_scooter", "bike_id": "d2ef21c36d3172ed9bee4c6f5d150682"}, {"lon": -76.99959183333333, "lat": 38.908641, "name": "5ca387d06bad7374e9979e4a90563467", "fusion_lat": 0.0, "fusion_lon": 0.0, "rental_uris": {"android": "https://dc.lft.to/lastmile_qr_scan", "ios": "https://dc.lft.to/lastmile_qr_scan"}, "is_reserved": 0, "is_disabled": 0, "type": "electric_scooter", "bike_id": "5ca387d06bad7374e9979e4a90563467"}, {"lon": -77.0323335, "lat": 38.91484366666667, "name": "78ec66a672c15004df03a2842a7bb2d0", "fusion_lat": 0.0, "fusion_lon": 0.0, "rental_uris": {"android": "https://dc.lft.to/lastmile_qr_scan", "ios": "https://dc.lft.to/lastmile_qr_scan"}, "is_reserved": 0, "is_disabled": 0, "type": "electric_scooter", "bike_id": "78ec66a672c15004df03a2842a7bb2d0"}, {"lon": -77.00212083333334, "lat": 38.9237695, "name": "5f91f194802048d95745d702671d6088", "fusion_lat": 0.0, "fusion_lon": 0.0, "rental_uris": {"android": "https://dc.lft.to/lastmile_qr_scan", "ios": "https://dc.lft.to/lastmile_qr_scan"}, "is_reserved": 0, "is_disabled": 0, "type": "electric_bike", "bike_id": "5f91f194802048d95745d702671d6088"}, {"lon": -76.9955175, "lat": 38.862322666666664, "name": "81640b801b52f20c8de5ecdfaa486af1", "fusion_lat": 0.0, "fusion_lon": 0.0, "rental_uris": {"android": "https://dc.lft.to/lastmile_qr_scan", "ios": "https://dc.lft.to/lastmile_qr_scan"}, "is_reserved": 0, "is_disabled": 0, "type": "electric_scooter", "bike_id": "81640b801b52f20c8de5ecdfaa486af1"}, {"lon": -77.05451966666666, "lat": 38.92812683333333, "name": "26a14f4f61ada8831186573e43e62aa7", "fusion_lat": 0.0, "fusion_lon": 0.0, "rental_uris": {"android": "https://dc.lft.to/lastmile_qr_scan", "ios": "https://dc.lft.to/lastmile_qr_scan"}, "is_reserved": 0, "is_disabled": 0, "type": "electric_scooter", "bike_id": "26a14f4f61ada8831186573e43e62aa7"}, {"lon": -76.99849116666667, "lat": 38.900452666666666, "name": "a82112ab67fe26a1df26d4fcb63fbcf3", "fusion_lat": 0.0, "fusion_lon": 0.0, "rental_uris": {"android": "https://dc.lft.to/lastmile_qr_scan", "ios": "https://dc.lft.to/lastmile_qr_scan"}, "is_reserved": 0, "is_disabled": 0, "type": "electric_scooter", "bike_id": "a82112ab67fe26a1df26d4fcb63fbcf3"}, {"lon": -77.010246, "lat": 38.91804283333333, "name": "c9f0a4090aa62d84be857b9f4447e443", "fusion_lat": 0.0, "fusion_lon": 0.0, "rental_uris": {"android": "https://dc.lft.to/lastmile_qr_scan", "ios": "https://dc.lft.to/lastmile_qr_scan"}, "is_reserved": 0, "is_disabled": 0, "type": "electric_scooter", "bike_id": "c9f0a4090aa62d84be857b9f4447e443"}, {"lon": -76.989995, "lat": 38.903865, "name": "dddb24df26ebb0fbe6fbc8e4df3dbca5", "fusion_lat": 0.0, "fusion_lon": 0.0, "rental_uris": {"android": "https://dc.lft.to/lastmile_qr_scan", "ios": "https://dc.lft.to/lastmile_qr_scan"}, "is_reserved": 0, "is_disabled": 0, "type": "electric_scooter", "bike_id": "dddb24df26ebb0fbe6fbc8e4df3dbca5"}, {"lon": -77.03723633333334, "lat": 38.926619, "name": "1789dd9c57927bb6474f42bec3a75c32", "fusion_lat": 0.0, "fusion_lon": 0.0, "rental_uris": {"android": "https://dc.lft.to/lastmile_qr_scan", "ios": "https://dc.lft.to/lastmile_qr_scan"}, "is_reserved": 0, "is_disabled": 0, "type": "electric_scooter", "bike_id": "1789dd9c57927bb6474f42bec3a75c32"}, {"lon": -76.98001333333333, "lat": 38.90102916666667, "name": "6e98c66ab9f6d7d620c65809e45e15da", "fusion_lat": 0.0, "fusion_lon": 0.0, "rental_uris": {"android": "https://dc.lft.to/lastmile_qr_scan", "ios": "https://dc.lft.to/lastmile_qr_scan"}, "is_reserved": 0, "is_disabled": 0, "type": "electric_scooter", "bike_id": "6e98c66ab9f6d7d620c65809e45e15da"}, {"lon": -77.03149233333333, "lat": 38.91397883333333, "name": "b134d564317d622d3a80ef468c891c29", "fusion_lat": 0.0, "fusion_lon": 0.0, "rental_uris": {"android": "https://dc.lft.to/lastmile_qr_scan", "ios": "https://dc.lft.to/lastmile_qr_scan"}, "is_reserved": 0, "is_disabled": 0, "type": "electric_scooter", "bike_id": "b134d564317d622d3a80ef468c891c29"}, {"lon": -77.02890683333334, "lat": 38.900345, "name": "05eec8a54fce04db58370713b2cce88c", "fusion_lat": 0.0, "fusion_lon": 0.0, "rental_uris": {"android": "https://dc.lft.to/lastmile_qr_scan", "ios": "https://dc.lft.to/lastmile_qr_scan"}, "is_reserved": 0, "is_disabled": 0, "type": "electric_scooter", "bike_id": "05eec8a54fce04db58370713b2cce88c"}, {"lon": -77.04375433333334, "lat": 38.90715133333333, "name": "f13be594f241290d9c91daafb6a3c1fe", "fusion_lat": 0.0, "fusion_lon": 0.0, "rental_uris": {"android": "https://dc.lft.to/lastmile_qr_scan", "ios": "https://dc.lft.to/lastmile_qr_scan"}, "is_reserved": 0, "is_disabled": 0, "type": "electric_scooter", "bike_id": "f13be594f241290d9c91daafb6a3c1fe"}, {"lon": -76.99015283333334, "lat": 38.8611065, "name": "023ac760f3d5865b07aa06ed55450988", "fusion_lat": 0.0, "fusion_lon": 0.0, "rental_uris": {"android": "https://dc.lft.to/lastmile_qr_scan", "ios": "https://dc.lft.to/lastmile_qr_scan"}, "is_reserved": 0, "is_disabled": 0, "type": "electric_scooter", "bike_id": "023ac760f3d5865b07aa06ed55450988"}, {"lon": -77.02421333333334, "lat": 38.93696766666667, "name": "8c64d07e53dc2e7a7c887290e3dfdcd7", "fusion_lat": 0.0, "fusion_lon": 0.0, "rental_uris": {"android": "https://dc.lft.to/lastmile_qr_scan", "ios": "https://dc.lft.to/lastmile_qr_scan"}, "is_reserved": 0, "is_disabled": 0, "type": "electric_scooter", "bike_id": "8c64d07e53dc2e7a7c887290e3dfdcd7"}, {"lon": -77.01765933333333, "lat": 38.902668166666665, "name": "8264941dc0f8ac4e1d771477867b5acd", "fusion_lat": 0.0, "fusion_lon": 0.0, "rental_uris": {"android": "https://dc.lft.to/lastmile_qr_scan", "ios": "https://dc.lft.to/lastmile_qr_scan"}, "is_reserved": 0, "is_disabled": 0, "type": "electric_scooter", "bike_id": "8264941dc0f8ac4e1d771477867b5acd"}, {"lon": -77.044824, "lat": 38.907574833333335, "name": "0f7863096dbdf2aa4fe0a0098bd7c167", "fusion_lat": 0.0, "fusion_lon": 0.0, "rental_uris": {"android": "https://dc.lft.to/lastmile_qr_scan", "ios": "https://dc.lft.to/lastmile_qr_scan"}, "is_reserved": 0, "is_disabled": 0, "type": "electric_scooter", "bike_id": "0f7863096dbdf2aa4fe0a0098bd7c167"}, {"lon": -77.02383216666666, "lat": 38.907467833333335, "name": "edef790e1818b664be75c96570a23663", "fusion_lat": 0.0, "fusion_lon": 0.0, "rental_uris": {"android": "https://dc.lft.to/lastmile_qr_scan", "ios": "https://dc.lft.to/lastmile_qr_scan"}, "is_reserved": 0, "is_disabled": 0, "type": "electric_scooter", "bike_id": "edef790e1818b664be75c96570a23663"}, {"lon": -76.996336, "lat": 38.84617683333333, "name": "594ee5bb104b0138aa1aa3b47e5727b2", "fusion_lat": 0.0, "fusion_lon": 0.0, "rental_uris": {"android": "https://dc.lft.to/lastmile_qr_scan", "ios": "https://dc.lft.to/lastmile_qr_scan"}, "is_reserved": 0, "is_disabled": 0, "type": "electric_scooter", "bike_id": "594ee5bb104b0138aa1aa3b47e5727b2"}, {"lon": -76.94761933333334, "lat": 38.90059466666666, "name": "b4a5433787dc1b0480f06ee65ee9c16a", "fusion_lat": 0.0, "fusion_lon": 0.0, "rental_uris": {"android": "https://dc.lft.to/lastmile_qr_scan", "ios": "https://dc.lft.to/lastmile_qr_scan"}, "is_reserved": 0, "is_disabled": 0, "type": "electric_scooter", "bike_id": "b4a5433787dc1b0480f06ee65ee9c16a"}, {"lon": -77.03071833333334, "lat": 38.92244733333333, "name": "9c2fa1ebae3aed6fe377ae3748fb41c4", "fusion_lat": 0.0, "fusion_lon": 0.0, "rental_uris": {"android": "https://dc.lft.to/lastmile_qr_scan", "ios": "https://dc.lft.to/lastmile_qr_scan"}, "is_reserved": 0, "is_disabled": 0, "type": "electric_scooter", "bike_id": "9c2fa1ebae3aed6fe377ae3748fb41c4"}, {"lon": -77.02175983333333, "lat": 38.88742533333333, "name": "b85d3867451b6e356606ba73a3825b10", "fusion_lat": 0.0, "fusion_lon": 0.0, "rental_uris": {"android": "https://dc.lft.to/lastmile_qr_scan", "ios": "https://dc.lft.to/lastmile_qr_scan"}, "is_reserved": 0, "is_disabled": 0, "type": "electric_scooter", "bike_id": "b85d3867451b6e356606ba73a3825b10"}, {"lon": -77.02301833333334, "lat": 38.96562766666667, "name": "f4fe7018e6c13958b0e71fc4c6e6e7d0", "fusion_lat": 0.0, "fusion_lon": 0.0, "rental_uris": {"android": "https://dc.lft.to/lastmile_qr_scan", "ios": "https://dc.lft.to/lastmile_qr_scan"}, "is_reserved": 0, "is_disabled": 0, "type": "electric_bike", "bike_id": "f4fe7018e6c13958b0e71fc4c6e6e7d0"}, {"lon": -77.0213775, "lat": 38.937597, "name": "166da99b136b8b4c88088d05671d2421", "fusion_lat": 0.0, "fusion_lon": 0.0, "rental_uris": {"android": "https://dc.lft.to/lastmile_qr_scan", "ios": "https://dc.lft.to/lastmile_qr_scan"}, "is_reserved": 0, "is_disabled": 0, "type": "electric_scooter", "bike_id": "166da99b136b8b4c88088d05671d2421"}, {"lon": -76.9944925, "lat": 38.90025266666667, "name": "84ed76649d25973d992feb9c0534f31d", "fusion_lat": 0.0, "fusion_lon": 0.0, "rental_uris": {"android": "https://dc.lft.to/lastmile_qr_scan", "ios": "https://dc.lft.to/lastmile_qr_scan"}, "is_reserved": 0, "is_disabled": 0, "type": "electric_scooter", "bike_id": "84ed76649d25973d992feb9c0534f31d"}, {"lon": -77.01969683333333, "lat": 38.901256833333335, "name": "42703b49eb5b87ba45aa12c1f19714e2", "fusion_lat": 0.0, "fusion_lon": 0.0, "rental_uris": {"android": "https://dc.lft.to/lastmile_qr_scan", "ios": "https://dc.lft.to/lastmile_qr_scan"}, "is_reserved": 0, "is_disabled": 0, "type": "electric_scooter", "bike_id": "42703b49eb5b87ba45aa12c1f19714e2"}, {"lon": -77.06609633333333, "lat": 38.90522966666666, "name": "aca000bc31f6ab2db9e5e2fa15d74f21", "fusion_lat": 0.0, "fusion_lon": 0.0, "rental_uris": {"android": "https://dc.lft.to/lastmile_qr_scan", "ios": "https://dc.lft.to/lastmile_qr_scan"}, "is_reserved": 0, "is_disabled": 0, "type": "electric_scooter", "bike_id": "aca000bc31f6ab2db9e5e2fa15d74f21"}, {"lon": -77.0267765, "lat": 38.997484666666665, "name": "2d12cd2ffb2dbc6aaabf99b719914d3d", "fusion_lat": 0.0, "fusion_lon": 0.0, "rental_uris": {"android": "https://dc.lft.to/lastmile_qr_scan", "ios": "https://dc.lft.to/lastmile_qr_scan"}, "is_reserved": 0, "is_disabled": 0, "type": "electric_bike", "bike_id": "2d12cd2ffb2dbc6aaabf99b719914d3d"}, {"lon": -77.04405166666666, "lat": 38.9107945, "name": "f13fed06253ee68d7edb4b593e6b5169", "fusion_lat": 0.0, "fusion_lon": 0.0, "rental_uris": {"android": "https://dc.lft.to/lastmile_qr_scan", "ios": "https://dc.lft.to/lastmile_qr_scan"}, "is_reserved": 0, "is_disabled": 0, "type": "electric_scooter", "bike_id": "f13fed06253ee68d7edb4b593e6b5169"}, {"lon": -77.02021033333334, "lat": 38.9025395, "name": "adc3bc4bb2cab53d86296dfbf79fb839", "fusion_lat": 0.0, "fusion_lon": 0.0, "rental_uris": {"android": "https://dc.lft.to/lastmile_qr_scan", "ios": "https://dc.lft.to/lastmile_qr_scan"}, "is_reserved": 0, "is_disabled": 0, "type": "electric_scooter", "bike_id": "adc3bc4bb2cab53d86296dfbf79fb839"}, {"lon": -77.06910166666667, "lat": 38.9074705, "name": "7f31263f5b5194aa981d997e9bb52108", "fusion_lat": 0.0, "fusion_lon": 0.0, "rental_uris": {"android": "https://dc.lft.to/lastmile_qr_scan", "ios": "https://dc.lft.to/lastmile_qr_scan"}, "is_reserved": 0, "is_disabled": 0, "type": "electric_scooter", "bike_id": "7f31263f5b5194aa981d997e9bb52108"}, {"lon": -77.107188, "lat": 38.855375333333335, "name": "d795126926b7c3463125a2dec5cd92f5", "fusion_lat": 0.0, "fusion_lon": 0.0, "rental_uris": {"android": "https://dc.lft.to/lastmile_qr_scan", "ios": "https://dc.lft.to/lastmile_qr_scan"}, "is_reserved": 0, "is_disabled": 0, "type": "electric_bike", "bike_id": "d795126926b7c3463125a2dec5cd92f5"}, {"lon": -77.06393433333334, "lat": 38.92902866666667, "name": "6ebc403a33a8d2e195bd0fabc4732ee9", "fusion_lat": 0.0, "fusion_lon": 0.0, "rental_uris": {"android": "https://dc.lft.to/lastmile_qr_scan", "ios": "https://dc.lft.to/lastmile_qr_scan"}, "is_reserved": 0, "is_disabled": 0, "type": "electric_scooter", "bike_id": "6ebc403a33a8d2e195bd0fabc4732ee9"}, {"lon": -77.04375316666666, "lat": 38.8922275, "name": "9716538e7fea27bbf12cba10f1225123", "fusion_lat": 0.0, "fusion_lon": 0.0, "rental_uris": {"android": "https://dc.lft.to/lastmile_qr_scan", "ios": "https://dc.lft.to/lastmile_qr_scan"}, "is_reserved": 0, "is_disabled": 0, "type": "electric_scooter", "bike_id": "9716538e7fea27bbf12cba10f1225123"}, {"lon": -76.94719483333333, "lat": 38.8968405, "name": "364b10bb0d56cd1e5f4638db8c1d3863", "fusion_lat": 0.0, "fusion_lon": 0.0, "rental_uris": {"android": "https://dc.lft.to/lastmile_qr_scan", "ios": "https://dc.lft.to/lastmile_qr_scan"}, "is_reserved": 0, "is_disabled": 0, "type": "electric_scooter", "bike_id": "364b10bb0d56cd1e5f4638db8c1d3863"}, {"lon": -77.12812133333334, "lat": 38.8653775, "name": "28d72bfacc9c12943f253a484ec41c87", "fusion_lat": 0.0, "fusion_lon": 0.0, "rental_uris": {"android": "https://dc.lft.to/lastmile_qr_scan", "ios": "https://dc.lft.to/lastmile_qr_scan"}, "is_reserved": 0, "is_disabled": 0, "type": "electric_bike", "bike_id": "28d72bfacc9c12943f253a484ec41c87"}, {"lon": -77.07049983333333, "lat": 38.8244435, "name": "0d29ac1f934c28026e2f148c503e1b9a", "fusion_lat": 0.0, "fusion_lon": 0.0, "rental_uris": {"android": "https://dc.lft.to/lastmile_qr_scan", "ios": "https://dc.lft.to/lastmile_qr_scan"}, "is_reserved": 0, "is_disabled": 0, "type": "electric_bike", "bike_id": "0d29ac1f934c28026e2f148c503e1b9a"}, {"lon": -77.01701233333333, "lat": 38.90501033333334, "name": "ae9da9496bfd68e3b26574a0b7e5504e", "fusion_lat": 0.0, "fusion_lon": 0.0, "rental_uris": {"android": "https://dc.lft.to/lastmile_qr_scan", "ios": "https://dc.lft.to/lastmile_qr_scan"}, "is_reserved": 0, "is_disabled": 0, "type": "electric_scooter", "bike_id": "ae9da9496bfd68e3b26574a0b7e5504e"}, {"lon": -77.06891533333334, "lat": 38.940263, "name": "8729d8da33b2049e0ba818c15ef06115", "fusion_lat": 0.0, "fusion_lon": 0.0, "rental_uris": {"android": "https://dc.lft.to/lastmile_qr_scan", "ios": "https://dc.lft.to/lastmile_qr_scan"}, "is_reserved": 0, "is_disabled": 0, "type": "electric_scooter", "bike_id": "8729d8da33b2049e0ba818c15ef06115"}, {"lon": -77.12982633333333, "lat": 38.7998305, "name": "26b754d1f36e69279d4869d0dda0e75b", "fusion_lat": 0.0, "fusion_lon": 0.0, "rental_uris": {"android": "https://dc.lft.to/lastmile_qr_scan", "ios": "https://dc.lft.to/lastmile_qr_scan"}, "is_reserved": 0, "is_disabled": 0, "type": "electric_bike", "bike_id": "26b754d1f36e69279d4869d0dda0e75b"}, {"lon": -77.049029, "lat": 38.913383, "name": "e4c9fa4503229d14adc2a7c09b1e5a9f", "fusion_lat": 0.0, "fusion_lon": 0.0, "rental_uris": {"android": "https://dc.lft.to/lastmile_qr_scan", "ios": "https://dc.lft.to/lastmile_qr_scan"}, "is_reserved": 0, "is_disabled": 0, "type": "electric_scooter", "bike_id": "e4c9fa4503229d14adc2a7c09b1e5a9f"}, {"lon": -77.02547866666667, "lat": 38.892261500000004, "name": "03c7a6ada410f3cc501fc3b674ddb1ea", "fusion_lat": 0.0, "fusion_lon": 0.0, "rental_uris": {"android": "https://dc.lft.to/lastmile_qr_scan", "ios": "https://dc.lft.to/lastmile_qr_scan"}, "is_reserved": 0, "is_disabled": 0, "type": "electric_scooter", "bike_id": "03c7a6ada410f3cc501fc3b674ddb1ea"}, {"lon": -77.01299166666666, "lat": 39.003788666666665, "name": "c8150467d6d6338dd903c2a54469651c", "fusion_lat": 0.0, "fusion_lon": 0.0, "rental_uris": {"android": "https://dc.lft.to/lastmile_qr_scan", "ios": "https://dc.lft.to/lastmile_qr_scan"}, "is_reserved": 0, "is_disabled": 0, "type": "electric_bike", "bike_id": "c8150467d6d6338dd903c2a54469651c"}, {"lon": -77.011258, "lat": 38.903583, "name": "2f67c5a7719238ac607442abae5d651b", "fusion_lat": 0.0, "fusion_lon": 0.0, "rental_uris": {"android": "https://dc.lft.to/lastmile_qr_scan", "ios": "https://dc.lft.to/lastmile_qr_scan"}, "is_reserved": 0, "is_disabled": 0, "type": "electric_scooter", "bike_id": "2f67c5a7719238ac607442abae5d651b"}, {"lon": -77.000613, "lat": 38.888964, "name": "ea66fdaca58b86201f3788c144c40f88", "fusion_lat": 0.0, "fusion_lon": 0.0, "rental_uris": {"android": "https://dc.lft.to/lastmile_qr_scan", "ios": "https://dc.lft.to/lastmile_qr_scan"}, "is_reserved": 0, "is_disabled": 0, "type": "electric_scooter", "bike_id": "ea66fdaca58b86201f3788c144c40f88"}, {"lon": -77.04514816666666, "lat": 38.88605116666667, "name": "f9b06dde0101b445b7ad2b8b01eccdf6", "fusion_lat": 0.0, "fusion_lon": 0.0, "rental_uris": {"android": "https://dc.lft.to/lastmile_qr_scan", "ios": "https://dc.lft.to/lastmile_qr_scan"}, "is_reserved": 0, "is_disabled": 0, "type": "electric_scooter", "bike_id": "f9b06dde0101b445b7ad2b8b01eccdf6"}, {"lon": -77.044875, "lat": 38.911627833333334, "name": "4465966b8861be77252c2ebdee88b8fe", "fusion_lat": 0.0, "fusion_lon": 0.0, "rental_uris": {"android": "https://dc.lft.to/lastmile_qr_scan", "ios": "https://dc.lft.to/lastmile_qr_scan"}, "is_reserved": 0, "is_disabled": 0, "type": "electric_scooter", "bike_id": "4465966b8861be77252c2ebdee88b8fe"}, {"lon": -76.94845666666667, "lat": 38.8948485, "name": "daf80a75c78ae85994fac09a58289ac7", "fusion_lat": 0.0, "fusion_lon": 0.0, "rental_uris": {"android": "https://dc.lft.to/lastmile_qr_scan", "ios": "https://dc.lft.to/lastmile_qr_scan"}, "is_reserved": 0, "is_disabled": 0, "type": "electric_scooter", "bike_id": "daf80a75c78ae85994fac09a58289ac7"}, {"lon": -77.04001683333334, "lat": 38.914119666666664, "name": "2fbecec3180062ff5059929de560a983", "fusion_lat": 0.0, "fusion_lon": 0.0, "rental_uris": {"android": "https://dc.lft.to/lastmile_qr_scan", "ios": "https://dc.lft.to/lastmile_qr_scan"}, "is_reserved": 0, "is_disabled": 0, "type": "electric_scooter", "bike_id": "2fbecec3180062ff5059929de560a983"}, {"lon": -77.02269766666667, "lat": 38.893666, "name": "0c18adcec2b06e638afa8e96a322be7a", "fusion_lat": 0.0, "fusion_lon": 0.0, "rental_uris": {"android": "https://dc.lft.to/lastmile_qr_scan", "ios": "https://dc.lft.to/lastmile_qr_scan"}, "is_reserved": 0, "is_disabled": 0, "type": "electric_scooter", "bike_id": "0c18adcec2b06e638afa8e96a322be7a"}, {"lon": -77.03188033333333, "lat": 38.91600116666667, "name": "f4fea5add96c1787d2a3d1f732debc55", "fusion_lat": 0.0, "fusion_lon": 0.0, "rental_uris": {"android": "https://dc.lft.to/lastmile_qr_scan", "ios": "https://dc.lft.to/lastmile_qr_scan"}, "is_reserved": 0, "is_disabled": 0, "type": "electric_scooter", "bike_id": "f4fea5add96c1787d2a3d1f732debc55"}, {"lon": -77.00269766666666, "lat": 38.8775095, "name": "96c618f99152ca45adcedde7e3915cc1", "fusion_lat": 0.0, "fusion_lon": 0.0, "rental_uris": {"android": "https://dc.lft.to/lastmile_qr_scan", "ios": "https://dc.lft.to/lastmile_qr_scan"}, "is_reserved": 0, "is_disabled": 0, "type": "electric_scooter", "bike_id": "96c618f99152ca45adcedde7e3915cc1"}, {"lon": -77.00211616666667, "lat": 38.904745, "name": "2ecc38ed1de25ee45ab2b7ddd781a823", "fusion_lat": 0.0, "fusion_lon": 0.0, "rental_uris": {"android": "https://dc.lft.to/lastmile_qr_scan", "ios": "https://dc.lft.to/lastmile_qr_scan"}, "is_reserved": 0, "is_disabled": 0, "type": "electric_scooter", "bike_id": "2ecc38ed1de25ee45ab2b7ddd781a823"}, {"lon": -77.01230333333334, "lat": 38.900385666666665, "name": "0d5a0da0f02dae77c7ecaa2b2faa33c7", "fusion_lat": 0.0, "fusion_lon": 0.0, "rental_uris": {"android": "https://dc.lft.to/lastmile_qr_scan", "ios": "https://dc.lft.to/lastmile_qr_scan"}, "is_reserved": 0, "is_disabled": 0, "type": "electric_scooter", "bike_id": "0d5a0da0f02dae77c7ecaa2b2faa33c7"}, {"lon": -77.04039866666666, "lat": 38.91707183333333, "name": "5c56b3bbf47e8f3b5bcd6de84cc96e66", "fusion_lat": 0.0, "fusion_lon": 0.0, "rental_uris": {"android": "https://dc.lft.to/lastmile_qr_scan", "ios": "https://dc.lft.to/lastmile_qr_scan"}, "is_reserved": 0, "is_disabled": 0, "type": "electric_scooter", "bike_id": "5c56b3bbf47e8f3b5bcd6de84cc96e66"}, {"lon": -77.04373433333333, "lat": 38.9112115, "name": "48b11cc9a9686da0f9b11947dbf4df38", "fusion_lat": 0.0, "fusion_lon": 0.0, "rental_uris": {"android": "https://dc.lft.to/lastmile_qr_scan", "ios": "https://dc.lft.to/lastmile_qr_scan"}, "is_reserved": 0, "is_disabled": 0, "type": "electric_scooter", "bike_id": "48b11cc9a9686da0f9b11947dbf4df38"}, {"lon": -76.96558633333333, "lat": 38.95095583333333, "name": "fe25c6f3729770eb49bc131fc61a7c0d", "fusion_lat": 0.0, "fusion_lon": 0.0, "rental_uris": {"android": "https://dc.lft.to/lastmile_qr_scan", "ios": "https://dc.lft.to/lastmile_qr_scan"}, "is_reserved": 0, "is_disabled": 0, "type": "electric_bike", "bike_id": "fe25c6f3729770eb49bc131fc61a7c0d"}, {"lon": -77.01374566666667, "lat": 38.9284815, "name": "99b3f32497ad23999bb85a43b5dbc6c1", "fusion_lat": 0.0, "fusion_lon": 0.0, "rental_uris": {"android": "https://dc.lft.to/lastmile_qr_scan", "ios": "https://dc.lft.to/lastmile_qr_scan"}, "is_reserved": 0, "is_disabled": 0, "type": "electric_scooter", "bike_id": "99b3f32497ad23999bb85a43b5dbc6c1"}, {"lon": -77.07856116666666, "lat": 38.93116216666667, "name": "905da4af5d1af9a714217fa21a56bb7c", "fusion_lat": 0.0, "fusion_lon": 0.0, "rental_uris": {"android": "https://dc.lft.to/lastmile_qr_scan", "ios": "https://dc.lft.to/lastmile_qr_scan"}, "is_reserved": 0, "is_disabled": 0, "type": "electric_scooter", "bike_id": "905da4af5d1af9a714217fa21a56bb7c"}, {"lon": -77.02187116666667, "lat": 38.9097635, "name": "da5b2f300db3b03ac6926cc591376a02", "fusion_lat": 0.0, "fusion_lon": 0.0, "rental_uris": {"android": "https://dc.lft.to/lastmile_qr_scan", "ios": "https://dc.lft.to/lastmile_qr_scan"}, "is_reserved": 0, "is_disabled": 0, "type": "electric_scooter", "bike_id": "da5b2f300db3b03ac6926cc591376a02"}, {"lon": -77.04700083333333, "lat": 38.9210645, "name": "4d6bebccef7a4483d2e3e9c1d47dfcfb", "fusion_lat": 0.0, "fusion_lon": 0.0, "rental_uris": {"android": "https://dc.lft.to/lastmile_qr_scan", "ios": "https://dc.lft.to/lastmile_qr_scan"}, "is_reserved": 0, "is_disabled": 0, "type": "electric_scooter", "bike_id": "4d6bebccef7a4483d2e3e9c1d47dfcfb"}, {"lon": -76.9868425, "lat": 38.8821505, "name": "9af8a9933ce434b5a149fcc9d47dd294", "fusion_lat": 0.0, "fusion_lon": 0.0, "rental_uris": {"android": "https://dc.lft.to/lastmile_qr_scan", "ios": "https://dc.lft.to/lastmile_qr_scan"}, "is_reserved": 0, "is_disabled": 0, "type": "electric_scooter", "bike_id": "9af8a9933ce434b5a149fcc9d47dd294"}, {"lon": -76.99067283333333, "lat": 38.92660333333333, "name": "5270b2580dcad25539c50bfc98dc5b38", "fusion_lat": 0.0, "fusion_lon": 0.0, "rental_uris": {"android": "https://dc.lft.to/lastmile_qr_scan", "ios": "https://dc.lft.to/lastmile_qr_scan"}, "is_reserved": 0, "is_disabled": 0, "type": "electric_scooter", "bike_id": "5270b2580dcad25539c50bfc98dc5b38"}, {"lon": -77.05755166666667, "lat": 38.904959166666664, "name": "d3cb5576f47b0cb00f5e4129f370a8a8", "fusion_lat": 0.0, "fusion_lon": 0.0, "rental_uris": {"android": "https://dc.lft.to/lastmile_qr_scan", "ios": "https://dc.lft.to/lastmile_qr_scan"}, "is_reserved": 0, "is_disabled": 0, "type": "electric_scooter", "bike_id": "d3cb5576f47b0cb00f5e4129f370a8a8"}, {"lon": -77.02345783333334, "lat": 38.93592966666667, "name": "6bb54020980398ff01400afb9c7acef3", "fusion_lat": 0.0, "fusion_lon": 0.0, "rental_uris": {"android": "https://dc.lft.to/lastmile_qr_scan", "ios": "https://dc.lft.to/lastmile_qr_scan"}, "is_reserved": 0, "is_disabled": 0, "type": "electric_scooter", "bike_id": "6bb54020980398ff01400afb9c7acef3"}, {"lon": -77.02849566666667, "lat": 38.96497133333333, "name": "54b4fec0ce6c8d9ca5f025d36f88c9e7", "fusion_lat": 0.0, "fusion_lon": 0.0, "rental_uris": {"android": "https://dc.lft.to/lastmile_qr_scan", "ios": "https://dc.lft.to/lastmile_qr_scan"}, "is_reserved": 0, "is_disabled": 0, "type": "electric_scooter", "bike_id": "54b4fec0ce6c8d9ca5f025d36f88c9e7"}, {"lon": -76.97961483333333, "lat": 38.903813166666666, "name": "13460d90bb2438880edd1910411f9eb6", "fusion_lat": 0.0, "fusion_lon": 0.0, "rental_uris": {"android": "https://dc.lft.to/lastmile_qr_scan", "ios": "https://dc.lft.to/lastmile_qr_scan"}, "is_reserved": 0, "is_disabled": 0, "type": "electric_scooter", "bike_id": "13460d90bb2438880edd1910411f9eb6"}, {"lon": -77.0328195, "lat": 38.910190166666666, "name": "134c3c38d1655300217ae3be544a196d", "fusion_lat": 0.0, "fusion_lon": 0.0, "rental_uris": {"android": "https://dc.lft.to/lastmile_qr_scan", "ios": "https://dc.lft.to/lastmile_qr_scan"}, "is_reserved": 0, "is_disabled": 0, "type": "electric_scooter", "bike_id": "134c3c38d1655300217ae3be544a196d"}, {"lon": -77.03286866666667, "lat": 38.93981866666667, "name": "bd52848910c62b6821ea3ee72a4fb6ca", "fusion_lat": 0.0, "fusion_lon": 0.0, "rental_uris": {"android": "https://dc.lft.to/lastmile_qr_scan", "ios": "https://dc.lft.to/lastmile_qr_scan"}, "is_reserved": 0, "is_disabled": 0, "type": "electric_scooter", "bike_id": "bd52848910c62b6821ea3ee72a4fb6ca"}, {"lon": -77.02418166666666, "lat": 38.919185, "name": "01ccb7eacccccbacceee8a0474bd90ed", "fusion_lat": 0.0, "fusion_lon": 0.0, "rental_uris": {"android": "https://dc.lft.to/lastmile_qr_scan", "ios": "https://dc.lft.to/lastmile_qr_scan"}, "is_reserved": 0, "is_disabled": 0, "type": "electric_scooter", "bike_id": "01ccb7eacccccbacceee8a0474bd90ed"}, {"lon": -77.06031033333333, "lat": 38.93919533333333, "name": "8247b2a84e8c4466ab33a84593626a14", "fusion_lat": 0.0, "fusion_lon": 0.0, "rental_uris": {"android": "https://dc.lft.to/lastmile_qr_scan", "ios": "https://dc.lft.to/lastmile_qr_scan"}, "is_reserved": 0, "is_disabled": 0, "type": "electric_scooter", "bike_id": "8247b2a84e8c4466ab33a84593626a14"}, {"lon": -77.02834433333334, "lat": 38.89226683333333, "name": "02eaa9c037f39f81cbb0a3ea57572cf9", "fusion_lat": 0.0, "fusion_lon": 0.0, "rental_uris": {"android": "https://dc.lft.to/lastmile_qr_scan", "ios": "https://dc.lft.to/lastmile_qr_scan"}, "is_reserved": 0, "is_disabled": 0, "type": "electric_scooter", "bike_id": "02eaa9c037f39f81cbb0a3ea57572cf9"}, {"lon": -77.02188283333334, "lat": 38.9097595, "name": "a47cc8835558acf3eca71bddd34fe6dc", "fusion_lat": 0.0, "fusion_lon": 0.0, "rental_uris": {"android": "https://dc.lft.to/lastmile_qr_scan", "ios": "https://dc.lft.to/lastmile_qr_scan"}, "is_reserved": 0, "is_disabled": 0, "type": "electric_scooter", "bike_id": "a47cc8835558acf3eca71bddd34fe6dc"}, {"lon": -76.983552, "lat": 38.915289666666666, "name": "a065645a164f468e6686faad1c078b93", "fusion_lat": 0.0, "fusion_lon": 0.0, "rental_uris": {"android": "https://dc.lft.to/lastmile_qr_scan", "ios": "https://dc.lft.to/lastmile_qr_scan"}, "is_reserved": 0, "is_disabled": 0, "type": "electric_scooter", "bike_id": "a065645a164f468e6686faad1c078b93"}, {"lon": -77.03936733333333, "lat": 38.8987475, "name": "2eec7e6c1beb97daf8318584efec6461", "fusion_lat": 0.0, "fusion_lon": 0.0, "rental_uris": {"android": "https://dc.lft.to/lastmile_qr_scan", "ios": "https://dc.lft.to/lastmile_qr_scan"}, "is_reserved": 0, "is_disabled": 0, "type": "electric_scooter", "bike_id": "2eec7e6c1beb97daf8318584efec6461"}, {"lon": -77.00750866666667, "lat": 38.90367633333334, "name": "4d055d8d1aa433a637d755aa2909686f", "fusion_lat": 0.0, "fusion_lon": 0.0, "rental_uris": {"android": "https://dc.lft.to/lastmile_qr_scan", "ios": "https://dc.lft.to/lastmile_qr_scan"}, "is_reserved": 0, "is_disabled": 0, "type": "electric_scooter", "bike_id": "4d055d8d1aa433a637d755aa2909686f"}, {"lon": -76.9334495, "lat": 38.89906383333334, "name": "90c84fe8fcf24f5889eb5c26a3b18304", "fusion_lat": 0.0, "fusion_lon": 0.0, "rental_uris": {"android": "https://dc.lft.to/lastmile_qr_scan", "ios": "https://dc.lft.to/lastmile_qr_scan"}, "is_reserved": 0, "is_disabled": 0, "type": "electric_scooter", "bike_id": "90c84fe8fcf24f5889eb5c26a3b18304"}, {"lon": -77.05143583333333, "lat": 38.906286, "name": "62d7d4b87d3e4f5a409b201113c99ec9", "fusion_lat": 0.0, "fusion_lon": 0.0, "rental_uris": {"android": "https://dc.lft.to/lastmile_qr_scan", "ios": "https://dc.lft.to/lastmile_qr_scan"}, "is_reserved": 0, "is_disabled": 0, "type": "electric_scooter", "bike_id": "62d7d4b87d3e4f5a409b201113c99ec9"}, {"lon": -77.0433705, "lat": 38.91585633333333, "name": "1d84d41e8fce5048a496f05156929027", "fusion_lat": 0.0, "fusion_lon": 0.0, "rental_uris": {"android": "https://dc.lft.to/lastmile_qr_scan", "ios": "https://dc.lft.to/lastmile_qr_scan"}, "is_reserved": 0, "is_disabled": 0, "type": "electric_scooter", "bike_id": "1d84d41e8fce5048a496f05156929027"}, {"lon": -77.02004416666666, "lat": 38.902652, "name": "120e5e2e9e140e1aaceef9602d30400d", "fusion_lat": 0.0, "fusion_lon": 0.0, "rental_uris": {"android": "https://dc.lft.to/lastmile_qr_scan", "ios": "https://dc.lft.to/lastmile_qr_scan"}, "is_reserved": 0, "is_disabled": 0, "type": "electric_scooter", "bike_id": "120e5e2e9e140e1aaceef9602d30400d"}, {"lon": -77.00763766666667, "lat": 38.9071755, "name": "0ef3a2f3294e839f6a7c9f07475076a3", "fusion_lat": 0.0, "fusion_lon": 0.0, "rental_uris": {"android": "https://dc.lft.to/lastmile_qr_scan", "ios": "https://dc.lft.to/lastmile_qr_scan"}, "is_reserved": 0, "is_disabled": 0, "type": "electric_scooter", "bike_id": "0ef3a2f3294e839f6a7c9f07475076a3"}, {"lon": -77.02399683333333, "lat": 38.933718, "name": "d218a8c4d01cae7dfac76af6ad2260d3", "fusion_lat": 0.0, "fusion_lon": 0.0, "rental_uris": {"android": "https://dc.lft.to/lastmile_qr_scan", "ios": "https://dc.lft.to/lastmile_qr_scan"}, "is_reserved": 0, "is_disabled": 0, "type": "electric_scooter", "bike_id": "d218a8c4d01cae7dfac76af6ad2260d3"}, {"lon": -77.06165366666667, "lat": 38.94322866666667, "name": "3ba314876bd062384eb2cb91d2eb753e", "fusion_lat": 0.0, "fusion_lon": 0.0, "rental_uris": {"android": "https://dc.lft.to/lastmile_qr_scan", "ios": "https://dc.lft.to/lastmile_qr_scan"}, "is_reserved": 0, "is_disabled": 0, "type": "electric_scooter", "bike_id": "3ba314876bd062384eb2cb91d2eb753e"}, {"lon": -77.07274383333333, "lat": 38.93479266666667, "name": "48290d76097b138f03350d0b5772e62d", "fusion_lat": 0.0, "fusion_lon": 0.0, "rental_uris": {"android": "https://dc.lft.to/lastmile_qr_scan", "ios": "https://dc.lft.to/lastmile_qr_scan"}, "is_reserved": 0, "is_disabled": 0, "type": "electric_scooter", "bike_id": "48290d76097b138f03350d0b5772e62d"}, {"lon": -77.0087155, "lat": 38.827262833333336, "name": "3355a98ac2a51cda6ddb772c1168ba2e", "fusion_lat": 0.0, "fusion_lon": 0.0, "rental_uris": {"android": "https://dc.lft.to/lastmile_qr_scan", "ios": "https://dc.lft.to/lastmile_qr_scan"}, "is_reserved": 0, "is_disabled": 0, "type": "electric_bike", "bike_id": "3355a98ac2a51cda6ddb772c1168ba2e"}, {"lon": -76.98566133333334, "lat": 38.855832666666664, "name": "43b190edf6508d8b46572b52c199e6f1", "fusion_lat": 0.0, "fusion_lon": 0.0, "rental_uris": {"android": "https://dc.lft.to/lastmile_qr_scan", "ios": "https://dc.lft.to/lastmile_qr_scan"}, "is_reserved": 0, "is_disabled": 0, "type": "electric_scooter", "bike_id": "43b190edf6508d8b46572b52c199e6f1"}, {"lon": -77.04478916666666, "lat": 38.909375, "name": "d1793346e62abc31fa98aaeb18ed3e4a", "fusion_lat": 0.0, "fusion_lon": 0.0, "rental_uris": {"android": "https://dc.lft.to/lastmile_qr_scan", "ios": "https://dc.lft.to/lastmile_qr_scan"}, "is_reserved": 0, "is_disabled": 0, "type": "electric_scooter", "bike_id": "d1793346e62abc31fa98aaeb18ed3e4a"}, {"lon": -77.02580933333333, "lat": 38.89254183333333, "name": "49faab49a3efa6ed5b877f53ede9cd8a", "fusion_lat": 0.0, "fusion_lon": 0.0, "rental_uris": {"android": "https://dc.lft.to/lastmile_qr_scan", "ios": "https://dc.lft.to/lastmile_qr_scan"}, "is_reserved": 0, "is_disabled": 0, "type": "electric_scooter", "bike_id": "49faab49a3efa6ed5b877f53ede9cd8a"}, {"lon": -77.03476233333333, "lat": 38.90892783333334, "name": "ea9ecd5f70cda124ac3107a820151760", "fusion_lat": 0.0, "fusion_lon": 0.0, "rental_uris": {"android": "https://dc.lft.to/lastmile_qr_scan", "ios": "https://dc.lft.to/lastmile_qr_scan"}, "is_reserved": 0, "is_disabled": 0, "type": "electric_scooter", "bike_id": "ea9ecd5f70cda124ac3107a820151760"}, {"lon": -77.05140233333333, "lat": 38.90569083333333, "name": "02e46d433f606d6a1c919b7aaf256e45", "fusion_lat": 0.0, "fusion_lon": 0.0, "rental_uris": {"android": "https://dc.lft.to/lastmile_qr_scan", "ios": "https://dc.lft.to/lastmile_qr_scan"}, "is_reserved": 0, "is_disabled": 0, "type": "electric_scooter", "bike_id": "02e46d433f606d6a1c919b7aaf256e45"}, {"lon": -77.00377166666667, "lat": 38.887858333333334, "name": "e7f9cd370c9f9b0071ad5333fe13b903", "fusion_lat": 0.0, "fusion_lon": 0.0, "rental_uris": {"android": "https://dc.lft.to/lastmile_qr_scan", "ios": "https://dc.lft.to/lastmile_qr_scan"}, "is_reserved": 0, "is_disabled": 0, "type": "electric_scooter", "bike_id": "e7f9cd370c9f9b0071ad5333fe13b903"}, {"lon": -77.0194595, "lat": 38.92417183333333, "name": "8cae79f1a1f8a075f30b5e47dc0fecb5", "fusion_lat": 0.0, "fusion_lon": 0.0, "rental_uris": {"android": "https://dc.lft.to/lastmile_qr_scan", "ios": "https://dc.lft.to/lastmile_qr_scan"}, "is_reserved": 0, "is_disabled": 0, "type": "electric_scooter", "bike_id": "8cae79f1a1f8a075f30b5e47dc0fecb5"}, {"lon": -77.03849166666667, "lat": 38.9182015, "name": "0a8f579398596b66b54fd70e2a1b079d", "fusion_lat": 0.0, "fusion_lon": 0.0, "rental_uris": {"android": "https://dc.lft.to/lastmile_qr_scan", "ios": "https://dc.lft.to/lastmile_qr_scan"}, "is_reserved": 0, "is_disabled": 0, "type": "electric_scooter", "bike_id": "0a8f579398596b66b54fd70e2a1b079d"}, {"lon": -77.0165055, "lat": 38.881343, "name": "e2b44f0c6f21389fe55aa47e35b78730", "fusion_lat": 0.0, "fusion_lon": 0.0, "rental_uris": {"android": "https://dc.lft.to/lastmile_qr_scan", "ios": "https://dc.lft.to/lastmile_qr_scan"}, "is_reserved": 0, "is_disabled": 0, "type": "electric_scooter", "bike_id": "e2b44f0c6f21389fe55aa47e35b78730"}, {"lon": -77.02721933333333, "lat": 38.90949633333334, "name": "62e07e4603521f196bb1980eb5da1f12", "fusion_lat": 0.0, "fusion_lon": 0.0, "rental_uris": {"android": "https://dc.lft.to/lastmile_qr_scan", "ios": "https://dc.lft.to/lastmile_qr_scan"}, "is_reserved": 0, "is_disabled": 0, "type": "electric_scooter", "bike_id": "62e07e4603521f196bb1980eb5da1f12"}, {"lon": -77.017662, "lat": 38.87716783333333, "name": "cf2819add51d96cd9706062e3c56292e", "fusion_lat": 0.0, "fusion_lon": 0.0, "rental_uris": {"android": "https://dc.lft.to/lastmile_qr_scan", "ios": "https://dc.lft.to/lastmile_qr_scan"}, "is_reserved": 0, "is_disabled": 0, "type": "electric_scooter", "bike_id": "cf2819add51d96cd9706062e3c56292e"}, {"lon": -76.93179133333334, "lat": 38.8987915, "name": "94ca90b0ecf66f49b9d20ac36c186099", "fusion_lat": 0.0, "fusion_lon": 0.0, "rental_uris": {"android": "https://dc.lft.to/lastmile_qr_scan", "ios": "https://dc.lft.to/lastmile_qr_scan"}, "is_reserved": 0, "is_disabled": 0, "type": "electric_scooter", "bike_id": "94ca90b0ecf66f49b9d20ac36c186099"}, {"lon": -77.01900766666667, "lat": 38.90989183333333, "name": "02ec09cedc7035fd2599421333f09bc8", "fusion_lat": 0.0, "fusion_lon": 0.0, "rental_uris": {"android": "https://dc.lft.to/lastmile_qr_scan", "ios": "https://dc.lft.to/lastmile_qr_scan"}, "is_reserved": 0, "is_disabled": 0, "type": "electric_scooter", "bike_id": "02ec09cedc7035fd2599421333f09bc8"}, {"lon": -76.98396933333333, "lat": 38.92197866666667, "name": "f2d7e2bdc678a924ad74df5640f9acc6", "fusion_lat": 0.0, "fusion_lon": 0.0, "rental_uris": {"android": "https://dc.lft.to/lastmile_qr_scan", "ios": "https://dc.lft.to/lastmile_qr_scan"}, "is_reserved": 0, "is_disabled": 0, "type": "electric_bike", "bike_id": "f2d7e2bdc678a924ad74df5640f9acc6"}, {"lon": -77.0297305, "lat": 38.892081166666664, "name": "87f3a5d8e64896faad783a145c917545", "fusion_lat": 0.0, "fusion_lon": 0.0, "rental_uris": {"android": "https://dc.lft.to/lastmile_qr_scan", "ios": "https://dc.lft.to/lastmile_qr_scan"}, "is_reserved": 0, "is_disabled": 0, "type": "electric_scooter", "bike_id": "87f3a5d8e64896faad783a145c917545"}, {"lon": -77.03130533333334, "lat": 38.910401, "name": "421e0d859b03636e20b65a47c8b6c941", "fusion_lat": 0.0, "fusion_lon": 0.0, "rental_uris": {"android": "https://dc.lft.to/lastmile_qr_scan", "ios": "https://dc.lft.to/lastmile_qr_scan"}, "is_reserved": 0, "is_disabled": 0, "type": "electric_scooter", "bike_id": "421e0d859b03636e20b65a47c8b6c941"}, {"lon": -77.04012683333333, "lat": 38.8988405, "name": "70d3d685e7b059c765ea0775839e556e", "fusion_lat": 0.0, "fusion_lon": 0.0, "rental_uris": {"android": "https://dc.lft.to/lastmile_qr_scan", "ios": "https://dc.lft.to/lastmile_qr_scan"}, "is_reserved": 0, "is_disabled": 0, "type": "electric_scooter", "bike_id": "70d3d685e7b059c765ea0775839e556e"}, {"lon": -77.12630866666667, "lat": 39.05811683333334, "name": "c4710fc495f57835658bacdcbb096cfb", "fusion_lat": 0.0, "fusion_lon": 0.0, "rental_uris": {"android": "https://dc.lft.to/lastmile_qr_scan", "ios": "https://dc.lft.to/lastmile_qr_scan"}, "is_reserved": 0, "is_disabled": 0, "type": "electric_bike", "bike_id": "c4710fc495f57835658bacdcbb096cfb"}, {"lon": -77.0434965, "lat": 38.90369, "name": "b37dfb78a8fdc26ef54563ec6005f5db", "fusion_lat": 0.0, "fusion_lon": 0.0, "rental_uris": {"android": "https://dc.lft.to/lastmile_qr_scan", "ios": "https://dc.lft.to/lastmile_qr_scan"}, "is_reserved": 0, "is_disabled": 0, "type": "electric_scooter", "bike_id": "b37dfb78a8fdc26ef54563ec6005f5db"}, {"lon": -77.07172066666666, "lat": 38.9077495, "name": "008a32d94b5a588a4c804e0e075c8421", "fusion_lat": 0.0, "fusion_lon": 0.0, "rental_uris": {"android": "https://dc.lft.to/lastmile_qr_scan", "ios": "https://dc.lft.to/lastmile_qr_scan"}, "is_reserved": 0, "is_disabled": 0, "type": "electric_scooter", "bike_id": "008a32d94b5a588a4c804e0e075c8421"}, {"lon": -77.032232, "lat": 38.9163825, "name": "d3d06181cff4846b60a23705b8451f0c", "fusion_lat": 0.0, "fusion_lon": 0.0, "rental_uris": {"android": "https://dc.lft.to/lastmile_qr_scan", "ios": "https://dc.lft.to/lastmile_qr_scan"}, "is_reserved": 0, "is_disabled": 0, "type": "electric_scooter", "bike_id": "d3d06181cff4846b60a23705b8451f0c"}, {"lon": -77.0318465, "lat": 38.91923666666667, "name": "f7b846d98689e51cc54e6eed05afb66f", "fusion_lat": 0.0, "fusion_lon": 0.0, "rental_uris": {"android": "https://dc.lft.to/lastmile_qr_scan", "ios": "https://dc.lft.to/lastmile_qr_scan"}, "is_reserved": 0, "is_disabled": 0, "type": "electric_scooter", "bike_id": "f7b846d98689e51cc54e6eed05afb66f"}, {"lon": -77.03222433333333, "lat": 38.892196, "name": "6fb7c1c272ec956142db309259688d93", "fusion_lat": 0.0, "fusion_lon": 0.0, "rental_uris": {"android": "https://dc.lft.to/lastmile_qr_scan", "ios": "https://dc.lft.to/lastmile_qr_scan"}, "is_reserved": 0, "is_disabled": 0, "type": "electric_scooter", "bike_id": "6fb7c1c272ec956142db309259688d93"}, {"lon": -76.99825483333333, "lat": 38.84417916666666, "name": "f2641608df3db81db0f1b99d159f4eb8", "fusion_lat": 0.0, "fusion_lon": 0.0, "rental_uris": {"android": "https://dc.lft.to/lastmile_qr_scan", "ios": "https://dc.lft.to/lastmile_qr_scan"}, "is_reserved": 0, "is_disabled": 0, "type": "electric_scooter", "bike_id": "f2641608df3db81db0f1b99d159f4eb8"}, {"lon": -77.03278433333334, "lat": 38.89878216666666, "name": "a891117b82d9a17fc31381abd7c4bb10", "fusion_lat": 0.0, "fusion_lon": 0.0, "rental_uris": {"android": "https://dc.lft.to/lastmile_qr_scan", "ios": "https://dc.lft.to/lastmile_qr_scan"}, "is_reserved": 0, "is_disabled": 0, "type": "electric_scooter", "bike_id": "a891117b82d9a17fc31381abd7c4bb10"}, {"lon": -76.9874215, "lat": 38.857865, "name": "e782f940a0611a0ccdc792dc3ddd02fa", "fusion_lat": 0.0, "fusion_lon": 0.0, "rental_uris": {"android": "https://dc.lft.to/lastmile_qr_scan", "ios": "https://dc.lft.to/lastmile_qr_scan"}, "is_reserved": 0, "is_disabled": 0, "type": "electric_bike", "bike_id": "e782f940a0611a0ccdc792dc3ddd02fa"}, {"lon": -77.12500783333333, "lat": 39.024168, "name": "79e87338f7b6fb2e0ddc2ce4659bea19", "fusion_lat": 0.0, "fusion_lon": 0.0, "rental_uris": {"android": "https://dc.lft.to/lastmile_qr_scan", "ios": "https://dc.lft.to/lastmile_qr_scan"}, "is_reserved": 0, "is_disabled": 0, "type": "electric_bike", "bike_id": "79e87338f7b6fb2e0ddc2ce4659bea19"}, {"lon": -77.02503, "lat": 38.9056575, "name": "443cce0965a03d5d2e9c29f1043119fc", "fusion_lat": 0.0, "fusion_lon": 0.0, "rental_uris": {"android": "https://dc.lft.to/lastmile_qr_scan", "ios": "https://dc.lft.to/lastmile_qr_scan"}, "is_reserved": 0, "is_disabled": 0, "type": "electric_scooter", "bike_id": "443cce0965a03d5d2e9c29f1043119fc"}, {"lon": -77.0059485, "lat": 38.9156115, "name": "b2a1eaa6511ed48a7279c536c391fda6", "fusion_lat": 0.0, "fusion_lon": 0.0, "rental_uris": {"android": "https://dc.lft.to/lastmile_qr_scan", "ios": "https://dc.lft.to/lastmile_qr_scan"}, "is_reserved": 0, "is_disabled": 0, "type": "electric_scooter", "bike_id": "b2a1eaa6511ed48a7279c536c391fda6"}, {"lon": -77.03660533333333, "lat": 38.9306565, "name": "95498238a11b602a41cbdd9229732283", "fusion_lat": 0.0, "fusion_lon": 0.0, "rental_uris": {"android": "https://dc.lft.to/lastmile_qr_scan", "ios": "https://dc.lft.to/lastmile_qr_scan"}, "is_reserved": 0, "is_disabled": 0, "type": "electric_scooter", "bike_id": "95498238a11b602a41cbdd9229732283"}, {"lon": -77.04204116666666, "lat": 38.90748116666666, "name": "c2dace5e73d6c10c7939dc713066bf20", "fusion_lat": 0.0, "fusion_lon": 0.0, "rental_uris": {"android": "https://dc.lft.to/lastmile_qr_scan", "ios": "https://dc.lft.to/lastmile_qr_scan"}, "is_reserved": 0, "is_disabled": 0, "type": "electric_scooter", "bike_id": "c2dace5e73d6c10c7939dc713066bf20"}, {"lon": -77.02350933333334, "lat": 38.96202916666667, "name": "2a3cf0cc0ef0dcf0ef5098f6a9ce6837", "fusion_lat": 0.0, "fusion_lon": 0.0, "rental_uris": {"android": "https://dc.lft.to/lastmile_qr_scan", "ios": "https://dc.lft.to/lastmile_qr_scan"}, "is_reserved": 0, "is_disabled": 0, "type": "electric_scooter", "bike_id": "2a3cf0cc0ef0dcf0ef5098f6a9ce6837"}, {"lon": -77.03856816666666, "lat": 38.912830166666666, "name": "12cd66bd0db9292b9f2ba3050aa2b138", "fusion_lat": 0.0, "fusion_lon": 0.0, "rental_uris": {"android": "https://dc.lft.to/lastmile_qr_scan", "ios": "https://dc.lft.to/lastmile_qr_scan"}, "is_reserved": 0, "is_disabled": 0, "type": "electric_scooter", "bike_id": "12cd66bd0db9292b9f2ba3050aa2b138"}, {"lon": -77.02319833333334, "lat": 38.91683966666667, "name": "6b1410dfc7dc7f4ee249c57e5a8c95ef", "fusion_lat": 0.0, "fusion_lon": 0.0, "rental_uris": {"android": "https://dc.lft.to/lastmile_qr_scan", "ios": "https://dc.lft.to/lastmile_qr_scan"}, "is_reserved": 0, "is_disabled": 0, "type": "electric_scooter", "bike_id": "6b1410dfc7dc7f4ee249c57e5a8c95ef"}, {"lon": -77.04331366666666, "lat": 38.92218716666667, "name": "7252b1c7ef03e541f8cc66292b1e6e97", "fusion_lat": 0.0, "fusion_lon": 0.0, "rental_uris": {"android": "https://dc.lft.to/lastmile_qr_scan", "ios": "https://dc.lft.to/lastmile_qr_scan"}, "is_reserved": 0, "is_disabled": 0, "type": "electric_scooter", "bike_id": "7252b1c7ef03e541f8cc66292b1e6e97"}, {"lon": -77.04331266666667, "lat": 38.903715166666665, "name": "64bca1d20d0269a4d7111cd6e088e860", "fusion_lat": 0.0, "fusion_lon": 0.0, "rental_uris": {"android": "https://dc.lft.to/lastmile_qr_scan", "ios": "https://dc.lft.to/lastmile_qr_scan"}, "is_reserved": 0, "is_disabled": 0, "type": "electric_scooter", "bike_id": "64bca1d20d0269a4d7111cd6e088e860"}, {"lon": -77.04387883333334, "lat": 38.92938483333333, "name": "03b8a529ce48e308c8f55a9075852418", "fusion_lat": 0.0, "fusion_lon": 0.0, "rental_uris": {"android": "https://dc.lft.to/lastmile_qr_scan", "ios": "https://dc.lft.to/lastmile_qr_scan"}, "is_reserved": 0, "is_disabled": 0, "type": "electric_scooter", "bike_id": "03b8a529ce48e308c8f55a9075852418"}, {"lon": -77.00449416666666, "lat": 38.87655316666667, "name": "dc899dbf4e3d1e4120392b40f54dda13", "fusion_lat": 0.0, "fusion_lon": 0.0, "rental_uris": {"android": "https://dc.lft.to/lastmile_qr_scan", "ios": "https://dc.lft.to/lastmile_qr_scan"}, "is_reserved": 0, "is_disabled": 0, "type": "electric_scooter", "bike_id": "dc899dbf4e3d1e4120392b40f54dda13"}, {"lon": -77.04298866666667, "lat": 38.916161833333334, "name": "292c4db64c13ce5d3892a2559dbb2d05", "fusion_lat": 0.0, "fusion_lon": 0.0, "rental_uris": {"android": "https://dc.lft.to/lastmile_qr_scan", "ios": "https://dc.lft.to/lastmile_qr_scan"}, "is_reserved": 0, "is_disabled": 0, "type": "electric_scooter", "bike_id": "292c4db64c13ce5d3892a2559dbb2d05"}, {"lon": -77.0401515, "lat": 38.92182916666667, "name": "531b309ed28417972720cd58dcde91bd", "fusion_lat": 0.0, "fusion_lon": 0.0, "rental_uris": {"android": "https://dc.lft.to/lastmile_qr_scan", "ios": "https://dc.lft.to/lastmile_qr_scan"}, "is_reserved": 0, "is_disabled": 0, "type": "electric_scooter", "bike_id": "531b309ed28417972720cd58dcde91bd"}, {"lon": -77.02695833333334, "lat": 38.9094315, "name": "e1cd8c4f97ce020dcdd7e8d790cf7169", "fusion_lat": 0.0, "fusion_lon": 0.0, "rental_uris": {"android": "https://dc.lft.to/lastmile_qr_scan", "ios": "https://dc.lft.to/lastmile_qr_scan"}, "is_reserved": 0, "is_disabled": 0, "type": "electric_scooter", "bike_id": "e1cd8c4f97ce020dcdd7e8d790cf7169"}, {"lon": -77.022001, "lat": 38.91410666666667, "name": "51a5e86ae06eb120022d87923b2005ea", "fusion_lat": 0.0, "fusion_lon": 0.0, "rental_uris": {"android": "https://dc.lft.to/lastmile_qr_scan", "ios": "https://dc.lft.to/lastmile_qr_scan"}, "is_reserved": 0, "is_disabled": 0, "type": "electric_scooter", "bike_id": "51a5e86ae06eb120022d87923b2005ea"}, {"lon": -77.02828983333333, "lat": 38.915945666666666, "name": "69c0fd29bd6d55fd383dab6a2268756d", "fusion_lat": 0.0, "fusion_lon": 0.0, "rental_uris": {"android": "https://dc.lft.to/lastmile_qr_scan", "ios": "https://dc.lft.to/lastmile_qr_scan"}, "is_reserved": 0, "is_disabled": 0, "type": "electric_scooter", "bike_id": "69c0fd29bd6d55fd383dab6a2268756d"}, {"lon": -76.965282, "lat": 38.876230166666666, "name": "4474978457d146245206396567becb20", "fusion_lat": 0.0, "fusion_lon": 0.0, "rental_uris": {"android": "https://dc.lft.to/lastmile_qr_scan", "ios": "https://dc.lft.to/lastmile_qr_scan"}, "is_reserved": 0, "is_disabled": 0, "type": "electric_scooter", "bike_id": "4474978457d146245206396567becb20"}, {"lon": -77.011012, "lat": 38.90354266666667, "name": "5954e310102356d04e63325c85e15f53", "fusion_lat": 0.0, "fusion_lon": 0.0, "rental_uris": {"android": "https://dc.lft.to/lastmile_qr_scan", "ios": "https://dc.lft.to/lastmile_qr_scan"}, "is_reserved": 0, "is_disabled": 0, "type": "electric_scooter", "bike_id": "5954e310102356d04e63325c85e15f53"}, {"lon": -77.02319416666667, "lat": 38.916786333333334, "name": "e3e416663c4ff5db3f34cc4a579d09fd", "fusion_lat": 0.0, "fusion_lon": 0.0, "rental_uris": {"android": "https://dc.lft.to/lastmile_qr_scan", "ios": "https://dc.lft.to/lastmile_qr_scan"}, "is_reserved": 0, "is_disabled": 0, "type": "electric_scooter", "bike_id": "e3e416663c4ff5db3f34cc4a579d09fd"}, {"lon": -77.0479855, "lat": 38.918725, "name": "941404cfe10319425013d00f95b4aba0", "fusion_lat": 0.0, "fusion_lon": 0.0, "rental_uris": {"android": "https://dc.lft.to/lastmile_qr_scan", "ios": "https://dc.lft.to/lastmile_qr_scan"}, "is_reserved": 0, "is_disabled": 0, "type": "electric_scooter", "bike_id": "941404cfe10319425013d00f95b4aba0"}, {"lon": -77.0066885, "lat": 38.874598666666664, "name": "4a9d86abceba500c0721c52ea7144b2c", "fusion_lat": 0.0, "fusion_lon": 0.0, "rental_uris": {"android": "https://dc.lft.to/lastmile_qr_scan", "ios": "https://dc.lft.to/lastmile_qr_scan"}, "is_reserved": 0, "is_disabled": 0, "type": "electric_scooter", "bike_id": "4a9d86abceba500c0721c52ea7144b2c"}, {"lon": -77.0277415, "lat": 38.891998, "name": "26cfffac893208afc656aa6dfa8e177e", "fusion_lat": 0.0, "fusion_lon": 0.0, "rental_uris": {"android": "https://dc.lft.to/lastmile_qr_scan", "ios": "https://dc.lft.to/lastmile_qr_scan"}, "is_reserved": 0, "is_disabled": 0, "type": "electric_scooter", "bike_id": "26cfffac893208afc656aa6dfa8e177e"}, {"lon": -77.0332735, "lat": 38.901208, "name": "e350fb7d69fe142ad0ff15d284b7d441", "fusion_lat": 0.0, "fusion_lon": 0.0, "rental_uris": {"android": "https://dc.lft.to/lastmile_qr_scan", "ios": "https://dc.lft.to/lastmile_qr_scan"},