{"data": {"bikes": [{"fusion_lon": 0.0, "bike_id": "4da314cb7a896b28cf9a4a8004753f0c", "name": "4da314cb7a896b28cf9a4a8004753f0c", "type": "electric_scooter", "lon": -77.0471895, "rental_uris": {"android": "https://dc.lft.to/lastmile_qr_scan", "ios": "https://dc.lft.to/lastmile_qr_scan"}, "lat": 38.8995685, "is_reserved": 0, "is_disabled": 0, "fusion_lat": 0.0}, {"fusion_lon": 0.0, "bike_id": "27df3b60950c5d6f9bcf2e10fb140cd8", "name": "27df3b60950c5d6f9bcf2e10fb140cd8", "type": "electric_scooter", "lon": -77.03455633333333, "rental_uris": {"android": "https://dc.lft.to/lastmile_qr_scan", "ios": "https://dc.lft.to/lastmile_qr_scan"}, "lat": 38.964201333333335, "is_reserved": 0, "is_disabled": 0, "fusion_lat": 0.0}, {"fusion_lon": 0.0, "bike_id": "9247df34607c8761e5da0e87405bca81", "name": "9247df34607c8761e5da0e87405bca81", "type": "electric_scooter", "lon": -76.98325316666667, "rental_uris": {"android": "https://dc.lft.to/lastmile_qr_scan", "ios": "https://dc.lft.to/lastmile_qr_scan"}, "lat": 38.86169816666666, "is_reserved": 0, "is_disabled": 0, "fusion_lat": 0.0}, {"fusion_lon": 0.0, "bike_id": "09d3ab32c177c22cfdbef042516b528b", "name": "09d3ab32c177c22cfdbef042516b528b", "type": "electric_scooter", "lon": -77.0224845, "rental_uris": {"android": "https://dc.lft.to/lastmile_qr_scan", "ios": "https://dc.lft.to/lastmile_qr_scan"}, "lat": 38.89223466666667, "is_reserved": 0, "is_disabled": 0, "fusion_lat": 0.0}, {"fusion_lon": 0.0, "bike_id": "6bdb02091b0c1a60b18969b03630a992", "name": "6bdb02091b0c1a60b18969b03630a992", "type": "electric_bike", "lon": -76.9683965, "rental_uris": {"android": "https://dc.lft.to/lastmile_qr_scan", "ios": "https://dc.lft.to/lastmile_qr_scan"}, "lat": 38.9244515, "is_reserved": 0, "is_disabled": 0, "fusion_lat": 0.0}, {"fusion_lon": 0.0, "bike_id": "7e42d18685db842f677e5f244bd32932", "name": "7e42d18685db842f677e5f244bd32932", "type": "electric_scooter", "lon": -77.04339916666666, "rental_uris": {"android": "https://dc.lft.to/lastmile_qr_scan", "ios": "https://dc.lft.to/lastmile_qr_scan"}, "lat": 38.900504, "is_reserved": 0, "is_disabled": 0, "fusion_lat": 0.0}, {"fusion_lon": 0.0, "bike_id": "58d0abcaa57ea29b94d23a3da8368d7b", "name": "58d0abcaa57ea29b94d23a3da8368d7b", "type": "electric_scooter", "lon": -77.02409083333333, "rental_uris": {"android": "https://dc.lft.to/lastmile_qr_scan", "ios": "https://dc.lft.to/lastmile_qr_scan"}, "lat": 38.91711766666667, "is_reserved": 0, "is_disabled": 0, "fusion_lat": 0.0}, {"fusion_lon": 0.0, "bike_id": "2698787cdfa6ee0af30731f4c04029b0", "name": "2698787cdfa6ee0af30731f4c04029b0", "type": "electric_bike", "lon": -77.15269666666667, "rental_uris": {"android": "https://dc.lft.to/lastmile_qr_scan", "ios": "https://dc.lft.to/lastmile_qr_scan"}, "lat": 39.105640333333334, "is_reserved": 0, "is_disabled": 0, "fusion_lat": 0.0}, {"fusion_lon": 0.0, "bike_id": "0e81684afd3c303452d5a22006324d56", "name": "0e81684afd3c303452d5a22006324d56", "type": "electric_scooter", "lon": -77.05719933333333, "rental_uris": {"android": "https://dc.lft.to/lastmile_qr_scan", "ios": "https://dc.lft.to/lastmile_qr_scan"}, "lat": 38.933835333333334, "is_reserved": 0, "is_disabled": 0, "fusion_lat": 0.0}, {"fusion_lon": 0.0, "bike_id": "7d35084cd9ce807c76809ad647d12cb7", "name": "7d35084cd9ce807c76809ad647d12cb7", "type": "electric_scooter", "lon": -77.02166183333334, "rental_uris": {"android": "https://dc.lft.to/lastmile_qr_scan", "ios": "https://dc.lft.to/lastmile_qr_scan"}, "lat": 38.898833333333336, "is_reserved": 0, "is_disabled": 0, "fusion_lat": 0.0}, {"fusion_lon": 0.0, "bike_id": "211704549d519e2fc1e6b72fd22a9466", "name": "211704549d519e2fc1e6b72fd22a9466", "type": "electric_scooter", "lon": -77.03118983333333, "rental_uris": {"android": "https://dc.lft.to/lastmile_qr_scan", "ios": "https://dc.lft.to/lastmile_qr_scan"}, "lat": 38.90436583333333, "is_reserved": 0, "is_disabled": 0, "fusion_lat": 0.0}, {"fusion_lon": 0.0, "bike_id": "45c1c8640753a96da08b7afba4c874b5", "name": "45c1c8640753a96da08b7afba4c874b5", "type": "electric_bike", "lon": -76.91603816666667, "rental_uris": {"android": "https://dc.lft.to/lastmile_qr_scan", "ios": "https://dc.lft.to/lastmile_qr_scan"}, "lat": 38.8797515, "is_reserved": 0, "is_disabled": 0, "fusion_lat": 0.0}, {"fusion_lon": 0.0, "bike_id": "91e82fc2f96f5619526fe5a9ca95d518", "name": "91e82fc2f96f5619526fe5a9ca95d518", "type": "electric_scooter", "lon": -77.0634665, "rental_uris": {"android": "https://dc.lft.to/lastmile_qr_scan", "ios": "https://dc.lft.to/lastmile_qr_scan"}, "lat": 38.91341666666667, "is_reserved": 0, "is_disabled": 0, "fusion_lat": 0.0}, {"fusion_lon": 0.0, "bike_id": "531649ccbf37faf8cb1191ddcfd76899", "name": "531649ccbf37faf8cb1191ddcfd76899", "type": "electric_scooter", "lon": -77.02978983333334, "rental_uris": {"android": "https://dc.lft.to/lastmile_qr_scan", "ios": "https://dc.lft.to/lastmile_qr_scan"}, "lat": 38.907677, "is_reserved": 0, "is_disabled": 0, "fusion_lat": 0.0}, {"fusion_lon": 0.0, "bike_id": "390abdd489a92fab0104e92ab1f0d7cf", "name": "390abdd489a92fab0104e92ab1f0d7cf", "type": "electric_scooter", "lon": -77.00930166666667, "rental_uris": {"android": "https://dc.lft.to/lastmile_qr_scan", "ios": "https://dc.lft.to/lastmile_qr_scan"}, "lat": 38.875042666666666, "is_reserved": 0, "is_disabled": 0, "fusion_lat": 0.0}, {"fusion_lon": 0.0, "bike_id": "688befb7151a0ab4dfdb59dab525eeed", "name": "688befb7151a0ab4dfdb59dab525eeed", "type": "electric_bike", "lon": -77.35308716666667, "rental_uris": {"android": "https://dc.lft.to/lastmile_qr_scan", "ios": "https://dc.lft.to/lastmile_qr_scan"}, "lat": 38.950005833333336, "is_reserved": 0, "is_disabled": 0, "fusion_lat": 0.0}, {"fusion_lon": 0.0, "bike_id": "b5ee6d91285641122a17985eb2a38fe2", "name": "b5ee6d91285641122a17985eb2a38fe2", "type": "electric_scooter", "lon": -77.027116, "rental_uris": {"android": "https://dc.lft.to/lastmile_qr_scan", "ios": "https://dc.lft.to/lastmile_qr_scan"}, "lat": 38.91801933333333, "is_reserved": 0, "is_disabled": 0, "fusion_lat": 0.0}, {"fusion_lon": 0.0, "bike_id": "2b8ce0580ed4fa2db2f6678e91fe6a08", "name": "2b8ce0580ed4fa2db2f6678e91fe6a08", "type": "electric_scooter", "lon": -77.02470566666666, "rental_uris": {"android": "https://dc.lft.to/lastmile_qr_scan", "ios": "https://dc.lft.to/lastmile_qr_scan"}, "lat": 38.93915466666667, "is_reserved": 0, "is_disabled": 0, "fusion_lat": 0.0}, {"fusion_lon": 0.0, "bike_id": "c54cf127199285f5fc8bacc42c6e55dd", "name": "c54cf127199285f5fc8bacc42c6e55dd", "type": "electric_scooter", "lon": -77.04485833333334, "rental_uris": {"android": "https://dc.lft.to/lastmile_qr_scan", "ios": "https://dc.lft.to/lastmile_qr_scan"}, "lat": 38.906852666666666, "is_reserved": 0, "is_disabled": 0, "fusion_lat": 0.0}, {"fusion_lon": 0.0, "bike_id": "4aee8c9d8a96d51cab92abbf59b495d9", "name": "4aee8c9d8a96d51cab92abbf59b495d9", "type": "electric_scooter", "lon": -76.99582766666667, "rental_uris": {"android": "https://dc.lft.to/lastmile_qr_scan", "ios": "https://dc.lft.to/lastmile_qr_scan"}, "lat": 38.920793833333335, "is_reserved": 0, "is_disabled": 0, "fusion_lat": 0.0}, {"fusion_lon": 0.0, "bike_id": "a307363c7835564a7cea8fe720bc4cfe", "name": "a307363c7835564a7cea8fe720bc4cfe", "type": "electric_scooter", "lon": -77.06365066666666, "rental_uris": {"android": "https://dc.lft.to/lastmile_qr_scan", "ios": "https://dc.lft.to/lastmile_qr_scan"}, "lat": 38.944153166666666, "is_reserved": 0, "is_disabled": 0, "fusion_lat": 0.0}, {"fusion_lon": 0.0, "bike_id": "6be6e4f84866b1f393270bb534e42f4d", "name": "6be6e4f84866b1f393270bb534e42f4d", "type": "electric_scooter", "lon": -77.03684983333333, "rental_uris": {"android": "https://dc.lft.to/lastmile_qr_scan", "ios": "https://dc.lft.to/lastmile_qr_scan"}, "lat": 38.92265283333333, "is_reserved": 0, "is_disabled": 0, "fusion_lat": 0.0}, {"fusion_lon": 0.0, "bike_id": "9e9af10d0c3df96f8d0c1479aabb1a83", "name": "9e9af10d0c3df96f8d0c1479aabb1a83", "type": "electric_scooter", "lon": -77.0321945, "rental_uris": {"android": "https://dc.lft.to/lastmile_qr_scan", "ios": "https://dc.lft.to/lastmile_qr_scan"}, "lat": 38.912628, "is_reserved": 0, "is_disabled": 0, "fusion_lat": 0.0}, {"fusion_lon": 0.0, "bike_id": "dc22abf9c97633d4dfa2f7f445f34f02", "name": "dc22abf9c97633d4dfa2f7f445f34f02", "type": "electric_bike", "lon": -77.05109816666666, "rental_uris": {"android": "https://dc.lft.to/lastmile_qr_scan", "ios": "https://dc.lft.to/lastmile_qr_scan"}, "lat": 38.94565216666667, "is_reserved": 0, "is_disabled": 0, "fusion_lat": 0.0}, {"fusion_lon": 0.0, "bike_id": "d6b6e060cc729cef746f9b37d4f0a98d", "name": "d6b6e060cc729cef746f9b37d4f0a98d", "type": "electric_scooter", "lon": -77.044522, "rental_uris": {"android": "https://dc.lft.to/lastmile_qr_scan", "ios": "https://dc.lft.to/lastmile_qr_scan"}, "lat": 38.909915, "is_reserved": 0, "is_disabled": 0, "fusion_lat": 0.0}, {"fusion_lon": 0.0, "bike_id": "98afc974c9821f2b81f6885e0787e960", "name": "98afc974c9821f2b81f6885e0787e960", "type": "electric_bike", "lon": -77.10707483333333, "rental_uris": {"android": "https://dc.lft.to/lastmile_qr_scan", "ios": "https://dc.lft.to/lastmile_qr_scan"}, "lat": 38.85551683333333, "is_reserved": 0, "is_disabled": 0, "fusion_lat": 0.0}, {"fusion_lon": 0.0, "bike_id": "74cea834082a4a9264b8a4006b2cb73b", "name": "74cea834082a4a9264b8a4006b2cb73b", "type": "electric_scooter", "lon": -77.02782516666667, "rental_uris": {"android": "https://dc.lft.to/lastmile_qr_scan", "ios": "https://dc.lft.to/lastmile_qr_scan"}, "lat": 38.89218666666667, "is_reserved": 0, "is_disabled": 0, "fusion_lat": 0.0}, {"fusion_lon": 0.0, "bike_id": "85feb826d3cf492b28902d523bc9fc7f", "name": "85feb826d3cf492b28902d523bc9fc7f", "type": "electric_scooter", "lon": -77.00224516666667, "rental_uris": {"android": "https://dc.lft.to/lastmile_qr_scan", "ios": "https://dc.lft.to/lastmile_qr_scan"}, "lat": 38.8950025, "is_reserved": 0, "is_disabled": 0, "fusion_lat": 0.0}, {"fusion_lon": 0.0, "bike_id": "9c6a87280c3bc9638b56024a705b212a", "name": "9c6a87280c3bc9638b56024a705b212a", "type": "electric_scooter", "lon": -77.03176283333333, "rental_uris": {"android": "https://dc.lft.to/lastmile_qr_scan", "ios": "https://dc.lft.to/lastmile_qr_scan"}, "lat": 38.91551, "is_reserved": 0, "is_disabled": 0, "fusion_lat": 0.0}, {"fusion_lon": 0.0, "bike_id": "67081104e4bd87ed7a68bbaabb9b7604", "name": "67081104e4bd87ed7a68bbaabb9b7604", "type": "electric_scooter", "lon": -77.00487316666667, "rental_uris": {"android": "https://dc.lft.to/lastmile_qr_scan", "ios": "https://dc.lft.to/lastmile_qr_scan"}, "lat": 38.8753495, "is_reserved": 0, "is_disabled": 0, "fusion_lat": 0.0}, {"fusion_lon": 0.0, "bike_id": "b0f93465170d4f142422dc114598aee9", "name": "b0f93465170d4f142422dc114598aee9", "type": "electric_scooter", "lon": -77.03886433333334, "rental_uris": {"android": "https://dc.lft.to/lastmile_qr_scan", "ios": "https://dc.lft.to/lastmile_qr_scan"}, "lat": 38.934349166666664, "is_reserved": 0, "is_disabled": 0, "fusion_lat": 0.0}, {"fusion_lon": 0.0, "bike_id": "664b652a7bf905e7cc8e2f30edaa44dd", "name": "664b652a7bf905e7cc8e2f30edaa44dd", "type": "electric_scooter", "lon": -77.0199835, "rental_uris": {"android": "https://dc.lft.to/lastmile_qr_scan", "ios": "https://dc.lft.to/lastmile_qr_scan"}, "lat": 38.96636183333333, "is_reserved": 0, "is_disabled": 0, "fusion_lat": 0.0}, {"fusion_lon": 0.0, "bike_id": "ee65609025ad18b479031c00f557476b", "name": "ee65609025ad18b479031c00f557476b", "type": "electric_scooter", "lon": -77.0315685, "rental_uris": {"android": "https://dc.lft.to/lastmile_qr_scan", "ios": "https://dc.lft.to/lastmile_qr_scan"}, "lat": 38.92083683333333, "is_reserved": 0, "is_disabled": 0, "fusion_lat": 0.0}, {"fusion_lon": 0.0, "bike_id": "54aab60fbf481144bad6b6ed915116f9", "name": "54aab60fbf481144bad6b6ed915116f9", "type": "electric_scooter", "lon": -77.022095, "rental_uris": {"android": "https://dc.lft.to/lastmile_qr_scan", "ios": "https://dc.lft.to/lastmile_qr_scan"}, "lat": 38.8961105, "is_reserved": 0, "is_disabled": 0, "fusion_lat": 0.0}, {"fusion_lon": 0.0, "bike_id": "d819e8220939f5e8038d441ca8e29622", "name": "d819e8220939f5e8038d441ca8e29622", "type": "electric_scooter", "lon": -77.02451716666667, "rental_uris": {"android": "https://dc.lft.to/lastmile_qr_scan", "ios": "https://dc.lft.to/lastmile_qr_scan"}, "lat": 38.908567, "is_reserved": 0, "is_disabled": 0, "fusion_lat": 0.0}, {"fusion_lon": 0.0, "bike_id": "de71c04296f2c5beefecb11a16192b1c", "name": "de71c04296f2c5beefecb11a16192b1c", "type": "electric_scooter", "lon": -76.990205, "rental_uris": {"android": "https://dc.lft.to/lastmile_qr_scan", "ios": "https://dc.lft.to/lastmile_qr_scan"}, "lat": 38.90041316666667, "is_reserved": 0, "is_disabled": 0, "fusion_lat": 0.0}, {"fusion_lon": 0.0, "bike_id": "f7f1df07ab1ebd2312a39511fa32f355", "name": "f7f1df07ab1ebd2312a39511fa32f355", "type": "electric_scooter", "lon": -77.02319683333333, "rental_uris": {"android": "https://dc.lft.to/lastmile_qr_scan", "ios": "https://dc.lft.to/lastmile_qr_scan"}, "lat": 38.89669033333333, "is_reserved": 0, "is_disabled": 0, "fusion_lat": 0.0}, {"fusion_lon": 0.0, "bike_id": "320df79ee87e6c4160210e61b024e402", "name": "320df79ee87e6c4160210e61b024e402", "type": "electric_scooter", "lon": -77.04428066666667, "rental_uris": {"android": "https://dc.lft.to/lastmile_qr_scan", "ios": "https://dc.lft.to/lastmile_qr_scan"}, "lat": 38.909468, "is_reserved": 0, "is_disabled": 0, "fusion_lat": 0.0}, {"fusion_lon": 0.0, "bike_id": "d4b5c2ade4aab0d211c6ca240d59ea83", "name": "d4b5c2ade4aab0d211c6ca240d59ea83", "type": "electric_scooter", "lon": -76.99007116666667, "rental_uris": {"android": "https://dc.lft.to/lastmile_qr_scan", "ios": "https://dc.lft.to/lastmile_qr_scan"}, "lat": 38.86505, "is_reserved": 0, "is_disabled": 0, "fusion_lat": 0.0}, {"fusion_lon": 0.0, "bike_id": "816c8a8c80b18607d0fe43b0ffafd3b4", "name": "816c8a8c80b18607d0fe43b0ffafd3b4", "type": "electric_scooter", "lon": -76.94917233333334, "rental_uris": {"android": "https://dc.lft.to/lastmile_qr_scan", "ios": "https://dc.lft.to/lastmile_qr_scan"}, "lat": 38.89487533333333, "is_reserved": 0, "is_disabled": 0, "fusion_lat": 0.0}, {"fusion_lon": 0.0, "bike_id": "d92a63db1cfcc52cf6a889efbfe0c594", "name": "d92a63db1cfcc52cf6a889efbfe0c594", "type": "electric_scooter", "lon": -77.0417645, "rental_uris": {"android": "https://dc.lft.to/lastmile_qr_scan", "ios": "https://dc.lft.to/lastmile_qr_scan"}, "lat": 38.908007833333336, "is_reserved": 0, "is_disabled": 0, "fusion_lat": 0.0}, {"fusion_lon": 0.0, "bike_id": "3627cbe9ac4e10623e4f4b6e328da0d3", "name": "3627cbe9ac4e10623e4f4b6e328da0d3", "type": "electric_scooter", "lon": -77.01206716666667, "rental_uris": {"android": "https://dc.lft.to/lastmile_qr_scan", "ios": "https://dc.lft.to/lastmile_qr_scan"}, "lat": 38.925871, "is_reserved": 0, "is_disabled": 0, "fusion_lat": 0.0}, {"fusion_lon": 0.0, "bike_id": "5ae932f59f32cbd19bd70cdc4abecae0", "name": "5ae932f59f32cbd19bd70cdc4abecae0", "type": "electric_scooter", "lon": -76.99079983333333, "rental_uris": {"android": "https://dc.lft.to/lastmile_qr_scan", "ios": "https://dc.lft.to/lastmile_qr_scan"}, "lat": 38.860551, "is_reserved": 0, "is_disabled": 0, "fusion_lat": 0.0}, {"fusion_lon": 0.0, "bike_id": "66fbc52c6349070133a489c7cddb7520", "name": "66fbc52c6349070133a489c7cddb7520", "type": "electric_scooter", "lon": -77.04498916666667, "rental_uris": {"android": "https://dc.lft.to/lastmile_qr_scan", "ios": "https://dc.lft.to/lastmile_qr_scan"}, "lat": 38.903656, "is_reserved": 0, "is_disabled": 0, "fusion_lat": 0.0}, {"fusion_lon": 0.0, "bike_id": "85de29cadd4c140c93dd0aae60bc3f24", "name": "85de29cadd4c140c93dd0aae60bc3f24", "type": "electric_scooter", "lon": -77.0230295, "rental_uris": {"android": "https://dc.lft.to/lastmile_qr_scan", "ios": "https://dc.lft.to/lastmile_qr_scan"}, "lat": 38.91727433333333, "is_reserved": 0, "is_disabled": 0, "fusion_lat": 0.0}, {"fusion_lon": 0.0, "bike_id": "54d929e139d768e40900a7a06f649ec1", "name": "54d929e139d768e40900a7a06f649ec1", "type": "electric_scooter", "lon": -77.0314445, "rental_uris": {"android": "https://dc.lft.to/lastmile_qr_scan", "ios": "https://dc.lft.to/lastmile_qr_scan"}, "lat": 38.887536833333336, "is_reserved": 0, "is_disabled": 0, "fusion_lat": 0.0}, {"fusion_lon": 0.0, "bike_id": "d9af49c829edd8a00576dcb6d8876507", "name": "d9af49c829edd8a00576dcb6d8876507", "type": "electric_scooter", "lon": -77.04414616666666, "rental_uris": {"android": "https://dc.lft.to/lastmile_qr_scan", "ios": "https://dc.lft.to/lastmile_qr_scan"}, "lat": 38.90066566666667, "is_reserved": 0, "is_disabled": 0, "fusion_lat": 0.0}, {"fusion_lon": 0.0, "bike_id": "e69ef9c0bc3ca54705ae1a88f9e36d4e", "name": "e69ef9c0bc3ca54705ae1a88f9e36d4e", "type": "electric_scooter", "lon": -77.0518035, "rental_uris": {"android": "https://dc.lft.to/lastmile_qr_scan", "ios": "https://dc.lft.to/lastmile_qr_scan"}, "lat": 38.92422716666667, "is_reserved": 0, "is_disabled": 0, "fusion_lat": 0.0}, {"fusion_lon": 0.0, "bike_id": "c13bc45dce873a3cac2ac4a99aa14a49", "name": "c13bc45dce873a3cac2ac4a99aa14a49", "type": "electric_scooter", "lon": -77.05509066666667, "rental_uris": {"android": "https://dc.lft.to/lastmile_qr_scan", "ios": "https://dc.lft.to/lastmile_qr_scan"}, "lat": 38.9441475, "is_reserved": 0, "is_disabled": 0, "fusion_lat": 0.0}, {"fusion_lon": 0.0, "bike_id": "191b6b3eb651cb68f14cada38cd34d61", "name": "191b6b3eb651cb68f14cada38cd34d61", "type": "electric_scooter", "lon": -77.03039716666666, "rental_uris": {"android": "https://dc.lft.to/lastmile_qr_scan", "ios": "https://dc.lft.to/lastmile_qr_scan"}, "lat": 38.9268415, "is_reserved": 0, "is_disabled": 0, "fusion_lat": 0.0}, {"fusion_lon": 0.0, "bike_id": "552bd1dd411e0b55dc3ba1f19f112f35", "name": "552bd1dd411e0b55dc3ba1f19f112f35", "type": "electric_scooter", "lon": -77.03960383333333, "rental_uris": {"android": "https://dc.lft.to/lastmile_qr_scan", "ios": "https://dc.lft.to/lastmile_qr_scan"}, "lat": 38.90242333333333, "is_reserved": 0, "is_disabled": 0, "fusion_lat": 0.0}, {"fusion_lon": 0.0, "bike_id": "dde44d36535e95c8a50d76daba009d36", "name": "dde44d36535e95c8a50d76daba009d36", "type": "electric_scooter", "lon": -76.93188816666667, "rental_uris": {"android": "https://dc.lft.to/lastmile_qr_scan", "ios": "https://dc.lft.to/lastmile_qr_scan"}, "lat": 38.898777833333334, "is_reserved": 0, "is_disabled": 0, "fusion_lat": 0.0}, {"fusion_lon": 0.0, "bike_id": "d8c917cad844be9c995e511982598f2d", "name": "d8c917cad844be9c995e511982598f2d", "type": "electric_bike", "lon": -76.98379933333334, "rental_uris": {"android": "https://dc.lft.to/lastmile_qr_scan", "ios": "https://dc.lft.to/lastmile_qr_scan"}, "lat": 38.91474483333333, "is_reserved": 0, "is_disabled": 0, "fusion_lat": 0.0}, {"fusion_lon": 0.0, "bike_id": "aec235b7ab01e176729c78d17e871db7", "name": "aec235b7ab01e176729c78d17e871db7", "type": "electric_scooter", "lon": -77.01193733333334, "rental_uris": {"android": "https://dc.lft.to/lastmile_qr_scan", "ios": "https://dc.lft.to/lastmile_qr_scan"}, "lat": 38.88770733333333, "is_reserved": 0, "is_disabled": 0, "fusion_lat": 0.0}, {"fusion_lon": 0.0, "bike_id": "510bf1019ec2c7143833e541bfb8e4ce", "name": "510bf1019ec2c7143833e541bfb8e4ce", "type": "electric_scooter", "lon": -77.04664216666667, "rental_uris": {"android": "https://dc.lft.to/lastmile_qr_scan", "ios": "https://dc.lft.to/lastmile_qr_scan"}, "lat": 38.90667666666667, "is_reserved": 0, "is_disabled": 0, "fusion_lat": 0.0}, {"fusion_lon": 0.0, "bike_id": "fb0ac79ba1e498c672f9f05413dca238", "name": "fb0ac79ba1e498c672f9f05413dca238", "type": "electric_scooter", "lon": -76.989277, "rental_uris": {"android": "https://dc.lft.to/lastmile_qr_scan", "ios": "https://dc.lft.to/lastmile_qr_scan"}, "lat": 38.90219283333333, "is_reserved": 0, "is_disabled": 0, "fusion_lat": 0.0}, {"fusion_lon": 0.0, "bike_id": "197e7985a0cdde22f5aace9b322f0de3", "name": "197e7985a0cdde22f5aace9b322f0de3", "type": "electric_scooter", "lon": -77.04183283333333, "rental_uris": {"android": "https://dc.lft.to/lastmile_qr_scan", "ios": "https://dc.lft.to/lastmile_qr_scan"}, "lat": 38.905272, "is_reserved": 0, "is_disabled": 0, "fusion_lat": 0.0}, {"fusion_lon": 0.0, "bike_id": "c183bb4c42ac58b4a0db2997bc06bf71", "name": "c183bb4c42ac58b4a0db2997bc06bf71", "type": "electric_scooter", "lon": -77.02455183333333, "rental_uris": {"android": "https://dc.lft.to/lastmile_qr_scan", "ios": "https://dc.lft.to/lastmile_qr_scan"}, "lat": 38.9289545, "is_reserved": 0, "is_disabled": 0, "fusion_lat": 0.0}, {"fusion_lon": 0.0, "bike_id": "5650e5bcebf0f56023e5ba7829a3f22e", "name": "5650e5bcebf0f56023e5ba7829a3f22e", "type": "electric_scooter", "lon": -77.05732783333333, "rental_uris": {"android": "https://dc.lft.to/lastmile_qr_scan", "ios": "https://dc.lft.to/lastmile_qr_scan"}, "lat": 38.93364316666667, "is_reserved": 0, "is_disabled": 0, "fusion_lat": 0.0}, {"fusion_lon": 0.0, "bike_id": "7dc18f0eee78ef6fded1c4ec84555561", "name": "7dc18f0eee78ef6fded1c4ec84555561", "type": "electric_scooter", "lon": -77.0170305, "rental_uris": {"android": "https://dc.lft.to/lastmile_qr_scan", "ios": "https://dc.lft.to/lastmile_qr_scan"}, "lat": 38.9052105, "is_reserved": 0, "is_disabled": 0, "fusion_lat": 0.0}, {"fusion_lon": 0.0, "bike_id": "4d2ff667f7861b496e9133d63beb4edb", "name": "4d2ff667f7861b496e9133d63beb4edb", "type": "electric_scooter", "lon": -76.98713366666667, "rental_uris": {"android": "https://dc.lft.to/lastmile_qr_scan", "ios": "https://dc.lft.to/lastmile_qr_scan"}, "lat": 38.86697683333333, "is_reserved": 0, "is_disabled": 0, "fusion_lat": 0.0}, {"fusion_lon": 0.0, "bike_id": "1a2e6d43df23b2fc56e9ac7a56aea5cb", "name": "1a2e6d43df23b2fc56e9ac7a56aea5cb", "type": "electric_scooter", "lon": -77.05525316666666, "rental_uris": {"android": "https://dc.lft.to/lastmile_qr_scan", "ios": "https://dc.lft.to/lastmile_qr_scan"}, "lat": 38.897272666666666, "is_reserved": 0, "is_disabled": 0, "fusion_lat": 0.0}, {"fusion_lon": 0.0, "bike_id": "31217897578c13566cb2abcbd2a40480", "name": "31217897578c13566cb2abcbd2a40480", "type": "electric_scooter", "lon": -77.02596166666666, "rental_uris": {"android": "https://dc.lft.to/lastmile_qr_scan", "ios": "https://dc.lft.to/lastmile_qr_scan"}, "lat": 38.901537, "is_reserved": 0, "is_disabled": 0, "fusion_lat": 0.0}, {"fusion_lon": 0.0, "bike_id": "693f8a9e2b506046770a1fa1a0a6a0c0", "name": "693f8a9e2b506046770a1fa1a0a6a0c0", "type": "electric_bike", "lon": -77.06251283333333, "rental_uris": {"android": "https://dc.lft.to/lastmile_qr_scan", "ios": "https://dc.lft.to/lastmile_qr_scan"}, "lat": 38.902335666666666, "is_reserved": 0, "is_disabled": 0, "fusion_lat": 0.0}, {"fusion_lon": 0.0, "bike_id": "895dd2c67e892fad244fc9e6be697d02", "name": "895dd2c67e892fad244fc9e6be697d02", "type": "electric_scooter", "lon": -77.0267595, "rental_uris": {"android": "https://dc.lft.to/lastmile_qr_scan", "ios": "https://dc.lft.to/lastmile_qr_scan"}, "lat": 38.89590466666667, "is_reserved": 0, "is_disabled": 0, "fusion_lat": 0.0}, {"fusion_lon": 0.0, "bike_id": "88096bbb07bfcc520d7e42a41c09fe16", "name": "88096bbb07bfcc520d7e42a41c09fe16", "type": "electric_scooter", "lon": -77.04652266666666, "rental_uris": {"android": "https://dc.lft.to/lastmile_qr_scan", "ios": "https://dc.lft.to/lastmile_qr_scan"}, "lat": 38.91027366666667, "is_reserved": 0, "is_disabled": 0, "fusion_lat": 0.0}, {"fusion_lon": 0.0, "bike_id": "aedf9e6cb5b9c30cf2aecc6a589ace72", "name": "aedf9e6cb5b9c30cf2aecc6a589ace72", "type": "electric_bike", "lon": -77.09563433333334, "rental_uris": {"android": "https://dc.lft.to/lastmile_qr_scan", "ios": "https://dc.lft.to/lastmile_qr_scan"}, "lat": 38.917043, "is_reserved": 0, "is_disabled": 0, "fusion_lat": 0.0}, {"fusion_lon": 0.0, "bike_id": "44b14aacddfb6aa80f14f72f4ff02ddf", "name": "44b14aacddfb6aa80f14f72f4ff02ddf", "type": "electric_scooter", "lon": -77.03664233333333, "rental_uris": {"android": "https://dc.lft.to/lastmile_qr_scan", "ios": "https://dc.lft.to/lastmile_qr_scan"}, "lat": 38.91729733333333, "is_reserved": 0, "is_disabled": 0, "fusion_lat": 0.0}, {"fusion_lon": 0.0, "bike_id": "415f1b835e79c3a99074d9b4819ca214", "name": "415f1b835e79c3a99074d9b4819ca214", "type": "electric_scooter", "lon": -77.02159583333334, "rental_uris": {"android": "https://dc.lft.to/lastmile_qr_scan", "ios": "https://dc.lft.to/lastmile_qr_scan"}, "lat": 38.926036833333335, "is_reserved": 0, "is_disabled": 0, "fusion_lat": 0.0}, {"fusion_lon": 0.0, "bike_id": "b6d5e12a43b9baebe7ae713c7335ac51", "name": "b6d5e12a43b9baebe7ae713c7335ac51", "type": "electric_scooter", "lon": -77.03210633333333, "rental_uris": {"android": "https://dc.lft.to/lastmile_qr_scan", "ios": "https://dc.lft.to/lastmile_qr_scan"}, "lat": 38.92586433333334, "is_reserved": 0, "is_disabled": 0, "fusion_lat": 0.0}, {"fusion_lon": 0.0, "bike_id": "a0d6b41494da207161edaac167e6694c", "name": "a0d6b41494da207161edaac167e6694c", "type": "electric_scooter", "lon": -76.98210433333334, "rental_uris": {"android": "https://dc.lft.to/lastmile_qr_scan", "ios": "https://dc.lft.to/lastmile_qr_scan"}, "lat": 38.8864375, "is_reserved": 0, "is_disabled": 0, "fusion_lat": 0.0}, {"fusion_lon": 0.0, "bike_id": "31c4dc8697091b887730034886fc30b3", "name": "31c4dc8697091b887730034886fc30b3", "type": "electric_scooter", "lon": -77.00621133333334, "rental_uris": {"android": "https://dc.lft.to/lastmile_qr_scan", "ios": "https://dc.lft.to/lastmile_qr_scan"}, "lat": 38.87192233333333, "is_reserved": 0, "is_disabled": 0, "fusion_lat": 0.0}, {"fusion_lon": 0.0, "bike_id": "3f2cf236c29d758a6494205b864ad607", "name": "3f2cf236c29d758a6494205b864ad607", "type": "electric_bike", "lon": -77.12503, "rental_uris": {"android": "https://dc.lft.to/lastmile_qr_scan", "ios": "https://dc.lft.to/lastmile_qr_scan"}, "lat": 39.024230333333335, "is_reserved": 0, "is_disabled": 0, "fusion_lat": 0.0}, {"fusion_lon": 0.0, "bike_id": "6b0cb6a9e86f6b8bd0dbd6f78ac7154e", "name": "6b0cb6a9e86f6b8bd0dbd6f78ac7154e", "type": "electric_bike", "lon": -76.99566, "rental_uris": {"android": "https://dc.lft.to/lastmile_qr_scan", "ios": "https://dc.lft.to/lastmile_qr_scan"}, "lat": 39.0078245, "is_reserved": 0, "is_disabled": 0, "fusion_lat": 0.0}, {"fusion_lon": 0.0, "bike_id": "9c48ab47818b92cf7a6d8915054e9ad7", "name": "9c48ab47818b92cf7a6d8915054e9ad7", "type": "electric_scooter", "lon": -77.02224483333333, "rental_uris": {"android": "https://dc.lft.to/lastmile_qr_scan", "ios": "https://dc.lft.to/lastmile_qr_scan"}, "lat": 38.898402, "is_reserved": 0, "is_disabled": 0, "fusion_lat": 0.0}, {"fusion_lon": 0.0, "bike_id": "61b475654adea1381dbdb68d90701b21", "name": "61b475654adea1381dbdb68d90701b21", "type": "electric_scooter", "lon": -77.04351716666666, "rental_uris": {"android": "https://dc.lft.to/lastmile_qr_scan", "ios": "https://dc.lft.to/lastmile_qr_scan"}, "lat": 38.9002975, "is_reserved": 0, "is_disabled": 0, "fusion_lat": 0.0}, {"fusion_lon": 0.0, "bike_id": "d57dda5ec4acb3e054406c16f91f6583", "name": "d57dda5ec4acb3e054406c16f91f6583", "type": "electric_scooter", "lon": -77.0289485, "rental_uris": {"android": "https://dc.lft.to/lastmile_qr_scan", "ios": "https://dc.lft.to/lastmile_qr_scan"}, "lat": 38.904528666666664, "is_reserved": 0, "is_disabled": 0, "fusion_lat": 0.0}, {"fusion_lon": 0.0, "bike_id": "a7032bd32b60e93d2117eb38bec5b890", "name": "a7032bd32b60e93d2117eb38bec5b890", "type": "electric_scooter", "lon": -77.04703516666666, "rental_uris": {"android": "https://dc.lft.to/lastmile_qr_scan", "ios": "https://dc.lft.to/lastmile_qr_scan"}, "lat": 38.9166945, "is_reserved": 0, "is_disabled": 0, "fusion_lat": 0.0}, {"fusion_lon": 0.0, "bike_id": "fd6bd14401f8d9ef375705cb53a0f2bb", "name": "fd6bd14401f8d9ef375705cb53a0f2bb", "type": "electric_scooter", "lon": -77.03773616666666, "rental_uris": {"android": "https://dc.lft.to/lastmile_qr_scan", "ios": "https://dc.lft.to/lastmile_qr_scan"}, "lat": 38.916851333333334, "is_reserved": 0, "is_disabled": 0, "fusion_lat": 0.0}, {"fusion_lon": 0.0, "bike_id": "7f60b7cf57436abe6ead193002ec3e2b", "name": "7f60b7cf57436abe6ead193002ec3e2b", "type": "electric_scooter", "lon": -77.020042, "rental_uris": {"android": "https://dc.lft.to/lastmile_qr_scan", "ios": "https://dc.lft.to/lastmile_qr_scan"}, "lat": 38.911863333333336, "is_reserved": 0, "is_disabled": 0, "fusion_lat": 0.0}, {"fusion_lon": 0.0, "bike_id": "79d96059f9391e58d931ec7a75df9610", "name": "79d96059f9391e58d931ec7a75df9610", "type": "electric_scooter", "lon": -77.02725733333334, "rental_uris": {"android": "https://dc.lft.to/lastmile_qr_scan", "ios": "https://dc.lft.to/lastmile_qr_scan"}, "lat": 38.940848833333334, "is_reserved": 0, "is_disabled": 0, "fusion_lat": 0.0}, {"fusion_lon": 0.0, "bike_id": "4df384ade65d3821179d4b4f6579f68b", "name": "4df384ade65d3821179d4b4f6579f68b", "type": "electric_scooter", "lon": -77.074268, "rental_uris": {"android": "https://dc.lft.to/lastmile_qr_scan", "ios": "https://dc.lft.to/lastmile_qr_scan"}, "lat": 38.911104, "is_reserved": 0, "is_disabled": 0, "fusion_lat": 0.0}, {"fusion_lon": 0.0, "bike_id": "e0be5cee975c3108b38557995901c4c2", "name": "e0be5cee975c3108b38557995901c4c2", "type": "electric_scooter", "lon": -77.009174, "rental_uris": {"android": "https://dc.lft.to/lastmile_qr_scan", "ios": "https://dc.lft.to/lastmile_qr_scan"}, "lat": 38.95951816666667, "is_reserved": 0, "is_disabled": 0, "fusion_lat": 0.0}, {"fusion_lon": 0.0, "bike_id": "8f2754233fe5c8f7f39493d85e1ad069", "name": "8f2754233fe5c8f7f39493d85e1ad069", "type": "electric_bike", "lon": -77.128981, "rental_uris": {"android": "https://dc.lft.to/lastmile_qr_scan", "ios": "https://dc.lft.to/lastmile_qr_scan"}, "lat": 38.8637595, "is_reserved": 0, "is_disabled": 0, "fusion_lat": 0.0}, {"fusion_lon": 0.0, "bike_id": "86de648e7100be18eff70b9554584e26", "name": "86de648e7100be18eff70b9554584e26", "type": "electric_bike", "lon": -77.02100816666666, "rental_uris": {"android": "https://dc.lft.to/lastmile_qr_scan", "ios": "https://dc.lft.to/lastmile_qr_scan"}, "lat": 39.02303033333333, "is_reserved": 0, "is_disabled": 0, "fusion_lat": 0.0}, {"fusion_lon": 0.0, "bike_id": "175def64acaf0a23dde5336571b503d4", "name": "175def64acaf0a23dde5336571b503d4", "type": "electric_scooter", "lon": -77.024848, "rental_uris": {"android": "https://dc.lft.to/lastmile_qr_scan", "ios": "https://dc.lft.to/lastmile_qr_scan"}, "lat": 38.916995666666665, "is_reserved": 0, "is_disabled": 0, "fusion_lat": 0.0}, {"fusion_lon": 0.0, "bike_id": "aeb1126ce50760ed4af3dc910a04eac6", "name": "aeb1126ce50760ed4af3dc910a04eac6", "type": "electric_scooter", "lon": -77.05862916666666, "rental_uris": {"android": "https://dc.lft.to/lastmile_qr_scan", "ios": "https://dc.lft.to/lastmile_qr_scan"}, "lat": 38.936097, "is_reserved": 0, "is_disabled": 0, "fusion_lat": 0.0}, {"fusion_lon": 0.0, "bike_id": "490bcdf9ee973ece6726d7141fe6d114", "name": "490bcdf9ee973ece6726d7141fe6d114", "type": "electric_scooter", "lon": -77.033772, "rental_uris": {"android": "https://dc.lft.to/lastmile_qr_scan", "ios": "https://dc.lft.to/lastmile_qr_scan"}, "lat": 38.928887, "is_reserved": 0, "is_disabled": 0, "fusion_lat": 0.0}, {"fusion_lon": 0.0, "bike_id": "b6c95e604bec22bb96a956ad00709f2d", "name": "b6c95e604bec22bb96a956ad00709f2d", "type": "electric_scooter", "lon": -77.05278533333333, "rental_uris": {"android": "https://dc.lft.to/lastmile_qr_scan", "ios": "https://dc.lft.to/lastmile_qr_scan"}, "lat": 38.922575, "is_reserved": 0, "is_disabled": 0, "fusion_lat": 0.0}, {"fusion_lon": 0.0, "bike_id": "9105b03c49dcf966900138bd02fcd917", "name": "9105b03c49dcf966900138bd02fcd917", "type": "electric_scooter", "lon": -77.04113616666666, "rental_uris": {"android": "https://dc.lft.to/lastmile_qr_scan", "ios": "https://dc.lft.to/lastmile_qr_scan"}, "lat": 38.90966016666667, "is_reserved": 0, "is_disabled": 0, "fusion_lat": 0.0}, {"fusion_lon": 0.0, "bike_id": "578a8fcb50cc7cd7316987bb8f92bca7", "name": "578a8fcb50cc7cd7316987bb8f92bca7", "type": "electric_scooter", "lon": -77.03643, "rental_uris": {"android": "https://dc.lft.to/lastmile_qr_scan", "ios": "https://dc.lft.to/lastmile_qr_scan"}, "lat": 38.92417966666667, "is_reserved": 0, "is_disabled": 0, "fusion_lat": 0.0}, {"fusion_lon": 0.0, "bike_id": "e814617338e82733b67a52203c8c9431", "name": "e814617338e82733b67a52203c8c9431", "type": "electric_scooter", "lon": -76.987411, "rental_uris": {"android": "https://dc.lft.to/lastmile_qr_scan", "ios": "https://dc.lft.to/lastmile_qr_scan"}, "lat": 38.867109666666664, "is_reserved": 0, "is_disabled": 0, "fusion_lat": 0.0}, {"fusion_lon": 0.0, "bike_id": "1d9d8c539eccaad4534d0e3e5b6c2bf6", "name": "1d9d8c539eccaad4534d0e3e5b6c2bf6", "type": "electric_scooter", "lon": -77.02417433333333, "rental_uris": {"android": "https://dc.lft.to/lastmile_qr_scan", "ios": "https://dc.lft.to/lastmile_qr_scan"}, "lat": 38.95747583333333, "is_reserved": 0, "is_disabled": 0, "fusion_lat": 0.0}, {"fusion_lon": 0.0, "bike_id": "f88412abd1079add4f38d8335f36e5e3", "name": "f88412abd1079add4f38d8335f36e5e3", "type": "electric_scooter", "lon": -77.04017016666667, "rental_uris": {"android": "https://dc.lft.to/lastmile_qr_scan", "ios": "https://dc.lft.to/lastmile_qr_scan"}, "lat": 38.9176175, "is_reserved": 0, "is_disabled": 0, "fusion_lat": 0.0}, {"fusion_lon": 0.0, "bike_id": "a275f4c9de3a345c9b143e4c179d120b", "name": "a275f4c9de3a345c9b143e4c179d120b", "type": "electric_scooter", "lon": -77.02309233333334, "rental_uris": {"android": "https://dc.lft.to/lastmile_qr_scan", "ios": "https://dc.lft.to/lastmile_qr_scan"}, "lat": 38.918346166666666, "is_reserved": 0, "is_disabled": 0, "fusion_lat": 0.0}, {"fusion_lon": 0.0, "bike_id": "92a132aba75161769fdb52b8c73075d9", "name": "92a132aba75161769fdb52b8c73075d9", "type": "electric_bike", "lon": -77.0058935, "rental_uris": {"android": "https://dc.lft.to/lastmile_qr_scan", "ios": "https://dc.lft.to/lastmile_qr_scan"}, "lat": 38.898004666666665, "is_reserved": 0, "is_disabled": 0, "fusion_lat": 0.0}, {"fusion_lon": 0.0, "bike_id": "561e477e963d0c3179e10a0d97cb358f", "name": "561e477e963d0c3179e10a0d97cb358f", "type": "electric_scooter", "lon": -77.030758, "rental_uris": {"android": "https://dc.lft.to/lastmile_qr_scan", "ios": "https://dc.lft.to/lastmile_qr_scan"}, "lat": 38.922504, "is_reserved": 0, "is_disabled": 0, "fusion_lat": 0.0}, {"fusion_lon": 0.0, "bike_id": "1c6d6203f3f54f0a9075423b34baec83", "name": "1c6d6203f3f54f0a9075423b34baec83", "type": "electric_scooter", "lon": -77.03117716666667, "rental_uris": {"android": "https://dc.lft.to/lastmile_qr_scan", "ios": "https://dc.lft.to/lastmile_qr_scan"}, "lat": 38.92020183333333, "is_reserved": 0, "is_disabled": 0, "fusion_lat": 0.0}, {"fusion_lon": 0.0, "bike_id": "b2ef306bf87a94048f9542473bb867e8", "name": "b2ef306bf87a94048f9542473bb867e8", "type": "electric_scooter", "lon": -76.9727825, "rental_uris": {"android": "https://dc.lft.to/lastmile_qr_scan", "ios": "https://dc.lft.to/lastmile_qr_scan"}, "lat": 38.93084133333333, "is_reserved": 0, "is_disabled": 0, "fusion_lat": 0.0}, {"fusion_lon": 0.0, "bike_id": "a122af13dbc704f9b34824d02c4a2476", "name": "a122af13dbc704f9b34824d02c4a2476", "type": "electric_bike", "lon": -77.02589516666667, "rental_uris": {"android": "https://dc.lft.to/lastmile_qr_scan", "ios": "https://dc.lft.to/lastmile_qr_scan"}, "lat": 38.904992166666666, "is_reserved": 0, "is_disabled": 0, "fusion_lat": 0.0}, {"fusion_lon": 0.0, "bike_id": "5c973d491a87a9567f4cbd14d2c6ed1e", "name": "5c973d491a87a9567f4cbd14d2c6ed1e", "type": "electric_scooter", "lon": -77.043348, "rental_uris": {"android": "https://dc.lft.to/lastmile_qr_scan", "ios": "https://dc.lft.to/lastmile_qr_scan"}, "lat": 38.900460833333334, "is_reserved": 0, "is_disabled": 0, "fusion_lat": 0.0}, {"fusion_lon": 0.0, "bike_id": "ed81284396bf7a16b6fd28fa29e17721", "name": "ed81284396bf7a16b6fd28fa29e17721", "type": "electric_scooter", "lon": -76.941551, "rental_uris": {"android": "https://dc.lft.to/lastmile_qr_scan", "ios": "https://dc.lft.to/lastmile_qr_scan"}, "lat": 38.88365433333333, "is_reserved": 0, "is_disabled": 0, "fusion_lat": 0.0}, {"fusion_lon": 0.0, "bike_id": "69f1fce3b9820deb2da4577290b9f50b", "name": "69f1fce3b9820deb2da4577290b9f50b", "type": "electric_bike", "lon": -77.00076116666666, "rental_uris": {"android": "https://dc.lft.to/lastmile_qr_scan", "ios": "https://dc.lft.to/lastmile_qr_scan"}, "lat": 38.8762625, "is_reserved": 0, "is_disabled": 0, "fusion_lat": 0.0}, {"fusion_lon": 0.0, "bike_id": "26171b2c1e7381af9e7d47d786f75b27", "name": "26171b2c1e7381af9e7d47d786f75b27", "type": "electric_scooter", "lon": -77.02, "rental_uris": {"android": "https://dc.lft.to/lastmile_qr_scan", "ios": "https://dc.lft.to/lastmile_qr_scan"}, "lat": 38.87674583333333, "is_reserved": 0, "is_disabled": 0, "fusion_lat": 0.0}, {"fusion_lon": 0.0, "bike_id": "2baa2c0aa3b89d5aaef1ef5846fc83fd", "name": "2baa2c0aa3b89d5aaef1ef5846fc83fd", "type": "electric_scooter", "lon": -76.99019466666667, "rental_uris": {"android": "https://dc.lft.to/lastmile_qr_scan", "ios": "https://dc.lft.to/lastmile_qr_scan"}, "lat": 38.90035833333334, "is_reserved": 0, "is_disabled": 0, "fusion_lat": 0.0}, {"fusion_lon": 0.0, "bike_id": "0e874c613efae14320a13b19e7eb4ad8", "name": "0e874c613efae14320a13b19e7eb4ad8", "type": "electric_scooter", "lon": -77.05411483333333, "rental_uris": {"android": "https://dc.lft.to/lastmile_qr_scan", "ios": "https://dc.lft.to/lastmile_qr_scan"}, "lat": 38.928313833333334, "is_reserved": 0, "is_disabled": 0, "fusion_lat": 0.0}, {"fusion_lon": 0.0, "bike_id": "571436848f0050a5d14389d55b90b66d", "name": "571436848f0050a5d14389d55b90b66d", "type": "electric_scooter", "lon": -77.04166933333333, "rental_uris": {"android": "https://dc.lft.to/lastmile_qr_scan", "ios": "https://dc.lft.to/lastmile_qr_scan"}, "lat": 38.8989635, "is_reserved": 0, "is_disabled": 0, "fusion_lat": 0.0}, {"fusion_lon": 0.0, "bike_id": "c2b7f4e6d50f321823274026e810cf1b", "name": "c2b7f4e6d50f321823274026e810cf1b", "type": "electric_scooter", "lon": -77.0332335, "rental_uris": {"android": "https://dc.lft.to/lastmile_qr_scan", "ios": "https://dc.lft.to/lastmile_qr_scan"}, "lat": 38.913979, "is_reserved": 0, "is_disabled": 0, "fusion_lat": 0.0}, {"fusion_lon": 0.0, "bike_id": "408ba4f6b67efd16d2a4aaad138855dd", "name": "408ba4f6b67efd16d2a4aaad138855dd", "type": "electric_scooter", "lon": -77.03207416666666, "rental_uris": {"android": "https://dc.lft.to/lastmile_qr_scan", "ios": "https://dc.lft.to/lastmile_qr_scan"}, "lat": 38.911386, "is_reserved": 0, "is_disabled": 0, "fusion_lat": 0.0}, {"fusion_lon": 0.0, "bike_id": "36124e04cabdd25c3216ec6e73b6af75", "name": "36124e04cabdd25c3216ec6e73b6af75", "type": "electric_scooter", "lon": -77.03361783333334, "rental_uris": {"android": "https://dc.lft.to/lastmile_qr_scan", "ios": "https://dc.lft.to/lastmile_qr_scan"}, "lat": 38.918112666666666, "is_reserved": 0, "is_disabled": 0, "fusion_lat": 0.0}, {"fusion_lon": 0.0, "bike_id": "308eb14ea106e79e8daa326367b1d6f3", "name": "308eb14ea106e79e8daa326367b1d6f3", "type": "electric_scooter", "lon": -76.93554216666666, "rental_uris": {"android": "https://dc.lft.to/lastmile_qr_scan", "ios": "https://dc.lft.to/lastmile_qr_scan"}, "lat": 38.9015905, "is_reserved": 0, "is_disabled": 0, "fusion_lat": 0.0}, {"fusion_lon": 0.0, "bike_id": "a32b2586dccf5668ae90c560261d5226", "name": "a32b2586dccf5668ae90c560261d5226", "type": "electric_scooter", "lon": -77.0156245, "rental_uris": {"android": "https://dc.lft.to/lastmile_qr_scan", "ios": "https://dc.lft.to/lastmile_qr_scan"}, "lat": 38.9139805, "is_reserved": 0, "is_disabled": 0, "fusion_lat": 0.0}, {"fusion_lon": 0.0, "bike_id": "a20ba706fdcfec676dbb29185706693f", "name": "a20ba706fdcfec676dbb29185706693f", "type": "electric_scooter", "lon": -77.0397155, "rental_uris": {"android": "https://dc.lft.to/lastmile_qr_scan", "ios": "https://dc.lft.to/lastmile_qr_scan"}, "lat": 38.91195666666667, "is_reserved": 0, "is_disabled": 0, "fusion_lat": 0.0}, {"fusion_lon": 0.0, "bike_id": "8aabf7478c999b0a677c7c42161a2c8d", "name": "8aabf7478c999b0a677c7c42161a2c8d", "type": "electric_scooter", "lon": -77.02530533333334, "rental_uris": {"android": "https://dc.lft.to/lastmile_qr_scan", "ios": "https://dc.lft.to/lastmile_qr_scan"}, "lat": 38.948415, "is_reserved": 0, "is_disabled": 0, "fusion_lat": 0.0}, {"fusion_lon": 0.0, "bike_id": "f10c1e61040c4e5ed297369de74d5f5f", "name": "f10c1e61040c4e5ed297369de74d5f5f", "type": "electric_scooter", "lon": -76.99339216666667, "rental_uris": {"android": "https://dc.lft.to/lastmile_qr_scan", "ios": "https://dc.lft.to/lastmile_qr_scan"}, "lat": 38.83876, "is_reserved": 0, "is_disabled": 0, "fusion_lat": 0.0}, {"fusion_lon": 0.0, "bike_id": "89d821eeb374a33f2947d34a7b6a4f61", "name": "89d821eeb374a33f2947d34a7b6a4f61", "type": "electric_scooter", "lon": -77.02585716666667, "rental_uris": {"android": "https://dc.lft.to/lastmile_qr_scan", "ios": "https://dc.lft.to/lastmile_qr_scan"}, "lat": 38.942122166666664, "is_reserved": 0, "is_disabled": 0, "fusion_lat": 0.0}, {"fusion_lon": 0.0, "bike_id": "6de5411a55bbe9e506c294694929f78c", "name": "6de5411a55bbe9e506c294694929f78c", "type": "electric_scooter", "lon": -77.0189245, "rental_uris": {"android": "https://dc.lft.to/lastmile_qr_scan", "ios": "https://dc.lft.to/lastmile_qr_scan"}, "lat": 38.93910783333333, "is_reserved": 0, "is_disabled": 0, "fusion_lat": 0.0}, {"fusion_lon": 0.0, "bike_id": "afb20499168eb8f4d5a740c4bd8170e0", "name": "afb20499168eb8f4d5a740c4bd8170e0", "type": "electric_scooter", "lon": -77.02289266666666, "rental_uris": {"android": "https://dc.lft.to/lastmile_qr_scan", "ios": "https://dc.lft.to/lastmile_qr_scan"}, "lat": 38.909198333333336, "is_reserved": 0, "is_disabled": 0, "fusion_lat": 0.0}, {"fusion_lon": 0.0, "bike_id": "2dd9a9f112e0b9d54cb2c99aea991715", "name": "2dd9a9f112e0b9d54cb2c99aea991715", "type": "electric_bike", "lon": -76.94767633333333, "rental_uris": {"android": "https://dc.lft.to/lastmile_qr_scan", "ios": "https://dc.lft.to/lastmile_qr_scan"}, "lat": 38.89643183333333, "is_reserved": 0, "is_disabled": 0, "fusion_lat": 0.0}, {"fusion_lon": 0.0, "bike_id": "93e12bdb7e7b0a16f02e5c4b3e003ded", "name": "93e12bdb7e7b0a16f02e5c4b3e003ded", "type": "electric_scooter", "lon": -77.02589216666667, "rental_uris": {"android": "https://dc.lft.to/lastmile_qr_scan", "ios": "https://dc.lft.to/lastmile_qr_scan"}, "lat": 38.92034, "is_reserved": 0, "is_disabled": 0, "fusion_lat": 0.0}, {"fusion_lon": 0.0, "bike_id": "ed2021211dcda2c56da52620618a95aa", "name": "ed2021211dcda2c56da52620618a95aa", "type": "electric_scooter", "lon": -77.03747833333334, "rental_uris": {"android": "https://dc.lft.to/lastmile_qr_scan", "ios": "https://dc.lft.to/lastmile_qr_scan"}, "lat": 38.90232116666667, "is_reserved": 0, "is_disabled": 0, "fusion_lat": 0.0}, {"fusion_lon": 0.0, "bike_id": "8f20468ab3adeef9e8240f9f434528c0", "name": "8f20468ab3adeef9e8240f9f434528c0", "type": "electric_scooter", "lon": -76.98462083333334, "rental_uris": {"android": "https://dc.lft.to/lastmile_qr_scan", "ios": "https://dc.lft.to/lastmile_qr_scan"}, "lat": 38.893659666666665, "is_reserved": 0, "is_disabled": 0, "fusion_lat": 0.0}, {"fusion_lon": 0.0, "bike_id": "531e6573588ed4c470190d01e298ac3a", "name": "531e6573588ed4c470190d01e298ac3a", "type": "electric_scooter", "lon": -77.01202, "rental_uris": {"android": "https://dc.lft.to/lastmile_qr_scan", "ios": "https://dc.lft.to/lastmile_qr_scan"}, "lat": 38.927444, "is_reserved": 0, "is_disabled": 0, "fusion_lat": 0.0}, {"fusion_lon": 0.0, "bike_id": "df3e5619b01fd9d98d55866c1bdf0475", "name": "df3e5619b01fd9d98d55866c1bdf0475", "type": "electric_scooter", "lon": -76.985523, "rental_uris": {"android": "https://dc.lft.to/lastmile_qr_scan", "ios": "https://dc.lft.to/lastmile_qr_scan"}, "lat": 38.904221666666665, "is_reserved": 0, "is_disabled": 0, "fusion_lat": 0.0}, {"fusion_lon": 0.0, "bike_id": "81f5ac7d016bcde8a13f98df31ee3356", "name": "81f5ac7d016bcde8a13f98df31ee3356", "type": "electric_scooter", "lon": -77.002117, "rental_uris": {"android": "https://dc.lft.to/lastmile_qr_scan", "ios": "https://dc.lft.to/lastmile_qr_scan"}, "lat": 38.9028745, "is_reserved": 0, "is_disabled": 0, "fusion_lat": 0.0}, {"fusion_lon": 0.0, "bike_id": "34a3c319ad7700b1dffc2f25633615a3", "name": "34a3c319ad7700b1dffc2f25633615a3", "type": "electric_scooter", "lon": -77.02480783333333, "rental_uris": {"android": "https://dc.lft.to/lastmile_qr_scan", "ios": "https://dc.lft.to/lastmile_qr_scan"}, "lat": 38.93837516666667, "is_reserved": 0, "is_disabled": 0, "fusion_lat": 0.0}, {"fusion_lon": 0.0, "bike_id": "f009703b5b6ef6ba2accb110ecee17ce", "name": "f009703b5b6ef6ba2accb110ecee17ce", "type": "electric_scooter", "lon": -77.00332433333334, "rental_uris": {"android": "https://dc.lft.to/lastmile_qr_scan", "ios": "https://dc.lft.to/lastmile_qr_scan"}, "lat": 38.89354866666667, "is_reserved": 0, "is_disabled": 0, "fusion_lat": 0.0}, {"fusion_lon": 0.0, "bike_id": "c74b4c4b37e42a70107b2a791a290b8b", "name": "c74b4c4b37e42a70107b2a791a290b8b", "type": "electric_scooter", "lon": -77.03203633333334, "rental_uris": {"android": "https://dc.lft.to/lastmile_qr_scan", "ios": "https://dc.lft.to/lastmile_qr_scan"}, "lat": 38.91094566666666, "is_reserved": 0, "is_disabled": 0, "fusion_lat": 0.0}, {"fusion_lon": 0.0, "bike_id": "c3d3f1b58fa9e4413ff629e203c84174", "name": "c3d3f1b58fa9e4413ff629e203c84174", "type": "electric_scooter", "lon": -77.0240415, "rental_uris": {"android": "https://dc.lft.to/lastmile_qr_scan", "ios": "https://dc.lft.to/lastmile_qr_scan"}, "lat": 38.934960333333336, "is_reserved": 0, "is_disabled": 0, "fusion_lat": 0.0}, {"fusion_lon": 0.0, "bike_id": "8856d7151fd456b8263e3c0fa9c64879", "name": "8856d7151fd456b8263e3c0fa9c64879", "type": "electric_scooter", "lon": -77.04328383333333, "rental_uris": {"android": "https://dc.lft.to/lastmile_qr_scan", "ios": "https://dc.lft.to/lastmile_qr_scan"}, "lat": 38.8980775, "is_reserved": 0, "is_disabled": 0, "fusion_lat": 0.0}, {"fusion_lon": 0.0, "bike_id": "e272ea0149a14318f7d5db6434950fc6", "name": "e272ea0149a14318f7d5db6434950fc6", "type": "electric_scooter", "lon": -77.04625766666666, "rental_uris": {"android": "https://dc.lft.to/lastmile_qr_scan", "ios": "https://dc.lft.to/lastmile_qr_scan"}, "lat": 38.9180735, "is_reserved": 0, "is_disabled": 0, "fusion_lat": 0.0}, {"fusion_lon": 0.0, "bike_id": "e3162e70eac62748af914a171b8794d5", "name": "e3162e70eac62748af914a171b8794d5", "type": "electric_scooter", "lon": -77.010169, "rental_uris": {"android": "https://dc.lft.to/lastmile_qr_scan", "ios": "https://dc.lft.to/lastmile_qr_scan"}, "lat": 38.906245166666665, "is_reserved": 0, "is_disabled": 0, "fusion_lat": 0.0}, {"fusion_lon": 0.0, "bike_id": "f29bb4354fe0ae9ebf8d69629a5a8546", "name": "f29bb4354fe0ae9ebf8d69629a5a8546", "type": "electric_bike", "lon": -76.952056, "rental_uris": {"android": "https://dc.lft.to/lastmile_qr_scan", "ios": "https://dc.lft.to/lastmile_qr_scan"}, "lat": 38.93665, "is_reserved": 0, "is_disabled": 0, "fusion_lat": 0.0}, {"fusion_lon": 0.0, "bike_id": "89f86cfbee7a773e075b7ed2d0bf90af", "name": "89f86cfbee7a773e075b7ed2d0bf90af", "type": "electric_scooter", "lon": -77.0319975, "rental_uris": {"android": "https://dc.lft.to/lastmile_qr_scan", "ios": "https://dc.lft.to/lastmile_qr_scan"}, "lat": 38.9074325, "is_reserved": 0, "is_disabled": 0, "fusion_lat": 0.0}, {"fusion_lon": 0.0, "bike_id": "5683c9503c1100ffd6b47ec9a70837b4", "name": "5683c9503c1100ffd6b47ec9a70837b4", "type": "electric_scooter", "lon": -76.9873075, "rental_uris": {"android": "https://dc.lft.to/lastmile_qr_scan", "ios": "https://dc.lft.to/lastmile_qr_scan"}, "lat": 38.86711666666667, "is_reserved": 0, "is_disabled": 0, "fusion_lat": 0.0}, {"fusion_lon": 0.0, "bike_id": "cfdbc8617e1eb3ebb30b5f4ee0de8adf", "name": "cfdbc8617e1eb3ebb30b5f4ee0de8adf", "type": "electric_scooter", "lon": -77.03536533333333, "rental_uris": {"android": "https://dc.lft.to/lastmile_qr_scan", "ios": "https://dc.lft.to/lastmile_qr_scan"}, "lat": 38.903809333333335, "is_reserved": 0, "is_disabled": 0, "fusion_lat": 0.0}, {"fusion_lon": 0.0, "bike_id": "560e77d35e3f4fa6ca7f348c991e14be", "name": "560e77d35e3f4fa6ca7f348c991e14be", "type": "electric_scooter", "lon": -77.0235195, "rental_uris": {"android": "https://dc.lft.to/lastmile_qr_scan", "ios": "https://dc.lft.to/lastmile_qr_scan"}, "lat": 38.92258066666667, "is_reserved": 0, "is_disabled": 0, "fusion_lat": 0.0}, {"fusion_lon": 0.0, "bike_id": "1065a96d899b941a4a01e6470a2bfc69", "name": "1065a96d899b941a4a01e6470a2bfc69", "type": "electric_bike", "lon": -77.08805, "rental_uris": {"android": "https://dc.lft.to/lastmile_qr_scan", "ios": "https://dc.lft.to/lastmile_qr_scan"}, "lat": 38.8317695, "is_reserved": 0, "is_disabled": 0, "fusion_lat": 0.0}, {"fusion_lon": 0.0, "bike_id": "6bf2ea25284fe6121a1f5e11d62c854d", "name": "6bf2ea25284fe6121a1f5e11d62c854d", "type": "electric_scooter", "lon": -77.03339683333333, "rental_uris": {"android": "https://dc.lft.to/lastmile_qr_scan", "ios": "https://dc.lft.to/lastmile_qr_scan"}, "lat": 38.91709383333333, "is_reserved": 0, "is_disabled": 0, "fusion_lat": 0.0}, {"fusion_lon": 0.0, "bike_id": "3c9499a11fe6abb7ca4366a7f0a7b37c", "name": "3c9499a11fe6abb7ca4366a7f0a7b37c", "type": "electric_scooter", "lon": -77.03676316666666, "rental_uris": {"android": "https://dc.lft.to/lastmile_qr_scan", "ios": "https://dc.lft.to/lastmile_qr_scan"}, "lat": 38.911076666666666, "is_reserved": 0, "is_disabled": 0, "fusion_lat": 0.0}, {"fusion_lon": 0.0, "bike_id": "10bc065caa585c9c68461d8337f5d534", "name": "10bc065caa585c9c68461d8337f5d534", "type": "electric_scooter", "lon": -77.02843366666667, "rental_uris": {"android": "https://dc.lft.to/lastmile_qr_scan", "ios": "https://dc.lft.to/lastmile_qr_scan"}, "lat": 38.91713816666667, "is_reserved": 0, "is_disabled": 0, "fusion_lat": 0.0}, {"fusion_lon": 0.0, "bike_id": "ae3dd9c471b27972a7e592de53c7a003", "name": "ae3dd9c471b27972a7e592de53c7a003", "type": "electric_scooter", "lon": -77.004329, "rental_uris": {"android": "https://dc.lft.to/lastmile_qr_scan", "ios": "https://dc.lft.to/lastmile_qr_scan"}, "lat": 38.8770345, "is_reserved": 0, "is_disabled": 0, "fusion_lat": 0.0}, {"fusion_lon": 0.0, "bike_id": "a8636729ed99be05e38f645395e3b005", "name": "a8636729ed99be05e38f645395e3b005", "type": "electric_scooter", "lon": -77.00430666666666, "rental_uris": {"android": "https://dc.lft.to/lastmile_qr_scan", "ios": "https://dc.lft.to/lastmile_qr_scan"}, "lat": 38.9119415, "is_reserved": 0, "is_disabled": 0, "fusion_lat": 0.0}, {"fusion_lon": 0.0, "bike_id": "776bcfa98478e4ec3bdc8a035a25c0fb", "name": "776bcfa98478e4ec3bdc8a035a25c0fb", "type": "electric_scooter", "lon": -77.007128, "rental_uris": {"android": "https://dc.lft.to/lastmile_qr_scan", "ios": "https://dc.lft.to/lastmile_qr_scan"}, "lat": 38.88487766666667, "is_reserved": 0, "is_disabled": 0, "fusion_lat": 0.0}, {"fusion_lon": 0.0, "bike_id": "82951c790d7bcbb14af5c4dd7408887d", "name": "82951c790d7bcbb14af5c4dd7408887d", "type": "electric_scooter", "lon": -76.99541466666666, "rental_uris": {"android": "https://dc.lft.to/lastmile_qr_scan", "ios": "https://dc.lft.to/lastmile_qr_scan"}, "lat": 38.86251216666667, "is_reserved": 0, "is_disabled": 0, "fusion_lat": 0.0}, {"fusion_lon": 0.0, "bike_id": "9d7a5598983c0ecdccfa02daa7ed3105", "name": "9d7a5598983c0ecdccfa02daa7ed3105", "type": "electric_scooter", "lon": -77.023011, "rental_uris": {"android": "https://dc.lft.to/lastmile_qr_scan", "ios": "https://dc.lft.to/lastmile_qr_scan"}, "lat": 38.92727816666667, "is_reserved": 0, "is_disabled": 0, "fusion_lat": 0.0}, {"fusion_lon": 0.0, "bike_id": "d2b1d5260b913bea775141c234a0910d", "name": "d2b1d5260b913bea775141c234a0910d", "type": "electric_scooter", "lon": -77.03938766666667, "rental_uris": {"android": "https://dc.lft.to/lastmile_qr_scan", "ios": "https://dc.lft.to/lastmile_qr_scan"}, "lat": 38.8997505, "is_reserved": 0, "is_disabled": 0, "fusion_lat": 0.0}, {"fusion_lon": 0.0, "bike_id": "7bc2ca83c2538b7b97b9f2110dfa1286", "name": "7bc2ca83c2538b7b97b9f2110dfa1286", "type": "electric_scooter", "lon": -76.975438, "rental_uris": {"android": "https://dc.lft.to/lastmile_qr_scan", "ios": "https://dc.lft.to/lastmile_qr_scan"}, "lat": 38.91412483333333, "is_reserved": 0, "is_disabled": 0, "fusion_lat": 0.0}, {"fusion_lon": 0.0, "bike_id": "d19087fa0889217be2746f2c74013e61", "name": "d19087fa0889217be2746f2c74013e61", "type": "electric_scooter", "lon": -77.03573033333333, "rental_uris": {"android": "https://dc.lft.to/lastmile_qr_scan", "ios": "https://dc.lft.to/lastmile_qr_scan"}, "lat": 38.90388733333333, "is_reserved": 0, "is_disabled": 0, "fusion_lat": 0.0}, {"fusion_lon": 0.0, "bike_id": "b72432096ca2d0739e71b6cf9fff1fc9", "name": "b72432096ca2d0739e71b6cf9fff1fc9", "type": "electric_bike", "lon": -77.03991216666667, "rental_uris": {"android": "https://dc.lft.to/lastmile_qr_scan", "ios": "https://dc.lft.to/lastmile_qr_scan"}, "lat": 38.80294466666667, "is_reserved": 0, "is_disabled": 0, "fusion_lat": 0.0}, {"fusion_lon": 0.0, "bike_id": "61591365b903beb86712a2baa90069a0", "name": "61591365b903beb86712a2baa90069a0", "type": "electric_scooter", "lon": -77.0156795, "rental_uris": {"android": "https://dc.lft.to/lastmile_qr_scan", "ios": "https://dc.lft.to/lastmile_qr_scan"}, "lat": 38.87262783333333, "is_reserved": 0, "is_disabled": 0, "fusion_lat": 0.0}, {"fusion_lon": 0.0, "bike_id": "4ba38cd9e9a4fc1902ada3e07369cde9", "name": "4ba38cd9e9a4fc1902ada3e07369cde9", "type": "electric_scooter", "lon": -77.0110955, "rental_uris": {"android": "https://dc.lft.to/lastmile_qr_scan", "ios": "https://dc.lft.to/lastmile_qr_scan"}, "lat": 38.90967933333334, "is_reserved": 0, "is_disabled": 0, "fusion_lat": 0.0}, {"fusion_lon": 0.0, "bike_id": "1e29d9128440e45317b18dccf5a7c7d1", "name": "1e29d9128440e45317b18dccf5a7c7d1", "type": "electric_scooter", "lon": -77.01440766666667, "rental_uris": {"android": "https://dc.lft.to/lastmile_qr_scan", "ios": "https://dc.lft.to/lastmile_qr_scan"}, "lat": 38.9196205, "is_reserved": 0, "is_disabled": 0, "fusion_lat": 0.0}, {"fusion_lon": 0.0, "bike_id": "4ac792a789730ab1e2e7fdc7011c8c3b", "name": "4ac792a789730ab1e2e7fdc7011c8c3b", "type": "electric_scooter", "lon": -76.9953515, "rental_uris": {"android": "https://dc.lft.to/lastmile_qr_scan", "ios": "https://dc.lft.to/lastmile_qr_scan"}, "lat": 38.90033666666667, "is_reserved": 0, "is_disabled": 0, "fusion_lat": 0.0}, {"fusion_lon": 0.0, "bike_id": "27f4b78862da8c9d496fcf380e53a9c8", "name": "27f4b78862da8c9d496fcf380e53a9c8", "type": "electric_scooter", "lon": -77.00835883333333, "rental_uris": {"android": "https://dc.lft.to/lastmile_qr_scan", "ios": "https://dc.lft.to/lastmile_qr_scan"}, "lat": 38.87637866666667, "is_reserved": 0, "is_disabled": 0, "fusion_lat": 0.0}, {"fusion_lon": 0.0, "bike_id": "df30c75dbe8713413dacb54592dcdcd4", "name": "df30c75dbe8713413dacb54592dcdcd4", "type": "electric_scooter", "lon": -77.0410795, "rental_uris": {"android": "https://dc.lft.to/lastmile_qr_scan", "ios": "https://dc.lft.to/lastmile_qr_scan"}, "lat": 38.90144316666667, "is_reserved": 0, "is_disabled": 0, "fusion_lat": 0.0}, {"fusion_lon": 0.0, "bike_id": "0cea2846bb34722c55e696c2ca547ab5", "name": "0cea2846bb34722c55e696c2ca547ab5", "type": "electric_bike", "lon": -76.87772733333334, "rental_uris": {"android": "https://dc.lft.to/lastmile_qr_scan", "ios": "https://dc.lft.to/lastmile_qr_scan"}, "lat": 38.992236, "is_reserved": 0, "is_disabled": 0, "fusion_lat": 0.0}, {"fusion_lon": 0.0, "bike_id": "d2d212b8d7382005d59a06680e23cc24", "name": "d2d212b8d7382005d59a06680e23cc24", "type": "electric_bike", "lon": -76.94869266666667, "rental_uris": {"android": "https://dc.lft.to/lastmile_qr_scan", "ios": "https://dc.lft.to/lastmile_qr_scan"}, "lat": 38.889675833333335, "is_reserved": 0, "is_disabled": 0, "fusion_lat": 0.0}, {"fusion_lon": 0.0, "bike_id": "16de69b66b6587b22b80376668819933", "name": "16de69b66b6587b22b80376668819933", "type": "electric_bike", "lon": -76.963929, "rental_uris": {"android": "https://dc.lft.to/lastmile_qr_scan", "ios": "https://dc.lft.to/lastmile_qr_scan"}, "lat": 38.975788666666666, "is_reserved": 0, "is_disabled": 0, "fusion_lat": 0.0}, {"fusion_lon": 0.0, "bike_id": "30595bcaa4a9cc5d815e4cdcac74bcee", "name": "30595bcaa4a9cc5d815e4cdcac74bcee", "type": "electric_scooter", "lon": -77.044773, "rental_uris": {"android": "https://dc.lft.to/lastmile_qr_scan", "ios": "https://dc.lft.to/lastmile_qr_scan"}, "lat": 38.9110795, "is_reserved": 0, "is_disabled": 0, "fusion_lat": 0.0}, {"fusion_lon": 0.0, "bike_id": "a8a55dcd4b639fc8cc21a105209292b1", "name": "a8a55dcd4b639fc8cc21a105209292b1", "type": "electric_scooter", "lon": -76.97822516666666, "rental_uris": {"android": "https://dc.lft.to/lastmile_qr_scan", "ios": "https://dc.lft.to/lastmile_qr_scan"}, "lat": 38.846162666666665, "is_reserved": 0, "is_disabled": 0, "fusion_lat": 0.0}, {"fusion_lon": 0.0, "bike_id": "e306cbd7221fa74c1826684f0ddda171", "name": "e306cbd7221fa74c1826684f0ddda171", "type": "electric_scooter", "lon": -76.94889283333333, "rental_uris": {"android": "https://dc.lft.to/lastmile_qr_scan", "ios": "https://dc.lft.to/lastmile_qr_scan"}, "lat": 38.89510416666667, "is_reserved": 0, "is_disabled": 0, "fusion_lat": 0.0}, {"fusion_lon": 0.0, "bike_id": "a629638b06932776430a2d7794813f28", "name": "a629638b06932776430a2d7794813f28", "type": "electric_bike", "lon": -76.97308516666666, "rental_uris": {"android": "https://dc.lft.to/lastmile_qr_scan", "ios": "https://dc.lft.to/lastmile_qr_scan"}, "lat": 38.86577583333333, "is_reserved": 0, "is_disabled": 0, "fusion_lat": 0.0}, {"fusion_lon": 0.0, "bike_id": "a967de3210983a34860b88e892ea543e", "name": "a967de3210983a34860b88e892ea543e", "type": "electric_scooter", "lon": -77.03100266666667, "rental_uris": {"android": "https://dc.lft.to/lastmile_qr_scan", "ios": "https://dc.lft.to/lastmile_qr_scan"}, "lat": 38.92852666666667, "is_reserved": 0, "is_disabled": 0, "fusion_lat": 0.0}, {"fusion_lon": 0.0, "bike_id": "b7f8b2cc5daecf21da9d5c7a857c4338", "name": "b7f8b2cc5daecf21da9d5c7a857c4338", "type": "electric_scooter", "lon": -77.03336533333334, "rental_uris": {"android": "https://dc.lft.to/lastmile_qr_scan", "ios": "https://dc.lft.to/lastmile_qr_scan"}, "lat": 38.8922385, "is_reserved": 0, "is_disabled": 0, "fusion_lat": 0.0}, {"fusion_lon": 0.0, "bike_id": "1be4ed9bc5571fca261f6b63801a7a86", "name": "1be4ed9bc5571fca261f6b63801a7a86", "type": "electric_scooter", "lon": -77.0086005, "rental_uris": {"android": "https://dc.lft.to/lastmile_qr_scan", "ios": "https://dc.lft.to/lastmile_qr_scan"}, "lat": 38.87655816666667, "is_reserved": 0, "is_disabled": 0, "fusion_lat": 0.0}, {"fusion_lon": 0.0, "bike_id": "9ed61ccfaedd61f3d09f17877554cf65", "name": "9ed61ccfaedd61f3d09f17877554cf65", "type": "electric_scooter", "lon": -77.03238083333333, "rental_uris": {"android": "https://dc.lft.to/lastmile_qr_scan", "ios": "https://dc.lft.to/lastmile_qr_scan"}, "lat": 38.91697966666667, "is_reserved": 0, "is_disabled": 0, "fusion_lat": 0.0}, {"fusion_lon": 0.0, "bike_id": "80feed0435ead9ee3c1e7ce6528022a7", "name": "80feed0435ead9ee3c1e7ce6528022a7", "type": "electric_scooter", "lon": -76.98654066666667, "rental_uris": {"android": "https://dc.lft.to/lastmile_qr_scan", "ios": "https://dc.lft.to/lastmile_qr_scan"}, "lat": 38.9131415, "is_reserved": 0, "is_disabled": 0, "fusion_lat": 0.0}, {"fusion_lon": 0.0, "bike_id": "930c1df66aa3219c68312b591f44b66e", "name": "930c1df66aa3219c68312b591f44b66e", "type": "electric_scooter", "lon": -76.99898033333334, "rental_uris": {"android": "https://dc.lft.to/lastmile_qr_scan", "ios": "https://dc.lft.to/lastmile_qr_scan"}, "lat": 38.956515333333336, "is_reserved": 0, "is_disabled": 0, "fusion_lat": 0.0}, {"fusion_lon": 0.0, "bike_id": "c4f258ba3dd5a4fb4d2b5bf0bf4b7c75", "name": "c4f258ba3dd5a4fb4d2b5bf0bf4b7c75", "type": "electric_scooter", "lon": -77.0861665, "rental_uris": {"android": "https://dc.lft.to/lastmile_qr_scan", "ios": "https://dc.lft.to/lastmile_qr_scan"}, "lat": 38.9587225, "is_reserved": 0, "is_disabled": 0, "fusion_lat": 0.0}, {"fusion_lon": 0.0, "bike_id": "8561f126f5bda77a5aad49a38c9c3d6a", "name": "8561f126f5bda77a5aad49a38c9c3d6a", "type": "electric_scooter", "lon": -76.99486716666667, "rental_uris": {"android": "https://dc.lft.to/lastmile_qr_scan", "ios": "https://dc.lft.to/lastmile_qr_scan"}, "lat": 38.899747, "is_reserved": 0, "is_disabled": 0, "fusion_lat": 0.0}, {"fusion_lon": 0.0, "bike_id": "45d7cb72e02d41ed358275a4dbdb5568", "name": "45d7cb72e02d41ed358275a4dbdb5568", "type": "electric_scooter", "lon": -77.04007966666667, "rental_uris": {"android": "https://dc.lft.to/lastmile_qr_scan", "ios": "https://dc.lft.to/lastmile_qr_scan"}, "lat": 38.91038966666667, "is_reserved": 0, "is_disabled": 0, "fusion_lat": 0.0}, {"fusion_lon": 0.0, "bike_id": "34f9781c47455ff58e22a305b22676da", "name": "34f9781c47455ff58e22a305b22676da", "type": "electric_scooter", "lon": -76.94890116666667, "rental_uris": {"android": "https://dc.lft.to/lastmile_qr_scan", "ios": "https://dc.lft.to/lastmile_qr_scan"}, "lat": 38.895332333333336, "is_reserved": 0, "is_disabled": 0, "fusion_lat": 0.0}, {"fusion_lon": 0.0, "bike_id": "c540cc8f5153cabe6d30785326ad6512", "name": "c540cc8f5153cabe6d30785326ad6512", "type": "electric_scooter", "lon": -77.03428983333333, "rental_uris": {"android": "https://dc.lft.to/lastmile_qr_scan", "ios": "https://dc.lft.to/lastmile_qr_scan"}, "lat": 38.902572, "is_reserved": 0, "is_disabled": 0, "fusion_lat": 0.0}, {"fusion_lon": 0.0, "bike_id": "5b1472083f5a21bf8160901531bfc9fa", "name": "5b1472083f5a21bf8160901531bfc9fa", "type": "electric_scooter", "lon": -77.0346745, "rental_uris": {"android": "https://dc.lft.to/lastmile_qr_scan", "ios": "https://dc.lft.to/lastmile_qr_scan"}, "lat": 38.918032833333335, "is_reserved": 0, "is_disabled": 0, "fusion_lat": 0.0}, {"fusion_lon": 0.0, "bike_id": "753136eeb6dfd02b67877ae32c869257", "name": "753136eeb6dfd02b67877ae32c869257", "type": "electric_scooter", "lon": -77.00919633333334, "rental_uris": {"android": "https://dc.lft.to/lastmile_qr_scan", "ios": "https://dc.lft.to/lastmile_qr_scan"}, "lat": 38.895526333333336, "is_reserved": 0, "is_disabled": 0, "fusion_lat": 0.0}, {"fusion_lon": 0.0, "bike_id": "53a4fee46fa362016b2dfa6d0f943f6c", "name": "53a4fee46fa362016b2dfa6d0f943f6c", "type": "electric_bike", "lon": -76.98027216666667, "rental_uris": {"android": "https://dc.lft.to/lastmile_qr_scan", "ios": "https://dc.lft.to/lastmile_qr_scan"}, "lat": 38.88752516666667, "is_reserved": 0, "is_disabled": 0, "fusion_lat": 0.0}, {"fusion_lon": 0.0, "bike_id": "81cbdce1cb6365a90dcadd44d503468e", "name": "81cbdce1cb6365a90dcadd44d503468e", "type": "electric_scooter", "lon": -77.04682983333333, "rental_uris": {"android": "https://dc.lft.to/lastmile_qr_scan", "ios": "https://dc.lft.to/lastmile_qr_scan"}, "lat": 38.8982875, "is_reserved": 0, "is_disabled": 0, "fusion_lat": 0.0}, {"fusion_lon": 0.0, "bike_id": "07dd4a1a55ba9336b8a896cff266d768", "name": "07dd4a1a55ba9336b8a896cff266d768", "type": "electric_scooter", "lon": -77.031899, "rental_uris": {"android": "https://dc.lft.to/lastmile_qr_scan", "ios": "https://dc.lft.to/lastmile_qr_scan"}, "lat": 38.917616333333335, "is_reserved": 0, "is_disabled": 0, "fusion_lat": 0.0}, {"fusion_lon": 0.0, "bike_id": "02ac581fa18252ca5109414b5a383f31", "name": "02ac581fa18252ca5109414b5a383f31", "type": "electric_scooter", "lon": -77.0074875, "rental_uris": {"android": "https://dc.lft.to/lastmile_qr_scan", "ios": "https://dc.lft.to/lastmile_qr_scan"}, "lat": 38.8765735, "is_reserved": 0, "is_disabled": 0, "fusion_lat": 0.0}, {"fusion_lon": 0.0, "bike_id": "0eeb1ee047c5acb7d5f6e2589988c761", "name": "0eeb1ee047c5acb7d5f6e2589988c761", "type": "electric_scooter", "lon": -77.05263916666667, "rental_uris": {"android": "https://dc.lft.to/lastmile_qr_scan", "ios": "https://dc.lft.to/lastmile_qr_scan"}, "lat": 38.910217333333335, "is_reserved": 0, "is_disabled": 0, "fusion_lat": 0.0}, {"fusion_lon": 0.0, "bike_id": "49fd3d528dc75e9a33d5d25b95673c18", "name": "49fd3d528dc75e9a33d5d25b95673c18", "type": "electric_scooter", "lon": -77.03504616666666, "rental_uris": {"android": "https://dc.lft.to/lastmile_qr_scan", "ios": "https://dc.lft.to/lastmile_qr_scan"}, "lat": 38.91878366666667, "is_reserved": 0, "is_disabled": 0, "fusion_lat": 0.0}, {"fusion_lon": 0.0, "bike_id": "0b1e63deefb31ac360e8de496f6676a1", "name": "0b1e63deefb31ac360e8de496f6676a1", "type": "electric_scooter", "lon": -76.98093433333334, "rental_uris": {"android": "https://dc.lft.to/lastmile_qr_scan", "ios": "https://dc.lft.to/lastmile_qr_scan"}, "lat": 38.8571825, "is_reserved": 0, "is_disabled": 0, "fusion_lat": 0.0}, {"fusion_lon": 0.0, "bike_id": "1486364f6e9f8408e41f3585816b2668", "name": "1486364f6e9f8408e41f3585816b2668", "type": "electric_scooter", "lon": -77.02779833333334, "rental_uris": {"android": "https://dc.lft.to/lastmile_qr_scan", "ios": "https://dc.lft.to/lastmile_qr_scan"}, "lat": 38.892191333333336, "is_reserved": 0, "is_disabled": 0, "fusion_lat": 0.0}, {"fusion_lon": 0.0, "bike_id": "a6c80e0415d51b0953b7115b33d1bebb", "name": "a6c80e0415d51b0953b7115b33d1bebb", "type": "electric_scooter", "lon": -77.0190315, "rental_uris": {"android": "https://dc.lft.to/lastmile_qr_scan", "ios": "https://dc.lft.to/lastmile_qr_scan"}, "lat": 38.904865, "is_reserved": 0, "is_disabled": 0, "fusion_lat": 0.0}, {"fusion_lon": 0.0, "bike_id": "23815e970dc886f94372580afee5e3ad", "name": "23815e970dc886f94372580afee5e3ad", "type": "electric_scooter", "lon": -77.03331, "rental_uris": {"android": "https://dc.lft.to/lastmile_qr_scan", "ios": "https://dc.lft.to/lastmile_qr_scan"}, "lat": 38.901371, "is_reserved": 0, "is_disabled": 0, "fusion_lat": 0.0}, {"fusion_lon": 0.0, "bike_id": "da8c25ac3bcf655c592b7927ea26795a", "name": "da8c25ac3bcf655c592b7927ea26795a", "type": "electric_scooter", "lon": -77.03291616666667, "rental_uris": {"android": "https://dc.lft.to/lastmile_qr_scan", "ios": "https://dc.lft.to/lastmile_qr_scan"}, "lat": 38.92875516666667, "is_reserved": 0, "is_disabled": 0, "fusion_lat": 0.0}, {"fusion_lon": 0.0, "bike_id": "1726bc4f476e383bde8509dac3aec491", "name": "1726bc4f476e383bde8509dac3aec491", "type": "electric_bike", "lon": -77.18294183333333, "rental_uris": {"android": "https://dc.lft.to/lastmile_qr_scan", "ios": "https://dc.lft.to/lastmile_qr_scan"}, "lat": 38.8833915, "is_reserved": 0, "is_disabled": 0, "fusion_lat": 0.0}, {"fusion_lon": 0.0, "bike_id": "77fd57d83ecf8d20b9700b1bae6ffb45", "name": "77fd57d83ecf8d20b9700b1bae6ffb45", "type": "electric_scooter", "lon": -77.0221545, "rental_uris": {"android": "https://dc.lft.to/lastmile_qr_scan", "ios": "https://dc.lft.to/lastmile_qr_scan"}, "lat": 38.94474983333333, "is_reserved": 0, "is_disabled": 0, "fusion_lat": 0.0}, {"fusion_lon": 0.0, "bike_id": "8bc99e28a3165a4c7aa6b0afddb4c6c5", "name": "8bc99e28a3165a4c7aa6b0afddb4c6c5", "type": "electric_scooter", "lon": -77.05928683333333, "rental_uris": {"android": "https://dc.lft.to/lastmile_qr_scan", "ios": "https://dc.lft.to/lastmile_qr_scan"}, "lat": 38.936677833333334, "is_reserved": 0, "is_disabled": 0, "fusion_lat": 0.0}, {"fusion_lon": 0.0, "bike_id": "a3aa112daf972c47eceb2773a534911f", "name": "a3aa112daf972c47eceb2773a534911f", "type": "electric_scooter", "lon": -77.02477783333333, "rental_uris": {"android": "https://dc.lft.to/lastmile_qr_scan", "ios": "https://dc.lft.to/lastmile_qr_scan"}, "lat": 38.93908716666667, "is_reserved": 0, "is_disabled": 0, "fusion_lat": 0.0}, {"fusion_lon": 0.0, "bike_id": "bd75bf7fb4427f3c7c13e5afadc9d066", "name": "bd75bf7fb4427f3c7c13e5afadc9d066", "type": "electric_scooter", "lon": -76.9901855, "rental_uris": {"android": "https://dc.lft.to/lastmile_qr_scan", "ios": "https://dc.lft.to/lastmile_qr_scan"}, "lat": 38.858678, "is_reserved": 0, "is_disabled": 0, "fusion_lat": 0.0}, {"fusion_lon": 0.0, "bike_id": "39ad6f08115d38e243e4f68bdf5192f2", "name": "39ad6f08115d38e243e4f68bdf5192f2", "type": "electric_scooter", "lon": -76.985575, "rental_uris": {"android": "https://dc.lft.to/lastmile_qr_scan", "ios": "https://dc.lft.to/lastmile_qr_scan"}, "lat": 38.8605915, "is_reserved": 0, "is_disabled": 0, "fusion_lat": 0.0}, {"fusion_lon": 0.0, "bike_id": "f1fa2ef932a878b1dc88e33a20245bc8", "name": "f1fa2ef932a878b1dc88e33a20245bc8", "type": "electric_scooter", "lon": -77.029632, "rental_uris": {"android": "https://dc.lft.to/lastmile_qr_scan", "ios": "https://dc.lft.to/lastmile_qr_scan"}, "lat": 38.9214405, "is_reserved": 0, "is_disabled": 0, "fusion_lat": 0.0}, {"fusion_lon": 0.0, "bike_id": "bfadfe80efa5ece21ef43c65c52abfda", "name": "bfadfe80efa5ece21ef43c65c52abfda", "type": "electric_scooter", "lon": -77.0249715, "rental_uris": {"android": "https://dc.lft.to/lastmile_qr_scan", "ios": "https://dc.lft.to/lastmile_qr_scan"}, "lat": 38.918055, "is_reserved": 0, "is_disabled": 0, "fusion_lat": 0.0}, {"fusion_lon": 0.0, "bike_id": "52219702c55dbddf54d207386f548246", "name": "52219702c55dbddf54d207386f548246", "type": "electric_scooter", "lon": -77.0045635, "rental_uris": {"android": "https://dc.lft.to/lastmile_qr_scan", "ios": "https://dc.lft.to/lastmile_qr_scan"}, "lat": 38.91144933333333, "is_reserved": 0, "is_disabled": 0, "fusion_lat": 0.0}, {"fusion_lon": 0.0, "bike_id": "2336cdb8bec6eaf7fea95524a234524e", "name": "2336cdb8bec6eaf7fea95524a234524e", "type": "electric_scooter", "lon": -77.02615, "rental_uris": {"android": "https://dc.lft.to/lastmile_qr_scan", "ios": "https://dc.lft.to/lastmile_qr_scan"}, "lat": 38.9001345, "is_reserved": 0, "is_disabled": 0, "fusion_lat": 0.0}, {"fusion_lon": 0.0, "bike_id": "94ab4ef1db29ea995b0c9f6739864f0b", "name": "94ab4ef1db29ea995b0c9f6739864f0b", "type": "electric_scooter", "lon": -77.03478083333333, "rental_uris": {"android": "https://dc.lft.to/lastmile_qr_scan", "ios": "https://dc.lft.to/lastmile_qr_scan"}, "lat": 38.911132333333335, "is_reserved": 0, "is_disabled": 0, "fusion_lat": 0.0}, {"fusion_lon": 0.0, "bike_id": "145052cc6171b15deaa859d732bbd639", "name": "145052cc6171b15deaa859d732bbd639", "type": "electric_scooter", "lon": -77.0395805, "rental_uris": {"android": "https://dc.lft.to/lastmile_qr_scan", "ios": "https://dc.lft.to/lastmile_qr_scan"}, "lat": 38.899806833333336, "is_reserved": 0, "is_disabled": 0, "fusion_lat": 0.0}, {"fusion_lon": 0.0, "bike_id": "a17be69704b4c456bd64194fc4dac86d", "name": "a17be69704b4c456bd64194fc4dac86d", "type": "electric_scooter", "lon": -77.030894, "rental_uris": {"android": "https://dc.lft.to/lastmile_qr_scan", "ios": "https://dc.lft.to/lastmile_qr_scan"}, "lat": 38.94677216666667, "is_reserved": 0, "is_disabled": 0, "fusion_lat": 0.0}, {"fusion_lon": 0.0, "bike_id": "7c93665f02cf993f93e5459932ff332f", "name": "7c93665f02cf993f93e5459932ff332f", "type": "electric_scooter", "lon": -77.02639016666667, "rental_uris": {"android": "https://dc.lft.to/lastmile_qr_scan", "ios": "https://dc.lft.to/lastmile_qr_scan"}, "lat": 38.9026515, "is_reserved": 0, "is_disabled": 0, "fusion_lat": 0.0}, {"fusion_lon": 0.0, "bike_id": "a3f3f3a2b6ec61eacae3c766d49507db", "name": "a3f3f3a2b6ec61eacae3c766d49507db", "type": "electric_scooter", "lon": -77.02664483333334, "rental_uris": {"android": "https://dc.lft.to/lastmile_qr_scan", "ios": "https://dc.lft.to/lastmile_qr_scan"}, "lat": 38.92181716666666, "is_reserved": 0, "is_disabled": 0, "fusion_lat": 0.0}, {"fusion_lon": 0.0, "bike_id": "4bd59ff182ba1b68a893e355d6698038", "name": "4bd59ff182ba1b68a893e355d6698038", "type": "electric_scooter", "lon": -77.03310216666667, "rental_uris": {"android": "https://dc.lft.to/lastmile_qr_scan", "ios": "https://dc.lft.to/lastmile_qr_scan"}, "lat": 38.90378316666666, "is_reserved": 0, "is_disabled": 0, "fusion_lat": 0.0}, {"fusion_lon": 0.0, "bike_id": "db3e131b5d00011642a5b77467fedab5", "name": "db3e131b5d00011642a5b77467fedab5", "type": "electric_scooter", "lon": -77.04479533333334, "rental_uris": {"android": "https://dc.lft.to/lastmile_qr_scan", "ios": "https://dc.lft.to/lastmile_qr_scan"}, "lat": 38.908665, "is_reserved": 0, "is_disabled": 0, "fusion_lat": 0.0}, {"fusion_lon": 0.0, "bike_id": "ccd75c7cdece2a4e9424cedfad3e3429", "name": "ccd75c7cdece2a4e9424cedfad3e3429", "type": "electric_scooter", "lon": -77.03922466666667, "rental_uris": {"android": "https://dc.lft.to/lastmile_qr_scan", "ios": "https://dc.lft.to/lastmile_qr_scan"}, "lat": 38.91187, "is_reserved": 0, "is_disabled": 0, "fusion_lat": 0.0}, {"fusion_lon": 0.0, "bike_id": "95ecbf7ebb5651fdfb4ffb3e39893da6", "name": "95ecbf7ebb5651fdfb4ffb3e39893da6", "type": "electric_scooter", "lon": -77.04363416666666, "rental_uris": {"android": "https://dc.lft.to/lastmile_qr_scan", "ios": "https://dc.lft.to/lastmile_qr_scan"}, "lat": 38.8923575, "is_reserved": 0, "is_disabled": 0, "fusion_lat": 0.0}, {"fusion_lon": 0.0, "bike_id": "abd4d441e9d8a2d15497937578f0468d", "name": "abd4d441e9d8a2d15497937578f0468d", "type": "electric_scooter", "lon": -77.01902533333333, "rental_uris": {"android": "https://dc.lft.to/lastmile_qr_scan", "ios": "https://dc.lft.to/lastmile_qr_scan"}, "lat": 38.912162333333335, "is_reserved": 0, "is_disabled": 0, "fusion_lat": 0.0}, {"fusion_lon": 0.0, "bike_id": "a9b018056445d28a231c2108036763d3", "name": "a9b018056445d28a231c2108036763d3", "type": "electric_bike", "lon": -77.09563233333333, "rental_uris": {"android": "https://dc.lft.to/lastmile_qr_scan", "ios": "https://dc.lft.to/lastmile_qr_scan"}, "lat": 38.916934833333336, "is_reserved": 0, "is_disabled": 0, "fusion_lat": 0.0}, {"fusion_lon": 0.0, "bike_id": "c14226ee1cd74ad9a77a9d9ae46a81db", "name": "c14226ee1cd74ad9a77a9d9ae46a81db", "type": "electric_scooter", "lon": -77.017217, "rental_uris": {"android": "https://dc.lft.to/lastmile_qr_scan", "ios": "https://dc.lft.to/lastmile_qr_scan"}, "lat": 38.90516783333333, "is_reserved": 0, "is_disabled": 0, "fusion_lat": 0.0}, {"fusion_lon": 0.0, "bike_id": "882585c67148f5a6b6d821bd15c4dd95", "name": "882585c67148f5a6b6d821bd15c4dd95", "type": "electric_scooter", "lon": -77.03668583333334, "rental_uris": {"android": "https://dc.lft.to/lastmile_qr_scan", "ios": "https://dc.lft.to/lastmile_qr_scan"}, "lat": 38.930913833333335, "is_reserved": 0, "is_disabled": 0, "fusion_lat": 0.0}, {"fusion_lon": 0.0, "bike_id": "14f3b480aa46ab89ae535175f9c84f17", "name": "14f3b480aa46ab89ae535175f9c84f17", "type": "electric_scooter", "lon": -77.02404016666667, "rental_uris": {"android": "https://dc.lft.to/lastmile_qr_scan", "ios": "https://dc.lft.to/lastmile_qr_scan"}, "lat": 38.937006833333335, "is_reserved": 0, "is_disabled": 0, "fusion_lat": 0.0}, {"fusion_lon": 0.0, "bike_id": "ff6cf9de55fb18eec5bb049dc33c9b6d", "name": "ff6cf9de55fb18eec5bb049dc33c9b6d", "type": "electric_scooter", "lon": -77.00516066666667, "rental_uris": {"android": "https://dc.lft.to/lastmile_qr_scan", "ios": "https://dc.lft.to/lastmile_qr_scan"}, "lat": 38.87472666666667, "is_reserved": 0, "is_disabled": 0, "fusion_lat": 0.0}, {"fusion_lon": 0.0, "bike_id": "c16ce79bcf2f2323471c8e66fe8e67c9", "name": "c16ce79bcf2f2323471c8e66fe8e67c9", "type": "electric_scooter", "lon": -77.02069933333334, "rental_uris": {"android": "https://dc.lft.to/lastmile_qr_scan", "ios": "https://dc.lft.to/lastmile_qr_scan"}, "lat": 38.94904, "is_reserved": 0, "is_disabled": 0, "fusion_lat": 0.0}, {"fusion_lon": 0.0, "bike_id": "d84e56e5d94930bb0cbb61d9b0dff7ce", "name": "d84e56e5d94930bb0cbb61d9b0dff7ce", "type": "electric_scooter", "lon": -77.03214766666666, "rental_uris": {"android": "https://dc.lft.to/lastmile_qr_scan", "ios": "https://dc.lft.to/lastmile_qr_scan"}, "lat": 38.916291666666666, "is_reserved": 0, "is_disabled": 0, "fusion_lat": 0.0}, {"fusion_lon": 0.0, "bike_id": "4f54149b4b4f7bb17a649809fb2645bf", "name": "4f54149b4b4f7bb17a649809fb2645bf", "type": "electric_scooter", "lon": -77.0431925, "rental_uris": {"android": "https://dc.lft.to/lastmile_qr_scan", "ios": "https://dc.lft.to/lastmile_qr_scan"}, "lat": 38.90698716666667, "is_reserved": 0, "is_disabled": 0, "fusion_lat": 0.0}, {"fusion_lon": 0.0, "bike_id": "8753741ea6696dba5f0a65623b9d45da", "name": "8753741ea6696dba5f0a65623b9d45da", "type": "electric_scooter", "lon": -76.99488366666667, "rental_uris": {"android": "https://dc.lft.to/lastmile_qr_scan", "ios": "https://dc.lft.to/lastmile_qr_scan"}, "lat": 38.86219333333333, "is_reserved": 0, "is_disabled": 0, "fusion_lat": 0.0}, {"fusion_lon": 0.0, "bike_id": "70504b13d2402bbd58405f2544850480", "name": "70504b13d2402bbd58405f2544850480", "type": "electric_scooter", "lon": -77.02622266666667, "rental_uris": {"android": "https://dc.lft.to/lastmile_qr_scan", "ios": "https://dc.lft.to/lastmile_qr_scan"}, "lat": 38.90238266666667, "is_reserved": 0, "is_disabled": 0, "fusion_lat": 0.0}, {"fusion_lon": 0.0, "bike_id": "f7d82741ce7e4a3fe984999f1ba02d6a", "name": "f7d82741ce7e4a3fe984999f1ba02d6a", "type": "electric_scooter", "lon": -76.98681716666667, "rental_uris": {"android": "https://dc.lft.to/lastmile_qr_scan", "ios": "https://dc.lft.to/lastmile_qr_scan"}, "lat": 38.858179166666666, "is_reserved": 0, "is_disabled": 0, "fusion_lat": 0.0}, {"fusion_lon": 0.0, "bike_id": "9024c982b148b06ed4ed4bb33d1d60ca", "name": "9024c982b148b06ed4ed4bb33d1d60ca", "type": "electric_scooter", "lon": -77.03631633333333, "rental_uris": {"android": "https://dc.lft.to/lastmile_qr_scan", "ios": "https://dc.lft.to/lastmile_qr_scan"}, "lat": 38.95600233333333, "is_reserved": 0, "is_disabled": 0, "fusion_lat": 0.0}, {"fusion_lon": 0.0, "bike_id": "85b5713db0964e22a84aec61d9c5983a", "name": "85b5713db0964e22a84aec61d9c5983a", "type": "electric_scooter", "lon": -77.0464655, "rental_uris": {"android": "https://dc.lft.to/lastmile_qr_scan", "ios": "https://dc.lft.to/lastmile_qr_scan"}, "lat": 38.914818833333335, "is_reserved": 0, "is_disabled": 0, "fusion_lat": 0.0}, {"fusion_lon": 0.0, "bike_id": "8562dbf835735c73670201bb63d18038", "name": "8562dbf835735c73670201bb63d18038", "type": "electric_bike", "lon": -77.03395016666667, "rental_uris": {"android": "https://dc.lft.to/lastmile_qr_scan", "ios": "https://dc.lft.to/lastmile_qr_scan"}, "lat": 38.96028233333333, "is_reserved": 0, "is_disabled": 0, "fusion_lat": 0.0}, {"fusion_lon": 0.0, "bike_id": "8c74d959742ec1b97c42a50e79d39c56", "name": "8c74d959742ec1b97c42a50e79d39c56", "type": "electric_scooter", "lon": -77.032937, "rental_uris": {"android": "https://dc.lft.to/lastmile_qr_scan", "ios": "https://dc.lft.to/lastmile_qr_scan"}, "lat": 38.92349766666667, "is_reserved": 0, "is_disabled": 0, "fusion_lat": 0.0}, {"fusion_lon": 0.0, "bike_id": "51864131f0e01d9e1488e70c419a5ddd", "name": "51864131f0e01d9e1488e70c419a5ddd", "type": "electric_scooter", "lon": -76.99697783333333, "rental_uris": {"android": "https://dc.lft.to/lastmile_qr_scan", "ios": "https://dc.lft.to/lastmile_qr_scan"}, "lat": 38.838676166666666, "is_reserved": 0, "is_disabled": 0, "fusion_lat": 0.0}, {"fusion_lon": 0.0, "bike_id": "7ba8928b8dd066baef5d1ba2030a00ed", "name": "7ba8928b8dd066baef5d1ba2030a00ed", "type": "electric_bike", "lon": -77.091635, "rental_uris": {"android": "https://dc.lft.to/lastmile_qr_scan", "ios": "https://dc.lft.to/lastmile_qr_scan"}, "lat": 38.967599666666665, "is_reserved": 0, "is_disabled": 0, "fusion_lat": 0.0}, {"fusion_lon": 0.0, "bike_id": "d89f8d138339e4d47a00982ca01382b8", "name": "d89f8d138339e4d47a00982ca01382b8", "type": "electric_scooter", "lon": -77.01757233333333, "rental_uris": {"android": "https://dc.lft.to/lastmile_qr_scan", "ios": "https://dc.lft.to/lastmile_qr_scan"}, "lat": 38.8768835, "is_reserved": 0, "is_disabled": 0, "fusion_lat": 0.0}, {"fusion_lon": 0.0, "bike_id": "4280afb1eebd2d8f8b6c81c69ccf53bf", "name": "4280afb1eebd2d8f8b6c81c69ccf53bf", "type": "electric_scooter", "lon": -77.04656216666666, "rental_uris": {"android": "https://dc.lft.to/lastmile_qr_scan", "ios": "https://dc.lft.to/lastmile_qr_scan"}, "lat": 38.89303133333333, "is_reserved": 0, "is_disabled": 0, "fusion_lat": 0.0}, {"fusion_lon": 0.0, "bike_id": "48d6660c632f94951d0638c5a695ae16", "name": "48d6660c632f94951d0638c5a695ae16", "type": "electric_scooter", "lon": -76.9963065, "rental_uris": {"android": "https://dc.lft.to/lastmile_qr_scan", "ios": "https://dc.lft.to/lastmile_qr_scan"}, "lat": 38.84621416666667, "is_reserved": 0, "is_disabled": 0, "fusion_lat": 0.0}, {"fusion_lon": 0.0, "bike_id": "f5136f71673cbcf4f89585d221140fcd", "name": "f5136f71673cbcf4f89585d221140fcd", "type": "electric_scooter", "lon": -77.04475616666667, "rental_uris": {"android": "https://dc.lft.to/lastmile_qr_scan", "ios": "https://dc.lft.to/lastmile_qr_scan"}, "lat": 38.91920666666667, "is_reserved": 0, "is_disabled": 0, "fusion_lat": 0.0}, {"fusion_lon": 0.0, "bike_id": "6e3c18ca522c039c818449629c663fd9", "name": "6e3c18ca522c039c818449629c663fd9", "type": "electric_scooter", "lon": -76.95751083333333, "rental_uris": {"android": "https://dc.lft.to/lastmile_qr_scan", "ios": "https://dc.lft.to/lastmile_qr_scan"}, "lat": 38.884322833333336, "is_reserved": 0, "is_disabled": 0, "fusion_lat": 0.0}, {"fusion_lon": 0.0, "bike_id": "aa6000e8801f0dfcd9d4df29a2dde957", "name": "aa6000e8801f0dfcd9d4df29a2dde957", "type": "electric_scooter", "lon": -77.02494, "rental_uris": {"android": "https://dc.lft.to/lastmile_qr_scan", "ios": "https://dc.lft.to/lastmile_qr_scan"}, "lat": 38.94185866666667, "is_reserved": 0, "is_disabled": 0, "fusion_lat": 0.0}, {"fusion_lon": 0.0, "bike_id": "7b559cb1660e0c94d76d9f4dc8d37732", "name": "7b559cb1660e0c94d76d9f4dc8d37732", "type": "electric_scooter", "lon": -77.045264, "rental_uris": {"android": "https://dc.lft.to/lastmile_qr_scan", "ios": "https://dc.lft.to/lastmile_qr_scan"}, "lat": 38.90773216666667, "is_reserved": 0, "is_disabled": 0, "fusion_lat": 0.0}, {"fusion_lon": 0.0, "bike_id": "5220b1b3224752b6a3d3d9341397580c", "name": "5220b1b3224752b6a3d3d9341397580c", "type": "electric_scooter", "lon": -76.9901765, "rental_uris": {"android": "https://dc.lft.to/lastmile_qr_scan", "ios": "https://dc.lft.to/lastmile_qr_scan"}, "lat": 38.861051, "is_reserved": 0, "is_disabled": 0, "fusion_lat": 0.0}, {"fusion_lon": 0.0, "bike_id": "d4c7e87e61e364b4e0556fcb96da8f0d", "name": "d4c7e87e61e364b4e0556fcb96da8f0d", "type": "electric_scooter", "lon": -77.06713916666666, "rental_uris": {"android": "https://dc.lft.to/lastmile_qr_scan", "ios": "https://dc.lft.to/lastmile_qr_scan"}, "lat": 38.914546333333334, "is_reserved": 0, "is_disabled": 0, "fusion_lat": 0.0}, {"fusion_lon": 0.0, "bike_id": "9a226a47034c96efd036c91bd002e26d", "name": "9a226a47034c96efd036c91bd002e26d", "type": "electric_bike", "lon": -77.02490333333333, "rental_uris": {"android": "https://dc.lft.to/lastmile_qr_scan", "ios": "https://dc.lft.to/lastmile_qr_scan"}, "lat": 38.97370516666667, "is_reserved": 0, "is_disabled": 0, "fusion_lat": 0.0}, {"fusion_lon": 0.0, "bike_id": "dc8a9a3b690a0fdf817468a1bfb963fd", "name": "dc8a9a3b690a0fdf817468a1bfb963fd", "type": "electric_scooter", "lon": -77.01751116666667, "rental_uris": {"android": "https://dc.lft.to/lastmile_qr_scan", "ios": "https://dc.lft.to/lastmile_qr_scan"}, "lat": 38.902562833333334, "is_reserved": 0, "is_disabled": 0, "fusion_lat": 0.0}, {"fusion_lon": 0.0, "bike_id": "0eb06b7baf4f7f87a899e328686ce719", "name": "0eb06b7baf4f7f87a899e328686ce719", "type": "electric_scooter", "lon": -76.9938945, "rental_uris": {"android": "https://dc.lft.to/lastmile_qr_scan", "ios": "https://dc.lft.to/lastmile_qr_scan"}, "lat": 38.8845415, "is_reserved": 0, "is_disabled": 0, "fusion_lat": 0.0}, {"fusion_lon": 0.0, "bike_id": "9852293e076c80a2b82c8e975766c81b", "name": "9852293e076c80a2b82c8e975766c81b", "type": "electric_scooter", "lon": -77.051564, "rental_uris": {"android": "https://dc.lft.to/lastmile_qr_scan", "ios": "https://dc.lft.to/lastmile_qr_scan"}, "lat": 38.923855333333336, "is_reserved": 0, "is_disabled": 0, "fusion_lat": 0.0}, {"fusion_lon": 0.0, "bike_id": "1db1f48de23aae060ad7e42919940627", "name": "1db1f48de23aae060ad7e42919940627", "type": "electric_scooter", "lon": -77.01386083333334, "rental_uris": {"android": "https://dc.lft.to/lastmile_qr_scan", "ios": "https://dc.lft.to/lastmile_qr_scan"}, "lat": 38.919515, "is_reserved": 0, "is_disabled": 0, "fusion_lat": 0.0}, {"fusion_lon": 0.0, "bike_id": "20b1306b98e634bfed03cfb81b67b6b4", "name": "20b1306b98e634bfed03cfb81b67b6b4", "type": "electric_scooter", "lon": -76.96574466666667, "rental_uris": {"android": "https://dc.lft.to/lastmile_qr_scan", "ios": "https://dc.lft.to/lastmile_qr_scan"}, "lat": 38.871358666666666, "is_reserved": 0, "is_disabled": 0, "fusion_lat": 0.0}, {"fusion_lon": 0.0, "bike_id": "bd9ccd2bc306afb963ac20bbde38558c", "name": "bd9ccd2bc306afb963ac20bbde38558c", "type": "electric_scooter", "lon": -77.02049966666667, "rental_uris": {"android": "https://dc.lft.to/lastmile_qr_scan", "ios": "https://dc.lft.to/lastmile_qr_scan"}, "lat": 38.958672166666666, "is_reserved": 0, "is_disabled": 0, "fusion_lat": 0.0}, {"fusion_lon": 0.0, "bike_id": "ca17ce6fbcc0a5301374116d61e0094a", "name": "ca17ce6fbcc0a5301374116d61e0094a", "type": "electric_scooter", "lon": -77.0395945, "rental_uris": {"android": "https://dc.lft.to/lastmile_qr_scan", "ios": "https://dc.lft.to/lastmile_qr_scan"}, "lat": 38.89243416666667, "is_reserved": 0, "is_disabled": 0, "fusion_lat": 0.0}, {"fusion_lon": 0.0, "bike_id": "3f8015f622edde8e0515763258e5f449", "name": "3f8015f622edde8e0515763258e5f449", "type": "electric_scooter", "lon": -77.03191483333333, "rental_uris": {"android": "https://dc.lft.to/lastmile_qr_scan", "ios": "https://dc.lft.to/lastmile_qr_scan"}, "lat": 38.90876466666667, "is_reserved": 0, "is_disabled": 0, "fusion_lat": 0.0}, {"fusion_lon": 0.0, "bike_id": "696b9cfb9ed634b36113a571a66d5e59", "name": "696b9cfb9ed634b36113a571a66d5e59", "type": "electric_scooter", "lon": -77.0339835, "rental_uris": {"android": "https://dc.lft.to/lastmile_qr_scan", "ios": "https://dc.lft.to/lastmile_qr_scan"}, "lat": 38.93477383333333, "is_reserved": 0, "is_disabled": 0, "fusion_lat": 0.0}, {"fusion_lon": 0.0, "bike_id": "21f64efaec33d3ba26ed9a649dafe77b", "name": "21f64efaec33d3ba26ed9a649dafe77b", "type": "electric_scooter", "lon": -77.04403233333333, "rental_uris": {"android": "https://dc.lft.to/lastmile_qr_scan", "ios": "https://dc.lft.to/lastmile_qr_scan"}, "lat": 38.92951033333333, "is_reserved": 0, "is_disabled": 0, "fusion_lat": 0.0}, {"fusion_lon": 0.0, "bike_id": "9f68f16b8f3fe7d72cdfaff7540e2ae8", "name": "9f68f16b8f3fe7d72cdfaff7540e2ae8", "type": "electric_scooter", "lon": -76.99041716666666, "rental_uris": {"android": "https://dc.lft.to/lastmile_qr_scan", "ios": "https://dc.lft.to/lastmile_qr_scan"}, "lat": 38.863595333333336, "is_reserved": 0, "is_disabled": 0, "fusion_lat": 0.0}, {"fusion_lon": 0.0, "bike_id": "e119636c5d9d63ade8c61ffc5bb314d1", "name": "e119636c5d9d63ade8c61ffc5bb314d1", "type": "electric_scooter", "lon": -77.0410965, "rental_uris": {"android": "https://dc.lft.to/lastmile_qr_scan", "ios": "https://dc.lft.to/lastmile_qr_scan"}, "lat": 38.923689, "is_reserved": 0, "is_disabled": 0, "fusion_lat": 0.0}, {"fusion_lon": 0.0, "bike_id": "a109281a9ea0777e8c535f6251194ecb", "name": "a109281a9ea0777e8c535f6251194ecb", "type": "electric_scooter", "lon": -77.03096033333334, "rental_uris": {"android": "https://dc.lft.to/lastmile_qr_scan", "ios": "https://dc.lft.to/lastmile_qr_scan"}, "lat": 38.90745883333334, "is_reserved": 0, "is_disabled": 0, "fusion_lat": 0.0}, {"fusion_lon": 0.0, "bike_id": "f74a49856cd8d01be26eca693a56356e", "name": "f74a49856cd8d01be26eca693a56356e", "type": "electric_scooter", "lon": -77.02048216666667, "rental_uris": {"android": "https://dc.lft.to/lastmile_qr_scan", "ios": "https://dc.lft.to/lastmile_qr_scan"}, "lat": 38.94122516666667, "is_reserved": 0, "is_disabled": 0, "fusion_lat": 0.0}, {"fusion_lon": 0.0, "bike_id": "2b481e30caef4e800b48b3f741679518", "name": "2b481e30caef4e800b48b3f741679518", "type": "electric_bike", "lon": -77.10652266666666, "rental_uris": {"android": "https://dc.lft.to/lastmile_qr_scan", "ios": "https://dc.lft.to/lastmile_qr_scan"}, "lat": 39.030010833333336, "is_reserved": 0, "is_disabled": 0, "fusion_lat": 0.0}, {"fusion_lon": 0.0, "bike_id": "576c837989c0320df114f2fd1478ea1f", "name": "576c837989c0320df114f2fd1478ea1f", "type": "electric_scooter", "lon": -77.0314325, "rental_uris": {"android": "https://dc.lft.to/lastmile_qr_scan", "ios": "https://dc.lft.to/lastmile_qr_scan"}, "lat": 38.92016983333333, "is_reserved": 0, "is_disabled": 0, "fusion_lat": 0.0}, {"fusion_lon": 0.0, "bike_id": "cee3b56ec76789157efc3176ab864e98", "name": "cee3b56ec76789157efc3176ab864e98", "type": "electric_bike", "lon": -77.027432, "rental_uris": {"android": "https://dc.lft.to/lastmile_qr_scan", "ios": "https://dc.lft.to/lastmile_qr_scan"}, "lat": 38.920971333333334, "is_reserved": 0, "is_disabled": 0, "fusion_lat": 0.0}, {"fusion_lon": 0.0, "bike_id": "7facefeabebf56c03b43f4f1bc4aa456", "name": "7facefeabebf56c03b43f4f1bc4aa456", "type": "electric_scooter", "lon": -77.012466, "rental_uris": {"android": "https://dc.lft.to/lastmile_qr_scan", "ios": "https://dc.lft.to/lastmile_qr_scan"}, "lat": 38.931091, "is_reserved": 0, "is_disabled": 0, "fusion_lat": 0.0}, {"fusion_lon": 0.0, "bike_id": "bae7943ff4bbe1f0bd3124d99b18d85c", "name": "bae7943ff4bbe1f0bd3124d99b18d85c", "type": "electric_scooter", "lon": -77.02463683333333, "rental_uris": {"android": "https://dc.lft.to/lastmile_qr_scan", "ios": "https://dc.lft.to/lastmile_qr_scan"}, "lat": 38.937574833333336, "is_reserved": 0, "is_disabled": 0, "fusion_lat": 0.0}, {"fusion_lon": 0.0, "bike_id": "1b23d88979fca5a0c4a48378c944b229", "name": "1b23d88979fca5a0c4a48378c944b229", "type": "electric_scooter", "lon": -76.9914395, "rental_uris": {"android": "https://dc.lft.to/lastmile_qr_scan", "ios": "https://dc.lft.to/lastmile_qr_scan"}, "lat": 38.88679883333333, "is_reserved": 0, "is_disabled": 0, "fusion_lat": 0.0}, {"fusion_lon": 0.0, "bike_id": "0550aeecbed85dc22fdaaf6dfe3cabaa", "name": "0550aeecbed85dc22fdaaf6dfe3cabaa", "type": "electric_scooter", "lon": -77.02763533333334, "rental_uris": {"android": "https://dc.lft.to/lastmile_qr_scan", "ios": "https://dc.lft.to/lastmile_qr_scan"}, "lat": 38.942964333333336, "is_reserved": 0, "is_disabled": 0, "fusion_lat": 0.0}, {"fusion_lon": 0.0, "bike_id": "1e7e086d0da17000c2f10a57d602ae3f", "name": "1e7e086d0da17000c2f10a57d602ae3f", "type": "electric_scooter", "lon": -77.00892416666667, "rental_uris": {"android": "https://dc.lft.to/lastmile_qr_scan", "ios": "https://dc.lft.to/lastmile_qr_scan"}, "lat": 38.9057935, "is_reserved": 0, "is_disabled": 0, "fusion_lat": 0.0}, {"fusion_lon": 0.0, "bike_id": "e22ee436b97c7ed89fa3a24d97c432f0", "name": "e22ee436b97c7ed89fa3a24d97c432f0", "type": "electric_scooter", "lon": -76.94942416666666, "rental_uris": {"android": "https://dc.lft.to/lastmile_qr_scan", "ios": "https://dc.lft.to/lastmile_qr_scan"}, "lat": 38.89361316666667, "is_reserved": 0, "is_disabled": 0, "fusion_lat": 0.0}, {"fusion_lon": 0.0, "bike_id": "06bfd30445b00422b5c7e4760f3d4e18", "name": "06bfd30445b00422b5c7e4760f3d4e18", "type": "electric_scooter", "lon": -77.0260475, "rental_uris": {"android": "https://dc.lft.to/lastmile_qr_scan", "ios": "https://dc.lft.to/lastmile_qr_scan"}, "lat": 38.918553, "is_reserved": 0, "is_disabled": 0, "fusion_lat": 0.0}, {"fusion_lon": 0.0, "bike_id": "200f78f9093219b2ec7b70d02e476762", "name": "200f78f9093219b2ec7b70d02e476762", "type": "electric_scooter", "lon": -76.9903045, "rental_uris": {"android": "https://dc.lft.to/lastmile_qr_scan", "ios": "https://dc.lft.to/lastmile_qr_scan"}, "lat": 38.89880183333333, "is_reserved": 0, "is_disabled": 0, "fusion_lat": 0.0}, {"fusion_lon": 0.0, "bike_id": "334efd61039b5d3c3d88bdaa8acdc3df", "name": "334efd61039b5d3c3d88bdaa8acdc3df", "type": "electric_scooter", "lon": -77.04478583333334, "rental_uris": {"android": "https://dc.lft.to/lastmile_qr_scan", "ios": "https://dc.lft.to/lastmile_qr_scan"}, "lat": 38.910824166666664, "is_reserved": 0, "is_disabled": 0, "fusion_lat": 0.0}, {"fusion_lon": 0.0, "bike_id": "5753a0e7bbfcd6b4ac2bfc5f4d16f2cd", "name": "5753a0e7bbfcd6b4ac2bfc5f4d16f2cd", "type": "electric_bike", "lon": -76.97505516666666, "rental_uris": {"android": "https://dc.lft.to/lastmile_qr_scan", "ios": "https://dc.lft.to/lastmile_qr_scan"}, "lat": 38.919329166666664, "is_reserved": 0, "is_disabled": 0, "fusion_lat": 0.0}, {"fusion_lon": 0.0, "bike_id": "ff4f97688ef271a0cf1800a25826ebfb", "name": "ff4f97688ef271a0cf1800a25826ebfb", "type": "electric_scooter", "lon": -77.0094415, "rental_uris": {"android": "https://dc.lft.to/lastmile_qr_scan", "ios": "https://dc.lft.to/lastmile_qr_scan"}, "lat": 38.89499716666667, "is_reserved": 0, "is_disabled": 0, "fusion_lat": 0.0}, {"fusion_lon": 0.0, "bike_id": "bfbe327ee23b51183d6f533fb828785b", "name": "bfbe327ee23b51183d6f533fb828785b", "type": "electric_scooter", "lon": -76.97465183333334, "rental_uris": {"android": "https://dc.lft.to/lastmile_qr_scan", "ios": "https://dc.lft.to/lastmile_qr_scan"}, "lat": 38.895603666666666, "is_reserved": 0, "is_disabled": 0, "fusion_lat": 0.0}, {"fusion_lon": 0.0, "bike_id": "8aec4839d63b0c61a5a95b127c6113e1", "name": "8aec4839d63b0c61a5a95b127c6113e1", "type": "electric_scooter", "lon": -77.035073, "rental_uris": {"android": "https://dc.lft.to/lastmile_qr_scan", "ios": "https://dc.lft.to/lastmile_qr_scan"}, "lat": 38.91710616666667, "is_reserved": 0, "is_disabled": 0, "fusion_lat": 0.0}, {"fusion_lon": 0.0, "bike_id": "5a84a2b4817c8be33059e63eac56b799", "name": "5a84a2b4817c8be33059e63eac56b799", "type": "electric_scooter", "lon": -77.02335133333334, "rental_uris": {"android": "https://dc.lft.to/lastmile_qr_scan", "ios": "https://dc.lft.to/lastmile_qr_scan"}, "lat": 38.9223095, "is_reserved": 0, "is_disabled": 0, "fusion_lat": 0.0}, {"fusion_lon": 0.0, "bike_id": "0018ba2adfb522ad98d83927d581c10f", "name": "0018ba2adfb522ad98d83927d581c10f", "type": "electric_bike", "lon": -77.08441866666666, "rental_uris": {"android": "https://dc.lft.to/lastmile_qr_scan", "ios": "https://dc.lft.to/lastmile_qr_scan"}, "lat": 38.8102425, "is_reserved": 0, "is_disabled": 0, "fusion_lat": 0.0}, {"fusion_lon": 0.0, "bike_id": "d05853e70d318e95913a44f11decc363", "name": "d05853e70d318e95913a44f11decc363", "type": "electric_scooter", "lon": -77.03905683333333, "rental_uris": {"android": "https://dc.lft.to/lastmile_qr_scan", "ios": "https://dc.lft.to/lastmile_qr_scan"}, "lat": 38.91555183333333, "is_reserved": 0, "is_disabled": 0, "fusion_lat": 0.0}, {"fusion_lon": 0.0, "bike_id": "97876d93a04bc47ea59c7e2f6d175070", "name": "97876d93a04bc47ea59c7e2f6d175070", "type": "electric_scooter", "lon": -77.02157216666667, "rental_uris": {"android": "https://dc.lft.to/lastmile_qr_scan", "ios": "https://dc.lft.to/lastmile_qr_scan"}, "lat": 38.92604033333333, "is_reserved": 0, "is_disabled": 0, "fusion_lat": 0.0}, {"fusion_lon": 0.0, "bike_id": "37233f639dce09d1e8485eb98117b885", "name": "37233f639dce09d1e8485eb98117b885", "type": "electric_scooter", "lon": -76.97342416666666, "rental_uris": {"android": "https://dc.lft.to/lastmile_qr_scan", "ios": "https://dc.lft.to/lastmile_qr_scan"}, "lat": 38.865163833333334, "is_reserved": 0, "is_disabled": 0, "fusion_lat": 0.0}, {"fusion_lon": 0.0, "bike_id": "ab6493c721c6c02dda39ef39f09c6527", "name": "ab6493c721c6c02dda39ef39f09c6527", "type": "electric_bike", "lon": -77.02888666666666, "rental_uris": {"android": "https://dc.lft.to/lastmile_qr_scan", "ios": "https://dc.lft.to/lastmile_qr_scan"}, "lat": 38.99867783333333, "is_reserved": 0, "is_disabled": 0, "fusion_lat": 0.0}, {"fusion_lon": 0.0, "bike_id": "3b81f6428d55fa48a8440806894c9b4b", "name": "3b81f6428d55fa48a8440806894c9b4b", "type": "electric_scooter", "lon": -77.01698816666666, "rental_uris": {"android": "https://dc.lft.to/lastmile_qr_scan", "ios": "https://dc.lft.to/lastmile_qr_scan"}, "lat": 38.9748755, "is_reserved": 0, "is_disabled": 0, "fusion_lat": 0.0}, {"fusion_lon": 0.0, "bike_id": "ce44f5f615e77e10a5159d1e8665960b", "name": "ce44f5f615e77e10a5159d1e8665960b", "type": "electric_scooter", "lon": -77.01691816666667, "rental_uris": {"android": "https://dc.lft.to/lastmile_qr_scan", "ios": "https://dc.lft.to/lastmile_qr_scan"}, "lat": 38.975079666666666, "is_reserved": 0, "is_disabled": 0, "fusion_lat": 0.0}, {"fusion_lon": 0.0, "bike_id": "f2edefed256e51fc1be495d9e9d6275c", "name": "f2edefed256e51fc1be495d9e9d6275c", "type": "electric_scooter", "lon": -77.02151566666667, "rental_uris": {"android": "https://dc.lft.to/lastmile_qr_scan", "ios": "https://dc.lft.to/lastmile_qr_scan"}, "lat": 38.9260345, "is_reserved": 0, "is_disabled": 0, "fusion_lat": 0.0}, {"fusion_lon": 0.0, "bike_id": "9a9c49514d72723f6ab2563b4a026164", "name": "9a9c49514d72723f6ab2563b4a026164", "type": "electric_bike", "lon": -76.97220666666666, "rental_uris": {"android": "https://dc.lft.to/lastmile_qr_scan", "ios": "https://dc.lft.to/lastmile_qr_scan"}, "lat": 38.84477666666667, "is_reserved": 0, "is_disabled": 0, "fusion_lat": 0.0}, {"fusion_lon": 0.0, "bike_id": "917711f6dc965778c366b5b9d04aea4b", "name": "917711f6dc965778c366b5b9d04aea4b", "type": "electric_bike", "lon": -77.00368733333333, "rental_uris": {"android": "https://dc.lft.to/lastmile_qr_scan", "ios": "https://dc.lft.to/lastmile_qr_scan"}, "lat": 38.879576666666665, "is_reserved": 0, "is_disabled": 0, "fusion_lat": 0.0}, {"fusion_lon": 0.0, "bike_id": "b5be973f4faa1038b2f9604e2f85725b", "name": "b5be973f4faa1038b2f9604e2f85725b", "type": "electric_scooter", "lon": -77.04171883333333, "rental_uris": {"android": "https://dc.lft.to/lastmile_qr_scan", "ios": "https://dc.lft.to/lastmile_qr_scan"}, "lat": 38.91552683333333, "is_reserved": 0, "is_disabled": 0, "fusion_lat": 0.0}, {"fusion_lon": 0.0, "bike_id": "cdf240d4a6027b567ae6bf53f5f12c3a", "name": "cdf240d4a6027b567ae6bf53f5f12c3a", "type": "electric_scooter", "lon": -77.03848516666666, "rental_uris": {"android": "https://dc.lft.to/lastmile_qr_scan", "ios": "https://dc.lft.to/lastmile_qr_scan"}, "lat": 38.9102075, "is_reserved": 0, "is_disabled": 0, "fusion_lat": 0.0}, {"fusion_lon": 0.0, "bike_id": "273c8d5fbc8924e106c54f8510e46a17", "name": "273c8d5fbc8924e106c54f8510e46a17", "type": "electric_scooter", "lon": -77.05828116666666, "rental_uris": {"android": "https://dc.lft.to/lastmile_qr_scan", "ios": "https://dc.lft.to/lastmile_qr_scan"}, "lat": 38.9353345, "is_reserved": 0, "is_disabled": 0, "fusion_lat": 0.0}, {"fusion_lon": 0.0, "bike_id": "bf8a5505520450288272b1f709cb184d", "name": "bf8a5505520450288272b1f709cb184d", "type": "electric_scooter", "lon": -77.03476066666667, "rental_uris": {"android": "https://dc.lft.to/lastmile_qr_scan", "ios": "https://dc.lft.to/lastmile_qr_scan"}, "lat": 38.9067635, "is_reserved": 0, "is_disabled": 0, "fusion_lat": 0.0}, {"fusion_lon": 0.0, "bike_id": "b16bcb558dc34db5e48a4d55b64fee50", "name": "b16bcb558dc34db5e48a4d55b64fee50", "type": "electric_scooter", "lon": -77.06760633333333, "rental_uris": {"android": "https://dc.lft.to/lastmile_qr_scan", "ios": "https://dc.lft.to/lastmile_qr_scan"}, "lat": 38.949797333333336, "is_reserved": 0, "is_disabled": 0, "fusion_lat": 0.0}, {"fusion_lon": 0.0, "bike_id": "a4f0239b66773cbbced0cfc6eb0a925b", "name": "a4f0239b66773cbbced0cfc6eb0a925b", "type": "electric_scooter", "lon": -77.02688416666666, "rental_uris": {"android": "https://dc.lft.to/lastmile_qr_scan", "ios": "https://dc.lft.to/lastmile_qr_scan"}, "lat": 38.90871633333333, "is_reserved": 0, "is_disabled": 0, "fusion_lat": 0.0}, {"fusion_lon": 0.0, "bike_id": "9261c10ef1179c4a3fb726f273178cf9", "name": "9261c10ef1179c4a3fb726f273178cf9", "type": "electric_scooter", "lon": -77.01618833333333, "rental_uris": {"android": "https://dc.lft.to/lastmile_qr_scan", "ios": "https://dc.lft.to/lastmile_qr_scan"}, "lat": 38.901107, "is_reserved": 0, "is_disabled": 0, "fusion_lat": 0.0},