{"data": {"bikes": [{"is_disabled": 0, "lat": 38.80635266666667, "bike_id": "06e6dcdc5a509762df8724060a3b7f8b", "is_reserved": 0, "rental_uris": {"ios": "https://dc.lft.to/lastmile_qr_scan", "android": "https://dc.lft.to/lastmile_qr_scan"}, "name": "06e6dcdc5a509762df8724060a3b7f8b", "fusion_lon": 0.0, "fusion_lat": 0.0, "lon": -77.06258816666667, "type": "electric_bike"}, {"is_disabled": 0, "lat": 38.9474715, "bike_id": "122ec90c1f773453a369d787c3b22c4a", "is_reserved": 0, "rental_uris": {"ios": "https://dc.lft.to/lastmile_qr_scan", "android": "https://dc.lft.to/lastmile_qr_scan"}, "name": "122ec90c1f773453a369d787c3b22c4a", "fusion_lon": 0.0, "fusion_lat": 0.0, "lon": -77.023518, "type": "electric_scooter"}, {"is_disabled": 0, "lat": 38.90198066666667, "bike_id": "d49f0ccf64063a7de25e1bb932b6a293", "is_reserved": 0, "rental_uris": {"ios": "https://dc.lft.to/lastmile_qr_scan", "android": "https://dc.lft.to/lastmile_qr_scan"}, "name": "d49f0ccf64063a7de25e1bb932b6a293", "fusion_lon": 0.0, "fusion_lat": 0.0, "lon": -77.0219305, "type": "electric_scooter"}, {"is_disabled": 0, "lat": 38.905057166666666, "bike_id": "1fdc18cfaa826d957fda1df78bd9b2d7", "is_reserved": 0, "rental_uris": {"ios": "https://dc.lft.to/lastmile_qr_scan", "android": "https://dc.lft.to/lastmile_qr_scan"}, "name": "1fdc18cfaa826d957fda1df78bd9b2d7", "fusion_lon": 0.0, "fusion_lat": 0.0, "lon": -77.06650583333334, "type": "electric_bike"}, {"is_disabled": 0, "lat": 38.8559485, "bike_id": "e5d6c1fb29536ad2e5122fb30fdf739b", "is_reserved": 0, "rental_uris": {"ios": "https://dc.lft.to/lastmile_qr_scan", "android": "https://dc.lft.to/lastmile_qr_scan"}, "name": "e5d6c1fb29536ad2e5122fb30fdf739b", "fusion_lon": 0.0, "fusion_lat": 0.0, "lon": -76.97278666666666, "type": "electric_bike"}, {"is_disabled": 0, "lat": 38.8924945, "bike_id": "5647e340b9be7898a058fa659f386410", "is_reserved": 0, "rental_uris": {"ios": "https://dc.lft.to/lastmile_qr_scan", "android": "https://dc.lft.to/lastmile_qr_scan"}, "name": "5647e340b9be7898a058fa659f386410", "fusion_lon": 0.0, "fusion_lat": 0.0, "lon": -77.04655866666667, "type": "electric_scooter"}, {"is_disabled": 0, "lat": 39.07468433333333, "bike_id": "4471ce3b77b4e28fb21da82a9014af2a", "is_reserved": 0, "rental_uris": {"ios": "https://dc.lft.to/lastmile_qr_scan", "android": "https://dc.lft.to/lastmile_qr_scan"}, "name": "4471ce3b77b4e28fb21da82a9014af2a", "fusion_lon": 0.0, "fusion_lat": 0.0, "lon": -77.1152925, "type": "electric_bike"}, {"is_disabled": 0, "lat": 38.90151316666667, "bike_id": "b07bbda403ca9321e7c35669ad43588b", "is_reserved": 0, "rental_uris": {"ios": "https://dc.lft.to/lastmile_qr_scan", "android": "https://dc.lft.to/lastmile_qr_scan"}, "name": "b07bbda403ca9321e7c35669ad43588b", "fusion_lon": 0.0, "fusion_lat": 0.0, "lon": -77.028554, "type": "electric_scooter"}, {"is_disabled": 0, "lat": 38.896868833333336, "bike_id": "7eccd7818bb49177c1e3864d8d90086c", "is_reserved": 0, "rental_uris": {"ios": "https://dc.lft.to/lastmile_qr_scan", "android": "https://dc.lft.to/lastmile_qr_scan"}, "name": "7eccd7818bb49177c1e3864d8d90086c", "fusion_lon": 0.0, "fusion_lat": 0.0, "lon": -77.02666583333334, "type": "electric_scooter"}, {"is_disabled": 0, "lat": 38.911315, "bike_id": "5036802ccae7fd37a0fcf42f2438c934", "is_reserved": 0, "rental_uris": {"ios": "https://dc.lft.to/lastmile_qr_scan", "android": "https://dc.lft.to/lastmile_qr_scan"}, "name": "5036802ccae7fd37a0fcf42f2438c934", "fusion_lon": 0.0, "fusion_lat": 0.0, "lon": -77.03832366666667, "type": "electric_scooter"}, {"is_disabled": 0, "lat": 38.9171655, "bike_id": "299615ead5dd2b134ea57a00d09be970", "is_reserved": 0, "rental_uris": {"ios": "https://dc.lft.to/lastmile_qr_scan", "android": "https://dc.lft.to/lastmile_qr_scan"}, "name": "299615ead5dd2b134ea57a00d09be970", "fusion_lon": 0.0, "fusion_lat": 0.0, "lon": -77.032016, "type": "electric_scooter"}, {"is_disabled": 0, "lat": 38.8852215, "bike_id": "0141b875b548a86599bc8487a1a62270", "is_reserved": 0, "rental_uris": {"ios": "https://dc.lft.to/lastmile_qr_scan", "android": "https://dc.lft.to/lastmile_qr_scan"}, "name": "0141b875b548a86599bc8487a1a62270", "fusion_lon": 0.0, "fusion_lat": 0.0, "lon": -76.9770975, "type": "electric_scooter"}, {"is_disabled": 0, "lat": 38.89905066666667, "bike_id": "45d2ba4be24c13ed233e63bb77e09388", "is_reserved": 0, "rental_uris": {"ios": "https://dc.lft.to/lastmile_qr_scan", "android": "https://dc.lft.to/lastmile_qr_scan"}, "name": "45d2ba4be24c13ed233e63bb77e09388", "fusion_lon": 0.0, "fusion_lat": 0.0, "lon": -77.03299383333334, "type": "electric_scooter"}, {"is_disabled": 0, "lat": 38.9085395, "bike_id": "19c1113438939386864013931c273084", "is_reserved": 0, "rental_uris": {"ios": "https://dc.lft.to/lastmile_qr_scan", "android": "https://dc.lft.to/lastmile_qr_scan"}, "name": "19c1113438939386864013931c273084", "fusion_lon": 0.0, "fusion_lat": 0.0, "lon": -76.9997085, "type": "electric_scooter"}, {"is_disabled": 0, "lat": 38.944269166666665, "bike_id": "17be042f7eae5cfd8026b847fe3873eb", "is_reserved": 0, "rental_uris": {"ios": "https://dc.lft.to/lastmile_qr_scan", "android": "https://dc.lft.to/lastmile_qr_scan"}, "name": "17be042f7eae5cfd8026b847fe3873eb", "fusion_lon": 0.0, "fusion_lat": 0.0, "lon": -77.0138315, "type": "electric_bike"}, {"is_disabled": 0, "lat": 38.905907666666664, "bike_id": "154fe6a259eed02961b919da1da37d96", "is_reserved": 0, "rental_uris": {"ios": "https://dc.lft.to/lastmile_qr_scan", "android": "https://dc.lft.to/lastmile_qr_scan"}, "name": "154fe6a259eed02961b919da1da37d96", "fusion_lon": 0.0, "fusion_lat": 0.0, "lon": -77.02989883333333, "type": "electric_scooter"}, {"is_disabled": 0, "lat": 38.937055, "bike_id": "65c314e2683d0cc0157a6a8a556a5abe", "is_reserved": 0, "rental_uris": {"ios": "https://dc.lft.to/lastmile_qr_scan", "android": "https://dc.lft.to/lastmile_qr_scan"}, "name": "65c314e2683d0cc0157a6a8a556a5abe", "fusion_lon": 0.0, "fusion_lat": 0.0, "lon": -77.0559875, "type": "electric_scooter"}, {"is_disabled": 0, "lat": 38.9039065, "bike_id": "8542842705337c9f12bfe9d902488203", "is_reserved": 0, "rental_uris": {"ios": "https://dc.lft.to/lastmile_qr_scan", "android": "https://dc.lft.to/lastmile_qr_scan"}, "name": "8542842705337c9f12bfe9d902488203", "fusion_lon": 0.0, "fusion_lat": 0.0, "lon": -77.0483245, "type": "electric_scooter"}, {"is_disabled": 0, "lat": 38.90437766666667, "bike_id": "843049480a13dcec9caf90aee566a96a", "is_reserved": 0, "rental_uris": {"ios": "https://dc.lft.to/lastmile_qr_scan", "android": "https://dc.lft.to/lastmile_qr_scan"}, "name": "843049480a13dcec9caf90aee566a96a", "fusion_lon": 0.0, "fusion_lat": 0.0, "lon": -77.0259695, "type": "electric_scooter"}, {"is_disabled": 0, "lat": 38.94178083333333, "bike_id": "3147a5b3b0faf0a48ec181d103395806", "is_reserved": 0, "rental_uris": {"ios": "https://dc.lft.to/lastmile_qr_scan", "android": "https://dc.lft.to/lastmile_qr_scan"}, "name": "3147a5b3b0faf0a48ec181d103395806", "fusion_lon": 0.0, "fusion_lat": 0.0, "lon": -77.03392383333333, "type": "electric_scooter"}, {"is_disabled": 0, "lat": 38.9225285, "bike_id": "39a72e55fe961d02cab5d544978cd933", "is_reserved": 0, "rental_uris": {"ios": "https://dc.lft.to/lastmile_qr_scan", "android": "https://dc.lft.to/lastmile_qr_scan"}, "name": "39a72e55fe961d02cab5d544978cd933", "fusion_lon": 0.0, "fusion_lat": 0.0, "lon": -77.029633, "type": "electric_scooter"}, {"is_disabled": 0, "lat": 38.980321833333335, "bike_id": "a22ef36fecd22decc99f9c7d40ae69f3", "is_reserved": 0, "rental_uris": {"ios": "https://dc.lft.to/lastmile_qr_scan", "android": "https://dc.lft.to/lastmile_qr_scan"}, "name": "a22ef36fecd22decc99f9c7d40ae69f3", "fusion_lon": 0.0, "fusion_lat": 0.0, "lon": -76.94253483333334, "type": "electric_bike"}, {"is_disabled": 0, "lat": 38.953176, "bike_id": "a137c8e35964cbaa5da1dd5a10b249a5", "is_reserved": 0, "rental_uris": {"ios": "https://dc.lft.to/lastmile_qr_scan", "android": "https://dc.lft.to/lastmile_qr_scan"}, "name": "a137c8e35964cbaa5da1dd5a10b249a5", "fusion_lon": 0.0, "fusion_lat": 0.0, "lon": -76.99459983333334, "type": "electric_scooter"}, {"is_disabled": 0, "lat": 38.871743, "bike_id": "d51ec4d2b10cc1f70ab729f024d3e467", "is_reserved": 0, "rental_uris": {"ios": "https://dc.lft.to/lastmile_qr_scan", "android": "https://dc.lft.to/lastmile_qr_scan"}, "name": "d51ec4d2b10cc1f70ab729f024d3e467", "fusion_lon": 0.0, "fusion_lat": 0.0, "lon": -77.23395383333333, "type": "electric_bike"}, {"is_disabled": 0, "lat": 38.93090683333333, "bike_id": "348dd1623347f74f4ec83714e30835f9", "is_reserved": 0, "rental_uris": {"ios": "https://dc.lft.to/lastmile_qr_scan", "android": "https://dc.lft.to/lastmile_qr_scan"}, "name": "348dd1623347f74f4ec83714e30835f9", "fusion_lon": 0.0, "fusion_lat": 0.0, "lon": -77.03444783333333, "type": "electric_scooter"}, {"is_disabled": 0, "lat": 38.890491, "bike_id": "38c8c572c36c3f8992679c8faf7ae66e", "is_reserved": 0, "rental_uris": {"ios": "https://dc.lft.to/lastmile_qr_scan", "android": "https://dc.lft.to/lastmile_qr_scan"}, "name": "38c8c572c36c3f8992679c8faf7ae66e", "fusion_lon": 0.0, "fusion_lat": 0.0, "lon": -76.93743916666666, "type": "electric_scooter"}, {"is_disabled": 0, "lat": 38.926466833333336, "bike_id": "4dccac49271c63e53d29dbae6cd42c89", "is_reserved": 0, "rental_uris": {"ios": "https://dc.lft.to/lastmile_qr_scan", "android": "https://dc.lft.to/lastmile_qr_scan"}, "name": "4dccac49271c63e53d29dbae6cd42c89", "fusion_lon": 0.0, "fusion_lat": 0.0, "lon": -77.038568, "type": "electric_scooter"}, {"is_disabled": 0, "lat": 38.924709666666665, "bike_id": "99251cac7f133c0dfc6b4bdf53af3caf", "is_reserved": 0, "rental_uris": {"ios": "https://dc.lft.to/lastmile_qr_scan", "android": "https://dc.lft.to/lastmile_qr_scan"}, "name": "99251cac7f133c0dfc6b4bdf53af3caf", "fusion_lon": 0.0, "fusion_lat": 0.0, "lon": -77.02206166666667, "type": "electric_scooter"}, {"is_disabled": 0, "lat": 38.89227016666667, "bike_id": "be43d8cdb23f2ee2dee839f6245eb9ab", "is_reserved": 0, "rental_uris": {"ios": "https://dc.lft.to/lastmile_qr_scan", "android": "https://dc.lft.to/lastmile_qr_scan"}, "name": "be43d8cdb23f2ee2dee839f6245eb9ab", "fusion_lon": 0.0, "fusion_lat": 0.0, "lon": -77.031915, "type": "electric_scooter"}, {"is_disabled": 0, "lat": 38.9141645, "bike_id": "8b2408d74dba259784e0db6e598fabae", "is_reserved": 0, "rental_uris": {"ios": "https://dc.lft.to/lastmile_qr_scan", "android": "https://dc.lft.to/lastmile_qr_scan"}, "name": "8b2408d74dba259784e0db6e598fabae", "fusion_lon": 0.0, "fusion_lat": 0.0, "lon": -77.03173966666667, "type": "electric_scooter"}, {"is_disabled": 0, "lat": 38.91326633333333, "bike_id": "2019b4ad2ccc1337bf573b196bc21e71", "is_reserved": 0, "rental_uris": {"ios": "https://dc.lft.to/lastmile_qr_scan", "android": "https://dc.lft.to/lastmile_qr_scan"}, "name": "2019b4ad2ccc1337bf573b196bc21e71", "fusion_lon": 0.0, "fusion_lat": 0.0, "lon": -77.03187583333333, "type": "electric_scooter"}, {"is_disabled": 0, "lat": 38.938604833333336, "bike_id": "cfe43537d04116d4584d18160b8209b3", "is_reserved": 0, "rental_uris": {"ios": "https://dc.lft.to/lastmile_qr_scan", "android": "https://dc.lft.to/lastmile_qr_scan"}, "name": "cfe43537d04116d4584d18160b8209b3", "fusion_lon": 0.0, "fusion_lat": 0.0, "lon": -76.99427966666667, "type": "electric_scooter"}, {"is_disabled": 0, "lat": 38.92328833333333, "bike_id": "a0a32bdb9818bfc352da20493313eb01", "is_reserved": 0, "rental_uris": {"ios": "https://dc.lft.to/lastmile_qr_scan", "android": "https://dc.lft.to/lastmile_qr_scan"}, "name": "a0a32bdb9818bfc352da20493313eb01", "fusion_lon": 0.0, "fusion_lat": 0.0, "lon": -77.056833, "type": "electric_scooter"}, {"is_disabled": 0, "lat": 38.9167745, "bike_id": "f21089ddea251d75c639f2346c612fed", "is_reserved": 0, "rental_uris": {"ios": "https://dc.lft.to/lastmile_qr_scan", "android": "https://dc.lft.to/lastmile_qr_scan"}, "name": "f21089ddea251d75c639f2346c612fed", "fusion_lon": 0.0, "fusion_lat": 0.0, "lon": -77.0297205, "type": "electric_scooter"}, {"is_disabled": 0, "lat": 38.8784675, "bike_id": "fa9ae69ab97f51e11f0e5d92815e9094", "is_reserved": 0, "rental_uris": {"ios": "https://dc.lft.to/lastmile_qr_scan", "android": "https://dc.lft.to/lastmile_qr_scan"}, "name": "fa9ae69ab97f51e11f0e5d92815e9094", "fusion_lon": 0.0, "fusion_lat": 0.0, "lon": -77.00665266666667, "type": "electric_scooter"}, {"is_disabled": 0, "lat": 38.935499, "bike_id": "ac992f7d2c4d37c6047b6fdd981328ce", "is_reserved": 0, "rental_uris": {"ios": "https://dc.lft.to/lastmile_qr_scan", "android": "https://dc.lft.to/lastmile_qr_scan"}, "name": "ac992f7d2c4d37c6047b6fdd981328ce", "fusion_lon": 0.0, "fusion_lat": 0.0, "lon": -77.07708016666666, "type": "electric_scooter"}, {"is_disabled": 0, "lat": 38.92585066666667, "bike_id": "a065a66f741223f2d3843f9f8e3fceb1", "is_reserved": 0, "rental_uris": {"ios": "https://dc.lft.to/lastmile_qr_scan", "android": "https://dc.lft.to/lastmile_qr_scan"}, "name": "a065a66f741223f2d3843f9f8e3fceb1", "fusion_lon": 0.0, "fusion_lat": 0.0, "lon": -77.044022, "type": "electric_scooter"}, {"is_disabled": 0, "lat": 38.891774166666664, "bike_id": "c4f4dcf21db97a93b4287e9efc01284b", "is_reserved": 0, "rental_uris": {"ios": "https://dc.lft.to/lastmile_qr_scan", "android": "https://dc.lft.to/lastmile_qr_scan"}, "name": "c4f4dcf21db97a93b4287e9efc01284b", "fusion_lon": 0.0, "fusion_lat": 0.0, "lon": -77.03178416666667, "type": "electric_scooter"}, {"is_disabled": 0, "lat": 38.90786266666667, "bike_id": "1bfd082b8b3e209f25397a92a6be7dcb", "is_reserved": 0, "rental_uris": {"ios": "https://dc.lft.to/lastmile_qr_scan", "android": "https://dc.lft.to/lastmile_qr_scan"}, "name": "1bfd082b8b3e209f25397a92a6be7dcb", "fusion_lon": 0.0, "fusion_lat": 0.0, "lon": -77.00245633333333, "type": "electric_scooter"}, {"is_disabled": 0, "lat": 38.902167, "bike_id": "6c60a6a3b1cb265de38dede13e5a32a5", "is_reserved": 0, "rental_uris": {"ios": "https://dc.lft.to/lastmile_qr_scan", "android": "https://dc.lft.to/lastmile_qr_scan"}, "name": "6c60a6a3b1cb265de38dede13e5a32a5", "fusion_lon": 0.0, "fusion_lat": 0.0, "lon": -76.931773, "type": "electric_bike"}, {"is_disabled": 0, "lat": 38.90679633333333, "bike_id": "63a9357e566e70759e10193034dc2baf", "is_reserved": 0, "rental_uris": {"ios": "https://dc.lft.to/lastmile_qr_scan", "android": "https://dc.lft.to/lastmile_qr_scan"}, "name": "63a9357e566e70759e10193034dc2baf", "fusion_lon": 0.0, "fusion_lat": 0.0, "lon": -76.979352, "type": "electric_scooter"}, {"is_disabled": 0, "lat": 38.887457166666664, "bike_id": "eb32d07155b7d98d3ca22cc0670d9485", "is_reserved": 0, "rental_uris": {"ios": "https://dc.lft.to/lastmile_qr_scan", "android": "https://dc.lft.to/lastmile_qr_scan"}, "name": "eb32d07155b7d98d3ca22cc0670d9485", "fusion_lon": 0.0, "fusion_lat": 0.0, "lon": -77.02846416666667, "type": "electric_scooter"}, {"is_disabled": 0, "lat": 38.920399333333336, "bike_id": "00a71bf6d2c357a51c2fc41ce5f848d3", "is_reserved": 0, "rental_uris": {"ios": "https://dc.lft.to/lastmile_qr_scan", "android": "https://dc.lft.to/lastmile_qr_scan"}, "name": "00a71bf6d2c357a51c2fc41ce5f848d3", "fusion_lon": 0.0, "fusion_lat": 0.0, "lon": -77.01677033333333, "type": "electric_scooter"}, {"is_disabled": 0, "lat": 38.838627833333334, "bike_id": "4c7a180cf86331733f1e047b2b806122", "is_reserved": 0, "rental_uris": {"ios": "https://dc.lft.to/lastmile_qr_scan", "android": "https://dc.lft.to/lastmile_qr_scan"}, "name": "4c7a180cf86331733f1e047b2b806122", "fusion_lon": 0.0, "fusion_lat": 0.0, "lon": -76.9969735, "type": "electric_bike"}, {"is_disabled": 0, "lat": 38.924702833333335, "bike_id": "eda66de93c48090f859fdad034048728", "is_reserved": 0, "rental_uris": {"ios": "https://dc.lft.to/lastmile_qr_scan", "android": "https://dc.lft.to/lastmile_qr_scan"}, "name": "eda66de93c48090f859fdad034048728", "fusion_lon": 0.0, "fusion_lat": 0.0, "lon": -77.038144, "type": "electric_scooter"}, {"is_disabled": 0, "lat": 38.879931666666664, "bike_id": "2da2954e256be0093fbaeb5f16ee70f4", "is_reserved": 0, "rental_uris": {"ios": "https://dc.lft.to/lastmile_qr_scan", "android": "https://dc.lft.to/lastmile_qr_scan"}, "name": "2da2954e256be0093fbaeb5f16ee70f4", "fusion_lon": 0.0, "fusion_lat": 0.0, "lon": -77.03741216666667, "type": "electric_scooter"}, {"is_disabled": 0, "lat": 38.94097333333333, "bike_id": "c248c5a7e68ad9f6f847bf9a845a0cb2", "is_reserved": 0, "rental_uris": {"ios": "https://dc.lft.to/lastmile_qr_scan", "android": "https://dc.lft.to/lastmile_qr_scan"}, "name": "c248c5a7e68ad9f6f847bf9a845a0cb2", "fusion_lon": 0.0, "fusion_lat": 0.0, "lon": -77.03278166666666, "type": "electric_scooter"}, {"is_disabled": 0, "lat": 38.90542133333334, "bike_id": "e23c2f5be983df696687171b5d3e1ee0", "is_reserved": 0, "rental_uris": {"ios": "https://dc.lft.to/lastmile_qr_scan", "android": "https://dc.lft.to/lastmile_qr_scan"}, "name": "e23c2f5be983df696687171b5d3e1ee0", "fusion_lon": 0.0, "fusion_lat": 0.0, "lon": -77.04184866666667, "type": "electric_scooter"}, {"is_disabled": 0, "lat": 38.9181545, "bike_id": "1de52a4ff912e49d1377baeea14a327f", "is_reserved": 0, "rental_uris": {"ios": "https://dc.lft.to/lastmile_qr_scan", "android": "https://dc.lft.to/lastmile_qr_scan"}, "name": "1de52a4ff912e49d1377baeea14a327f", "fusion_lon": 0.0, "fusion_lat": 0.0, "lon": -77.03790483333333, "type": "electric_scooter"}, {"is_disabled": 0, "lat": 38.9266045, "bike_id": "0709f9a91289a31b1d95a6c34b49ed11", "is_reserved": 0, "rental_uris": {"ios": "https://dc.lft.to/lastmile_qr_scan", "android": "https://dc.lft.to/lastmile_qr_scan"}, "name": "0709f9a91289a31b1d95a6c34b49ed11", "fusion_lon": 0.0, "fusion_lat": 0.0, "lon": -77.03716616666667, "type": "electric_scooter"}, {"is_disabled": 0, "lat": 38.92551233333333, "bike_id": "e654bc967f440f178c7f1ffc4bcb1eb2", "is_reserved": 0, "rental_uris": {"ios": "https://dc.lft.to/lastmile_qr_scan", "android": "https://dc.lft.to/lastmile_qr_scan"}, "name": "e654bc967f440f178c7f1ffc4bcb1eb2", "fusion_lon": 0.0, "fusion_lat": 0.0, "lon": -77.03262866666667, "type": "electric_scooter"}, {"is_disabled": 0, "lat": 38.90006616666667, "bike_id": "9991b14b07219b0644df5d2fbe205e21", "is_reserved": 0, "rental_uris": {"ios": "https://dc.lft.to/lastmile_qr_scan", "android": "https://dc.lft.to/lastmile_qr_scan"}, "name": "9991b14b07219b0644df5d2fbe205e21", "fusion_lon": 0.0, "fusion_lat": 0.0, "lon": -77.03967066666667, "type": "electric_scooter"}, {"is_disabled": 0, "lat": 38.9043545, "bike_id": "4c23fa378211c3521ec4ade3b7685f44", "is_reserved": 0, "rental_uris": {"ios": "https://dc.lft.to/lastmile_qr_scan", "android": "https://dc.lft.to/lastmile_qr_scan"}, "name": "4c23fa378211c3521ec4ade3b7685f44", "fusion_lon": 0.0, "fusion_lat": 0.0, "lon": -76.9723105, "type": "electric_bike"}, {"is_disabled": 0, "lat": 38.91841683333333, "bike_id": "17c1a0ee87e95b94dfee98b98ee58f2a", "is_reserved": 0, "rental_uris": {"ios": "https://dc.lft.to/lastmile_qr_scan", "android": "https://dc.lft.to/lastmile_qr_scan"}, "name": "17c1a0ee87e95b94dfee98b98ee58f2a", "fusion_lon": 0.0, "fusion_lat": 0.0, "lon": -77.03913616666667, "type": "electric_scooter"}, {"is_disabled": 0, "lat": 38.886868666666665, "bike_id": "51441ddb06d96c2eaf49e5ee0fd5b1f5", "is_reserved": 0, "rental_uris": {"ios": "https://dc.lft.to/lastmile_qr_scan", "android": "https://dc.lft.to/lastmile_qr_scan"}, "name": "51441ddb06d96c2eaf49e5ee0fd5b1f5", "fusion_lon": 0.0, "fusion_lat": 0.0, "lon": -76.97639683333334, "type": "electric_scooter"}, {"is_disabled": 0, "lat": 39.010751, "bike_id": "9a2b44a9e67fb09b70186a92fb0f6455", "is_reserved": 0, "rental_uris": {"ios": "https://dc.lft.to/lastmile_qr_scan", "android": "https://dc.lft.to/lastmile_qr_scan"}, "name": "9a2b44a9e67fb09b70186a92fb0f6455", "fusion_lon": 0.0, "fusion_lat": 0.0, "lon": -76.91066333333333, "type": "electric_bike"}, {"is_disabled": 0, "lat": 38.922147833333334, "bike_id": "587496a597d16897a9945777e37cb753", "is_reserved": 0, "rental_uris": {"ios": "https://dc.lft.to/lastmile_qr_scan", "android": "https://dc.lft.to/lastmile_qr_scan"}, "name": "587496a597d16897a9945777e37cb753", "fusion_lon": 0.0, "fusion_lat": 0.0, "lon": -77.04240283333333, "type": "electric_scooter"}, {"is_disabled": 0, "lat": 38.93273166666667, "bike_id": "5d99dbea5913dd993a06d5df8df6034d", "is_reserved": 0, "rental_uris": {"ios": "https://dc.lft.to/lastmile_qr_scan", "android": "https://dc.lft.to/lastmile_qr_scan"}, "name": "5d99dbea5913dd993a06d5df8df6034d", "fusion_lon": 0.0, "fusion_lat": 0.0, "lon": -77.03510033333333, "type": "electric_scooter"}, {"is_disabled": 0, "lat": 38.9187775, "bike_id": "e123d4899f918878fd5034393f64f207", "is_reserved": 0, "rental_uris": {"ios": "https://dc.lft.to/lastmile_qr_scan", "android": "https://dc.lft.to/lastmile_qr_scan"}, "name": "e123d4899f918878fd5034393f64f207", "fusion_lon": 0.0, "fusion_lat": 0.0, "lon": -77.04618566666667, "type": "electric_scooter"}, {"is_disabled": 0, "lat": 38.898334, "bike_id": "f4b7d8d6701349fbbb11ed16e992ba55", "is_reserved": 0, "rental_uris": {"ios": "https://dc.lft.to/lastmile_qr_scan", "android": "https://dc.lft.to/lastmile_qr_scan"}, "name": "f4b7d8d6701349fbbb11ed16e992ba55", "fusion_lon": 0.0, "fusion_lat": 0.0, "lon": -77.04344, "type": "electric_scooter"}, {"is_disabled": 0, "lat": 38.934582166666665, "bike_id": "92aab5b4acdfe07dcd0477b5863173f4", "is_reserved": 0, "rental_uris": {"ios": "https://dc.lft.to/lastmile_qr_scan", "android": "https://dc.lft.to/lastmile_qr_scan"}, "name": "92aab5b4acdfe07dcd0477b5863173f4", "fusion_lon": 0.0, "fusion_lat": 0.0, "lon": -77.02910333333334, "type": "electric_scooter"}, {"is_disabled": 0, "lat": 38.88971516666667, "bike_id": "ba35179998413e7385ef86a037029be3", "is_reserved": 0, "rental_uris": {"ios": "https://dc.lft.to/lastmile_qr_scan", "android": "https://dc.lft.to/lastmile_qr_scan"}, "name": "ba35179998413e7385ef86a037029be3", "fusion_lon": 0.0, "fusion_lat": 0.0, "lon": -76.9817955, "type": "electric_scooter"}, {"is_disabled": 0, "lat": 38.916556166666666, "bike_id": "08d98b218c34c13cac1d0019ce8f019e", "is_reserved": 0, "rental_uris": {"ios": "https://dc.lft.to/lastmile_qr_scan", "android": "https://dc.lft.to/lastmile_qr_scan"}, "name": "08d98b218c34c13cac1d0019ce8f019e", "fusion_lon": 0.0, "fusion_lat": 0.0, "lon": -77.04647933333334, "type": "electric_scooter"}, {"is_disabled": 0, "lat": 38.9281305, "bike_id": "6baeda5c3dbbc39d6d58faa0aac1db9d", "is_reserved": 0, "rental_uris": {"ios": "https://dc.lft.to/lastmile_qr_scan", "android": "https://dc.lft.to/lastmile_qr_scan"}, "name": "6baeda5c3dbbc39d6d58faa0aac1db9d", "fusion_lon": 0.0, "fusion_lat": 0.0, "lon": -77.05971883333333, "type": "electric_bike"}, {"is_disabled": 0, "lat": 38.896289333333335, "bike_id": "5c337b791fe19b1aa00bb7e20f3abd49", "is_reserved": 0, "rental_uris": {"ios": "https://dc.lft.to/lastmile_qr_scan", "android": "https://dc.lft.to/lastmile_qr_scan"}, "name": "5c337b791fe19b1aa00bb7e20f3abd49", "fusion_lon": 0.0, "fusion_lat": 0.0, "lon": -77.02854666666667, "type": "electric_scooter"}, {"is_disabled": 0, "lat": 38.928693333333335, "bike_id": "65e6a900c1719e0a1bd0ddba98882249", "is_reserved": 0, "rental_uris": {"ios": "https://dc.lft.to/lastmile_qr_scan", "android": "https://dc.lft.to/lastmile_qr_scan"}, "name": "65e6a900c1719e0a1bd0ddba98882249", "fusion_lon": 0.0, "fusion_lat": 0.0, "lon": -77.034473, "type": "electric_scooter"}, {"is_disabled": 0, "lat": 38.925248333333336, "bike_id": "1f9e03a5250d1da8b2544024490d9c33", "is_reserved": 0, "rental_uris": {"ios": "https://dc.lft.to/lastmile_qr_scan", "android": "https://dc.lft.to/lastmile_qr_scan"}, "name": "1f9e03a5250d1da8b2544024490d9c33", "fusion_lon": 0.0, "fusion_lat": 0.0, "lon": -77.03886433333334, "type": "electric_scooter"}, {"is_disabled": 0, "lat": 38.89885783333333, "bike_id": "f5ec48301ad15971abf933d0611c1211", "is_reserved": 0, "rental_uris": {"ios": "https://dc.lft.to/lastmile_qr_scan", "android": "https://dc.lft.to/lastmile_qr_scan"}, "name": "f5ec48301ad15971abf933d0611c1211", "fusion_lon": 0.0, "fusion_lat": 0.0, "lon": -76.9868235, "type": "electric_scooter"}, {"is_disabled": 0, "lat": 38.9072895, "bike_id": "4839697a4daf673c7aa55bc15db58f58", "is_reserved": 0, "rental_uris": {"ios": "https://dc.lft.to/lastmile_qr_scan", "android": "https://dc.lft.to/lastmile_qr_scan"}, "name": "4839697a4daf673c7aa55bc15db58f58", "fusion_lon": 0.0, "fusion_lat": 0.0, "lon": -77.041488, "type": "electric_scooter"}, {"is_disabled": 0, "lat": 38.87924916666667, "bike_id": "2518afe29d749d76dca4b94994ac987d", "is_reserved": 0, "rental_uris": {"ios": "https://dc.lft.to/lastmile_qr_scan", "android": "https://dc.lft.to/lastmile_qr_scan"}, "name": "2518afe29d749d76dca4b94994ac987d", "fusion_lon": 0.0, "fusion_lat": 0.0, "lon": -77.0237855, "type": "electric_scooter"}, {"is_disabled": 0, "lat": 38.9268105, "bike_id": "92cc1af097766b594d45ed31174bacae", "is_reserved": 0, "rental_uris": {"ios": "https://dc.lft.to/lastmile_qr_scan", "android": "https://dc.lft.to/lastmile_qr_scan"}, "name": "92cc1af097766b594d45ed31174bacae", "fusion_lon": 0.0, "fusion_lat": 0.0, "lon": -77.0157225, "type": "electric_bike"}, {"is_disabled": 0, "lat": 38.923627333333336, "bike_id": "0522c7fc4319f81651e4373fbeff78bf", "is_reserved": 0, "rental_uris": {"ios": "https://dc.lft.to/lastmile_qr_scan", "android": "https://dc.lft.to/lastmile_qr_scan"}, "name": "0522c7fc4319f81651e4373fbeff78bf", "fusion_lon": 0.0, "fusion_lat": 0.0, "lon": -77.05028683333333, "type": "electric_scooter"}, {"is_disabled": 0, "lat": 38.91323466666667, "bike_id": "c7e57b500502d320b64477982d0f8a37", "is_reserved": 0, "rental_uris": {"ios": "https://dc.lft.to/lastmile_qr_scan", "android": "https://dc.lft.to/lastmile_qr_scan"}, "name": "c7e57b500502d320b64477982d0f8a37", "fusion_lon": 0.0, "fusion_lat": 0.0, "lon": -77.03187433333333, "type": "electric_scooter"}, {"is_disabled": 0, "lat": 38.89640766666667, "bike_id": "965ce5e67203c7f194ff28ee3152e6b0", "is_reserved": 0, "rental_uris": {"ios": "https://dc.lft.to/lastmile_qr_scan", "android": "https://dc.lft.to/lastmile_qr_scan"}, "name": "965ce5e67203c7f194ff28ee3152e6b0", "fusion_lon": 0.0, "fusion_lat": 0.0, "lon": -76.9280365, "type": "electric_scooter"}, {"is_disabled": 0, "lat": 38.91002316666667, "bike_id": "72ad169e6a336f9e196af5db56206c1b", "is_reserved": 0, "rental_uris": {"ios": "https://dc.lft.to/lastmile_qr_scan", "android": "https://dc.lft.to/lastmile_qr_scan"}, "name": "72ad169e6a336f9e196af5db56206c1b", "fusion_lon": 0.0, "fusion_lat": 0.0, "lon": -76.99408216666667, "type": "electric_scooter"}, {"is_disabled": 0, "lat": 38.91178816666667, "bike_id": "e472c80c8f9db911781ca575dd75dddb", "is_reserved": 0, "rental_uris": {"ios": "https://dc.lft.to/lastmile_qr_scan", "android": "https://dc.lft.to/lastmile_qr_scan"}, "name": "e472c80c8f9db911781ca575dd75dddb", "fusion_lon": 0.0, "fusion_lat": 0.0, "lon": -77.012103, "type": "electric_scooter"}, {"is_disabled": 0, "lat": 38.9026965, "bike_id": "f81fd3cd64641793103f98d9120fdfa2", "is_reserved": 0, "rental_uris": {"ios": "https://dc.lft.to/lastmile_qr_scan", "android": "https://dc.lft.to/lastmile_qr_scan"}, "name": "f81fd3cd64641793103f98d9120fdfa2", "fusion_lon": 0.0, "fusion_lat": 0.0, "lon": -77.0372565, "type": "electric_scooter"}, {"is_disabled": 0, "lat": 38.902781833333336, "bike_id": "706de008850ea0976eb6fd9e5246d0bb", "is_reserved": 0, "rental_uris": {"ios": "https://dc.lft.to/lastmile_qr_scan", "android": "https://dc.lft.to/lastmile_qr_scan"}, "name": "706de008850ea0976eb6fd9e5246d0bb", "fusion_lon": 0.0, "fusion_lat": 0.0, "lon": -77.03038666666667, "type": "electric_scooter"}, {"is_disabled": 0, "lat": 38.925090833333336, "bike_id": "21f436758fa438d15fa76f2691d0f2ef", "is_reserved": 0, "rental_uris": {"ios": "https://dc.lft.to/lastmile_qr_scan", "android": "https://dc.lft.to/lastmile_qr_scan"}, "name": "21f436758fa438d15fa76f2691d0f2ef", "fusion_lon": 0.0, "fusion_lat": 0.0, "lon": -77.00225883333333, "type": "electric_scooter"}, {"is_disabled": 0, "lat": 38.93659783333333, "bike_id": "a19f8223b55201799f5d406fa4f4fd28", "is_reserved": 0, "rental_uris": {"ios": "https://dc.lft.to/lastmile_qr_scan", "android": "https://dc.lft.to/lastmile_qr_scan"}, "name": "a19f8223b55201799f5d406fa4f4fd28", "fusion_lon": 0.0, "fusion_lat": 0.0, "lon": -77.06607666666666, "type": "electric_scooter"}, {"is_disabled": 0, "lat": 38.92249133333333, "bike_id": "753f96df4766d3dac9be67fbcd99110d", "is_reserved": 0, "rental_uris": {"ios": "https://dc.lft.to/lastmile_qr_scan", "android": "https://dc.lft.to/lastmile_qr_scan"}, "name": "753f96df4766d3dac9be67fbcd99110d", "fusion_lon": 0.0, "fusion_lat": 0.0, "lon": -77.03474233333333, "type": "electric_scooter"}, {"is_disabled": 0, "lat": 38.92382583333333, "bike_id": "009e8a703527799dfd272bd084f7ef99", "is_reserved": 0, "rental_uris": {"ios": "https://dc.lft.to/lastmile_qr_scan", "android": "https://dc.lft.to/lastmile_qr_scan"}, "name": "009e8a703527799dfd272bd084f7ef99", "fusion_lon": 0.0, "fusion_lat": 0.0, "lon": -77.0376845, "type": "electric_scooter"}, {"is_disabled": 0, "lat": 38.8825635, "bike_id": "858bb68557e53afba22bcde95f694807", "is_reserved": 0, "rental_uris": {"ios": "https://dc.lft.to/lastmile_qr_scan", "android": "https://dc.lft.to/lastmile_qr_scan"}, "name": "858bb68557e53afba22bcde95f694807", "fusion_lon": 0.0, "fusion_lat": 0.0, "lon": -77.00068833333333, "type": "electric_scooter"}, {"is_disabled": 0, "lat": 38.883865166666666, "bike_id": "cea6837f37b77a716a94d37e319becad", "is_reserved": 0, "rental_uris": {"ios": "https://dc.lft.to/lastmile_qr_scan", "android": "https://dc.lft.to/lastmile_qr_scan"}, "name": "cea6837f37b77a716a94d37e319becad", "fusion_lon": 0.0, "fusion_lat": 0.0, "lon": -77.01980283333333, "type": "electric_scooter"}, {"is_disabled": 0, "lat": 38.91818716666667, "bike_id": "86f8e97ae1ed54a2cd913360048c954a", "is_reserved": 0, "rental_uris": {"ios": "https://dc.lft.to/lastmile_qr_scan", "android": "https://dc.lft.to/lastmile_qr_scan"}, "name": "86f8e97ae1ed54a2cd913360048c954a", "fusion_lon": 0.0, "fusion_lat": 0.0, "lon": -77.03200816666667, "type": "electric_scooter"}, {"is_disabled": 0, "lat": 38.90058333333333, "bike_id": "ebfc3d58f5e0b4917ca20fc48e02e725", "is_reserved": 0, "rental_uris": {"ios": "https://dc.lft.to/lastmile_qr_scan", "android": "https://dc.lft.to/lastmile_qr_scan"}, "name": "ebfc3d58f5e0b4917ca20fc48e02e725", "fusion_lon": 0.0, "fusion_lat": 0.0, "lon": -77.04786716666666, "type": "electric_scooter"}, {"is_disabled": 0, "lat": 38.921521, "bike_id": "eae5ce39424f20ef4cf7ca696f2f0504", "is_reserved": 0, "rental_uris": {"ios": "https://dc.lft.to/lastmile_qr_scan", "android": "https://dc.lft.to/lastmile_qr_scan"}, "name": "eae5ce39424f20ef4cf7ca696f2f0504", "fusion_lon": 0.0, "fusion_lat": 0.0, "lon": -77.03444316666666, "type": "electric_scooter"}, {"is_disabled": 0, "lat": 38.930636666666665, "bike_id": "3e556ad8df7c6f66fd9c084a5673060f", "is_reserved": 0, "rental_uris": {"ios": "https://dc.lft.to/lastmile_qr_scan", "android": "https://dc.lft.to/lastmile_qr_scan"}, "name": "3e556ad8df7c6f66fd9c084a5673060f", "fusion_lon": 0.0, "fusion_lat": 0.0, "lon": -77.040254, "type": "electric_scooter"}, {"is_disabled": 0, "lat": 38.803998166666666, "bike_id": "5c2b52bfe2f5818694210d8f9ab67663", "is_reserved": 0, "rental_uris": {"ios": "https://dc.lft.to/lastmile_qr_scan", "android": "https://dc.lft.to/lastmile_qr_scan"}, "name": "5c2b52bfe2f5818694210d8f9ab67663", "fusion_lon": 0.0, "fusion_lat": 0.0, "lon": -77.11326, "type": "electric_bike"}, {"is_disabled": 0, "lat": 38.9005245, "bike_id": "c6c49d0528f6054e9db3c4ba6f1b5af4", "is_reserved": 0, "rental_uris": {"ios": "https://dc.lft.to/lastmile_qr_scan", "android": "https://dc.lft.to/lastmile_qr_scan"}, "name": "c6c49d0528f6054e9db3c4ba6f1b5af4", "fusion_lon": 0.0, "fusion_lat": 0.0, "lon": -76.98703966666666, "type": "electric_scooter"}, {"is_disabled": 0, "lat": 38.9219765, "bike_id": "2042bf5f6e11b2bd96a40090772ccd04", "is_reserved": 0, "rental_uris": {"ios": "https://dc.lft.to/lastmile_qr_scan", "android": "https://dc.lft.to/lastmile_qr_scan"}, "name": "2042bf5f6e11b2bd96a40090772ccd04", "fusion_lon": 0.0, "fusion_lat": 0.0, "lon": -77.04234783333334, "type": "electric_scooter"}, {"is_disabled": 0, "lat": 38.90318583333333, "bike_id": "bbdf8515393a5001e195063854e7b9f8", "is_reserved": 0, "rental_uris": {"ios": "https://dc.lft.to/lastmile_qr_scan", "android": "https://dc.lft.to/lastmile_qr_scan"}, "name": "bbdf8515393a5001e195063854e7b9f8", "fusion_lon": 0.0, "fusion_lat": 0.0, "lon": -77.044681, "type": "electric_scooter"}, {"is_disabled": 0, "lat": 38.89823783333333, "bike_id": "b3e3e60671e17c97c24a95df63715a66", "is_reserved": 0, "rental_uris": {"ios": "https://dc.lft.to/lastmile_qr_scan", "android": "https://dc.lft.to/lastmile_qr_scan"}, "name": "b3e3e60671e17c97c24a95df63715a66", "fusion_lon": 0.0, "fusion_lat": 0.0, "lon": -77.026083, "type": "electric_scooter"}, {"is_disabled": 0, "lat": 38.86257366666667, "bike_id": "e2e2967a11570fbb2572cdcc1adc3361", "is_reserved": 0, "rental_uris": {"ios": "https://dc.lft.to/lastmile_qr_scan", "android": "https://dc.lft.to/lastmile_qr_scan"}, "name": "e2e2967a11570fbb2572cdcc1adc3361", "fusion_lon": 0.0, "fusion_lat": 0.0, "lon": -77.08922466666667, "type": "electric_bike"}, {"is_disabled": 0, "lat": 38.899323, "bike_id": "78254553ab152781ff505991edfec422", "is_reserved": 0, "rental_uris": {"ios": "https://dc.lft.to/lastmile_qr_scan", "android": "https://dc.lft.to/lastmile_qr_scan"}, "name": "78254553ab152781ff505991edfec422", "fusion_lon": 0.0, "fusion_lat": 0.0, "lon": -77.03238583333334, "type": "electric_scooter"}, {"is_disabled": 0, "lat": 38.9131195, "bike_id": "3b61ab44b56e9a8a7dc43fd6aefdcf3d", "is_reserved": 0, "rental_uris": {"ios": "https://dc.lft.to/lastmile_qr_scan", "android": "https://dc.lft.to/lastmile_qr_scan"}, "name": "3b61ab44b56e9a8a7dc43fd6aefdcf3d", "fusion_lon": 0.0, "fusion_lat": 0.0, "lon": -77.01438166666667, "type": "electric_scooter"}, {"is_disabled": 0, "lat": 38.904584, "bike_id": "553f50d8d7ecaec67538fc377352b843", "is_reserved": 0, "rental_uris": {"ios": "https://dc.lft.to/lastmile_qr_scan", "android": "https://dc.lft.to/lastmile_qr_scan"}, "name": "553f50d8d7ecaec67538fc377352b843", "fusion_lon": 0.0, "fusion_lat": 0.0, "lon": -77.03485533333334, "type": "electric_scooter"}, {"is_disabled": 0, "lat": 38.90369166666667, "bike_id": "0cddb7ae03c11abe495d67773b937328", "is_reserved": 0, "rental_uris": {"ios": "https://dc.lft.to/lastmile_qr_scan", "android": "https://dc.lft.to/lastmile_qr_scan"}, "name": "0cddb7ae03c11abe495d67773b937328", "fusion_lon": 0.0, "fusion_lat": 0.0, "lon": -77.03697016666666, "type": "electric_scooter"}, {"is_disabled": 0, "lat": 38.925080666666666, "bike_id": "09409e5665acfd7c7979f4fad54d70ae", "is_reserved": 0, "rental_uris": {"ios": "https://dc.lft.to/lastmile_qr_scan", "android": "https://dc.lft.to/lastmile_qr_scan"}, "name": "09409e5665acfd7c7979f4fad54d70ae", "fusion_lon": 0.0, "fusion_lat": 0.0, "lon": -77.00223083333333, "type": "electric_scooter"}, {"is_disabled": 0, "lat": 38.911069499999996, "bike_id": "453175857193c84574833f2d9dc4f108", "is_reserved": 0, "rental_uris": {"ios": "https://dc.lft.to/lastmile_qr_scan", "android": "https://dc.lft.to/lastmile_qr_scan"}, "name": "453175857193c84574833f2d9dc4f108", "fusion_lon": 0.0, "fusion_lat": 0.0, "lon": -77.03832433333334, "type": "electric_scooter"}, {"is_disabled": 0, "lat": 38.90832983333333, "bike_id": "7b736432d46fd40319413de5ffa73595", "is_reserved": 0, "rental_uris": {"ios": "https://dc.lft.to/lastmile_qr_scan", "android": "https://dc.lft.to/lastmile_qr_scan"}, "name": "7b736432d46fd40319413de5ffa73595", "fusion_lon": 0.0, "fusion_lat": 0.0, "lon": -77.039749, "type": "electric_scooter"}, {"is_disabled": 0, "lat": 38.909991833333336, "bike_id": "2ce02424f4a805c7cbf60a03e82aa608", "is_reserved": 0, "rental_uris": {"ios": "https://dc.lft.to/lastmile_qr_scan", "android": "https://dc.lft.to/lastmile_qr_scan"}, "name": "2ce02424f4a805c7cbf60a03e82aa608", "fusion_lon": 0.0, "fusion_lat": 0.0, "lon": -77.0416975, "type": "electric_scooter"}, {"is_disabled": 0, "lat": 38.89740183333333, "bike_id": "63e6723457cb82f554170d63a429d297", "is_reserved": 0, "rental_uris": {"ios": "https://dc.lft.to/lastmile_qr_scan", "android": "https://dc.lft.to/lastmile_qr_scan"}, "name": "63e6723457cb82f554170d63a429d297", "fusion_lon": 0.0, "fusion_lat": 0.0, "lon": -76.99041583333333, "type": "electric_scooter"}, {"is_disabled": 0, "lat": 38.90876733333333, "bike_id": "5c95efb393c5f1fc1e8039a64861294c", "is_reserved": 0, "rental_uris": {"ios": "https://dc.lft.to/lastmile_qr_scan", "android": "https://dc.lft.to/lastmile_qr_scan"}, "name": "5c95efb393c5f1fc1e8039a64861294c", "fusion_lon": 0.0, "fusion_lat": 0.0, "lon": -77.0434385, "type": "electric_scooter"}, {"is_disabled": 0, "lat": 38.909311333333335, "bike_id": "26e8b14ed3f56296b8de5c180fcf1e72", "is_reserved": 0, "rental_uris": {"ios": "https://dc.lft.to/lastmile_qr_scan", "android": "https://dc.lft.to/lastmile_qr_scan"}, "name": "26e8b14ed3f56296b8de5c180fcf1e72", "fusion_lon": 0.0, "fusion_lat": 0.0, "lon": -76.99912983333333, "type": "electric_scooter"}, {"is_disabled": 0, "lat": 38.89169316666667, "bike_id": "3da9e318062a68c39f9ee582131598ee", "is_reserved": 0, "rental_uris": {"ios": "https://dc.lft.to/lastmile_qr_scan", "android": "https://dc.lft.to/lastmile_qr_scan"}, "name": "3da9e318062a68c39f9ee582131598ee", "fusion_lon": 0.0, "fusion_lat": 0.0, "lon": -77.01555466666667, "type": "electric_scooter"}, {"is_disabled": 0, "lat": 38.912720666666665, "bike_id": "38248b0f0c04a09a60c3fee6dd431b53", "is_reserved": 0, "rental_uris": {"ios": "https://dc.lft.to/lastmile_qr_scan", "android": "https://dc.lft.to/lastmile_qr_scan"}, "name": "38248b0f0c04a09a60c3fee6dd431b53", "fusion_lon": 0.0, "fusion_lat": 0.0, "lon": -77.022999, "type": "electric_scooter"}, {"is_disabled": 0, "lat": 38.89171416666667, "bike_id": "b627a668140685ac5d6957fd7267791f", "is_reserved": 0, "rental_uris": {"ios": "https://dc.lft.to/lastmile_qr_scan", "android": "https://dc.lft.to/lastmile_qr_scan"}, "name": "b627a668140685ac5d6957fd7267791f", "fusion_lon": 0.0, "fusion_lat": 0.0, "lon": -77.01557533333333, "type": "electric_scooter"}, {"is_disabled": 0, "lat": 38.8919845, "bike_id": "eb10956b812547956af230155c394469", "is_reserved": 0, "rental_uris": {"ios": "https://dc.lft.to/lastmile_qr_scan", "android": "https://dc.lft.to/lastmile_qr_scan"}, "name": "eb10956b812547956af230155c394469", "fusion_lon": 0.0, "fusion_lat": 0.0, "lon": -77.0438315, "type": "electric_scooter"}, {"is_disabled": 0, "lat": 38.892198666666665, "bike_id": "6ca553ace6d9f79991bd91ce5726c661", "is_reserved": 0, "rental_uris": {"ios": "https://dc.lft.to/lastmile_qr_scan", "android": "https://dc.lft.to/lastmile_qr_scan"}, "name": "6ca553ace6d9f79991bd91ce5726c661", "fusion_lon": 0.0, "fusion_lat": 0.0, "lon": -77.02222033333334, "type": "electric_scooter"}, {"is_disabled": 0, "lat": 38.82198616666667, "bike_id": "10bbc7cb6ca77a65478da2068c26340c", "is_reserved": 0, "rental_uris": {"ios": "https://dc.lft.to/lastmile_qr_scan", "android": "https://dc.lft.to/lastmile_qr_scan"}, "name": "10bbc7cb6ca77a65478da2068c26340c", "fusion_lon": 0.0, "fusion_lat": 0.0, "lon": -76.97709683333333, "type": "electric_bike"}, {"is_disabled": 0, "lat": 38.911184666666664, "bike_id": "7a3f71d5bb803e0a897602cf23852d1d", "is_reserved": 0, "rental_uris": {"ios": "https://dc.lft.to/lastmile_qr_scan", "android": "https://dc.lft.to/lastmile_qr_scan"}, "name": "7a3f71d5bb803e0a897602cf23852d1d", "fusion_lon": 0.0, "fusion_lat": 0.0, "lon": -77.038742, "type": "electric_scooter"}, {"is_disabled": 0, "lat": 38.91110966666667, "bike_id": "bdbb3946b0cc5afcc0b8de5bafd9df6d", "is_reserved": 0, "rental_uris": {"ios": "https://dc.lft.to/lastmile_qr_scan", "android": "https://dc.lft.to/lastmile_qr_scan"}, "name": "bdbb3946b0cc5afcc0b8de5bafd9df6d", "fusion_lon": 0.0, "fusion_lat": 0.0, "lon": -77.03830566666667, "type": "electric_scooter"}, {"is_disabled": 0, "lat": 38.91559216666667, "bike_id": "6203ab66dd226c602529c0b5270800aa", "is_reserved": 0, "rental_uris": {"ios": "https://dc.lft.to/lastmile_qr_scan", "android": "https://dc.lft.to/lastmile_qr_scan"}, "name": "6203ab66dd226c602529c0b5270800aa", "fusion_lon": 0.0, "fusion_lat": 0.0, "lon": -77.00077733333333, "type": "electric_scooter"}, {"is_disabled": 0, "lat": 38.92436216666667, "bike_id": "60e922bd6c88be2989df7197e2c1c58c", "is_reserved": 0, "rental_uris": {"ios": "https://dc.lft.to/lastmile_qr_scan", "android": "https://dc.lft.to/lastmile_qr_scan"}, "name": "60e922bd6c88be2989df7197e2c1c58c", "fusion_lon": 0.0, "fusion_lat": 0.0, "lon": -76.97162166666666, "type": "electric_bike"}, {"is_disabled": 0, "lat": 38.907733666666665, "bike_id": "431c8a1dd85ce7be1692c77bd71d2b50", "is_reserved": 0, "rental_uris": {"ios": "https://dc.lft.to/lastmile_qr_scan", "android": "https://dc.lft.to/lastmile_qr_scan"}, "name": "431c8a1dd85ce7be1692c77bd71d2b50", "fusion_lon": 0.0, "fusion_lat": 0.0, "lon": -77.045403, "type": "electric_scooter"}, {"is_disabled": 0, "lat": 38.96226983333333, "bike_id": "61c1d4044def58d35e797f31fd24d151", "is_reserved": 0, "rental_uris": {"ios": "https://dc.lft.to/lastmile_qr_scan", "android": "https://dc.lft.to/lastmile_qr_scan"}, "name": "61c1d4044def58d35e797f31fd24d151", "fusion_lon": 0.0, "fusion_lat": 0.0, "lon": -77.0262415, "type": "electric_bike"}, {"is_disabled": 0, "lat": 38.900155, "bike_id": "2ba539798019aa0458ff098bcb749cdf", "is_reserved": 0, "rental_uris": {"ios": "https://dc.lft.to/lastmile_qr_scan", "android": "https://dc.lft.to/lastmile_qr_scan"}, "name": "2ba539798019aa0458ff098bcb749cdf", "fusion_lon": 0.0, "fusion_lat": 0.0, "lon": -77.01197933333333, "type": "electric_scooter"}, {"is_disabled": 0, "lat": 38.91932383333334, "bike_id": "505beeedbbd85d68007680113c0e84e8", "is_reserved": 0, "rental_uris": {"ios": "https://dc.lft.to/lastmile_qr_scan", "android": "https://dc.lft.to/lastmile_qr_scan"}, "name": "505beeedbbd85d68007680113c0e84e8", "fusion_lon": 0.0, "fusion_lat": 0.0, "lon": -77.02974416666666, "type": "electric_scooter"}, {"is_disabled": 0, "lat": 38.90088133333333, "bike_id": "413c3c69b591834ea88aacf331bd01e6", "is_reserved": 0, "rental_uris": {"ios": "https://dc.lft.to/lastmile_qr_scan", "android": "https://dc.lft.to/lastmile_qr_scan"}, "name": "413c3c69b591834ea88aacf331bd01e6", "fusion_lon": 0.0, "fusion_lat": 0.0, "lon": -77.0229205, "type": "electric_scooter"}, {"is_disabled": 0, "lat": 38.92603283333333, "bike_id": "288837578aa927b5517fa465c74b17fe", "is_reserved": 0, "rental_uris": {"ios": "https://dc.lft.to/lastmile_qr_scan", "android": "https://dc.lft.to/lastmile_qr_scan"}, "name": "288837578aa927b5517fa465c74b17fe", "fusion_lon": 0.0, "fusion_lat": 0.0, "lon": -77.02159983333334, "type": "electric_scooter"}, {"is_disabled": 0, "lat": 38.90588616666667, "bike_id": "357249a55d8df6c2737b82e0799a6838", "is_reserved": 0, "rental_uris": {"ios": "https://dc.lft.to/lastmile_qr_scan", "android": "https://dc.lft.to/lastmile_qr_scan"}, "name": "357249a55d8df6c2737b82e0799a6838", "fusion_lon": 0.0, "fusion_lat": 0.0, "lon": -77.029836, "type": "electric_scooter"}, {"is_disabled": 0, "lat": 38.92448383333333, "bike_id": "6e70093957de6b3cc7b9115ff2a63ef4", "is_reserved": 0, "rental_uris": {"ios": "https://dc.lft.to/lastmile_qr_scan", "android": "https://dc.lft.to/lastmile_qr_scan"}, "name": "6e70093957de6b3cc7b9115ff2a63ef4", "fusion_lon": 0.0, "fusion_lat": 0.0, "lon": -77.020383, "type": "electric_scooter"}, {"is_disabled": 0, "lat": 38.908338666666666, "bike_id": "a7f1eacd4f2389811344485e715c4d5b", "is_reserved": 0, "rental_uris": {"ios": "https://dc.lft.to/lastmile_qr_scan", "android": "https://dc.lft.to/lastmile_qr_scan"}, "name": "a7f1eacd4f2389811344485e715c4d5b", "fusion_lon": 0.0, "fusion_lat": 0.0, "lon": -77.039468, "type": "electric_scooter"}, {"is_disabled": 0, "lat": 38.8072925, "bike_id": "acf676d898fbf6f809e6fbd69f903ed2", "is_reserved": 0, "rental_uris": {"ios": "https://dc.lft.to/lastmile_qr_scan", "android": "https://dc.lft.to/lastmile_qr_scan"}, "name": "acf676d898fbf6f809e6fbd69f903ed2", "fusion_lon": 0.0, "fusion_lat": 0.0, "lon": -76.99261883333334, "type": "electric_bike"}, {"is_disabled": 0, "lat": 38.8833215, "bike_id": "4a157e1c14f1aa996121fe53eb50ed56", "is_reserved": 0, "rental_uris": {"ios": "https://dc.lft.to/lastmile_qr_scan", "android": "https://dc.lft.to/lastmile_qr_scan"}, "name": "4a157e1c14f1aa996121fe53eb50ed56", "fusion_lon": 0.0, "fusion_lat": 0.0, "lon": -77.0174585, "type": "electric_scooter"}, {"is_disabled": 0, "lat": 38.923302666666665, "bike_id": "2687232126cfa791c191de6107b35f9e", "is_reserved": 0, "rental_uris": {"ios": "https://dc.lft.to/lastmile_qr_scan", "android": "https://dc.lft.to/lastmile_qr_scan"}, "name": "2687232126cfa791c191de6107b35f9e", "fusion_lon": 0.0, "fusion_lat": 0.0, "lon": -77.036683, "type": "electric_scooter"}, {"is_disabled": 0, "lat": 38.91261333333333, "bike_id": "d3d0c53c3fd192c7b51e5a183610f24b", "is_reserved": 0, "rental_uris": {"ios": "https://dc.lft.to/lastmile_qr_scan", "android": "https://dc.lft.to/lastmile_qr_scan"}, "name": "d3d0c53c3fd192c7b51e5a183610f24b", "fusion_lon": 0.0, "fusion_lat": 0.0, "lon": -77.03870366666666, "type": "electric_scooter"}, {"is_disabled": 0, "lat": 39.08428266666667, "bike_id": "b79422e60b316aec422e5f14427912d1", "is_reserved": 0, "rental_uris": {"ios": "https://dc.lft.to/lastmile_qr_scan", "android": "https://dc.lft.to/lastmile_qr_scan"}, "name": "b79422e60b316aec422e5f14427912d1", "fusion_lon": 0.0, "fusion_lat": 0.0, "lon": -76.95140283333333, "type": "electric_bike"}, {"is_disabled": 0, "lat": 38.887715666666665, "bike_id": "a4ecb8599f21ae4e7b4b051188f8a0f4", "is_reserved": 0, "rental_uris": {"ios": "https://dc.lft.to/lastmile_qr_scan", "android": "https://dc.lft.to/lastmile_qr_scan"}, "name": "a4ecb8599f21ae4e7b4b051188f8a0f4", "fusion_lon": 0.0, "fusion_lat": 0.0, "lon": -76.93260283333333, "type": "electric_scooter"}, {"is_disabled": 0, "lat": 38.906097333333335, "bike_id": "7e458f9b620f56b0ac93e9d65714a9c9", "is_reserved": 0, "rental_uris": {"ios": "https://dc.lft.to/lastmile_qr_scan", "android": "https://dc.lft.to/lastmile_qr_scan"}, "name": "7e458f9b620f56b0ac93e9d65714a9c9", "fusion_lon": 0.0, "fusion_lat": 0.0, "lon": -76.97798816666666, "type": "electric_scooter"}, {"is_disabled": 0, "lat": 38.90363883333333, "bike_id": "c1a48837b478b0485ab9bbddeda3e58f", "is_reserved": 0, "rental_uris": {"ios": "https://dc.lft.to/lastmile_qr_scan", "android": "https://dc.lft.to/lastmile_qr_scan"}, "name": "c1a48837b478b0485ab9bbddeda3e58f", "fusion_lon": 0.0, "fusion_lat": 0.0, "lon": -77.03752366666667, "type": "electric_scooter"}, {"is_disabled": 0, "lat": 38.88375933333333, "bike_id": "f0bbee6000cf574007cf68e81a725843", "is_reserved": 0, "rental_uris": {"ios": "https://dc.lft.to/lastmile_qr_scan", "android": "https://dc.lft.to/lastmile_qr_scan"}, "name": "f0bbee6000cf574007cf68e81a725843", "fusion_lon": 0.0, "fusion_lat": 0.0, "lon": -76.9303415, "type": "electric_scooter"}, {"is_disabled": 0, "lat": 38.90972283333333, "bike_id": "231bb907a44cc87009f6482f910d97b6", "is_reserved": 0, "rental_uris": {"ios": "https://dc.lft.to/lastmile_qr_scan", "android": "https://dc.lft.to/lastmile_qr_scan"}, "name": "231bb907a44cc87009f6482f910d97b6", "fusion_lon": 0.0, "fusion_lat": 0.0, "lon": -77.02411966666666, "type": "electric_scooter"}, {"is_disabled": 0, "lat": 38.918391666666665, "bike_id": "58d2b9423fa407a044ef4bf425ff5751", "is_reserved": 0, "rental_uris": {"ios": "https://dc.lft.to/lastmile_qr_scan", "android": "https://dc.lft.to/lastmile_qr_scan"}, "name": "58d2b9423fa407a044ef4bf425ff5751", "fusion_lon": 0.0, "fusion_lat": 0.0, "lon": -77.02273166666667, "type": "electric_scooter"}, {"is_disabled": 0, "lat": 38.924681666666665, "bike_id": "da63781616a1d7e59cf396e9c53c284b", "is_reserved": 0, "rental_uris": {"ios": "https://dc.lft.to/lastmile_qr_scan", "android": "https://dc.lft.to/lastmile_qr_scan"}, "name": "da63781616a1d7e59cf396e9c53c284b", "fusion_lon": 0.0, "fusion_lat": 0.0, "lon": -77.022148, "type": "electric_scooter"}, {"is_disabled": 0, "lat": 38.858980833333334, "bike_id": "5505edafe5c520723cfb01103ed4a1c8", "is_reserved": 0, "rental_uris": {"ios": "https://dc.lft.to/lastmile_qr_scan", "android": "https://dc.lft.to/lastmile_qr_scan"}, "name": "5505edafe5c520723cfb01103ed4a1c8", "fusion_lon": 0.0, "fusion_lat": 0.0, "lon": -77.09555316666666, "type": "electric_bike"}, {"is_disabled": 0, "lat": 38.90576816666667, "bike_id": "d9e42a9af292f8780760baec8f6d9a0f", "is_reserved": 0, "rental_uris": {"ios": "https://dc.lft.to/lastmile_qr_scan", "android": "https://dc.lft.to/lastmile_qr_scan"}, "name": "d9e42a9af292f8780760baec8f6d9a0f", "fusion_lon": 0.0, "fusion_lat": 0.0, "lon": -77.00267583333333, "type": "electric_scooter"}, {"is_disabled": 0, "lat": 38.9570295, "bike_id": "c73be2be74368088dec02699b81a94f1", "is_reserved": 0, "rental_uris": {"ios": "https://dc.lft.to/lastmile_qr_scan", "android": "https://dc.lft.to/lastmile_qr_scan"}, "name": "c73be2be74368088dec02699b81a94f1", "fusion_lon": 0.0, "fusion_lat": 0.0, "lon": -77.35971083333334, "type": "electric_bike"}, {"is_disabled": 0, "lat": 38.90587466666667, "bike_id": "86f29ad550ffcc6b81adec887c1085a9", "is_reserved": 0, "rental_uris": {"ios": "https://dc.lft.to/lastmile_qr_scan", "android": "https://dc.lft.to/lastmile_qr_scan"}, "name": "86f29ad550ffcc6b81adec887c1085a9", "fusion_lon": 0.0, "fusion_lat": 0.0, "lon": -77.0218195, "type": "electric_scooter"}, {"is_disabled": 0, "lat": 38.883748833333335, "bike_id": "abb2f5d7097c8969a92571258563e858", "is_reserved": 0, "rental_uris": {"ios": "https://dc.lft.to/lastmile_qr_scan", "android": "https://dc.lft.to/lastmile_qr_scan"}, "name": "abb2f5d7097c8969a92571258563e858", "fusion_lon": 0.0, "fusion_lat": 0.0, "lon": -76.92371666666666, "type": "electric_bike"}, {"is_disabled": 0, "lat": 38.903856833333336, "bike_id": "d9d5f241f05cd20fee026761162c2cff", "is_reserved": 0, "rental_uris": {"ios": "https://dc.lft.to/lastmile_qr_scan", "android": "https://dc.lft.to/lastmile_qr_scan"}, "name": "d9d5f241f05cd20fee026761162c2cff", "fusion_lon": 0.0, "fusion_lat": 0.0, "lon": -77.0363635, "type": "electric_scooter"}, {"is_disabled": 0, "lat": 38.904384666666665, "bike_id": "d3eb603179ed2657bcab9abe90310904", "is_reserved": 0, "rental_uris": {"ios": "https://dc.lft.to/lastmile_qr_scan", "android": "https://dc.lft.to/lastmile_qr_scan"}, "name": "d3eb603179ed2657bcab9abe90310904", "fusion_lon": 0.0, "fusion_lat": 0.0, "lon": -77.02596216666667, "type": "electric_scooter"}, {"is_disabled": 0, "lat": 38.89393066666667, "bike_id": "a89f36eb0a8213d1f23c3d8cd89b4b0e", "is_reserved": 0, "rental_uris": {"ios": "https://dc.lft.to/lastmile_qr_scan", "android": "https://dc.lft.to/lastmile_qr_scan"}, "name": "a89f36eb0a8213d1f23c3d8cd89b4b0e", "fusion_lon": 0.0, "fusion_lat": 0.0, "lon": -77.046581, "type": "electric_scooter"}, {"is_disabled": 0, "lat": 38.8648425, "bike_id": "e30876bf3433eab6b7948a3e96e31af1", "is_reserved": 0, "rental_uris": {"ios": "https://dc.lft.to/lastmile_qr_scan", "android": "https://dc.lft.to/lastmile_qr_scan"}, "name": "e30876bf3433eab6b7948a3e96e31af1", "fusion_lon": 0.0, "fusion_lat": 0.0, "lon": -76.97746983333333, "type": "electric_bike"}, {"is_disabled": 0, "lat": 38.876683666666665, "bike_id": "396c675923295a9f1ea1f8990f443097", "is_reserved": 0, "rental_uris": {"ios": "https://dc.lft.to/lastmile_qr_scan", "android": "https://dc.lft.to/lastmile_qr_scan"}, "name": "396c675923295a9f1ea1f8990f443097", "fusion_lon": 0.0, "fusion_lat": 0.0, "lon": -77.01759533333333, "type": "electric_scooter"}, {"is_disabled": 0, "lat": 38.92443, "bike_id": "5dac82f43b976d947215fc389e2d6f50", "is_reserved": 0, "rental_uris": {"ios": "https://dc.lft.to/lastmile_qr_scan", "android": "https://dc.lft.to/lastmile_qr_scan"}, "name": "5dac82f43b976d947215fc389e2d6f50", "fusion_lon": 0.0, "fusion_lat": 0.0, "lon": -77.02241666666667, "type": "electric_scooter"}, {"is_disabled": 0, "lat": 38.90842166666667, "bike_id": "60c633aa9f1db1b163236c1001eb7dbd", "is_reserved": 0, "rental_uris": {"ios": "https://dc.lft.to/lastmile_qr_scan", "android": "https://dc.lft.to/lastmile_qr_scan"}, "name": "60c633aa9f1db1b163236c1001eb7dbd", "fusion_lon": 0.0, "fusion_lat": 0.0, "lon": -77.03548916666666, "type": "electric_scooter"}, {"is_disabled": 0, "lat": 38.9036015, "bike_id": "f2a74b3459dd30649962870adeff92e1", "is_reserved": 0, "rental_uris": {"ios": "https://dc.lft.to/lastmile_qr_scan", "android": "https://dc.lft.to/lastmile_qr_scan"}, "name": "f2a74b3459dd30649962870adeff92e1", "fusion_lon": 0.0, "fusion_lat": 0.0, "lon": -77.03201933333334, "type": "electric_scooter"}, {"is_disabled": 0, "lat": 38.903886166666666, "bike_id": "13d0c3ebaf1f430c57a7389c70ad6db0", "is_reserved": 0, "rental_uris": {"ios": "https://dc.lft.to/lastmile_qr_scan", "android": "https://dc.lft.to/lastmile_qr_scan"}, "name": "13d0c3ebaf1f430c57a7389c70ad6db0", "fusion_lon": 0.0, "fusion_lat": 0.0, "lon": -77.04085416666666, "type": "electric_scooter"}, {"is_disabled": 0, "lat": 38.91051266666667, "bike_id": "4165ac4de64ee1a14228f754c971a65d", "is_reserved": 0, "rental_uris": {"ios": "https://dc.lft.to/lastmile_qr_scan", "android": "https://dc.lft.to/lastmile_qr_scan"}, "name": "4165ac4de64ee1a14228f754c971a65d", "fusion_lon": 0.0, "fusion_lat": 0.0, "lon": -77.02301466666667, "type": "electric_scooter"}, {"is_disabled": 0, "lat": 38.876303166666666, "bike_id": "553fb7d366eda93c5885376594019138", "is_reserved": 0, "rental_uris": {"ios": "https://dc.lft.to/lastmile_qr_scan", "android": "https://dc.lft.to/lastmile_qr_scan"}, "name": "553fb7d366eda93c5885376594019138", "fusion_lon": 0.0, "fusion_lat": 0.0, "lon": -77.00956133333334, "type": "electric_scooter"}, {"is_disabled": 0, "lat": 38.9169315, "bike_id": "f9c5714408b41f90ad64d96f4f857dcd", "is_reserved": 0, "rental_uris": {"ios": "https://dc.lft.to/lastmile_qr_scan", "android": "https://dc.lft.to/lastmile_qr_scan"}, "name": "f9c5714408b41f90ad64d96f4f857dcd", "fusion_lon": 0.0, "fusion_lat": 0.0, "lon": -77.03734783333333, "type": "electric_scooter"}, {"is_disabled": 0, "lat": 38.92062633333333, "bike_id": "38b9fecd4b2e8a169466afa6caa4bbf2", "is_reserved": 0, "rental_uris": {"ios": "https://dc.lft.to/lastmile_qr_scan", "android": "https://dc.lft.to/lastmile_qr_scan"}, "name": "38b9fecd4b2e8a169466afa6caa4bbf2", "fusion_lon": 0.0, "fusion_lat": 0.0, "lon": -77.028449, "type": "electric_scooter"}, {"is_disabled": 0, "lat": 38.95695516666667, "bike_id": "db50328e98adc4d4570e9e48cd2cde70", "is_reserved": 0, "rental_uris": {"ios": "https://dc.lft.to/lastmile_qr_scan", "android": "https://dc.lft.to/lastmile_qr_scan"}, "name": "db50328e98adc4d4570e9e48cd2cde70", "fusion_lon": 0.0, "fusion_lat": 0.0, "lon": -77.02232183333334, "type": "electric_bike"}, {"is_disabled": 0, "lat": 38.899996333333334, "bike_id": "c0c169911acd2d997ddbb7ba2cef3cb2", "is_reserved": 0, "rental_uris": {"ios": "https://dc.lft.to/lastmile_qr_scan", "android": "https://dc.lft.to/lastmile_qr_scan"}, "name": "c0c169911acd2d997ddbb7ba2cef3cb2", "fusion_lon": 0.0, "fusion_lat": 0.0, "lon": -77.02668283333334, "type": "electric_scooter"}, {"is_disabled": 0, "lat": 38.862151833333336, "bike_id": "07a0cfe7a13d89a991b0bec434d1cdf5", "is_reserved": 0, "rental_uris": {"ios": "https://dc.lft.to/lastmile_qr_scan", "android": "https://dc.lft.to/lastmile_qr_scan"}, "name": "07a0cfe7a13d89a991b0bec434d1cdf5", "fusion_lon": 0.0, "fusion_lat": 0.0, "lon": -76.99477766666666, "type": "electric_scooter"}, {"is_disabled": 0, "lat": 38.957295333333334, "bike_id": "1b1251e86fbbc49f2ac9344bb16bf34d", "is_reserved": 0, "rental_uris": {"ios": "https://dc.lft.to/lastmile_qr_scan", "android": "https://dc.lft.to/lastmile_qr_scan"}, "name": "1b1251e86fbbc49f2ac9344bb16bf34d", "fusion_lon": 0.0, "fusion_lat": 0.0, "lon": -77.024038, "type": "electric_scooter"}, {"is_disabled": 0, "lat": 38.89227233333333, "bike_id": "600aea30743240832b8d2c5d2b387d79", "is_reserved": 0, "rental_uris": {"ios": "https://dc.lft.to/lastmile_qr_scan", "android": "https://dc.lft.to/lastmile_qr_scan"}, "name": "600aea30743240832b8d2c5d2b387d79", "fusion_lon": 0.0, "fusion_lat": 0.0, "lon": -77.028014, "type": "electric_scooter"}, {"is_disabled": 0, "lat": 38.887446, "bike_id": "b05b3687c8ad3b62f92066e37906cbeb", "is_reserved": 0, "rental_uris": {"ios": "https://dc.lft.to/lastmile_qr_scan", "android": "https://dc.lft.to/lastmile_qr_scan"}, "name": "b05b3687c8ad3b62f92066e37906cbeb", "fusion_lon": 0.0, "fusion_lat": 0.0, "lon": -77.02846483333333, "type": "electric_scooter"}, {"is_disabled": 0, "lat": 38.91576833333333, "bike_id": "a1b46e28e3a5c1067f94de6111e4b9db", "is_reserved": 0, "rental_uris": {"ios": "https://dc.lft.to/lastmile_qr_scan", "android": "https://dc.lft.to/lastmile_qr_scan"}, "name": "a1b46e28e3a5c1067f94de6111e4b9db", "fusion_lon": 0.0, "fusion_lat": 0.0, "lon": -77.03203683333334, "type": "electric_scooter"}, {"is_disabled": 0, "lat": 38.9125535, "bike_id": "0378fa57744c1ba2ff3dbe79ae39039e", "is_reserved": 0, "rental_uris": {"ios": "https://dc.lft.to/lastmile_qr_scan", "android": "https://dc.lft.to/lastmile_qr_scan"}, "name": "0378fa57744c1ba2ff3dbe79ae39039e", "fusion_lon": 0.0, "fusion_lat": 0.0, "lon": -77.019087, "type": "electric_scooter"}, {"is_disabled": 0, "lat": 38.90521666666667, "bike_id": "e61d153038a7630da80ede252c6d5326", "is_reserved": 0, "rental_uris": {"ios": "https://dc.lft.to/lastmile_qr_scan", "android": "https://dc.lft.to/lastmile_qr_scan"}, "name": "e61d153038a7630da80ede252c6d5326", "fusion_lon": 0.0, "fusion_lat": 0.0, "lon": -77.04185933333333, "type": "electric_scooter"}, {"is_disabled": 0, "lat": 38.957312, "bike_id": "cee154546bf8a7f4332e28d373c00422", "is_reserved": 0, "rental_uris": {"ios": "https://dc.lft.to/lastmile_qr_scan", "android": "https://dc.lft.to/lastmile_qr_scan"}, "name": "cee154546bf8a7f4332e28d373c00422", "fusion_lon": 0.0, "fusion_lat": 0.0, "lon": -77.02405883333333, "type": "electric_scooter"}, {"is_disabled": 0, "lat": 38.9497675, "bike_id": "1935098daa18b9bcd89fe57911859b2c", "is_reserved": 0, "rental_uris": {"ios": "https://dc.lft.to/lastmile_qr_scan", "android": "https://dc.lft.to/lastmile_qr_scan"}, "name": "1935098daa18b9bcd89fe57911859b2c", "fusion_lon": 0.0, "fusion_lat": 0.0, "lon": -77.06767983333333, "type": "electric_scooter"}, {"is_disabled": 0, "lat": 38.82770166666667, "bike_id": "fa33809ecc4ec6c232e28cfefc87adcb", "is_reserved": 0, "rental_uris": {"ios": "https://dc.lft.to/lastmile_qr_scan", "android": "https://dc.lft.to/lastmile_qr_scan"}, "name": "fa33809ecc4ec6c232e28cfefc87adcb", "fusion_lon": 0.0, "fusion_lat": 0.0, "lon": -77.060136, "type": "electric_bike"}, {"is_disabled": 0, "lat": 38.9256305, "bike_id": "9cb2da3b44d5035ce785d78d5b7be68e", "is_reserved": 0, "rental_uris": {"ios": "https://dc.lft.to/lastmile_qr_scan", "android": "https://dc.lft.to/lastmile_qr_scan"}, "name": "9cb2da3b44d5035ce785d78d5b7be68e", "fusion_lon": 0.0, "fusion_lat": 0.0, "lon": -77.02281516666666, "type": "electric_scooter"}, {"is_disabled": 0, "lat": 38.93169233333333, "bike_id": "13fa70d298bed36485acfb30fd007984", "is_reserved": 0, "rental_uris": {"ios": "https://dc.lft.to/lastmile_qr_scan", "android": "https://dc.lft.to/lastmile_qr_scan"}, "name": "13fa70d298bed36485acfb30fd007984", "fusion_lon": 0.0, "fusion_lat": 0.0, "lon": -77.03668716666667, "type": "electric_scooter"}, {"is_disabled": 0, "lat": 38.91419066666667, "bike_id": "af461866026ecb6d60845aff62c2e2be", "is_reserved": 0, "rental_uris": {"ios": "https://dc.lft.to/lastmile_qr_scan", "android": "https://dc.lft.to/lastmile_qr_scan"}, "name": "af461866026ecb6d60845aff62c2e2be", "fusion_lon": 0.0, "fusion_lat": 0.0, "lon": -77.03174616666666, "type": "electric_scooter"}, {"is_disabled": 0, "lat": 38.925225833333336, "bike_id": "f3c1247d06397a99456834a84cb6e2a5", "is_reserved": 0, "rental_uris": {"ios": "https://dc.lft.to/lastmile_qr_scan", "android": "https://dc.lft.to/lastmile_qr_scan"}, "name": "f3c1247d06397a99456834a84cb6e2a5", "fusion_lon": 0.0, "fusion_lat": 0.0, "lon": -77.02965166666667, "type": "electric_scooter"}, {"is_disabled": 0, "lat": 38.892232666666665, "bike_id": "4ed0af97dd42446f704085675444d0dd", "is_reserved": 0, "rental_uris": {"ios": "https://dc.lft.to/lastmile_qr_scan", "android": "https://dc.lft.to/lastmile_qr_scan"}, "name": "4ed0af97dd42446f704085675444d0dd", "fusion_lon": 0.0, "fusion_lat": 0.0, "lon": -77.04689333333333, "type": "electric_scooter"}, {"is_disabled": 0, "lat": 38.87657733333333, "bike_id": "b2aa8335ad91cbdbd2b07d3d744cd89d", "is_reserved": 0, "rental_uris": {"ios": "https://dc.lft.to/lastmile_qr_scan", "android": "https://dc.lft.to/lastmile_qr_scan"}, "name": "b2aa8335ad91cbdbd2b07d3d744cd89d", "fusion_lon": 0.0, "fusion_lat": 0.0, "lon": -77.00957283333334, "type": "electric_scooter"}, {"is_disabled": 0, "lat": 38.96183283333333, "bike_id": "f0870237b368d1be75ddcf88f0a30b72", "is_reserved": 0, "rental_uris": {"ios": "https://dc.lft.to/lastmile_qr_scan", "android": "https://dc.lft.to/lastmile_qr_scan"}, "name": "f0870237b368d1be75ddcf88f0a30b72", "fusion_lon": 0.0, "fusion_lat": 0.0, "lon": -77.09906533333333, "type": "electric_bike"}, {"is_disabled": 0, "lat": 38.902244333333336, "bike_id": "9c1c6206119ad55421b668bd8652f1b7", "is_reserved": 0, "rental_uris": {"ios": "https://dc.lft.to/lastmile_qr_scan", "android": "https://dc.lft.to/lastmile_qr_scan"}, "name": "9c1c6206119ad55421b668bd8652f1b7", "fusion_lon": 0.0, "fusion_lat": 0.0, "lon": -77.02281766666667, "type": "electric_scooter"}, {"is_disabled": 0, "lat": 38.90129983333333, "bike_id": "c2c85f4ba1014608d3691051a092f53f", "is_reserved": 0, "rental_uris": {"ios": "https://dc.lft.to/lastmile_qr_scan", "android": "https://dc.lft.to/lastmile_qr_scan"}, "name": "c2c85f4ba1014608d3691051a092f53f", "fusion_lon": 0.0, "fusion_lat": 0.0, "lon": -77.040543, "type": "electric_scooter"}, {"is_disabled": 0, "lat": 38.905936833333335, "bike_id": "bbed30ac928a0a0d6481f7adda1b3b13", "is_reserved": 0, "rental_uris": {"ios": "https://dc.lft.to/lastmile_qr_scan", "android": "https://dc.lft.to/lastmile_qr_scan"}, "name": "bbed30ac928a0a0d6481f7adda1b3b13", "fusion_lon": 0.0, "fusion_lat": 0.0, "lon": -77.02989983333333, "type": "electric_scooter"}, {"is_disabled": 0, "lat": 38.89331716666667, "bike_id": "6206cfdfe667438c3dc192686cfb3fe4", "is_reserved": 0, "rental_uris": {"ios": "https://dc.lft.to/lastmile_qr_scan", "android": "https://dc.lft.to/lastmile_qr_scan"}, "name": "6206cfdfe667438c3dc192686cfb3fe4", "fusion_lon": 0.0, "fusion_lat": 0.0, "lon": -76.92890216666666, "type": "electric_scooter"}, {"is_disabled": 0, "lat": 38.9272295, "bike_id": "6e75887b8934d334f7fce6ed4a1797af", "is_reserved": 0, "rental_uris": {"ios": "https://dc.lft.to/lastmile_qr_scan", "android": "https://dc.lft.to/lastmile_qr_scan"}, "name": "6e75887b8934d334f7fce6ed4a1797af", "fusion_lon": 0.0, "fusion_lat": 0.0, "lon": -77.0513265, "type": "electric_scooter"}, {"is_disabled": 0, "lat": 38.863619166666666, "bike_id": "f564c808813412cc816cc9b4609b8a2d", "is_reserved": 0, "rental_uris": {"ios": "https://dc.lft.to/lastmile_qr_scan", "android": "https://dc.lft.to/lastmile_qr_scan"}, "name": "f564c808813412cc816cc9b4609b8a2d", "fusion_lon": 0.0, "fusion_lat": 0.0, "lon": -77.0136575, "type": "electric_scooter"}, {"is_disabled": 0, "lat": 38.95925016666666, "bike_id": "8a12138bc23a10368d38a3529bb527e1", "is_reserved": 0, "rental_uris": {"ios": "https://dc.lft.to/lastmile_qr_scan", "android": "https://dc.lft.to/lastmile_qr_scan"}, "name": "8a12138bc23a10368d38a3529bb527e1", "fusion_lon": 0.0, "fusion_lat": 0.0, "lon": -76.925314, "type": "electric_bike"}, {"is_disabled": 0, "lat": 38.87854816666667, "bike_id": "b73a9f016e38e7948ce85ae88ae2a576", "is_reserved": 0, "rental_uris": {"ios": "https://dc.lft.to/lastmile_qr_scan", "android": "https://dc.lft.to/lastmile_qr_scan"}, "name": "b73a9f016e38e7948ce85ae88ae2a576", "fusion_lon": 0.0, "fusion_lat": 0.0, "lon": -77.0188345, "type": "electric_scooter"}, {"is_disabled": 0, "lat": 38.892729333333335, "bike_id": "4fe175540770852f8a54fda7d45f83b9", "is_reserved": 0, "rental_uris": {"ios": "https://dc.lft.to/lastmile_qr_scan", "android": "https://dc.lft.to/lastmile_qr_scan"}, "name": "4fe175540770852f8a54fda7d45f83b9", "fusion_lon": 0.0, "fusion_lat": 0.0, "lon": -77.04656233333333, "type": "electric_scooter"}, {"is_disabled": 0, "lat": 38.852461, "bike_id": "0a7814ae187996ecc08288a86fce54ea", "is_reserved": 0, "rental_uris": {"ios": "https://dc.lft.to/lastmile_qr_scan", "android": "https://dc.lft.to/lastmile_qr_scan"}, "name": "0a7814ae187996ecc08288a86fce54ea", "fusion_lon": 0.0, "fusion_lat": 0.0, "lon": -77.1070845, "type": "electric_bike"}, {"is_disabled": 0, "lat": 38.91619033333333, "bike_id": "2f8f77b68fcd4fff126ce0d480594b25", "is_reserved": 0, "rental_uris": {"ios": "https://dc.lft.to/lastmile_qr_scan", "android": "https://dc.lft.to/lastmile_qr_scan"}, "name": "2f8f77b68fcd4fff126ce0d480594b25", "fusion_lon": 0.0, "fusion_lat": 0.0, "lon": -77.0388615, "type": "electric_scooter"}, {"is_disabled": 0, "lat": 38.9289155, "bike_id": "948c028f6d7a1d9bcc7bcbd969af8773", "is_reserved": 0, "rental_uris": {"ios": "https://dc.lft.to/lastmile_qr_scan", "android": "https://dc.lft.to/lastmile_qr_scan"}, "name": "948c028f6d7a1d9bcc7bcbd969af8773", "fusion_lon": 0.0, "fusion_lat": 0.0, "lon": -77.03276366666667, "type": "electric_scooter"}, {"is_disabled": 0, "lat": 38.920578166666665, "bike_id": "d3f2a8a940d382569518317811992879", "is_reserved": 0, "rental_uris": {"ios": "https://dc.lft.to/lastmile_qr_scan", "android": "https://dc.lft.to/lastmile_qr_scan"}, "name": "d3f2a8a940d382569518317811992879", "fusion_lon": 0.0, "fusion_lat": 0.0, "lon": -76.97070733333334, "type": "electric_bike"}, {"is_disabled": 0, "lat": 38.9443105, "bike_id": "453e36ab54432e5d7031d6bdd881778d", "is_reserved": 0, "rental_uris": {"ios": "https://dc.lft.to/lastmile_qr_scan", "android": "https://dc.lft.to/lastmile_qr_scan"}, "name": "453e36ab54432e5d7031d6bdd881778d", "fusion_lon": 0.0, "fusion_lat": 0.0, "lon": -77.06351416666666, "type": "electric_scooter"}, {"is_disabled": 0, "lat": 38.89981983333333, "bike_id": "ec8e9633188efd0c7e5c51af4a7be05e", "is_reserved": 0, "rental_uris": {"ios": "https://dc.lft.to/lastmile_qr_scan", "android": "https://dc.lft.to/lastmile_qr_scan"}, "name": "ec8e9633188efd0c7e5c51af4a7be05e", "fusion_lon": 0.0, "fusion_lat": 0.0, "lon": -77.0271155, "type": "electric_scooter"}, {"is_disabled": 0, "lat": 38.956873, "bike_id": "1ec98986dbc915b861cf63a93c78bfa8", "is_reserved": 0, "rental_uris": {"ios": "https://dc.lft.to/lastmile_qr_scan", "android": "https://dc.lft.to/lastmile_qr_scan"}, "name": "1ec98986dbc915b861cf63a93c78bfa8", "fusion_lon": 0.0, "fusion_lat": 0.0, "lon": -77.022288, "type": "electric_bike"}, {"is_disabled": 0, "lat": 38.90902633333334, "bike_id": "8197b24f5763ddb62c0a9cf47aab53cf", "is_reserved": 0, "rental_uris": {"ios": "https://dc.lft.to/lastmile_qr_scan", "android": "https://dc.lft.to/lastmile_qr_scan"}, "name": "8197b24f5763ddb62c0a9cf47aab53cf", "fusion_lon": 0.0, "fusion_lat": 0.0, "lon": -77.00457683333333, "type": "electric_scooter"}, {"is_disabled": 0, "lat": 38.89822366666667, "bike_id": "6ee751d71b3673ba032cca6788772d82", "is_reserved": 0, "rental_uris": {"ios": "https://dc.lft.to/lastmile_qr_scan", "android": "https://dc.lft.to/lastmile_qr_scan"}, "name": "6ee751d71b3673ba032cca6788772d82", "fusion_lon": 0.0, "fusion_lat": 0.0, "lon": -76.92601166666667, "type": "electric_scooter"}, {"is_disabled": 0, "lat": 38.92974016666667, "bike_id": "3a61b3f2cdebabd99471f92dbdf33997", "is_reserved": 0, "rental_uris": {"ios": "https://dc.lft.to/lastmile_qr_scan", "android": "https://dc.lft.to/lastmile_qr_scan"}, "name": "3a61b3f2cdebabd99471f92dbdf33997", "fusion_lon": 0.0, "fusion_lat": 0.0, "lon": -77.01483083333333, "type": "electric_scooter"}, {"is_disabled": 0, "lat": 38.9214965, "bike_id": "5cfa9ddd4500eb424d80fb7426972d61", "is_reserved": 0, "rental_uris": {"ios": "https://dc.lft.to/lastmile_qr_scan", "android": "https://dc.lft.to/lastmile_qr_scan"}, "name": "5cfa9ddd4500eb424d80fb7426972d61", "fusion_lon": 0.0, "fusion_lat": 0.0, "lon": -77.03511283333333, "type": "electric_scooter"}, {"is_disabled": 0, "lat": 38.90142616666667, "bike_id": "a11697adab7e67ab7d0e76e101c070f5", "is_reserved": 0, "rental_uris": {"ios": "https://dc.lft.to/lastmile_qr_scan", "android": "https://dc.lft.to/lastmile_qr_scan"}, "name": "a11697adab7e67ab7d0e76e101c070f5", "fusion_lon": 0.0, "fusion_lat": 0.0, "lon": -77.04349533333334, "type": "electric_scooter"}, {"is_disabled": 0, "lat": 38.896693666666664, "bike_id": "c5111d052cd74b9c497d635ec09b542b", "is_reserved": 0, "rental_uris": {"ios": "https://dc.lft.to/lastmile_qr_scan", "android": "https://dc.lft.to/lastmile_qr_scan"}, "name": "c5111d052cd74b9c497d635ec09b542b", "fusion_lon": 0.0, "fusion_lat": 0.0, "lon": -77.05157916666667, "type": "electric_scooter"}, {"is_disabled": 0, "lat": 38.89297766666667, "bike_id": "9e71af765c4a48fd1f399e063a029f83", "is_reserved": 0, "rental_uris": {"ios": "https://dc.lft.to/lastmile_qr_scan", "android": "https://dc.lft.to/lastmile_qr_scan"}, "name": "9e71af765c4a48fd1f399e063a029f83", "fusion_lon": 0.0, "fusion_lat": 0.0, "lon": -76.99960566666667, "type": "electric_scooter"}, {"is_disabled": 0, "lat": 38.9387275, "bike_id": "080f55676cd39025a4e7f12c78de48d7", "is_reserved": 0, "rental_uris": {"ios": "https://dc.lft.to/lastmile_qr_scan", "android": "https://dc.lft.to/lastmile_qr_scan"}, "name": "080f55676cd39025a4e7f12c78de48d7", "fusion_lon": 0.0, "fusion_lat": 0.0, "lon": -77.0304145, "type": "electric_scooter"}, {"is_disabled": 0, "lat": 38.906972333333336, "bike_id": "4134a93f2590ddcc91e60b999cde91dc", "is_reserved": 0, "rental_uris": {"ios": "https://dc.lft.to/lastmile_qr_scan", "android": "https://dc.lft.to/lastmile_qr_scan"}, "name": "4134a93f2590ddcc91e60b999cde91dc", "fusion_lon": 0.0, "fusion_lat": 0.0, "lon": -77.00557466666666, "type": "electric_scooter"}, {"is_disabled": 0, "lat": 38.8832275, "bike_id": "65aacde9be05720b406dbfc4ba0a2484", "is_reserved": 0, "rental_uris": {"ios": "https://dc.lft.to/lastmile_qr_scan", "android": "https://dc.lft.to/lastmile_qr_scan"}, "name": "65aacde9be05720b406dbfc4ba0a2484", "fusion_lon": 0.0, "fusion_lat": 0.0, "lon": -77.0095575, "type": "electric_scooter"}, {"is_disabled": 0, "lat": 38.898846, "bike_id": "966547df911152aba93c3055b3e894eb", "is_reserved": 0, "rental_uris": {"ios": "https://dc.lft.to/lastmile_qr_scan", "android": "https://dc.lft.to/lastmile_qr_scan"}, "name": "966547df911152aba93c3055b3e894eb", "fusion_lon": 0.0, "fusion_lat": 0.0, "lon": -76.9323475, "type": "electric_scooter"}, {"is_disabled": 0, "lat": 38.90039433333333, "bike_id": "f4cfdb28eca71636798ccf000ba477dd", "is_reserved": 0, "rental_uris": {"ios": "https://dc.lft.to/lastmile_qr_scan", "android": "https://dc.lft.to/lastmile_qr_scan"}, "name": "f4cfdb28eca71636798ccf000ba477dd", "fusion_lon": 0.0, "fusion_lat": 0.0, "lon": -77.03212833333333, "type": "electric_scooter"}, {"is_disabled": 0, "lat": 38.903753, "bike_id": "daea9eb68dc7db657e409696c6ab4aaa", "is_reserved": 0, "rental_uris": {"ios": "https://dc.lft.to/lastmile_qr_scan", "android": "https://dc.lft.to/lastmile_qr_scan"}, "name": "daea9eb68dc7db657e409696c6ab4aaa", "fusion_lon": 0.0, "fusion_lat": 0.0, "lon": -77.0448865, "type": "electric_scooter"}, {"is_disabled": 0, "lat": 38.9026345, "bike_id": "3ff72ae5d36e84af1039176696590704", "is_reserved": 0, "rental_uris": {"ios": "https://dc.lft.to/lastmile_qr_scan", "android": "https://dc.lft.to/lastmile_qr_scan"}, "name": "3ff72ae5d36e84af1039176696590704", "fusion_lon": 0.0, "fusion_lat": 0.0, "lon": -77.03792183333333, "type": "electric_scooter"}, {"is_disabled": 0, "lat": 38.88707566666667, "bike_id": "985043d23d2e6ab672d45fc59fe9fb9a", "is_reserved": 0, "rental_uris": {"ios": "https://dc.lft.to/lastmile_qr_scan", "android": "https://dc.lft.to/lastmile_qr_scan"}, "name": "985043d23d2e6ab672d45fc59fe9fb9a", "fusion_lon": 0.0, "fusion_lat": 0.0, "lon": -76.98345166666667, "type": "electric_scooter"}, {"is_disabled": 0, "lat": 38.92262183333333, "bike_id": "be0f5dd4b9da6e03444737b30b32945e", "is_reserved": 0, "rental_uris": {"ios": "https://dc.lft.to/lastmile_qr_scan", "android": "https://dc.lft.to/lastmile_qr_scan"}, "name": "be0f5dd4b9da6e03444737b30b32945e", "fusion_lon": 0.0, "fusion_lat": 0.0, "lon": -77.01953566666667, "type": "electric_scooter"}, {"is_disabled": 0, "lat": 38.87086133333333, "bike_id": "d87e0c04dc3d8aa9efbccb1d2c07e11a", "is_reserved": 0, "rental_uris": {"ios": "https://dc.lft.to/lastmile_qr_scan", "android": "https://dc.lft.to/lastmile_qr_scan"}, "name": "d87e0c04dc3d8aa9efbccb1d2c07e11a", "fusion_lon": 0.0, "fusion_lat": 0.0, "lon": -77.13335816666667, "type": "electric_bike"}, {"is_disabled": 0, "lat": 38.913075666666664, "bike_id": "e07cf0e64ed14eb833a547a317651ddf", "is_reserved": 0, "rental_uris": {"ios": "https://dc.lft.to/lastmile_qr_scan", "android": "https://dc.lft.to/lastmile_qr_scan"}, "name": "e07cf0e64ed14eb833a547a317651ddf", "fusion_lon": 0.0, "fusion_lat": 0.0, "lon": -77.03188883333333, "type": "electric_scooter"}, {"is_disabled": 0, "lat": 38.925259, "bike_id": "cd469e1f17eaeb86f0ba30a4865bd6b6", "is_reserved": 0, "rental_uris": {"ios": "https://dc.lft.to/lastmile_qr_scan", "android": "https://dc.lft.to/lastmile_qr_scan"}, "name": "cd469e1f17eaeb86f0ba30a4865bd6b6", "fusion_lon": 0.0, "fusion_lat": 0.0, "lon": -77.0385675, "type": "electric_scooter"}, {"is_disabled": 0, "lat": 38.900351, "bike_id": "d9de6dae24c3409c645e5199631ceec7", "is_reserved": 0, "rental_uris": {"ios": "https://dc.lft.to/lastmile_qr_scan", "android": "https://dc.lft.to/lastmile_qr_scan"}, "name": "d9de6dae24c3409c645e5199631ceec7", "fusion_lon": 0.0, "fusion_lat": 0.0, "lon": -77.01792766666667, "type": "electric_scooter"}, {"is_disabled": 0, "lat": 38.92225666666667, "bike_id": "66c5573c6ef85c25581c7cfdb69640af", "is_reserved": 0, "rental_uris": {"ios": "https://dc.lft.to/lastmile_qr_scan", "android": "https://dc.lft.to/lastmile_qr_scan"}, "name": "66c5573c6ef85c25581c7cfdb69640af", "fusion_lon": 0.0, "fusion_lat": 0.0, "lon": -77.03910616666667, "type": "electric_scooter"}, {"is_disabled": 0, "lat": 38.911131166666664, "bike_id": "d2d7046ca70344edfe639a2d324abfb9", "is_reserved": 0, "rental_uris": {"ios": "https://dc.lft.to/lastmile_qr_scan", "android": "https://dc.lft.to/lastmile_qr_scan"}, "name": "d2d7046ca70344edfe639a2d324abfb9", "fusion_lon": 0.0, "fusion_lat": 0.0, "lon": -77.00602783333333, "type": "electric_scooter"}, {"is_disabled": 0, "lat": 38.831557, "bike_id": "f319f3527964e07b13b8c479c69a997a", "is_reserved": 0, "rental_uris": {"ios": "https://dc.lft.to/lastmile_qr_scan", "android": "https://dc.lft.to/lastmile_qr_scan"}, "name": "f319f3527964e07b13b8c479c69a997a", "fusion_lon": 0.0, "fusion_lat": 0.0, "lon": -76.99574266666667, "type": "electric_bike"}, {"is_disabled": 0, "lat": 38.902003, "bike_id": "e166ee92633a738be3a1e99aa2bdb26a", "is_reserved": 0, "rental_uris": {"ios": "https://dc.lft.to/lastmile_qr_scan", "android": "https://dc.lft.to/lastmile_qr_scan"}, "name": "e166ee92633a738be3a1e99aa2bdb26a", "fusion_lon": 0.0, "fusion_lat": 0.0, "lon": -77.03397133333333, "type": "electric_scooter"}, {"is_disabled": 0, "lat": 38.846459333333335, "bike_id": "28d8b5300a899be44c37c6f3076dcb15", "is_reserved": 0, "rental_uris": {"ios": "https://dc.lft.to/lastmile_qr_scan", "android": "https://dc.lft.to/lastmile_qr_scan"}, "name": "28d8b5300a899be44c37c6f3076dcb15", "fusion_lon": 0.0, "fusion_lat": 0.0, "lon": -77.003698, "type": "electric_scooter"}, {"is_disabled": 0, "lat": 38.905453333333334, "bike_id": "46c6e6646cf93f168c5bb08e034ea3f4", "is_reserved": 0, "rental_uris": {"ios": "https://dc.lft.to/lastmile_qr_scan", "android": "https://dc.lft.to/lastmile_qr_scan"}, "name": "46c6e6646cf93f168c5bb08e034ea3f4", "fusion_lon": 0.0, "fusion_lat": 0.0, "lon": -77.05704233333333, "type": "electric_scooter"}, {"is_disabled": 0, "lat": 38.913622833333335, "bike_id": "39401b50375ef2610dfe9dff1bd50cde", "is_reserved": 0, "rental_uris": {"ios": "https://dc.lft.to/lastmile_qr_scan", "android": "https://dc.lft.to/lastmile_qr_scan"}, "name": "39401b50375ef2610dfe9dff1bd50cde", "fusion_lon": 0.0, "fusion_lat": 0.0, "lon": -77.020477, "type": "electric_scooter"}, {"is_disabled": 0, "lat": 38.880244, "bike_id": "e94b9279adb48b44b33238a163897f4a", "is_reserved": 0, "rental_uris": {"ios": "https://dc.lft.to/lastmile_qr_scan", "android": "https://dc.lft.to/lastmile_qr_scan"}, "name": "e94b9279adb48b44b33238a163897f4a", "fusion_lon": 0.0, "fusion_lat": 0.0, "lon": -76.94325883333333, "type": "electric_scooter"}, {"is_disabled": 0, "lat": 38.91992166666667, "bike_id": "4e6579aa005b2c5b677ba1c1ca7425ff", "is_reserved": 0, "rental_uris": {"ios": "https://dc.lft.to/lastmile_qr_scan", "android": "https://dc.lft.to/lastmile_qr_scan"}, "name": "4e6579aa005b2c5b677ba1c1ca7425ff", "fusion_lon": 0.0, "fusion_lat": 0.0, "lon": -77.04745133333333, "type": "electric_scooter"}, {"is_disabled": 0, "lat": 38.89843416666667, "bike_id": "fd8b1c47a786ac91422800f466984395", "is_reserved": 0, "rental_uris": {"ios": "https://dc.lft.to/lastmile_qr_scan", "android": "https://dc.lft.to/lastmile_qr_scan"}, "name": "fd8b1c47a786ac91422800f466984395", "fusion_lon": 0.0, "fusion_lat": 0.0, "lon": -76.942551, "type": "electric_bike"}, {"is_disabled": 0, "lat": 38.8901455, "bike_id": "39f731de66cd71d6e5a619d5f2e0aa09", "is_reserved": 0, "rental_uris": {"ios": "https://dc.lft.to/lastmile_qr_scan", "android": "https://dc.lft.to/lastmile_qr_scan"}, "name": "39f731de66cd71d6e5a619d5f2e0aa09", "fusion_lon": 0.0, "fusion_lat": 0.0, "lon": -76.9373305, "type": "electric_scooter"}, {"is_disabled": 0, "lat": 38.91754233333333, "bike_id": "0a6bbf1433dd93c0928a326b1e3a94dc", "is_reserved": 0, "rental_uris": {"ios": "https://dc.lft.to/lastmile_qr_scan", "android": "https://dc.lft.to/lastmile_qr_scan"}, "name": "0a6bbf1433dd93c0928a326b1e3a94dc", "fusion_lon": 0.0, "fusion_lat": 0.0, "lon": -77.03916433333333, "type": "electric_scooter"}, {"is_disabled": 0, "lat": 38.89228166666667, "bike_id": "30f56c5d7fa75e847107915cdce367d3", "is_reserved": 0, "rental_uris": {"ios": "https://dc.lft.to/lastmile_qr_scan", "android": "https://dc.lft.to/lastmile_qr_scan"}, "name": "30f56c5d7fa75e847107915cdce367d3", "fusion_lon": 0.0, "fusion_lat": 0.0, "lon": -77.05001016666667, "type": "electric_scooter"}, {"is_disabled": 0, "lat": 38.883569, "bike_id": "701e7f9c5ee50c4517966479e4439428", "is_reserved": 0, "rental_uris": {"ios": "https://dc.lft.to/lastmile_qr_scan", "android": "https://dc.lft.to/lastmile_qr_scan"}, "name": "701e7f9c5ee50c4517966479e4439428", "fusion_lon": 0.0, "fusion_lat": 0.0, "lon": -76.95770416666667, "type": "electric_scooter"}, {"is_disabled": 0, "lat": 38.929836, "bike_id": "a9a57f8d06a064bdcb6f73bb15478779", "is_reserved": 0, "rental_uris": {"ios": "https://dc.lft.to/lastmile_qr_scan", "android": "https://dc.lft.to/lastmile_qr_scan"}, "name": "a9a57f8d06a064bdcb6f73bb15478779", "fusion_lon": 0.0, "fusion_lat": 0.0, "lon": -77.01469983333334, "type": "electric_scooter"}, {"is_disabled": 0, "lat": 38.9052265, "bike_id": "20f664469db7401f295032ff23e52959", "is_reserved": 0, "rental_uris": {"ios": "https://dc.lft.to/lastmile_qr_scan", "android": "https://dc.lft.to/lastmile_qr_scan"}, "name": "20f664469db7401f295032ff23e52959", "fusion_lon": 0.0, "fusion_lat": 0.0, "lon": -77.029475, "type": "electric_scooter"}, {"is_disabled": 0, "lat": 38.942722, "bike_id": "a748d2a94023f158888af360be6675fd", "is_reserved": 0, "rental_uris": {"ios": "https://dc.lft.to/lastmile_qr_scan", "android": "https://dc.lft.to/lastmile_qr_scan"}, "name": "a748d2a94023f158888af360be6675fd", "fusion_lon": 0.0, "fusion_lat": 0.0, "lon": -77.02932983333334, "type": "electric_scooter"}, {"is_disabled": 0, "lat": 38.905241333333336, "bike_id": "a93d74583e5b1a9dfc50bf0162ffeded", "is_reserved": 0, "rental_uris": {"ios": "https://dc.lft.to/lastmile_qr_scan", "android": "https://dc.lft.to/lastmile_qr_scan"}, "name": "a93d74583e5b1a9dfc50bf0162ffeded", "fusion_lon": 0.0, "fusion_lat": 0.0, "lon": -77.06277516666667, "type": "electric_bike"}, {"is_disabled": 0, "lat": 38.89222683333333, "bike_id": "3ae9a7f18f622d9787731a1e8d9db14c", "is_reserved": 0, "rental_uris": {"ios": "https://dc.lft.to/lastmile_qr_scan", "android": "https://dc.lft.to/lastmile_qr_scan"}, "name": "3ae9a7f18f622d9787731a1e8d9db14c", "fusion_lon": 0.0, "fusion_lat": 0.0, "lon": -77.03169033333333, "type": "electric_scooter"}, {"is_disabled": 0, "lat": 38.91441316666667, "bike_id": "6bc0fbe33af0f4b25ee9267ab47bc004", "is_reserved": 0, "rental_uris": {"ios": "https://dc.lft.to/lastmile_qr_scan", "android": "https://dc.lft.to/lastmile_qr_scan"}, "name": "6bc0fbe33af0f4b25ee9267ab47bc004", "fusion_lon": 0.0, "fusion_lat": 0.0, "lon": -77.00465483333333, "type": "electric_bike"}, {"is_disabled": 0, "lat": 38.88487033333333, "bike_id": "6462bb9c998fe1bcf458c289680250c6", "is_reserved": 0, "rental_uris": {"ios": "https://dc.lft.to/lastmile_qr_scan", "android": "https://dc.lft.to/lastmile_qr_scan"}, "name": "6462bb9c998fe1bcf458c289680250c6", "fusion_lon": 0.0, "fusion_lat": 0.0, "lon": -77.00709366666666, "type": "electric_scooter"}, {"is_disabled": 0, "lat": 38.89249066666667, "bike_id": "3be0a2ee4a887d8c995cb2db647f6d80", "is_reserved": 0, "rental_uris": {"ios": "https://dc.lft.to/lastmile_qr_scan", "android": "https://dc.lft.to/lastmile_qr_scan"}, "name": "3be0a2ee4a887d8c995cb2db647f6d80", "fusion_lon": 0.0, "fusion_lat": 0.0, "lon": -77.04662483333334, "type": "electric_scooter"}, {"is_disabled": 0, "lat": 38.892180833333335, "bike_id": "af564d94196166b02e7682c4dfd400dd", "is_reserved": 0, "rental_uris": {"ios": "https://dc.lft.to/lastmile_qr_scan", "android": "https://dc.lft.to/lastmile_qr_scan"}, "name": "af564d94196166b02e7682c4dfd400dd", "fusion_lon": 0.0, "fusion_lat": 0.0, "lon": -77.0236975, "type": "electric_scooter"}, {"is_disabled": 0, "lat": 38.9174445, "bike_id": "53020739a50d6af8f2c6495d0a65c743", "is_reserved": 0, "rental_uris": {"ios": "https://dc.lft.to/lastmile_qr_scan", "android": "https://dc.lft.to/lastmile_qr_scan"}, "name": "53020739a50d6af8f2c6495d0a65c743", "fusion_lon": 0.0, "fusion_lat": 0.0, "lon": -77.04062916666666, "type": "electric_scooter"}, {"is_disabled": 0, "lat": 38.8922185, "bike_id": "848f013629c59f0e5a8e33ca132ccd2b", "is_reserved": 0, "rental_uris": {"ios": "https://dc.lft.to/lastmile_qr_scan", "android": "https://dc.lft.to/lastmile_qr_scan"}, "name": "848f013629c59f0e5a8e33ca132ccd2b", "fusion_lon": 0.0, "fusion_lat": 0.0, "lon": -77.02349166666667, "type": "electric_scooter"}, {"is_disabled": 0, "lat": 38.83043583333333, "bike_id": "66b5d89a79012468785fff4a9aee08a2", "is_reserved": 0, "rental_uris": {"ios": "https://dc.lft.to/lastmile_qr_scan", "android": "https://dc.lft.to/lastmile_qr_scan"}, "name": "66b5d89a79012468785fff4a9aee08a2", "fusion_lon": 0.0, "fusion_lat": 0.0, "lon": -77.00821083333334, "type": "electric_bike"}, {"is_disabled": 0, "lat": 38.93519783333333, "bike_id": "30262fde46d4ba8c65f2f54411debe51", "is_reserved": 0, "rental_uris": {"ios": "https://dc.lft.to/lastmile_qr_scan", "android": "https://dc.lft.to/lastmile_qr_scan"}, "name": "30262fde46d4ba8c65f2f54411debe51", "fusion_lon": 0.0, "fusion_lat": 0.0, "lon": -77.0728505, "type": "electric_scooter"}, {"is_disabled": 0, "lat": 38.90957783333333, "bike_id": "af8a5e9f7a36b1dfd5cfb51294b82bdd", "is_reserved": 0, "rental_uris": {"ios": "https://dc.lft.to/lastmile_qr_scan", "android": "https://dc.lft.to/lastmile_qr_scan"}, "name": "af8a5e9f7a36b1dfd5cfb51294b82bdd", "fusion_lon": 0.0, "fusion_lat": 0.0, "lon": -77.01134283333333, "type": "electric_scooter"}, {"is_disabled": 0, "lat": 38.91794066666667, "bike_id": "0d6d7280d8df9a1a08e422a9c5d57f89", "is_reserved": 0, "rental_uris": {"ios": "https://dc.lft.to/lastmile_qr_scan", "android": "https://dc.lft.to/lastmile_qr_scan"}, "name": "0d6d7280d8df9a1a08e422a9c5d57f89", "fusion_lon": 0.0, "fusion_lat": 0.0, "lon": -77.04668283333334, "type": "electric_scooter"}, {"is_disabled": 0, "lat": 38.88674233333333, "bike_id": "746774fd70ee97ee72bd4c64e7151130", "is_reserved": 0, "rental_uris": {"ios": "https://dc.lft.to/lastmile_qr_scan", "android": "https://dc.lft.to/lastmile_qr_scan"}, "name": "746774fd70ee97ee72bd4c64e7151130", "fusion_lon": 0.0, "fusion_lat": 0.0, "lon": -77.04795116666666, "type": "electric_scooter"}, {"is_disabled": 0, "lat": 38.92692533333334, "bike_id": "ab8e19de9c9f75ce6f4e45c3d4a94bd3", "is_reserved": 0, "rental_uris": {"ios": "https://dc.lft.to/lastmile_qr_scan", "android": "https://dc.lft.to/lastmile_qr_scan"}, "name": "ab8e19de9c9f75ce6f4e45c3d4a94bd3", "fusion_lon": 0.0, "fusion_lat": 0.0, "lon": -77.01493233333333, "type": "electric_scooter"}, {"is_disabled": 0, "lat": 38.93022066666666, "bike_id": "714876758c87b41b3c30908d2fd1f57d", "is_reserved": 0, "rental_uris": {"ios": "https://dc.lft.to/lastmile_qr_scan", "android": "https://dc.lft.to/lastmile_qr_scan"}, "name": "714876758c87b41b3c30908d2fd1f57d", "fusion_lon": 0.0, "fusion_lat": 0.0, "lon": -77.0231895, "type": "electric_scooter"}, {"is_disabled": 0, "lat": 38.927458666666666, "bike_id": "00b70cd27740bee95994641e60bf86a7", "is_reserved": 0, "rental_uris": {"ios": "https://dc.lft.to/lastmile_qr_scan", "android": "https://dc.lft.to/lastmile_qr_scan"}, "name": "00b70cd27740bee95994641e60bf86a7", "fusion_lon": 0.0, "fusion_lat": 0.0, "lon": -77.06463933333333, "type": "electric_scooter"}, {"is_disabled": 0, "lat": 38.887457, "bike_id": "91bab5e6cacd4ab6639a4aaae42d8ef0", "is_reserved": 0, "rental_uris": {"ios": "https://dc.lft.to/lastmile_qr_scan", "android": "https://dc.lft.to/lastmile_qr_scan"}, "name": "91bab5e6cacd4ab6639a4aaae42d8ef0", "fusion_lon": 0.0, "fusion_lat": 0.0, "lon": -77.02225083333333, "type": "electric_scooter"}, {"is_disabled": 0, "lat": 38.916294666666666, "bike_id": "b7481f614418da1a95df3de092b39c1c", "is_reserved": 0, "rental_uris": {"ios": "https://dc.lft.to/lastmile_qr_scan", "android": "https://dc.lft.to/lastmile_qr_scan"}, "name": "b7481f614418da1a95df3de092b39c1c", "fusion_lon": 0.0, "fusion_lat": 0.0, "lon": -76.98282466666667, "type": "electric_bike"}, {"is_disabled": 0, "lat": 38.84686083333333, "bike_id": "7a8a6b606bc5d3f3ccc9cb84fd858cb0", "is_reserved": 0, "rental_uris": {"ios": "https://dc.lft.to/lastmile_qr_scan", "android": "https://dc.lft.to/lastmile_qr_scan"}, "name": "7a8a6b606bc5d3f3ccc9cb84fd858cb0", "fusion_lon": 0.0, "fusion_lat": 0.0, "lon": -76.968522, "type": "electric_scooter"}, {"is_disabled": 0, "lat": 38.904955, "bike_id": "533851e06b12843ab35fa91ca4887a84", "is_reserved": 0, "rental_uris": {"ios": "https://dc.lft.to/lastmile_qr_scan", "android": "https://dc.lft.to/lastmile_qr_scan"}, "name": "533851e06b12843ab35fa91ca4887a84", "fusion_lon": 0.0, "fusion_lat": 0.0, "lon": -77.00857333333333, "type": "electric_scooter"}, {"is_disabled": 0, "lat": 38.892775666666665, "bike_id": "bd6f179f2df8ca5eb42d1dfd219cba46", "is_reserved": 0, "rental_uris": {"ios": "https://dc.lft.to/lastmile_qr_scan", "android": "https://dc.lft.to/lastmile_qr_scan"}, "name": "bd6f179f2df8ca5eb42d1dfd219cba46", "fusion_lon": 0.0, "fusion_lat": 0.0, "lon": -77.050342, "type": "electric_scooter"}, {"is_disabled": 0, "lat": 38.900322, "bike_id": "1a5a43e82be568815e57076eebd1f359", "is_reserved": 0, "rental_uris": {"ios": "https://dc.lft.to/lastmile_qr_scan", "android": "https://dc.lft.to/lastmile_qr_scan"}, "name": "1a5a43e82be568815e57076eebd1f359", "fusion_lon": 0.0, "fusion_lat": 0.0, "lon": -77.03994933333334, "type": "electric_scooter"}, {"is_disabled": 0, "lat": 38.909023833333336, "bike_id": "55dc471fbcd7c3fac3f737ebdc6b0bcf", "is_reserved": 0, "rental_uris": {"ios": "https://dc.lft.to/lastmile_qr_scan", "android": "https://dc.lft.to/lastmile_qr_scan"}, "name": "55dc471fbcd7c3fac3f737ebdc6b0bcf", "fusion_lon": 0.0, "fusion_lat": 0.0, "lon": -77.03390983333334, "type": "electric_scooter"}, {"is_disabled": 0, "lat": 38.9212725, "bike_id": "e671666a0f6b17e56e0301fe80632d90", "is_reserved": 0, "rental_uris": {"ios": "https://dc.lft.to/lastmile_qr_scan", "android": "https://dc.lft.to/lastmile_qr_scan"}, "name": "e671666a0f6b17e56e0301fe80632d90", "fusion_lon": 0.0, "fusion_lat": 0.0, "lon": -77.01804733333333, "type": "electric_scooter"}, {"is_disabled": 0, "lat": 38.923330666666665, "bike_id": "b9e7e164b91fcf7e42809892e32f2465", "is_reserved": 0, "rental_uris": {"ios": "https://dc.lft.to/lastmile_qr_scan", "android": "https://dc.lft.to/lastmile_qr_scan"}, "name": "b9e7e164b91fcf7e42809892e32f2465", "fusion_lon": 0.0, "fusion_lat": 0.0, "lon": -77.01951916666667, "type": "electric_scooter"}, {"is_disabled": 0, "lat": 38.912681666666664, "bike_id": "aa53c7ee09029b878091fb3b9a232982", "is_reserved": 0, "rental_uris": {"ios": "https://dc.lft.to/lastmile_qr_scan", "android": "https://dc.lft.to/lastmile_qr_scan"}, "name": "aa53c7ee09029b878091fb3b9a232982", "fusion_lon": 0.0, "fusion_lat": 0.0, "lon": -77.02225383333334, "type": "electric_scooter"}, {"is_disabled": 0, "lat": 38.918129666666665, "bike_id": "0624c6b088e2716348d764f5230dc327", "is_reserved": 0, "rental_uris": {"ios": "https://dc.lft.to/lastmile_qr_scan", "android": "https://dc.lft.to/lastmile_qr_scan"}, "name": "0624c6b088e2716348d764f5230dc327", "fusion_lon": 0.0, "fusion_lat": 0.0, "lon": -77.02529083333333, "type": "electric_scooter"}, {"is_disabled": 0, "lat": 38.897093, "bike_id": "8bda1848a29f966f5c9222394d6f8c14", "is_reserved": 0, "rental_uris": {"ios": "https://dc.lft.to/lastmile_qr_scan", "android": "https://dc.lft.to/lastmile_qr_scan"}, "name": "8bda1848a29f966f5c9222394d6f8c14", "fusion_lon": 0.0, "fusion_lat": 0.0, "lon": -77.013172, "type": "electric_scooter"}, {"is_disabled": 0, "lat": 38.925284833333336, "bike_id": "952badf3f9fd383c17d9dda5b729e413", "is_reserved": 0, "rental_uris": {"ios": "https://dc.lft.to/lastmile_qr_scan", "android": "https://dc.lft.to/lastmile_qr_scan"}, "name": "952badf3f9fd383c17d9dda5b729e413", "fusion_lon": 0.0, "fusion_lat": 0.0, "lon": -77.0385435, "type": "electric_scooter"}, {"is_disabled": 0, "lat": 38.94910683333333, "bike_id": "41f658743c38f404545d3ca71c82a9d6", "is_reserved": 0, "rental_uris": {"ios": "https://dc.lft.to/lastmile_qr_scan", "android": "https://dc.lft.to/lastmile_qr_scan"}, "name": "41f658743c38f404545d3ca71c82a9d6", "fusion_lon": 0.0, "fusion_lat": 0.0, "lon": -77.02084166666667, "type": "electric_scooter"}, {"is_disabled": 0, "lat": 38.875256, "bike_id": "a3d07a20d9874750223e285dd930964a", "is_reserved": 0, "rental_uris": {"ios": "https://dc.lft.to/lastmile_qr_scan", "android": "https://dc.lft.to/lastmile_qr_scan"}, "name": "a3d07a20d9874750223e285dd930964a", "fusion_lon": 0.0, "fusion_lat": 0.0, "lon": -77.01236566666667, "type": "electric_scooter"}, {"is_disabled": 0, "lat": 38.896074166666665, "bike_id": "7611b9df320d31e96b7bdb51a6ed27f3", "is_reserved": 0, "rental_uris": {"ios": "https://dc.lft.to/lastmile_qr_scan", "android": "https://dc.lft.to/lastmile_qr_scan"}, "name": "7611b9df320d31e96b7bdb51a6ed27f3", "fusion_lon": 0.0, "fusion_lat": 0.0, "lon": -77.02309516666666, "type": "electric_bike"}, {"is_disabled": 0, "lat": 38.91889883333333, "bike_id": "6d5a6b9aa6487ef511de4db28d85cd52", "is_reserved": 0, "rental_uris": {"ios": "https://dc.lft.to/lastmile_qr_scan", "android": "https://dc.lft.to/lastmile_qr_scan"}, "name": "6d5a6b9aa6487ef511de4db28d85cd52", "fusion_lon": 0.0, "fusion_lat": 0.0, "lon": -77.041774, "type": "electric_scooter"}, {"is_disabled": 0, "lat": 38.90175033333333, "bike_id": "ccd84b60e1f2f0d0f968618726b47b55", "is_reserved": 0, "rental_uris": {"ios": "https://dc.lft.to/lastmile_qr_scan", "android": "https://dc.lft.to/lastmile_qr_scan"}, "name": "ccd84b60e1f2f0d0f968618726b47b55", "fusion_lon": 0.0, "fusion_lat": 0.0, "lon": -77.02370533333334, "type": "electric_scooter"}, {"is_disabled": 0, "lat": 38.87696733333333, "bike_id": "c662c397955c646feb7cd3d2c69c4200", "is_reserved": 0, "rental_uris": {"ios": "https://dc.lft.to/lastmile_qr_scan", "android": "https://dc.lft.to/lastmile_qr_scan"}, "name": "c662c397955c646feb7cd3d2c69c4200", "fusion_lon": 0.0, "fusion_lat": 0.0, "lon": -77.01763, "type": "electric_scooter"}, {"is_disabled": 0, "lat": 38.927022666666666, "bike_id": "4b4bd941c730cc2fef20791bbdba169e", "is_reserved": 0, "rental_uris": {"ios": "https://dc.lft.to/lastmile_qr_scan", "android": "https://dc.lft.to/lastmile_qr_scan"}, "name": "4b4bd941c730cc2fef20791bbdba169e", "fusion_lon": 0.0, "fusion_lat": 0.0, "lon": -76.9607695, "type": "electric_scooter"}, {"is_disabled": 0, "lat": 38.8716275, "bike_id": "039172541e1ca50001fd85d3fa8360c9", "is_reserved": 0, "rental_uris": {"ios": "https://dc.lft.to/lastmile_qr_scan", "android": "https://dc.lft.to/lastmile_qr_scan"}, "name": "039172541e1ca50001fd85d3fa8360c9", "fusion_lon": 0.0, "fusion_lat": 0.0, "lon": -77.013571, "type": "electric_scooter"}, {"is_disabled": 0, "lat": 38.923580666666666, "bike_id": "b03965bdd2d74dbec9528d4614f3ea77", "is_reserved": 0, "rental_uris": {"ios": "https://dc.lft.to/lastmile_qr_scan", "android": "https://dc.lft.to/lastmile_qr_scan"}, "name": "b03965bdd2d74dbec9528d4614f3ea77", "fusion_lon": 0.0, "fusion_lat": 0.0, "lon": -77.03370816666667, "type": "electric_scooter"}, {"is_disabled": 0, "lat": 38.88450316666667, "bike_id": "23d98d37f55aa21b0c2ab270f018880e", "is_reserved": 0, "rental_uris": {"ios": "https://dc.lft.to/lastmile_qr_scan", "android": "https://dc.lft.to/lastmile_qr_scan"}, "name": "23d98d37f55aa21b0c2ab270f018880e", "fusion_lon": 0.0, "fusion_lat": 0.0, "lon": -77.02925166666667, "type": "electric_scooter"}, {"is_disabled": 0, "lat": 38.89946916666667, "bike_id": "58c3771057391777a932debb81480940", "is_reserved": 0, "rental_uris": {"ios": "https://dc.lft.to/lastmile_qr_scan", "android": "https://dc.lft.to/lastmile_qr_scan"}, "name": "58c3771057391777a932debb81480940", "fusion_lon": 0.0, "fusion_lat": 0.0, "lon": -77.03236616666666, "type": "electric_scooter"}, {"is_disabled": 0, "lat": 38.896123833333334, "bike_id": "281daab0f1f94a49f034f5c479f4f66a", "is_reserved": 0, "rental_uris": {"ios": "https://dc.lft.to/lastmile_qr_scan", "android": "https://dc.lft.to/lastmile_qr_scan"}, "name": "281daab0f1f94a49f034f5c479f4f66a", "fusion_lon": 0.0, "fusion_lat": 0.0, "lon": -77.043715, "type": "electric_scooter"}, {"is_disabled": 0, "lat": 38.9056735, "bike_id": "bda031c36a0635d0066544f3a2d8d5d0", "is_reserved": 0, "rental_uris": {"ios": "https://dc.lft.to/lastmile_qr_scan", "android": "https://dc.lft.to/lastmile_qr_scan"}, "name": "bda031c36a0635d0066544f3a2d8d5d0", "fusion_lon": 0.0, "fusion_lat": 0.0, "lon": -77.00391016666667, "type": "electric_scooter"}, {"is_disabled": 0, "lat": 38.88491033333333, "bike_id": "a0f527f5296938600fd477b30bd72313", "is_reserved": 0, "rental_uris": {"ios": "https://dc.lft.to/lastmile_qr_scan", "android": "https://dc.lft.to/lastmile_qr_scan"}, "name": "a0f527f5296938600fd477b30bd72313", "fusion_lon": 0.0, "fusion_lat": 0.0, "lon": -77.03476483333333, "type": "electric_scooter"}, {"is_disabled": 0, "lat": 38.901373, "bike_id": "06b2e574fd8b0d2ec4315e940b3fabb6", "is_reserved": 0, "rental_uris": {"ios": "https://dc.lft.to/lastmile_qr_scan", "android": "https://dc.lft.to/lastmile_qr_scan"}, "name": "06b2e574fd8b0d2ec4315e940b3fabb6", "fusion_lon": 0.0, "fusion_lat": 0.0, "lon": -77.05015566666667, "type": "electric_scooter"}, {"is_disabled": 0, "lat": 38.87513033333333, "bike_id": "5ce994434331b15078cbd2c30304afd3", "is_reserved": 0, "rental_uris": {"ios": "https://dc.lft.to/lastmile_qr_scan", "android": "https://dc.lft.to/lastmile_qr_scan"}, "name": "5ce994434331b15078cbd2c30304afd3", "fusion_lon": 0.0, "fusion_lat": 0.0, "lon": -77.11760766666667, "type": "electric_bike"}, {"is_disabled": 0, "lat": 38.90008183333333, "bike_id": "59eea34e8b3eca4fdbf2eeac99a37fc1", "is_reserved": 0, "rental_uris": {"ios": "https://dc.lft.to/lastmile_qr_scan", "android": "https://dc.lft.to/lastmile_qr_scan"}, "name": "59eea34e8b3eca4fdbf2eeac99a37fc1", "fusion_lon": 0.0, "fusion_lat": 0.0, "lon": -77.02594316666666, "type": "electric_scooter"}, {"is_disabled": 0, "lat": 38.9112205, "bike_id": "421c4706c8e0f55363d964d76fca85cd", "is_reserved": 0, "rental_uris": {"ios": "https://dc.lft.to/lastmile_qr_scan", "android": "https://dc.lft.to/lastmile_qr_scan"}, "name": "421c4706c8e0f55363d964d76fca85cd", "fusion_lon": 0.0, "fusion_lat": 0.0, "lon": -77.02096916666666, "type": "electric_scooter"}, {"is_disabled": 0, "lat": 38.90911633333333, "bike_id": "fc4ad24a6d62a6af44bf7ef05bfda3d8", "is_reserved": 0, "rental_uris": {"ios": "https://dc.lft.to/lastmile_qr_scan", "android": "https://dc.lft.to/lastmile_qr_scan"}, "name": "fc4ad24a6d62a6af44bf7ef05bfda3d8", "fusion_lon": 0.0, "fusion_lat": 0.0, "lon": -77.04436683333333, "type": "electric_scooter"}, {"is_disabled": 0, "lat": 38.904661833333336, "bike_id": "52cbbf83efeec69f8ac7ebde33410101", "is_reserved": 0, "rental_uris": {"ios": "https://dc.lft.to/lastmile_qr_scan", "android": "https://dc.lft.to/lastmile_qr_scan"}, "name": "52cbbf83efeec69f8ac7ebde33410101", "fusion_lon": 0.0, "fusion_lat": 0.0, "lon": -77.00710966666666, "type": "electric_scooter"}, {"is_disabled": 0, "lat": 38.904689833333336, "bike_id": "02b07f0c149b88cad819505560722aa9", "is_reserved": 0, "rental_uris": {"ios": "https://dc.lft.to/lastmile_qr_scan", "android": "https://dc.lft.to/lastmile_qr_scan"}, "name": "02b07f0c149b88cad819505560722aa9", "fusion_lon": 0.0, "fusion_lat": 0.0, "lon": -76.9505775, "type": "electric_scooter"}, {"is_disabled": 0, "lat": 38.892242333333336, "bike_id": "9e7f15e519b8ea84aaed3e9b721765eb", "is_reserved": 0, "rental_uris": {"ios": "https://dc.lft.to/lastmile_qr_scan", "android": "https://dc.lft.to/lastmile_qr_scan"}, "name": "9e7f15e519b8ea84aaed3e9b721765eb", "fusion_lon": 0.0, "fusion_lat": 0.0, "lon": -77.02785783333333, "type": "electric_scooter"}, {"is_disabled": 0, "lat": 38.91989066666667, "bike_id": "e6ee621ca470d9c851ce03010b54b094", "is_reserved": 0, "rental_uris": {"ios": "https://dc.lft.to/lastmile_qr_scan", "android": "https://dc.lft.to/lastmile_qr_scan"}, "name": "e6ee621ca470d9c851ce03010b54b094", "fusion_lon": 0.0, "fusion_lat": 0.0, "lon": -77.04170233333333, "type": "electric_scooter"}, {"is_disabled": 0, "lat": 38.9308035, "bike_id": "8111caef16792b187b6717adef5ecb82", "is_reserved": 0, "rental_uris": {"ios": "https://dc.lft.to/lastmile_qr_scan", "android": "https://dc.lft.to/lastmile_qr_scan"}, "name": "8111caef16792b187b6717adef5ecb82", "fusion_lon": 0.0, "fusion_lat": 0.0, "lon": -77.0280815, "type": "electric_scooter"}, {"is_disabled": 0, "lat": 38.8553575, "bike_id": "84404fdbdf19966f2684eaa8df049b9d", "is_reserved": 0, "rental_uris": {"ios": "https://dc.lft.to/lastmile_qr_scan", "android": "https://dc.lft.to/lastmile_qr_scan"}, "name": "84404fdbdf19966f2684eaa8df049b9d", "fusion_lon": 0.0, "fusion_lat": 0.0, "lon": -76.9917935, "type": "electric_scooter"}, {"is_disabled": 0, "lat": 38.92602266666667, "bike_id": "d1310912127aaa92aa8f824633e5cf35", "is_reserved": 0, "rental_uris": {"ios": "https://dc.lft.to/lastmile_qr_scan", "android": "https://dc.lft.to/lastmile_qr_scan"}, "name": "d1310912127aaa92aa8f824633e5cf35", "fusion_lon": 0.0, "fusion_lat": 0.0, "lon": -77.02155233333333, "type": "electric_scooter"}, {"is_disabled": 0, "lat": 38.91904983333333, "bike_id": "7ba469edadddc109849e4c21b935ba9e", "is_reserved": 0, "rental_uris": {"ios": "https://dc.lft.to/lastmile_qr_scan", "android": "https://dc.lft.to/lastmile_qr_scan"}, "name": "7ba469edadddc109849e4c21b935ba9e", "fusion_lon": 0.0, "fusion_lat": 0.0, "lon": -77.10183316666667, "type": "electric_bike"},