{"data": {"bikes": [{"type": "electric_bike", "fusion_lon": 0.0, "bike_id": "e9e8712e862e6fdadbf2febfe69027ce", "is_disabled": 0, "lat": 38.865885666666664, "rental_uris": {"ios": "https://dc.lft.to/lastmile_qr_scan", "android": "https://dc.lft.to/lastmile_qr_scan"}, "is_reserved": 0, "lon": -76.98045733333333, "fusion_lat": 0.0, "name": "e9e8712e862e6fdadbf2febfe69027ce"}, {"type": "electric_scooter", "fusion_lon": 0.0, "bike_id": "0b4440149146244344c0ce86a69d610e", "is_disabled": 0, "lat": 38.9335165, "rental_uris": {"ios": "https://dc.lft.to/lastmile_qr_scan", "android": "https://dc.lft.to/lastmile_qr_scan"}, "is_reserved": 0, "lon": -77.02972166666666, "fusion_lat": 0.0, "name": "0b4440149146244344c0ce86a69d610e"}, {"type": "electric_scooter", "fusion_lon": 0.0, "bike_id": "0b41ed8384cd1ccbf85b2f057a390434", "is_disabled": 0, "lat": 38.9408035, "rental_uris": {"ios": "https://dc.lft.to/lastmile_qr_scan", "android": "https://dc.lft.to/lastmile_qr_scan"}, "is_reserved": 0, "lon": -77.0272485, "fusion_lat": 0.0, "name": "0b41ed8384cd1ccbf85b2f057a390434"}, {"type": "electric_scooter", "fusion_lon": 0.0, "bike_id": "e2acf2847afa0206a20ab63a51d774f9", "is_disabled": 0, "lat": 38.916237833333334, "rental_uris": {"ios": "https://dc.lft.to/lastmile_qr_scan", "android": "https://dc.lft.to/lastmile_qr_scan"}, "is_reserved": 0, "lon": -77.0462805, "fusion_lat": 0.0, "name": "e2acf2847afa0206a20ab63a51d774f9"}, {"type": "electric_scooter", "fusion_lon": 0.0, "bike_id": "eaf3f781f8569010022564a315c5cb84", "is_disabled": 0, "lat": 38.8946365, "rental_uris": {"ios": "https://dc.lft.to/lastmile_qr_scan", "android": "https://dc.lft.to/lastmile_qr_scan"}, "is_reserved": 0, "lon": -77.01860533333333, "fusion_lat": 0.0, "name": "eaf3f781f8569010022564a315c5cb84"}, {"type": "electric_scooter", "fusion_lon": 0.0, "bike_id": "a9bbaf7388a1b89ee1b8a53ee3a25188", "is_disabled": 0, "lat": 38.901666, "rental_uris": {"ios": "https://dc.lft.to/lastmile_qr_scan", "android": "https://dc.lft.to/lastmile_qr_scan"}, "is_reserved": 0, "lon": -76.980687, "fusion_lat": 0.0, "name": "a9bbaf7388a1b89ee1b8a53ee3a25188"}, {"type": "electric_scooter", "fusion_lon": 0.0, "bike_id": "06b5967ccebb0b9b03b275269f7f6ffb", "is_disabled": 0, "lat": 38.884281666666666, "rental_uris": {"ios": "https://dc.lft.to/lastmile_qr_scan", "android": "https://dc.lft.to/lastmile_qr_scan"}, "is_reserved": 0, "lon": -76.95755833333334, "fusion_lat": 0.0, "name": "06b5967ccebb0b9b03b275269f7f6ffb"}, {"type": "electric_scooter", "fusion_lon": 0.0, "bike_id": "21c0528c02c4d0662ccb3147b23fd1e9", "is_disabled": 0, "lat": 38.89220483333333, "rental_uris": {"ios": "https://dc.lft.to/lastmile_qr_scan", "android": "https://dc.lft.to/lastmile_qr_scan"}, "is_reserved": 0, "lon": -77.03215183333333, "fusion_lat": 0.0, "name": "21c0528c02c4d0662ccb3147b23fd1e9"}, {"type": "electric_scooter", "fusion_lon": 0.0, "bike_id": "a3632c056e1fef40c3cae734d2b9f5c9", "is_disabled": 0, "lat": 38.95602483333333, "rental_uris": {"ios": "https://dc.lft.to/lastmile_qr_scan", "android": "https://dc.lft.to/lastmile_qr_scan"}, "is_reserved": 0, "lon": -77.0806995, "fusion_lat": 0.0, "name": "a3632c056e1fef40c3cae734d2b9f5c9"}, {"type": "electric_scooter", "fusion_lon": 0.0, "bike_id": "a8e01382fc07cfc621098ed74278351e", "is_disabled": 0, "lat": 38.91263, "rental_uris": {"ios": "https://dc.lft.to/lastmile_qr_scan", "android": "https://dc.lft.to/lastmile_qr_scan"}, "is_reserved": 0, "lon": -77.0415515, "fusion_lat": 0.0, "name": "a8e01382fc07cfc621098ed74278351e"}, {"type": "electric_scooter", "fusion_lon": 0.0, "bike_id": "9636aa2519f11d00b6423f2dcce3f974", "is_disabled": 0, "lat": 38.906763166666664, "rental_uris": {"ios": "https://dc.lft.to/lastmile_qr_scan", "android": "https://dc.lft.to/lastmile_qr_scan"}, "is_reserved": 0, "lon": -77.0365485, "fusion_lat": 0.0, "name": "9636aa2519f11d00b6423f2dcce3f974"}, {"type": "electric_scooter", "fusion_lon": 0.0, "bike_id": "5731f0a9c62a2e8bde361ae42eb99466", "is_disabled": 0, "lat": 38.87402483333334, "rental_uris": {"ios": "https://dc.lft.to/lastmile_qr_scan", "android": "https://dc.lft.to/lastmile_qr_scan"}, "is_reserved": 0, "lon": -76.96984016666667, "fusion_lat": 0.0, "name": "5731f0a9c62a2e8bde361ae42eb99466"}, {"type": "electric_scooter", "fusion_lon": 0.0, "bike_id": "c839e814491aba7f24cc0de22f9b6c22", "is_disabled": 0, "lat": 38.89225016666666, "rental_uris": {"ios": "https://dc.lft.to/lastmile_qr_scan", "android": "https://dc.lft.to/lastmile_qr_scan"}, "is_reserved": 0, "lon": -77.03120916666667, "fusion_lat": 0.0, "name": "c839e814491aba7f24cc0de22f9b6c22"}, {"type": "electric_scooter", "fusion_lon": 0.0, "bike_id": "3d8943ac19ff92003ac73468651d4b8b", "is_disabled": 0, "lat": 38.91651783333333, "rental_uris": {"ios": "https://dc.lft.to/lastmile_qr_scan", "android": "https://dc.lft.to/lastmile_qr_scan"}, "is_reserved": 0, "lon": -77.031973, "fusion_lat": 0.0, "name": "3d8943ac19ff92003ac73468651d4b8b"}, {"type": "electric_scooter", "fusion_lon": 0.0, "bike_id": "cf30c4cbf90a27b1de405ce2e32f4d0f", "is_disabled": 0, "lat": 38.9001185, "rental_uris": {"ios": "https://dc.lft.to/lastmile_qr_scan", "android": "https://dc.lft.to/lastmile_qr_scan"}, "is_reserved": 0, "lon": -76.996439, "fusion_lat": 0.0, "name": "cf30c4cbf90a27b1de405ce2e32f4d0f"}, {"type": "electric_scooter", "fusion_lon": 0.0, "bike_id": "57ee97bdeba92e9061250dfe01dc52d2", "is_disabled": 0, "lat": 38.90743783333333, "rental_uris": {"ios": "https://dc.lft.to/lastmile_qr_scan", "android": "https://dc.lft.to/lastmile_qr_scan"}, "is_reserved": 0, "lon": -77.0027235, "fusion_lat": 0.0, "name": "57ee97bdeba92e9061250dfe01dc52d2"}, {"type": "electric_scooter", "fusion_lon": 0.0, "bike_id": "1e0b6442a90addeb2790d76388c714e8", "is_disabled": 0, "lat": 38.893346, "rental_uris": {"ios": "https://dc.lft.to/lastmile_qr_scan", "android": "https://dc.lft.to/lastmile_qr_scan"}, "is_reserved": 0, "lon": -77.03175433333334, "fusion_lat": 0.0, "name": "1e0b6442a90addeb2790d76388c714e8"}, {"type": "electric_scooter", "fusion_lon": 0.0, "bike_id": "fc6a394bbe2157dba4da7c9cf32a929a", "is_disabled": 0, "lat": 38.919540833333336, "rental_uris": {"ios": "https://dc.lft.to/lastmile_qr_scan", "android": "https://dc.lft.to/lastmile_qr_scan"}, "is_reserved": 0, "lon": -77.0485425, "fusion_lat": 0.0, "name": "fc6a394bbe2157dba4da7c9cf32a929a"}, {"type": "electric_scooter", "fusion_lon": 0.0, "bike_id": "bc1d9a681f854f89772776857a1647a8", "is_disabled": 0, "lat": 38.89270833333333, "rental_uris": {"ios": "https://dc.lft.to/lastmile_qr_scan", "android": "https://dc.lft.to/lastmile_qr_scan"}, "is_reserved": 0, "lon": -77.04205883333333, "fusion_lat": 0.0, "name": "bc1d9a681f854f89772776857a1647a8"}, {"type": "electric_scooter", "fusion_lon": 0.0, "bike_id": "c35a55a9e8a6bdc4721a28667a502f44", "is_disabled": 0, "lat": 38.899846833333335, "rental_uris": {"ios": "https://dc.lft.to/lastmile_qr_scan", "android": "https://dc.lft.to/lastmile_qr_scan"}, "is_reserved": 0, "lon": -77.0308465, "fusion_lat": 0.0, "name": "c35a55a9e8a6bdc4721a28667a502f44"}, {"type": "electric_scooter", "fusion_lon": 0.0, "bike_id": "3ab5760fb2503b1dc67a6336683a2f64", "is_disabled": 0, "lat": 38.9385055, "rental_uris": {"ios": "https://dc.lft.to/lastmile_qr_scan", "android": "https://dc.lft.to/lastmile_qr_scan"}, "is_reserved": 0, "lon": -77.03390816666666, "fusion_lat": 0.0, "name": "3ab5760fb2503b1dc67a6336683a2f64"}, {"type": "electric_scooter", "fusion_lon": 0.0, "bike_id": "d8b29b73e4549643296fd441c664992c", "is_disabled": 0, "lat": 38.897616, "rental_uris": {"ios": "https://dc.lft.to/lastmile_qr_scan", "android": "https://dc.lft.to/lastmile_qr_scan"}, "is_reserved": 0, "lon": -76.92583466666666, "fusion_lat": 0.0, "name": "d8b29b73e4549643296fd441c664992c"}, {"type": "electric_scooter", "fusion_lon": 0.0, "bike_id": "873b7eccd3e59ddaffe0cf6008d155ad", "is_disabled": 0, "lat": 38.894101166666665, "rental_uris": {"ios": "https://dc.lft.to/lastmile_qr_scan", "android": "https://dc.lft.to/lastmile_qr_scan"}, "is_reserved": 0, "lon": -77.02204883333333, "fusion_lat": 0.0, "name": "873b7eccd3e59ddaffe0cf6008d155ad"}, {"type": "electric_scooter", "fusion_lon": 0.0, "bike_id": "454c32161f510865ee8bffd294b0aff3", "is_disabled": 0, "lat": 38.95272833333333, "rental_uris": {"ios": "https://dc.lft.to/lastmile_qr_scan", "android": "https://dc.lft.to/lastmile_qr_scan"}, "is_reserved": 0, "lon": -77.03645316666666, "fusion_lat": 0.0, "name": "454c32161f510865ee8bffd294b0aff3"}, {"type": "electric_scooter", "fusion_lon": 0.0, "bike_id": "dbcc2668194feee5e1e9e98f06f86254", "is_disabled": 0, "lat": 38.921770333333335, "rental_uris": {"ios": "https://dc.lft.to/lastmile_qr_scan", "android": "https://dc.lft.to/lastmile_qr_scan"}, "is_reserved": 0, "lon": -77.04141466666667, "fusion_lat": 0.0, "name": "dbcc2668194feee5e1e9e98f06f86254"}, {"type": "electric_scooter", "fusion_lon": 0.0, "bike_id": "b2e686fb68c04539fe17a9e9ef3876a1", "is_disabled": 0, "lat": 38.918280333333335, "rental_uris": {"ios": "https://dc.lft.to/lastmile_qr_scan", "android": "https://dc.lft.to/lastmile_qr_scan"}, "is_reserved": 0, "lon": -77.03176983333333, "fusion_lat": 0.0, "name": "b2e686fb68c04539fe17a9e9ef3876a1"}, {"type": "electric_scooter", "fusion_lon": 0.0, "bike_id": "c6abf72e7c117745a0515f3a8305895a", "is_disabled": 0, "lat": 38.897284666666664, "rental_uris": {"ios": "https://dc.lft.to/lastmile_qr_scan", "android": "https://dc.lft.to/lastmile_qr_scan"}, "is_reserved": 0, "lon": -77.0092065, "fusion_lat": 0.0, "name": "c6abf72e7c117745a0515f3a8305895a"}, {"type": "electric_scooter", "fusion_lon": 0.0, "bike_id": "2aa7cb159c5902893b537d5762025518", "is_disabled": 0, "lat": 38.904687, "rental_uris": {"ios": "https://dc.lft.to/lastmile_qr_scan", "android": "https://dc.lft.to/lastmile_qr_scan"}, "is_reserved": 0, "lon": -76.99502683333333, "fusion_lat": 0.0, "name": "2aa7cb159c5902893b537d5762025518"}, {"type": "electric_scooter", "fusion_lon": 0.0, "bike_id": "3f2ecf13e9837c772d25f9a95d4670d8", "is_disabled": 0, "lat": 38.919194166666664, "rental_uris": {"ios": "https://dc.lft.to/lastmile_qr_scan", "android": "https://dc.lft.to/lastmile_qr_scan"}, "is_reserved": 0, "lon": -77.07933466666667, "fusion_lat": 0.0, "name": "3f2ecf13e9837c772d25f9a95d4670d8"}, {"type": "electric_scooter", "fusion_lon": 0.0, "bike_id": "54e95684556f1fa3ca779e4e4a249659", "is_disabled": 0, "lat": 38.8848815, "rental_uris": {"ios": "https://dc.lft.to/lastmile_qr_scan", "android": "https://dc.lft.to/lastmile_qr_scan"}, "is_reserved": 0, "lon": -77.03475383333334, "fusion_lat": 0.0, "name": "54e95684556f1fa3ca779e4e4a249659"}, {"type": "electric_scooter", "fusion_lon": 0.0, "bike_id": "8a3d26e89fc905ad0f90b93496d93721", "is_disabled": 0, "lat": 38.9223455, "rental_uris": {"ios": "https://dc.lft.to/lastmile_qr_scan", "android": "https://dc.lft.to/lastmile_qr_scan"}, "is_reserved": 0, "lon": -77.01825133333334, "fusion_lat": 0.0, "name": "8a3d26e89fc905ad0f90b93496d93721"}, {"type": "electric_scooter", "fusion_lon": 0.0, "bike_id": "917ddfc460f392ffdb251702ce15cde8", "is_disabled": 0, "lat": 38.9177585, "rental_uris": {"ios": "https://dc.lft.to/lastmile_qr_scan", "android": "https://dc.lft.to/lastmile_qr_scan"}, "is_reserved": 0, "lon": -77.01459066666666, "fusion_lat": 0.0, "name": "917ddfc460f392ffdb251702ce15cde8"}, {"type": "electric_scooter", "fusion_lon": 0.0, "bike_id": "cbc24861204293cb9898690b21977ba6", "is_disabled": 0, "lat": 38.933267, "rental_uris": {"ios": "https://dc.lft.to/lastmile_qr_scan", "android": "https://dc.lft.to/lastmile_qr_scan"}, "is_reserved": 0, "lon": -77.0292585, "fusion_lat": 0.0, "name": "cbc24861204293cb9898690b21977ba6"}, {"type": "electric_scooter", "fusion_lon": 0.0, "bike_id": "82dcf15ca186ed918f2f109b39ff8205", "is_disabled": 0, "lat": 38.92300483333333, "rental_uris": {"ios": "https://dc.lft.to/lastmile_qr_scan", "android": "https://dc.lft.to/lastmile_qr_scan"}, "is_reserved": 0, "lon": -77.02316833333333, "fusion_lat": 0.0, "name": "82dcf15ca186ed918f2f109b39ff8205"}, {"type": "electric_scooter", "fusion_lon": 0.0, "bike_id": "7e22980c9d2bbdbbaf21bf2f1f4a9620", "is_disabled": 0, "lat": 38.876522666666666, "rental_uris": {"ios": "https://dc.lft.to/lastmile_qr_scan", "android": "https://dc.lft.to/lastmile_qr_scan"}, "is_reserved": 0, "lon": -77.00357783333334, "fusion_lat": 0.0, "name": "7e22980c9d2bbdbbaf21bf2f1f4a9620"}, {"type": "electric_scooter", "fusion_lon": 0.0, "bike_id": "ebc590a9efe4f7f25044bbd552f26db0", "is_disabled": 0, "lat": 38.914203, "rental_uris": {"ios": "https://dc.lft.to/lastmile_qr_scan", "android": "https://dc.lft.to/lastmile_qr_scan"}, "is_reserved": 0, "lon": -77.04594733333333, "fusion_lat": 0.0, "name": "ebc590a9efe4f7f25044bbd552f26db0"}, {"type": "electric_scooter", "fusion_lon": 0.0, "bike_id": "f8cdb1f41119304e1bb0808744ccdc57", "is_disabled": 0, "lat": 38.89977, "rental_uris": {"ios": "https://dc.lft.to/lastmile_qr_scan", "android": "https://dc.lft.to/lastmile_qr_scan"}, "is_reserved": 0, "lon": -77.0220215, "fusion_lat": 0.0, "name": "f8cdb1f41119304e1bb0808744ccdc57"}, {"type": "electric_scooter", "fusion_lon": 0.0, "bike_id": "8b358cfe03d5e9384e646ebf4cf27dce", "is_disabled": 0, "lat": 38.927952166666664, "rental_uris": {"ios": "https://dc.lft.to/lastmile_qr_scan", "android": "https://dc.lft.to/lastmile_qr_scan"}, "is_reserved": 0, "lon": -77.03696966666666, "fusion_lat": 0.0, "name": "8b358cfe03d5e9384e646ebf4cf27dce"}, {"type": "electric_scooter", "fusion_lon": 0.0, "bike_id": "d91d660c7221ad453d67e43f2762b405", "is_disabled": 0, "lat": 38.926022333333336, "rental_uris": {"ios": "https://dc.lft.to/lastmile_qr_scan", "android": "https://dc.lft.to/lastmile_qr_scan"}, "is_reserved": 0, "lon": -77.02153066666666, "fusion_lat": 0.0, "name": "d91d660c7221ad453d67e43f2762b405"}, {"type": "electric_scooter", "fusion_lon": 0.0, "bike_id": "8eb9f43ead125eb5cdfe635c8b09cba0", "is_disabled": 0, "lat": 38.954118333333334, "rental_uris": {"ios": "https://dc.lft.to/lastmile_qr_scan", "android": "https://dc.lft.to/lastmile_qr_scan"}, "is_reserved": 0, "lon": -77.03517383333333, "fusion_lat": 0.0, "name": "8eb9f43ead125eb5cdfe635c8b09cba0"}, {"type": "electric_scooter", "fusion_lon": 0.0, "bike_id": "05469ad85c697805580311947b602f4b", "is_disabled": 0, "lat": 38.8766075, "rental_uris": {"ios": "https://dc.lft.to/lastmile_qr_scan", "android": "https://dc.lft.to/lastmile_qr_scan"}, "is_reserved": 0, "lon": -77.000648, "fusion_lat": 0.0, "name": "05469ad85c697805580311947b602f4b"}, {"type": "electric_scooter", "fusion_lon": 0.0, "bike_id": "4415e0c0fd9e7675d5b3f718a2f8b44a", "is_disabled": 0, "lat": 38.90250483333333, "rental_uris": {"ios": "https://dc.lft.to/lastmile_qr_scan", "android": "https://dc.lft.to/lastmile_qr_scan"}, "is_reserved": 0, "lon": -77.02927933333333, "fusion_lat": 0.0, "name": "4415e0c0fd9e7675d5b3f718a2f8b44a"}, {"type": "electric_scooter", "fusion_lon": 0.0, "bike_id": "56939407dc102cdcdc5501bea8af5115", "is_disabled": 0, "lat": 38.946081166666666, "rental_uris": {"ios": "https://dc.lft.to/lastmile_qr_scan", "android": "https://dc.lft.to/lastmile_qr_scan"}, "is_reserved": 0, "lon": -77.07875683333333, "fusion_lat": 0.0, "name": "56939407dc102cdcdc5501bea8af5115"}, {"type": "electric_bike", "fusion_lon": 0.0, "bike_id": "00964958f80360c8c25e6473b16757a6", "is_disabled": 0, "lat": 38.807544, "rental_uris": {"ios": "https://dc.lft.to/lastmile_qr_scan", "android": "https://dc.lft.to/lastmile_qr_scan"}, "is_reserved": 0, "lon": -77.09452583333334, "fusion_lat": 0.0, "name": "00964958f80360c8c25e6473b16757a6"}, {"type": "electric_scooter", "fusion_lon": 0.0, "bike_id": "661d886006394100998ea6aa62258672", "is_disabled": 0, "lat": 38.88313983333333, "rental_uris": {"ios": "https://dc.lft.to/lastmile_qr_scan", "android": "https://dc.lft.to/lastmile_qr_scan"}, "is_reserved": 0, "lon": -77.00358516666667, "fusion_lat": 0.0, "name": "661d886006394100998ea6aa62258672"}, {"type": "electric_scooter", "fusion_lon": 0.0, "bike_id": "5676ae1df82c6b9ae100c0c621d58333", "is_disabled": 0, "lat": 38.9570965, "rental_uris": {"ios": "https://dc.lft.to/lastmile_qr_scan", "android": "https://dc.lft.to/lastmile_qr_scan"}, "is_reserved": 0, "lon": -77.02390733333333, "fusion_lat": 0.0, "name": "5676ae1df82c6b9ae100c0c621d58333"}, {"type": "electric_scooter", "fusion_lon": 0.0, "bike_id": "63e8f9ee271a0914fc3ffa28a5ba8ea0", "is_disabled": 0, "lat": 38.936078333333334, "rental_uris": {"ios": "https://dc.lft.to/lastmile_qr_scan", "android": "https://dc.lft.to/lastmile_qr_scan"}, "is_reserved": 0, "lon": -77.03786866666667, "fusion_lat": 0.0, "name": "63e8f9ee271a0914fc3ffa28a5ba8ea0"}, {"type": "electric_scooter", "fusion_lon": 0.0, "bike_id": "4df4e0345046ff4c53effb20b86c7002", "is_disabled": 0, "lat": 38.89819166666667, "rental_uris": {"ios": "https://dc.lft.to/lastmile_qr_scan", "android": "https://dc.lft.to/lastmile_qr_scan"}, "is_reserved": 0, "lon": -77.0290405, "fusion_lat": 0.0, "name": "4df4e0345046ff4c53effb20b86c7002"}, {"type": "electric_scooter", "fusion_lon": 0.0, "bike_id": "ce462070ce97bb0549cb40ee73738570", "is_disabled": 0, "lat": 38.89220533333334, "rental_uris": {"ios": "https://dc.lft.to/lastmile_qr_scan", "android": "https://dc.lft.to/lastmile_qr_scan"}, "is_reserved": 0, "lon": -77.031607, "fusion_lat": 0.0, "name": "ce462070ce97bb0549cb40ee73738570"}, {"type": "electric_scooter", "fusion_lon": 0.0, "bike_id": "00fa6adc808f51809409a352c8deb331", "is_disabled": 0, "lat": 38.924679166666664, "rental_uris": {"ios": "https://dc.lft.to/lastmile_qr_scan", "android": "https://dc.lft.to/lastmile_qr_scan"}, "is_reserved": 0, "lon": -77.0290725, "fusion_lat": 0.0, "name": "00fa6adc808f51809409a352c8deb331"}, {"type": "electric_scooter", "fusion_lon": 0.0, "bike_id": "847b3ee27c58436848e4606fb0aefb26", "is_disabled": 0, "lat": 38.9237535, "rental_uris": {"ios": "https://dc.lft.to/lastmile_qr_scan", "android": "https://dc.lft.to/lastmile_qr_scan"}, "is_reserved": 0, "lon": -77.019846, "fusion_lat": 0.0, "name": "847b3ee27c58436848e4606fb0aefb26"}, {"type": "electric_scooter", "fusion_lon": 0.0, "bike_id": "0ca6badc331d9722d01011875da5ef4a", "is_disabled": 0, "lat": 38.901303166666665, "rental_uris": {"ios": "https://dc.lft.to/lastmile_qr_scan", "android": "https://dc.lft.to/lastmile_qr_scan"}, "is_reserved": 0, "lon": -77.037936, "fusion_lat": 0.0, "name": "0ca6badc331d9722d01011875da5ef4a"}, {"type": "electric_bike", "fusion_lon": 0.0, "bike_id": "be3e7a0795ec89d27b7d867eca529f4e", "is_disabled": 0, "lat": 38.83609666666667, "rental_uris": {"ios": "https://dc.lft.to/lastmile_qr_scan", "android": "https://dc.lft.to/lastmile_qr_scan"}, "is_reserved": 0, "lon": -77.003771, "fusion_lat": 0.0, "name": "be3e7a0795ec89d27b7d867eca529f4e"}, {"type": "electric_scooter", "fusion_lon": 0.0, "bike_id": "39ca59b7e3254b20b844eec6a2da5a7b", "is_disabled": 0, "lat": 38.91118983333333, "rental_uris": {"ios": "https://dc.lft.to/lastmile_qr_scan", "android": "https://dc.lft.to/lastmile_qr_scan"}, "is_reserved": 0, "lon": -77.00606016666667, "fusion_lat": 0.0, "name": "39ca59b7e3254b20b844eec6a2da5a7b"}, {"type": "electric_scooter", "fusion_lon": 0.0, "bike_id": "cf8a76cde04b835624755bb4b3df9762", "is_disabled": 0, "lat": 38.92158083333333, "rental_uris": {"ios": "https://dc.lft.to/lastmile_qr_scan", "android": "https://dc.lft.to/lastmile_qr_scan"}, "is_reserved": 0, "lon": -77.02100316666667, "fusion_lat": 0.0, "name": "cf8a76cde04b835624755bb4b3df9762"}, {"type": "electric_scooter", "fusion_lon": 0.0, "bike_id": "e69fb9b649069e27752cfa4d937734ee", "is_disabled": 0, "lat": 38.92051883333333, "rental_uris": {"ios": "https://dc.lft.to/lastmile_qr_scan", "android": "https://dc.lft.to/lastmile_qr_scan"}, "is_reserved": 0, "lon": -77.0338585, "fusion_lat": 0.0, "name": "e69fb9b649069e27752cfa4d937734ee"}, {"type": "electric_scooter", "fusion_lon": 0.0, "bike_id": "7868efbc5088e178f588320352aa90b0", "is_disabled": 0, "lat": 38.862001666666664, "rental_uris": {"ios": "https://dc.lft.to/lastmile_qr_scan", "android": "https://dc.lft.to/lastmile_qr_scan"}, "is_reserved": 0, "lon": -76.995046, "fusion_lat": 0.0, "name": "7868efbc5088e178f588320352aa90b0"}, {"type": "electric_scooter", "fusion_lon": 0.0, "bike_id": "1cda48730a232a2f1ccd84687046850c", "is_disabled": 0, "lat": 38.924589833333336, "rental_uris": {"ios": "https://dc.lft.to/lastmile_qr_scan", "android": "https://dc.lft.to/lastmile_qr_scan"}, "is_reserved": 0, "lon": -77.05758166666666, "fusion_lat": 0.0, "name": "1cda48730a232a2f1ccd84687046850c"}, {"type": "electric_scooter", "fusion_lon": 0.0, "bike_id": "9f8050eadae9170696b941249f33f963", "is_disabled": 0, "lat": 38.9171845, "rental_uris": {"ios": "https://dc.lft.to/lastmile_qr_scan", "android": "https://dc.lft.to/lastmile_qr_scan"}, "is_reserved": 0, "lon": -77.0319885, "fusion_lat": 0.0, "name": "9f8050eadae9170696b941249f33f963"}, {"type": "electric_scooter", "fusion_lon": 0.0, "bike_id": "c96fa7c3af61073716329f0b9fb3bb4d", "is_disabled": 0, "lat": 38.908698, "rental_uris": {"ios": "https://dc.lft.to/lastmile_qr_scan", "android": "https://dc.lft.to/lastmile_qr_scan"}, "is_reserved": 0, "lon": -76.98497133333333, "fusion_lat": 0.0, "name": "c96fa7c3af61073716329f0b9fb3bb4d"}, {"type": "electric_scooter", "fusion_lon": 0.0, "bike_id": "5e688054508b9235232ea4e979901da8", "is_disabled": 0, "lat": 38.88531183333333, "rental_uris": {"ios": "https://dc.lft.to/lastmile_qr_scan", "android": "https://dc.lft.to/lastmile_qr_scan"}, "is_reserved": 0, "lon": -77.0058025, "fusion_lat": 0.0, "name": "5e688054508b9235232ea4e979901da8"}, {"type": "electric_scooter", "fusion_lon": 0.0, "bike_id": "4e42bd4346eefdafb347b160a4461bec", "is_disabled": 0, "lat": 38.924826, "rental_uris": {"ios": "https://dc.lft.to/lastmile_qr_scan", "android": "https://dc.lft.to/lastmile_qr_scan"}, "is_reserved": 0, "lon": -77.02550883333333, "fusion_lat": 0.0, "name": "4e42bd4346eefdafb347b160a4461bec"}, {"type": "electric_scooter", "fusion_lon": 0.0, "bike_id": "23f7637a871819ce23598b02d3f3026f", "is_disabled": 0, "lat": 38.959239, "rental_uris": {"ios": "https://dc.lft.to/lastmile_qr_scan", "android": "https://dc.lft.to/lastmile_qr_scan"}, "is_reserved": 0, "lon": -76.9943925, "fusion_lat": 0.0, "name": "23f7637a871819ce23598b02d3f3026f"}, {"type": "electric_scooter", "fusion_lon": 0.0, "bike_id": "c45df3dab0f6dfe2db1cc0ec78c9fef3", "is_disabled": 0, "lat": 38.90981416666666, "rental_uris": {"ios": "https://dc.lft.to/lastmile_qr_scan", "android": "https://dc.lft.to/lastmile_qr_scan"}, "is_reserved": 0, "lon": -77.02193433333333, "fusion_lat": 0.0, "name": "c45df3dab0f6dfe2db1cc0ec78c9fef3"}, {"type": "electric_scooter", "fusion_lon": 0.0, "bike_id": "aca30cd8859e00d8256cbb13d7e54031", "is_disabled": 0, "lat": 38.927651833333336, "rental_uris": {"ios": "https://dc.lft.to/lastmile_qr_scan", "android": "https://dc.lft.to/lastmile_qr_scan"}, "is_reserved": 0, "lon": -77.0324335, "fusion_lat": 0.0, "name": "aca30cd8859e00d8256cbb13d7e54031"}, {"type": "electric_scooter", "fusion_lon": 0.0, "bike_id": "07adc9a543c9bd6de13718c0fa304ebb", "is_disabled": 0, "lat": 38.92708733333333, "rental_uris": {"ios": "https://dc.lft.to/lastmile_qr_scan", "android": "https://dc.lft.to/lastmile_qr_scan"}, "is_reserved": 0, "lon": -77.0208395, "fusion_lat": 0.0, "name": "07adc9a543c9bd6de13718c0fa304ebb"}, {"type": "electric_scooter", "fusion_lon": 0.0, "bike_id": "c64863d0a44a38dd4d9dd4b11d2a6c1c", "is_disabled": 0, "lat": 38.900724, "rental_uris": {"ios": "https://dc.lft.to/lastmile_qr_scan", "android": "https://dc.lft.to/lastmile_qr_scan"}, "is_reserved": 0, "lon": -77.04759983333334, "fusion_lat": 0.0, "name": "c64863d0a44a38dd4d9dd4b11d2a6c1c"}, {"type": "electric_scooter", "fusion_lon": 0.0, "bike_id": "8d5bd52716c8e59931aed713a46b0ed6", "is_disabled": 0, "lat": 38.88734, "rental_uris": {"ios": "https://dc.lft.to/lastmile_qr_scan", "android": "https://dc.lft.to/lastmile_qr_scan"}, "is_reserved": 0, "lon": -77.01386066666667, "fusion_lat": 0.0, "name": "8d5bd52716c8e59931aed713a46b0ed6"}, {"type": "electric_scooter", "fusion_lon": 0.0, "bike_id": "2e4178961652a97bb2b326952f0b4ef9", "is_disabled": 0, "lat": 38.8855465, "rental_uris": {"ios": "https://dc.lft.to/lastmile_qr_scan", "android": "https://dc.lft.to/lastmile_qr_scan"}, "is_reserved": 0, "lon": -76.99797166666667, "fusion_lat": 0.0, "name": "2e4178961652a97bb2b326952f0b4ef9"}, {"type": "electric_scooter", "fusion_lon": 0.0, "bike_id": "fc1472031b0c32b64a69d013a90b0e0b", "is_disabled": 0, "lat": 38.90010733333333, "rental_uris": {"ios": "https://dc.lft.to/lastmile_qr_scan", "android": "https://dc.lft.to/lastmile_qr_scan"}, "is_reserved": 0, "lon": -77.01259883333333, "fusion_lat": 0.0, "name": "fc1472031b0c32b64a69d013a90b0e0b"}, {"type": "electric_scooter", "fusion_lon": 0.0, "bike_id": "08ed3332debc4d7c3e1b28417b0d470b", "is_disabled": 0, "lat": 38.8923815, "rental_uris": {"ios": "https://dc.lft.to/lastmile_qr_scan", "android": "https://dc.lft.to/lastmile_qr_scan"}, "is_reserved": 0, "lon": -77.041592, "fusion_lat": 0.0, "name": "08ed3332debc4d7c3e1b28417b0d470b"}, {"type": "electric_bike", "fusion_lon": 0.0, "bike_id": "359cc97537e999da3c3f7f22499f5699", "is_disabled": 0, "lat": 38.831595, "rental_uris": {"ios": "https://dc.lft.to/lastmile_qr_scan", "android": "https://dc.lft.to/lastmile_qr_scan"}, "is_reserved": 0, "lon": -76.995706, "fusion_lat": 0.0, "name": "359cc97537e999da3c3f7f22499f5699"}, {"type": "electric_scooter", "fusion_lon": 0.0, "bike_id": "eca740185ada62c926d37d4f634f6e45", "is_disabled": 0, "lat": 38.92420833333333, "rental_uris": {"ios": "https://dc.lft.to/lastmile_qr_scan", "android": "https://dc.lft.to/lastmile_qr_scan"}, "is_reserved": 0, "lon": -77.019512, "fusion_lat": 0.0, "name": "eca740185ada62c926d37d4f634f6e45"}, {"type": "electric_scooter", "fusion_lon": 0.0, "bike_id": "78eb0de941c11e7b14b8214a635ddf0e", "is_disabled": 0, "lat": 38.90712966666667, "rental_uris": {"ios": "https://dc.lft.to/lastmile_qr_scan", "android": "https://dc.lft.to/lastmile_qr_scan"}, "is_reserved": 0, "lon": -77.0238255, "fusion_lat": 0.0, "name": "78eb0de941c11e7b14b8214a635ddf0e"}, {"type": "electric_scooter", "fusion_lon": 0.0, "bike_id": "605c4b0a654928d6abb6fd3ae5c1dc9a", "is_disabled": 0, "lat": 38.91025366666667, "rental_uris": {"ios": "https://dc.lft.to/lastmile_qr_scan", "android": "https://dc.lft.to/lastmile_qr_scan"}, "is_reserved": 0, "lon": -77.04304666666667, "fusion_lat": 0.0, "name": "605c4b0a654928d6abb6fd3ae5c1dc9a"}, {"type": "electric_scooter", "fusion_lon": 0.0, "bike_id": "f0761f5b5aef6840a4ad8bf455a83a0e", "is_disabled": 0, "lat": 38.906370333333335, "rental_uris": {"ios": "https://dc.lft.to/lastmile_qr_scan", "android": "https://dc.lft.to/lastmile_qr_scan"}, "is_reserved": 0, "lon": -77.0465775, "fusion_lat": 0.0, "name": "f0761f5b5aef6840a4ad8bf455a83a0e"}, {"type": "electric_scooter", "fusion_lon": 0.0, "bike_id": "c20433a64041d197f7d292250007e760", "is_disabled": 0, "lat": 38.91924933333333, "rental_uris": {"ios": "https://dc.lft.to/lastmile_qr_scan", "android": "https://dc.lft.to/lastmile_qr_scan"}, "is_reserved": 0, "lon": -77.02491266666667, "fusion_lat": 0.0, "name": "c20433a64041d197f7d292250007e760"}, {"type": "electric_scooter", "fusion_lon": 0.0, "bike_id": "88f387948b665d1fefd0df186cdb26b8", "is_disabled": 0, "lat": 38.91418783333334, "rental_uris": {"ios": "https://dc.lft.to/lastmile_qr_scan", "android": "https://dc.lft.to/lastmile_qr_scan"}, "is_reserved": 0, "lon": -77.039071, "fusion_lat": 0.0, "name": "88f387948b665d1fefd0df186cdb26b8"}, {"type": "electric_scooter", "fusion_lon": 0.0, "bike_id": "2febf88825c8db97835e9af98c815324", "is_disabled": 0, "lat": 38.9250135, "rental_uris": {"ios": "https://dc.lft.to/lastmile_qr_scan", "android": "https://dc.lft.to/lastmile_qr_scan"}, "is_reserved": 0, "lon": -77.0240235, "fusion_lat": 0.0, "name": "2febf88825c8db97835e9af98c815324"}, {"type": "electric_scooter", "fusion_lon": 0.0, "bike_id": "08ba85822fb9df4a6ffcda93bd5c2307", "is_disabled": 0, "lat": 38.904097, "rental_uris": {"ios": "https://dc.lft.to/lastmile_qr_scan", "android": "https://dc.lft.to/lastmile_qr_scan"}, "is_reserved": 0, "lon": -76.97333466666667, "fusion_lat": 0.0, "name": "08ba85822fb9df4a6ffcda93bd5c2307"}, {"type": "electric_scooter", "fusion_lon": 0.0, "bike_id": "41dd16b1727d2b88ca41a6a0d430afa7", "is_disabled": 0, "lat": 38.92132383333333, "rental_uris": {"ios": "https://dc.lft.to/lastmile_qr_scan", "android": "https://dc.lft.to/lastmile_qr_scan"}, "is_reserved": 0, "lon": -77.01848183333334, "fusion_lat": 0.0, "name": "41dd16b1727d2b88ca41a6a0d430afa7"}, {"type": "electric_bike", "fusion_lon": 0.0, "bike_id": "74651c5141e2528e05c0442242df7a15", "is_disabled": 0, "lat": 38.94632416666666, "rental_uris": {"ios": "https://dc.lft.to/lastmile_qr_scan", "android": "https://dc.lft.to/lastmile_qr_scan"}, "is_reserved": 0, "lon": -76.99311966666667, "fusion_lat": 0.0, "name": "74651c5141e2528e05c0442242df7a15"}, {"type": "electric_scooter", "fusion_lon": 0.0, "bike_id": "2b5fe8e65ed3c637b7bf469a9def0012", "is_disabled": 0, "lat": 38.9271125, "rental_uris": {"ios": "https://dc.lft.to/lastmile_qr_scan", "android": "https://dc.lft.to/lastmile_qr_scan"}, "is_reserved": 0, "lon": -77.0209995, "fusion_lat": 0.0, "name": "2b5fe8e65ed3c637b7bf469a9def0012"}, {"type": "electric_scooter", "fusion_lon": 0.0, "bike_id": "da27272e0125e534d3d295526f6c9a14", "is_disabled": 0, "lat": 38.892698, "rental_uris": {"ios": "https://dc.lft.to/lastmile_qr_scan", "android": "https://dc.lft.to/lastmile_qr_scan"}, "is_reserved": 0, "lon": -77.00346333333333, "fusion_lat": 0.0, "name": "da27272e0125e534d3d295526f6c9a14"}, {"type": "electric_scooter", "fusion_lon": 0.0, "bike_id": "fc0ebe0967a566b7ad426b09223879fc", "is_disabled": 0, "lat": 38.907325, "rental_uris": {"ios": "https://dc.lft.to/lastmile_qr_scan", "android": "https://dc.lft.to/lastmile_qr_scan"}, "is_reserved": 0, "lon": -76.97982183333333, "fusion_lat": 0.0, "name": "fc0ebe0967a566b7ad426b09223879fc"}, {"type": "electric_scooter", "fusion_lon": 0.0, "bike_id": "674487946ea69ce1e26308506733a590", "is_disabled": 0, "lat": 38.9073085, "rental_uris": {"ios": "https://dc.lft.to/lastmile_qr_scan", "android": "https://dc.lft.to/lastmile_qr_scan"}, "is_reserved": 0, "lon": -77.03447116666666, "fusion_lat": 0.0, "name": "674487946ea69ce1e26308506733a590"}, {"type": "electric_scooter", "fusion_lon": 0.0, "bike_id": "ab8ed593abf077764ab2cdc68368aba1", "is_disabled": 0, "lat": 38.93503066666667, "rental_uris": {"ios": "https://dc.lft.to/lastmile_qr_scan", "android": "https://dc.lft.to/lastmile_qr_scan"}, "is_reserved": 0, "lon": -77.02410233333333, "fusion_lat": 0.0, "name": "ab8ed593abf077764ab2cdc68368aba1"}, {"type": "electric_scooter", "fusion_lon": 0.0, "bike_id": "7e6b43e2eb7a51eeca5a46b63cc64411", "is_disabled": 0, "lat": 38.920658333333336, "rental_uris": {"ios": "https://dc.lft.to/lastmile_qr_scan", "android": "https://dc.lft.to/lastmile_qr_scan"}, "is_reserved": 0, "lon": -77.02301633333333, "fusion_lat": 0.0, "name": "7e6b43e2eb7a51eeca5a46b63cc64411"}, {"type": "electric_bike", "fusion_lon": 0.0, "bike_id": "740da229209b9d595f53dc0aae32003b", "is_disabled": 0, "lat": 38.920021166666665, "rental_uris": {"ios": "https://dc.lft.to/lastmile_qr_scan", "android": "https://dc.lft.to/lastmile_qr_scan"}, "is_reserved": 0, "lon": -76.958179, "fusion_lat": 0.0, "name": "740da229209b9d595f53dc0aae32003b"}, {"type": "electric_scooter", "fusion_lon": 0.0, "bike_id": "d4bf58e966fa38a1d60901677d86b33a", "is_disabled": 0, "lat": 38.8746735, "rental_uris": {"ios": "https://dc.lft.to/lastmile_qr_scan", "android": "https://dc.lft.to/lastmile_qr_scan"}, "is_reserved": 0, "lon": -77.00556816666666, "fusion_lat": 0.0, "name": "d4bf58e966fa38a1d60901677d86b33a"}, {"type": "electric_bike", "fusion_lon": 0.0, "bike_id": "7e2893d17c0fc925ee968c3814efa881", "is_disabled": 0, "lat": 38.944093, "rental_uris": {"ios": "https://dc.lft.to/lastmile_qr_scan", "android": "https://dc.lft.to/lastmile_qr_scan"}, "is_reserved": 0, "lon": -77.05514883333333, "fusion_lat": 0.0, "name": "7e2893d17c0fc925ee968c3814efa881"}, {"type": "electric_scooter", "fusion_lon": 0.0, "bike_id": "9b83c5f824ceac4f4553ae1a85c4c61b", "is_disabled": 0, "lat": 38.911765833333334, "rental_uris": {"ios": "https://dc.lft.to/lastmile_qr_scan", "android": "https://dc.lft.to/lastmile_qr_scan"}, "is_reserved": 0, "lon": -77.01622983333333, "fusion_lat": 0.0, "name": "9b83c5f824ceac4f4553ae1a85c4c61b"}, {"type": "electric_scooter", "fusion_lon": 0.0, "bike_id": "32c34d440a27dad09a4def3f4de3e68e", "is_disabled": 0, "lat": 38.94502083333333, "rental_uris": {"ios": "https://dc.lft.to/lastmile_qr_scan", "android": "https://dc.lft.to/lastmile_qr_scan"}, "is_reserved": 0, "lon": -77.0234125, "fusion_lat": 0.0, "name": "32c34d440a27dad09a4def3f4de3e68e"}, {"type": "electric_scooter", "fusion_lon": 0.0, "bike_id": "ad117df8d5bef51d9abde3d6c2fa65f4", "is_disabled": 0, "lat": 38.922420833333334, "rental_uris": {"ios": "https://dc.lft.to/lastmile_qr_scan", "android": "https://dc.lft.to/lastmile_qr_scan"}, "is_reserved": 0, "lon": -77.04491066666667, "fusion_lat": 0.0, "name": "ad117df8d5bef51d9abde3d6c2fa65f4"}, {"type": "electric_scooter", "fusion_lon": 0.0, "bike_id": "b17fec61a8fd1f1b3092b2f2f8ee4269", "is_disabled": 0, "lat": 38.90521866666667, "rental_uris": {"ios": "https://dc.lft.to/lastmile_qr_scan", "android": "https://dc.lft.to/lastmile_qr_scan"}, "is_reserved": 0, "lon": -77.04747616666667, "fusion_lat": 0.0, "name": "b17fec61a8fd1f1b3092b2f2f8ee4269"}, {"type": "electric_scooter", "fusion_lon": 0.0, "bike_id": "94f4fd1593001734efc56bac61764eae", "is_disabled": 0, "lat": 38.905562333333336, "rental_uris": {"ios": "https://dc.lft.to/lastmile_qr_scan", "android": "https://dc.lft.to/lastmile_qr_scan"}, "is_reserved": 0, "lon": -77.04654316666667, "fusion_lat": 0.0, "name": "94f4fd1593001734efc56bac61764eae"}, {"type": "electric_scooter", "fusion_lon": 0.0, "bike_id": "feff8eb1c6a6e871b2f2f1a59c27dfb4", "is_disabled": 0, "lat": 38.90772833333333, "rental_uris": {"ios": "https://dc.lft.to/lastmile_qr_scan", "android": "https://dc.lft.to/lastmile_qr_scan"}, "is_reserved": 0, "lon": -77.037637, "fusion_lat": 0.0, "name": "feff8eb1c6a6e871b2f2f1a59c27dfb4"}, {"type": "electric_scooter", "fusion_lon": 0.0, "bike_id": "ad3f765cd246451e371c093d115ffb5c", "is_disabled": 0, "lat": 38.90115816666667, "rental_uris": {"ios": "https://dc.lft.to/lastmile_qr_scan", "android": "https://dc.lft.to/lastmile_qr_scan"}, "is_reserved": 0, "lon": -77.0226475, "fusion_lat": 0.0, "name": "ad3f765cd246451e371c093d115ffb5c"}, {"type": "electric_scooter", "fusion_lon": 0.0, "bike_id": "c9fec588299909638f226baaa615bb87", "is_disabled": 0, "lat": 38.92433416666667, "rental_uris": {"ios": "https://dc.lft.to/lastmile_qr_scan", "android": "https://dc.lft.to/lastmile_qr_scan"}, "is_reserved": 0, "lon": -77.04233333333333, "fusion_lat": 0.0, "name": "c9fec588299909638f226baaa615bb87"}, {"type": "electric_scooter", "fusion_lon": 0.0, "bike_id": "fc442bafd8765872c337d2eefcc16916", "is_disabled": 0, "lat": 38.89281, "rental_uris": {"ios": "https://dc.lft.to/lastmile_qr_scan", "android": "https://dc.lft.to/lastmile_qr_scan"}, "is_reserved": 0, "lon": -77.04665283333334, "fusion_lat": 0.0, "name": "fc442bafd8765872c337d2eefcc16916"}, {"type": "electric_scooter", "fusion_lon": 0.0, "bike_id": "9e9343710cbf5dad5afc4d40bea3a661", "is_disabled": 0, "lat": 38.902852833333334, "rental_uris": {"ios": "https://dc.lft.to/lastmile_qr_scan", "android": "https://dc.lft.to/lastmile_qr_scan"}, "is_reserved": 0, "lon": -77.03848116666667, "fusion_lat": 0.0, "name": "9e9343710cbf5dad5afc4d40bea3a661"}, {"type": "electric_bike", "fusion_lon": 0.0, "bike_id": "67f91b5359498c32448631f0d203d1d9", "is_disabled": 0, "lat": 38.8813105, "rental_uris": {"ios": "https://dc.lft.to/lastmile_qr_scan", "android": "https://dc.lft.to/lastmile_qr_scan"}, "is_reserved": 0, "lon": -77.01658666666667, "fusion_lat": 0.0, "name": "67f91b5359498c32448631f0d203d1d9"}, {"type": "electric_scooter", "fusion_lon": 0.0, "bike_id": "934e2f03e6c54bd04ac4971beb7f260d", "is_disabled": 0, "lat": 38.905034666666666, "rental_uris": {"ios": "https://dc.lft.to/lastmile_qr_scan", "android": "https://dc.lft.to/lastmile_qr_scan"}, "is_reserved": 0, "lon": -77.04917566666667, "fusion_lat": 0.0, "name": "934e2f03e6c54bd04ac4971beb7f260d"}, {"type": "electric_scooter", "fusion_lon": 0.0, "bike_id": "41c8f7279d1fd5c240a0dd859a567549", "is_disabled": 0, "lat": 38.92613033333333, "rental_uris": {"ios": "https://dc.lft.to/lastmile_qr_scan", "android": "https://dc.lft.to/lastmile_qr_scan"}, "is_reserved": 0, "lon": -77.02158466666667, "fusion_lat": 0.0, "name": "41c8f7279d1fd5c240a0dd859a567549"}, {"type": "electric_scooter", "fusion_lon": 0.0, "bike_id": "3273ed18f8600ddb02d8569d2326bd51", "is_disabled": 0, "lat": 38.920639, "rental_uris": {"ios": "https://dc.lft.to/lastmile_qr_scan", "android": "https://dc.lft.to/lastmile_qr_scan"}, "is_reserved": 0, "lon": -77.0419275, "fusion_lat": 0.0, "name": "3273ed18f8600ddb02d8569d2326bd51"}, {"type": "electric_scooter", "fusion_lon": 0.0, "bike_id": "6efffa6635d706b8a6448810360418b6", "is_disabled": 0, "lat": 38.892374, "rental_uris": {"ios": "https://dc.lft.to/lastmile_qr_scan", "android": "https://dc.lft.to/lastmile_qr_scan"}, "is_reserved": 0, "lon": -77.04674533333333, "fusion_lat": 0.0, "name": "6efffa6635d706b8a6448810360418b6"}, {"type": "electric_scooter", "fusion_lon": 0.0, "bike_id": "7ef5562f1d4db6767a75f9796f606dfc", "is_disabled": 0, "lat": 38.90028066666667, "rental_uris": {"ios": "https://dc.lft.to/lastmile_qr_scan", "android": "https://dc.lft.to/lastmile_qr_scan"}, "is_reserved": 0, "lon": -76.99855883333333, "fusion_lat": 0.0, "name": "7ef5562f1d4db6767a75f9796f606dfc"}, {"type": "electric_scooter", "fusion_lon": 0.0, "bike_id": "981458047cb2bfe8d6a8e9d08ee218e5", "is_disabled": 0, "lat": 38.89804783333334, "rental_uris": {"ios": "https://dc.lft.to/lastmile_qr_scan", "android": "https://dc.lft.to/lastmile_qr_scan"}, "is_reserved": 0, "lon": -77.04187083333333, "fusion_lat": 0.0, "name": "981458047cb2bfe8d6a8e9d08ee218e5"}, {"type": "electric_scooter", "fusion_lon": 0.0, "bike_id": "1db21be9f29c9a1cc6e1355693893fd6", "is_disabled": 0, "lat": 38.925708666666665, "rental_uris": {"ios": "https://dc.lft.to/lastmile_qr_scan", "android": "https://dc.lft.to/lastmile_qr_scan"}, "is_reserved": 0, "lon": -77.03274716666667, "fusion_lat": 0.0, "name": "1db21be9f29c9a1cc6e1355693893fd6"}, {"type": "electric_scooter", "fusion_lon": 0.0, "bike_id": "0bb69e8306dcf2bbb6a0dd815a5c2e18", "is_disabled": 0, "lat": 38.907586333333334, "rental_uris": {"ios": "https://dc.lft.to/lastmile_qr_scan", "android": "https://dc.lft.to/lastmile_qr_scan"}, "is_reserved": 0, "lon": -77.03589433333333, "fusion_lat": 0.0, "name": "0bb69e8306dcf2bbb6a0dd815a5c2e18"}, {"type": "electric_scooter", "fusion_lon": 0.0, "bike_id": "6000bf91f89bf7ad17bd56ace3e2394f", "is_disabled": 0, "lat": 38.937896333333335, "rental_uris": {"ios": "https://dc.lft.to/lastmile_qr_scan", "android": "https://dc.lft.to/lastmile_qr_scan"}, "is_reserved": 0, "lon": -77.02331566666666, "fusion_lat": 0.0, "name": "6000bf91f89bf7ad17bd56ace3e2394f"}, {"type": "electric_scooter", "fusion_lon": 0.0, "bike_id": "8809e91b82b52824999a137e199280db", "is_disabled": 0, "lat": 38.91051616666667, "rental_uris": {"ios": "https://dc.lft.to/lastmile_qr_scan", "android": "https://dc.lft.to/lastmile_qr_scan"}, "is_reserved": 0, "lon": -77.05021133333334, "fusion_lat": 0.0, "name": "8809e91b82b52824999a137e199280db"}, {"type": "electric_scooter", "fusion_lon": 0.0, "bike_id": "19eee220edca0272d265f11710e1f063", "is_disabled": 0, "lat": 38.910376666666664, "rental_uris": {"ios": "https://dc.lft.to/lastmile_qr_scan", "android": "https://dc.lft.to/lastmile_qr_scan"}, "is_reserved": 0, "lon": -76.98565666666667, "fusion_lat": 0.0, "name": "19eee220edca0272d265f11710e1f063"}, {"type": "electric_scooter", "fusion_lon": 0.0, "bike_id": "6c3a2224ee59eb7b3ba417f933c8344f", "is_disabled": 0, "lat": 38.9342865, "rental_uris": {"ios": "https://dc.lft.to/lastmile_qr_scan", "android": "https://dc.lft.to/lastmile_qr_scan"}, "is_reserved": 0, "lon": -77.04423233333333, "fusion_lat": 0.0, "name": "6c3a2224ee59eb7b3ba417f933c8344f"}, {"type": "electric_scooter", "fusion_lon": 0.0, "bike_id": "f31cbe2e98efa67fa71576b56ec91a45", "is_disabled": 0, "lat": 38.92168733333333, "rental_uris": {"ios": "https://dc.lft.to/lastmile_qr_scan", "android": "https://dc.lft.to/lastmile_qr_scan"}, "is_reserved": 0, "lon": -77.021966, "fusion_lat": 0.0, "name": "f31cbe2e98efa67fa71576b56ec91a45"}, {"type": "electric_bike", "fusion_lon": 0.0, "bike_id": "c83447813227c19bf99481d6d0a41587", "is_disabled": 0, "lat": 38.8578245, "rental_uris": {"ios": "https://dc.lft.to/lastmile_qr_scan", "android": "https://dc.lft.to/lastmile_qr_scan"}, "is_reserved": 0, "lon": -76.97322216666667, "fusion_lat": 0.0, "name": "c83447813227c19bf99481d6d0a41587"}, {"type": "electric_scooter", "fusion_lon": 0.0, "bike_id": "42e9b179ffe4609e8c5d7549b1a78947", "is_disabled": 0, "lat": 38.919086, "rental_uris": {"ios": "https://dc.lft.to/lastmile_qr_scan", "android": "https://dc.lft.to/lastmile_qr_scan"}, "is_reserved": 0, "lon": -77.021353, "fusion_lat": 0.0, "name": "42e9b179ffe4609e8c5d7549b1a78947"}, {"type": "electric_scooter", "fusion_lon": 0.0, "bike_id": "b474f4aa826b0adafb9c783b6ad99a01", "is_disabled": 0, "lat": 38.9274705, "rental_uris": {"ios": "https://dc.lft.to/lastmile_qr_scan", "android": "https://dc.lft.to/lastmile_qr_scan"}, "is_reserved": 0, "lon": -77.0253165, "fusion_lat": 0.0, "name": "b474f4aa826b0adafb9c783b6ad99a01"}, {"type": "electric_scooter", "fusion_lon": 0.0, "bike_id": "6cb06d1f6eb0e8c39058f3fc41c8ea92", "is_disabled": 0, "lat": 38.91990283333333, "rental_uris": {"ios": "https://dc.lft.to/lastmile_qr_scan", "android": "https://dc.lft.to/lastmile_qr_scan"}, "is_reserved": 0, "lon": -77.02947533333334, "fusion_lat": 0.0, "name": "6cb06d1f6eb0e8c39058f3fc41c8ea92"}, {"type": "electric_scooter", "fusion_lon": 0.0, "bike_id": "f8ce0a0de94c0ebad1fb3555bd4a4090", "is_disabled": 0, "lat": 38.93453733333333, "rental_uris": {"ios": "https://dc.lft.to/lastmile_qr_scan", "android": "https://dc.lft.to/lastmile_qr_scan"}, "is_reserved": 0, "lon": -77.032403, "fusion_lat": 0.0, "name": "f8ce0a0de94c0ebad1fb3555bd4a4090"}, {"type": "electric_scooter", "fusion_lon": 0.0, "bike_id": "ef590357691f85fbfc1154e0cc85b344", "is_disabled": 0, "lat": 38.90821416666667, "rental_uris": {"ios": "https://dc.lft.to/lastmile_qr_scan", "android": "https://dc.lft.to/lastmile_qr_scan"}, "is_reserved": 0, "lon": -77.0391415, "fusion_lat": 0.0, "name": "ef590357691f85fbfc1154e0cc85b344"}, {"type": "electric_scooter", "fusion_lon": 0.0, "bike_id": "7329b42c496dfe0b71f7f5870ad24259", "is_disabled": 0, "lat": 38.8870415, "rental_uris": {"ios": "https://dc.lft.to/lastmile_qr_scan", "android": "https://dc.lft.to/lastmile_qr_scan"}, "is_reserved": 0, "lon": -77.02822433333333, "fusion_lat": 0.0, "name": "7329b42c496dfe0b71f7f5870ad24259"}, {"type": "electric_scooter", "fusion_lon": 0.0, "bike_id": "86863e2148414bb08d71b05bc59e7a3b", "is_disabled": 0, "lat": 38.91441566666666, "rental_uris": {"ios": "https://dc.lft.to/lastmile_qr_scan", "android": "https://dc.lft.to/lastmile_qr_scan"}, "is_reserved": 0, "lon": -77.0415455, "fusion_lat": 0.0, "name": "86863e2148414bb08d71b05bc59e7a3b"}, {"type": "electric_scooter", "fusion_lon": 0.0, "bike_id": "b6a5b3a99649e6b0aaaff200fba03269", "is_disabled": 0, "lat": 38.9224445, "rental_uris": {"ios": "https://dc.lft.to/lastmile_qr_scan", "android": "https://dc.lft.to/lastmile_qr_scan"}, "is_reserved": 0, "lon": -77.0194945, "fusion_lat": 0.0, "name": "b6a5b3a99649e6b0aaaff200fba03269"}, {"type": "electric_scooter", "fusion_lon": 0.0, "bike_id": "a5cc2586f2b58fcd3e5c7d72252e33be", "is_disabled": 0, "lat": 38.908091166666665, "rental_uris": {"ios": "https://dc.lft.to/lastmile_qr_scan", "android": "https://dc.lft.to/lastmile_qr_scan"}, "is_reserved": 0, "lon": -77.03857066666667, "fusion_lat": 0.0, "name": "a5cc2586f2b58fcd3e5c7d72252e33be"}, {"type": "electric_scooter", "fusion_lon": 0.0, "bike_id": "c63eddb67e31a6bfdc293f438da5a2e0", "is_disabled": 0, "lat": 38.88487533333333, "rental_uris": {"ios": "https://dc.lft.to/lastmile_qr_scan", "android": "https://dc.lft.to/lastmile_qr_scan"}, "is_reserved": 0, "lon": -77.0071025, "fusion_lat": 0.0, "name": "c63eddb67e31a6bfdc293f438da5a2e0"}, {"type": "electric_scooter", "fusion_lon": 0.0, "bike_id": "e3239962760fa5b412844a320b9c9a11", "is_disabled": 0, "lat": 38.896646833333335, "rental_uris": {"ios": "https://dc.lft.to/lastmile_qr_scan", "android": "https://dc.lft.to/lastmile_qr_scan"}, "is_reserved": 0, "lon": -77.02729483333333, "fusion_lat": 0.0, "name": "e3239962760fa5b412844a320b9c9a11"}, {"type": "electric_scooter", "fusion_lon": 0.0, "bike_id": "14d07cca8e200f64bba41fbbee6b05d8", "is_disabled": 0, "lat": 38.89953633333333, "rental_uris": {"ios": "https://dc.lft.to/lastmile_qr_scan", "android": "https://dc.lft.to/lastmile_qr_scan"}, "is_reserved": 0, "lon": -77.04775066666667, "fusion_lat": 0.0, "name": "14d07cca8e200f64bba41fbbee6b05d8"}, {"type": "electric_scooter", "fusion_lon": 0.0, "bike_id": "d1a0289bf289cdf38aad89f63031877f", "is_disabled": 0, "lat": 38.896763, "rental_uris": {"ios": "https://dc.lft.to/lastmile_qr_scan", "android": "https://dc.lft.to/lastmile_qr_scan"}, "is_reserved": 0, "lon": -77.00516333333333, "fusion_lat": 0.0, "name": "d1a0289bf289cdf38aad89f63031877f"}, {"type": "electric_bike", "fusion_lon": 0.0, "bike_id": "9eb9e78b2c70531a46d610f707ea6967", "is_disabled": 0, "lat": 38.97250866666667, "rental_uris": {"ios": "https://dc.lft.to/lastmile_qr_scan", "android": "https://dc.lft.to/lastmile_qr_scan"}, "is_reserved": 0, "lon": -76.98057466666667, "fusion_lat": 0.0, "name": "9eb9e78b2c70531a46d610f707ea6967"}, {"type": "electric_scooter", "fusion_lon": 0.0, "bike_id": "5716a792d4a47bc62ebc346631b9ae15", "is_disabled": 0, "lat": 38.92341066666667, "rental_uris": {"ios": "https://dc.lft.to/lastmile_qr_scan", "android": "https://dc.lft.to/lastmile_qr_scan"}, "is_reserved": 0, "lon": -77.05173216666667, "fusion_lat": 0.0, "name": "5716a792d4a47bc62ebc346631b9ae15"}, {"type": "electric_scooter", "fusion_lon": 0.0, "bike_id": "bfd351806d5919b539a3d32d93e766ba", "is_disabled": 0, "lat": 38.89687466666667, "rental_uris": {"ios": "https://dc.lft.to/lastmile_qr_scan", "android": "https://dc.lft.to/lastmile_qr_scan"}, "is_reserved": 0, "lon": -77.01968516666666, "fusion_lat": 0.0, "name": "bfd351806d5919b539a3d32d93e766ba"}, {"type": "electric_scooter", "fusion_lon": 0.0, "bike_id": "a4d984456df9bc0610dca4c38ea1f7ab", "is_disabled": 0, "lat": 38.942146, "rental_uris": {"ios": "https://dc.lft.to/lastmile_qr_scan", "android": "https://dc.lft.to/lastmile_qr_scan"}, "is_reserved": 0, "lon": -77.01353316666666, "fusion_lat": 0.0, "name": "a4d984456df9bc0610dca4c38ea1f7ab"}, {"type": "electric_scooter", "fusion_lon": 0.0, "bike_id": "7e43bd71a0b6d5495aac3238d396cc3a", "is_disabled": 0, "lat": 38.91256583333333, "rental_uris": {"ios": "https://dc.lft.to/lastmile_qr_scan", "android": "https://dc.lft.to/lastmile_qr_scan"}, "is_reserved": 0, "lon": -77.03867166666667, "fusion_lat": 0.0, "name": "7e43bd71a0b6d5495aac3238d396cc3a"}, {"type": "electric_scooter", "fusion_lon": 0.0, "bike_id": "5d8ecd5cc777c9f90655b8579c11e613", "is_disabled": 0, "lat": 38.894433, "rental_uris": {"ios": "https://dc.lft.to/lastmile_qr_scan", "android": "https://dc.lft.to/lastmile_qr_scan"}, "is_reserved": 0, "lon": -77.0107055, "fusion_lat": 0.0, "name": "5d8ecd5cc777c9f90655b8579c11e613"}, {"type": "electric_scooter", "fusion_lon": 0.0, "bike_id": "dd295caf4eec85569c6f614e8350be8a", "is_disabled": 0, "lat": 38.91407366666667, "rental_uris": {"ios": "https://dc.lft.to/lastmile_qr_scan", "android": "https://dc.lft.to/lastmile_qr_scan"}, "is_reserved": 0, "lon": -77.03262133333334, "fusion_lat": 0.0, "name": "dd295caf4eec85569c6f614e8350be8a"}, {"type": "electric_scooter", "fusion_lon": 0.0, "bike_id": "ae6058797952d9596c59bdb0baa22db0", "is_disabled": 0, "lat": 38.92465033333333, "rental_uris": {"ios": "https://dc.lft.to/lastmile_qr_scan", "android": "https://dc.lft.to/lastmile_qr_scan"}, "is_reserved": 0, "lon": -77.02713983333334, "fusion_lat": 0.0, "name": "ae6058797952d9596c59bdb0baa22db0"}, {"type": "electric_scooter", "fusion_lon": 0.0, "bike_id": "5e1c79c1938f405124084cff48d3e882", "is_disabled": 0, "lat": 38.884939333333335, "rental_uris": {"ios": "https://dc.lft.to/lastmile_qr_scan", "android": "https://dc.lft.to/lastmile_qr_scan"}, "is_reserved": 0, "lon": -77.00711083333333, "fusion_lat": 0.0, "name": "5e1c79c1938f405124084cff48d3e882"}, {"type": "electric_scooter", "fusion_lon": 0.0, "bike_id": "42b546b7f44dc00d5747b42790de7395", "is_disabled": 0, "lat": 38.9021225, "rental_uris": {"ios": "https://dc.lft.to/lastmile_qr_scan", "android": "https://dc.lft.to/lastmile_qr_scan"}, "is_reserved": 0, "lon": -77.045456, "fusion_lat": 0.0, "name": "42b546b7f44dc00d5747b42790de7395"}, {"type": "electric_scooter", "fusion_lon": 0.0, "bike_id": "264cb11cb929eebf283bacd4d0bbca1a", "is_disabled": 0, "lat": 38.897642833333336, "rental_uris": {"ios": "https://dc.lft.to/lastmile_qr_scan", "android": "https://dc.lft.to/lastmile_qr_scan"}, "is_reserved": 0, "lon": -76.98649066666667, "fusion_lat": 0.0, "name": "264cb11cb929eebf283bacd4d0bbca1a"}, {"type": "electric_scooter", "fusion_lon": 0.0, "bike_id": "6425ba4f1338023434e297c66c6a82f1", "is_disabled": 0, "lat": 38.901591333333336, "rental_uris": {"ios": "https://dc.lft.to/lastmile_qr_scan", "android": "https://dc.lft.to/lastmile_qr_scan"}, "is_reserved": 0, "lon": -77.02316116666667, "fusion_lat": 0.0, "name": "6425ba4f1338023434e297c66c6a82f1"}, {"type": "electric_scooter", "fusion_lon": 0.0, "bike_id": "e1416ebac67f5dd562a0d7de1b4563e5", "is_disabled": 0, "lat": 38.91204366666667, "rental_uris": {"ios": "https://dc.lft.to/lastmile_qr_scan", "android": "https://dc.lft.to/lastmile_qr_scan"}, "is_reserved": 0, "lon": -77.0453005, "fusion_lat": 0.0, "name": "e1416ebac67f5dd562a0d7de1b4563e5"}, {"type": "electric_scooter", "fusion_lon": 0.0, "bike_id": "19349d96acba80f0f71024a57453567d", "is_disabled": 0, "lat": 38.934394, "rental_uris": {"ios": "https://dc.lft.to/lastmile_qr_scan", "android": "https://dc.lft.to/lastmile_qr_scan"}, "is_reserved": 0, "lon": -77.03280733333334, "fusion_lat": 0.0, "name": "19349d96acba80f0f71024a57453567d"}, {"type": "electric_scooter", "fusion_lon": 0.0, "bike_id": "e49ccac85a40bba71f90532c056cead4", "is_disabled": 0, "lat": 38.896476166666666, "rental_uris": {"ios": "https://dc.lft.to/lastmile_qr_scan", "android": "https://dc.lft.to/lastmile_qr_scan"}, "is_reserved": 0, "lon": -77.040031, "fusion_lat": 0.0, "name": "e49ccac85a40bba71f90532c056cead4"}, {"type": "electric_scooter", "fusion_lon": 0.0, "bike_id": "ba0da8f486fb27dcfb82bacd42b6321b", "is_disabled": 0, "lat": 38.897935, "rental_uris": {"ios": "https://dc.lft.to/lastmile_qr_scan", "android": "https://dc.lft.to/lastmile_qr_scan"}, "is_reserved": 0, "lon": -77.01196166666666, "fusion_lat": 0.0, "name": "ba0da8f486fb27dcfb82bacd42b6321b"}, {"type": "electric_scooter", "fusion_lon": 0.0, "bike_id": "eab638745aeee237eea9e4f11460d07e", "is_disabled": 0, "lat": 38.92631433333333, "rental_uris": {"ios": "https://dc.lft.to/lastmile_qr_scan", "android": "https://dc.lft.to/lastmile_qr_scan"}, "is_reserved": 0, "lon": -76.99623733333334, "fusion_lat": 0.0, "name": "eab638745aeee237eea9e4f11460d07e"}, {"type": "electric_scooter", "fusion_lon": 0.0, "bike_id": "e73203eb196a1c25119c00edb7039a42", "is_disabled": 0, "lat": 38.91410883333333, "rental_uris": {"ios": "https://dc.lft.to/lastmile_qr_scan", "android": "https://dc.lft.to/lastmile_qr_scan"}, "is_reserved": 0, "lon": -77.035501, "fusion_lat": 0.0, "name": "e73203eb196a1c25119c00edb7039a42"}, {"type": "electric_scooter", "fusion_lon": 0.0, "bike_id": "9d74a26e37d864a8bba9012ff52a1e33", "is_disabled": 0, "lat": 38.8925345, "rental_uris": {"ios": "https://dc.lft.to/lastmile_qr_scan", "android": "https://dc.lft.to/lastmile_qr_scan"}, "is_reserved": 0, "lon": -77.02201883333333, "fusion_lat": 0.0, "name": "9d74a26e37d864a8bba9012ff52a1e33"}, {"type": "electric_scooter", "fusion_lon": 0.0, "bike_id": "b0b2b06d792c72c87ce30229b6907d7d", "is_disabled": 0, "lat": 38.887300333333336, "rental_uris": {"ios": "https://dc.lft.to/lastmile_qr_scan", "android": "https://dc.lft.to/lastmile_qr_scan"}, "is_reserved": 0, "lon": -77.0318095, "fusion_lat": 0.0, "name": "b0b2b06d792c72c87ce30229b6907d7d"}, {"type": "electric_scooter", "fusion_lon": 0.0, "bike_id": "11ef1adce403f10ceafd2fc2c76972cf", "is_disabled": 0, "lat": 38.9062215, "rental_uris": {"ios": "https://dc.lft.to/lastmile_qr_scan", "android": "https://dc.lft.to/lastmile_qr_scan"}, "is_reserved": 0, "lon": -77.05144583333333, "fusion_lat": 0.0, "name": "11ef1adce403f10ceafd2fc2c76972cf"}, {"type": "electric_scooter", "fusion_lon": 0.0, "bike_id": "cbb8d7b6623dd3e913244f67c9b4b98a", "is_disabled": 0, "lat": 38.90714166666667, "rental_uris": {"ios": "https://dc.lft.to/lastmile_qr_scan", "android": "https://dc.lft.to/lastmile_qr_scan"}, "is_reserved": 0, "lon": -77.02180566666667, "fusion_lat": 0.0, "name": "cbb8d7b6623dd3e913244f67c9b4b98a"}, {"type": "electric_scooter", "fusion_lon": 0.0, "bike_id": "caf490681fb19aadd4a7b6966fa23b0c", "is_disabled": 0, "lat": 38.91496516666667, "rental_uris": {"ios": "https://dc.lft.to/lastmile_qr_scan", "android": "https://dc.lft.to/lastmile_qr_scan"}, "is_reserved": 0, "lon": -77.01222833333334, "fusion_lat": 0.0, "name": "caf490681fb19aadd4a7b6966fa23b0c"}, {"type": "electric_scooter", "fusion_lon": 0.0, "bike_id": "b014edae905d328d4243930adcc519b7", "is_disabled": 0, "lat": 38.9072335, "rental_uris": {"ios": "https://dc.lft.to/lastmile_qr_scan", "android": "https://dc.lft.to/lastmile_qr_scan"}, "is_reserved": 0, "lon": -77.0495495, "fusion_lat": 0.0, "name": "b014edae905d328d4243930adcc519b7"}, {"type": "electric_scooter", "fusion_lon": 0.0, "bike_id": "686b50a00d20e49eb59025cf771891a2", "is_disabled": 0, "lat": 38.90613316666666, "rental_uris": {"ios": "https://dc.lft.to/lastmile_qr_scan", "android": "https://dc.lft.to/lastmile_qr_scan"}, "is_reserved": 0, "lon": -77.04353283333333, "fusion_lat": 0.0, "name": "686b50a00d20e49eb59025cf771891a2"}, {"type": "electric_scooter", "fusion_lon": 0.0, "bike_id": "7193bc14fd2e078dff11b4b379ecc99e", "is_disabled": 0, "lat": 38.9276095, "rental_uris": {"ios": "https://dc.lft.to/lastmile_qr_scan", "android": "https://dc.lft.to/lastmile_qr_scan"}, "is_reserved": 0, "lon": -77.02325033333334, "fusion_lat": 0.0, "name": "7193bc14fd2e078dff11b4b379ecc99e"}, {"type": "electric_scooter", "fusion_lon": 0.0, "bike_id": "0fe64d7c8342b94703dee85886dabe99", "is_disabled": 0, "lat": 38.9218225, "rental_uris": {"ios": "https://dc.lft.to/lastmile_qr_scan", "android": "https://dc.lft.to/lastmile_qr_scan"}, "is_reserved": 0, "lon": -77.0191375, "fusion_lat": 0.0, "name": "0fe64d7c8342b94703dee85886dabe99"}, {"type": "electric_scooter", "fusion_lon": 0.0, "bike_id": "d99962213c903c0f8ab8d517e05b50d9", "is_disabled": 0, "lat": 38.89218133333333, "rental_uris": {"ios": "https://dc.lft.to/lastmile_qr_scan", "android": "https://dc.lft.to/lastmile_qr_scan"}, "is_reserved": 0, "lon": -77.03119466666666, "fusion_lat": 0.0, "name": "d99962213c903c0f8ab8d517e05b50d9"}, {"type": "electric_bike", "fusion_lon": 0.0, "bike_id": "801c833ec7b14a7abef4286b959dedc3", "is_disabled": 0, "lat": 38.944731166666664, "rental_uris": {"ios": "https://dc.lft.to/lastmile_qr_scan", "android": "https://dc.lft.to/lastmile_qr_scan"}, "is_reserved": 0, "lon": -76.98686866666667, "fusion_lat": 0.0, "name": "801c833ec7b14a7abef4286b959dedc3"}, {"type": "electric_bike", "fusion_lon": 0.0, "bike_id": "eba5c584268f200165b68e5a78f40655", "is_disabled": 0, "lat": 38.93896066666667, "rental_uris": {"ios": "https://dc.lft.to/lastmile_qr_scan", "android": "https://dc.lft.to/lastmile_qr_scan"}, "is_reserved": 0, "lon": -76.96321866666666, "fusion_lat": 0.0, "name": "eba5c584268f200165b68e5a78f40655"}, {"type": "electric_scooter", "fusion_lon": 0.0, "bike_id": "eb2036adbfce0b2c54b1f30e5ae179f7", "is_disabled": 0, "lat": 38.92383866666667, "rental_uris": {"ios": "https://dc.lft.to/lastmile_qr_scan", "android": "https://dc.lft.to/lastmile_qr_scan"}, "is_reserved": 0, "lon": -77.03655583333334, "fusion_lat": 0.0, "name": "eb2036adbfce0b2c54b1f30e5ae179f7"}, {"type": "electric_scooter", "fusion_lon": 0.0, "bike_id": "c30803d85b7daa6d4da5497238c07e16", "is_disabled": 0, "lat": 38.92058883333333, "rental_uris": {"ios": "https://dc.lft.to/lastmile_qr_scan", "android": "https://dc.lft.to/lastmile_qr_scan"}, "is_reserved": 0, "lon": -77.04248333333334, "fusion_lat": 0.0, "name": "c30803d85b7daa6d4da5497238c07e16"}, {"type": "electric_scooter", "fusion_lon": 0.0, "bike_id": "5d75a4afc54d134146da7be3925b7aba", "is_disabled": 0, "lat": 38.89976266666667, "rental_uris": {"ios": "https://dc.lft.to/lastmile_qr_scan", "android": "https://dc.lft.to/lastmile_qr_scan"}, "is_reserved": 0, "lon": -77.01596766666667, "fusion_lat": 0.0, "name": "5d75a4afc54d134146da7be3925b7aba"}, {"type": "electric_bike", "fusion_lon": 0.0, "bike_id": "2ec681e7d09dbe7193a9d4dd24f16cd0", "is_disabled": 0, "lat": 38.822924666666665, "rental_uris": {"ios": "https://dc.lft.to/lastmile_qr_scan", "android": "https://dc.lft.to/lastmile_qr_scan"}, "is_reserved": 0, "lon": -77.081344, "fusion_lat": 0.0, "name": "2ec681e7d09dbe7193a9d4dd24f16cd0"}, {"type": "electric_scooter", "fusion_lon": 0.0, "bike_id": "13fffbe1d8649cd36dd9f20679f2b703", "is_disabled": 0, "lat": 38.920354333333336, "rental_uris": {"ios": "https://dc.lft.to/lastmile_qr_scan", "android": "https://dc.lft.to/lastmile_qr_scan"}, "is_reserved": 0, "lon": -77.04390283333333, "fusion_lat": 0.0, "name": "13fffbe1d8649cd36dd9f20679f2b703"}, {"type": "electric_scooter", "fusion_lon": 0.0, "bike_id": "5a346d7048f314b453001c6aceffb1bb", "is_disabled": 0, "lat": 38.93409033333333, "rental_uris": {"ios": "https://dc.lft.to/lastmile_qr_scan", "android": "https://dc.lft.to/lastmile_qr_scan"}, "is_reserved": 0, "lon": -77.0898355, "fusion_lat": 0.0, "name": "5a346d7048f314b453001c6aceffb1bb"}, {"type": "electric_scooter", "fusion_lon": 0.0, "bike_id": "a5d56b35c60814e392a50e248401458b", "is_disabled": 0, "lat": 38.904789, "rental_uris": {"ios": "https://dc.lft.to/lastmile_qr_scan", "android": "https://dc.lft.to/lastmile_qr_scan"}, "is_reserved": 0, "lon": -77.03444533333334, "fusion_lat": 0.0, "name": "a5d56b35c60814e392a50e248401458b"}, {"type": "electric_scooter", "fusion_lon": 0.0, "bike_id": "444beb8a9f8a44d3fa8365c82a01a977", "is_disabled": 0, "lat": 38.932231, "rental_uris": {"ios": "https://dc.lft.to/lastmile_qr_scan", "android": "https://dc.lft.to/lastmile_qr_scan"}, "is_reserved": 0, "lon": -77.03369533333333, "fusion_lat": 0.0, "name": "444beb8a9f8a44d3fa8365c82a01a977"}, {"type": "electric_scooter", "fusion_lon": 0.0, "bike_id": "2e3836bead1f1d55b364bb68d705ec26", "is_disabled": 0, "lat": 38.89223883333333, "rental_uris": {"ios": "https://dc.lft.to/lastmile_qr_scan", "android": "https://dc.lft.to/lastmile_qr_scan"}, "is_reserved": 0, "lon": -77.04868166666667, "fusion_lat": 0.0, "name": "2e3836bead1f1d55b364bb68d705ec26"}, {"type": "electric_scooter", "fusion_lon": 0.0, "bike_id": "eca43ef8ab3fef309fa0fa6ca463bf72", "is_disabled": 0, "lat": 38.931427166666666, "rental_uris": {"ios": "https://dc.lft.to/lastmile_qr_scan", "android": "https://dc.lft.to/lastmile_qr_scan"}, "is_reserved": 0, "lon": -77.0784625, "fusion_lat": 0.0, "name": "eca43ef8ab3fef309fa0fa6ca463bf72"}, {"type": "electric_scooter", "fusion_lon": 0.0, "bike_id": "85d37e366256739879535b32b65d1fa2", "is_disabled": 0, "lat": 38.89956166666666, "rental_uris": {"ios": "https://dc.lft.to/lastmile_qr_scan", "android": "https://dc.lft.to/lastmile_qr_scan"}, "is_reserved": 0, "lon": -77.0449385, "fusion_lat": 0.0, "name": "85d37e366256739879535b32b65d1fa2"}, {"type": "electric_scooter", "fusion_lon": 0.0, "bike_id": "c7b33226404b25fd7a3ffd759829f9e1", "is_disabled": 0, "lat": 38.89221533333333, "rental_uris": {"ios": "https://dc.lft.to/lastmile_qr_scan", "android": "https://dc.lft.to/lastmile_qr_scan"}, "is_reserved": 0, "lon": -77.04470816666667, "fusion_lat": 0.0, "name": "c7b33226404b25fd7a3ffd759829f9e1"}, {"type": "electric_bike", "fusion_lon": 0.0, "bike_id": "72e81771fd726464060c14699a81362c", "is_disabled": 0, "lat": 38.9731025, "rental_uris": {"ios": "https://dc.lft.to/lastmile_qr_scan", "android": "https://dc.lft.to/lastmile_qr_scan"}, "is_reserved": 0, "lon": -77.01313133333333, "fusion_lat": 0.0, "name": "72e81771fd726464060c14699a81362c"}, {"type": "electric_bike", "fusion_lon": 0.0, "bike_id": "08cde576f0e2c17838eb20ec413d9046", "is_disabled": 0, "lat": 38.84433933333333, "rental_uris": {"ios": "https://dc.lft.to/lastmile_qr_scan", "android": "https://dc.lft.to/lastmile_qr_scan"}, "is_reserved": 0, "lon": -76.98839283333334, "fusion_lat": 0.0, "name": "08cde576f0e2c17838eb20ec413d9046"}, {"type": "electric_bike", "fusion_lon": 0.0, "bike_id": "93971082d8c236c40cc61cd9740d9ecf", "is_disabled": 0, "lat": 38.8587205, "rental_uris": {"ios": "https://dc.lft.to/lastmile_qr_scan", "android": "https://dc.lft.to/lastmile_qr_scan"}, "is_reserved": 0, "lon": -77.09554366666667, "fusion_lat": 0.0, "name": "93971082d8c236c40cc61cd9740d9ecf"}, {"type": "electric_scooter", "fusion_lon": 0.0, "bike_id": "f0ce7000f69521b95780bbc5be8fd85e", "is_disabled": 0, "lat": 38.90486716666667, "rental_uris": {"ios": "https://dc.lft.to/lastmile_qr_scan", "android": "https://dc.lft.to/lastmile_qr_scan"}, "is_reserved": 0, "lon": -77.034411, "fusion_lat": 0.0, "name": "f0ce7000f69521b95780bbc5be8fd85e"}, {"type": "electric_scooter", "fusion_lon": 0.0, "bike_id": "7039f65873040f3ca2fc914d3bc05d99", "is_disabled": 0, "lat": 38.921529, "rental_uris": {"ios": "https://dc.lft.to/lastmile_qr_scan", "android": "https://dc.lft.to/lastmile_qr_scan"}, "is_reserved": 0, "lon": -77.03287466666667, "fusion_lat": 0.0, "name": "7039f65873040f3ca2fc914d3bc05d99"}, {"type": "electric_scooter", "fusion_lon": 0.0, "bike_id": "272e029d0d76906a007ad4341a2d3216", "is_disabled": 0, "lat": 38.911130166666666, "rental_uris": {"ios": "https://dc.lft.to/lastmile_qr_scan", "android": "https://dc.lft.to/lastmile_qr_scan"}, "is_reserved": 0, "lon": -77.0453315, "fusion_lat": 0.0, "name": "272e029d0d76906a007ad4341a2d3216"}, {"type": "electric_scooter", "fusion_lon": 0.0, "bike_id": "9fe0b3d58e4ab8123670366be6f0e457", "is_disabled": 0, "lat": 38.8984455, "rental_uris": {"ios": "https://dc.lft.to/lastmile_qr_scan", "android": "https://dc.lft.to/lastmile_qr_scan"}, "is_reserved": 0, "lon": -76.94257316666666, "fusion_lat": 0.0, "name": "9fe0b3d58e4ab8123670366be6f0e457"}, {"type": "electric_scooter", "fusion_lon": 0.0, "bike_id": "c493742bac0811f118940e0673a27a92", "is_disabled": 0, "lat": 38.898422833333335, "rental_uris": {"ios": "https://dc.lft.to/lastmile_qr_scan", "android": "https://dc.lft.to/lastmile_qr_scan"}, "is_reserved": 0, "lon": -77.00756233333334, "fusion_lat": 0.0, "name": "c493742bac0811f118940e0673a27a92"}, {"type": "electric_scooter", "fusion_lon": 0.0, "bike_id": "4a6b43fa65d701edc2fcf63c8a10cb5c", "is_disabled": 0, "lat": 38.890520333333335, "rental_uris": {"ios": "https://dc.lft.to/lastmile_qr_scan", "android": "https://dc.lft.to/lastmile_qr_scan"}, "is_reserved": 0, "lon": -76.93749883333334, "fusion_lat": 0.0, "name": "4a6b43fa65d701edc2fcf63c8a10cb5c"}, {"type": "electric_scooter", "fusion_lon": 0.0, "bike_id": "64c35942f70ca6325be984c985f7fe1e", "is_disabled": 0, "lat": 38.9281215, "rental_uris": {"ios": "https://dc.lft.to/lastmile_qr_scan", "android": "https://dc.lft.to/lastmile_qr_scan"}, "is_reserved": 0, "lon": -77.0433405, "fusion_lat": 0.0, "name": "64c35942f70ca6325be984c985f7fe1e"}, {"type": "electric_scooter", "fusion_lon": 0.0, "bike_id": "493404747ce7cf8234f8662f30d852b9", "is_disabled": 0, "lat": 38.881782666666666, "rental_uris": {"ios": "https://dc.lft.to/lastmile_qr_scan", "android": "https://dc.lft.to/lastmile_qr_scan"}, "is_reserved": 0, "lon": -76.99264766666667, "fusion_lat": 0.0, "name": "493404747ce7cf8234f8662f30d852b9"}, {"type": "electric_scooter", "fusion_lon": 0.0, "bike_id": "1113f481ca88849474beb4b1fe42abf8", "is_disabled": 0, "lat": 38.9156395, "rental_uris": {"ios": "https://dc.lft.to/lastmile_qr_scan", "android": "https://dc.lft.to/lastmile_qr_scan"}, "is_reserved": 0, "lon": -77.03219233333333, "fusion_lat": 0.0, "name": "1113f481ca88849474beb4b1fe42abf8"}, {"type": "electric_scooter", "fusion_lon": 0.0, "bike_id": "ee162666017c2e3572d845ab2ac5331e", "is_disabled": 0, "lat": 38.908429166666664, "rental_uris": {"ios": "https://dc.lft.to/lastmile_qr_scan", "android": "https://dc.lft.to/lastmile_qr_scan"}, "is_reserved": 0, "lon": -77.0391015, "fusion_lat": 0.0, "name": "ee162666017c2e3572d845ab2ac5331e"}, {"type": "electric_scooter", "fusion_lon": 0.0, "bike_id": "a85bf5f2ce948866ffc17e90bbf8e8e9", "is_disabled": 0, "lat": 38.9357615, "rental_uris": {"ios": "https://dc.lft.to/lastmile_qr_scan", "android": "https://dc.lft.to/lastmile_qr_scan"}, "is_reserved": 0, "lon": -76.9930305, "fusion_lat": 0.0, "name": "a85bf5f2ce948866ffc17e90bbf8e8e9"}, {"type": "electric_scooter", "fusion_lon": 0.0, "bike_id": "6c77863424b396152bf9dfc580ce0d9e", "is_disabled": 0, "lat": 38.91755883333333, "rental_uris": {"ios": "https://dc.lft.to/lastmile_qr_scan", "android": "https://dc.lft.to/lastmile_qr_scan"}, "is_reserved": 0, "lon": -77.02287216666667, "fusion_lat": 0.0, "name": "6c77863424b396152bf9dfc580ce0d9e"}, {"type": "electric_scooter", "fusion_lon": 0.0, "bike_id": "d583b2de795eac98a848108f0fdca22f", "is_disabled": 0, "lat": 38.89222, "rental_uris": {"ios": "https://dc.lft.to/lastmile_qr_scan", "android": "https://dc.lft.to/lastmile_qr_scan"}, "is_reserved": 0, "lon": -77.04197333333333, "fusion_lat": 0.0, "name": "d583b2de795eac98a848108f0fdca22f"}, {"type": "electric_scooter", "fusion_lon": 0.0, "bike_id": "e1be4a35a622c2c803bc68bac1366834", "is_disabled": 0, "lat": 38.924726166666666, "rental_uris": {"ios": "https://dc.lft.to/lastmile_qr_scan", "android": "https://dc.lft.to/lastmile_qr_scan"}, "is_reserved": 0, "lon": -77.02218566666667, "fusion_lat": 0.0, "name": "e1be4a35a622c2c803bc68bac1366834"}, {"type": "electric_scooter", "fusion_lon": 0.0, "bike_id": "26e2400c14d8b4bc1e8ba7a6deddbf4c", "is_disabled": 0, "lat": 38.89492333333333, "rental_uris": {"ios": "https://dc.lft.to/lastmile_qr_scan", "android": "https://dc.lft.to/lastmile_qr_scan"}, "is_reserved": 0, "lon": -77.0029065, "fusion_lat": 0.0, "name": "26e2400c14d8b4bc1e8ba7a6deddbf4c"}, {"type": "electric_scooter", "fusion_lon": 0.0, "bike_id": "4b2f2b0265a191908ca468d83d5a3035", "is_disabled": 0, "lat": 38.895358333333334, "rental_uris": {"ios": "https://dc.lft.to/lastmile_qr_scan", "android": "https://dc.lft.to/lastmile_qr_scan"}, "is_reserved": 0, "lon": -77.04644716666667, "fusion_lat": 0.0, "name": "4b2f2b0265a191908ca468d83d5a3035"}, {"type": "electric_scooter", "fusion_lon": 0.0, "bike_id": "fcc60bf3a0878e677ed6c2ffc76247a8", "is_disabled": 0, "lat": 38.89989883333333, "rental_uris": {"ios": "https://dc.lft.to/lastmile_qr_scan", "android": "https://dc.lft.to/lastmile_qr_scan"}, "is_reserved": 0, "lon": -76.99477666666667, "fusion_lat": 0.0, "name": "fcc60bf3a0878e677ed6c2ffc76247a8"}, {"type": "electric_scooter", "fusion_lon": 0.0, "bike_id": "d8f47bf750c73d8ed1d9800339cf9c29", "is_disabled": 0, "lat": 38.923111, "rental_uris": {"ios": "https://dc.lft.to/lastmile_qr_scan", "android": "https://dc.lft.to/lastmile_qr_scan"}, "is_reserved": 0, "lon": -77.03911516666666, "fusion_lat": 0.0, "name": "d8f47bf750c73d8ed1d9800339cf9c29"}, {"type": "electric_scooter", "fusion_lon": 0.0, "bike_id": "c43b4687fa60360e78a3c7334b583482", "is_disabled": 0, "lat": 38.9262035, "rental_uris": {"ios": "https://dc.lft.to/lastmile_qr_scan", "android": "https://dc.lft.to/lastmile_qr_scan"}, "is_reserved": 0, "lon": -77.04192083333334, "fusion_lat": 0.0, "name": "c43b4687fa60360e78a3c7334b583482"}, {"type": "electric_scooter", "fusion_lon": 0.0, "bike_id": "60938651604db50e956d05bfde84b962", "is_disabled": 0, "lat": 38.90588183333333, "rental_uris": {"ios": "https://dc.lft.to/lastmile_qr_scan", "android": "https://dc.lft.to/lastmile_qr_scan"}, "is_reserved": 0, "lon": -77.01609833333333, "fusion_lat": 0.0, "name": "60938651604db50e956d05bfde84b962"}, {"type": "electric_scooter", "fusion_lon": 0.0, "bike_id": "3a789ae687500a789e29573cf6082b39", "is_disabled": 0, "lat": 38.9121235, "rental_uris": {"ios": "https://dc.lft.to/lastmile_qr_scan", "android": "https://dc.lft.to/lastmile_qr_scan"}, "is_reserved": 0, "lon": -77.05712933333334, "fusion_lat": 0.0, "name": "3a789ae687500a789e29573cf6082b39"}, {"type": "electric_scooter", "fusion_lon": 0.0, "bike_id": "3a4a2d44a32c69f12a4eedd4a160694f", "is_disabled": 0, "lat": 38.901169, "rental_uris": {"ios": "https://dc.lft.to/lastmile_qr_scan", "android": "https://dc.lft.to/lastmile_qr_scan"}, "is_reserved": 0, "lon": -77.04346783333334, "fusion_lat": 0.0, "name": "3a4a2d44a32c69f12a4eedd4a160694f"}, {"type": "electric_scooter", "fusion_lon": 0.0, "bike_id": "c3072dd719b4126c16b154910f703669", "is_disabled": 0, "lat": 38.9019605, "rental_uris": {"ios": "https://dc.lft.to/lastmile_qr_scan", "android": "https://dc.lft.to/lastmile_qr_scan"}, "is_reserved": 0, "lon": -77.02178833333333, "fusion_lat": 0.0, "name": "c3072dd719b4126c16b154910f703669"}, {"type": "electric_scooter", "fusion_lon": 0.0, "bike_id": "b6a2c548199a0457ddba2323264946fb", "is_disabled": 0, "lat": 38.89409283333333, "rental_uris": {"ios": "https://dc.lft.to/lastmile_qr_scan", "android": "https://dc.lft.to/lastmile_qr_scan"}, "is_reserved": 0, "lon": -77.021956, "fusion_lat": 0.0, "name": "b6a2c548199a0457ddba2323264946fb"}, {"type": "electric_scooter", "fusion_lon": 0.0, "bike_id": "d84f40e4dbc7071c953e2041ae5278e4", "is_disabled": 0, "lat": 38.904070833333336, "rental_uris": {"ios": "https://dc.lft.to/lastmile_qr_scan", "android": "https://dc.lft.to/lastmile_qr_scan"}, "is_reserved": 0, "lon": -76.9733455, "fusion_lat": 0.0, "name": "d84f40e4dbc7071c953e2041ae5278e4"}, {"type": "electric_scooter", "fusion_lon": 0.0, "bike_id": "ecea7bef1a4ce38e829845a7ad3dea91", "is_disabled": 0, "lat": 38.83778566666667, "rental_uris": {"ios": "https://dc.lft.to/lastmile_qr_scan", "android": "https://dc.lft.to/lastmile_qr_scan"}, "is_reserved": 0, "lon": -76.998364, "fusion_lat": 0.0, "name": "ecea7bef1a4ce38e829845a7ad3dea91"}, {"type": "electric_scooter", "fusion_lon": 0.0, "bike_id": "0d1f0081c500b1e1ae692a4c0f421e56", "is_disabled": 0, "lat": 38.902678, "rental_uris": {"ios": "https://dc.lft.to/lastmile_qr_scan", "android": "https://dc.lft.to/lastmile_qr_scan"}, "is_reserved": 0, "lon": -77.03435383333333, "fusion_lat": 0.0, "name": "0d1f0081c500b1e1ae692a4c0f421e56"}, {"type": "electric_bike", "fusion_lon": 0.0, "bike_id": "d82c2f8e1de557ae068c54d91ea5c98b", "is_disabled": 0, "lat": 38.944722, "rental_uris": {"ios": "https://dc.lft.to/lastmile_qr_scan", "android": "https://dc.lft.to/lastmile_qr_scan"}, "is_reserved": 0, "lon": -76.98683966666667, "fusion_lat": 0.0, "name": "d82c2f8e1de557ae068c54d91ea5c98b"}, {"type": "electric_scooter", "fusion_lon": 0.0, "bike_id": "72554b1e8d8ed14de3ee4ac8ebbad44c", "is_disabled": 0, "lat": 38.912557166666666, "rental_uris": {"ios": "https://dc.lft.to/lastmile_qr_scan", "android": "https://dc.lft.to/lastmile_qr_scan"}, "is_reserved": 0, "lon": -77.03804616666666, "fusion_lat": 0.0, "name": "72554b1e8d8ed14de3ee4ac8ebbad44c"}, {"type": "electric_scooter", "fusion_lon": 0.0, "bike_id": "9881bc1fa9ef4857b44cd3c4f97bff01", "is_disabled": 0, "lat": 38.895908666666664, "rental_uris": {"ios": "https://dc.lft.to/lastmile_qr_scan", "android": "https://dc.lft.to/lastmile_qr_scan"}, "is_reserved": 0, "lon": -77.0296835, "fusion_lat": 0.0, "name": "9881bc1fa9ef4857b44cd3c4f97bff01"}, {"type": "electric_scooter", "fusion_lon": 0.0, "bike_id": "c5726ea1cad0cf87b7768740317714de", "is_disabled": 0, "lat": 38.9073415, "rental_uris": {"ios": "https://dc.lft.to/lastmile_qr_scan", "android": "https://dc.lft.to/lastmile_qr_scan"}, "is_reserved": 0, "lon": -77.0432945, "fusion_lat": 0.0, "name": "c5726ea1cad0cf87b7768740317714de"}, {"type": "electric_scooter", "fusion_lon": 0.0, "bike_id": "b0e1b1f110f84f58e7e9756be2ec28f9", "is_disabled": 0, "lat": 38.8994255, "rental_uris": {"ios": "https://dc.lft.to/lastmile_qr_scan", "android": "https://dc.lft.to/lastmile_qr_scan"}, "is_reserved": 0, "lon": -76.99733233333333, "fusion_lat": 0.0, "name": "b0e1b1f110f84f58e7e9756be2ec28f9"}, {"type": "electric_scooter", "fusion_lon": 0.0, "bike_id": "53629a32c09c6b6f13dfac8f17d9a4c2", "is_disabled": 0, "lat": 38.926828, "rental_uris": {"ios": "https://dc.lft.to/lastmile_qr_scan", "android": "https://dc.lft.to/lastmile_qr_scan"}, "is_reserved": 0, "lon": -77.02787983333333, "fusion_lat": 0.0, "name": "53629a32c09c6b6f13dfac8f17d9a4c2"}, {"type": "electric_bike", "fusion_lon": 0.0, "bike_id": "744f52db98bfb8345cd5f2f99d915c53", "is_disabled": 0, "lat": 38.9192855, "rental_uris": {"ios": "https://dc.lft.to/lastmile_qr_scan", "android": "https://dc.lft.to/lastmile_qr_scan"}, "is_reserved": 0, "lon": -77.010392, "fusion_lat": 0.0, "name": "744f52db98bfb8345cd5f2f99d915c53"}, {"type": "electric_bike", "fusion_lon": 0.0, "bike_id": "ec7ce80b89c545b4b7f4b6db04336579", "is_disabled": 0, "lat": 38.96784533333334, "rental_uris": {"ios": "https://dc.lft.to/lastmile_qr_scan", "android": "https://dc.lft.to/lastmile_qr_scan"}, "is_reserved": 0, "lon": -76.96261733333333, "fusion_lat": 0.0, "name": "ec7ce80b89c545b4b7f4b6db04336579"}, {"type": "electric_scooter", "fusion_lon": 0.0, "bike_id": "a2904a7a01fa86baac4d808659393b8d", "is_disabled": 0, "lat": 38.94458683333333, "rental_uris": {"ios": "https://dc.lft.to/lastmile_qr_scan", "android": "https://dc.lft.to/lastmile_qr_scan"}, "is_reserved": 0, "lon": -77.02802916666667, "fusion_lat": 0.0, "name": "a2904a7a01fa86baac4d808659393b8d"}, {"type": "electric_scooter", "fusion_lon": 0.0, "bike_id": "96d80b58db0ac69a539cc7d30e78e4a0", "is_disabled": 0, "lat": 38.90552816666667, "rental_uris": {"ios": "https://dc.lft.to/lastmile_qr_scan", "android": "https://dc.lft.to/lastmile_qr_scan"}, "is_reserved": 0, "lon": -77.04307416666667, "fusion_lat": 0.0, "name": "96d80b58db0ac69a539cc7d30e78e4a0"}, {"type": "electric_scooter", "fusion_lon": 0.0, "bike_id": "0837dc8fa7660b766f589959262bdb8d", "is_disabled": 0, "lat": 38.86021016666667, "rental_uris": {"ios": "https://dc.lft.to/lastmile_qr_scan", "android": "https://dc.lft.to/lastmile_qr_scan"}, "is_reserved": 0, "lon": -76.97005633333333, "fusion_lat": 0.0, "name": "0837dc8fa7660b766f589959262bdb8d"}, {"type": "electric_scooter", "fusion_lon": 0.0, "bike_id": "74f58d255e2353b10753faf48f345fd6", "is_disabled": 0, "lat": 38.903105, "rental_uris": {"ios": "https://dc.lft.to/lastmile_qr_scan", "android": "https://dc.lft.to/lastmile_qr_scan"}, "is_reserved": 0, "lon": -76.9780125, "fusion_lat": 0.0, "name": "74f58d255e2353b10753faf48f345fd6"}, {"type": "electric_scooter", "fusion_lon": 0.0, "bike_id": "5cadc1a6818cdcb5acd59d6a6f7c38d9", "is_disabled": 0, "lat": 38.92389566666667, "rental_uris": {"ios": "https://dc.lft.to/lastmile_qr_scan", "android": "https://dc.lft.to/lastmile_qr_scan"}, "is_reserved": 0, "lon": -77.03654033333333, "fusion_lat": 0.0, "name": "5cadc1a6818cdcb5acd59d6a6f7c38d9"}, {"type": "electric_scooter", "fusion_lon": 0.0, "bike_id": "ae194a4fb0c5da73098983863bbd8caa", "is_disabled": 0, "lat": 38.87459066666667, "rental_uris": {"ios": "https://dc.lft.to/lastmile_qr_scan", "android": "https://dc.lft.to/lastmile_qr_scan"}, "is_reserved": 0, "lon": -77.00578416666667, "fusion_lat": 0.0, "name": "ae194a4fb0c5da73098983863bbd8caa"}, {"type": "electric_scooter", "fusion_lon": 0.0, "bike_id": "8c801e65a145b97d7e0a2c236a4ceab7", "is_disabled": 0, "lat": 38.892228833333334, "rental_uris": {"ios": "https://dc.lft.to/lastmile_qr_scan", "android": "https://dc.lft.to/lastmile_qr_scan"}, "is_reserved": 0, "lon": -77.04470733333333, "fusion_lat": 0.0, "name": "8c801e65a145b97d7e0a2c236a4ceab7"}, {"type": "electric_scooter", "fusion_lon": 0.0, "bike_id": "093bd4227eb77675ade75ebae35ac117", "is_disabled": 0, "lat": 38.93354316666667, "rental_uris": {"ios": "https://dc.lft.to/lastmile_qr_scan", "android": "https://dc.lft.to/lastmile_qr_scan"}, "is_reserved": 0, "lon": -77.07230316666667, "fusion_lat": 0.0, "name": "093bd4227eb77675ade75ebae35ac117"}, {"type": "electric_scooter", "fusion_lon": 0.0, "bike_id": "d869100b2878600226cdac96fb5e1fd8", "is_disabled": 0, "lat": 38.9230015, "rental_uris": {"ios": "https://dc.lft.to/lastmile_qr_scan", "android": "https://dc.lft.to/lastmile_qr_scan"}, "is_reserved": 0, "lon": -77.04140766666667, "fusion_lat": 0.0, "name": "d869100b2878600226cdac96fb5e1fd8"}, {"type": "electric_scooter", "fusion_lon": 0.0, "bike_id": "852d28c9d4bd706a9aa5083b761e03d5", "is_disabled": 0, "lat": 38.92330666666667, "rental_uris": {"ios": "https://dc.lft.to/lastmile_qr_scan", "android": "https://dc.lft.to/lastmile_qr_scan"}, "is_reserved": 0, "lon": -77.0204425, "fusion_lat": 0.0, "name": "852d28c9d4bd706a9aa5083b761e03d5"}, {"type": "electric_scooter", "fusion_lon": 0.0, "bike_id": "3d8a2360b3fe06cd01e762fd38c68b8a", "is_disabled": 0, "lat": 38.90793433333333, "rental_uris": {"ios": "https://dc.lft.to/lastmile_qr_scan", "android": "https://dc.lft.to/lastmile_qr_scan"}, "is_reserved": 0, "lon": -77.0382535, "fusion_lat": 0.0, "name": "3d8a2360b3fe06cd01e762fd38c68b8a"}, {"type": "electric_scooter", "fusion_lon": 0.0, "bike_id": "5475ee21f0958a1869a881d8cc3a93fd", "is_disabled": 0, "lat": 38.92646516666667, "rental_uris": {"ios": "https://dc.lft.to/lastmile_qr_scan", "android": "https://dc.lft.to/lastmile_qr_scan"}, "is_reserved": 0, "lon": -77.03725083333333, "fusion_lat": 0.0, "name": "5475ee21f0958a1869a881d8cc3a93fd"}, {"type": "electric_bike", "fusion_lon": 0.0, "bike_id": "b74feac8d7c02635f397faf2da52b420", "is_disabled": 0, "lat": 38.882750333333334, "rental_uris": {"ios": "https://dc.lft.to/lastmile_qr_scan", "android": "https://dc.lft.to/lastmile_qr_scan"}, "is_reserved": 0, "lon": -77.01203983333333, "fusion_lat": 0.0, "name": "b74feac8d7c02635f397faf2da52b420"}, {"type": "electric_scooter", "fusion_lon": 0.0, "bike_id": "10cd72df747f950d328407a64aa573ac", "is_disabled": 0, "lat": 38.9241125, "rental_uris": {"ios": "https://dc.lft.to/lastmile_qr_scan", "android": "https://dc.lft.to/lastmile_qr_scan"}, "is_reserved": 0, "lon": -77.0574935, "fusion_lat": 0.0, "name": "10cd72df747f950d328407a64aa573ac"}, {"type": "electric_scooter", "fusion_lon": 0.0, "bike_id": "40938caafd008186ba28d2feb90d4f03", "is_disabled": 0, "lat": 38.91953616666667, "rental_uris": {"ios": "https://dc.lft.to/lastmile_qr_scan", "android": "https://dc.lft.to/lastmile_qr_scan"}, "is_reserved": 0, "lon": -77.01779916666666, "fusion_lat": 0.0, "name": "40938caafd008186ba28d2feb90d4f03"}, {"type": "electric_scooter", "fusion_lon": 0.0, "bike_id": "a39af6f0a0445c007e67762e435c94d0", "is_disabled": 0, "lat": 38.905706333333335, "rental_uris": {"ios": "https://dc.lft.to/lastmile_qr_scan", "android": "https://dc.lft.to/lastmile_qr_scan"}, "is_reserved": 0, "lon": -77.00579733333333, "fusion_lat": 0.0, "name": "a39af6f0a0445c007e67762e435c94d0"}, {"type": "electric_scooter", "fusion_lon": 0.0, "bike_id": "497eb179f16530413b7fffc40f96cc05", "is_disabled": 0, "lat": 38.91682133333333, "rental_uris": {"ios": "https://dc.lft.to/lastmile_qr_scan", "android": "https://dc.lft.to/lastmile_qr_scan"}, "is_reserved": 0, "lon": -76.98031083333333, "fusion_lat": 0.0, "name": "497eb179f16530413b7fffc40f96cc05"}, {"type": "electric_scooter", "fusion_lon": 0.0, "bike_id": "09143e09c5f749d82167bd492157233b", "is_disabled": 0, "lat": 38.91334916666667, "rental_uris": {"ios": "https://dc.lft.to/lastmile_qr_scan", "android": "https://dc.lft.to/lastmile_qr_scan"}, "is_reserved": 0, "lon": -77.048678, "fusion_lat": 0.0, "name": "09143e09c5f749d82167bd492157233b"}, {"type": "electric_scooter", "fusion_lon": 0.0, "bike_id": "86cd34fa9e765a0e2537bc281e867624", "is_disabled": 0, "lat": 38.894808833333336, "rental_uris": {"ios": "https://dc.lft.to/lastmile_qr_scan", "android": "https://dc.lft.to/lastmile_qr_scan"}, "is_reserved": 0, "lon": -77.0109395, "fusion_lat": 0.0, "name": "86cd34fa9e765a0e2537bc281e867624"}, {"type": "electric_bike", "fusion_lon": 0.0, "bike_id": "2324e356f66b6bb4f1d80d890cb6fb2d", "is_disabled": 0, "lat": 38.84105683333333, "rental_uris": {"ios": "https://dc.lft.to/lastmile_qr_scan", "android": "https://dc.lft.to/lastmile_qr_scan"}, "is_reserved": 0, "lon": -77.08939666666667, "fusion_lat": 0.0, "name": "2324e356f66b6bb4f1d80d890cb6fb2d"}, {"type": "electric_scooter", "fusion_lon": 0.0, "bike_id": "fd99555a32bfbcd7f56b66979c9d0971", "is_disabled": 0, "lat": 38.88736733333333, "rental_uris": {"ios": "https://dc.lft.to/lastmile_qr_scan", "android": "https://dc.lft.to/lastmile_qr_scan"}, "is_reserved": 0, "lon": -77.0220445, "fusion_lat": 0.0, "name": "fd99555a32bfbcd7f56b66979c9d0971"}, {"type": "electric_scooter", "fusion_lon": 0.0, "bike_id": "e22128118faa47b534c6dbf5c5e48197", "is_disabled": 0, "lat": 38.91963166666667, "rental_uris": {"ios": "https://dc.lft.to/lastmile_qr_scan", "android": "https://dc.lft.to/lastmile_qr_scan"}, "is_reserved": 0, "lon": -77.01833016666667, "fusion_lat": 0.0, "name": "e22128118faa47b534c6dbf5c5e48197"}, {"type": "electric_scooter", "fusion_lon": 0.0, "bike_id": "ebf07613390ea5e0f2dedeae4e7d65c8", "is_disabled": 0, "lat": 38.92325983333333, "rental_uris": {"ios": "https://dc.lft.to/lastmile_qr_scan", "android": "https://dc.lft.to/lastmile_qr_scan"}, "is_reserved": 0, "lon": -77.01959233333334, "fusion_lat": 0.0, "name": "ebf07613390ea5e0f2dedeae4e7d65c8"}, {"type": "electric_scooter", "fusion_lon": 0.0, "bike_id": "c9b13e86163dfed6278353384007a65e", "is_disabled": 0, "lat": 38.934669666666665, "rental_uris": {"ios": "https://dc.lft.to/lastmile_qr_scan", "android": "https://dc.lft.to/lastmile_qr_scan"}, "is_reserved": 0, "lon": -77.04111783333333, "fusion_lat": 0.0, "name": "c9b13e86163dfed6278353384007a65e"}, {"type": "electric_scooter", "fusion_lon": 0.0, "bike_id": "83d20f3b243508b26c0523be99aa55b2", "is_disabled": 0, "lat": 38.899836, "rental_uris": {"ios": "https://dc.lft.to/lastmile_qr_scan", "android": "https://dc.lft.to/lastmile_qr_scan"}, "is_reserved": 0, "lon": -77.022013, "fusion_lat": 0.0, "name": "83d20f3b243508b26c0523be99aa55b2"}, {"type": "electric_scooter", "fusion_lon": 0.0, "bike_id": "577d194fdafa8b5f9b3ad6afd4e0ba69", "is_disabled": 0, "lat": 38.92237733333333, "rental_uris": {"ios": "https://dc.lft.to/lastmile_qr_scan", "android": "https://dc.lft.to/lastmile_qr_scan"}, "is_reserved": 0, "lon": -77.03893866666667, "fusion_lat": 0.0, "name": "577d194fdafa8b5f9b3ad6afd4e0ba69"}, {"type": "electric_bike", "fusion_lon": 0.0, "bike_id": "e0b70da4330d925506ac91a3cc1dc2b2", "is_disabled": 0, "lat": 38.922891, "rental_uris": {"ios": "https://dc.lft.to/lastmile_qr_scan", "android": "https://dc.lft.to/lastmile_qr_scan"}, "is_reserved": 0, "lon": -76.9977385, "fusion_lat": 0.0, "name": "e0b70da4330d925506ac91a3cc1dc2b2"}, {"type": "electric_scooter", "fusion_lon": 0.0, "bike_id": "3b256f3d5b65b911bf45c808b055ca6d", "is_disabled": 0, "lat": 38.915561833333335, "rental_uris": {"ios": "https://dc.lft.to/lastmile_qr_scan", "android": "https://dc.lft.to/lastmile_qr_scan"}, "is_reserved": 0, "lon": -77.03241883333334, "fusion_lat": 0.0, "name": "3b256f3d5b65b911bf45c808b055ca6d"}, {"type": "electric_scooter", "fusion_lon": 0.0, "bike_id": "f6e59c7eae3e4739393cb932f76531d1", "is_disabled": 0, "lat": 38.901932333333335, "rental_uris": {"ios": "https://dc.lft.to/lastmile_qr_scan", "android": "https://dc.lft.to/lastmile_qr_scan"}, "is_reserved": 0, "lon": -76.9263155, "fusion_lat": 0.0, "name": "f6e59c7eae3e4739393cb932f76531d1"}, {"type": "electric_scooter", "fusion_lon": 0.0, "bike_id": "8111735afa782b7c5dd11ad746265744", "is_disabled": 0, "lat": 38.90580933333333, "rental_uris": {"ios": "https://dc.lft.to/lastmile_qr_scan", "android": "https://dc.lft.to/lastmile_qr_scan"}, "is_reserved": 0, "lon": -77.000614, "fusion_lat": 0.0, "name": "8111735afa782b7c5dd11ad746265744"}, {"type": "electric_scooter", "fusion_lon": 0.0, "bike_id": "5ed35263dd00ebbc3a539ba3295505b8", "is_disabled": 0, "lat": 38.92470383333333, "rental_uris": {"ios": "https://dc.lft.to/lastmile_qr_scan", "android": "https://dc.lft.to/lastmile_qr_scan"}, "is_reserved": 0, "lon": -77.0221305, "fusion_lat": 0.0, "name": "5ed35263dd00ebbc3a539ba3295505b8"}, {"type": "electric_scooter", "fusion_lon": 0.0, "bike_id": "c34c85510cf71faa7d99736b2ad48bcf", "is_disabled": 0, "lat": 38.905634666666664, "rental_uris": {"ios": "https://dc.lft.to/lastmile_qr_scan", "android": "https://dc.lft.to/lastmile_qr_scan"}, "is_reserved": 0, "lon": -77.04606516666666, "fusion_lat": 0.0, "name": "c34c85510cf71faa7d99736b2ad48bcf"}, {"type": "electric_scooter", "fusion_lon": 0.0, "bike_id": "f14e8dce27bc1633bccc8b9f9de45274", "is_disabled": 0, "lat": 38.86474833333333, "rental_uris": {"ios": "https://dc.lft.to/lastmile_qr_scan", "android": "https://dc.lft.to/lastmile_qr_scan"}, "is_reserved": 0, "lon": -76.98231816666667, "fusion_lat": 0.0, "name": "f14e8dce27bc1633bccc8b9f9de45274"}, {"type": "electric_scooter", "fusion_lon": 0.0, "bike_id": "caeeaf56a125f710550ff71897b2f3c9", "is_disabled": 0, "lat": 38.919326, "rental_uris": {"ios": "https://dc.lft.to/lastmile_qr_scan", "android": "https://dc.lft.to/lastmile_qr_scan"}, "is_reserved": 0, "lon": -77.02506666666666, "fusion_lat": 0.0, "name": "caeeaf56a125f710550ff71897b2f3c9"}, {"type": "electric_scooter", "fusion_lon": 0.0, "bike_id": "1c53b64b9463f9573a6d780bbb446b9c", "is_disabled": 0, "lat": 38.91620733333333, "rental_uris": {"ios": "https://dc.lft.to/lastmile_qr_scan", "android": "https://dc.lft.to/lastmile_qr_scan"}, "is_reserved": 0, "lon": -77.04270616666666, "fusion_lat": 0.0, "name": "1c53b64b9463f9573a6d780bbb446b9c"}, {"type": "electric_scooter", "fusion_lon": 0.0, "bike_id": "a0eae577af17c4a91d818128938ace8a", "is_disabled": 0, "lat": 38.90390566666667, "rental_uris": {"ios": "https://dc.lft.to/lastmile_qr_scan", "android": "https://dc.lft.to/lastmile_qr_scan"}, "is_reserved": 0, "lon": -76.98487116666666, "fusion_lat": 0.0, "name": "a0eae577af17c4a91d818128938ace8a"}, {"type": "electric_scooter", "fusion_lon": 0.0, "bike_id": "5892a909addc43f8c7010c88a24143f9", "is_disabled": 0, "lat": 38.90956033333333, "rental_uris": {"ios": "https://dc.lft.to/lastmile_qr_scan", "android": "https://dc.lft.to/lastmile_qr_scan"}, "is_reserved": 0, "lon": -77.04882516666666, "fusion_lat": 0.0, "name": "5892a909addc43f8c7010c88a24143f9"}, {"type": "electric_scooter", "fusion_lon": 0.0, "bike_id": "6285eaf033c4f05705236e538a23e1b7", "is_disabled": 0, "lat": 38.907418666666665, "rental_uris": {"ios": "https://dc.lft.to/lastmile_qr_scan", "android": "https://dc.lft.to/lastmile_qr_scan"}, "is_reserved": 0, "lon": -77.0415185, "fusion_lat": 0.0, "name": "6285eaf033c4f05705236e538a23e1b7"}, {"type": "electric_scooter", "fusion_lon": 0.0, "bike_id": "a356c34f02a30772bde00430dc9c6657", "is_disabled": 0, "lat": 38.92261516666667, "rental_uris": {"ios": "https://dc.lft.to/lastmile_qr_scan", "android": "https://dc.lft.to/lastmile_qr_scan"}, "is_reserved": 0, "lon": -77.04292566666666, "fusion_lat": 0.0, "name": "a356c34f02a30772bde00430dc9c6657"}, {"type": "electric_scooter", "fusion_lon": 0.0, "bike_id": "453e5064593a1fed3c5a16271423c43d", "is_disabled": 0, "lat": 38.91835566666666, "rental_uris": {"ios": "https://dc.lft.to/lastmile_qr_scan", "android": "https://dc.lft.to/lastmile_qr_scan"}, "is_reserved": 0, "lon": -77.0177995, "fusion_lat": 0.0, "name": "453e5064593a1fed3c5a16271423c43d"}, {"type": "electric_bike", "fusion_lon": 0.0, "bike_id": "1aa035806e25b427b50587ac4e77084a", "is_disabled": 0, "lat": 38.941552, "rental_uris": {"ios": "https://dc.lft.to/lastmile_qr_scan", "android": "https://dc.lft.to/lastmile_qr_scan"}, "is_reserved": 0, "lon": -77.00186166666667, "fusion_lat": 0.0, "name": "1aa035806e25b427b50587ac4e77084a"}, {"type": "electric_scooter", "fusion_lon": 0.0, "bike_id": "9030172458c29ff7fa416e124e7f1f01", "is_disabled": 0, "lat": 38.920750166666664, "rental_uris": {"ios": "https://dc.lft.to/lastmile_qr_scan", "android": "https://dc.lft.to/lastmile_qr_scan"}, "is_reserved": 0, "lon": -77.02218066666667, "fusion_lat": 0.0, "name": "9030172458c29ff7fa416e124e7f1f01"}, {"type": "electric_scooter", "fusion_lon": 0.0, "bike_id": "364d661cea86099be178335504e1edec", "is_disabled": 0, "lat": 38.8640935, "rental_uris": {"ios": "https://dc.lft.to/lastmile_qr_scan", "android": "https://dc.lft.to/lastmile_qr_scan"}, "is_reserved": 0, "lon": -77.013489, "fusion_lat": 0.0, "name": "364d661cea86099be178335504e1edec"}, {"type": "electric_scooter", "fusion_lon": 0.0, "bike_id": "551b8af5fdf12ddd30d4b9dfc1221b9a", "is_disabled": 0, "lat": 38.890401833333335, "rental_uris": {"ios": "https://dc.lft.to/lastmile_qr_scan", "android": "https://dc.lft.to/lastmile_qr_scan"}, "is_reserved": 0, "lon": -76.93761833333333, "fusion_lat": 0.0, "name": "551b8af5fdf12ddd30d4b9dfc1221b9a"}, {"type": "electric_scooter", "fusion_lon": 0.0, "bike_id": "3156dc18a3a8b2eeed248eb5a8498668", "is_disabled": 0, "lat": 38.896089833333335, "rental_uris": {"ios": "https://dc.lft.to/lastmile_qr_scan", "android": "https://dc.lft.to/lastmile_qr_scan"}, "is_reserved": 0, "lon": -76.98096666666666, "fusion_lat": 0.0, "name": "3156dc18a3a8b2eeed248eb5a8498668"}, {"type": "electric_scooter", "fusion_lon": 0.0, "bike_id": "d827af0d60ad894ed771a37f1aff8a81", "is_disabled": 0, "lat": 38.9177575, "rental_uris": {"ios": "https://dc.lft.to/lastmile_qr_scan", "android": "https://dc.lft.to/lastmile_qr_scan"}, "is_reserved": 0, "lon": -77.023049, "fusion_lat": 0.0, "name": "d827af0d60ad894ed771a37f1aff8a81"}, {"type": "electric_scooter", "fusion_lon": 0.0, "bike_id": "a46fcf5db98650c8f6e54f59cf8b6637", "is_disabled": 0, "lat": 38.911072, "rental_uris": {"ios": "https://dc.lft.to/lastmile_qr_scan", "android": "https://dc.lft.to/lastmile_qr_scan"}, "is_reserved": 0, "lon": -77.04468683333333, "fusion_lat": 0.0, "name": "a46fcf5db98650c8f6e54f59cf8b6637"}, {"type": "electric_scooter", "fusion_lon": 0.0, "bike_id": "aeffb8f3d236213eef161ba1830607f6", "is_disabled": 0, "lat": 38.87786116666667, "rental_uris": {"ios": "https://dc.lft.to/lastmile_qr_scan", "android": "https://dc.lft.to/lastmile_qr_scan"}, "is_reserved": 0, "lon": -76.99409916666667, "fusion_lat": 0.0, "name": "aeffb8f3d236213eef161ba1830607f6"}, {"type": "electric_scooter", "fusion_lon": 0.0, "bike_id": "d054e2f6e5e4c3fd56e6dc8e8a0011b8", "is_disabled": 0, "lat": 38.9004385, "rental_uris": {"ios": "https://dc.lft.to/lastmile_qr_scan", "android": "https://dc.lft.to/lastmile_qr_scan"}, "is_reserved": 0, "lon": -77.024158, "fusion_lat": 0.0, "name": "d054e2f6e5e4c3fd56e6dc8e8a0011b8"}, {"type": "electric_scooter", "fusion_lon": 0.0, "bike_id": "74e7e4bfde3c29ca67e41e4431670e8d", "is_disabled": 0, "lat": 38.908522, "rental_uris": {"ios": "https://dc.lft.to/lastmile_qr_scan", "android": "https://dc.lft.to/lastmile_qr_scan"}, "is_reserved": 0, "lon": -76.99682766666666, "fusion_lat": 0.0, "name": "74e7e4bfde3c29ca67e41e4431670e8d"}, {"type": "electric_bike", "fusion_lon": 0.0, "bike_id": "397203c195fdba0418e7abe9cfb08e73", "is_disabled": 0, "lat": 38.92213666666667, "rental_uris": {"ios": "https://dc.lft.to/lastmile_qr_scan", "android": "https://dc.lft.to/lastmile_qr_scan"}, "is_reserved": 0, "lon": -77.081917, "fusion_lat": 0.0, "name": "397203c195fdba0418e7abe9cfb08e73"}, {"type": "electric_scooter", "fusion_lon": 0.0, "bike_id": "fde15637413f0e6279d012adae373f4f", "is_disabled": 0, "lat": 38.9056765, "rental_uris": {"ios": "https://dc.lft.to/lastmile_qr_scan", "android": "https://dc.lft.to/lastmile_qr_scan"}, "is_reserved": 0, "lon": -77.04609966666666, "fusion_lat": 0.0, "name": "fde15637413f0e6279d012adae373f4f"}, {"type": "electric_scooter", "fusion_lon": 0.0, "bike_id": "4f40474b6769e944c42babcb1ffb479e", "is_disabled": 0, "lat": 38.8834115, "rental_uris": {"ios": "https://dc.lft.to/lastmile_qr_scan", "android": "https://dc.lft.to/lastmile_qr_scan"}, "is_reserved": 0, "lon": -76.99503916666667, "fusion_lat": 0.0, "name": "4f40474b6769e944c42babcb1ffb479e"}, {"type": "electric_scooter", "fusion_lon": 0.0, "bike_id": "4adb53e87de766b096469be44d9ab635", "is_disabled": 0, "lat": 38.908478, "rental_uris": {"ios": "https://dc.lft.to/lastmile_qr_scan", "android": "https://dc.lft.to/lastmile_qr_scan"}, "is_reserved": 0, "lon": -77.03441883333333, "fusion_lat": 0.0, "name": "4adb53e87de766b096469be44d9ab635"}, {"type": "electric_scooter", "fusion_lon": 0.0, "bike_id": "31a58d9c499a0df2b46961c3356e8b80", "is_disabled": 0, "lat": 38.9176595, "rental_uris": {"ios": "https://dc.lft.to/lastmile_qr_scan", "android": "https://dc.lft.to/lastmile_qr_scan"}, "is_reserved": 0, "lon": -77.02343066666667, "fusion_lat": 0.0, "name": "31a58d9c499a0df2b46961c3356e8b80"}, {"type": "electric_bike", "fusion_lon": 0.0, "bike_id": "65078df8170300e53c5272c5aaedec28", "is_disabled": 0, "lat": 38.856177833333334, "rental_uris": {"ios": "https://dc.lft.to/lastmile_qr_scan", "android": "https://dc.lft.to/lastmile_qr_scan"}, "is_reserved": 0, "lon": -77.1117495, "fusion_lat": 0.0, "name": "65078df8170300e53c5272c5aaedec28"}, {"type": "electric_scooter", "fusion_lon": 0.0, "bike_id": "911d90cf3723163a11eb0c4d809604e8", "is_disabled": 0, "lat": 38.876708, "rental_uris": {"ios": "https://dc.lft.to/lastmile_qr_scan", "android": "https://dc.lft.to/lastmile_qr_scan"}, "is_reserved": 0, "lon": -77.00931983333334, "fusion_lat": 0.0, "name": "911d90cf3723163a11eb0c4d809604e8"}, {"type": "electric_scooter", "fusion_lon": 0.0, "bike_id": "d35751af315c5a9c9e708716622eeaef", "is_disabled": 0, "lat": 38.91719116666667, "rental_uris": {"ios": "https://dc.lft.to/lastmile_qr_scan", "android": "https://dc.lft.to/lastmile_qr_scan"}, "is_reserved": 0, "lon": -77.0239885, "fusion_lat": 0.0, "name": "d35751af315c5a9c9e708716622eeaef"}, {"type": "electric_scooter", "fusion_lon": 0.0, "bike_id": "649bb620472aff0aaea81e9533e8f605", "is_disabled": 0, "lat": 38.9026735, "rental_uris": {"ios": "https://dc.lft.to/lastmile_qr_scan", "android": "https://dc.lft.to/lastmile_qr_scan"}, "is_reserved": 0, "lon": -77.04578, "fusion_lat": 0.0, "name": "649bb620472aff0aaea81e9533e8f605"}, {"type": "electric_bike", "fusion_lon": 0.0, "bike_id": "a89e4dd7bbd585cbf5e4ebdfb2cdb543", "is_disabled": 0, "lat": 38.91036166666667, "rental_uris": {"ios": "https://dc.lft.to/lastmile_qr_scan", "android": "https://dc.lft.to/lastmile_qr_scan"}, "is_reserved": 0, "lon": -77.07552833333334, "fusion_lat": 0.0, "name": "a89e4dd7bbd585cbf5e4ebdfb2cdb543"}, {"type": "electric_scooter", "fusion_lon": 0.0, "bike_id": "e3926b3073e31e05815c1623d5f423f5", "is_disabled": 0, "lat": 38.895497666666664, "rental_uris": {"ios": "https://dc.lft.to/lastmile_qr_scan", "android": "https://dc.lft.to/lastmile_qr_scan"}, "is_reserved": 0, "lon": -77.04679633333333, "fusion_lat": 0.0, "name": "e3926b3073e31e05815c1623d5f423f5"}, {"type": "electric_bike", "fusion_lon": 0.0, "bike_id": "02d217b609becfaedb448c75514fd854", "is_disabled": 0, "lat": 38.862317166666664, "rental_uris": {"ios": "https://dc.lft.to/lastmile_qr_scan", "android": "https://dc.lft.to/lastmile_qr_scan"}, "is_reserved": 0, "lon": -76.99585816666666, "fusion_lat": 0.0, "name": "02d217b609becfaedb448c75514fd854"}, {"type": "electric_scooter", "fusion_lon": 0.0, "bike_id": "c1261a7e77c734af56cfcf5f3389ec0b", "is_disabled": 0, "lat": 38.90822333333333, "rental_uris": {"ios": "https://dc.lft.to/lastmile_qr_scan", "android": "https://dc.lft.to/lastmile_qr_scan"}, "is_reserved": 0, "lon": -77.03466516666667, "fusion_lat": 0.0, "name": "c1261a7e77c734af56cfcf5f3389ec0b"}, {"type": "electric_scooter", "fusion_lon": 0.0, "bike_id": "97b974b5d729166f10bdfb52b44fa00b", "is_disabled": 0, "lat": 38.92182, "rental_uris": {"ios": "https://dc.lft.to/lastmile_qr_scan", "android": "https://dc.lft.to/lastmile_qr_scan"}, "is_reserved": 0, "lon": -76.99854033333334, "fusion_lat": 0.0, "name": "97b974b5d729166f10bdfb52b44fa00b"}, {"type": "electric_scooter", "fusion_lon": 0.0, "bike_id": "608b593ae684ca99d004786f86d47f57", "is_disabled": 0, "lat": 38.9046605, "rental_uris": {"ios": "https://dc.lft.to/lastmile_qr_scan", "android": "https://dc.lft.to/lastmile_qr_scan"}, "is_reserved": 0, "lon": -77.03562633333334, "fusion_lat": 0.0, "name": "608b593ae684ca99d004786f86d47f57"}, {"type": "electric_scooter", "fusion_lon": 0.0, "bike_id": "2a5341cb336533fa8e25301953b72c4c", "is_disabled": 0, "lat": 38.905367, "rental_uris": {"ios": "https://dc.lft.to/lastmile_qr_scan", "android": "https://dc.lft.to/lastmile_qr_scan"}, "is_reserved": 0, "lon": -77.04952366666667, "fusion_lat": 0.0, "name": "2a5341cb336533fa8e25301953b72c4c"}, {"type": "electric_scooter", "fusion_lon": 0.0, "bike_id": "5def2dde62c4b143a5601f9e1a50402b", "is_disabled": 0, "lat": 38.93394883333333, "rental_uris": {"ios": "https://dc.lft.to/lastmile_qr_scan", "android": "https://dc.lft.to/lastmile_qr_scan"}, "is_reserved": 0, "lon": -77.04539933333334, "fusion_lat": 0.0, "name": "5def2dde62c4b143a5601f9e1a50402b"}, {"type": "electric_scooter", "fusion_lon": 0.0, "bike_id": "c4e0b6a306ab2fd79255c032299d4a79", "is_disabled": 0, "lat": 38.90349233333333, "rental_uris": {"ios": "https://dc.lft.to/lastmile_qr_scan", "android": "https://dc.lft.to/lastmile_qr_scan"}, "is_reserved": 0, "lon": -77.03454366666666, "fusion_lat": 0.0, "name": "c4e0b6a306ab2fd79255c032299d4a79"}, {"type": "electric_scooter", "fusion_lon": 0.0, "bike_id": "13ac03672249f88cadef0f9bd2d11940", "is_disabled": 0, "lat": 38.94451083333333, "rental_uris": {"ios": "https://dc.lft.to/lastmile_qr_scan", "android": "https://dc.lft.to/lastmile_qr_scan"}, "is_reserved": 0, "lon": -77.02801816666667, "fusion_lat": 0.0, "name": "13ac03672249f88cadef0f9bd2d11940"}, {"type": "electric_scooter", "fusion_lon": 0.0, "bike_id": "efa6ae92d704d73a43dd79b4a3627b4a", "is_disabled": 0, "lat": 38.90372033333333, "rental_uris": {"ios": "https://dc.lft.to/lastmile_qr_scan", "android": "https://dc.lft.to/lastmile_qr_scan"}, "is_reserved": 0, "lon": -77.0435765, "fusion_lat": 0.0, "name": "efa6ae92d704d73a43dd79b4a3627b4a"}, {"type": "electric_scooter", "fusion_lon": 0.0, "bike_id": "f5c73aa71b1b14f4bd16403e18dda0b9", "is_disabled": 0, "lat": 38.8919865, "rental_uris": {"ios": "https://dc.lft.to/lastmile_qr_scan", "android": "https://dc.lft.to/lastmile_qr_scan"}, "is_reserved": 0, "lon": -77.023755, "fusion_lat": 0.0, "name": "f5c73aa71b1b14f4bd16403e18dda0b9"}, {"type": "electric_scooter", "fusion_lon": 0.0, "bike_id": "1419fa858d9487535b2d47dd671aa1d1", "is_disabled": 0, "lat": 38.877158333333334, "rental_uris": {"ios": "https://dc.lft.to/lastmile_qr_scan", "android": "https://dc.lft.to/lastmile_qr_scan"}, "is_reserved": 0, "lon": -77.01761616666667, "fusion_lat": 0.0, "name": "1419fa858d9487535b2d47dd671aa1d1"}, {"type": "electric_scooter", "fusion_lon": 0.0, "bike_id": "02bd1d4aa0297263e05ec99b007301a0", "is_disabled": 0, "lat": 38.9248025, "rental_uris": {"ios": "https://dc.lft.to/lastmile_qr_scan", "android": "https://dc.lft.to/lastmile_qr_scan"}, "is_reserved": 0, "lon": -77.02549633333334, "fusion_lat": 0.0, "name": "02bd1d4aa0297263e05ec99b007301a0"},