{"data": {"bikes": [{"type": "electric_scooter", "name": "978745bf96dbfab4461e7254298c8566", "rental_uris": {"ios": "https://dc.lft.to/lastmile_qr_scan", "android": "https://dc.lft.to/lastmile_qr_scan"}, "fusion_lon": 0.0, "lat": 38.94189333333333, "is_disabled": 0, "bike_id": "978745bf96dbfab4461e7254298c8566", "fusion_lat": 0.0, "is_reserved": 0, "lon": -77.03840183333334}, {"type": "electric_scooter", "name": "a47c06c1a5dfc6dc149cdcf621f7b14c", "rental_uris": {"ios": "https://dc.lft.to/lastmile_qr_scan", "android": "https://dc.lft.to/lastmile_qr_scan"}, "fusion_lon": 0.0, "lat": 38.897103666666666, "is_disabled": 0, "bike_id": "a47c06c1a5dfc6dc149cdcf621f7b14c", "fusion_lat": 0.0, "is_reserved": 0, "lon": -77.0083945}, {"type": "electric_scooter", "name": "04022493013d0d5691642bba43b2b888", "rental_uris": {"ios": "https://dc.lft.to/lastmile_qr_scan", "android": "https://dc.lft.to/lastmile_qr_scan"}, "fusion_lon": 0.0, "lat": 38.8987925, "is_disabled": 0, "bike_id": "04022493013d0d5691642bba43b2b888", "fusion_lat": 0.0, "is_reserved": 0, "lon": -77.0528155}, {"type": "electric_scooter", "name": "0c722cfe929aff2c6f1f60245b88ae50", "rental_uris": {"ios": "https://dc.lft.to/lastmile_qr_scan", "android": "https://dc.lft.to/lastmile_qr_scan"}, "fusion_lon": 0.0, "lat": 38.89601366666667, "is_disabled": 0, "bike_id": "0c722cfe929aff2c6f1f60245b88ae50", "fusion_lat": 0.0, "is_reserved": 0, "lon": -77.021605}, {"type": "electric_scooter", "name": "c4e14fdaa893cd7633c546887daf59e0", "rental_uris": {"ios": "https://dc.lft.to/lastmile_qr_scan", "android": "https://dc.lft.to/lastmile_qr_scan"}, "fusion_lon": 0.0, "lat": 38.91428966666667, "is_disabled": 0, "bike_id": "c4e14fdaa893cd7633c546887daf59e0", "fusion_lat": 0.0, "is_reserved": 0, "lon": -77.0321155}, {"type": "electric_scooter", "name": "6bb8201c2d27742a9fa9d55f38b89650", "rental_uris": {"ios": "https://dc.lft.to/lastmile_qr_scan", "android": "https://dc.lft.to/lastmile_qr_scan"}, "fusion_lon": 0.0, "lat": 38.904172, "is_disabled": 0, "bike_id": "6bb8201c2d27742a9fa9d55f38b89650", "fusion_lat": 0.0, "is_reserved": 0, "lon": -76.99284666666667}, {"type": "electric_scooter", "name": "8c1a5b4a21b387d2fec66df409d858ba", "rental_uris": {"ios": "https://dc.lft.to/lastmile_qr_scan", "android": "https://dc.lft.to/lastmile_qr_scan"}, "fusion_lon": 0.0, "lat": 38.918234166666664, "is_disabled": 0, "bike_id": "8c1a5b4a21b387d2fec66df409d858ba", "fusion_lat": 0.0, "is_reserved": 0, "lon": -77.01212266666667}, {"type": "electric_scooter", "name": "2d605047761e255001267fd3e11ff850", "rental_uris": {"ios": "https://dc.lft.to/lastmile_qr_scan", "android": "https://dc.lft.to/lastmile_qr_scan"}, "fusion_lon": 0.0, "lat": 38.92252766666667, "is_disabled": 0, "bike_id": "2d605047761e255001267fd3e11ff850", "fusion_lat": 0.0, "is_reserved": 0, "lon": -77.04255083333334}, {"type": "electric_scooter", "name": "575d480303b657318ef4d0c74f9c7a31", "rental_uris": {"ios": "https://dc.lft.to/lastmile_qr_scan", "android": "https://dc.lft.to/lastmile_qr_scan"}, "fusion_lon": 0.0, "lat": 38.89540566666667, "is_disabled": 0, "bike_id": "575d480303b657318ef4d0c74f9c7a31", "fusion_lat": 0.0, "is_reserved": 0, "lon": -76.98209783333333}, {"type": "electric_scooter", "name": "369b4715d11ff750052415bb2d0ff3f2", "rental_uris": {"ios": "https://dc.lft.to/lastmile_qr_scan", "android": "https://dc.lft.to/lastmile_qr_scan"}, "fusion_lon": 0.0, "lat": 38.90973533333333, "is_disabled": 0, "bike_id": "369b4715d11ff750052415bb2d0ff3f2", "fusion_lat": 0.0, "is_reserved": 0, "lon": -77.03215766666666}, {"type": "electric_scooter", "name": "dc95d0f4fddbb4e0acb5ac7d2c9a23ec", "rental_uris": {"ios": "https://dc.lft.to/lastmile_qr_scan", "android": "https://dc.lft.to/lastmile_qr_scan"}, "fusion_lon": 0.0, "lat": 38.915006, "is_disabled": 0, "bike_id": "dc95d0f4fddbb4e0acb5ac7d2c9a23ec", "fusion_lat": 0.0, "is_reserved": 0, "lon": -77.02659283333334}, {"type": "electric_scooter", "name": "3a486f9f7bbb175c224bd749cc2566ee", "rental_uris": {"ios": "https://dc.lft.to/lastmile_qr_scan", "android": "https://dc.lft.to/lastmile_qr_scan"}, "fusion_lon": 0.0, "lat": 38.91750066666667, "is_disabled": 0, "bike_id": "3a486f9f7bbb175c224bd749cc2566ee", "fusion_lat": 0.0, "is_reserved": 0, "lon": -77.0144775}, {"type": "electric_scooter", "name": "c018070f59ebdc2c25cc1e6393178e06", "rental_uris": {"ios": "https://dc.lft.to/lastmile_qr_scan", "android": "https://dc.lft.to/lastmile_qr_scan"}, "fusion_lon": 0.0, "lat": 38.90256383333333, "is_disabled": 0, "bike_id": "c018070f59ebdc2c25cc1e6393178e06", "fusion_lat": 0.0, "is_reserved": 0, "lon": -77.00888433333333}, {"type": "electric_scooter", "name": "c1ff4f458409176d41f60565227e42b6", "rental_uris": {"ios": "https://dc.lft.to/lastmile_qr_scan", "android": "https://dc.lft.to/lastmile_qr_scan"}, "fusion_lon": 0.0, "lat": 38.907926833333335, "is_disabled": 0, "bike_id": "c1ff4f458409176d41f60565227e42b6", "fusion_lat": 0.0, "is_reserved": 0, "lon": -77.06441966666667}, {"type": "electric_scooter", "name": "a2b46210cf2ddaeef800745026473741", "rental_uris": {"ios": "https://dc.lft.to/lastmile_qr_scan", "android": "https://dc.lft.to/lastmile_qr_scan"}, "fusion_lon": 0.0, "lat": 38.89223616666666, "is_disabled": 0, "bike_id": "a2b46210cf2ddaeef800745026473741", "fusion_lat": 0.0, "is_reserved": 0, "lon": -77.04378916666667}, {"type": "electric_scooter", "name": "487d9da6707583e992e1323d92974a92", "rental_uris": {"ios": "https://dc.lft.to/lastmile_qr_scan", "android": "https://dc.lft.to/lastmile_qr_scan"}, "fusion_lon": 0.0, "lat": 38.920575666666664, "is_disabled": 0, "bike_id": "487d9da6707583e992e1323d92974a92", "fusion_lat": 0.0, "is_reserved": 0, "lon": -77.023848}, {"type": "electric_scooter", "name": "fee498bf44faccf238992d3a946300d9", "rental_uris": {"ios": "https://dc.lft.to/lastmile_qr_scan", "android": "https://dc.lft.to/lastmile_qr_scan"}, "fusion_lon": 0.0, "lat": 38.928304, "is_disabled": 0, "bike_id": "fee498bf44faccf238992d3a946300d9", "fusion_lat": 0.0, "is_reserved": 0, "lon": -77.05441466666667}, {"type": "electric_scooter", "name": "4d1cbe955ef4c8dbaa2ba089d604cfd2", "rental_uris": {"ios": "https://dc.lft.to/lastmile_qr_scan", "android": "https://dc.lft.to/lastmile_qr_scan"}, "fusion_lon": 0.0, "lat": 38.94966466666666, "is_disabled": 0, "bike_id": "4d1cbe955ef4c8dbaa2ba089d604cfd2", "fusion_lat": 0.0, "is_reserved": 0, "lon": -77.0660995}, {"type": "electric_scooter", "name": "29ae43a6d680f46f2bf38d676f77ebac", "rental_uris": {"ios": "https://dc.lft.to/lastmile_qr_scan", "android": "https://dc.lft.to/lastmile_qr_scan"}, "fusion_lon": 0.0, "lat": 38.93532283333333, "is_disabled": 0, "bike_id": "29ae43a6d680f46f2bf38d676f77ebac", "fusion_lat": 0.0, "is_reserved": 0, "lon": -77.02355183333333}, {"type": "electric_scooter", "name": "42ce6716b538d6616ff7a421eab69523", "rental_uris": {"ios": "https://dc.lft.to/lastmile_qr_scan", "android": "https://dc.lft.to/lastmile_qr_scan"}, "fusion_lon": 0.0, "lat": 38.90240466666667, "is_disabled": 0, "bike_id": "42ce6716b538d6616ff7a421eab69523", "fusion_lat": 0.0, "is_reserved": 0, "lon": -77.05334916666666}, {"type": "electric_scooter", "name": "b62586b01c96aec7fe9c8d175a5ed8ff", "rental_uris": {"ios": "https://dc.lft.to/lastmile_qr_scan", "android": "https://dc.lft.to/lastmile_qr_scan"}, "fusion_lon": 0.0, "lat": 38.9287565, "is_disabled": 0, "bike_id": "b62586b01c96aec7fe9c8d175a5ed8ff", "fusion_lat": 0.0, "is_reserved": 0, "lon": -77.03498683333333}, {"type": "electric_scooter", "name": "4783ad89555c7ed036205325e64a2559", "rental_uris": {"ios": "https://dc.lft.to/lastmile_qr_scan", "android": "https://dc.lft.to/lastmile_qr_scan"}, "fusion_lon": 0.0, "lat": 38.90692266666667, "is_disabled": 0, "bike_id": "4783ad89555c7ed036205325e64a2559", "fusion_lat": 0.0, "is_reserved": 0, "lon": -77.0380705}, {"type": "electric_scooter", "name": "a4b5484854c4927c0916fc9f9076e3f5", "rental_uris": {"ios": "https://dc.lft.to/lastmile_qr_scan", "android": "https://dc.lft.to/lastmile_qr_scan"}, "fusion_lon": 0.0, "lat": 38.8571605, "is_disabled": 0, "bike_id": "a4b5484854c4927c0916fc9f9076e3f5", "fusion_lat": 0.0, "is_reserved": 0, "lon": -76.98101583333333}, {"type": "electric_bike", "name": "a8961139ec8181df7463e6a16a5437c6", "rental_uris": {"ios": "https://dc.lft.to/lastmile_qr_scan", "android": "https://dc.lft.to/lastmile_qr_scan"}, "fusion_lon": 0.0, "lat": 38.883981166666665, "is_disabled": 0, "bike_id": "a8961139ec8181df7463e6a16a5437c6", "fusion_lat": 0.0, "is_reserved": 0, "lon": -76.96056616666667}, {"type": "electric_scooter", "name": "81b6feff038305e9875264b3f8736788", "rental_uris": {"ios": "https://dc.lft.to/lastmile_qr_scan", "android": "https://dc.lft.to/lastmile_qr_scan"}, "fusion_lon": 0.0, "lat": 38.8961525, "is_disabled": 0, "bike_id": "81b6feff038305e9875264b3f8736788", "fusion_lat": 0.0, "is_reserved": 0, "lon": -77.0214735}, {"type": "electric_scooter", "name": "d67717a7bd84ea1816f9a5c9685e1137", "rental_uris": {"ios": "https://dc.lft.to/lastmile_qr_scan", "android": "https://dc.lft.to/lastmile_qr_scan"}, "fusion_lon": 0.0, "lat": 38.89621183333333, "is_disabled": 0, "bike_id": "d67717a7bd84ea1816f9a5c9685e1137", "fusion_lat": 0.0, "is_reserved": 0, "lon": -77.00913383333334}, {"type": "electric_scooter", "name": "9a6bc22294051a0ef609efca6eca8086", "rental_uris": {"ios": "https://dc.lft.to/lastmile_qr_scan", "android": "https://dc.lft.to/lastmile_qr_scan"}, "fusion_lon": 0.0, "lat": 38.863895666666664, "is_disabled": 0, "bike_id": "9a6bc22294051a0ef609efca6eca8086", "fusion_lat": 0.0, "is_reserved": 0, "lon": -76.99039983333333}, {"type": "electric_scooter", "name": "1377888b48537a256e71694ee793ac5b", "rental_uris": {"ios": "https://dc.lft.to/lastmile_qr_scan", "android": "https://dc.lft.to/lastmile_qr_scan"}, "fusion_lon": 0.0, "lat": 38.9025185, "is_disabled": 0, "bike_id": "1377888b48537a256e71694ee793ac5b", "fusion_lat": 0.0, "is_reserved": 0, "lon": -77.02481983333334}, {"type": "electric_scooter", "name": "f0552b6f067505be02dcc824596ac98d", "rental_uris": {"ios": "https://dc.lft.to/lastmile_qr_scan", "android": "https://dc.lft.to/lastmile_qr_scan"}, "fusion_lon": 0.0, "lat": 38.90957, "is_disabled": 0, "bike_id": "f0552b6f067505be02dcc824596ac98d", "fusion_lat": 0.0, "is_reserved": 0, "lon": -77.0644405}, {"type": "electric_scooter", "name": "68e955c76d22015e4b7d6a5917cda493", "rental_uris": {"ios": "https://dc.lft.to/lastmile_qr_scan", "android": "https://dc.lft.to/lastmile_qr_scan"}, "fusion_lon": 0.0, "lat": 38.912652, "is_disabled": 0, "bike_id": "68e955c76d22015e4b7d6a5917cda493", "fusion_lat": 0.0, "is_reserved": 0, "lon": -77.0474205}, {"type": "electric_scooter", "name": "e7b0bd3852500815b4fae83380b6b515", "rental_uris": {"ios": "https://dc.lft.to/lastmile_qr_scan", "android": "https://dc.lft.to/lastmile_qr_scan"}, "fusion_lon": 0.0, "lat": 38.89728933333333, "is_disabled": 0, "bike_id": "e7b0bd3852500815b4fae83380b6b515", "fusion_lat": 0.0, "is_reserved": 0, "lon": -76.94703166666666}, {"type": "electric_scooter", "name": "f94b6dfd1be7dcb83b7dd7a44c33f473", "rental_uris": {"ios": "https://dc.lft.to/lastmile_qr_scan", "android": "https://dc.lft.to/lastmile_qr_scan"}, "fusion_lon": 0.0, "lat": 38.8984355, "is_disabled": 0, "bike_id": "f94b6dfd1be7dcb83b7dd7a44c33f473", "fusion_lat": 0.0, "is_reserved": 0, "lon": -77.01337583333333}, {"type": "electric_scooter", "name": "a9e04150ea6301c4fa1b8c2405776972", "rental_uris": {"ios": "https://dc.lft.to/lastmile_qr_scan", "android": "https://dc.lft.to/lastmile_qr_scan"}, "fusion_lon": 0.0, "lat": 38.92512816666667, "is_disabled": 0, "bike_id": "a9e04150ea6301c4fa1b8c2405776972", "fusion_lat": 0.0, "is_reserved": 0, "lon": -77.02288333333334}, {"type": "electric_scooter", "name": "eda84244700c8f45c639bd2733f1daaa", "rental_uris": {"ios": "https://dc.lft.to/lastmile_qr_scan", "android": "https://dc.lft.to/lastmile_qr_scan"}, "fusion_lon": 0.0, "lat": 38.9206175, "is_disabled": 0, "bike_id": "eda84244700c8f45c639bd2733f1daaa", "fusion_lat": 0.0, "is_reserved": 0, "lon": -77.0422535}, {"type": "electric_scooter", "name": "296d144b1001af71076d3935e541c33c", "rental_uris": {"ios": "https://dc.lft.to/lastmile_qr_scan", "android": "https://dc.lft.to/lastmile_qr_scan"}, "fusion_lon": 0.0, "lat": 38.9057045, "is_disabled": 0, "bike_id": "296d144b1001af71076d3935e541c33c", "fusion_lat": 0.0, "is_reserved": 0, "lon": -77.0401395}, {"type": "electric_bike", "name": "2243530cb3d2ae672e2addce2f49b284", "rental_uris": {"ios": "https://dc.lft.to/lastmile_qr_scan", "android": "https://dc.lft.to/lastmile_qr_scan"}, "fusion_lon": 0.0, "lat": 38.952161833333335, "is_disabled": 0, "bike_id": "2243530cb3d2ae672e2addce2f49b284", "fusion_lat": 0.0, "is_reserved": 0, "lon": -77.06975383333334}, {"type": "electric_scooter", "name": "1ecd6f7c9af4c0ebb8ed3899cd305e97", "rental_uris": {"ios": "https://dc.lft.to/lastmile_qr_scan", "android": "https://dc.lft.to/lastmile_qr_scan"}, "fusion_lon": 0.0, "lat": 38.895324333333335, "is_disabled": 0, "bike_id": "1ecd6f7c9af4c0ebb8ed3899cd305e97", "fusion_lat": 0.0, "is_reserved": 0, "lon": -76.94891983333333}, {"type": "electric_scooter", "name": "6e24e6d57b38ab8c177283b47538bb3c", "rental_uris": {"ios": "https://dc.lft.to/lastmile_qr_scan", "android": "https://dc.lft.to/lastmile_qr_scan"}, "fusion_lon": 0.0, "lat": 38.92470933333333, "is_disabled": 0, "bike_id": "6e24e6d57b38ab8c177283b47538bb3c", "fusion_lat": 0.0, "is_reserved": 0, "lon": -77.022033}, {"type": "electric_scooter", "name": "779c02ec629ec88d888c3819864b1d38", "rental_uris": {"ios": "https://dc.lft.to/lastmile_qr_scan", "android": "https://dc.lft.to/lastmile_qr_scan"}, "fusion_lon": 0.0, "lat": 38.929247, "is_disabled": 0, "bike_id": "779c02ec629ec88d888c3819864b1d38", "fusion_lat": 0.0, "is_reserved": 0, "lon": -77.020406}, {"type": "electric_scooter", "name": "d43b189784f51fb16172b2b9d15fb6a7", "rental_uris": {"ios": "https://dc.lft.to/lastmile_qr_scan", "android": "https://dc.lft.to/lastmile_qr_scan"}, "fusion_lon": 0.0, "lat": 38.922475666666664, "is_disabled": 0, "bike_id": "d43b189784f51fb16172b2b9d15fb6a7", "fusion_lat": 0.0, "is_reserved": 0, "lon": -77.03009916666667}, {"type": "electric_scooter", "name": "afa745383f0940dd6eb42f86a95fe95a", "rental_uris": {"ios": "https://dc.lft.to/lastmile_qr_scan", "android": "https://dc.lft.to/lastmile_qr_scan"}, "fusion_lon": 0.0, "lat": 38.88425083333333, "is_disabled": 0, "bike_id": "afa745383f0940dd6eb42f86a95fe95a", "fusion_lat": 0.0, "is_reserved": 0, "lon": -76.9575855}, {"type": "electric_scooter", "name": "eb0bc07efcd6d05d2629e3c95ef9b3ef", "rental_uris": {"ios": "https://dc.lft.to/lastmile_qr_scan", "android": "https://dc.lft.to/lastmile_qr_scan"}, "fusion_lon": 0.0, "lat": 38.91710833333333, "is_disabled": 0, "bike_id": "eb0bc07efcd6d05d2629e3c95ef9b3ef", "fusion_lat": 0.0, "is_reserved": 0, "lon": -77.03174083333333}, {"type": "electric_scooter", "name": "129f891d77c5b523f6f95cea7e5540a7", "rental_uris": {"ios": "https://dc.lft.to/lastmile_qr_scan", "android": "https://dc.lft.to/lastmile_qr_scan"}, "fusion_lon": 0.0, "lat": 38.90696883333333, "is_disabled": 0, "bike_id": "129f891d77c5b523f6f95cea7e5540a7", "fusion_lat": 0.0, "is_reserved": 0, "lon": -77.05639666666667}, {"type": "electric_scooter", "name": "9907de56cf968890d95b7b8ee63b88b2", "rental_uris": {"ios": "https://dc.lft.to/lastmile_qr_scan", "android": "https://dc.lft.to/lastmile_qr_scan"}, "fusion_lon": 0.0, "lat": 38.90676833333333, "is_disabled": 0, "bike_id": "9907de56cf968890d95b7b8ee63b88b2", "fusion_lat": 0.0, "is_reserved": 0, "lon": -77.07090916666667}, {"type": "electric_scooter", "name": "23e436c78d8b2287e94a064104613509", "rental_uris": {"ios": "https://dc.lft.to/lastmile_qr_scan", "android": "https://dc.lft.to/lastmile_qr_scan"}, "fusion_lon": 0.0, "lat": 38.927082666666664, "is_disabled": 0, "bike_id": "23e436c78d8b2287e94a064104613509", "fusion_lat": 0.0, "is_reserved": 0, "lon": -77.024342}, {"type": "electric_scooter", "name": "d15781ade77236ed68f719889dc044ad", "rental_uris": {"ios": "https://dc.lft.to/lastmile_qr_scan", "android": "https://dc.lft.to/lastmile_qr_scan"}, "fusion_lon": 0.0, "lat": 38.92314016666667, "is_disabled": 0, "bike_id": "d15781ade77236ed68f719889dc044ad", "fusion_lat": 0.0, "is_reserved": 0, "lon": -77.045168}, {"type": "electric_scooter", "name": "e1c9d3978fed38bfb548cc9f605bf5c8", "rental_uris": {"ios": "https://dc.lft.to/lastmile_qr_scan", "android": "https://dc.lft.to/lastmile_qr_scan"}, "fusion_lon": 0.0, "lat": 38.905814666666664, "is_disabled": 0, "bike_id": "e1c9d3978fed38bfb548cc9f605bf5c8", "fusion_lat": 0.0, "is_reserved": 0, "lon": -77.00393666666666}, {"type": "electric_scooter", "name": "51c1b3a8f6a0e9f5f28e6d92aa203bee", "rental_uris": {"ios": "https://dc.lft.to/lastmile_qr_scan", "android": "https://dc.lft.to/lastmile_qr_scan"}, "fusion_lon": 0.0, "lat": 38.87835583333333, "is_disabled": 0, "bike_id": "51c1b3a8f6a0e9f5f28e6d92aa203bee", "fusion_lat": 0.0, "is_reserved": 0, "lon": -76.99031816666667}, {"type": "electric_scooter", "name": "7741de485d4bbf6973d40ef2e9f862fd", "rental_uris": {"ios": "https://dc.lft.to/lastmile_qr_scan", "android": "https://dc.lft.to/lastmile_qr_scan"}, "fusion_lon": 0.0, "lat": 38.843202, "is_disabled": 0, "bike_id": "7741de485d4bbf6973d40ef2e9f862fd", "fusion_lat": 0.0, "is_reserved": 0, "lon": -76.99947716666667}, {"type": "electric_scooter", "name": "1c3ef438692f5f2b6a23093b3a72a83b", "rental_uris": {"ios": "https://dc.lft.to/lastmile_qr_scan", "android": "https://dc.lft.to/lastmile_qr_scan"}, "fusion_lon": 0.0, "lat": 38.8848625, "is_disabled": 0, "bike_id": "1c3ef438692f5f2b6a23093b3a72a83b", "fusion_lat": 0.0, "is_reserved": 0, "lon": -76.956529}, {"type": "electric_bike", "name": "aa826c31f2fec33ff1a21c0d524750aa", "rental_uris": {"ios": "https://dc.lft.to/lastmile_qr_scan", "android": "https://dc.lft.to/lastmile_qr_scan"}, "fusion_lon": 0.0, "lat": 38.83942716666667, "is_disabled": 0, "bike_id": "aa826c31f2fec33ff1a21c0d524750aa", "fusion_lat": 0.0, "is_reserved": 0, "lon": -77.08760033333333}, {"type": "electric_scooter", "name": "adf095e57f4d3bdb8741e0c77324ede5", "rental_uris": {"ios": "https://dc.lft.to/lastmile_qr_scan", "android": "https://dc.lft.to/lastmile_qr_scan"}, "fusion_lon": 0.0, "lat": 38.91138816666667, "is_disabled": 0, "bike_id": "adf095e57f4d3bdb8741e0c77324ede5", "fusion_lat": 0.0, "is_reserved": 0, "lon": -77.02804816666666}, {"type": "electric_scooter", "name": "e8d6e6ce9832fc677a6d261a6fa9b0b9", "rental_uris": {"ios": "https://dc.lft.to/lastmile_qr_scan", "android": "https://dc.lft.to/lastmile_qr_scan"}, "fusion_lon": 0.0, "lat": 38.92823683333334, "is_disabled": 0, "bike_id": "e8d6e6ce9832fc677a6d261a6fa9b0b9", "fusion_lat": 0.0, "is_reserved": 0, "lon": -77.02621183333333}, {"type": "electric_scooter", "name": "8b1daf5e83afa99f9be90b0b23b2e7c1", "rental_uris": {"ios": "https://dc.lft.to/lastmile_qr_scan", "android": "https://dc.lft.to/lastmile_qr_scan"}, "fusion_lon": 0.0, "lat": 38.92126416666667, "is_disabled": 0, "bike_id": "8b1daf5e83afa99f9be90b0b23b2e7c1", "fusion_lat": 0.0, "is_reserved": 0, "lon": -77.041191}, {"type": "electric_scooter", "name": "fe21e37914f8bab6e5d439274871bd87", "rental_uris": {"ios": "https://dc.lft.to/lastmile_qr_scan", "android": "https://dc.lft.to/lastmile_qr_scan"}, "fusion_lon": 0.0, "lat": 38.91695816666667, "is_disabled": 0, "bike_id": "fe21e37914f8bab6e5d439274871bd87", "fusion_lat": 0.0, "is_reserved": 0, "lon": -77.0306575}, {"type": "electric_scooter", "name": "f39e09adea12db9d37b0fa50163de2ce", "rental_uris": {"ios": "https://dc.lft.to/lastmile_qr_scan", "android": "https://dc.lft.to/lastmile_qr_scan"}, "fusion_lon": 0.0, "lat": 38.92221583333333, "is_disabled": 0, "bike_id": "f39e09adea12db9d37b0fa50163de2ce", "fusion_lat": 0.0, "is_reserved": 0, "lon": -77.0242085}, {"type": "electric_scooter", "name": "cd3bbb8678a131d625603a7155c975cc", "rental_uris": {"ios": "https://dc.lft.to/lastmile_qr_scan", "android": "https://dc.lft.to/lastmile_qr_scan"}, "fusion_lon": 0.0, "lat": 38.9366695, "is_disabled": 0, "bike_id": "cd3bbb8678a131d625603a7155c975cc", "fusion_lat": 0.0, "is_reserved": 0, "lon": -77.0239045}, {"type": "electric_scooter", "name": "3af425cbcf1a7e5581a24f1b1f5d4ee6", "rental_uris": {"ios": "https://dc.lft.to/lastmile_qr_scan", "android": "https://dc.lft.to/lastmile_qr_scan"}, "fusion_lon": 0.0, "lat": 38.91304183333333, "is_disabled": 0, "bike_id": "3af425cbcf1a7e5581a24f1b1f5d4ee6", "fusion_lat": 0.0, "is_reserved": 0, "lon": -77.03195633333333}, {"type": "electric_scooter", "name": "e915ea7c9682d61722ae43eed97b5dfb", "rental_uris": {"ios": "https://dc.lft.to/lastmile_qr_scan", "android": "https://dc.lft.to/lastmile_qr_scan"}, "fusion_lon": 0.0, "lat": 38.9063535, "is_disabled": 0, "bike_id": "e915ea7c9682d61722ae43eed97b5dfb", "fusion_lat": 0.0, "is_reserved": 0, "lon": -77.0346495}, {"type": "electric_scooter", "name": "cd265a05eeeda50e5566f809c0d5d78b", "rental_uris": {"ios": "https://dc.lft.to/lastmile_qr_scan", "android": "https://dc.lft.to/lastmile_qr_scan"}, "fusion_lon": 0.0, "lat": 38.909381833333335, "is_disabled": 0, "bike_id": "cd265a05eeeda50e5566f809c0d5d78b", "fusion_lat": 0.0, "is_reserved": 0, "lon": -77.0238135}, {"type": "electric_scooter", "name": "da0056ea378c33a9f369f6f236f6dbf0", "rental_uris": {"ios": "https://dc.lft.to/lastmile_qr_scan", "android": "https://dc.lft.to/lastmile_qr_scan"}, "fusion_lon": 0.0, "lat": 38.87740333333333, "is_disabled": 0, "bike_id": "da0056ea378c33a9f369f6f236f6dbf0", "fusion_lat": 0.0, "is_reserved": 0, "lon": -77.00735266666666}, {"type": "electric_scooter", "name": "399a5a5ca76e4fe3eb0508c5eddccba3", "rental_uris": {"ios": "https://dc.lft.to/lastmile_qr_scan", "android": "https://dc.lft.to/lastmile_qr_scan"}, "fusion_lon": 0.0, "lat": 38.923154333333336, "is_disabled": 0, "bike_id": "399a5a5ca76e4fe3eb0508c5eddccba3", "fusion_lat": 0.0, "is_reserved": 0, "lon": -77.04186833333333}, {"type": "electric_bike", "name": "5f46770a11a0acdefe8306c1f487705d", "rental_uris": {"ios": "https://dc.lft.to/lastmile_qr_scan", "android": "https://dc.lft.to/lastmile_qr_scan"}, "fusion_lon": 0.0, "lat": 38.92058316666667, "is_disabled": 0, "bike_id": "5f46770a11a0acdefe8306c1f487705d", "fusion_lat": 0.0, "is_reserved": 0, "lon": -77.0331715}, {"type": "electric_scooter", "name": "20643237e4238fa79352fcc60cf14bbb", "rental_uris": {"ios": "https://dc.lft.to/lastmile_qr_scan", "android": "https://dc.lft.to/lastmile_qr_scan"}, "fusion_lon": 0.0, "lat": 38.92046, "is_disabled": 0, "bike_id": "20643237e4238fa79352fcc60cf14bbb", "fusion_lat": 0.0, "is_reserved": 0, "lon": -77.0329785}, {"type": "electric_scooter", "name": "41856b627b5ed5548d836fe06e52d803", "rental_uris": {"ios": "https://dc.lft.to/lastmile_qr_scan", "android": "https://dc.lft.to/lastmile_qr_scan"}, "fusion_lon": 0.0, "lat": 38.892223666666666, "is_disabled": 0, "bike_id": "41856b627b5ed5548d836fe06e52d803", "fusion_lat": 0.0, "is_reserved": 0, "lon": -77.047732}, {"type": "electric_scooter", "name": "f3f3ebe5f2624a4ad4086301b024b095", "rental_uris": {"ios": "https://dc.lft.to/lastmile_qr_scan", "android": "https://dc.lft.to/lastmile_qr_scan"}, "fusion_lon": 0.0, "lat": 38.86554266666667, "is_disabled": 0, "bike_id": "f3f3ebe5f2624a4ad4086301b024b095", "fusion_lat": 0.0, "is_reserved": 0, "lon": -76.98350233333333}, {"type": "electric_scooter", "name": "78bf36803028463c4d970f335b14b99f", "rental_uris": {"ios": "https://dc.lft.to/lastmile_qr_scan", "android": "https://dc.lft.to/lastmile_qr_scan"}, "fusion_lon": 0.0, "lat": 38.892202, "is_disabled": 0, "bike_id": "78bf36803028463c4d970f335b14b99f", "fusion_lat": 0.0, "is_reserved": 0, "lon": -77.045158}, {"type": "electric_scooter", "name": "0451e7cc260084fab9d6d061f73981e0", "rental_uris": {"ios": "https://dc.lft.to/lastmile_qr_scan", "android": "https://dc.lft.to/lastmile_qr_scan"}, "fusion_lon": 0.0, "lat": 38.899365333333336, "is_disabled": 0, "bike_id": "0451e7cc260084fab9d6d061f73981e0", "fusion_lat": 0.0, "is_reserved": 0, "lon": -77.04180466666666}, {"type": "electric_scooter", "name": "559cc815cd5952fc9cab5e022f9cfcff", "rental_uris": {"ios": "https://dc.lft.to/lastmile_qr_scan", "android": "https://dc.lft.to/lastmile_qr_scan"}, "fusion_lon": 0.0, "lat": 38.882582666666664, "is_disabled": 0, "bike_id": "559cc815cd5952fc9cab5e022f9cfcff", "fusion_lat": 0.0, "is_reserved": 0, "lon": -76.99489266666667}, {"type": "electric_scooter", "name": "bc776606959f7fd1498003c6039fa7bb", "rental_uris": {"ios": "https://dc.lft.to/lastmile_qr_scan", "android": "https://dc.lft.to/lastmile_qr_scan"}, "fusion_lon": 0.0, "lat": 38.917783666666665, "is_disabled": 0, "bike_id": "bc776606959f7fd1498003c6039fa7bb", "fusion_lat": 0.0, "is_reserved": 0, "lon": -77.01924283333334}, {"type": "electric_scooter", "name": "3bb1cf19ae2c2368b50f0209d8706dc4", "rental_uris": {"ios": "https://dc.lft.to/lastmile_qr_scan", "android": "https://dc.lft.to/lastmile_qr_scan"}, "fusion_lon": 0.0, "lat": 38.9110685, "is_disabled": 0, "bike_id": "3bb1cf19ae2c2368b50f0209d8706dc4", "fusion_lat": 0.0, "is_reserved": 0, "lon": -77.04224033333334}, {"type": "electric_scooter", "name": "ee4565681cd52d8280f692c2aebabcb6", "rental_uris": {"ios": "https://dc.lft.to/lastmile_qr_scan", "android": "https://dc.lft.to/lastmile_qr_scan"}, "fusion_lon": 0.0, "lat": 38.912422166666666, "is_disabled": 0, "bike_id": "ee4565681cd52d8280f692c2aebabcb6", "fusion_lat": 0.0, "is_reserved": 0, "lon": -77.0451895}, {"type": "electric_scooter", "name": "734359caaebc416617c0541b277ad629", "rental_uris": {"ios": "https://dc.lft.to/lastmile_qr_scan", "android": "https://dc.lft.to/lastmile_qr_scan"}, "fusion_lon": 0.0, "lat": 38.899700333333335, "is_disabled": 0, "bike_id": "734359caaebc416617c0541b277ad629", "fusion_lat": 0.0, "is_reserved": 0, "lon": -77.00678683333334}, {"type": "electric_scooter", "name": "2a7cbf84565ed8e746dc92a146e32e03", "rental_uris": {"ios": "https://dc.lft.to/lastmile_qr_scan", "android": "https://dc.lft.to/lastmile_qr_scan"}, "fusion_lon": 0.0, "lat": 38.87546, "is_disabled": 0, "bike_id": "2a7cbf84565ed8e746dc92a146e32e03", "fusion_lat": 0.0, "is_reserved": 0, "lon": -77.00533966666667}, {"type": "electric_scooter", "name": "ed990665bb1f5671b3c6bd3bd7578854", "rental_uris": {"ios": "https://dc.lft.to/lastmile_qr_scan", "android": "https://dc.lft.to/lastmile_qr_scan"}, "fusion_lon": 0.0, "lat": 38.8825735, "is_disabled": 0, "bike_id": "ed990665bb1f5671b3c6bd3bd7578854", "fusion_lat": 0.0, "is_reserved": 0, "lon": -76.926678}, {"type": "electric_bike", "name": "64e4ba9058b6e23f179b9fc8b15663f9", "rental_uris": {"ios": "https://dc.lft.to/lastmile_qr_scan", "android": "https://dc.lft.to/lastmile_qr_scan"}, "fusion_lon": 0.0, "lat": 38.953607, "is_disabled": 0, "bike_id": "64e4ba9058b6e23f179b9fc8b15663f9", "fusion_lat": 0.0, "is_reserved": 0, "lon": -76.98094716666667}, {"type": "electric_scooter", "name": "ed871a6ff6f7a1f1df5eebbd08eebcff", "rental_uris": {"ios": "https://dc.lft.to/lastmile_qr_scan", "android": "https://dc.lft.to/lastmile_qr_scan"}, "fusion_lon": 0.0, "lat": 38.915280833333334, "is_disabled": 0, "bike_id": "ed871a6ff6f7a1f1df5eebbd08eebcff", "fusion_lat": 0.0, "is_reserved": 0, "lon": -77.012249}, {"type": "electric_bike", "name": "29bf7a15ee35a92273dd5bdbb080b0f5", "rental_uris": {"ios": "https://dc.lft.to/lastmile_qr_scan", "android": "https://dc.lft.to/lastmile_qr_scan"}, "fusion_lon": 0.0, "lat": 38.85647733333333, "is_disabled": 0, "bike_id": "29bf7a15ee35a92273dd5bdbb080b0f5", "fusion_lat": 0.0, "is_reserved": 0, "lon": -77.0852825}, {"type": "electric_scooter", "name": "291f3dc222436beb617639c6e0709f95", "rental_uris": {"ios": "https://dc.lft.to/lastmile_qr_scan", "android": "https://dc.lft.to/lastmile_qr_scan"}, "fusion_lon": 0.0, "lat": 38.888054333333336, "is_disabled": 0, "bike_id": "291f3dc222436beb617639c6e0709f95", "fusion_lat": 0.0, "is_reserved": 0, "lon": -76.98361616666666}, {"type": "electric_scooter", "name": "51fe603fd499dbabad94f2d23f8194e5", "rental_uris": {"ios": "https://dc.lft.to/lastmile_qr_scan", "android": "https://dc.lft.to/lastmile_qr_scan"}, "fusion_lon": 0.0, "lat": 38.89702583333333, "is_disabled": 0, "bike_id": "51fe603fd499dbabad94f2d23f8194e5", "fusion_lat": 0.0, "is_reserved": 0, "lon": -77.01616116666666}, {"type": "electric_scooter", "name": "0109cf2af16aeafccda7217a0edd543d", "rental_uris": {"ios": "https://dc.lft.to/lastmile_qr_scan", "android": "https://dc.lft.to/lastmile_qr_scan"}, "fusion_lon": 0.0, "lat": 38.9208725, "is_disabled": 0, "bike_id": "0109cf2af16aeafccda7217a0edd543d", "fusion_lat": 0.0, "is_reserved": 0, "lon": -77.02252983333334}, {"type": "electric_scooter", "name": "e0dac8d0bb6318eef0b7caa520aef324", "rental_uris": {"ios": "https://dc.lft.to/lastmile_qr_scan", "android": "https://dc.lft.to/lastmile_qr_scan"}, "fusion_lon": 0.0, "lat": 38.905287666666666, "is_disabled": 0, "bike_id": "e0dac8d0bb6318eef0b7caa520aef324", "fusion_lat": 0.0, "is_reserved": 0, "lon": -77.02707916666667}, {"type": "electric_scooter", "name": "1c201758365e07c13b3e48dd7483c804", "rental_uris": {"ios": "https://dc.lft.to/lastmile_qr_scan", "android": "https://dc.lft.to/lastmile_qr_scan"}, "fusion_lon": 0.0, "lat": 38.907157833333336, "is_disabled": 0, "bike_id": "1c201758365e07c13b3e48dd7483c804", "fusion_lat": 0.0, "is_reserved": 0, "lon": -77.00577333333334}, {"type": "electric_bike", "name": "4b80519690f1a0a7713d6427532b38e7", "rental_uris": {"ios": "https://dc.lft.to/lastmile_qr_scan", "android": "https://dc.lft.to/lastmile_qr_scan"}, "fusion_lon": 0.0, "lat": 38.798542166666664, "is_disabled": 0, "bike_id": "4b80519690f1a0a7713d6427532b38e7", "fusion_lat": 0.0, "is_reserved": 0, "lon": -77.06305983333333}, {"type": "electric_scooter", "name": "4097bb20ad0ea0017bae365186c2903b", "rental_uris": {"ios": "https://dc.lft.to/lastmile_qr_scan", "android": "https://dc.lft.to/lastmile_qr_scan"}, "fusion_lon": 0.0, "lat": 38.911004, "is_disabled": 0, "bike_id": "4097bb20ad0ea0017bae365186c2903b", "fusion_lat": 0.0, "is_reserved": 0, "lon": -77.0280275}, {"type": "electric_scooter", "name": "7730532f9545061d7c1e25b36d3d87db", "rental_uris": {"ios": "https://dc.lft.to/lastmile_qr_scan", "android": "https://dc.lft.to/lastmile_qr_scan"}, "fusion_lon": 0.0, "lat": 38.879897666666665, "is_disabled": 0, "bike_id": "7730532f9545061d7c1e25b36d3d87db", "fusion_lat": 0.0, "is_reserved": 0, "lon": -77.02410083333334}, {"type": "electric_scooter", "name": "0cc3ffe7ae3aa52bd4efaf6cc7376a7e", "rental_uris": {"ios": "https://dc.lft.to/lastmile_qr_scan", "android": "https://dc.lft.to/lastmile_qr_scan"}, "fusion_lon": 0.0, "lat": 38.8579365, "is_disabled": 0, "bike_id": "0cc3ffe7ae3aa52bd4efaf6cc7376a7e", "fusion_lat": 0.0, "is_reserved": 0, "lon": -76.98912633333333}, {"type": "electric_scooter", "name": "e552ba0a9c7414648ca3b03ebc082256", "rental_uris": {"ios": "https://dc.lft.to/lastmile_qr_scan", "android": "https://dc.lft.to/lastmile_qr_scan"}, "fusion_lon": 0.0, "lat": 38.917057166666666, "is_disabled": 0, "bike_id": "e552ba0a9c7414648ca3b03ebc082256", "fusion_lat": 0.0, "is_reserved": 0, "lon": -77.0314565}, {"type": "electric_bike", "name": "c92a588b6f24afc360232b793c048595", "rental_uris": {"ios": "https://dc.lft.to/lastmile_qr_scan", "android": "https://dc.lft.to/lastmile_qr_scan"}, "fusion_lon": 0.0, "lat": 38.94434283333333, "is_disabled": 0, "bike_id": "c92a588b6f24afc360232b793c048595", "fusion_lat": 0.0, "is_reserved": 0, "lon": -77.02603883333333}, {"type": "electric_bike", "name": "898cd4e947ec3ad692095184a3560ab5", "rental_uris": {"ios": "https://dc.lft.to/lastmile_qr_scan", "android": "https://dc.lft.to/lastmile_qr_scan"}, "fusion_lon": 0.0, "lat": 38.85770133333333, "is_disabled": 0, "bike_id": "898cd4e947ec3ad692095184a3560ab5", "fusion_lat": 0.0, "is_reserved": 0, "lon": -76.98758966666666}, {"type": "electric_scooter", "name": "fa639326ceb55dda50cb4eb1e195b6ed", "rental_uris": {"ios": "https://dc.lft.to/lastmile_qr_scan", "android": "https://dc.lft.to/lastmile_qr_scan"}, "fusion_lon": 0.0, "lat": 38.91117066666666, "is_disabled": 0, "bike_id": "fa639326ceb55dda50cb4eb1e195b6ed", "fusion_lat": 0.0, "is_reserved": 0, "lon": -77.0223775}, {"type": "electric_scooter", "name": "beffe7db509414079e39da02de64f6d1", "rental_uris": {"ios": "https://dc.lft.to/lastmile_qr_scan", "android": "https://dc.lft.to/lastmile_qr_scan"}, "fusion_lon": 0.0, "lat": 38.91528733333333, "is_disabled": 0, "bike_id": "beffe7db509414079e39da02de64f6d1", "fusion_lat": 0.0, "is_reserved": 0, "lon": -77.01221683333333}, {"type": "electric_scooter", "name": "4627f0495977053986d5b0a076486ff8", "rental_uris": {"ios": "https://dc.lft.to/lastmile_qr_scan", "android": "https://dc.lft.to/lastmile_qr_scan"}, "fusion_lon": 0.0, "lat": 38.947547, "is_disabled": 0, "bike_id": "4627f0495977053986d5b0a076486ff8", "fusion_lat": 0.0, "is_reserved": 0, "lon": -77.00720783333334}, {"type": "electric_scooter", "name": "1c6f753cca6e465a3cd2de1699ef4831", "rental_uris": {"ios": "https://dc.lft.to/lastmile_qr_scan", "android": "https://dc.lft.to/lastmile_qr_scan"}, "fusion_lon": 0.0, "lat": 38.904976166666664, "is_disabled": 0, "bike_id": "1c6f753cca6e465a3cd2de1699ef4831", "fusion_lat": 0.0, "is_reserved": 0, "lon": -77.00094516666667}, {"type": "electric_scooter", "name": "eb94df979dbef0ae7278151e25bd52bf", "rental_uris": {"ios": "https://dc.lft.to/lastmile_qr_scan", "android": "https://dc.lft.to/lastmile_qr_scan"}, "fusion_lon": 0.0, "lat": 38.93589433333333, "is_disabled": 0, "bike_id": "eb94df979dbef0ae7278151e25bd52bf", "fusion_lat": 0.0, "is_reserved": 0, "lon": -77.028584}, {"type": "electric_scooter", "name": "3aac86affbb2cf61df95ad314fa7bf68", "rental_uris": {"ios": "https://dc.lft.to/lastmile_qr_scan", "android": "https://dc.lft.to/lastmile_qr_scan"}, "fusion_lon": 0.0, "lat": 38.939555166666665, "is_disabled": 0, "bike_id": "3aac86affbb2cf61df95ad314fa7bf68", "fusion_lat": 0.0, "is_reserved": 0, "lon": -77.085971}, {"type": "electric_scooter", "name": "b4b85d9eebdc7a1733cb86522a4fff8e", "rental_uris": {"ios": "https://dc.lft.to/lastmile_qr_scan", "android": "https://dc.lft.to/lastmile_qr_scan"}, "fusion_lon": 0.0, "lat": 38.9221925, "is_disabled": 0, "bike_id": "b4b85d9eebdc7a1733cb86522a4fff8e", "fusion_lat": 0.0, "is_reserved": 0, "lon": -77.024172}, {"type": "electric_scooter", "name": "61a9b1ba5e410b9b7ea4ab7908754fae", "rental_uris": {"ios": "https://dc.lft.to/lastmile_qr_scan", "android": "https://dc.lft.to/lastmile_qr_scan"}, "fusion_lon": 0.0, "lat": 38.925573166666666, "is_disabled": 0, "bike_id": "61a9b1ba5e410b9b7ea4ab7908754fae", "fusion_lat": 0.0, "is_reserved": 0, "lon": -77.0405775}, {"type": "electric_scooter", "name": "8a5ae669273dd40c3ab8f937aa0f171a", "rental_uris": {"ios": "https://dc.lft.to/lastmile_qr_scan", "android": "https://dc.lft.to/lastmile_qr_scan"}, "fusion_lon": 0.0, "lat": 38.923448666666665, "is_disabled": 0, "bike_id": "8a5ae669273dd40c3ab8f937aa0f171a", "fusion_lat": 0.0, "is_reserved": 0, "lon": -77.05118516666667}, {"type": "electric_scooter", "name": "54487c1462d81e14753700cb4ca78b50", "rental_uris": {"ios": "https://dc.lft.to/lastmile_qr_scan", "android": "https://dc.lft.to/lastmile_qr_scan"}, "fusion_lon": 0.0, "lat": 38.94700533333334, "is_disabled": 0, "bike_id": "54487c1462d81e14753700cb4ca78b50", "fusion_lat": 0.0, "is_reserved": 0, "lon": -77.01941733333334}, {"type": "electric_scooter", "name": "e32fd1974b60dd69ebacb1a16a54bcb0", "rental_uris": {"ios": "https://dc.lft.to/lastmile_qr_scan", "android": "https://dc.lft.to/lastmile_qr_scan"}, "fusion_lon": 0.0, "lat": 38.887331333333336, "is_disabled": 0, "bike_id": "e32fd1974b60dd69ebacb1a16a54bcb0", "fusion_lat": 0.0, "is_reserved": 0, "lon": -77.0283405}, {"type": "electric_scooter", "name": "e0f2b14790bd320a433dabda1e280221", "rental_uris": {"ios": "https://dc.lft.to/lastmile_qr_scan", "android": "https://dc.lft.to/lastmile_qr_scan"}, "fusion_lon": 0.0, "lat": 38.906956, "is_disabled": 0, "bike_id": "e0f2b14790bd320a433dabda1e280221", "fusion_lat": 0.0, "is_reserved": 0, "lon": -77.03590133333333}, {"type": "electric_scooter", "name": "b858ec0bcb56fa112ae1d4f4b64e7b6f", "rental_uris": {"ios": "https://dc.lft.to/lastmile_qr_scan", "android": "https://dc.lft.to/lastmile_qr_scan"}, "fusion_lon": 0.0, "lat": 38.9013045, "is_disabled": 0, "bike_id": "b858ec0bcb56fa112ae1d4f4b64e7b6f", "fusion_lat": 0.0, "is_reserved": 0, "lon": -77.04440233333334}, {"type": "electric_scooter", "name": "33c16217a1bf386e8eddc5995bd064eb", "rental_uris": {"ios": "https://dc.lft.to/lastmile_qr_scan", "android": "https://dc.lft.to/lastmile_qr_scan"}, "fusion_lon": 0.0, "lat": 38.910732, "is_disabled": 0, "bike_id": "33c16217a1bf386e8eddc5995bd064eb", "fusion_lat": 0.0, "is_reserved": 0, "lon": -77.0302905}, {"type": "electric_scooter", "name": "bcab40b0a464b884e00cf6d32a55d57f", "rental_uris": {"ios": "https://dc.lft.to/lastmile_qr_scan", "android": "https://dc.lft.to/lastmile_qr_scan"}, "fusion_lon": 0.0, "lat": 38.89533016666667, "is_disabled": 0, "bike_id": "bcab40b0a464b884e00cf6d32a55d57f", "fusion_lat": 0.0, "is_reserved": 0, "lon": -76.94892983333334}, {"type": "electric_scooter", "name": "afc2b3a052ef8be5b651c827468a43bb", "rental_uris": {"ios": "https://dc.lft.to/lastmile_qr_scan", "android": "https://dc.lft.to/lastmile_qr_scan"}, "fusion_lon": 0.0, "lat": 38.903915, "is_disabled": 0, "bike_id": "afc2b3a052ef8be5b651c827468a43bb", "fusion_lat": 0.0, "is_reserved": 0, "lon": -77.04988016666667}, {"type": "electric_scooter", "name": "895f5b985e2e6d32f18db26f550a35dc", "rental_uris": {"ios": "https://dc.lft.to/lastmile_qr_scan", "android": "https://dc.lft.to/lastmile_qr_scan"}, "fusion_lon": 0.0, "lat": 38.89729283333333, "is_disabled": 0, "bike_id": "895f5b985e2e6d32f18db26f550a35dc", "fusion_lat": 0.0, "is_reserved": 0, "lon": -77.00220033333333}, {"type": "electric_scooter", "name": "99bcbf38eca7b2a27aff590bc085772b", "rental_uris": {"ios": "https://dc.lft.to/lastmile_qr_scan", "android": "https://dc.lft.to/lastmile_qr_scan"}, "fusion_lon": 0.0, "lat": 38.866811166666665, "is_disabled": 0, "bike_id": "99bcbf38eca7b2a27aff590bc085772b", "fusion_lat": 0.0, "is_reserved": 0, "lon": -76.985731}, {"type": "electric_scooter", "name": "9d00a537e4352cff8aaf6633296d3f6c", "rental_uris": {"ios": "https://dc.lft.to/lastmile_qr_scan", "android": "https://dc.lft.to/lastmile_qr_scan"}, "fusion_lon": 0.0, "lat": 38.91461683333333, "is_disabled": 0, "bike_id": "9d00a537e4352cff8aaf6633296d3f6c", "fusion_lat": 0.0, "is_reserved": 0, "lon": -77.0217535}, {"type": "electric_scooter", "name": "7263bb1d87c33edb7c14ab38d904c0bb", "rental_uris": {"ios": "https://dc.lft.to/lastmile_qr_scan", "android": "https://dc.lft.to/lastmile_qr_scan"}, "fusion_lon": 0.0, "lat": 38.900799166666665, "is_disabled": 0, "bike_id": "7263bb1d87c33edb7c14ab38d904c0bb", "fusion_lat": 0.0, "is_reserved": 0, "lon": -77.04778366666666}, {"type": "electric_scooter", "name": "a1e1bf284042972a295d5479ccd04212", "rental_uris": {"ios": "https://dc.lft.to/lastmile_qr_scan", "android": "https://dc.lft.to/lastmile_qr_scan"}, "fusion_lon": 0.0, "lat": 38.91755233333333, "is_disabled": 0, "bike_id": "a1e1bf284042972a295d5479ccd04212", "fusion_lat": 0.0, "is_reserved": 0, "lon": -77.022795}, {"type": "electric_scooter", "name": "a879de49b274b5af38182b837c2976cd", "rental_uris": {"ios": "https://dc.lft.to/lastmile_qr_scan", "android": "https://dc.lft.to/lastmile_qr_scan"}, "fusion_lon": 0.0, "lat": 38.90375983333333, "is_disabled": 0, "bike_id": "a879de49b274b5af38182b837c2976cd", "fusion_lat": 0.0, "is_reserved": 0, "lon": -77.016465}, {"type": "electric_scooter", "name": "34e1dd13ae15553639c7586509beb13b", "rental_uris": {"ios": "https://dc.lft.to/lastmile_qr_scan", "android": "https://dc.lft.to/lastmile_qr_scan"}, "fusion_lon": 0.0, "lat": 38.8873415, "is_disabled": 0, "bike_id": "34e1dd13ae15553639c7586509beb13b", "fusion_lat": 0.0, "is_reserved": 0, "lon": -77.02582766666667}, {"type": "electric_scooter", "name": "84554dee22e220c1f64a4b6d1fbdaa62", "rental_uris": {"ios": "https://dc.lft.to/lastmile_qr_scan", "android": "https://dc.lft.to/lastmile_qr_scan"}, "fusion_lon": 0.0, "lat": 38.92161633333333, "is_disabled": 0, "bike_id": "84554dee22e220c1f64a4b6d1fbdaa62", "fusion_lat": 0.0, "is_reserved": 0, "lon": -77.04693733333333}, {"type": "electric_scooter", "name": "4e55ac50f3fc91de5485bd1feebd29ae", "rental_uris": {"ios": "https://dc.lft.to/lastmile_qr_scan", "android": "https://dc.lft.to/lastmile_qr_scan"}, "fusion_lon": 0.0, "lat": 38.9318825, "is_disabled": 0, "bike_id": "4e55ac50f3fc91de5485bd1feebd29ae", "fusion_lat": 0.0, "is_reserved": 0, "lon": -77.04303616666667}, {"type": "electric_scooter", "name": "ffae2b3ae93b344ff76884dd5c615fac", "rental_uris": {"ios": "https://dc.lft.to/lastmile_qr_scan", "android": "https://dc.lft.to/lastmile_qr_scan"}, "fusion_lon": 0.0, "lat": 38.8980205, "is_disabled": 0, "bike_id": "ffae2b3ae93b344ff76884dd5c615fac", "fusion_lat": 0.0, "is_reserved": 0, "lon": -77.02416033333333}, {"type": "electric_scooter", "name": "53cc9b3736c7724a2cdc64d37d697459", "rental_uris": {"ios": "https://dc.lft.to/lastmile_qr_scan", "android": "https://dc.lft.to/lastmile_qr_scan"}, "fusion_lon": 0.0, "lat": 38.904078166666665, "is_disabled": 0, "bike_id": "53cc9b3736c7724a2cdc64d37d697459", "fusion_lat": 0.0, "is_reserved": 0, "lon": -76.97332766666666}, {"type": "electric_scooter", "name": "cb23ec72b4d3e6847cacc289e1d8e5db", "rental_uris": {"ios": "https://dc.lft.to/lastmile_qr_scan", "android": "https://dc.lft.to/lastmile_qr_scan"}, "fusion_lon": 0.0, "lat": 38.89220433333333, "is_disabled": 0, "bike_id": "cb23ec72b4d3e6847cacc289e1d8e5db", "fusion_lat": 0.0, "is_reserved": 0, "lon": -77.045143}, {"type": "electric_scooter", "name": "72625d78d6ff52dcc1ffe3f9a4b185b7", "rental_uris": {"ios": "https://dc.lft.to/lastmile_qr_scan", "android": "https://dc.lft.to/lastmile_qr_scan"}, "fusion_lon": 0.0, "lat": 38.94521683333333, "is_disabled": 0, "bike_id": "72625d78d6ff52dcc1ffe3f9a4b185b7", "fusion_lat": 0.0, "is_reserved": 0, "lon": -77.064034}, {"type": "electric_scooter", "name": "9bee002eafd60b609e578f264357d8b8", "rental_uris": {"ios": "https://dc.lft.to/lastmile_qr_scan", "android": "https://dc.lft.to/lastmile_qr_scan"}, "fusion_lon": 0.0, "lat": 38.9112645, "is_disabled": 0, "bike_id": "9bee002eafd60b609e578f264357d8b8", "fusion_lat": 0.0, "is_reserved": 0, "lon": -77.03565366666666}, {"type": "electric_scooter", "name": "368c7ddbcfa127dc80c9ac45c807ddcf", "rental_uris": {"ios": "https://dc.lft.to/lastmile_qr_scan", "android": "https://dc.lft.to/lastmile_qr_scan"}, "fusion_lon": 0.0, "lat": 38.907723833333336, "is_disabled": 0, "bike_id": "368c7ddbcfa127dc80c9ac45c807ddcf", "fusion_lat": 0.0, "is_reserved": 0, "lon": -77.0331015}, {"type": "electric_scooter", "name": "e5daf784b48020f1e662c37998fa4ea9", "rental_uris": {"ios": "https://dc.lft.to/lastmile_qr_scan", "android": "https://dc.lft.to/lastmile_qr_scan"}, "fusion_lon": 0.0, "lat": 38.901514666666664, "is_disabled": 0, "bike_id": "e5daf784b48020f1e662c37998fa4ea9", "fusion_lat": 0.0, "is_reserved": 0, "lon": -77.03562733333334}, {"type": "electric_scooter", "name": "d5526035f1a36a059591a63ccf67a242", "rental_uris": {"ios": "https://dc.lft.to/lastmile_qr_scan", "android": "https://dc.lft.to/lastmile_qr_scan"}, "fusion_lon": 0.0, "lat": 38.892233833333336, "is_disabled": 0, "bike_id": "d5526035f1a36a059591a63ccf67a242", "fusion_lat": 0.0, "is_reserved": 0, "lon": -77.03989833333333}, {"type": "electric_scooter", "name": "f6515398834b92aa2d667efc60471651", "rental_uris": {"ios": "https://dc.lft.to/lastmile_qr_scan", "android": "https://dc.lft.to/lastmile_qr_scan"}, "fusion_lon": 0.0, "lat": 38.89655616666667, "is_disabled": 0, "bike_id": "f6515398834b92aa2d667efc60471651", "fusion_lat": 0.0, "is_reserved": 0, "lon": -77.050632}, {"type": "electric_bike", "name": "b34c24124d9f4dfa9821cfa8a58d6f59", "rental_uris": {"ios": "https://dc.lft.to/lastmile_qr_scan", "android": "https://dc.lft.to/lastmile_qr_scan"}, "fusion_lon": 0.0, "lat": 38.94659333333333, "is_disabled": 0, "bike_id": "b34c24124d9f4dfa9821cfa8a58d6f59", "fusion_lat": 0.0, "is_reserved": 0, "lon": -77.0070105}, {"type": "electric_bike", "name": "8b54932bd9e419de17ba63b9ba70f51c", "rental_uris": {"ios": "https://dc.lft.to/lastmile_qr_scan", "android": "https://dc.lft.to/lastmile_qr_scan"}, "fusion_lon": 0.0, "lat": 38.952732, "is_disabled": 0, "bike_id": "8b54932bd9e419de17ba63b9ba70f51c", "fusion_lat": 0.0, "is_reserved": 0, "lon": -77.068762}, {"type": "electric_scooter", "name": "80b05b275ad56d3134db3a0c7aa47d2e", "rental_uris": {"ios": "https://dc.lft.to/lastmile_qr_scan", "android": "https://dc.lft.to/lastmile_qr_scan"}, "fusion_lon": 0.0, "lat": 38.865084333333336, "is_disabled": 0, "bike_id": "80b05b275ad56d3134db3a0c7aa47d2e", "fusion_lat": 0.0, "is_reserved": 0, "lon": -76.99005783333334}, {"type": "electric_bike", "name": "9dfb84a79fecdb15f65b70764ff40af1", "rental_uris": {"ios": "https://dc.lft.to/lastmile_qr_scan", "android": "https://dc.lft.to/lastmile_qr_scan"}, "fusion_lon": 0.0, "lat": 38.90491883333333, "is_disabled": 0, "bike_id": "9dfb84a79fecdb15f65b70764ff40af1", "fusion_lat": 0.0, "is_reserved": 0, "lon": -76.974294}, {"type": "electric_bike", "name": "a3c72cadbeccf497465afc11347b8d89", "rental_uris": {"ios": "https://dc.lft.to/lastmile_qr_scan", "android": "https://dc.lft.to/lastmile_qr_scan"}, "fusion_lon": 0.0, "lat": 38.84274883333333, "is_disabled": 0, "bike_id": "a3c72cadbeccf497465afc11347b8d89", "fusion_lat": 0.0, "is_reserved": 0, "lon": -76.98842033333334}, {"type": "electric_bike", "name": "fb05900a4dd652b633808deb752ce6eb", "rental_uris": {"ios": "https://dc.lft.to/lastmile_qr_scan", "android": "https://dc.lft.to/lastmile_qr_scan"}, "fusion_lon": 0.0, "lat": 38.862645666666666, "is_disabled": 0, "bike_id": "fb05900a4dd652b633808deb752ce6eb", "fusion_lat": 0.0, "is_reserved": 0, "lon": -76.98356633333333}, {"type": "electric_scooter", "name": "9ce0d4f5b49b2db09e98d5c169e7b5bc", "rental_uris": {"ios": "https://dc.lft.to/lastmile_qr_scan", "android": "https://dc.lft.to/lastmile_qr_scan"}, "fusion_lon": 0.0, "lat": 38.89718933333333, "is_disabled": 0, "bike_id": "9ce0d4f5b49b2db09e98d5c169e7b5bc", "fusion_lat": 0.0, "is_reserved": 0, "lon": -77.01976833333333}, {"type": "electric_scooter", "name": "7b07f3017df1e34a428e378e6d3a712c", "rental_uris": {"ios": "https://dc.lft.to/lastmile_qr_scan", "android": "https://dc.lft.to/lastmile_qr_scan"}, "fusion_lon": 0.0, "lat": 38.936724166666664, "is_disabled": 0, "bike_id": "7b07f3017df1e34a428e378e6d3a712c", "fusion_lat": 0.0, "is_reserved": 0, "lon": -77.03594666666666}, {"type": "electric_scooter", "name": "ddb406660f1157f2372301537e2e73c1", "rental_uris": {"ios": "https://dc.lft.to/lastmile_qr_scan", "android": "https://dc.lft.to/lastmile_qr_scan"}, "fusion_lon": 0.0, "lat": 38.91767866666667, "is_disabled": 0, "bike_id": "ddb406660f1157f2372301537e2e73c1", "fusion_lat": 0.0, "is_reserved": 0, "lon": -77.022851}, {"type": "electric_scooter", "name": "539a849c965f1d0a367747db30ea8523", "rental_uris": {"ios": "https://dc.lft.to/lastmile_qr_scan", "android": "https://dc.lft.to/lastmile_qr_scan"}, "fusion_lon": 0.0, "lat": 38.90730216666667, "is_disabled": 0, "bike_id": "539a849c965f1d0a367747db30ea8523", "fusion_lat": 0.0, "is_reserved": 0, "lon": -76.986154}, {"type": "electric_scooter", "name": "f3abfc3e18e7edb32e4463f9bcd9bb99", "rental_uris": {"ios": "https://dc.lft.to/lastmile_qr_scan", "android": "https://dc.lft.to/lastmile_qr_scan"}, "fusion_lon": 0.0, "lat": 38.90031033333333, "is_disabled": 0, "bike_id": "f3abfc3e18e7edb32e4463f9bcd9bb99", "fusion_lat": 0.0, "is_reserved": 0, "lon": -76.98752483333334}, {"type": "electric_scooter", "name": "96a038ce66e2ca46fb2c68536b50652b", "rental_uris": {"ios": "https://dc.lft.to/lastmile_qr_scan", "android": "https://dc.lft.to/lastmile_qr_scan"}, "fusion_lon": 0.0, "lat": 38.8843595, "is_disabled": 0, "bike_id": "96a038ce66e2ca46fb2c68536b50652b", "fusion_lat": 0.0, "is_reserved": 0, "lon": -77.01534583333333}, {"type": "electric_scooter", "name": "db7b71326254590affc5632ac52b2250", "rental_uris": {"ios": "https://dc.lft.to/lastmile_qr_scan", "android": "https://dc.lft.to/lastmile_qr_scan"}, "fusion_lon": 0.0, "lat": 38.94134066666667, "is_disabled": 0, "bike_id": "db7b71326254590affc5632ac52b2250", "fusion_lat": 0.0, "is_reserved": 0, "lon": -77.015404}, {"type": "electric_scooter", "name": "2d6f03fb383ae9b5171b0dbf33e0fae0", "rental_uris": {"ios": "https://dc.lft.to/lastmile_qr_scan", "android": "https://dc.lft.to/lastmile_qr_scan"}, "fusion_lon": 0.0, "lat": 38.93902766666667, "is_disabled": 0, "bike_id": "2d6f03fb383ae9b5171b0dbf33e0fae0", "fusion_lat": 0.0, "is_reserved": 0, "lon": -77.0332455}, {"type": "electric_scooter", "name": "8686a76a17cc6af87f05d43726b5ccdc", "rental_uris": {"ios": "https://dc.lft.to/lastmile_qr_scan", "android": "https://dc.lft.to/lastmile_qr_scan"}, "fusion_lon": 0.0, "lat": 38.92520366666667, "is_disabled": 0, "bike_id": "8686a76a17cc6af87f05d43726b5ccdc", "fusion_lat": 0.0, "is_reserved": 0, "lon": -77.05134366666667}, {"type": "electric_scooter", "name": "0d7c581b0684739c32aab838bc3a431a", "rental_uris": {"ios": "https://dc.lft.to/lastmile_qr_scan", "android": "https://dc.lft.to/lastmile_qr_scan"}, "fusion_lon": 0.0, "lat": 38.91304983333333, "is_disabled": 0, "bike_id": "0d7c581b0684739c32aab838bc3a431a", "fusion_lat": 0.0, "is_reserved": 0, "lon": -77.0318965}, {"type": "electric_scooter", "name": "e5add8d0611cdf08400a14d0fcee08cd", "rental_uris": {"ios": "https://dc.lft.to/lastmile_qr_scan", "android": "https://dc.lft.to/lastmile_qr_scan"}, "fusion_lon": 0.0, "lat": 38.8968105, "is_disabled": 0, "bike_id": "e5add8d0611cdf08400a14d0fcee08cd", "fusion_lat": 0.0, "is_reserved": 0, "lon": -77.0321685}, {"type": "electric_scooter", "name": "dc142303fa4fb24c069d14ad5f500ea6", "rental_uris": {"ios": "https://dc.lft.to/lastmile_qr_scan", "android": "https://dc.lft.to/lastmile_qr_scan"}, "fusion_lon": 0.0, "lat": 38.89365016666667, "is_disabled": 0, "bike_id": "dc142303fa4fb24c069d14ad5f500ea6", "fusion_lat": 0.0, "is_reserved": 0, "lon": -77.019827}, {"type": "electric_scooter", "name": "75943294ab132f4ac5fdca42d2cf3a88", "rental_uris": {"ios": "https://dc.lft.to/lastmile_qr_scan", "android": "https://dc.lft.to/lastmile_qr_scan"}, "fusion_lon": 0.0, "lat": 38.94595566666667, "is_disabled": 0, "bike_id": "75943294ab132f4ac5fdca42d2cf3a88", "fusion_lat": 0.0, "is_reserved": 0, "lon": -77.02981316666667}, {"type": "electric_scooter", "name": "0cb833cb06fcd6e09b1069617c1aff0f", "rental_uris": {"ios": "https://dc.lft.to/lastmile_qr_scan", "android": "https://dc.lft.to/lastmile_qr_scan"}, "fusion_lon": 0.0, "lat": 38.88745316666667, "is_disabled": 0, "bike_id": "0cb833cb06fcd6e09b1069617c1aff0f", "fusion_lat": 0.0, "is_reserved": 0, "lon": -77.03166183333333}, {"type": "electric_scooter", "name": "439d57af47737b1f40192f9dc661c422", "rental_uris": {"ios": "https://dc.lft.to/lastmile_qr_scan", "android": "https://dc.lft.to/lastmile_qr_scan"}, "fusion_lon": 0.0, "lat": 38.920572, "is_disabled": 0, "bike_id": "439d57af47737b1f40192f9dc661c422", "fusion_lat": 0.0, "is_reserved": 0, "lon": -77.02372633333333}, {"type": "electric_scooter", "name": "329c959a3940f064c1da8d508d663ae7", "rental_uris": {"ios": "https://dc.lft.to/lastmile_qr_scan", "android": "https://dc.lft.to/lastmile_qr_scan"}, "fusion_lon": 0.0, "lat": 38.887024, "is_disabled": 0, "bike_id": "329c959a3940f064c1da8d508d663ae7", "fusion_lat": 0.0, "is_reserved": 0, "lon": -77.00247883333333}, {"type": "electric_scooter", "name": "ee385303badb72725b29fcb6855b4387", "rental_uris": {"ios": "https://dc.lft.to/lastmile_qr_scan", "android": "https://dc.lft.to/lastmile_qr_scan"}, "fusion_lon": 0.0, "lat": 38.919150333333334, "is_disabled": 0, "bike_id": "ee385303badb72725b29fcb6855b4387", "fusion_lat": 0.0, "is_reserved": 0, "lon": -77.026189}, {"type": "electric_scooter", "name": "b3687ab957af63ba580d3d08f200de96", "rental_uris": {"ios": "https://dc.lft.to/lastmile_qr_scan", "android": "https://dc.lft.to/lastmile_qr_scan"}, "fusion_lon": 0.0, "lat": 38.879541333333336, "is_disabled": 0, "bike_id": "b3687ab957af63ba580d3d08f200de96", "fusion_lat": 0.0, "is_reserved": 0, "lon": -76.99014233333334}, {"type": "electric_scooter", "name": "93278a0f84d4d7db30a5d0c4939f7801", "rental_uris": {"ios": "https://dc.lft.to/lastmile_qr_scan", "android": "https://dc.lft.to/lastmile_qr_scan"}, "fusion_lon": 0.0, "lat": 38.902706333333334, "is_disabled": 0, "bike_id": "93278a0f84d4d7db30a5d0c4939f7801", "fusion_lat": 0.0, "is_reserved": 0, "lon": -77.0447575}, {"type": "electric_scooter", "name": "d7c28e35abf5b51fbade21d76a3f490e", "rental_uris": {"ios": "https://dc.lft.to/lastmile_qr_scan", "android": "https://dc.lft.to/lastmile_qr_scan"}, "fusion_lon": 0.0, "lat": 38.918386166666664, "is_disabled": 0, "bike_id": "d7c28e35abf5b51fbade21d76a3f490e", "fusion_lat": 0.0, "is_reserved": 0, "lon": -77.04830716666666}, {"type": "electric_bike", "name": "ab146bddec2ebc17cd430b3ea3aa6fd7", "rental_uris": {"ios": "https://dc.lft.to/lastmile_qr_scan", "android": "https://dc.lft.to/lastmile_qr_scan"}, "fusion_lon": 0.0, "lat": 38.8217675, "is_disabled": 0, "bike_id": "ab146bddec2ebc17cd430b3ea3aa6fd7", "fusion_lat": 0.0, "is_reserved": 0, "lon": -76.99516983333334}, {"type": "electric_bike", "name": "92dfe033200935b79edc8f8555e3dc92", "rental_uris": {"ios": "https://dc.lft.to/lastmile_qr_scan", "android": "https://dc.lft.to/lastmile_qr_scan"}, "fusion_lon": 0.0, "lat": 38.8075445, "is_disabled": 0, "bike_id": "92dfe033200935b79edc8f8555e3dc92", "fusion_lat": 0.0, "is_reserved": 0, "lon": -77.09456033333333}, {"type": "electric_scooter", "name": "03eb62e2e7dc50bdb65392d42a7be249", "rental_uris": {"ios": "https://dc.lft.to/lastmile_qr_scan", "android": "https://dc.lft.to/lastmile_qr_scan"}, "fusion_lon": 0.0, "lat": 38.938710666666665, "is_disabled": 0, "bike_id": "03eb62e2e7dc50bdb65392d42a7be249", "fusion_lat": 0.0, "is_reserved": 0, "lon": -77.02891583333333}, {"type": "electric_scooter", "name": "9ddef8862b4ab4bbaade4380f836ee3b", "rental_uris": {"ios": "https://dc.lft.to/lastmile_qr_scan", "android": "https://dc.lft.to/lastmile_qr_scan"}, "fusion_lon": 0.0, "lat": 38.898296333333334, "is_disabled": 0, "bike_id": "9ddef8862b4ab4bbaade4380f836ee3b", "fusion_lat": 0.0, "is_reserved": 0, "lon": -76.94630116666667}, {"type": "electric_scooter", "name": "631d57603f595886c411dddae140e444", "rental_uris": {"ios": "https://dc.lft.to/lastmile_qr_scan", "android": "https://dc.lft.to/lastmile_qr_scan"}, "fusion_lon": 0.0, "lat": 38.924163166666666, "is_disabled": 0, "bike_id": "631d57603f595886c411dddae140e444", "fusion_lat": 0.0, "is_reserved": 0, "lon": -77.02008566666666}, {"type": "electric_scooter", "name": "4199d459c1a184255e00d9a0e819c044", "rental_uris": {"ios": "https://dc.lft.to/lastmile_qr_scan", "android": "https://dc.lft.to/lastmile_qr_scan"}, "fusion_lon": 0.0, "lat": 38.88329566666667, "is_disabled": 0, "bike_id": "4199d459c1a184255e00d9a0e819c044", "fusion_lat": 0.0, "is_reserved": 0, "lon": -77.01770983333333}, {"type": "electric_scooter", "name": "81a7f37e2173a9b15deb1ffbb0a5f385", "rental_uris": {"ios": "https://dc.lft.to/lastmile_qr_scan", "android": "https://dc.lft.to/lastmile_qr_scan"}, "fusion_lon": 0.0, "lat": 38.919137666666664, "is_disabled": 0, "bike_id": "81a7f37e2173a9b15deb1ffbb0a5f385", "fusion_lat": 0.0, "is_reserved": 0, "lon": -77.03183216666666}, {"type": "electric_bike", "name": "0dac400bc5436dcb21af99c461ed6aa7", "rental_uris": {"ios": "https://dc.lft.to/lastmile_qr_scan", "android": "https://dc.lft.to/lastmile_qr_scan"}, "fusion_lon": 0.0, "lat": 38.85244083333333, "is_disabled": 0, "bike_id": "0dac400bc5436dcb21af99c461ed6aa7", "fusion_lat": 0.0, "is_reserved": 0, "lon": -77.107927}, {"type": "electric_scooter", "name": "9384a56ec3b61d8f62353868282d1448", "rental_uris": {"ios": "https://dc.lft.to/lastmile_qr_scan", "android": "https://dc.lft.to/lastmile_qr_scan"}, "fusion_lon": 0.0, "lat": 38.901855, "is_disabled": 0, "bike_id": "9384a56ec3b61d8f62353868282d1448", "fusion_lat": 0.0, "is_reserved": 0, "lon": -77.01298366666667}, {"type": "electric_scooter", "name": "487c04d74484f06066e1cd79a962db60", "rental_uris": {"ios": "https://dc.lft.to/lastmile_qr_scan", "android": "https://dc.lft.to/lastmile_qr_scan"}, "fusion_lon": 0.0, "lat": 38.9104575, "is_disabled": 0, "bike_id": "487c04d74484f06066e1cd79a962db60", "fusion_lat": 0.0, "is_reserved": 0, "lon": -76.99784266666667}, {"type": "electric_scooter", "name": "568af93ac08fc50d4b5a3d0ad072c8f2", "rental_uris": {"ios": "https://dc.lft.to/lastmile_qr_scan", "android": "https://dc.lft.to/lastmile_qr_scan"}, "fusion_lon": 0.0, "lat": 38.879206833333335, "is_disabled": 0, "bike_id": "568af93ac08fc50d4b5a3d0ad072c8f2", "fusion_lat": 0.0, "is_reserved": 0, "lon": -77.00385166666666}, {"type": "electric_scooter", "name": "04d97f7e174bacbcf843a9642b942d8a", "rental_uris": {"ios": "https://dc.lft.to/lastmile_qr_scan", "android": "https://dc.lft.to/lastmile_qr_scan"}, "fusion_lon": 0.0, "lat": 38.88400566666667, "is_disabled": 0, "bike_id": "04d97f7e174bacbcf843a9642b942d8a", "fusion_lat": 0.0, "is_reserved": 0, "lon": -76.9861555}, {"type": "electric_scooter", "name": "18f1c3fcd40107380f9f727f8fcf70fe", "rental_uris": {"ios": "https://dc.lft.to/lastmile_qr_scan", "android": "https://dc.lft.to/lastmile_qr_scan"}, "fusion_lon": 0.0, "lat": 38.924371666666666, "is_disabled": 0, "bike_id": "18f1c3fcd40107380f9f727f8fcf70fe", "fusion_lat": 0.0, "is_reserved": 0, "lon": -77.034053}, {"type": "electric_scooter", "name": "14e7c0ab0ebbe77156860e50485cd04b", "rental_uris": {"ios": "https://dc.lft.to/lastmile_qr_scan", "android": "https://dc.lft.to/lastmile_qr_scan"}, "fusion_lon": 0.0, "lat": 38.923827333333335, "is_disabled": 0, "bike_id": "14e7c0ab0ebbe77156860e50485cd04b", "fusion_lat": 0.0, "is_reserved": 0, "lon": -77.03098166666666}, {"type": "electric_scooter", "name": "fa3ebdd775f4ae7d1ef37f83e63002bb", "rental_uris": {"ios": "https://dc.lft.to/lastmile_qr_scan", "android": "https://dc.lft.to/lastmile_qr_scan"}, "fusion_lon": 0.0, "lat": 38.89943533333334, "is_disabled": 0, "bike_id": "fa3ebdd775f4ae7d1ef37f83e63002bb", "fusion_lat": 0.0, "is_reserved": 0, "lon": -76.98157033333334}, {"type": "electric_scooter", "name": "d68e6e931969aeebcc15c37414168e06", "rental_uris": {"ios": "https://dc.lft.to/lastmile_qr_scan", "android": "https://dc.lft.to/lastmile_qr_scan"}, "fusion_lon": 0.0, "lat": 38.913397833333335, "is_disabled": 0, "bike_id": "d68e6e931969aeebcc15c37414168e06", "fusion_lat": 0.0, "is_reserved": 0, "lon": -77.0302025}, {"type": "electric_scooter", "name": "452eecec36317e3e5315db57d06746f3", "rental_uris": {"ios": "https://dc.lft.to/lastmile_qr_scan", "android": "https://dc.lft.to/lastmile_qr_scan"}, "fusion_lon": 0.0, "lat": 38.93051783333333, "is_disabled": 0, "bike_id": "452eecec36317e3e5315db57d06746f3", "fusion_lat": 0.0, "is_reserved": 0, "lon": -77.01864116666667}, {"type": "electric_scooter", "name": "26134b7f9e39f998113838f6a3a4d599", "rental_uris": {"ios": "https://dc.lft.to/lastmile_qr_scan", "android": "https://dc.lft.to/lastmile_qr_scan"}, "fusion_lon": 0.0, "lat": 38.884142, "is_disabled": 0, "bike_id": "26134b7f9e39f998113838f6a3a4d599", "fusion_lat": 0.0, "is_reserved": 0, "lon": -76.957628}, {"type": "electric_bike", "name": "e067678147423f7fd6ea6c53cdd16d33", "rental_uris": {"ios": "https://dc.lft.to/lastmile_qr_scan", "android": "https://dc.lft.to/lastmile_qr_scan"}, "fusion_lon": 0.0, "lat": 38.79698116666667, "is_disabled": 0, "bike_id": "e067678147423f7fd6ea6c53cdd16d33", "fusion_lat": 0.0, "is_reserved": 0, "lon": -77.003722}, {"type": "electric_scooter", "name": "4099c9c94b3e5a12078483380547fd02", "rental_uris": {"ios": "https://dc.lft.to/lastmile_qr_scan", "android": "https://dc.lft.to/lastmile_qr_scan"}, "fusion_lon": 0.0, "lat": 38.9244695, "is_disabled": 0, "bike_id": "4099c9c94b3e5a12078483380547fd02", "fusion_lat": 0.0, "is_reserved": 0, "lon": -77.02151783333333}, {"type": "electric_scooter", "name": "147b1f06b53eb0408519b33935dd1ea3", "rental_uris": {"ios": "https://dc.lft.to/lastmile_qr_scan", "android": "https://dc.lft.to/lastmile_qr_scan"}, "fusion_lon": 0.0, "lat": 38.92783683333333, "is_disabled": 0, "bike_id": "147b1f06b53eb0408519b33935dd1ea3", "fusion_lat": 0.0, "is_reserved": 0, "lon": -77.02098183333334}, {"type": "electric_scooter", "name": "852becdf99c23df1a41700d5f4fc8b62", "rental_uris": {"ios": "https://dc.lft.to/lastmile_qr_scan", "android": "https://dc.lft.to/lastmile_qr_scan"}, "fusion_lon": 0.0, "lat": 38.9163095, "is_disabled": 0, "bike_id": "852becdf99c23df1a41700d5f4fc8b62", "fusion_lat": 0.0, "is_reserved": 0, "lon": -77.0320145}, {"type": "electric_scooter", "name": "a9d5e252a2480d42f9c875bbf75577b2", "rental_uris": {"ios": "https://dc.lft.to/lastmile_qr_scan", "android": "https://dc.lft.to/lastmile_qr_scan"}, "fusion_lon": 0.0, "lat": 38.88720466666667, "is_disabled": 0, "bike_id": "a9d5e252a2480d42f9c875bbf75577b2", "fusion_lat": 0.0, "is_reserved": 0, "lon": -76.996854}, {"type": "electric_scooter", "name": "4ce932e00befc217c8ff21e18475e373", "rental_uris": {"ios": "https://dc.lft.to/lastmile_qr_scan", "android": "https://dc.lft.to/lastmile_qr_scan"}, "fusion_lon": 0.0, "lat": 38.865505666666664, "is_disabled": 0, "bike_id": "4ce932e00befc217c8ff21e18475e373", "fusion_lat": 0.0, "is_reserved": 0, "lon": -76.97859116666666}, {"type": "electric_bike", "name": "9b6a8086da651d8beb7c7b2299bfc4e8", "rental_uris": {"ios": "https://dc.lft.to/lastmile_qr_scan", "android": "https://dc.lft.to/lastmile_qr_scan"}, "fusion_lon": 0.0, "lat": 38.892102, "is_disabled": 0, "bike_id": "9b6a8086da651d8beb7c7b2299bfc4e8", "fusion_lat": 0.0, "is_reserved": 0, "lon": -76.9603005}, {"type": "electric_scooter", "name": "cdab3bc13ea10ba5843a64a3bd4cba33", "rental_uris": {"ios": "https://dc.lft.to/lastmile_qr_scan", "android": "https://dc.lft.to/lastmile_qr_scan"}, "fusion_lon": 0.0, "lat": 38.918545333333334, "is_disabled": 0, "bike_id": "cdab3bc13ea10ba5843a64a3bd4cba33", "fusion_lat": 0.0, "is_reserved": 0, "lon": -77.02599533333333}, {"type": "electric_scooter", "name": "aeff715ed31a8c1c975bf91bfc68d035", "rental_uris": {"ios": "https://dc.lft.to/lastmile_qr_scan", "android": "https://dc.lft.to/lastmile_qr_scan"}, "fusion_lon": 0.0, "lat": 38.9037655, "is_disabled": 0, "bike_id": "aeff715ed31a8c1c975bf91bfc68d035", "fusion_lat": 0.0, "is_reserved": 0, "lon": -77.01642483333333}, {"type": "electric_bike", "name": "44072e9e368a77a6e1b0476c573ee9b7", "rental_uris": {"ios": "https://dc.lft.to/lastmile_qr_scan", "android": "https://dc.lft.to/lastmile_qr_scan"}, "fusion_lon": 0.0, "lat": 38.95961366666667, "is_disabled": 0, "bike_id": "44072e9e368a77a6e1b0476c573ee9b7", "fusion_lat": 0.0, "is_reserved": 0, "lon": -76.98168}, {"type": "electric_scooter", "name": "a218008e113edfdcfae4dc7531c7e266", "rental_uris": {"ios": "https://dc.lft.to/lastmile_qr_scan", "android": "https://dc.lft.to/lastmile_qr_scan"}, "fusion_lon": 0.0, "lat": 38.92029316666667, "is_disabled": 0, "bike_id": "a218008e113edfdcfae4dc7531c7e266", "fusion_lat": 0.0, "is_reserved": 0, "lon": -77.021939}, {"type": "electric_scooter", "name": "4fc613ba00d2be9051a5b14d5739a803", "rental_uris": {"ios": "https://dc.lft.to/lastmile_qr_scan", "android": "https://dc.lft.to/lastmile_qr_scan"}, "fusion_lon": 0.0, "lat": 38.911878333333334, "is_disabled": 0, "bike_id": "4fc613ba00d2be9051a5b14d5739a803", "fusion_lat": 0.0, "is_reserved": 0, "lon": -77.03253866666667}, {"type": "electric_scooter", "name": "7100601fbb11549ce9b8608b50b652a7", "rental_uris": {"ios": "https://dc.lft.to/lastmile_qr_scan", "android": "https://dc.lft.to/lastmile_qr_scan"}, "fusion_lon": 0.0, "lat": 38.92482316666667, "is_disabled": 0, "bike_id": "7100601fbb11549ce9b8608b50b652a7", "fusion_lat": 0.0, "is_reserved": 0, "lon": -77.02754016666667}, {"type": "electric_bike", "name": "bb83796f8bc6bd4e35df2aa3bff35912", "rental_uris": {"ios": "https://dc.lft.to/lastmile_qr_scan", "android": "https://dc.lft.to/lastmile_qr_scan"}, "fusion_lon": 0.0, "lat": 38.957602, "is_disabled": 0, "bike_id": "bb83796f8bc6bd4e35df2aa3bff35912", "fusion_lat": 0.0, "is_reserved": 0, "lon": -76.98090983333333}, {"type": "electric_scooter", "name": "feecd4659a835dd5f46c0262fd68bc6b", "rental_uris": {"ios": "https://dc.lft.to/lastmile_qr_scan", "android": "https://dc.lft.to/lastmile_qr_scan"}, "fusion_lon": 0.0, "lat": 38.892233833333336, "is_disabled": 0, "bike_id": "feecd4659a835dd5f46c0262fd68bc6b", "fusion_lat": 0.0, "is_reserved": 0, "lon": -77.04865183333334}, {"type": "electric_scooter", "name": "eba57be65a74526308346e3a994574ce", "rental_uris": {"ios": "https://dc.lft.to/lastmile_qr_scan", "android": "https://dc.lft.to/lastmile_qr_scan"}, "fusion_lon": 0.0, "lat": 38.898373666666664, "is_disabled": 0, "bike_id": "eba57be65a74526308346e3a994574ce", "fusion_lat": 0.0, "is_reserved": 0, "lon": -77.0327645}, {"type": "electric_scooter", "name": "52dc7f6d8cf5590c50764d12e9b1b8b0", "rental_uris": {"ios": "https://dc.lft.to/lastmile_qr_scan", "android": "https://dc.lft.to/lastmile_qr_scan"}, "fusion_lon": 0.0, "lat": 38.93226083333333, "is_disabled": 0, "bike_id": "52dc7f6d8cf5590c50764d12e9b1b8b0", "fusion_lat": 0.0, "is_reserved": 0, "lon": -76.99537466666666}, {"type": "electric_scooter", "name": "1d6144d4027d899cd0f4a425890f1b03", "rental_uris": {"ios": "https://dc.lft.to/lastmile_qr_scan", "android": "https://dc.lft.to/lastmile_qr_scan"}, "fusion_lon": 0.0, "lat": 38.919355, "is_disabled": 0, "bike_id": "1d6144d4027d899cd0f4a425890f1b03", "fusion_lat": 0.0, "is_reserved": 0, "lon": -77.04499783333333}, {"type": "electric_scooter", "name": "0b78d11cb440cd8be2aa933724988736", "rental_uris": {"ios": "https://dc.lft.to/lastmile_qr_scan", "android": "https://dc.lft.to/lastmile_qr_scan"}, "fusion_lon": 0.0, "lat": 38.88764533333333, "is_disabled": 0, "bike_id": "0b78d11cb440cd8be2aa933724988736", "fusion_lat": 0.0, "is_reserved": 0, "lon": -76.97749683333333}, {"type": "electric_scooter", "name": "262eeaab89338b7712e1147fb45835a3", "rental_uris": {"ios": "https://dc.lft.to/lastmile_qr_scan", "android": "https://dc.lft.to/lastmile_qr_scan"}, "fusion_lon": 0.0, "lat": 38.87904433333333, "is_disabled": 0, "bike_id": "262eeaab89338b7712e1147fb45835a3", "fusion_lat": 0.0, "is_reserved": 0, "lon": -77.02193466666667}, {"type": "electric_scooter", "name": "d99777106e7f4a2282098bdc1ad79223", "rental_uris": {"ios": "https://dc.lft.to/lastmile_qr_scan", "android": "https://dc.lft.to/lastmile_qr_scan"}, "fusion_lon": 0.0, "lat": 38.89043183333333, "is_disabled": 0, "bike_id": "d99777106e7f4a2282098bdc1ad79223", "fusion_lat": 0.0, "is_reserved": 0, "lon": -76.99039333333333}, {"type": "electric_scooter", "name": "184b5a7897a53e49ce9fdc4930033b25", "rental_uris": {"ios": "https://dc.lft.to/lastmile_qr_scan", "android": "https://dc.lft.to/lastmile_qr_scan"}, "fusion_lon": 0.0, "lat": 38.915315, "is_disabled": 0, "bike_id": "184b5a7897a53e49ce9fdc4930033b25", "fusion_lat": 0.0, "is_reserved": 0, "lon": -77.012237}, {"type": "electric_scooter", "name": "79fd1d3328cf3f8baed84725e48be4af", "rental_uris": {"ios": "https://dc.lft.to/lastmile_qr_scan", "android": "https://dc.lft.to/lastmile_qr_scan"}, "fusion_lon": 0.0, "lat": 38.91919583333333, "is_disabled": 0, "bike_id": "79fd1d3328cf3f8baed84725e48be4af", "fusion_lat": 0.0, "is_reserved": 0, "lon": -77.03183416666667}, {"type": "electric_scooter", "name": "f8a3b24700bcb69d40dd9b48231d47fb", "rental_uris": {"ios": "https://dc.lft.to/lastmile_qr_scan", "android": "https://dc.lft.to/lastmile_qr_scan"}, "fusion_lon": 0.0, "lat": 38.884887666666664, "is_disabled": 0, "bike_id": "f8a3b24700bcb69d40dd9b48231d47fb", "fusion_lat": 0.0, "is_reserved": 0, "lon": -77.0071145}, {"type": "electric_scooter", "name": "1939249b90fec852e283a12eeaaca277", "rental_uris": {"ios": "https://dc.lft.to/lastmile_qr_scan", "android": "https://dc.lft.to/lastmile_qr_scan"}, "fusion_lon": 0.0, "lat": 38.9000315, "is_disabled": 0, "bike_id": "1939249b90fec852e283a12eeaaca277", "fusion_lat": 0.0, "is_reserved": 0, "lon": -77.00184816666666}, {"type": "electric_scooter", "name": "79097a1bc77aa6f01dd355f0abcf8290", "rental_uris": {"ios": "https://dc.lft.to/lastmile_qr_scan", "android": "https://dc.lft.to/lastmile_qr_scan"}, "fusion_lon": 0.0, "lat": 38.906868, "is_disabled": 0, "bike_id": "79097a1bc77aa6f01dd355f0abcf8290", "fusion_lat": 0.0, "is_reserved": 0, "lon": -76.98495666666666}, {"type": "electric_scooter", "name": "f055a7d22a14c28b74064866dc752dd6", "rental_uris": {"ios": "https://dc.lft.to/lastmile_qr_scan", "android": "https://dc.lft.to/lastmile_qr_scan"}, "fusion_lon": 0.0, "lat": 38.943124, "is_disabled": 0, "bike_id": "f055a7d22a14c28b74064866dc752dd6", "fusion_lat": 0.0, "is_reserved": 0, "lon": -77.0172965}, {"type": "electric_scooter", "name": "a5b972ecc1db480039393100631cf429", "rental_uris": {"ios": "https://dc.lft.to/lastmile_qr_scan", "android": "https://dc.lft.to/lastmile_qr_scan"}, "fusion_lon": 0.0, "lat": 38.92110433333333, "is_disabled": 0, "bike_id": "a5b972ecc1db480039393100631cf429", "fusion_lat": 0.0, "is_reserved": 0, "lon": -77.03177866666667}, {"type": "electric_scooter", "name": "4afb6af9568d3d69d5615398758d43b6", "rental_uris": {"ios": "https://dc.lft.to/lastmile_qr_scan", "android": "https://dc.lft.to/lastmile_qr_scan"}, "fusion_lon": 0.0, "lat": 38.886377, "is_disabled": 0, "bike_id": "4afb6af9568d3d69d5615398758d43b6", "fusion_lat": 0.0, "is_reserved": 0, "lon": -77.01542466666666}, {"type": "electric_scooter", "name": "35abbe8861c208cfbf2774f923a3b029", "rental_uris": {"ios": "https://dc.lft.to/lastmile_qr_scan", "android": "https://dc.lft.to/lastmile_qr_scan"}, "fusion_lon": 0.0, "lat": 38.90843266666667, "is_disabled": 0, "bike_id": "35abbe8861c208cfbf2774f923a3b029", "fusion_lat": 0.0, "is_reserved": 0, "lon": -77.05575566666667}, {"type": "electric_scooter", "name": "e51578ef8d3ec546d2d2591a5536883c", "rental_uris": {"ios": "https://dc.lft.to/lastmile_qr_scan", "android": "https://dc.lft.to/lastmile_qr_scan"}, "fusion_lon": 0.0, "lat": 38.90595366666667, "is_disabled": 0, "bike_id": "e51578ef8d3ec546d2d2591a5536883c", "fusion_lat": 0.0, "is_reserved": 0, "lon": -77.06560783333333}, {"type": "electric_scooter", "name": "469aa71261d9bf434839c53d6eb371c0", "rental_uris": {"ios": "https://dc.lft.to/lastmile_qr_scan", "android": "https://dc.lft.to/lastmile_qr_scan"}, "fusion_lon": 0.0, "lat": 38.919210166666666, "is_disabled": 0, "bike_id": "469aa71261d9bf434839c53d6eb371c0", "fusion_lat": 0.0, "is_reserved": 0, "lon": -77.03174983333334}, {"type": "electric_scooter", "name": "751b7e9a11a714d79967b18b1ec45145", "rental_uris": {"ios": "https://dc.lft.to/lastmile_qr_scan", "android": "https://dc.lft.to/lastmile_qr_scan"}, "fusion_lon": 0.0, "lat": 38.854568666666665, "is_disabled": 0, "bike_id": "751b7e9a11a714d79967b18b1ec45145", "fusion_lat": 0.0, "is_reserved": 0, "lon": -76.972297}, {"type": "electric_scooter", "name": "c083aa29d184019f12008a7eaece3e8c", "rental_uris": {"ios": "https://dc.lft.to/lastmile_qr_scan", "android": "https://dc.lft.to/lastmile_qr_scan"}, "fusion_lon": 0.0, "lat": 38.919143166666665, "is_disabled": 0, "bike_id": "c083aa29d184019f12008a7eaece3e8c", "fusion_lat": 0.0, "is_reserved": 0, "lon": -77.03178983333333}, {"type": "electric_scooter", "name": "aa9cac3ba0664ad82b7731f0e1c63870", "rental_uris": {"ios": "https://dc.lft.to/lastmile_qr_scan", "android": "https://dc.lft.to/lastmile_qr_scan"}, "fusion_lon": 0.0, "lat": 38.876488, "is_disabled": 0, "bike_id": "aa9cac3ba0664ad82b7731f0e1c63870", "fusion_lat": 0.0, "is_reserved": 0, "lon": -77.00751716666667}, {"type": "electric_bike", "name": "b957dd85b95c1006eb7ace9dea89075e", "rental_uris": {"ios": "https://dc.lft.to/lastmile_qr_scan", "android": "https://dc.lft.to/lastmile_qr_scan"}, "fusion_lon": 0.0, "lat": 39.034153, "is_disabled": 0, "bike_id": "b957dd85b95c1006eb7ace9dea89075e", "fusion_lat": 0.0, "is_reserved": 0, "lon": -77.04162016666666}, {"type": "electric_scooter", "name": "6588f3939764ba0edd88958365bce769", "rental_uris": {"ios": "https://dc.lft.to/lastmile_qr_scan", "android": "https://dc.lft.to/lastmile_qr_scan"}, "fusion_lon": 0.0, "lat": 38.896131833333335, "is_disabled": 0, "bike_id": "6588f3939764ba0edd88958365bce769", "fusion_lat": 0.0, "is_reserved": 0, "lon": -77.0450205}, {"type": "electric_scooter", "name": "103cc7b97f6111b895c139440c837df1", "rental_uris": {"ios": "https://dc.lft.to/lastmile_qr_scan", "android": "https://dc.lft.to/lastmile_qr_scan"}, "fusion_lon": 0.0, "lat": 38.910612666666665, "is_disabled": 0, "bike_id": "103cc7b97f6111b895c139440c837df1", "fusion_lat": 0.0, "is_reserved": 0, "lon": -77.05290033333333}, {"type": "electric_scooter", "name": "f3a9e15218bfb670c28791653f86dbd2", "rental_uris": {"ios": "https://dc.lft.to/lastmile_qr_scan", "android": "https://dc.lft.to/lastmile_qr_scan"}, "fusion_lon": 0.0, "lat": 38.921165, "is_disabled": 0, "bike_id": "f3a9e15218bfb670c28791653f86dbd2", "fusion_lat": 0.0, "is_reserved": 0, "lon": -77.046889}, {"type": "electric_scooter", "name": "3b9ac4e1a16997383fed6df50f1cd66e", "rental_uris": {"ios": "https://dc.lft.to/lastmile_qr_scan", "android": "https://dc.lft.to/lastmile_qr_scan"}, "fusion_lon": 0.0, "lat": 38.89387333333333, "is_disabled": 0, "bike_id": "3b9ac4e1a16997383fed6df50f1cd66e", "fusion_lat": 0.0, "is_reserved": 0, "lon": -76.92305733333333}, {"type": "electric_scooter", "name": "c0dfae7753a7b256140b39a7b84e859c", "rental_uris": {"ios": "https://dc.lft.to/lastmile_qr_scan", "android": "https://dc.lft.to/lastmile_qr_scan"}, "fusion_lon": 0.0, "lat": 38.931068833333335, "is_disabled": 0, "bike_id": "c0dfae7753a7b256140b39a7b84e859c", "fusion_lat": 0.0, "is_reserved": 0, "lon": -77.02985683333333}, {"type": "electric_scooter", "name": "46ea7766c0c37aa7cf19aa462d807701", "rental_uris": {"ios": "https://dc.lft.to/lastmile_qr_scan", "android": "https://dc.lft.to/lastmile_qr_scan"}, "fusion_lon": 0.0, "lat": 38.898583333333335, "is_disabled": 0, "bike_id": "46ea7766c0c37aa7cf19aa462d807701", "fusion_lat": 0.0, "is_reserved": 0, "lon": -76.94634566666667}, {"type": "electric_scooter", "name": "5d6cd445cd324e887aaa47133964042b", "rental_uris": {"ios": "https://dc.lft.to/lastmile_qr_scan", "android": "https://dc.lft.to/lastmile_qr_scan"}, "fusion_lon": 0.0, "lat": 38.861737, "is_disabled": 0, "bike_id": "5d6cd445cd324e887aaa47133964042b", "fusion_lat": 0.0, "is_reserved": 0, "lon": -76.96905316666667}, {"type": "electric_bike", "name": "648d0acfcb9812ac48569ce98960ae31", "rental_uris": {"ios": "https://dc.lft.to/lastmile_qr_scan", "android": "https://dc.lft.to/lastmile_qr_scan"}, "fusion_lon": 0.0, "lat": 39.05632383333333, "is_disabled": 0, "bike_id": "648d0acfcb9812ac48569ce98960ae31", "fusion_lat": 0.0, "is_reserved": 0, "lon": -77.125267}, {"type": "electric_scooter", "name": "a741a4407e8a39fdeb4c66dab9d3b92f", "rental_uris": {"ios": "https://dc.lft.to/lastmile_qr_scan", "android": "https://dc.lft.to/lastmile_qr_scan"}, "fusion_lon": 0.0, "lat": 38.936047, "is_disabled": 0, "bike_id": "a741a4407e8a39fdeb4c66dab9d3b92f", "fusion_lat": 0.0, "is_reserved": 0, "lon": -77.0586035}, {"type": "electric_scooter", "name": "4761c7c1b5e1fee4a341149fb53098e8", "rental_uris": {"ios": "https://dc.lft.to/lastmile_qr_scan", "android": "https://dc.lft.to/lastmile_qr_scan"}, "fusion_lon": 0.0, "lat": 38.90864766666667, "is_disabled": 0, "bike_id": "4761c7c1b5e1fee4a341149fb53098e8", "fusion_lat": 0.0, "is_reserved": 0, "lon": -76.99794583333333}, {"type": "electric_scooter", "name": "083ae247917eb7a31fd8dc47534e8ef0", "rental_uris": {"ios": "https://dc.lft.to/lastmile_qr_scan", "android": "https://dc.lft.to/lastmile_qr_scan"}, "fusion_lon": 0.0, "lat": 38.92731116666667, "is_disabled": 0, "bike_id": "083ae247917eb7a31fd8dc47534e8ef0", "fusion_lat": 0.0, "is_reserved": 0, "lon": -77.023101}, {"type": "electric_scooter", "name": "3d15803824a5b623b2843cc14b607ba4", "rental_uris": {"ios": "https://dc.lft.to/lastmile_qr_scan", "android": "https://dc.lft.to/lastmile_qr_scan"}, "fusion_lon": 0.0, "lat": 38.917038166666664, "is_disabled": 0, "bike_id": "3d15803824a5b623b2843cc14b607ba4", "fusion_lat": 0.0, "is_reserved": 0, "lon": -77.03123416666666}, {"type": "electric_scooter", "name": "549a84e51097a0d8536b593cee52fb95", "rental_uris": {"ios": "https://dc.lft.to/lastmile_qr_scan", "android": "https://dc.lft.to/lastmile_qr_scan"}, "fusion_lon": 0.0, "lat": 38.9338025, "is_disabled": 0, "bike_id": "549a84e51097a0d8536b593cee52fb95", "fusion_lat": 0.0, "is_reserved": 0, "lon": -77.0268595}, {"type": "electric_scooter", "name": "adde378d17140ab2ee2ff1aa7f95abd5", "rental_uris": {"ios": "https://dc.lft.to/lastmile_qr_scan", "android": "https://dc.lft.to/lastmile_qr_scan"}, "fusion_lon": 0.0, "lat": 38.949526666666664, "is_disabled": 0, "bike_id": "adde378d17140ab2ee2ff1aa7f95abd5", "fusion_lat": 0.0, "is_reserved": 0, "lon": -77.02317816666667}, {"type": "electric_scooter", "name": "51fb2a1a0603cf28016ae71854edf3d9", "rental_uris": {"ios": "https://dc.lft.to/lastmile_qr_scan", "android": "https://dc.lft.to/lastmile_qr_scan"}, "fusion_lon": 0.0, "lat": 38.89869216666666, "is_disabled": 0, "bike_id": "51fb2a1a0603cf28016ae71854edf3d9", "fusion_lat": 0.0, "is_reserved": 0, "lon": -77.027903}, {"type": "electric_scooter", "name": "2aa54769e9640dcb4fa94934c62e21a6", "rental_uris": {"ios": "https://dc.lft.to/lastmile_qr_scan", "android": "https://dc.lft.to/lastmile_qr_scan"}, "fusion_lon": 0.0, "lat": 38.90880666666666, "is_disabled": 0, "bike_id": "2aa54769e9640dcb4fa94934c62e21a6", "fusion_lat": 0.0, "is_reserved": 0, "lon": -77.07526983333334}, {"type": "electric_scooter", "name": "ccc69438316fef3ed16dbebbedc677fe", "rental_uris": {"ios": "https://dc.lft.to/lastmile_qr_scan", "android": "https://dc.lft.to/lastmile_qr_scan"}, "fusion_lon": 0.0, "lat": 38.919644166666664, "is_disabled": 0, "bike_id": "ccc69438316fef3ed16dbebbedc677fe", "fusion_lat": 0.0, "is_reserved": 0, "lon": -77.023676}, {"type": "electric_scooter", "name": "11e85dde0e58c61244047de715995f08", "rental_uris": {"ios": "https://dc.lft.to/lastmile_qr_scan", "android": "https://dc.lft.to/lastmile_qr_scan"}, "fusion_lon": 0.0, "lat": 38.889476333333334, "is_disabled": 0, "bike_id": "11e85dde0e58c61244047de715995f08", "fusion_lat": 0.0, "is_reserved": 0, "lon": -76.99163283333333}, {"type": "electric_scooter", "name": "5cf32d42018a83cb660a7dc24bc07e9e", "rental_uris": {"ios": "https://dc.lft.to/lastmile_qr_scan", "android": "https://dc.lft.to/lastmile_qr_scan"}, "fusion_lon": 0.0, "lat": 38.8969675, "is_disabled": 0, "bike_id": "5cf32d42018a83cb660a7dc24bc07e9e", "fusion_lat": 0.0, "is_reserved": 0, "lon": -77.00760216666667}, {"type": "electric_scooter", "name": "511ecffebfa47a487e4fce1de78888d1", "rental_uris": {"ios": "https://dc.lft.to/lastmile_qr_scan", "android": "https://dc.lft.to/lastmile_qr_scan"}, "fusion_lon": 0.0, "lat": 38.921016333333334, "is_disabled": 0, "bike_id": "511ecffebfa47a487e4fce1de78888d1", "fusion_lat": 0.0, "is_reserved": 0, "lon": -77.04186883333334}, {"type": "electric_scooter", "name": "533aee21d0d088a67bc86a7799fbad9f", "rental_uris": {"ios": "https://dc.lft.to/lastmile_qr_scan", "android": "https://dc.lft.to/lastmile_qr_scan"}, "fusion_lon": 0.0, "lat": 38.944166, "is_disabled": 0, "bike_id": "533aee21d0d088a67bc86a7799fbad9f", "fusion_lat": 0.0, "is_reserved": 0, "lon": -77.01778083333333}, {"type": "electric_scooter", "name": "8be40201c140290c51cbdb5f79c39d7e", "rental_uris": {"ios": "https://dc.lft.to/lastmile_qr_scan", "android": "https://dc.lft.to/lastmile_qr_scan"}, "fusion_lon": 0.0, "lat": 38.927305, "is_disabled": 0, "bike_id": "8be40201c140290c51cbdb5f79c39d7e", "fusion_lat": 0.0, "is_reserved": 0, "lon": -77.02310316666667}, {"type": "electric_scooter", "name": "eb10b911f334194a4faf34ba11734f8f", "rental_uris": {"ios": "https://dc.lft.to/lastmile_qr_scan", "android": "https://dc.lft.to/lastmile_qr_scan"}, "fusion_lon": 0.0, "lat": 38.922201, "is_disabled": 0, "bike_id": "eb10b911f334194a4faf34ba11734f8f", "fusion_lat": 0.0, "is_reserved": 0, "lon": -77.0241785}, {"type": "electric_scooter", "name": "14bc1be54fbe2ed8b6287f92e2272865", "rental_uris": {"ios": "https://dc.lft.to/lastmile_qr_scan", "android": "https://dc.lft.to/lastmile_qr_scan"}, "fusion_lon": 0.0, "lat": 38.926709, "is_disabled": 0, "bike_id": "14bc1be54fbe2ed8b6287f92e2272865", "fusion_lat": 0.0, "is_reserved": 0, "lon": -77.02921266666667}, {"type": "electric_scooter", "name": "99a329d214b56db664b8b0b163185f0f", "rental_uris": {"ios": "https://dc.lft.to/lastmile_qr_scan", "android": "https://dc.lft.to/lastmile_qr_scan"}, "fusion_lon": 0.0, "lat": 38.923244, "is_disabled": 0, "bike_id": "99a329d214b56db664b8b0b163185f0f", "fusion_lat": 0.0, "is_reserved": 0, "lon": -77.03550133333333}, {"type": "electric_scooter", "name": "c4d24b614c27b0041a10a3f852672009", "rental_uris": {"ios": "https://dc.lft.to/lastmile_qr_scan", "android": "https://dc.lft.to/lastmile_qr_scan"}, "fusion_lon": 0.0, "lat": 38.90162333333333, "is_disabled": 0, "bike_id": "c4d24b614c27b0041a10a3f852672009", "fusion_lat": 0.0, "is_reserved": 0, "lon": -76.98076883333333}, {"type": "electric_scooter", "name": "8a5f0ab9acfecd4c08112c5ade2c1d5f", "rental_uris": {"ios": "https://dc.lft.to/lastmile_qr_scan", "android": "https://dc.lft.to/lastmile_qr_scan"}, "fusion_lon": 0.0, "lat": 38.91935566666667, "is_disabled": 0, "bike_id": "8a5f0ab9acfecd4c08112c5ade2c1d5f", "fusion_lat": 0.0, "is_reserved": 0, "lon": -77.044963}, {"type": "electric_scooter", "name": "919a0d914b21050a9c7967c936e5b8d9", "rental_uris": {"ios": "https://dc.lft.to/lastmile_qr_scan", "android": "https://dc.lft.to/lastmile_qr_scan"}, "fusion_lon": 0.0, "lat": 38.91504966666667, "is_disabled": 0, "bike_id": "919a0d914b21050a9c7967c936e5b8d9", "fusion_lat": 0.0, "is_reserved": 0, "lon": -77.038267}, {"type": "electric_scooter", "name": "9d61d09f816dc80f976826f07f0117d1", "rental_uris": {"ios": "https://dc.lft.to/lastmile_qr_scan", "android": "https://dc.lft.to/lastmile_qr_scan"}, "fusion_lon": 0.0, "lat": 38.9078985, "is_disabled": 0, "bike_id": "9d61d09f816dc80f976826f07f0117d1", "fusion_lat": 0.0, "is_reserved": 0, "lon": -77.040029}, {"type": "electric_scooter", "name": "a7fe5d6de3d394610736d2abc6cf542f", "rental_uris": {"ios": "https://dc.lft.to/lastmile_qr_scan", "android": "https://dc.lft.to/lastmile_qr_scan"}, "fusion_lon": 0.0, "lat": 38.91257016666667, "is_disabled": 0, "bike_id": "a7fe5d6de3d394610736d2abc6cf542f", "fusion_lat": 0.0, "is_reserved": 0, "lon": -77.019095}, {"type": "electric_scooter", "name": "424a0a21d9b9db7f089a4368bb643126", "rental_uris": {"ios": "https://dc.lft.to/lastmile_qr_scan", "android": "https://dc.lft.to/lastmile_qr_scan"}, "fusion_lon": 0.0, "lat": 38.90408, "is_disabled": 0, "bike_id": "424a0a21d9b9db7f089a4368bb643126", "fusion_lat": 0.0, "is_reserved": 0, "lon": -76.97329966666666}, {"type": "electric_scooter", "name": "592b07d4cb9c6fc598e5792492cab9c9", "rental_uris": {"ios": "https://dc.lft.to/lastmile_qr_scan", "android": "https://dc.lft.to/lastmile_qr_scan"}, "fusion_lon": 0.0, "lat": 38.920978, "is_disabled": 0, "bike_id": "592b07d4cb9c6fc598e5792492cab9c9", "fusion_lat": 0.0, "is_reserved": 0, "lon": -77.04685216666667}, {"type": "electric_scooter", "name": "a6a32e73c34fb9627c08ff931fa68242", "rental_uris": {"ios": "https://dc.lft.to/lastmile_qr_scan", "android": "https://dc.lft.to/lastmile_qr_scan"}, "fusion_lon": 0.0, "lat": 38.928804666666665, "is_disabled": 0, "bike_id": "a6a32e73c34fb9627c08ff931fa68242", "fusion_lat": 0.0, "is_reserved": 0, "lon": -77.0270795}, {"type": "electric_scooter", "name": "9ac5f1a622e6f3f5fbe08f18d2037bc0", "rental_uris": {"ios": "https://dc.lft.to/lastmile_qr_scan", "android": "https://dc.lft.to/lastmile_qr_scan"}, "fusion_lon": 0.0, "lat": 38.91318966666667, "is_disabled": 0, "bike_id": "9ac5f1a622e6f3f5fbe08f18d2037bc0", "fusion_lat": 0.0, "is_reserved": 0, "lon": -77.01512783333334}, {"type": "electric_scooter", "name": "a2ea6ce8e0e155aa59d5491aac3cf4bd", "rental_uris": {"ios": "https://dc.lft.to/lastmile_qr_scan", "android": "https://dc.lft.to/lastmile_qr_scan"}, "fusion_lon": 0.0, "lat": 38.902595, "is_disabled": 0, "bike_id": "a2ea6ce8e0e155aa59d5491aac3cf4bd", "fusion_lat": 0.0, "is_reserved": 0, "lon": -76.974608}, {"type": "electric_scooter", "name": "fae03c33a1976ce487a00a2bc423f71f", "rental_uris": {"ios": "https://dc.lft.to/lastmile_qr_scan", "android": "https://dc.lft.to/lastmile_qr_scan"}, "fusion_lon": 0.0, "lat": 38.898334166666665, "is_disabled": 0, "bike_id": "fae03c33a1976ce487a00a2bc423f71f", "fusion_lat": 0.0, "is_reserved": 0, "lon": -77.03169683333333}, {"type": "electric_scooter", "name": "6f1675b7da070fb50bf5f98826453bdc", "rental_uris": {"ios": "https://dc.lft.to/lastmile_qr_scan", "android": "https://dc.lft.to/lastmile_qr_scan"}, "fusion_lon": 0.0, "lat": 38.90856983333333, "is_disabled": 0, "bike_id": "6f1675b7da070fb50bf5f98826453bdc", "fusion_lat": 0.0, "is_reserved": 0, "lon": -76.997924}, {"type": "electric_scooter", "name": "7370491a580e5a1d7fcef4836568ae35", "rental_uris": {"ios": "https://dc.lft.to/lastmile_qr_scan", "android": "https://dc.lft.to/lastmile_qr_scan"}, "fusion_lon": 0.0, "lat": 38.873909833333336, "is_disabled": 0, "bike_id": "7370491a580e5a1d7fcef4836568ae35", "fusion_lat": 0.0, "is_reserved": 0, "lon": -77.000281}, {"type": "electric_scooter", "name": "a324792fcf66a94dc22ddb12d4ea6f66", "rental_uris": {"ios": "https://dc.lft.to/lastmile_qr_scan", "android": "https://dc.lft.to/lastmile_qr_scan"}, "fusion_lon": 0.0, "lat": 38.910055, "is_disabled": 0, "bike_id": "a324792fcf66a94dc22ddb12d4ea6f66", "fusion_lat": 0.0, "is_reserved": 0, "lon": -76.99411233333333}, {"type": "electric_scooter", "name": "430b5d115d3f0b2546ca80cd1f5e119e", "rental_uris": {"ios": "https://dc.lft.to/lastmile_qr_scan", "android": "https://dc.lft.to/lastmile_qr_scan"}, "fusion_lon": 0.0, "lat": 38.92755866666667, "is_disabled": 0, "bike_id": "430b5d115d3f0b2546ca80cd1f5e119e", "fusion_lat": 0.0, "is_reserved": 0, "lon": -77.02113133333333}, {"type": "electric_scooter", "name": "764855972bc1789dd9ceb5c93c50c5c7", "rental_uris": {"ios": "https://dc.lft.to/lastmile_qr_scan", "android": "https://dc.lft.to/lastmile_qr_scan"}, "fusion_lon": 0.0, "lat": 38.87670816666667, "is_disabled": 0, "bike_id": "764855972bc1789dd9ceb5c93c50c5c7", "fusion_lat": 0.0, "is_reserved": 0, "lon": -77.00889783333334}, {"type": "electric_scooter", "name": "598ef1cf5372986f3842780897ad857d", "rental_uris": {"ios": "https://dc.lft.to/lastmile_qr_scan", "android": "https://dc.lft.to/lastmile_qr_scan"}, "fusion_lon": 0.0, "lat": 38.92079366666667, "is_disabled": 0, "bike_id": "598ef1cf5372986f3842780897ad857d", "fusion_lat": 0.0, "is_reserved": 0, "lon": -77.01389866666666}, {"type": "electric_scooter", "name": "743f17adab0d542b68a6786cd33348cd", "rental_uris": {"ios": "https://dc.lft.to/lastmile_qr_scan", "android": "https://dc.lft.to/lastmile_qr_scan"}, "fusion_lon": 0.0, "lat": 38.9024895, "is_disabled": 0, "bike_id": "743f17adab0d542b68a6786cd33348cd", "fusion_lat": 0.0, "is_reserved": 0, "lon": -77.05935416666667}, {"type": "electric_scooter", "name": "715355af8c65ecaf8a49d01d6739b282", "rental_uris": {"ios": "https://dc.lft.to/lastmile_qr_scan", "android": "https://dc.lft.to/lastmile_qr_scan"}, "fusion_lon": 0.0, "lat": 38.900648333333336, "is_disabled": 0, "bike_id": "715355af8c65ecaf8a49d01d6739b282", "fusion_lat": 0.0, "is_reserved": 0, "lon": -77.045354}, {"type": "electric_scooter", "name": "e0ecab2b72909c78f14d4dd2750dda13", "rental_uris": {"ios": "https://dc.lft.to/lastmile_qr_scan", "android": "https://dc.lft.to/lastmile_qr_scan"}, "fusion_lon": 0.0, "lat": 38.92361, "is_disabled": 0, "bike_id": "e0ecab2b72909c78f14d4dd2750dda13", "fusion_lat": 0.0, "is_reserved": 0, "lon": -77.0505325}, {"type": "electric_scooter", "name": "09fe74325ad8f4328d0d32fc0bb4d61f", "rental_uris": {"ios": "https://dc.lft.to/lastmile_qr_scan", "android": "https://dc.lft.to/lastmile_qr_scan"}, "fusion_lon": 0.0, "lat": 38.92772133333333, "is_disabled": 0, "bike_id": "09fe74325ad8f4328d0d32fc0bb4d61f", "fusion_lat": 0.0, "is_reserved": 0, "lon": -77.0271175}, {"type": "electric_bike", "name": "063e202a18e16ec1b07cb1c005652b2a", "rental_uris": {"ios": "https://dc.lft.to/lastmile_qr_scan", "android": "https://dc.lft.to/lastmile_qr_scan"}, "fusion_lon": 0.0, "lat": 38.94916333333333, "is_disabled": 0, "bike_id": "063e202a18e16ec1b07cb1c005652b2a", "fusion_lat": 0.0, "is_reserved": 0, "lon": -77.00799683333334}, {"type": "electric_scooter", "name": "e1869c40668229f74bb1a3c60f177607", "rental_uris": {"ios": "https://dc.lft.to/lastmile_qr_scan", "android": "https://dc.lft.to/lastmile_qr_scan"}, "fusion_lon": 0.0, "lat": 38.885279833333335, "is_disabled": 0, "bike_id": "e1869c40668229f74bb1a3c60f177607", "fusion_lat": 0.0, "is_reserved": 0, "lon": -77.01535066666666}, {"type": "electric_scooter", "name": "915573ce67fbf9521a26121309152614", "rental_uris": {"ios": "https://dc.lft.to/lastmile_qr_scan", "android": "https://dc.lft.to/lastmile_qr_scan"}, "fusion_lon": 0.0, "lat": 38.90802216666667, "is_disabled": 0, "bike_id": "915573ce67fbf9521a26121309152614", "fusion_lat": 0.0, "is_reserved": 0, "lon": -77.03455616666666}, {"type": "electric_scooter", "name": "c36cac23b5dab60d0c8fc6040a6b3d1b", "rental_uris": {"ios": "https://dc.lft.to/lastmile_qr_scan", "android": "https://dc.lft.to/lastmile_qr_scan"}, "fusion_lon": 0.0, "lat": 38.887207833333335, "is_disabled": 0, "bike_id": "c36cac23b5dab60d0c8fc6040a6b3d1b", "fusion_lat": 0.0, "is_reserved": 0, "lon": -76.99688366666666}, {"type": "electric_scooter", "name": "4b9cebdc30ed2e1afedb2fc5fc486ed1", "rental_uris": {"ios": "https://dc.lft.to/lastmile_qr_scan", "android": "https://dc.lft.to/lastmile_qr_scan"}, "fusion_lon": 0.0, "lat": 38.93256983333333, "is_disabled": 0, "bike_id": "4b9cebdc30ed2e1afedb2fc5fc486ed1", "fusion_lat": 0.0, "is_reserved": 0, "lon": -77.03106}, {"type": "electric_scooter", "name": "89e40a71994d276fc31232b8795fa929", "rental_uris": {"ios": "https://dc.lft.to/lastmile_qr_scan", "android": "https://dc.lft.to/lastmile_qr_scan"}, "fusion_lon": 0.0, "lat": 38.924936333333335, "is_disabled": 0, "bike_id": "89e40a71994d276fc31232b8795fa929", "fusion_lat": 0.0, "is_reserved": 0, "lon": -77.051098}, {"type": "electric_scooter", "name": "91473b61ba720fddd6b861d8acd30d93", "rental_uris": {"ios": "https://dc.lft.to/lastmile_qr_scan", "android": "https://dc.lft.to/lastmile_qr_scan"}, "fusion_lon": 0.0, "lat": 38.90361516666667, "is_disabled": 0, "bike_id": "91473b61ba720fddd6b861d8acd30d93", "fusion_lat": 0.0, "is_reserved": 0, "lon": -77.02576066666667}, {"type": "electric_scooter", "name": "9c8eb5f7a871296621ce6b702498ec08", "rental_uris": {"ios": "https://dc.lft.to/lastmile_qr_scan", "android": "https://dc.lft.to/lastmile_qr_scan"}, "fusion_lon": 0.0, "lat": 38.90838683333333, "is_disabled": 0, "bike_id": "9c8eb5f7a871296621ce6b702498ec08", "fusion_lat": 0.0, "is_reserved": 0, "lon": -76.999828}, {"type": "electric_scooter", "name": "3e7e3ca5c27d3785bd11a57faae86bf6", "rental_uris": {"ios": "https://dc.lft.to/lastmile_qr_scan", "android": "https://dc.lft.to/lastmile_qr_scan"}, "fusion_lon": 0.0, "lat": 38.90836633333333, "is_disabled": 0, "bike_id": "3e7e3ca5c27d3785bd11a57faae86bf6", "fusion_lat": 0.0, "is_reserved": 0, "lon": -76.991897}, {"type": "electric_scooter", "name": "6ad056629be116ddce03beeaf0011c5c", "rental_uris": {"ios": "https://dc.lft.to/lastmile_qr_scan", "android": "https://dc.lft.to/lastmile_qr_scan"}, "fusion_lon": 0.0, "lat": 38.918195833333336, "is_disabled": 0, "bike_id": "6ad056629be116ddce03beeaf0011c5c", "fusion_lat": 0.0, "is_reserved": 0, "lon": -77.01347633333333}, {"type": "electric_scooter", "name": "1570ca2e71ecabd67b90c41153873ad6", "rental_uris": {"ios": "https://dc.lft.to/lastmile_qr_scan", "android": "https://dc.lft.to/lastmile_qr_scan"}, "fusion_lon": 0.0, "lat": 38.87885266666667, "is_disabled": 0, "bike_id": "1570ca2e71ecabd67b90c41153873ad6", "fusion_lat": 0.0, "is_reserved": 0, "lon": -77.00134616666666}, {"type": "electric_scooter", "name": "fefdce4914b3ccd67c65e4fba958488a", "rental_uris": {"ios": "https://dc.lft.to/lastmile_qr_scan", "android": "https://dc.lft.to/lastmile_qr_scan"}, "fusion_lon": 0.0, "lat": 38.905217, "is_disabled": 0, "bike_id": "fefdce4914b3ccd67c65e4fba958488a", "fusion_lat": 0.0, "is_reserved": 0, "lon": -77.06782316666667}, {"type": "electric_scooter", "name": "27760eb3bd29f28a238189bf23eb557f", "rental_uris": {"ios": "https://dc.lft.to/lastmile_qr_scan", "android": "https://dc.lft.to/lastmile_qr_scan"}, "fusion_lon": 0.0, "lat": 38.900043, "is_disabled": 0, "bike_id": "27760eb3bd29f28a238189bf23eb557f", "fusion_lat": 0.0, "is_reserved": 0, "lon": -77.01023383333333}, {"type": "electric_scooter", "name": "e84d6fb44e4aa8b7d40af7f103b981a7", "rental_uris": {"ios": "https://dc.lft.to/lastmile_qr_scan", "android": "https://dc.lft.to/lastmile_qr_scan"}, "fusion_lon": 0.0, "lat": 38.91224183333333, "is_disabled": 0, "bike_id": "e84d6fb44e4aa8b7d40af7f103b981a7", "fusion_lat": 0.0, "is_reserved": 0, "lon": -77.07695466666667}, {"type": "electric_scooter", "name": "379e969121b1ca39183624ca3919c319", "rental_uris": {"ios": "https://dc.lft.to/lastmile_qr_scan", "android": "https://dc.lft.to/lastmile_qr_scan"}, "fusion_lon": 0.0, "lat": 38.9420595, "is_disabled": 0, "bike_id": "379e969121b1ca39183624ca3919c319", "fusion_lat": 0.0, "is_reserved": 0, "lon": -77.02592066666666}, {"type": "electric_scooter", "name": "4e8f8ec408fa43a33cbc5004ff57c952", "rental_uris": {"ios": "https://dc.lft.to/lastmile_qr_scan", "android": "https://dc.lft.to/lastmile_qr_scan"}, "fusion_lon": 0.0, "lat": 38.912964, "is_disabled": 0, "bike_id": "4e8f8ec408fa43a33cbc5004ff57c952", "fusion_lat": 0.0, "is_reserved": 0, "lon": -77.04543166666667}, {"type": "electric_scooter", "name": "23e334befbc10b42da02c4d97d008570", "rental_uris": {"ios": "https://dc.lft.to/lastmile_qr_scan", "android": "https://dc.lft.to/lastmile_qr_scan"}, "fusion_lon": 0.0, "lat": 38.90789483333333, "is_disabled": 0, "bike_id": "23e334befbc10b42da02c4d97d008570", "fusion_lat": 0.0, "is_reserved": 0, "lon": -77.000216}, {"type": "electric_scooter", "name": "56497e1c2e199c9773f1c2d0fa6be55b", "rental_uris": {"ios": "https://dc.lft.to/lastmile_qr_scan", "android": "https://dc.lft.to/lastmile_qr_scan"}, "fusion_lon": 0.0, "lat": 38.896078333333335, "is_disabled": 0, "bike_id": "56497e1c2e199c9773f1c2d0fa6be55b", "fusion_lat": 0.0, "is_reserved": 0, "lon": -76.99281583333334}, {"type": "electric_scooter", "name": "fc120de325f49146645f339cd4fc3c29", "rental_uris": {"ios": "https://dc.lft.to/lastmile_qr_scan", "android": "https://dc.lft.to/lastmile_qr_scan"}, "fusion_lon": 0.0, "lat": 38.904508, "is_disabled": 0, "bike_id": "fc120de325f49146645f339cd4fc3c29", "fusion_lat": 0.0, "is_reserved": 0, "lon": -76.9742595}, {"type": "electric_scooter", "name": "b12fb9516747f0024d60c5b4ee8032b7", "rental_uris": {"ios": "https://dc.lft.to/lastmile_qr_scan", "android": "https://dc.lft.to/lastmile_qr_scan"}, "fusion_lon": 0.0, "lat": 38.92682716666667, "is_disabled": 0, "bike_id": "b12fb9516747f0024d60c5b4ee8032b7", "fusion_lat": 0.0, "is_reserved": 0, "lon": -77.032287}, {"type": "electric_scooter", "name": "86961671be52e81fce773e181d2c283e", "rental_uris": {"ios": "https://dc.lft.to/lastmile_qr_scan", "android": "https://dc.lft.to/lastmile_qr_scan"}, "fusion_lon": 0.0, "lat": 38.90475433333334, "is_disabled": 0, "bike_id": "86961671be52e81fce773e181d2c283e", "fusion_lat": 0.0, "is_reserved": 0, "lon": -77.06535883333333}, {"type": "electric_scooter", "name": "18e30b78e1a40f234073e23f80b7577e", "rental_uris": {"ios": "https://dc.lft.to/lastmile_qr_scan", "android": "https://dc.lft.to/lastmile_qr_scan"}, "fusion_lon": 0.0, "lat": 38.897298166666666, "is_disabled": 0, "bike_id": "18e30b78e1a40f234073e23f80b7577e", "fusion_lat": 0.0, "is_reserved": 0, "lon": -77.05523433333333}, {"type": "electric_bike", "name": "60fda055a36838e8f8916ca3c94eca30", "rental_uris": {"ios": "https://dc.lft.to/lastmile_qr_scan", "android": "https://dc.lft.to/lastmile_qr_scan"}, "fusion_lon": 0.0, "lat": 38.997737666666666, "is_disabled": 0, "bike_id": "60fda055a36838e8f8916ca3c94eca30", "fusion_lat": 0.0, "is_reserved": 0, "lon": -77.04718783333334}, {"type": "electric_scooter", "name": "62b2d7d850b32dd3c883e060dd1c08d8", "rental_uris": {"ios": "https://dc.lft.to/lastmile_qr_scan", "android": "https://dc.lft.to/lastmile_qr_scan"}, "fusion_lon": 0.0, "lat": 38.9141355, "is_disabled": 0, "bike_id": "62b2d7d850b32dd3c883e060dd1c08d8", "fusion_lat": 0.0, "is_reserved": 0, "lon": -77.01878016666667}, {"type": "electric_scooter", "name": "0525d5344cc0a64b97e4c5faeca98870", "rental_uris": {"ios": "https://dc.lft.to/lastmile_qr_scan", "android": "https://dc.lft.to/lastmile_qr_scan"}, "fusion_lon": 0.0, "lat": 38.901199166666665, "is_disabled": 0, "bike_id": "0525d5344cc0a64b97e4c5faeca98870", "fusion_lat": 0.0, "is_reserved": 0, "lon": -77.04233666666667}, {"type": "electric_scooter", "name": "03d159bac84af6f57202907616865a36", "rental_uris": {"ios": "https://dc.lft.to/lastmile_qr_scan", "android": "https://dc.lft.to/lastmile_qr_scan"}, "fusion_lon": 0.0, "lat": 38.93496966666667, "is_disabled": 0, "bike_id": "03d159bac84af6f57202907616865a36", "fusion_lat": 0.0, "is_reserved": 0, "lon": -77.02416033333333}, {"type": "electric_scooter", "name": "456973ff078505146479c233fc2d9293", "rental_uris": {"ios": "https://dc.lft.to/lastmile_qr_scan", "android": "https://dc.lft.to/lastmile_qr_scan"}, "fusion_lon": 0.0, "lat": 38.933961833333335, "is_disabled": 0, "bike_id": "456973ff078505146479c233fc2d9293", "fusion_lat": 0.0, "is_reserved": 0, "lon": -77.0574555}, {"type": "electric_scooter", "name": "9210d266e12cc4a6b756b7af67afc3f9", "rental_uris": {"ios": "https://dc.lft.to/lastmile_qr_scan", "android": "https://dc.lft.to/lastmile_qr_scan"}, "fusion_lon": 0.0, "lat": 38.91270316666667, "is_disabled": 0, "bike_id": "9210d266e12cc4a6b756b7af67afc3f9", "fusion_lat": 0.0, "is_reserved": 0, "lon": -77.022185}, {"type": "electric_scooter", "name": "b8514dad5f1b95825a4ce7a375a36483", "rental_uris": {"ios": "https://dc.lft.to/lastmile_qr_scan", "android": "https://dc.lft.to/lastmile_qr_scan"}, "fusion_lon": 0.0, "lat": 38.905625, "is_disabled": 0, "bike_id": "b8514dad5f1b95825a4ce7a375a36483", "fusion_lat": 0.0, "is_reserved": 0, "lon": -77.00574383333333}, {"type": "electric_scooter", "name": "07dbeaf25f458881e38ec5fc21e9a778", "rental_uris": {"ios": "https://dc.lft.to/lastmile_qr_scan", "android": "https://dc.lft.to/lastmile_qr_scan"}, "fusion_lon": 0.0, "lat": 38.905177333333334, "is_disabled": 0, "bike_id": "07dbeaf25f458881e38ec5fc21e9a778", "fusion_lat": 0.0, "is_reserved": 0, "lon": -77.0485575}, {"type": "electric_scooter", "name": "157bf37b766134650eda22ab5f7eb182", "rental_uris": {"ios": "https://dc.lft.to/lastmile_qr_scan", "android": "https://dc.lft.to/lastmile_qr_scan"}, "fusion_lon": 0.0, "lat": 38.9461635, "is_disabled": 0, "bike_id": "157bf37b766134650eda22ab5f7eb182", "fusion_lat": 0.0, "is_reserved": 0, "lon": -77.036828}, {"type": "electric_scooter", "name": "368d8cdd3055d3e889e09f39b8acce0c", "rental_uris": {"ios": "https://dc.lft.to/lastmile_qr_scan", "android": "https://dc.lft.to/lastmile_qr_scan"}, "fusion_lon": 0.0, "lat": 38.902924166666665, "is_disabled": 0, "bike_id": "368d8cdd3055d3e889e09f39b8acce0c", "fusion_lat": 0.0, "is_reserved": 0, "lon": -76.97638066666667}, {"type": "electric_scooter", "name": "4c64332da292fe67f23418f505bcd161", "rental_uris": {"ios": "https://dc.lft.to/lastmile_qr_scan", "android": "https://dc.lft.to/lastmile_qr_scan"},