{"data": {"bikes": [{"is_reserved": 0, "type": "electric_bike", "bike_id": "8428e9daf1fcbab7eccad5b45ca6a9d4", "lat": 38.854169666666664, "lon": -77.08368166666666, "rental_uris": {"android": "https://dc.lft.to/lastmile_qr_scan", "ios": "https://dc.lft.to/lastmile_qr_scan"}, "is_disabled": 0, "fusion_lat": 0.0, "name": "8428e9daf1fcbab7eccad5b45ca6a9d4", "fusion_lon": 0.0}, {"is_reserved": 0, "type": "electric_scooter", "bike_id": "ff9b3b00942f098af4db1c9906c905e4", "lat": 38.9027115, "lon": -77.01811366666666, "rental_uris": {"android": "https://dc.lft.to/lastmile_qr_scan", "ios": "https://dc.lft.to/lastmile_qr_scan"}, "is_disabled": 0, "fusion_lat": 0.0, "name": "ff9b3b00942f098af4db1c9906c905e4", "fusion_lon": 0.0}, {"is_reserved": 0, "type": "electric_scooter", "bike_id": "983b7ae0223036f1414ec5e03c765b52", "lat": 38.9297155, "lon": -77.02789783333333, "rental_uris": {"android": "https://dc.lft.to/lastmile_qr_scan", "ios": "https://dc.lft.to/lastmile_qr_scan"}, "is_disabled": 0, "fusion_lat": 0.0, "name": "983b7ae0223036f1414ec5e03c765b52", "fusion_lon": 0.0}, {"is_reserved": 0, "type": "electric_scooter", "bike_id": "9ef302d5754e6e2c7081448f5bd9f68b", "lat": 38.9026805, "lon": -77.027863, "rental_uris": {"android": "https://dc.lft.to/lastmile_qr_scan", "ios": "https://dc.lft.to/lastmile_qr_scan"}, "is_disabled": 0, "fusion_lat": 0.0, "name": "9ef302d5754e6e2c7081448f5bd9f68b", "fusion_lon": 0.0}, {"is_reserved": 0, "type": "electric_scooter", "bike_id": "8e3dfdb50841a1c9d81e90d3773ab750", "lat": 38.9097765, "lon": -77.03379266666667, "rental_uris": {"android": "https://dc.lft.to/lastmile_qr_scan", "ios": "https://dc.lft.to/lastmile_qr_scan"}, "is_disabled": 0, "fusion_lat": 0.0, "name": "8e3dfdb50841a1c9d81e90d3773ab750", "fusion_lon": 0.0}, {"is_reserved": 0, "type": "electric_bike", "bike_id": "30b4337385025866df481d8c328c8e5d", "lat": 38.86998116666667, "lon": -77.229921, "rental_uris": {"android": "https://dc.lft.to/lastmile_qr_scan", "ios": "https://dc.lft.to/lastmile_qr_scan"}, "is_disabled": 0, "fusion_lat": 0.0, "name": "30b4337385025866df481d8c328c8e5d", "fusion_lon": 0.0}, {"is_reserved": 0, "type": "electric_scooter", "bike_id": "790ddb5252c34e453b9e81e3b81557e2", "lat": 38.901925, "lon": -77.021766, "rental_uris": {"android": "https://dc.lft.to/lastmile_qr_scan", "ios": "https://dc.lft.to/lastmile_qr_scan"}, "is_disabled": 0, "fusion_lat": 0.0, "name": "790ddb5252c34e453b9e81e3b81557e2", "fusion_lon": 0.0}, {"is_reserved": 0, "type": "electric_scooter", "bike_id": "067b2216af5d5c82814c2f1cb775be3f", "lat": 38.92515183333333, "lon": -77.05062566666666, "rental_uris": {"android": "https://dc.lft.to/lastmile_qr_scan", "ios": "https://dc.lft.to/lastmile_qr_scan"}, "is_disabled": 0, "fusion_lat": 0.0, "name": "067b2216af5d5c82814c2f1cb775be3f", "fusion_lon": 0.0}, {"is_reserved": 0, "type": "electric_bike", "bike_id": "17379f7b89d1229de10a28db950f850f", "lat": 38.8633005, "lon": -76.98719766666666, "rental_uris": {"android": "https://dc.lft.to/lastmile_qr_scan", "ios": "https://dc.lft.to/lastmile_qr_scan"}, "is_disabled": 0, "fusion_lat": 0.0, "name": "17379f7b89d1229de10a28db950f850f", "fusion_lon": 0.0}, {"is_reserved": 0, "type": "electric_scooter", "bike_id": "ecc34386c313124c29432e5ddd702c44", "lat": 38.924198, "lon": -77.020083, "rental_uris": {"android": "https://dc.lft.to/lastmile_qr_scan", "ios": "https://dc.lft.to/lastmile_qr_scan"}, "is_disabled": 0, "fusion_lat": 0.0, "name": "ecc34386c313124c29432e5ddd702c44", "fusion_lon": 0.0}, {"is_reserved": 0, "type": "electric_scooter", "bike_id": "e69328fe5096e4d035104434658c7d3f", "lat": 38.892484833333334, "lon": -77.0395925, "rental_uris": {"android": "https://dc.lft.to/lastmile_qr_scan", "ios": "https://dc.lft.to/lastmile_qr_scan"}, "is_disabled": 0, "fusion_lat": 0.0, "name": "e69328fe5096e4d035104434658c7d3f", "fusion_lon": 0.0}, {"is_reserved": 0, "type": "electric_scooter", "bike_id": "968c45ac05ca6ee1a1430f34e4f40fa8", "lat": 38.917602333333335, "lon": -77.004524, "rental_uris": {"android": "https://dc.lft.to/lastmile_qr_scan", "ios": "https://dc.lft.to/lastmile_qr_scan"}, "is_disabled": 0, "fusion_lat": 0.0, "name": "968c45ac05ca6ee1a1430f34e4f40fa8", "fusion_lon": 0.0}, {"is_reserved": 0, "type": "electric_scooter", "bike_id": "8d3f7b147140963918bb4a594c76e653", "lat": 38.917439333333334, "lon": -77.00753033333334, "rental_uris": {"android": "https://dc.lft.to/lastmile_qr_scan", "ios": "https://dc.lft.to/lastmile_qr_scan"}, "is_disabled": 0, "fusion_lat": 0.0, "name": "8d3f7b147140963918bb4a594c76e653", "fusion_lon": 0.0}, {"is_reserved": 0, "type": "electric_scooter", "bike_id": "383452e4997d9ac86c1c65820f919004", "lat": 38.91062983333333, "lon": -77.0373, "rental_uris": {"android": "https://dc.lft.to/lastmile_qr_scan", "ios": "https://dc.lft.to/lastmile_qr_scan"}, "is_disabled": 0, "fusion_lat": 0.0, "name": "383452e4997d9ac86c1c65820f919004", "fusion_lon": 0.0}, {"is_reserved": 0, "type": "electric_scooter", "bike_id": "622debcdcc3b75ce0a8ca4d8232ba80a", "lat": 38.90923683333333, "lon": -77.06363066666667, "rental_uris": {"android": "https://dc.lft.to/lastmile_qr_scan", "ios": "https://dc.lft.to/lastmile_qr_scan"}, "is_disabled": 0, "fusion_lat": 0.0, "name": "622debcdcc3b75ce0a8ca4d8232ba80a", "fusion_lon": 0.0}, {"is_reserved": 0, "type": "electric_scooter", "bike_id": "72bd63f3d7835fd15d45886ccbd412fd", "lat": 38.917017333333334, "lon": -77.024107, "rental_uris": {"android": "https://dc.lft.to/lastmile_qr_scan", "ios": "https://dc.lft.to/lastmile_qr_scan"}, "is_disabled": 0, "fusion_lat": 0.0, "name": "72bd63f3d7835fd15d45886ccbd412fd", "fusion_lon": 0.0}, {"is_reserved": 0, "type": "electric_scooter", "bike_id": "3bb0e6d98eb3a6c1f9dcaa76a83dda14", "lat": 38.91624433333333, "lon": -77.04251733333334, "rental_uris": {"android": "https://dc.lft.to/lastmile_qr_scan", "ios": "https://dc.lft.to/lastmile_qr_scan"}, "is_disabled": 0, "fusion_lat": 0.0, "name": "3bb0e6d98eb3a6c1f9dcaa76a83dda14", "fusion_lon": 0.0}, {"is_reserved": 0, "type": "electric_bike", "bike_id": "f131ab7fe8898e4750fbf792ac8467d2", "lat": 38.93293116666667, "lon": -77.02832666666667, "rental_uris": {"android": "https://dc.lft.to/lastmile_qr_scan", "ios": "https://dc.lft.to/lastmile_qr_scan"}, "is_disabled": 0, "fusion_lat": 0.0, "name": "f131ab7fe8898e4750fbf792ac8467d2", "fusion_lon": 0.0}, {"is_reserved": 0, "type": "electric_scooter", "bike_id": "c59c41b043296765eb698dd765d64c57", "lat": 38.87975616666667, "lon": -77.00857133333334, "rental_uris": {"android": "https://dc.lft.to/lastmile_qr_scan", "ios": "https://dc.lft.to/lastmile_qr_scan"}, "is_disabled": 0, "fusion_lat": 0.0, "name": "c59c41b043296765eb698dd765d64c57", "fusion_lon": 0.0}, {"is_reserved": 0, "type": "electric_scooter", "bike_id": "03d2731f2b6b9dfce8c7f325bcb4a2a0", "lat": 38.933287666666665, "lon": -77.02912233333333, "rental_uris": {"android": "https://dc.lft.to/lastmile_qr_scan", "ios": "https://dc.lft.to/lastmile_qr_scan"}, "is_disabled": 0, "fusion_lat": 0.0, "name": "03d2731f2b6b9dfce8c7f325bcb4a2a0", "fusion_lon": 0.0}, {"is_reserved": 0, "type": "electric_scooter", "bike_id": "8d73b12017fe54ef3dfbbdf79bdf5d12", "lat": 38.89316183333333, "lon": -77.02230916666667, "rental_uris": {"android": "https://dc.lft.to/lastmile_qr_scan", "ios": "https://dc.lft.to/lastmile_qr_scan"}, "is_disabled": 0, "fusion_lat": 0.0, "name": "8d73b12017fe54ef3dfbbdf79bdf5d12", "fusion_lon": 0.0}, {"is_reserved": 0, "type": "electric_bike", "bike_id": "6222d0445523be9cae39fb7722af8088", "lat": 38.88030083333334, "lon": -76.99557933333334, "rental_uris": {"android": "https://dc.lft.to/lastmile_qr_scan", "ios": "https://dc.lft.to/lastmile_qr_scan"}, "is_disabled": 0, "fusion_lat": 0.0, "name": "6222d0445523be9cae39fb7722af8088", "fusion_lon": 0.0}, {"is_reserved": 0, "type": "electric_scooter", "bike_id": "6af3efca1f997a62d1fc561cf8e5ae1b", "lat": 38.89891016666667, "lon": -77.02183216666667, "rental_uris": {"android": "https://dc.lft.to/lastmile_qr_scan", "ios": "https://dc.lft.to/lastmile_qr_scan"}, "is_disabled": 0, "fusion_lat": 0.0, "name": "6af3efca1f997a62d1fc561cf8e5ae1b", "fusion_lon": 0.0}, {"is_reserved": 0, "type": "electric_scooter", "bike_id": "9b6d07878529e088506e31331e79794b", "lat": 38.89714883333333, "lon": -77.00794916666666, "rental_uris": {"android": "https://dc.lft.to/lastmile_qr_scan", "ios": "https://dc.lft.to/lastmile_qr_scan"}, "is_disabled": 0, "fusion_lat": 0.0, "name": "9b6d07878529e088506e31331e79794b", "fusion_lon": 0.0}, {"is_reserved": 0, "type": "electric_scooter", "bike_id": "0836a288d5b07d09cfe89a7178372e24", "lat": 38.90533966666667, "lon": -77.05994333333334, "rental_uris": {"android": "https://dc.lft.to/lastmile_qr_scan", "ios": "https://dc.lft.to/lastmile_qr_scan"}, "is_disabled": 0, "fusion_lat": 0.0, "name": "0836a288d5b07d09cfe89a7178372e24", "fusion_lon": 0.0}, {"is_reserved": 0, "type": "electric_scooter", "bike_id": "14137f28bf5bc3535a9443bedc548523", "lat": 38.9162965, "lon": -77.03212383333333, "rental_uris": {"android": "https://dc.lft.to/lastmile_qr_scan", "ios": "https://dc.lft.to/lastmile_qr_scan"}, "is_disabled": 0, "fusion_lat": 0.0, "name": "14137f28bf5bc3535a9443bedc548523", "fusion_lon": 0.0}, {"is_reserved": 0, "type": "electric_scooter", "bike_id": "9d079316e1efad03aa6e92e7139a0db3", "lat": 38.94039133333333, "lon": -77.02905383333334, "rental_uris": {"android": "https://dc.lft.to/lastmile_qr_scan", "ios": "https://dc.lft.to/lastmile_qr_scan"}, "is_disabled": 0, "fusion_lat": 0.0, "name": "9d079316e1efad03aa6e92e7139a0db3", "fusion_lon": 0.0}, {"is_reserved": 0, "type": "electric_scooter", "bike_id": "f1fd92df5d7b39c73230f03a90027ee5", "lat": 38.87849633333333, "lon": -76.9955715, "rental_uris": {"android": "https://dc.lft.to/lastmile_qr_scan", "ios": "https://dc.lft.to/lastmile_qr_scan"}, "is_disabled": 0, "fusion_lat": 0.0, "name": "f1fd92df5d7b39c73230f03a90027ee5", "fusion_lon": 0.0}, {"is_reserved": 0, "type": "electric_scooter", "bike_id": "825316dbc75af39a008a3a71fdde7469", "lat": 38.9000805, "lon": -77.04027, "rental_uris": {"android": "https://dc.lft.to/lastmile_qr_scan", "ios": "https://dc.lft.to/lastmile_qr_scan"}, "is_disabled": 0, "fusion_lat": 0.0, "name": "825316dbc75af39a008a3a71fdde7469", "fusion_lon": 0.0}, {"is_reserved": 0, "type": "electric_scooter", "bike_id": "d937c365ff28462970fbd0b18e1db252", "lat": 38.93194583333333, "lon": -77.03862983333333, "rental_uris": {"android": "https://dc.lft.to/lastmile_qr_scan", "ios": "https://dc.lft.to/lastmile_qr_scan"}, "is_disabled": 0, "fusion_lat": 0.0, "name": "d937c365ff28462970fbd0b18e1db252", "fusion_lon": 0.0}, {"is_reserved": 0, "type": "electric_scooter", "bike_id": "87e57799bbc8c3abd74cd215da1cd6ce", "lat": 38.9003395, "lon": -76.996009, "rental_uris": {"android": "https://dc.lft.to/lastmile_qr_scan", "ios": "https://dc.lft.to/lastmile_qr_scan"}, "is_disabled": 0, "fusion_lat": 0.0, "name": "87e57799bbc8c3abd74cd215da1cd6ce", "fusion_lon": 0.0}, {"is_reserved": 0, "type": "electric_scooter", "bike_id": "505f4099514207f81d545ee614df7085", "lat": 38.926245, "lon": -77.03790733333334, "rental_uris": {"android": "https://dc.lft.to/lastmile_qr_scan", "ios": "https://dc.lft.to/lastmile_qr_scan"}, "is_disabled": 0, "fusion_lat": 0.0, "name": "505f4099514207f81d545ee614df7085", "fusion_lon": 0.0}, {"is_reserved": 0, "type": "electric_bike", "bike_id": "2dc1e34eafbf5e7c078e4bd8acd77c96", "lat": 38.80382983333333, "lon": -76.9881575, "rental_uris": {"android": "https://dc.lft.to/lastmile_qr_scan", "ios": "https://dc.lft.to/lastmile_qr_scan"}, "is_disabled": 0, "fusion_lat": 0.0, "name": "2dc1e34eafbf5e7c078e4bd8acd77c96", "fusion_lon": 0.0}, {"is_reserved": 0, "type": "electric_scooter", "bike_id": "cbc5c5f71c9b7623f08e809937db456c", "lat": 38.90396233333333, "lon": -77.04216216666667, "rental_uris": {"android": "https://dc.lft.to/lastmile_qr_scan", "ios": "https://dc.lft.to/lastmile_qr_scan"}, "is_disabled": 0, "fusion_lat": 0.0, "name": "cbc5c5f71c9b7623f08e809937db456c", "fusion_lon": 0.0}, {"is_reserved": 0, "type": "electric_scooter", "bike_id": "692df16f742b4fc2f83f6f79b0f8103e", "lat": 38.848117, "lon": -76.9781935, "rental_uris": {"android": "https://dc.lft.to/lastmile_qr_scan", "ios": "https://dc.lft.to/lastmile_qr_scan"}, "is_disabled": 0, "fusion_lat": 0.0, "name": "692df16f742b4fc2f83f6f79b0f8103e", "fusion_lon": 0.0}, {"is_reserved": 0, "type": "electric_scooter", "bike_id": "4e48b4331c595362511cab6ae05755df", "lat": 38.91767266666667, "lon": -77.04059783333334, "rental_uris": {"android": "https://dc.lft.to/lastmile_qr_scan", "ios": "https://dc.lft.to/lastmile_qr_scan"}, "is_disabled": 0, "fusion_lat": 0.0, "name": "4e48b4331c595362511cab6ae05755df", "fusion_lon": 0.0}, {"is_reserved": 0, "type": "electric_scooter", "bike_id": "78bb8fdad2d82c7acbac17162dfc7fd7", "lat": 38.922659333333335, "lon": -76.997435, "rental_uris": {"android": "https://dc.lft.to/lastmile_qr_scan", "ios": "https://dc.lft.to/lastmile_qr_scan"}, "is_disabled": 0, "fusion_lat": 0.0, "name": "78bb8fdad2d82c7acbac17162dfc7fd7", "fusion_lon": 0.0}, {"is_reserved": 0, "type": "electric_scooter", "bike_id": "6c5435bf4c7fe03d57f72ec5ec818eac", "lat": 38.89354183333333, "lon": -76.94104983333334, "rental_uris": {"android": "https://dc.lft.to/lastmile_qr_scan", "ios": "https://dc.lft.to/lastmile_qr_scan"}, "is_disabled": 0, "fusion_lat": 0.0, "name": "6c5435bf4c7fe03d57f72ec5ec818eac", "fusion_lon": 0.0}, {"is_reserved": 0, "type": "electric_scooter", "bike_id": "3d32a8f4f46ebd5268676ef0dd8d3fec", "lat": 38.91794633333333, "lon": -77.032109, "rental_uris": {"android": "https://dc.lft.to/lastmile_qr_scan", "ios": "https://dc.lft.to/lastmile_qr_scan"}, "is_disabled": 0, "fusion_lat": 0.0, "name": "3d32a8f4f46ebd5268676ef0dd8d3fec", "fusion_lon": 0.0}, {"is_reserved": 0, "type": "electric_scooter", "bike_id": "84c281fd535c21f15478903647b7762e", "lat": 38.94731633333333, "lon": -77.02465766666667, "rental_uris": {"android": "https://dc.lft.to/lastmile_qr_scan", "ios": "https://dc.lft.to/lastmile_qr_scan"}, "is_disabled": 0, "fusion_lat": 0.0, "name": "84c281fd535c21f15478903647b7762e", "fusion_lon": 0.0}, {"is_reserved": 0, "type": "electric_scooter", "bike_id": "7d78a955a87965f7cc2fef1cc7eaec9b", "lat": 38.933683333333335, "lon": -77.0572915, "rental_uris": {"android": "https://dc.lft.to/lastmile_qr_scan", "ios": "https://dc.lft.to/lastmile_qr_scan"}, "is_disabled": 0, "fusion_lat": 0.0, "name": "7d78a955a87965f7cc2fef1cc7eaec9b", "fusion_lon": 0.0}, {"is_reserved": 0, "type": "electric_bike", "bike_id": "4853e8d292910215c67c4e0e2d05f42c", "lat": 38.862477, "lon": -77.05890816666667, "rental_uris": {"android": "https://dc.lft.to/lastmile_qr_scan", "ios": "https://dc.lft.to/lastmile_qr_scan"}, "is_disabled": 0, "fusion_lat": 0.0, "name": "4853e8d292910215c67c4e0e2d05f42c", "fusion_lon": 0.0}, {"is_reserved": 0, "type": "electric_scooter", "bike_id": "5fdb32bd810f952f6edbde1a1f35d1b3", "lat": 38.925672, "lon": -76.97002083333334, "rental_uris": {"android": "https://dc.lft.to/lastmile_qr_scan", "ios": "https://dc.lft.to/lastmile_qr_scan"}, "is_disabled": 0, "fusion_lat": 0.0, "name": "5fdb32bd810f952f6edbde1a1f35d1b3", "fusion_lon": 0.0}, {"is_reserved": 0, "type": "electric_scooter", "bike_id": "dae9b821bda03fc98340554ef1be8925", "lat": 38.93736083333334, "lon": -77.03654, "rental_uris": {"android": "https://dc.lft.to/lastmile_qr_scan", "ios": "https://dc.lft.to/lastmile_qr_scan"}, "is_disabled": 0, "fusion_lat": 0.0, "name": "dae9b821bda03fc98340554ef1be8925", "fusion_lon": 0.0}, {"is_reserved": 0, "type": "electric_scooter", "bike_id": "0d24cd99acbc685e5213e08d385cd441", "lat": 38.8921875, "lon": -77.02313066666666, "rental_uris": {"android": "https://dc.lft.to/lastmile_qr_scan", "ios": "https://dc.lft.to/lastmile_qr_scan"}, "is_disabled": 0, "fusion_lat": 0.0, "name": "0d24cd99acbc685e5213e08d385cd441", "fusion_lon": 0.0}, {"is_reserved": 0, "type": "electric_bike", "bike_id": "fb34c95c3f08fca100a7a4cc7b56409a", "lat": 38.95133766666667, "lon": -76.965908, "rental_uris": {"android": "https://dc.lft.to/lastmile_qr_scan", "ios": "https://dc.lft.to/lastmile_qr_scan"}, "is_disabled": 0, "fusion_lat": 0.0, "name": "fb34c95c3f08fca100a7a4cc7b56409a", "fusion_lon": 0.0}, {"is_reserved": 0, "type": "electric_scooter", "bike_id": "42852f0a75eaa3584a8516314ee51e7b", "lat": 38.892298833333335, "lon": -77.0218, "rental_uris": {"android": "https://dc.lft.to/lastmile_qr_scan", "ios": "https://dc.lft.to/lastmile_qr_scan"}, "is_disabled": 0, "fusion_lat": 0.0, "name": "42852f0a75eaa3584a8516314ee51e7b", "fusion_lon": 0.0}, {"is_reserved": 0, "type": "electric_scooter", "bike_id": "68e1e0bfa067d12a8334635e74fbd2d7", "lat": 38.9082915, "lon": -77.03459783333334, "rental_uris": {"android": "https://dc.lft.to/lastmile_qr_scan", "ios": "https://dc.lft.to/lastmile_qr_scan"}, "is_disabled": 0, "fusion_lat": 0.0, "name": "68e1e0bfa067d12a8334635e74fbd2d7", "fusion_lon": 0.0}, {"is_reserved": 0, "type": "electric_scooter", "bike_id": "dcf1c201d1943bf052135c29d87138e3", "lat": 38.92047933333333, "lon": -77.0220355, "rental_uris": {"android": "https://dc.lft.to/lastmile_qr_scan", "ios": "https://dc.lft.to/lastmile_qr_scan"}, "is_disabled": 0, "fusion_lat": 0.0, "name": "dcf1c201d1943bf052135c29d87138e3", "fusion_lon": 0.0}, {"is_reserved": 0, "type": "electric_scooter", "bike_id": "74c07180782a3b1e6d34c0577b14180a", "lat": 38.90029966666667, "lon": -76.991487, "rental_uris": {"android": "https://dc.lft.to/lastmile_qr_scan", "ios": "https://dc.lft.to/lastmile_qr_scan"}, "is_disabled": 0, "fusion_lat": 0.0, "name": "74c07180782a3b1e6d34c0577b14180a", "fusion_lon": 0.0}, {"is_reserved": 0, "type": "electric_scooter", "bike_id": "b941e09dd5a130ace75c8d564952b034", "lat": 38.916842333333335, "lon": -77.037709, "rental_uris": {"android": "https://dc.lft.to/lastmile_qr_scan", "ios": "https://dc.lft.to/lastmile_qr_scan"}, "is_disabled": 0, "fusion_lat": 0.0, "name": "b941e09dd5a130ace75c8d564952b034", "fusion_lon": 0.0}, {"is_reserved": 0, "type": "electric_scooter", "bike_id": "ff61977bd7106ebc384807efb036b154", "lat": 38.899355166666666, "lon": -77.03178683333333, "rental_uris": {"android": "https://dc.lft.to/lastmile_qr_scan", "ios": "https://dc.lft.to/lastmile_qr_scan"}, "is_disabled": 0, "fusion_lat": 0.0, "name": "ff61977bd7106ebc384807efb036b154", "fusion_lon": 0.0}, {"is_reserved": 0, "type": "electric_scooter", "bike_id": "f7b0c6e454346f23b388debf43865ffe", "lat": 38.905606666666664, "lon": -77.0416015, "rental_uris": {"android": "https://dc.lft.to/lastmile_qr_scan", "ios": "https://dc.lft.to/lastmile_qr_scan"}, "is_disabled": 0, "fusion_lat": 0.0, "name": "f7b0c6e454346f23b388debf43865ffe", "fusion_lon": 0.0}, {"is_reserved": 0, "type": "electric_scooter", "bike_id": "566dd836147b4c42aa6a47f530da980e", "lat": 38.9183845, "lon": -77.04511283333333, "rental_uris": {"android": "https://dc.lft.to/lastmile_qr_scan", "ios": "https://dc.lft.to/lastmile_qr_scan"}, "is_disabled": 0, "fusion_lat": 0.0, "name": "566dd836147b4c42aa6a47f530da980e", "fusion_lon": 0.0}, {"is_reserved": 0, "type": "electric_scooter", "bike_id": "3a51be3aea3e5b26bd2dbf932d3a58e9", "lat": 38.92415716666667, "lon": -77.02007783333333, "rental_uris": {"android": "https://dc.lft.to/lastmile_qr_scan", "ios": "https://dc.lft.to/lastmile_qr_scan"}, "is_disabled": 0, "fusion_lat": 0.0, "name": "3a51be3aea3e5b26bd2dbf932d3a58e9", "fusion_lon": 0.0}, {"is_reserved": 0, "type": "electric_scooter", "bike_id": "c13c5eef2555b672d90812c071d7307b", "lat": 38.9289165, "lon": -77.03253516666666, "rental_uris": {"android": "https://dc.lft.to/lastmile_qr_scan", "ios": "https://dc.lft.to/lastmile_qr_scan"}, "is_disabled": 0, "fusion_lat": 0.0, "name": "c13c5eef2555b672d90812c071d7307b", "fusion_lon": 0.0}, {"is_reserved": 0, "type": "electric_scooter", "bike_id": "35804af97f80348b4bacfef1dfb5a4ee", "lat": 38.87814266666667, "lon": -77.00865883333333, "rental_uris": {"android": "https://dc.lft.to/lastmile_qr_scan", "ios": "https://dc.lft.to/lastmile_qr_scan"}, "is_disabled": 0, "fusion_lat": 0.0, "name": "35804af97f80348b4bacfef1dfb5a4ee", "fusion_lon": 0.0}, {"is_reserved": 0, "type": "electric_scooter", "bike_id": "708ea2af9ab6e6ea492753f1c2a73f0a", "lat": 38.90027383333333, "lon": -76.98855033333334, "rental_uris": {"android": "https://dc.lft.to/lastmile_qr_scan", "ios": "https://dc.lft.to/lastmile_qr_scan"}, "is_disabled": 0, "fusion_lat": 0.0, "name": "708ea2af9ab6e6ea492753f1c2a73f0a", "fusion_lon": 0.0}, {"is_reserved": 0, "type": "electric_scooter", "bike_id": "14e12a6e8a7bc0ea9d7ed418be6a4db6", "lat": 38.89979316666667, "lon": -77.02620366666666, "rental_uris": {"android": "https://dc.lft.to/lastmile_qr_scan", "ios": "https://dc.lft.to/lastmile_qr_scan"}, "is_disabled": 0, "fusion_lat": 0.0, "name": "14e12a6e8a7bc0ea9d7ed418be6a4db6", "fusion_lon": 0.0}, {"is_reserved": 0, "type": "electric_scooter", "bike_id": "a21e3c2eb097df40c3ab892704fc094c", "lat": 38.92182433333333, "lon": -76.99627866666667, "rental_uris": {"android": "https://dc.lft.to/lastmile_qr_scan", "ios": "https://dc.lft.to/lastmile_qr_scan"}, "is_disabled": 0, "fusion_lat": 0.0, "name": "a21e3c2eb097df40c3ab892704fc094c", "fusion_lon": 0.0}, {"is_reserved": 0, "type": "electric_scooter", "bike_id": "59bddd4fe1dbaf63e22c52f1d3d81106", "lat": 38.90557783333333, "lon": -76.98136633333333, "rental_uris": {"android": "https://dc.lft.to/lastmile_qr_scan", "ios": "https://dc.lft.to/lastmile_qr_scan"}, "is_disabled": 0, "fusion_lat": 0.0, "name": "59bddd4fe1dbaf63e22c52f1d3d81106", "fusion_lon": 0.0}, {"is_reserved": 0, "type": "electric_bike", "bike_id": "f27715b51c01aa6587aa10276847bc37", "lat": 38.84938233333333, "lon": -77.11751566666666, "rental_uris": {"android": "https://dc.lft.to/lastmile_qr_scan", "ios": "https://dc.lft.to/lastmile_qr_scan"}, "is_disabled": 0, "fusion_lat": 0.0, "name": "f27715b51c01aa6587aa10276847bc37", "fusion_lon": 0.0}, {"is_reserved": 0, "type": "electric_scooter", "bike_id": "43df2b45d0ae48cf7e063b32d78382f1", "lat": 38.8922765, "lon": -77.04867666666667, "rental_uris": {"android": "https://dc.lft.to/lastmile_qr_scan", "ios": "https://dc.lft.to/lastmile_qr_scan"}, "is_disabled": 0, "fusion_lat": 0.0, "name": "43df2b45d0ae48cf7e063b32d78382f1", "fusion_lon": 0.0}, {"is_reserved": 0, "type": "electric_scooter", "bike_id": "7a65edb0329d9216065daffc32962045", "lat": 38.90515516666667, "lon": -77.00209116666667, "rental_uris": {"android": "https://dc.lft.to/lastmile_qr_scan", "ios": "https://dc.lft.to/lastmile_qr_scan"}, "is_disabled": 0, "fusion_lat": 0.0, "name": "7a65edb0329d9216065daffc32962045", "fusion_lon": 0.0}, {"is_reserved": 0, "type": "electric_scooter", "bike_id": "8f7d15eef72c23e58098649b494adf7a", "lat": 38.92481866666667, "lon": -77.02142466666666, "rental_uris": {"android": "https://dc.lft.to/lastmile_qr_scan", "ios": "https://dc.lft.to/lastmile_qr_scan"}, "is_disabled": 0, "fusion_lat": 0.0, "name": "8f7d15eef72c23e58098649b494adf7a", "fusion_lon": 0.0}, {"is_reserved": 0, "type": "electric_scooter", "bike_id": "68bdad84b52cd80dc93b7b1cd9df0f3a", "lat": 38.923437166666666, "lon": -77.01900383333333, "rental_uris": {"android": "https://dc.lft.to/lastmile_qr_scan", "ios": "https://dc.lft.to/lastmile_qr_scan"}, "is_disabled": 0, "fusion_lat": 0.0, "name": "68bdad84b52cd80dc93b7b1cd9df0f3a", "fusion_lon": 0.0}, {"is_reserved": 0, "type": "electric_scooter", "bike_id": "08ebe9e025789c9c178376d4b39c33bc", "lat": 38.873046, "lon": -77.0155385, "rental_uris": {"android": "https://dc.lft.to/lastmile_qr_scan", "ios": "https://dc.lft.to/lastmile_qr_scan"}, "is_disabled": 0, "fusion_lat": 0.0, "name": "08ebe9e025789c9c178376d4b39c33bc", "fusion_lon": 0.0}, {"is_reserved": 0, "type": "electric_scooter", "bike_id": "4acbce9cef00938282ea67e6cf5bc258", "lat": 38.89274916666667, "lon": -76.92924866666667, "rental_uris": {"android": "https://dc.lft.to/lastmile_qr_scan", "ios": "https://dc.lft.to/lastmile_qr_scan"}, "is_disabled": 0, "fusion_lat": 0.0, "name": "4acbce9cef00938282ea67e6cf5bc258", "fusion_lon": 0.0}, {"is_reserved": 0, "type": "electric_scooter", "bike_id": "b0b1438acee9ceb87995e19d2d9c55b7", "lat": 38.89346716666667, "lon": -77.02821783333333, "rental_uris": {"android": "https://dc.lft.to/lastmile_qr_scan", "ios": "https://dc.lft.to/lastmile_qr_scan"}, "is_disabled": 0, "fusion_lat": 0.0, "name": "b0b1438acee9ceb87995e19d2d9c55b7", "fusion_lon": 0.0}, {"is_reserved": 0, "type": "electric_scooter", "bike_id": "ca8e4d753c526123047d37fdd85f03e1", "lat": 38.917982, "lon": -77.040201, "rental_uris": {"android": "https://dc.lft.to/lastmile_qr_scan", "ios": "https://dc.lft.to/lastmile_qr_scan"}, "is_disabled": 0, "fusion_lat": 0.0, "name": "ca8e4d753c526123047d37fdd85f03e1", "fusion_lon": 0.0}, {"is_reserved": 0, "type": "electric_scooter", "bike_id": "a8d1d3b31463fc7d05c6da4fa8980dc8", "lat": 38.92421133333333, "lon": -77.044649, "rental_uris": {"android": "https://dc.lft.to/lastmile_qr_scan", "ios": "https://dc.lft.to/lastmile_qr_scan"}, "is_disabled": 0, "fusion_lat": 0.0, "name": "a8d1d3b31463fc7d05c6da4fa8980dc8", "fusion_lon": 0.0}, {"is_reserved": 0, "type": "electric_scooter", "bike_id": "90d98ec44c42ca72bb4582f46c29f0ca", "lat": 38.9210085, "lon": -77.03253916666667, "rental_uris": {"android": "https://dc.lft.to/lastmile_qr_scan", "ios": "https://dc.lft.to/lastmile_qr_scan"}, "is_disabled": 0, "fusion_lat": 0.0, "name": "90d98ec44c42ca72bb4582f46c29f0ca", "fusion_lon": 0.0}, {"is_reserved": 0, "type": "electric_scooter", "bike_id": "afc70b61f13904be0689ca51659f2c49", "lat": 38.922678, "lon": -77.02972883333334, "rental_uris": {"android": "https://dc.lft.to/lastmile_qr_scan", "ios": "https://dc.lft.to/lastmile_qr_scan"}, "is_disabled": 0, "fusion_lat": 0.0, "name": "afc70b61f13904be0689ca51659f2c49", "fusion_lon": 0.0}, {"is_reserved": 0, "type": "electric_scooter", "bike_id": "374bb7fe318eec3e973e9c5dce7785cb", "lat": 38.9214895, "lon": -77.0350745, "rental_uris": {"android": "https://dc.lft.to/lastmile_qr_scan", "ios": "https://dc.lft.to/lastmile_qr_scan"}, "is_disabled": 0, "fusion_lat": 0.0, "name": "374bb7fe318eec3e973e9c5dce7785cb", "fusion_lon": 0.0}, {"is_reserved": 0, "type": "electric_scooter", "bike_id": "78cc0a9b978331a6b3d02983312f6f47", "lat": 38.9044115, "lon": -77.06289116666666, "rental_uris": {"android": "https://dc.lft.to/lastmile_qr_scan", "ios": "https://dc.lft.to/lastmile_qr_scan"}, "is_disabled": 0, "fusion_lat": 0.0, "name": "78cc0a9b978331a6b3d02983312f6f47", "fusion_lon": 0.0}, {"is_reserved": 0, "type": "electric_scooter", "bike_id": "98557e4e2c5eeac6f2f26d19ec25591f", "lat": 38.9216825, "lon": -77.03362433333334, "rental_uris": {"android": "https://dc.lft.to/lastmile_qr_scan", "ios": "https://dc.lft.to/lastmile_qr_scan"}, "is_disabled": 0, "fusion_lat": 0.0, "name": "98557e4e2c5eeac6f2f26d19ec25591f", "fusion_lon": 0.0}, {"is_reserved": 0, "type": "electric_scooter", "bike_id": "086c3cbf1fe055ae5dfeb86f42d63776", "lat": 38.922426333333334, "lon": -77.03516933333333, "rental_uris": {"android": "https://dc.lft.to/lastmile_qr_scan", "ios": "https://dc.lft.to/lastmile_qr_scan"}, "is_disabled": 0, "fusion_lat": 0.0, "name": "086c3cbf1fe055ae5dfeb86f42d63776", "fusion_lon": 0.0}, {"is_reserved": 0, "type": "electric_scooter", "bike_id": "2932cc288640f590b565e8a848ce4192", "lat": 38.90540266666667, "lon": -77.00719983333333, "rental_uris": {"android": "https://dc.lft.to/lastmile_qr_scan", "ios": "https://dc.lft.to/lastmile_qr_scan"}, "is_disabled": 0, "fusion_lat": 0.0, "name": "2932cc288640f590b565e8a848ce4192", "fusion_lon": 0.0}, {"is_reserved": 0, "type": "electric_scooter", "bike_id": "f9091b7c8ca6ec7d36dded3ff8d4a0f9", "lat": 38.89953416666667, "lon": -77.0393095, "rental_uris": {"android": "https://dc.lft.to/lastmile_qr_scan", "ios": "https://dc.lft.to/lastmile_qr_scan"}, "is_disabled": 0, "fusion_lat": 0.0, "name": "f9091b7c8ca6ec7d36dded3ff8d4a0f9", "fusion_lon": 0.0}, {"is_reserved": 0, "type": "electric_scooter", "bike_id": "34cf577516b250dca6fe957c1cc48846", "lat": 38.92698333333333, "lon": -77.02073416666667, "rental_uris": {"android": "https://dc.lft.to/lastmile_qr_scan", "ios": "https://dc.lft.to/lastmile_qr_scan"}, "is_disabled": 0, "fusion_lat": 0.0, "name": "34cf577516b250dca6fe957c1cc48846", "fusion_lon": 0.0}, {"is_reserved": 0, "type": "electric_scooter", "bike_id": "ceb013bc7a0c203073ef38ca089058dd", "lat": 38.92678466666667, "lon": -77.00740266666666, "rental_uris": {"android": "https://dc.lft.to/lastmile_qr_scan", "ios": "https://dc.lft.to/lastmile_qr_scan"}, "is_disabled": 0, "fusion_lat": 0.0, "name": "ceb013bc7a0c203073ef38ca089058dd", "fusion_lon": 0.0}, {"is_reserved": 0, "type": "electric_scooter", "bike_id": "ef29c28b80c1bc7e9ccb0809277ef8d5", "lat": 38.895408, "lon": -76.983377, "rental_uris": {"android": "https://dc.lft.to/lastmile_qr_scan", "ios": "https://dc.lft.to/lastmile_qr_scan"}, "is_disabled": 0, "fusion_lat": 0.0, "name": "ef29c28b80c1bc7e9ccb0809277ef8d5", "fusion_lon": 0.0}, {"is_reserved": 0, "type": "electric_scooter", "bike_id": "31b889699b2467df3a448330fa2eec53", "lat": 38.94005466666667, "lon": -77.01904133333333, "rental_uris": {"android": "https://dc.lft.to/lastmile_qr_scan", "ios": "https://dc.lft.to/lastmile_qr_scan"}, "is_disabled": 0, "fusion_lat": 0.0, "name": "31b889699b2467df3a448330fa2eec53", "fusion_lon": 0.0}, {"is_reserved": 0, "type": "electric_scooter", "bike_id": "5f7b427b7883791a40b2a6622df63ed2", "lat": 38.892316, "lon": -77.04872483333334, "rental_uris": {"android": "https://dc.lft.to/lastmile_qr_scan", "ios": "https://dc.lft.to/lastmile_qr_scan"}, "is_disabled": 0, "fusion_lat": 0.0, "name": "5f7b427b7883791a40b2a6622df63ed2", "fusion_lon": 0.0}, {"is_reserved": 0, "type": "electric_scooter", "bike_id": "b13658fe52e125ab09e283df4f3344ef", "lat": 38.890083, "lon": -77.03322216666666, "rental_uris": {"android": "https://dc.lft.to/lastmile_qr_scan", "ios": "https://dc.lft.to/lastmile_qr_scan"}, "is_disabled": 0, "fusion_lat": 0.0, "name": "b13658fe52e125ab09e283df4f3344ef", "fusion_lon": 0.0}, {"is_reserved": 0, "type": "electric_bike", "bike_id": "23683cc9fc2f54f4dc76e74a20e1957f", "lat": 38.884040166666665, "lon": -76.96060483333333, "rental_uris": {"android": "https://dc.lft.to/lastmile_qr_scan", "ios": "https://dc.lft.to/lastmile_qr_scan"}, "is_disabled": 0, "fusion_lat": 0.0, "name": "23683cc9fc2f54f4dc76e74a20e1957f", "fusion_lon": 0.0}, {"is_reserved": 0, "type": "electric_scooter", "bike_id": "9d4e71a5d056eb59a7f6fb4181e458ac", "lat": 38.918298166666666, "lon": -77.04172, "rental_uris": {"android": "https://dc.lft.to/lastmile_qr_scan", "ios": "https://dc.lft.to/lastmile_qr_scan"}, "is_disabled": 0, "fusion_lat": 0.0, "name": "9d4e71a5d056eb59a7f6fb4181e458ac", "fusion_lon": 0.0}, {"is_reserved": 0, "type": "electric_scooter", "bike_id": "0a1c33d0d7928dddc7cfcd76084a6c71", "lat": 38.916185666666664, "lon": -77.04871933333334, "rental_uris": {"android": "https://dc.lft.to/lastmile_qr_scan", "ios": "https://dc.lft.to/lastmile_qr_scan"}, "is_disabled": 0, "fusion_lat": 0.0, "name": "0a1c33d0d7928dddc7cfcd76084a6c71", "fusion_lon": 0.0}, {"is_reserved": 0, "type": "electric_scooter", "bike_id": "5a8e035d98778b02102a82a2210fc4fc", "lat": 38.93276933333333, "lon": -76.98533316666666, "rental_uris": {"android": "https://dc.lft.to/lastmile_qr_scan", "ios": "https://dc.lft.to/lastmile_qr_scan"}, "is_disabled": 0, "fusion_lat": 0.0, "name": "5a8e035d98778b02102a82a2210fc4fc", "fusion_lon": 0.0}, {"is_reserved": 0, "type": "electric_scooter", "bike_id": "05e72667fb995971ead798c7046cfd2d", "lat": 38.919935333333335, "lon": -77.03467983333333, "rental_uris": {"android": "https://dc.lft.to/lastmile_qr_scan", "ios": "https://dc.lft.to/lastmile_qr_scan"}, "is_disabled": 0, "fusion_lat": 0.0, "name": "05e72667fb995971ead798c7046cfd2d", "fusion_lon": 0.0}, {"is_reserved": 0, "type": "electric_scooter", "bike_id": "96bcb0b42780f6cfd7fd7897aacc7318", "lat": 38.895224166666665, "lon": -76.9921835, "rental_uris": {"android": "https://dc.lft.to/lastmile_qr_scan", "ios": "https://dc.lft.to/lastmile_qr_scan"}, "is_disabled": 0, "fusion_lat": 0.0, "name": "96bcb0b42780f6cfd7fd7897aacc7318", "fusion_lon": 0.0}, {"is_reserved": 0, "type": "electric_scooter", "bike_id": "939f24e6b1a8f8ac6b3d6165fd4dc47c", "lat": 38.90132166666667, "lon": -77.0441805, "rental_uris": {"android": "https://dc.lft.to/lastmile_qr_scan", "ios": "https://dc.lft.to/lastmile_qr_scan"}, "is_disabled": 0, "fusion_lat": 0.0, "name": "939f24e6b1a8f8ac6b3d6165fd4dc47c", "fusion_lon": 0.0}, {"is_reserved": 0, "type": "electric_scooter", "bike_id": "45480039a1aa28a74ed25fdca62aed9c", "lat": 38.92618216666666, "lon": -77.05651183333333, "rental_uris": {"android": "https://dc.lft.to/lastmile_qr_scan", "ios": "https://dc.lft.to/lastmile_qr_scan"}, "is_disabled": 0, "fusion_lat": 0.0, "name": "45480039a1aa28a74ed25fdca62aed9c", "fusion_lon": 0.0}, {"is_reserved": 0, "type": "electric_scooter", "bike_id": "c75ead1e2eb515ead73e85ec7057c778", "lat": 38.89250066666666, "lon": -77.03378083333334, "rental_uris": {"android": "https://dc.lft.to/lastmile_qr_scan", "ios": "https://dc.lft.to/lastmile_qr_scan"}, "is_disabled": 0, "fusion_lat": 0.0, "name": "c75ead1e2eb515ead73e85ec7057c778", "fusion_lon": 0.0}, {"is_reserved": 0, "type": "electric_scooter", "bike_id": "3d0343791bddb28a9331a43ba042b602", "lat": 38.93709316666666, "lon": -77.05593, "rental_uris": {"android": "https://dc.lft.to/lastmile_qr_scan", "ios": "https://dc.lft.to/lastmile_qr_scan"}, "is_disabled": 0, "fusion_lat": 0.0, "name": "3d0343791bddb28a9331a43ba042b602", "fusion_lon": 0.0}, {"is_reserved": 0, "type": "electric_scooter", "bike_id": "2bd42f4194099538ddc0e9eb2a90f2cc", "lat": 38.9150365, "lon": -77.00347883333333, "rental_uris": {"android": "https://dc.lft.to/lastmile_qr_scan", "ios": "https://dc.lft.to/lastmile_qr_scan"}, "is_disabled": 0, "fusion_lat": 0.0, "name": "2bd42f4194099538ddc0e9eb2a90f2cc", "fusion_lon": 0.0}, {"is_reserved": 0, "type": "electric_scooter", "bike_id": "984a99e20571003601a5dddc75356031", "lat": 38.898423333333334, "lon": -77.01970583333333, "rental_uris": {"android": "https://dc.lft.to/lastmile_qr_scan", "ios": "https://dc.lft.to/lastmile_qr_scan"}, "is_disabled": 0, "fusion_lat": 0.0, "name": "984a99e20571003601a5dddc75356031", "fusion_lon": 0.0}, {"is_reserved": 0, "type": "electric_scooter", "bike_id": "67ad9e75e3d3e7ea3cc4d5aebe5aa998", "lat": 38.90722866666667, "lon": -77.04507883333333, "rental_uris": {"android": "https://dc.lft.to/lastmile_qr_scan", "ios": "https://dc.lft.to/lastmile_qr_scan"}, "is_disabled": 0, "fusion_lat": 0.0, "name": "67ad9e75e3d3e7ea3cc4d5aebe5aa998", "fusion_lon": 0.0}, {"is_reserved": 0, "type": "electric_scooter", "bike_id": "ea0fdb9a73b63f2f689f7db5493f4fad", "lat": 38.907222833333336, "lon": -77.04754266666667, "rental_uris": {"android": "https://dc.lft.to/lastmile_qr_scan", "ios": "https://dc.lft.to/lastmile_qr_scan"}, "is_disabled": 0, "fusion_lat": 0.0, "name": "ea0fdb9a73b63f2f689f7db5493f4fad", "fusion_lon": 0.0}, {"is_reserved": 0, "type": "electric_scooter", "bike_id": "ea40c0a10e8e55dc887552132f258b02", "lat": 38.91809933333333, "lon": -77.03959616666667, "rental_uris": {"android": "https://dc.lft.to/lastmile_qr_scan", "ios": "https://dc.lft.to/lastmile_qr_scan"}, "is_disabled": 0, "fusion_lat": 0.0, "name": "ea40c0a10e8e55dc887552132f258b02", "fusion_lon": 0.0}, {"is_reserved": 0, "type": "electric_scooter", "bike_id": "c17d847131ba4a16c5febe184d13de66", "lat": 38.9291055, "lon": -77.0219305, "rental_uris": {"android": "https://dc.lft.to/lastmile_qr_scan", "ios": "https://dc.lft.to/lastmile_qr_scan"}, "is_disabled": 0, "fusion_lat": 0.0, "name": "c17d847131ba4a16c5febe184d13de66", "fusion_lon": 0.0}, {"is_reserved": 0, "type": "electric_scooter", "bike_id": "9dc64abb95828ef8d5ba7586a60f24ef", "lat": 38.88989333333333, "lon": -77.0015815, "rental_uris": {"android": "https://dc.lft.to/lastmile_qr_scan", "ios": "https://dc.lft.to/lastmile_qr_scan"}, "is_disabled": 0, "fusion_lat": 0.0, "name": "9dc64abb95828ef8d5ba7586a60f24ef", "fusion_lon": 0.0}, {"is_reserved": 0, "type": "electric_scooter", "bike_id": "f40b76c5253ec31ec85a0c4a69d4dea2", "lat": 38.900681, "lon": -77.04535783333333, "rental_uris": {"android": "https://dc.lft.to/lastmile_qr_scan", "ios": "https://dc.lft.to/lastmile_qr_scan"}, "is_disabled": 0, "fusion_lat": 0.0, "name": "f40b76c5253ec31ec85a0c4a69d4dea2", "fusion_lon": 0.0}, {"is_reserved": 0, "type": "electric_scooter", "bike_id": "341b73f88bb5bfe23857545a8526d229", "lat": 38.8838055, "lon": -77.04603766666666, "rental_uris": {"android": "https://dc.lft.to/lastmile_qr_scan", "ios": "https://dc.lft.to/lastmile_qr_scan"}, "is_disabled": 0, "fusion_lat": 0.0, "name": "341b73f88bb5bfe23857545a8526d229", "fusion_lon": 0.0}, {"is_reserved": 0, "type": "electric_scooter", "bike_id": "6527ba6c666fe713419953dd58384601", "lat": 38.91923716666667, "lon": -77.03214583333333, "rental_uris": {"android": "https://dc.lft.to/lastmile_qr_scan", "ios": "https://dc.lft.to/lastmile_qr_scan"}, "is_disabled": 0, "fusion_lat": 0.0, "name": "6527ba6c666fe713419953dd58384601", "fusion_lon": 0.0}, {"is_reserved": 0, "type": "electric_scooter", "bike_id": "28031e42a42b57c55658cadd658a65da", "lat": 38.90971716666667, "lon": -77.0483105, "rental_uris": {"android": "https://dc.lft.to/lastmile_qr_scan", "ios": "https://dc.lft.to/lastmile_qr_scan"}, "is_disabled": 0, "fusion_lat": 0.0, "name": "28031e42a42b57c55658cadd658a65da", "fusion_lon": 0.0}, {"is_reserved": 0, "type": "electric_bike", "bike_id": "7fa6ac0bfcf77a4356dea941680ef40a", "lat": 38.92830766666667, "lon": -77.06860833333333, "rental_uris": {"android": "https://dc.lft.to/lastmile_qr_scan", "ios": "https://dc.lft.to/lastmile_qr_scan"}, "is_disabled": 0, "fusion_lat": 0.0, "name": "7fa6ac0bfcf77a4356dea941680ef40a", "fusion_lon": 0.0}, {"is_reserved": 0, "type": "electric_scooter", "bike_id": "0f613660f1a590f5df71af1fe926ad20", "lat": 38.8922835, "lon": -77.0464945, "rental_uris": {"android": "https://dc.lft.to/lastmile_qr_scan", "ios": "https://dc.lft.to/lastmile_qr_scan"}, "is_disabled": 0, "fusion_lat": 0.0, "name": "0f613660f1a590f5df71af1fe926ad20", "fusion_lon": 0.0}, {"is_reserved": 0, "type": "electric_scooter", "bike_id": "5963231399e5eebe010d5d4f1b58aa42", "lat": 38.899196833333335, "lon": -77.01876133333333, "rental_uris": {"android": "https://dc.lft.to/lastmile_qr_scan", "ios": "https://dc.lft.to/lastmile_qr_scan"}, "is_disabled": 0, "fusion_lat": 0.0, "name": "5963231399e5eebe010d5d4f1b58aa42", "fusion_lon": 0.0}, {"is_reserved": 0, "type": "electric_scooter", "bike_id": "6ca8ed7b1647416a165cd9ed17f1f380", "lat": 38.90030133333333, "lon": -77.00220233333333, "rental_uris": {"android": "https://dc.lft.to/lastmile_qr_scan", "ios": "https://dc.lft.to/lastmile_qr_scan"}, "is_disabled": 0, "fusion_lat": 0.0, "name": "6ca8ed7b1647416a165cd9ed17f1f380", "fusion_lon": 0.0}, {"is_reserved": 0, "type": "electric_scooter", "bike_id": "42660de55fc55369574d4f7cebc5e344", "lat": 38.924139333333336, "lon": -76.95154683333334, "rental_uris": {"android": "https://dc.lft.to/lastmile_qr_scan", "ios": "https://dc.lft.to/lastmile_qr_scan"}, "is_disabled": 0, "fusion_lat": 0.0, "name": "42660de55fc55369574d4f7cebc5e344", "fusion_lon": 0.0}, {"is_reserved": 0, "type": "electric_scooter", "bike_id": "06d675092a8f9be579f7ae3dcf207624", "lat": 38.8923415, "lon": -77.01974466666667, "rental_uris": {"android": "https://dc.lft.to/lastmile_qr_scan", "ios": "https://dc.lft.to/lastmile_qr_scan"}, "is_disabled": 0, "fusion_lat": 0.0, "name": "06d675092a8f9be579f7ae3dcf207624", "fusion_lon": 0.0}, {"is_reserved": 0, "type": "electric_scooter", "bike_id": "e157cb818691e1411d972d93bed8b851", "lat": 38.91701916666667, "lon": -77.03972283333333, "rental_uris": {"android": "https://dc.lft.to/lastmile_qr_scan", "ios": "https://dc.lft.to/lastmile_qr_scan"}, "is_disabled": 0, "fusion_lat": 0.0, "name": "e157cb818691e1411d972d93bed8b851", "fusion_lon": 0.0}, {"is_reserved": 0, "type": "electric_scooter", "bike_id": "db2eb8180bd74addbf546099cef3a7cb", "lat": 38.9002075, "lon": -77.0321535, "rental_uris": {"android": "https://dc.lft.to/lastmile_qr_scan", "ios": "https://dc.lft.to/lastmile_qr_scan"}, "is_disabled": 0, "fusion_lat": 0.0, "name": "db2eb8180bd74addbf546099cef3a7cb", "fusion_lon": 0.0}, {"is_reserved": 0, "type": "electric_bike", "bike_id": "20edae079a052948781fe96497d034f7", "lat": 38.91254433333334, "lon": -77.04754666666666, "rental_uris": {"android": "https://dc.lft.to/lastmile_qr_scan", "ios": "https://dc.lft.to/lastmile_qr_scan"}, "is_disabled": 0, "fusion_lat": 0.0, "name": "20edae079a052948781fe96497d034f7", "fusion_lon": 0.0}, {"is_reserved": 0, "type": "electric_scooter", "bike_id": "dd05ab720b4689d70f404d0d0ba02fa4", "lat": 38.88736633333333, "lon": -77.0135455, "rental_uris": {"android": "https://dc.lft.to/lastmile_qr_scan", "ios": "https://dc.lft.to/lastmile_qr_scan"}, "is_disabled": 0, "fusion_lat": 0.0, "name": "dd05ab720b4689d70f404d0d0ba02fa4", "fusion_lon": 0.0}, {"is_reserved": 0, "type": "electric_scooter", "bike_id": "79931f6ae08c5d812af85932cafdfa4a", "lat": 38.89860066666667, "lon": -77.0486545, "rental_uris": {"android": "https://dc.lft.to/lastmile_qr_scan", "ios": "https://dc.lft.to/lastmile_qr_scan"}, "is_disabled": 0, "fusion_lat": 0.0, "name": "79931f6ae08c5d812af85932cafdfa4a", "fusion_lon": 0.0}, {"is_reserved": 0, "type": "electric_scooter", "bike_id": "f6fe929a732a64b31cde3c19839daa26", "lat": 38.903732, "lon": -77.02852483333334, "rental_uris": {"android": "https://dc.lft.to/lastmile_qr_scan", "ios": "https://dc.lft.to/lastmile_qr_scan"}, "is_disabled": 0, "fusion_lat": 0.0, "name": "f6fe929a732a64b31cde3c19839daa26", "fusion_lon": 0.0}, {"is_reserved": 0, "type": "electric_scooter", "bike_id": "447262b6947d59ae0e726759e1fdcde3", "lat": 38.91039083333333, "lon": -77.0394355, "rental_uris": {"android": "https://dc.lft.to/lastmile_qr_scan", "ios": "https://dc.lft.to/lastmile_qr_scan"}, "is_disabled": 0, "fusion_lat": 0.0, "name": "447262b6947d59ae0e726759e1fdcde3", "fusion_lon": 0.0}, {"is_reserved": 0, "type": "electric_scooter", "bike_id": "0bc9d0ac22d76e4dbc4c77f33ab4a224", "lat": 38.897237, "lon": -77.02162033333333, "rental_uris": {"android": "https://dc.lft.to/lastmile_qr_scan", "ios": "https://dc.lft.to/lastmile_qr_scan"}, "is_disabled": 0, "fusion_lat": 0.0, "name": "0bc9d0ac22d76e4dbc4c77f33ab4a224", "fusion_lon": 0.0}, {"is_reserved": 0, "type": "electric_bike", "bike_id": "8181b62605dd6b7cd60a550deb2b8a40", "lat": 38.90250133333333, "lon": -77.03958716666666, "rental_uris": {"android": "https://dc.lft.to/lastmile_qr_scan", "ios": "https://dc.lft.to/lastmile_qr_scan"}, "is_disabled": 0, "fusion_lat": 0.0, "name": "8181b62605dd6b7cd60a550deb2b8a40", "fusion_lon": 0.0}, {"is_reserved": 0, "type": "electric_scooter", "bike_id": "2a3ee6c251ae55cfec0280663c22762c", "lat": 38.92588766666667, "lon": -77.041046, "rental_uris": {"android": "https://dc.lft.to/lastmile_qr_scan", "ios": "https://dc.lft.to/lastmile_qr_scan"}, "is_disabled": 0, "fusion_lat": 0.0, "name": "2a3ee6c251ae55cfec0280663c22762c", "fusion_lon": 0.0}, {"is_reserved": 0, "type": "electric_scooter", "bike_id": "f7b6ecf729a2e0acf589a0be983a19be", "lat": 38.92477933333333, "lon": -77.02721216666667, "rental_uris": {"android": "https://dc.lft.to/lastmile_qr_scan", "ios": "https://dc.lft.to/lastmile_qr_scan"}, "is_disabled": 0, "fusion_lat": 0.0, "name": "f7b6ecf729a2e0acf589a0be983a19be", "fusion_lon": 0.0}, {"is_reserved": 0, "type": "electric_scooter", "bike_id": "46c0829a07a403479a69515412e39b6c", "lat": 38.91815883333334, "lon": -77.0255785, "rental_uris": {"android": "https://dc.lft.to/lastmile_qr_scan", "ios": "https://dc.lft.to/lastmile_qr_scan"}, "is_disabled": 0, "fusion_lat": 0.0, "name": "46c0829a07a403479a69515412e39b6c", "fusion_lon": 0.0}, {"is_reserved": 0, "type": "electric_scooter", "bike_id": "cb20b642fcbe029eb0dad23b6d97fe62", "lat": 38.915519833333335, "lon": -77.03102583333333, "rental_uris": {"android": "https://dc.lft.to/lastmile_qr_scan", "ios": "https://dc.lft.to/lastmile_qr_scan"}, "is_disabled": 0, "fusion_lat": 0.0, "name": "cb20b642fcbe029eb0dad23b6d97fe62", "fusion_lon": 0.0}, {"is_reserved": 0, "type": "electric_scooter", "bike_id": "86800da9b4c2c042430b68bc76ee2cd0", "lat": 38.90976933333334, "lon": -77.04782366666667, "rental_uris": {"android": "https://dc.lft.to/lastmile_qr_scan", "ios": "https://dc.lft.to/lastmile_qr_scan"}, "is_disabled": 0, "fusion_lat": 0.0, "name": "86800da9b4c2c042430b68bc76ee2cd0", "fusion_lon": 0.0}, {"is_reserved": 0, "type": "electric_scooter", "bike_id": "f3956adcc0b29787a076f3043175b265", "lat": 38.898918, "lon": -77.00350733333333, "rental_uris": {"android": "https://dc.lft.to/lastmile_qr_scan", "ios": "https://dc.lft.to/lastmile_qr_scan"}, "is_disabled": 0, "fusion_lat": 0.0, "name": "f3956adcc0b29787a076f3043175b265", "fusion_lon": 0.0}, {"is_reserved": 0, "type": "electric_scooter", "bike_id": "5fe4e906a30f28421f4cdd57220979e0", "lat": 38.892258, "lon": -77.02176216666666, "rental_uris": {"android": "https://dc.lft.to/lastmile_qr_scan", "ios": "https://dc.lft.to/lastmile_qr_scan"}, "is_disabled": 0, "fusion_lat": 0.0, "name": "5fe4e906a30f28421f4cdd57220979e0", "fusion_lon": 0.0}, {"is_reserved": 0, "type": "electric_scooter", "bike_id": "4cdf731ffb748d0b6503a0fff5a4d497", "lat": 38.983089166666666, "lon": -77.02650466666667, "rental_uris": {"android": "https://dc.lft.to/lastmile_qr_scan", "ios": "https://dc.lft.to/lastmile_qr_scan"}, "is_disabled": 0, "fusion_lat": 0.0, "name": "4cdf731ffb748d0b6503a0fff5a4d497", "fusion_lon": 0.0}, {"is_reserved": 0, "type": "electric_scooter", "bike_id": "ea2aac46f14066c78086dd4632db78f0", "lat": 38.910540166666664, "lon": -77.04402066666667, "rental_uris": {"android": "https://dc.lft.to/lastmile_qr_scan", "ios": "https://dc.lft.to/lastmile_qr_scan"}, "is_disabled": 0, "fusion_lat": 0.0, "name": "ea2aac46f14066c78086dd4632db78f0", "fusion_lon": 0.0}, {"is_reserved": 0, "type": "electric_scooter", "bike_id": "89e25a2e1613e0bb0e45f0d1135d718d", "lat": 38.935199, "lon": -77.019484, "rental_uris": {"android": "https://dc.lft.to/lastmile_qr_scan", "ios": "https://dc.lft.to/lastmile_qr_scan"}, "is_disabled": 0, "fusion_lat": 0.0, "name": "89e25a2e1613e0bb0e45f0d1135d718d", "fusion_lon": 0.0}, {"is_reserved": 0, "type": "electric_bike", "bike_id": "3fdc9229c4c7ab27e4548598080b767c", "lat": 38.949631333333336, "lon": -76.96102116666667, "rental_uris": {"android": "https://dc.lft.to/lastmile_qr_scan", "ios": "https://dc.lft.to/lastmile_qr_scan"}, "is_disabled": 0, "fusion_lat": 0.0, "name": "3fdc9229c4c7ab27e4548598080b767c", "fusion_lon": 0.0}, {"is_reserved": 0, "type": "electric_scooter", "bike_id": "ed4fb78db9eb006b23bf97c27164a2b0", "lat": 38.92567116666667, "lon": -77.03099416666667, "rental_uris": {"android": "https://dc.lft.to/lastmile_qr_scan", "ios": "https://dc.lft.to/lastmile_qr_scan"}, "is_disabled": 0, "fusion_lat": 0.0, "name": "ed4fb78db9eb006b23bf97c27164a2b0", "fusion_lon": 0.0}, {"is_reserved": 0, "type": "electric_scooter", "bike_id": "f3b09c85e79ce3909f8f6528b541c29f", "lat": 38.9096125, "lon": -77.03632583333334, "rental_uris": {"android": "https://dc.lft.to/lastmile_qr_scan", "ios": "https://dc.lft.to/lastmile_qr_scan"}, "is_disabled": 0, "fusion_lat": 0.0, "name": "f3b09c85e79ce3909f8f6528b541c29f", "fusion_lon": 0.0}, {"is_reserved": 0, "type": "electric_scooter", "bike_id": "b9e771ca8cf451c4bb27a6e675741a6a", "lat": 38.90682283333334, "lon": -77.06258133333333, "rental_uris": {"android": "https://dc.lft.to/lastmile_qr_scan", "ios": "https://dc.lft.to/lastmile_qr_scan"}, "is_disabled": 0, "fusion_lat": 0.0, "name": "b9e771ca8cf451c4bb27a6e675741a6a", "fusion_lon": 0.0}, {"is_reserved": 0, "type": "electric_scooter", "bike_id": "6e3d9bae7d354cc24f53f0fc59ed16cf", "lat": 38.89354466666666, "lon": -77.028393, "rental_uris": {"android": "https://dc.lft.to/lastmile_qr_scan", "ios": "https://dc.lft.to/lastmile_qr_scan"}, "is_disabled": 0, "fusion_lat": 0.0, "name": "6e3d9bae7d354cc24f53f0fc59ed16cf", "fusion_lon": 0.0}, {"is_reserved": 0, "type": "electric_scooter", "bike_id": "37b0cdb41cd05d357e53120f7587fd5a", "lat": 38.9159635, "lon": -77.012234, "rental_uris": {"android": "https://dc.lft.to/lastmile_qr_scan", "ios": "https://dc.lft.to/lastmile_qr_scan"}, "is_disabled": 0, "fusion_lat": 0.0, "name": "37b0cdb41cd05d357e53120f7587fd5a", "fusion_lon": 0.0}, {"is_reserved": 0, "type": "electric_bike", "bike_id": "7ffeae94a26494ecbadb0783250652ad", "lat": 38.8086475, "lon": -77.11255766666666, "rental_uris": {"android": "https://dc.lft.to/lastmile_qr_scan", "ios": "https://dc.lft.to/lastmile_qr_scan"}, "is_disabled": 0, "fusion_lat": 0.0, "name": "7ffeae94a26494ecbadb0783250652ad", "fusion_lon": 0.0}, {"is_reserved": 0, "type": "electric_scooter", "bike_id": "e343bd2d3fa049474cfe2dd9348ce5b5", "lat": 38.907325, "lon": -77.04161066666667, "rental_uris": {"android": "https://dc.lft.to/lastmile_qr_scan", "ios": "https://dc.lft.to/lastmile_qr_scan"}, "is_disabled": 0, "fusion_lat": 0.0, "name": "e343bd2d3fa049474cfe2dd9348ce5b5", "fusion_lon": 0.0}, {"is_reserved": 0, "type": "electric_scooter", "bike_id": "43651f8471ae31358e1f6a411b2cd200", "lat": 38.87272016666667, "lon": -77.017149, "rental_uris": {"android": "https://dc.lft.to/lastmile_qr_scan", "ios": "https://dc.lft.to/lastmile_qr_scan"}, "is_disabled": 0, "fusion_lat": 0.0, "name": "43651f8471ae31358e1f6a411b2cd200", "fusion_lon": 0.0}, {"is_reserved": 0, "type": "electric_scooter", "bike_id": "9d15e93971125486e431dea020c5f2a2", "lat": 38.900869666666665, "lon": -77.05739233333334, "rental_uris": {"android": "https://dc.lft.to/lastmile_qr_scan", "ios": "https://dc.lft.to/lastmile_qr_scan"}, "is_disabled": 0, "fusion_lat": 0.0, "name": "9d15e93971125486e431dea020c5f2a2", "fusion_lon": 0.0}, {"is_reserved": 0, "type": "electric_scooter", "bike_id": "88add3e35272fc6e4b335db71b4f30b9", "lat": 38.90075266666667, "lon": -77.036431, "rental_uris": {"android": "https://dc.lft.to/lastmile_qr_scan", "ios": "https://dc.lft.to/lastmile_qr_scan"}, "is_disabled": 0, "fusion_lat": 0.0, "name": "88add3e35272fc6e4b335db71b4f30b9", "fusion_lon": 0.0}, {"is_reserved": 0, "type": "electric_scooter", "bike_id": "0a23c2ebe6d0956a07a7502b75d05e8a", "lat": 38.9142525, "lon": -77.01406866666666, "rental_uris": {"android": "https://dc.lft.to/lastmile_qr_scan", "ios": "https://dc.lft.to/lastmile_qr_scan"}, "is_disabled": 0, "fusion_lat": 0.0, "name": "0a23c2ebe6d0956a07a7502b75d05e8a", "fusion_lon": 0.0}, {"is_reserved": 0, "type": "electric_scooter", "bike_id": "76de0f9cfb93047e936191710f19b84b", "lat": 38.90069616666667, "lon": -77.0162295, "rental_uris": {"android": "https://dc.lft.to/lastmile_qr_scan", "ios": "https://dc.lft.to/lastmile_qr_scan"}, "is_disabled": 0, "fusion_lat": 0.0, "name": "76de0f9cfb93047e936191710f19b84b", "fusion_lon": 0.0}, {"is_reserved": 0, "type": "electric_scooter", "bike_id": "5a3a2b27d8bec18ab760cf6303f324e5", "lat": 38.900284666666664, "lon": -76.98765916666666, "rental_uris": {"android": "https://dc.lft.to/lastmile_qr_scan", "ios": "https://dc.lft.to/lastmile_qr_scan"}, "is_disabled": 0, "fusion_lat": 0.0, "name": "5a3a2b27d8bec18ab760cf6303f324e5", "fusion_lon": 0.0}, {"is_reserved": 0, "type": "electric_scooter", "bike_id": "acec166f20cc81709582c50048067ff7", "lat": 38.93594066666667, "lon": -77.03367666666666, "rental_uris": {"android": "https://dc.lft.to/lastmile_qr_scan", "ios": "https://dc.lft.to/lastmile_qr_scan"}, "is_disabled": 0, "fusion_lat": 0.0, "name": "acec166f20cc81709582c50048067ff7", "fusion_lon": 0.0}, {"is_reserved": 0, "type": "electric_scooter", "bike_id": "e3835f62605291d93288c99972cabfde", "lat": 38.91701066666667, "lon": -77.02412933333333, "rental_uris": {"android": "https://dc.lft.to/lastmile_qr_scan", "ios": "https://dc.lft.to/lastmile_qr_scan"}, "is_disabled": 0, "fusion_lat": 0.0, "name": "e3835f62605291d93288c99972cabfde", "fusion_lon": 0.0}, {"is_reserved": 0, "type": "electric_bike", "bike_id": "f87b2748107d249518de42b2c2afba0a", "lat": 38.97308233333333, "lon": -76.994755, "rental_uris": {"android": "https://dc.lft.to/lastmile_qr_scan", "ios": "https://dc.lft.to/lastmile_qr_scan"}, "is_disabled": 0, "fusion_lat": 0.0, "name": "f87b2748107d249518de42b2c2afba0a", "fusion_lon": 0.0}, {"is_reserved": 0, "type": "electric_scooter", "bike_id": "a7d10efd671a6793e241d417c77699fa", "lat": 38.917726333333334, "lon": -77.03209016666666, "rental_uris": {"android": "https://dc.lft.to/lastmile_qr_scan", "ios": "https://dc.lft.to/lastmile_qr_scan"}, "is_disabled": 0, "fusion_lat": 0.0, "name": "a7d10efd671a6793e241d417c77699fa", "fusion_lon": 0.0}, {"is_reserved": 0, "type": "electric_scooter", "bike_id": "590a7d30848a96465bd0fbb111f28aa9", "lat": 38.88717783333333, "lon": -77.02180333333334, "rental_uris": {"android": "https://dc.lft.to/lastmile_qr_scan", "ios": "https://dc.lft.to/lastmile_qr_scan"}, "is_disabled": 0, "fusion_lat": 0.0, "name": "590a7d30848a96465bd0fbb111f28aa9", "fusion_lon": 0.0}, {"is_reserved": 0, "type": "electric_scooter", "bike_id": "2c3471e4bf7e18a0a40842780d11f83b", "lat": 38.87557966666667, "lon": -77.00602116666667, "rental_uris": {"android": "https://dc.lft.to/lastmile_qr_scan", "ios": "https://dc.lft.to/lastmile_qr_scan"}, "is_disabled": 0, "fusion_lat": 0.0, "name": "2c3471e4bf7e18a0a40842780d11f83b", "fusion_lon": 0.0}, {"is_reserved": 0, "type": "electric_scooter", "bike_id": "59dd92bcb3820bf3c56fe417a6da58eb", "lat": 38.91263883333333, "lon": -77.03868316666667, "rental_uris": {"android": "https://dc.lft.to/lastmile_qr_scan", "ios": "https://dc.lft.to/lastmile_qr_scan"}, "is_disabled": 0, "fusion_lat": 0.0, "name": "59dd92bcb3820bf3c56fe417a6da58eb", "fusion_lon": 0.0}, {"is_reserved": 0, "type": "electric_scooter", "bike_id": "a021097f35925c379f17bf7de93342f1", "lat": 38.89892716666667, "lon": -76.980007, "rental_uris": {"android": "https://dc.lft.to/lastmile_qr_scan", "ios": "https://dc.lft.to/lastmile_qr_scan"}, "is_disabled": 0, "fusion_lat": 0.0, "name": "a021097f35925c379f17bf7de93342f1", "fusion_lon": 0.0}, {"is_reserved": 0, "type": "electric_scooter", "bike_id": "bcf4ff4dcc6e101b770c5c6a884e657d", "lat": 38.903055333333334, "lon": -76.9765185, "rental_uris": {"android": "https://dc.lft.to/lastmile_qr_scan", "ios": "https://dc.lft.to/lastmile_qr_scan"}, "is_disabled": 0, "fusion_lat": 0.0, "name": "bcf4ff4dcc6e101b770c5c6a884e657d", "fusion_lon": 0.0}, {"is_reserved": 0, "type": "electric_scooter", "bike_id": "3ca37f59fa532e69a579235cf5fa55c2", "lat": 38.905344166666666, "lon": -77.04110316666667, "rental_uris": {"android": "https://dc.lft.to/lastmile_qr_scan", "ios": "https://dc.lft.to/lastmile_qr_scan"}, "is_disabled": 0, "fusion_lat": 0.0, "name": "3ca37f59fa532e69a579235cf5fa55c2", "fusion_lon": 0.0}, {"is_reserved": 0, "type": "electric_scooter", "bike_id": "efa21a008cbb11ffa5a7f9aefab862e8", "lat": 38.90388566666667, "lon": -77.027337, "rental_uris": {"android": "https://dc.lft.to/lastmile_qr_scan", "ios": "https://dc.lft.to/lastmile_qr_scan"}, "is_disabled": 0, "fusion_lat": 0.0, "name": "efa21a008cbb11ffa5a7f9aefab862e8", "fusion_lon": 0.0}, {"is_reserved": 0, "type": "electric_scooter", "bike_id": "01635392677ff59882f1bd1f81826e06", "lat": 38.9275055, "lon": -77.023173, "rental_uris": {"android": "https://dc.lft.to/lastmile_qr_scan", "ios": "https://dc.lft.to/lastmile_qr_scan"}, "is_disabled": 0, "fusion_lat": 0.0, "name": "01635392677ff59882f1bd1f81826e06", "fusion_lon": 0.0}, {"is_reserved": 0, "type": "electric_scooter", "bike_id": "6fcca332afb9011eafb4597c038065ec", "lat": 38.921448, "lon": -77.0338905, "rental_uris": {"android": "https://dc.lft.to/lastmile_qr_scan", "ios": "https://dc.lft.to/lastmile_qr_scan"}, "is_disabled": 0, "fusion_lat": 0.0, "name": "6fcca332afb9011eafb4597c038065ec", "fusion_lon": 0.0}, {"is_reserved": 0, "type": "electric_scooter", "bike_id": "c96176233fd3438b774c756bfdd9af74", "lat": 38.907131, "lon": -77.04610233333334, "rental_uris": {"android": "https://dc.lft.to/lastmile_qr_scan", "ios": "https://dc.lft.to/lastmile_qr_scan"}, "is_disabled": 0, "fusion_lat": 0.0, "name": "c96176233fd3438b774c756bfdd9af74", "fusion_lon": 0.0}, {"is_reserved": 0, "type": "electric_scooter", "bike_id": "d8d530bf1527eb1c6f6a671d8684ef92", "lat": 38.91349683333333, "lon": -77.03200816666667, "rental_uris": {"android": "https://dc.lft.to/lastmile_qr_scan", "ios": "https://dc.lft.to/lastmile_qr_scan"}, "is_disabled": 0, "fusion_lat": 0.0, "name": "d8d530bf1527eb1c6f6a671d8684ef92", "fusion_lon": 0.0}, {"is_reserved": 0, "type": "electric_bike", "bike_id": "f9dc18b28640691eaa4aa2bd5539f00c", "lat": 38.889324, "lon": -76.91327433333333, "rental_uris": {"android": "https://dc.lft.to/lastmile_qr_scan", "ios": "https://dc.lft.to/lastmile_qr_scan"}, "is_disabled": 0, "fusion_lat": 0.0, "name": "f9dc18b28640691eaa4aa2bd5539f00c", "fusion_lon": 0.0}, {"is_reserved": 0, "type": "electric_scooter", "bike_id": "6891302e42a9c0bbf0d90c29960502ac", "lat": 38.9078115, "lon": -76.99974883333333, "rental_uris": {"android": "https://dc.lft.to/lastmile_qr_scan", "ios": "https://dc.lft.to/lastmile_qr_scan"}, "is_disabled": 0, "fusion_lat": 0.0, "name": "6891302e42a9c0bbf0d90c29960502ac", "fusion_lon": 0.0}, {"is_reserved": 0, "type": "electric_scooter", "bike_id": "12da49eca3599edc3ccfa778bf4b1625", "lat": 38.89760733333333, "lon": -77.00198466666667, "rental_uris": {"android": "https://dc.lft.to/lastmile_qr_scan", "ios": "https://dc.lft.to/lastmile_qr_scan"}, "is_disabled": 0, "fusion_lat": 0.0, "name": "12da49eca3599edc3ccfa778bf4b1625", "fusion_lon": 0.0}, {"is_reserved": 0, "type": "electric_scooter", "bike_id": "63772bbd14b600c661ba039196f4cfd6", "lat": 38.946828833333335, "lon": -77.07460766666667, "rental_uris": {"android": "https://dc.lft.to/lastmile_qr_scan", "ios": "https://dc.lft.to/lastmile_qr_scan"}, "is_disabled": 0, "fusion_lat": 0.0, "name": "63772bbd14b600c661ba039196f4cfd6", "fusion_lon": 0.0}, {"is_reserved": 0, "type": "electric_scooter", "bike_id": "275d592804648637c26536396e71445a", "lat": 38.90442016666667, "lon": -77.06290116666666, "rental_uris": {"android": "https://dc.lft.to/lastmile_qr_scan", "ios": "https://dc.lft.to/lastmile_qr_scan"}, "is_disabled": 0, "fusion_lat": 0.0, "name": "275d592804648637c26536396e71445a", "fusion_lon": 0.0}, {"is_reserved": 0, "type": "electric_scooter", "bike_id": "79dc3905303d55bfbc31e7393eb3b21f", "lat": 38.898283166666666, "lon": -77.04914533333333, "rental_uris": {"android": "https://dc.lft.to/lastmile_qr_scan", "ios": "https://dc.lft.to/lastmile_qr_scan"}, "is_disabled": 0, "fusion_lat": 0.0, "name": "79dc3905303d55bfbc31e7393eb3b21f", "fusion_lon": 0.0}, {"is_reserved": 0, "type": "electric_scooter", "bike_id": "5cd98e845bed16d8b5499b6e9e21c358", "lat": 38.89929983333333, "lon": -76.97836316666667, "rental_uris": {"android": "https://dc.lft.to/lastmile_qr_scan", "ios": "https://dc.lft.to/lastmile_qr_scan"}, "is_disabled": 0, "fusion_lat": 0.0, "name": "5cd98e845bed16d8b5499b6e9e21c358", "fusion_lon": 0.0}, {"is_reserved": 0, "type": "electric_scooter", "bike_id": "c056e2222b5c6fdd2d9d400276faf305", "lat": 38.92563483333333, "lon": -77.07784483333333, "rental_uris": {"android": "https://dc.lft.to/lastmile_qr_scan", "ios": "https://dc.lft.to/lastmile_qr_scan"}, "is_disabled": 0, "fusion_lat": 0.0, "name": "c056e2222b5c6fdd2d9d400276faf305", "fusion_lon": 0.0}, {"is_reserved": 0, "type": "electric_scooter", "bike_id": "2418522853f41cbf4e347ec11095ebe5", "lat": 38.92050416666667, "lon": -77.02203516666667, "rental_uris": {"android": "https://dc.lft.to/lastmile_qr_scan", "ios": "https://dc.lft.to/lastmile_qr_scan"}, "is_disabled": 0, "fusion_lat": 0.0, "name": "2418522853f41cbf4e347ec11095ebe5", "fusion_lon": 0.0}, {"is_reserved": 0, "type": "electric_scooter", "bike_id": "52aae803e0e779a4816e7f20026e864a", "lat": 38.92576, "lon": -76.99491433333333, "rental_uris": {"android": "https://dc.lft.to/lastmile_qr_scan", "ios": "https://dc.lft.to/lastmile_qr_scan"}, "is_disabled": 0, "fusion_lat": 0.0, "name": "52aae803e0e779a4816e7f20026e864a", "fusion_lon": 0.0}, {"is_reserved": 0, "type": "electric_scooter", "bike_id": "6bf767cec779fbd9d1d00eb0e008cf91", "lat": 38.896007833333336, "lon": -77.04679233333333, "rental_uris": {"android": "https://dc.lft.to/lastmile_qr_scan", "ios": "https://dc.lft.to/lastmile_qr_scan"}, "is_disabled": 0, "fusion_lat": 0.0, "name": "6bf767cec779fbd9d1d00eb0e008cf91", "fusion_lon": 0.0}, {"is_reserved": 0, "type": "electric_scooter", "bike_id": "e8c85828228748b11f8111d5162731f1", "lat": 38.89407416666667, "lon": -77.02150983333334, "rental_uris": {"android": "https://dc.lft.to/lastmile_qr_scan", "ios": "https://dc.lft.to/lastmile_qr_scan"}, "is_disabled": 0, "fusion_lat": 0.0, "name": "e8c85828228748b11f8111d5162731f1", "fusion_lon": 0.0}, {"is_reserved": 0, "type": "electric_scooter", "bike_id": "0e7c5019a0d04aa832280eb655116854", "lat": 38.930346166666666, "lon": -77.083212, "rental_uris": {"android": "https://dc.lft.to/lastmile_qr_scan", "ios": "https://dc.lft.to/lastmile_qr_scan"}, "is_disabled": 0, "fusion_lat": 0.0, "name": "0e7c5019a0d04aa832280eb655116854", "fusion_lon": 0.0}, {"is_reserved": 0, "type": "electric_scooter", "bike_id": "85ad21317538d0185c5fed625332936e", "lat": 38.9238255, "lon": -77.027406, "rental_uris": {"android": "https://dc.lft.to/lastmile_qr_scan", "ios": "https://dc.lft.to/lastmile_qr_scan"}, "is_disabled": 0, "fusion_lat": 0.0, "name": "85ad21317538d0185c5fed625332936e", "fusion_lon": 0.0}, {"is_reserved": 0, "type": "electric_scooter", "bike_id": "0c2e009512c33e1e86234d762f348978", "lat": 38.906165666666666, "lon": -77.03300633333333, "rental_uris": {"android": "https://dc.lft.to/lastmile_qr_scan", "ios": "https://dc.lft.to/lastmile_qr_scan"}, "is_disabled": 0, "fusion_lat": 0.0, "name": "0c2e009512c33e1e86234d762f348978", "fusion_lon": 0.0}, {"is_reserved": 0, "type": "electric_scooter", "bike_id": "1f7380dfd98a2d2b540927e53f3fc05c", "lat": 38.89514466666667, "lon": -77.02957083333334, "rental_uris": {"android": "https://dc.lft.to/lastmile_qr_scan", "ios": "https://dc.lft.to/lastmile_qr_scan"}, "is_disabled": 0, "fusion_lat": 0.0, "name": "1f7380dfd98a2d2b540927e53f3fc05c", "fusion_lon": 0.0}, {"is_reserved": 0, "type": "electric_scooter", "bike_id": "c7d80c6d26553a10f9954034b3807f7a", "lat": 38.904683166666665, "lon": -77.04866966666667, "rental_uris": {"android": "https://dc.lft.to/lastmile_qr_scan", "ios": "https://dc.lft.to/lastmile_qr_scan"}, "is_disabled": 0, "fusion_lat": 0.0, "name": "c7d80c6d26553a10f9954034b3807f7a", "fusion_lon": 0.0}, {"is_reserved": 0, "type": "electric_scooter", "bike_id": "9a357a8adede03187aae8166889b214b", "lat": 38.897901, "lon": -77.02790283333333, "rental_uris": {"android": "https://dc.lft.to/lastmile_qr_scan", "ios": "https://dc.lft.to/lastmile_qr_scan"}, "is_disabled": 0, "fusion_lat": 0.0, "name": "9a357a8adede03187aae8166889b214b", "fusion_lon": 0.0}, {"is_reserved": 0, "type": "electric_scooter", "bike_id": "416641c4ce72e0c813f5f65f70e6f1e7", "lat": 38.897195833333335, "lon": -77.007959, "rental_uris": {"android": "https://dc.lft.to/lastmile_qr_scan", "ios": "https://dc.lft.to/lastmile_qr_scan"}, "is_disabled": 0, "fusion_lat": 0.0, "name": "416641c4ce72e0c813f5f65f70e6f1e7", "fusion_lon": 0.0}, {"is_reserved": 0, "type": "electric_scooter", "bike_id": "0f90b2517445af8acf07359672bc3f23", "lat": 38.931912833333335, "lon": -77.02564466666666, "rental_uris": {"android": "https://dc.lft.to/lastmile_qr_scan", "ios": "https://dc.lft.to/lastmile_qr_scan"}, "is_disabled": 0, "fusion_lat": 0.0, "name": "0f90b2517445af8acf07359672bc3f23", "fusion_lon": 0.0}, {"is_reserved": 0, "type": "electric_bike", "bike_id": "e31e51387d327c8ff9a81bdd7d7636a0", "lat": 38.8945945, "lon": -77.10367, "rental_uris": {"android": "https://dc.lft.to/lastmile_qr_scan", "ios": "https://dc.lft.to/lastmile_qr_scan"}, "is_disabled": 0, "fusion_lat": 0.0, "name": "e31e51387d327c8ff9a81bdd7d7636a0", "fusion_lon": 0.0}, {"is_reserved": 0, "type": "electric_scooter", "bike_id": "70b93f70eded1b1bd054ae3d606adbac", "lat": 38.90040166666667, "lon": -76.98837533333334, "rental_uris": {"android": "https://dc.lft.to/lastmile_qr_scan", "ios": "https://dc.lft.to/lastmile_qr_scan"}, "is_disabled": 0, "fusion_lat": 0.0, "name": "70b93f70eded1b1bd054ae3d606adbac", "fusion_lon": 0.0}, {"is_reserved": 0, "type": "electric_scooter", "bike_id": "120f704bcccf5bfe085d3ed86390249e", "lat": 38.90451566666667, "lon": -76.9962295, "rental_uris": {"android": "https://dc.lft.to/lastmile_qr_scan", "ios": "https://dc.lft.to/lastmile_qr_scan"}, "is_disabled": 0, "fusion_lat": 0.0, "name": "120f704bcccf5bfe085d3ed86390249e", "fusion_lon": 0.0}, {"is_reserved": 0, "type": "electric_scooter", "bike_id": "57f4a0acfd20870cdda72834bf0da45a", "lat": 38.90029666666667, "lon": -76.996036, "rental_uris": {"android": "https://dc.lft.to/lastmile_qr_scan", "ios": "https://dc.lft.to/lastmile_qr_scan"}, "is_disabled": 0, "fusion_lat": 0.0, "name": "57f4a0acfd20870cdda72834bf0da45a", "fusion_lon": 0.0}, {"is_reserved": 0, "type": "electric_scooter", "bike_id": "e5170e3fa40a083902aeecefa31f2abc", "lat": 38.8564535, "lon": -76.9967355, "rental_uris": {"android": "https://dc.lft.to/lastmile_qr_scan", "ios": "https://dc.lft.to/lastmile_qr_scan"}, "is_disabled": 0, "fusion_lat": 0.0, "name": "e5170e3fa40a083902aeecefa31f2abc", "fusion_lon": 0.0}, {"is_reserved": 0, "type": "electric_scooter", "bike_id": "f50e35a6f18dcb85223a8371c5e28916", "lat": 38.9011005, "lon": -76.98086716666667, "rental_uris": {"android": "https://dc.lft.to/lastmile_qr_scan", "ios": "https://dc.lft.to/lastmile_qr_scan"}, "is_disabled": 0, "fusion_lat": 0.0, "name": "f50e35a6f18dcb85223a8371c5e28916", "fusion_lon": 0.0}, {"is_reserved": 0, "type": "electric_scooter", "bike_id": "f378cdc70c141e6bedf61900fd7074b0", "lat": 38.9072995, "lon": -77.07028833333334, "rental_uris": {"android": "https://dc.lft.to/lastmile_qr_scan", "ios": "https://dc.lft.to/lastmile_qr_scan"}, "is_disabled": 0, "fusion_lat": 0.0, "name": "f378cdc70c141e6bedf61900fd7074b0", "fusion_lon": 0.0}, {"is_reserved": 0, "type": "electric_scooter", "bike_id": "1cc5d50cba2dfd3823aa75c46c6587cf", "lat": 38.88987916666667, "lon": -77.00316366666667, "rental_uris": {"android": "https://dc.lft.to/lastmile_qr_scan", "ios": "https://dc.lft.to/lastmile_qr_scan"}, "is_disabled": 0, "fusion_lat": 0.0, "name": "1cc5d50cba2dfd3823aa75c46c6587cf", "fusion_lon": 0.0}, {"is_reserved": 0, "type": "electric_scooter", "bike_id": "bb69a64f2bc36d0921b73897676b24ab", "lat": 38.874765333333336, "lon": -77.00031116666666, "rental_uris": {"android": "https://dc.lft.to/lastmile_qr_scan", "ios": "https://dc.lft.to/lastmile_qr_scan"}, "is_disabled": 0, "fusion_lat": 0.0, "name": "bb69a64f2bc36d0921b73897676b24ab", "fusion_lon": 0.0}, {"is_reserved": 0, "type": "electric_scooter", "bike_id": "6e082098f7be8a0280f565ecb141308d", "lat": 38.91287116666667, "lon": -77.07276, "rental_uris": {"android": "https://dc.lft.to/lastmile_qr_scan", "ios": "https://dc.lft.to/lastmile_qr_scan"}, "is_disabled": 0, "fusion_lat": 0.0, "name": "6e082098f7be8a0280f565ecb141308d", "fusion_lon": 0.0}, {"is_reserved": 0, "type": "electric_scooter", "bike_id": "934d0c122c2d863ba99c3cbfd6ee8b40", "lat": 38.933684166666666, "lon": -77.02395933333334, "rental_uris": {"android": "https://dc.lft.to/lastmile_qr_scan", "ios": "https://dc.lft.to/lastmile_qr_scan"}, "is_disabled": 0, "fusion_lat": 0.0, "name": "934d0c122c2d863ba99c3cbfd6ee8b40", "fusion_lon": 0.0}, {"is_reserved": 0, "type": "electric_scooter", "bike_id": "93363fa6ce84a89ef0e5080f52fcf70a", "lat": 38.884055333333336, "lon": -77.03040166666666, "rental_uris": {"android": "https://dc.lft.to/lastmile_qr_scan", "ios": "https://dc.lft.to/lastmile_qr_scan"}, "is_disabled": 0, "fusion_lat": 0.0, "name": "93363fa6ce84a89ef0e5080f52fcf70a", "fusion_lon": 0.0}, {"is_reserved": 0, "type": "electric_scooter", "bike_id": "a31af8b0ac2cacb76fd583896a5d320b", "lat": 38.90375216666666, "lon": -77.0314325, "rental_uris": {"android": "https://dc.lft.to/lastmile_qr_scan", "ios": "https://dc.lft.to/lastmile_qr_scan"}, "is_disabled": 0, "fusion_lat": 0.0, "name": "a31af8b0ac2cacb76fd583896a5d320b", "fusion_lon": 0.0}, {"is_reserved": 0, "type": "electric_scooter", "bike_id": "3ce751a2b8f31d28a34823385df979de", "lat": 38.91574416666667, "lon": -77.01997983333334, "rental_uris": {"android": "https://dc.lft.to/lastmile_qr_scan", "ios": "https://dc.lft.to/lastmile_qr_scan"}, "is_disabled": 0, "fusion_lat": 0.0, "name": "3ce751a2b8f31d28a34823385df979de", "fusion_lon": 0.0}, {"is_reserved": 0, "type": "electric_scooter", "bike_id": "f6fb0a44b3128996e044fe351cae9859", "lat": 38.92, "lon": -77.07115016666667, "rental_uris": {"android": "https://dc.lft.to/lastmile_qr_scan", "ios": "https://dc.lft.to/lastmile_qr_scan"}, "is_disabled": 0, "fusion_lat": 0.0, "name": "f6fb0a44b3128996e044fe351cae9859", "fusion_lon": 0.0}, {"is_reserved": 0, "type": "electric_scooter", "bike_id": "53defe97db8e8ab6ae862b427e6b3de5", "lat": 38.9087705, "lon": -77.04356816666666, "rental_uris": {"android": "https://dc.lft.to/lastmile_qr_scan", "ios": "https://dc.lft.to/lastmile_qr_scan"}, "is_disabled": 0, "fusion_lat": 0.0, "name": "53defe97db8e8ab6ae862b427e6b3de5", "fusion_lon": 0.0}, {"is_reserved": 0, "type": "electric_scooter", "bike_id": "e0a3e2bd8f418e53f8457ec6560023b8", "lat": 38.916894166666665, "lon": -77.03597716666667, "rental_uris": {"android": "https://dc.lft.to/lastmile_qr_scan", "ios": "https://dc.lft.to/lastmile_qr_scan"}, "is_disabled": 0, "fusion_lat": 0.0, "name": "e0a3e2bd8f418e53f8457ec6560023b8", "fusion_lon": 0.0}, {"is_reserved": 0, "type": "electric_scooter", "bike_id": "c4d095bd16e9cdfebb92ee124b638572", "lat": 38.900965666666664, "lon": -77.049873, "rental_uris": {"android": "https://dc.lft.to/lastmile_qr_scan", "ios": "https://dc.lft.to/lastmile_qr_scan"}, "is_disabled": 0, "fusion_lat": 0.0, "name": "c4d095bd16e9cdfebb92ee124b638572", "fusion_lon": 0.0}, {"is_reserved": 0, "type": "electric_scooter", "bike_id": "92cb2bb54c9236bbbd0f39767ee59bb8", "lat": 38.91821366666667, "lon": -77.0260265, "rental_uris": {"android": "https://dc.lft.to/lastmile_qr_scan", "ios": "https://dc.lft.to/lastmile_qr_scan"}, "is_disabled": 0, "fusion_lat": 0.0, "name": "92cb2bb54c9236bbbd0f39767ee59bb8", "fusion_lon": 0.0}, {"is_reserved": 0, "type": "electric_scooter", "bike_id": "de0f741e5928a617897a1aeddb6c8b58", "lat": 38.926293666666666, "lon": -77.04250666666667, "rental_uris": {"android": "https://dc.lft.to/lastmile_qr_scan", "ios": "https://dc.lft.to/lastmile_qr_scan"}, "is_disabled": 0, "fusion_lat": 0.0, "name": "de0f741e5928a617897a1aeddb6c8b58", "fusion_lon": 0.0}, {"is_reserved": 0, "type": "electric_scooter", "bike_id": "f4b6a7d24b8971599ffffab152c4ca91", "lat": 38.93038466666667, "lon": -77.0554295, "rental_uris": {"android": "https://dc.lft.to/lastmile_qr_scan", "ios": "https://dc.lft.to/lastmile_qr_scan"}, "is_disabled": 0, "fusion_lat": 0.0, "name": "f4b6a7d24b8971599ffffab152c4ca91", "fusion_lon": 0.0}, {"is_reserved": 0, "type": "electric_scooter", "bike_id": "fa8bca8bde9857475a8d0f8b1a24fdaf", "lat": 38.88391466666667, "lon": -77.0194505, "rental_uris": {"android": "https://dc.lft.to/lastmile_qr_scan", "ios": "https://dc.lft.to/lastmile_qr_scan"}, "is_disabled": 0, "fusion_lat": 0.0, "name": "fa8bca8bde9857475a8d0f8b1a24fdaf", "fusion_lon": 0.0}, {"is_reserved": 0, "type": "electric_scooter", "bike_id": "264fe3b3667d17c4a6f08d5672a883d0", "lat": 38.943258666666665, "lon": -77.012562, "rental_uris": {"android": "https://dc.lft.to/lastmile_qr_scan", "ios": "https://dc.lft.to/lastmile_qr_scan"}, "is_disabled": 0, "fusion_lat": 0.0, "name": "264fe3b3667d17c4a6f08d5672a883d0", "fusion_lon": 0.0}, {"is_reserved": 0, "type": "electric_scooter", "bike_id": "d3c5fc2bb1d14ca80765f940b2e019b5", "lat": 38.924246, "lon": -77.0342015, "rental_uris": {"android": "https://dc.lft.to/lastmile_qr_scan", "ios": "https://dc.lft.to/lastmile_qr_scan"}, "is_disabled": 0, "fusion_lat": 0.0, "name": "d3c5fc2bb1d14ca80765f940b2e019b5", "fusion_lon": 0.0}, {"is_reserved": 0, "type": "electric_scooter", "bike_id": "0d88e222f24a965806b5a07a874d60f9", "lat": 38.911947, "lon": -77.03761666666666, "rental_uris": {"android": "https://dc.lft.to/lastmile_qr_scan", "ios": "https://dc.lft.to/lastmile_qr_scan"}, "is_disabled": 0, "fusion_lat": 0.0, "name": "0d88e222f24a965806b5a07a874d60f9", "fusion_lon": 0.0}, {"is_reserved": 0, "type": "electric_scooter", "bike_id": "b53c6b67e9598adb2de2004b1a9a66f7", "lat": 38.89509366666667, "lon": -76.978951, "rental_uris": {"android": "https://dc.lft.to/lastmile_qr_scan", "ios": "https://dc.lft.to/lastmile_qr_scan"}, "is_disabled": 0, "fusion_lat": 0.0, "name": "b53c6b67e9598adb2de2004b1a9a66f7", "fusion_lon": 0.0}, {"is_reserved": 0, "type": "electric_scooter", "bike_id": "8f1b70f8f34cc2d097ce62f8a1ea4868", "lat": 38.909042, "lon": -76.996159, "rental_uris": {"android": "https://dc.lft.to/lastmile_qr_scan", "ios": "https://dc.lft.to/lastmile_qr_scan"}, "is_disabled": 0, "fusion_lat": 0.0, "name": "8f1b70f8f34cc2d097ce62f8a1ea4868", "fusion_lon": 0.0}, {"is_reserved": 0, "type": "electric_scooter", "bike_id": "1e7d0a264982b0245421b67bd28a72c9", "lat": 38.92929316666667, "lon": -77.02053483333333, "rental_uris": {"android": "https://dc.lft.to/lastmile_qr_scan", "ios": "https://dc.lft.to/lastmile_qr_scan"}, "is_disabled": 0, "fusion_lat": 0.0, "name": "1e7d0a264982b0245421b67bd28a72c9", "fusion_lon": 0.0}, {"is_reserved": 0, "type": "electric_scooter", "bike_id": "001862176f2526cf771dd9a5ece162b4", "lat": 38.90573766666667, "lon": -77.00317266666667, "rental_uris": {"android": "https://dc.lft.to/lastmile_qr_scan", "ios": "https://dc.lft.to/lastmile_qr_scan"}, "is_disabled": 0, "fusion_lat": 0.0, "name": "001862176f2526cf771dd9a5ece162b4", "fusion_lon": 0.0}, {"is_reserved": 0, "type": "electric_scooter", "bike_id": "da6d38638873c01861537b053e615064", "lat": 38.91979366666666, "lon": -77.04177066666666, "rental_uris": {"android": "https://dc.lft.to/lastmile_qr_scan", "ios": "https://dc.lft.to/lastmile_qr_scan"}, "is_disabled": 0, "fusion_lat": 0.0, "name": "da6d38638873c01861537b053e615064", "fusion_lon": 0.0}, {"is_reserved": 0, "type": "electric_scooter", "bike_id": "12202a3f03b18ceab53ee593a932dc4b", "lat": 38.91503216666667, "lon": -77.00345633333333, "rental_uris": {"android": "https://dc.lft.to/lastmile_qr_scan", "ios": "https://dc.lft.to/lastmile_qr_scan"}, "is_disabled": 0, "fusion_lat": 0.0, "name": "12202a3f03b18ceab53ee593a932dc4b", "fusion_lon": 0.0}, {"is_reserved": 0, "type": "electric_scooter", "bike_id": "da01327717e8e5a369d9a3c0c92cf0d4", "lat": 38.92694433333333, "lon": -77.02300883333334, "rental_uris": {"android": "https://dc.lft.to/lastmile_qr_scan", "ios": "https://dc.lft.to/lastmile_qr_scan"}, "is_disabled": 0, "fusion_lat": 0.0, "name": "da01327717e8e5a369d9a3c0c92cf0d4", "fusion_lon": 0.0}, {"is_reserved": 0, "type": "electric_bike", "bike_id": "f234a1e47f3aa0eda564b8019568ff15", "lat": 38.91858666666667, "lon": -76.96085533333333, "rental_uris": {"android": "https://dc.lft.to/lastmile_qr_scan", "ios": "https://dc.lft.to/lastmile_qr_scan"}, "is_disabled": 0, "fusion_lat": 0.0, "name": "f234a1e47f3aa0eda564b8019568ff15", "fusion_lon": 0.0}, {"is_reserved": 0, "type": "electric_scooter", "bike_id": "7ba05ce57d1ecff58b66aefed13035e4", "lat": 38.89976466666667, "lon": -77.026207, "rental_uris": {"android": "https://dc.lft.to/lastmile_qr_scan", "ios": "https://dc.lft.to/lastmile_qr_scan"}, "is_disabled": 0, "fusion_lat": 0.0, "name": "7ba05ce57d1ecff58b66aefed13035e4", "fusion_lon": 0.0}, {"is_reserved": 0, "type": "electric_scooter", "bike_id": "a5adca0e09a7bcc4eff3c484949a8ad1", "lat": 38.9207275, "lon": -77.0221685, "rental_uris": {"android": "https://dc.lft.to/lastmile_qr_scan", "ios": "https://dc.lft.to/lastmile_qr_scan"}, "is_disabled": 0, "fusion_lat": 0.0, "name": "a5adca0e09a7bcc4eff3c484949a8ad1", "fusion_lon": 0.0}, {"is_reserved": 0, "type": "electric_scooter", "bike_id": "4256bebdf0e5c044c249b1b7ed5fadf9", "lat": 38.9180425, "lon": -77.0249225, "rental_uris": {"android": "https://dc.lft.to/lastmile_qr_scan", "ios": "https://dc.lft.to/lastmile_qr_scan"}, "is_disabled": 0, "fusion_lat": 0.0, "name": "4256bebdf0e5c044c249b1b7ed5fadf9", "fusion_lon": 0.0}, {"is_reserved": 0, "type": "electric_scooter", "bike_id": "3d85179ae75f1b47f23267026781d115", "lat": 38.90083033333333, "lon": -77.027182, "rental_uris": {"android": "https://dc.lft.to/lastmile_qr_scan", "ios": "https://dc.lft.to/lastmile_qr_scan"}, "is_disabled": 0, "fusion_lat": 0.0, "name": "3d85179ae75f1b47f23267026781d115", "fusion_lon": 0.0}, {"is_reserved": 0, "type": "electric_scooter", "bike_id": "742a8c59520edae059859c6a94c8cd7a", "lat": 38.89592, "lon": -76.929747, "rental_uris": {"android": "https://dc.lft.to/lastmile_qr_scan", "ios": "https://dc.lft.to/lastmile_qr_scan"}, "is_disabled": 0, "fusion_lat": 0.0, "name": "742a8c59520edae059859c6a94c8cd7a", "fusion_lon": 0.0}, {"is_reserved": 0, "type": "electric_scooter", "bike_id": "d041cef386dcd7af54d600f183e51122", "lat": 38.91062083333333, "lon": -77.0551735, "rental_uris": {"android": "https://dc.lft.to/lastmile_qr_scan", "ios": "https://dc.lft.to/lastmile_qr_scan"}, "is_disabled": 0, "fusion_lat": 0.0, "name": "d041cef386dcd7af54d600f183e51122", "fusion_lon": 0.0}, {"is_reserved": 0, "type": "electric_scooter", "bike_id": "4e5768dcb6839f61a06ea5b09f28558e", "lat": 38.9193145, "lon": -77.01974983333334, "rental_uris": {"android": "https://dc.lft.to/lastmile_qr_scan", "ios": "https://dc.lft.to/lastmile_qr_scan"}, "is_disabled": 0, "fusion_lat": 0.0, "name": "4e5768dcb6839f61a06ea5b09f28558e", "fusion_lon": 0.0}, {"is_reserved": 0, "type": "electric_scooter", "bike_id": "be96cf895ac53b4087632455f717a329", "lat": 38.91826916666667, "lon": -77.032136, "rental_uris": {"android": "https://dc.lft.to/lastmile_qr_scan", "ios": "https://dc.lft.to/lastmile_qr_scan"}, "is_disabled": 0, "fusion_lat": 0.0, "name": "be96cf895ac53b4087632455f717a329", "fusion_lon": 0.0}, {"is_reserved": 0, "type": "electric_bike", "bike_id": "c5e22df1fcb92dff5fc805b1ac8b371a", "lat": 39.094427833333334, "lon": -77.13458966666667, "rental_uris": {"android": "https://dc.lft.to/lastmile_qr_scan", "ios": "https://dc.lft.to/lastmile_qr_scan"}, "is_disabled": 0, "fusion_lat": 0.0, "name": "c5e22df1fcb92dff5fc805b1ac8b371a", "fusion_lon": 0.0}, {"is_reserved": 0, "type": "electric_scooter", "bike_id": "eccd5474b4f67c43cfd391d73288f2cb", "lat": 38.927952, "lon": -77.03611083333334, "rental_uris": {"android": "https://dc.lft.to/lastmile_qr_scan", "ios": "https://dc.lft.to/lastmile_qr_scan"}, "is_disabled": 0, "fusion_lat": 0.0, "name": "eccd5474b4f67c43cfd391d73288f2cb", "fusion_lon": 0.0}, {"is_reserved": 0, "type": "electric_scooter", "bike_id": "3994394d16f0aa8b59c2711dd3a69658", "lat": 38.93058416666667, "lon": -77.04222783333333, "rental_uris": {"android": "https://dc.lft.to/lastmile_qr_scan", "ios": "https://dc.lft.to/lastmile_qr_scan"}, "is_disabled": 0, "fusion_lat": 0.0, "name": "3994394d16f0aa8b59c2711dd3a69658", "fusion_lon": 0.0}, {"is_reserved": 0, "type": "electric_scooter", "bike_id": "76cfa7a516de37c88b5883b1e36555fd", "lat": 38.90905566666667, "lon": -77.04390216666667, "rental_uris": {"android": "https://dc.lft.to/lastmile_qr_scan", "ios": "https://dc.lft.to/lastmile_qr_scan"}, "is_disabled": 0, "fusion_lat": 0.0, "name": "76cfa7a516de37c88b5883b1e36555fd", "fusion_lon": 0.0}, {"is_reserved": 0, "type": "electric_scooter", "bike_id": "934cb77d0c2bd19dc6bcb1e993a25035", "lat": 38.90065033333333, "lon": -77.02525183333333, "rental_uris": {"android": "https://dc.lft.to/lastmile_qr_scan", "ios": "https://dc.lft.to/lastmile_qr_scan"}, "is_disabled": 0, "fusion_lat": 0.0, "name": "934cb77d0c2bd19dc6bcb1e993a25035", "fusion_lon": 0.0}, {"is_reserved": 0, "type": "electric_scooter", "bike_id": "275b20fa89d1397561324fc30ccd204b", "lat": 38.926421166666664, "lon": -77.0214355, "rental_uris": {"android": "https://dc.lft.to/lastmile_qr_scan", "ios": "https://dc.lft.to/lastmile_qr_scan"}, "is_disabled": 0, "fusion_lat": 0.0, "name": "275b20fa89d1397561324fc30ccd204b", "fusion_lon": 0.0}, {"is_reserved": 0, "type": "electric_scooter", "bike_id": "7b84e824b544c26d395b7795e3308187", "lat": 38.88326716666667, "lon": -76.9932805, "rental_uris": {"android": "https://dc.lft.to/lastmile_qr_scan", "ios": "https://dc.lft.to/lastmile_qr_scan"}, "is_disabled": 0, "fusion_lat": 0.0, "name": "7b84e824b544c26d395b7795e3308187", "fusion_lon": 0.0}, {"is_reserved": 0, "type": "electric_scooter", "bike_id": "a7f7864543bcc93494f43ae6ad71632d", "lat": 38.88403866666667, "lon": -76.99530283333333, "rental_uris": {"android": "https://dc.lft.to/lastmile_qr_scan", "ios": "https://dc.lft.to/lastmile_qr_scan"}, "is_disabled": 0, "fusion_lat": 0.0, "name": "a7f7864543bcc93494f43ae6ad71632d", "fusion_lon": 0.0}, {"is_reserved": 0, "type": "electric_scooter", "bike_id": "3e6ef493b722c45d518510ce62539e08", "lat": 38.915749, "lon": -77.03642783333333, "rental_uris": {"android": "https://dc.lft.to/lastmile_qr_scan", "ios": "https://dc.lft.to/lastmile_qr_scan"}, "is_disabled": 0, "fusion_lat": 0.0, "name": "3e6ef493b722c45d518510ce62539e08", "fusion_lon": 0.0}, {"is_reserved": 0, "type": "electric_scooter", "bike_id": "fc3481792d3445fbda4b730d6f6c738f", "lat": 38.8845735, "lon": -76.926209, "rental_uris": {"android": "https://dc.lft.to/lastmile_qr_scan", "ios": "https://dc.lft.to/lastmile_qr_scan"}, "is_disabled": 0, "fusion_lat": 0.0, "name": "fc3481792d3445fbda4b730d6f6c738f", "fusion_lon": 0.0}, {"is_reserved": 0, "type": "electric_scooter", "bike_id": "15176d7383885c4b12d2bcd4f85a47bb", "lat": 38.92744016666666, "lon": -77.06962916666667, "rental_uris": {"android": "https://dc.lft.to/lastmile_qr_scan", "ios": "https://dc.lft.to/lastmile_qr_scan"}, "is_disabled": 0, "fusion_lat": 0.0, "name": "15176d7383885c4b12d2bcd4f85a47bb", "fusion_lon": 0.0}, {"is_reserved": 0, "type": "electric_scooter", "bike_id": "a4daa0d2350e44b4e63144ba56b59492", "lat": 38.925998166666666, "lon": -77.02155216666667, "rental_uris": {"android": "https://dc.lft.to/lastmile_qr_scan", "ios": "https://dc.lft.to/lastmile_qr_scan"}, "is_disabled": 0, "fusion_lat": 0.0, "name": "a4daa0d2350e44b4e63144ba56b59492", "fusion_lon": 0.0}, {"is_reserved": 0, "type": "electric_scooter", "bike_id": "114dc41997680eae12d674ceefaccae9", "lat": 38.97298716666667, "lon": -77.036241, "rental_uris": {"android": "https://dc.lft.to/lastmile_qr_scan", "ios": "https://dc.lft.to/lastmile_qr_scan"}, "is_disabled": 0, "fusion_lat": 0.0, "name": "114dc41997680eae12d674ceefaccae9", "fusion_lon": 0.0}, {"is_reserved": 0, "type": "electric_scooter", "bike_id": "a8b3fe8952796dd7c53b3b532368e4b9", "lat": 38.92375966666667, "lon": -77.036607, "rental_uris": {"android": "https://dc.lft.to/lastmile_qr_scan", "ios": "https://dc.lft.to/lastmile_qr_scan"}, "is_disabled": 0, "fusion_lat": 0.0, "name": "a8b3fe8952796dd7c53b3b532368e4b9", "fusion_lon": 0.0}, {"is_reserved": 0, "type": "electric_scooter", "bike_id": "fb496f57981add5ad1d9a5387ca940a5", "lat": 38.887316, "lon": -77.01354833333333, "rental_uris": {"android": "https://dc.lft.to/lastmile_qr_scan", "ios": "https://dc.lft.to/lastmile_qr_scan"}, "is_disabled": 0, "fusion_lat": 0.0, "name": "fb496f57981add5ad1d9a5387ca940a5", "fusion_lon": 0.0}, {"is_reserved": 0, "type": "electric_scooter", "bike_id": "e0d2b325d015b601f2c43d009c49dbe0", "lat": 38.9444235, "lon": -77.02916633333334, "rental_uris": {"android": "https://dc.lft.to/lastmile_qr_scan", "ios": "https://dc.lft.to/lastmile_qr_scan"}, "is_disabled": 0, "fusion_lat": 0.0, "name": "e0d2b325d015b601f2c43d009c49dbe0", "fusion_lon": 0.0}, {"is_reserved": 0, "type": "electric_scooter", "bike_id": "00b221eba48b52a53fbcf2045f735851", "lat": 38.89603416666667, "lon": -77.0450675, "rental_uris": {"android": "https://dc.lft.to/lastmile_qr_scan", "ios": "https://dc.lft.to/lastmile_qr_scan"}, "is_disabled": 0, "fusion_lat": 0.0, "name": "00b221eba48b52a53fbcf2045f735851", "fusion_lon": 0.0}, {"is_reserved": 0, "type": "electric_scooter", "bike_id": "d00d000b7dfaeac05ab1e62ec295bd3f", "lat": 38.900425166666665, "lon": -76.98288433333333, "rental_uris": {"android": "https://dc.lft.to/lastmile_qr_scan", "ios": "https://dc.lft.to/lastmile_qr_scan"}, "is_disabled": 0, "fusion_lat": 0.0, "name": "d00d000b7dfaeac05ab1e62ec295bd3f", "fusion_lon": 0.0}, {"is_reserved": 0, "type": "electric_scooter", "bike_id": "9ea28cd5061b8929b912da8e0e12694c", "lat": 38.903405, "lon": -77.02588916666667, "rental_uris": {"android": "https://dc.lft.to/lastmile_qr_scan", "ios": "https://dc.lft.to/lastmile_qr_scan"}, "is_disabled": 0, "fusion_lat": 0.0, "name": "9ea28cd5061b8929b912da8e0e12694c", "fusion_lon": 0.0}, {"is_reserved": 0, "type": "electric_scooter", "bike_id": "cb0911b390ee0aebcad0327212e8df30", "lat": 38.905159833333336, "lon": -77.04776783333334, "rental_uris": {"android": "https://dc.lft.to/lastmile_qr_scan", "ios": "https://dc.lft.to/lastmile_qr_scan"}, "is_disabled": 0, "fusion_lat": 0.0, "name": "cb0911b390ee0aebcad0327212e8df30", "fusion_lon": 0.0}, {"is_reserved": 0, "type": "electric_scooter", "bike_id": "37d7d04aba9f9ab43b560ac3bfd40708", "lat": 38.915579666666666, "lon": -77.03106933333333, "rental_uris": {"android": "https://dc.lft.to/lastmile_qr_scan", "ios": "https://dc.lft.to/lastmile_qr_scan"}, "is_disabled": 0, "fusion_lat": 0.0, "name": "37d7d04aba9f9ab43b560ac3bfd40708", "fusion_lon": 0.0}, {"is_reserved": 0, "type": "electric_scooter", "bike_id": "535240d46ae0ef49d9723d9ea6f93f50", "lat": 38.900121, "lon": -77.00694633333333, "rental_uris": {"android": "https://dc.lft.to/lastmile_qr_scan", "ios": "https://dc.lft.to/lastmile_qr_scan"}, "is_disabled": 0, "fusion_lat": 0.0, "name": "535240d46ae0ef49d9723d9ea6f93f50", "fusion_lon": 0.0}, {"is_reserved": 0, "type": "electric_scooter", "bike_id": "f01a61a0449da04259ae22f9401c19c9", "lat": 38.92599966666667, "lon": -77.02155766666667, "rental_uris": {"android": "https://dc.lft.to/lastmile_qr_scan", "ios": "https://dc.lft.to/lastmile_qr_scan"}, "is_disabled": 0, "fusion_lat": 0.0, "name": "f01a61a0449da04259ae22f9401c19c9", "fusion_lon": 0.0}, {"is_reserved": 0, "type": "electric_scooter", "bike_id": "7bc26fff3ad336f66303d1943b8261dd", "lat": 38.881243166666664, "lon": -77.01732733333333, "rental_uris": {"android": "https://dc.lft.to/lastmile_qr_scan", "ios": "https://dc.lft.to/lastmile_qr_scan"}, "is_disabled": 0, "fusion_lat": 0.0, "name": "7bc26fff3ad336f66303d1943b8261dd", "fusion_lon": 0.0}, {"is_reserved": 0, "type": "electric_scooter", "bike_id": "61579f3cff66a3b6e7f752e01263ab1c", "lat": 38.88641416666667, "lon": -77.0128815, "rental_uris": {"android": "https://dc.lft.to/lastmile_qr_scan", "ios": "https://dc.lft.to/lastmile_qr_scan"}, "is_disabled": 0, "fusion_lat": 0.0, "name": "61579f3cff66a3b6e7f752e01263ab1c", "fusion_lon": 0.0}, {"is_reserved": 0, "type": "electric_scooter", "bike_id": "fd201e820575bd59eb5df641d3e35202", "lat": 38.929239333333335, "lon": -77.02008716666667, "rental_uris": {"android": "https://dc.lft.to/lastmile_qr_scan", "ios": "https://dc.lft.to/lastmile_qr_scan"}, "is_disabled": 0, "fusion_lat": 0.0, "name": "fd201e820575bd59eb5df641d3e35202", "fusion_lon": 0.0}, {"is_reserved": 0, "type": "electric_scooter", "bike_id": "b8bc4a89c761078f366e2b069d4246d1", "lat": 38.92580316666667, "lon": -77.07863933333333, "rental_uris": {"android": "https://dc.lft.to/lastmile_qr_scan", "ios": "https://dc.lft.to/lastmile_qr_scan"}, "is_disabled": 0, "fusion_lat": 0.0, "name": "b8bc4a89c761078f366e2b069d4246d1", "fusion_lon": 0.0}, {"is_reserved": 0, "type": "electric_scooter", "bike_id": "ae1599fecff44affe1650a54169e6a57", "lat": 38.922855166666665, "lon": -77.04240033333333, "rental_uris": {"android": "https://dc.lft.to/lastmile_qr_scan", "ios": "https://dc.lft.to/lastmile_qr_scan"}, "is_disabled": 0, "fusion_lat": 0.0, "name": "ae1599fecff44affe1650a54169e6a57", "fusion_lon": 0.0}, {"is_reserved": 0, "type": "electric_scooter", "bike_id": "a61ad0effba7c43e0721f682445b2a6e", "lat": 38.9299215, "lon": -77.0380125, "rental_uris": {"android": "https://dc.lft.to/lastmile_qr_scan", "ios": "https://dc.lft.to/lastmile_qr_scan"}, "is_disabled": 0, "fusion_lat": 0.0, "name": "a61ad0effba7c43e0721f682445b2a6e", "fusion_lon": 0.0}, {"is_reserved": 0, "type": "electric_scooter", "bike_id": "df302a4d7b1f0baa3e084c064d3fa258", "lat": 38.90165, "lon": -77.0248415, "rental_uris": {"android": "https://dc.lft.to/lastmile_qr_scan", "ios": "https://dc.lft.to/lastmile_qr_scan"}, "is_disabled": 0, "fusion_lat": 0.0, "name": "df302a4d7b1f0baa3e084c064d3fa258", "fusion_lon": 0.0}, {"is_reserved": 0, "type": "electric_scooter", "bike_id": "7c7e5b3c907c5a60cf3de3bc235affb8", "lat": 38.93085833333333, "lon": -77.03491633333333, "rental_uris": {"android": "https://dc.lft.to/lastmile_qr_scan", "ios": "https://dc.lft.to/lastmile_qr_scan"}, "is_disabled": 0, "fusion_lat": 0.0, "name": "7c7e5b3c907c5a60cf3de3bc235affb8", "fusion_lon": 0.0}, {"is_reserved": 0, "type": "electric_scooter", "bike_id": "8843619f5501f04cf8edd7875681c339", "lat": 38.92088733333333, "lon": -77.03172166666667, "rental_uris": {"android": "https://dc.lft.to/lastmile_qr_scan", "ios": "https://dc.lft.to/lastmile_qr_scan"}, "is_disabled": 0, "fusion_lat": 0.0, "name": "8843619f5501f04cf8edd7875681c339", "fusion_lon": 0.0}, {"is_reserved": 0, "type": "electric_scooter", "bike_id": "3b6dc1f12f6092538d9d834b90c307d9", "lat": 38.92016616666667, "lon": -77.01062733333333, "rental_uris": {"android": "https://dc.lft.to/lastmile_qr_scan", "ios": "https://dc.lft.to/lastmile_qr_scan"}, "is_disabled": 0, "fusion_lat": 0.0, "name": "3b6dc1f12f6092538d9d834b90c307d9", "fusion_lon": 0.0}, {"is_reserved": 0, "type": "electric_scooter", "bike_id": "3a2d688a819852d2ddd305ded2a800be", "lat": 38.934590166666666, "lon": -77.0580995, "rental_uris": {"android": "https://dc.lft.to/lastmile_qr_scan", "ios": "https://dc.lft.to/lastmile_qr_scan"}, "is_disabled": 0, "fusion_lat": 0.0, "name": "3a2d688a819852d2ddd305ded2a800be", "fusion_lon": 0.0}, {"is_reserved": 0, "type": "electric_scooter", "bike_id": "f40a52988436e303e3158c6789be5c70", "lat": 38.87819983333333, "lon": -77.02238016666666, "rental_uris": {"android": "https://dc.lft.to/lastmile_qr_scan", "ios": "https://dc.lft.to/lastmile_qr_scan"}, "is_disabled": 0, "fusion_lat": 0.0, "name": "f40a52988436e303e3158c6789be5c70", "fusion_lon": 0.0}, {"is_reserved": 0, "type": "electric_scooter", "bike_id": "400dcc6a26e7c1460b53c949fb3278b7", "lat": 38.92332066666667, "lon": -77.05395966666667, "rental_uris": {"android": "https://dc.lft.to/lastmile_qr_scan", "ios": "https://dc.lft.to/lastmile_qr_scan"}, "is_disabled": 0, "fusion_lat": 0.0, "name": "400dcc6a26e7c1460b53c949fb3278b7", "fusion_lon": 0.0}, {"is_reserved": 0, "type": "electric_scooter", "bike_id": "d486c1bc0e5a58405ef9ab11ddb08e26", "lat": 38.876556, "lon": -77.007405, "rental_uris": {"android": "https://dc.lft.to/lastmile_qr_scan", "ios": "https://dc.lft.to/lastmile_qr_scan"}, "is_disabled": 0, "fusion_lat": 0.0, "name": "d486c1bc0e5a58405ef9ab11ddb08e26", "fusion_lon": 0.0}, {"is_reserved": 0, "type": "electric_scooter", "bike_id": "1f063d0862e872ab9df12accd2abbfb8", "lat": 38.886572, "lon": -77.033858, "rental_uris": {"android": "https://dc.lft.to/lastmile_qr_scan", "ios": "https://dc.lft.to/lastmile_qr_scan"}, "is_disabled": 0, "fusion_lat": 0.0, "name": "1f063d0862e872ab9df12accd2abbfb8", "fusion_lon": 0.0}, {"is_reserved": 0, "type": "electric_bike", "bike_id": "841c0ebccae845049b7b44a3524dbbc3", "lat": 38.90508833333333, "lon": -77.0569135, "rental_uris": {"android": "https://dc.lft.to/lastmile_qr_scan", "ios": "https://dc.lft.to/lastmile_qr_scan"}, "is_disabled": 0, "fusion_lat": 0.0, "name": "841c0ebccae845049b7b44a3524dbbc3", "fusion_lon": 0.0}, {"is_reserved": 0, "type": "electric_scooter", "bike_id": "8bef60618b00a14e800768efbddeb8ba", "lat": 38.90374683333334, "lon": -77.025636, "rental_uris": {"android": "https://dc.lft.to/lastmile_qr_scan", "ios": "https://dc.lft.to/lastmile_qr_scan"}, "is_disabled": 0, "fusion_lat": 0.0, "name": "8bef60618b00a14e800768efbddeb8ba", "fusion_lon": 0.0}, {"is_reserved": 0, "type": "electric_scooter", "bike_id": "79af731c19c8c9dc0c4312dcfae5e15a", "lat": 38.93057533333333, "lon": -77.0284275, "rental_uris": {"android": "https://dc.lft.to/lastmile_qr_scan", "ios": "https://dc.lft.to/lastmile_qr_scan"}, "is_disabled": 0, "fusion_lat": 0.0, "name": "79af731c19c8c9dc0c4312dcfae5e15a", "fusion_lon": 0.0}, {"is_reserved": 0, "type": "electric_scooter", "bike_id": "9aaa5d5941c1434d5d4e1fb2fe17c55e", "lat": 38.932448666666666, "lon": -77.0408465, "rental_uris": {"android": "https://dc.lft.to/lastmile_qr_scan", "ios": "https://dc.lft.to/lastmile_qr_scan"}, "is_disabled": 0, "fusion_lat": 0.0, "name": "9aaa5d5941c1434d5d4e1fb2fe17c55e", "fusion_lon": 0.0}, {"is_reserved": 0, "type": "electric_bike", "bike_id": "c6e99e8541029577685a23caf5f354b4", "lat": 38.97419416666666, "lon": -77.0125705, "rental_uris": {"android": "https://dc.lft.to/lastmile_qr_scan", "ios": "https://dc.lft.to/lastmile_qr_scan"}, "is_disabled": 0, "fusion_lat": 0.0, "name": "c6e99e8541029577685a23caf5f354b4", "fusion_lon": 0.0}, {"is_reserved": 0, "type": "electric_scooter", "bike_id": "1092fc0410d8afa527d2f16b485ca994", "lat": 38.9095285, "lon": -76.98538866666667, "rental_uris": {"android": "https://dc.lft.to/lastmile_qr_scan", "ios": "https://dc.lft.to/lastmile_qr_scan"}, "is_disabled": 0, "fusion_lat": 0.0, "name": "1092fc0410d8afa527d2f16b485ca994", "fusion_lon": 0.0}, {"is_reserved": 0, "type": "electric_scooter", "bike_id": "613d7e89a72d654344347d62ced1c73b", "lat": 38.911197, "lon": -77.01830283333334, "rental_uris": {"android": "https://dc.lft.to/lastmile_qr_scan", "ios": "https://dc.lft.to/lastmile_qr_scan"}, "is_disabled": 0, "fusion_lat": 0.0, "name": "613d7e89a72d654344347d62ced1c73b", "fusion_lon": 0.0}, {"is_reserved": 0, "type": "electric_scooter", "bike_id": "b1ebb326ba64852d5acc0e1651cdb4f8", "lat": 38.922527333333335, "lon": -77.04196316666666, "rental_uris": {"android": "https://dc.lft.to/lastmile_qr_scan", "ios": "https://dc.lft.to/lastmile_qr_scan"}, "is_disabled": 0, "fusion_lat": 0.0, "name": "b1ebb326ba64852d5acc0e1651cdb4f8", "fusion_lon": 0.0}, {"is_reserved": 0, "type": "electric_scooter", "bike_id": "e391480a791a5bf56480e27104926375", "lat": 38.88655266666667, "lon": -77.00202533333334, "rental_uris": {"android": "https://dc.lft.to/lastmile_qr_scan", "ios": "https://dc.lft.to/lastmile_qr_scan"}, "is_disabled": 0, "fusion_lat": 0.0, "name": "e391480a791a5bf56480e27104926375", "fusion_lon": 0.0}, {"is_reserved": 0, "type": "electric_bike", "bike_id": "5564c05a8b7004dfd756b49721bfae71", "lat": 38.892506, "lon": -76.97052416666666, "rental_uris": {"android": "https://dc.lft.to/lastmile_qr_scan", "ios": "https://dc.lft.to/lastmile_qr_scan"}, "is_disabled": 0, "fusion_lat": 0.0, "name": "5564c05a8b7004dfd756b49721bfae71", "fusion_lon": 0.0}, {"is_reserved": 0, "type": "electric_scooter", "bike_id": "bf192d7def3a6913ed3896acd3b4c113", "lat": 38.9248345, "lon": -77.03189066666667, "rental_uris": {"android": "https://dc.lft.to/lastmile_qr_scan", "ios": "https://dc.lft.to/lastmile_qr_scan"}, "is_disabled": 0, "fusion_lat": 0.0, "name": "bf192d7def3a6913ed3896acd3b4c113", "fusion_lon": 0.0}, {"is_reserved": 0, "type": "electric_scooter", "bike_id": "d91ccc8288dc5b92992034905c9ab618", "lat": 38.905479166666666, "lon": -77.03253333333333, "rental_uris": {"android": "https://dc.lft.to/lastmile_qr_scan", "ios": "https://dc.lft.to/lastmile_qr_scan"}, "is_disabled": 0, "fusion_lat": 0.0, "name": "d91ccc8288dc5b92992034905c9ab618", "fusion_lon": 0.0}, {"is_reserved": 0, "type": "electric_scooter", "bike_id": "bc47088d20a3920ed34480b547eca834", "lat": 38.91178033333333, "lon": -77.01991916666667, "rental_uris": {"android": "https://dc.lft.to/lastmile_qr_scan", "ios": "https://dc.lft.to/lastmile_qr_scan"}, "is_disabled": 0, "fusion_lat": 0.0, "name": "bc47088d20a3920ed34480b547eca834", "fusion_lon": 0.0}, {"is_reserved": 0, "type": "electric_scooter", "bike_id": "5169a335c24c7182baddad8a6607d959", "lat": 38.922698833333335, "lon": -77.03671583333333, "rental_uris": {"android": "https://dc.lft.to/lastmile_qr_scan", "ios": "https://dc.lft.to/lastmile_qr_scan"}, "is_disabled": 0, "fusion_lat": 0.0, "name": "5169a335c24c7182baddad8a6607d959", "fusion_lon": 0.0}, {"is_reserved": 0, "type": "electric_scooter", "bike_id": "78f09f6c7814401a10c00d4cfa172336", "lat": 38.91523433333333, "lon": -77.02002416666667, "rental_uris": {"android": "https://dc.lft.to/lastmile_qr_scan", "ios": "https://dc.lft.to/lastmile_qr_scan"}, "is_disabled": 0, "fusion_lat": 0.0, "name": "78f09f6c7814401a10c00d4cfa172336", "fusion_lon": 0.0}, {"is_reserved": 0, "type": "electric_scooter", "bike_id": "6a63e333a76bec4ff6e046370ee0f649", "lat": 38.899633333333334, "lon": -76.990315, "rental_uris": {"android": "https://dc.lft.to/lastmile_qr_scan", "ios": "https://dc.lft.to/lastmile_qr_scan"}, "is_disabled": 0, "fusion_lat": 0.0, "name": "6a63e333a76bec4ff6e046370ee0f649", "fusion_lon": 0.0}, {"is_reserved": 0, "type": "electric_scooter", "bike_id": "ec1a268532718d9fb1eb5a4695d78d03", "lat": 38.9043215, "lon": -77.06013333333334, "rental_uris": {"android": "https://dc.lft.to/lastmile_qr_scan", "ios": "https://dc.lft.to/lastmile_qr_scan"}, "is_disabled": 0, "fusion_lat": 0.0, "name": "ec1a268532718d9fb1eb5a4695d78d03", "fusion_lon": 0.0}, {"is_reserved": 0, "type": "electric_scooter", "bike_id": "a637d8f2cd97838d4709ebb23ca0ad13", "lat": 38.921814, "lon": -77.01040416666666, "rental_uris": {"android": "https://dc.lft.to/lastmile_qr_scan", "ios": "https://dc.lft.to/lastmile_qr_scan"}, "is_disabled": 0, "fusion_lat": 0.0, "name": "a637d8f2cd97838d4709ebb23ca0ad13", "fusion_lon": 0.0}, {"is_reserved": 0, "type": "electric_scooter", "bike_id": "e0a18ff6acd9ac7fc98c4a86899af8ce", "lat": 38.91589616666667, "lon": -77.02200183333333, "rental_uris": {"android": "https://dc.lft.to/lastmile_qr_scan", "ios": "https://dc.lft.to/lastmile_qr_scan"}, "is_disabled": 0, "fusion_lat": 0.0, "name": "e0a18ff6acd9ac7fc98c4a86899af8ce", "fusion_lon": 0.0}, {"is_reserved": 0, "type": "electric_scooter", "bike_id": "acfa079e45dff466ee67b1029cc95df0", "lat": 38.8991005, "lon": -76.93369366666667, "rental_uris": {"android": "https://dc.lft.to/lastmile_qr_scan", "ios": "https://dc.lft.to/lastmile_qr_scan"}, "is_disabled": 0, "fusion_lat": 0.0, "name": "acfa079e45dff466ee67b1029cc95df0", "fusion_lon": 0.0}, {"is_reserved": 0, "type": "electric_scooter", "bike_id": "aad6a46e884353ce80ed58005c402dc6", "lat": 38.91694583333334, "lon": -77.03156033333333, "rental_uris": {"android": "https://dc.lft.to/lastmile_qr_scan", "ios": "https://dc.lft.to/lastmile_qr_scan"}, "is_disabled": 0, "fusion_lat": 0.0, "name": "aad6a46e884353ce80ed58005c402dc6", "fusion_lon": 0.0}, {"is_reserved": 0, "type": "electric_scooter", "bike_id": "459ce4d48ac2a7ece38f3c027715fc5f", "lat": 38.900320666666666, "lon": -76.99153383333334, "rental_uris": {"android": "https://dc.lft.to/lastmile_qr_scan", "ios": "https://dc.lft.to/lastmile_qr_scan"}, "is_disabled": 0, "fusion_lat": 0.0, "name": "459ce4d48ac2a7ece38f3c027715fc5f", "fusion_lon": 0.0}, {"is_reserved": 0, "type": "electric_scooter", "bike_id": "2bbe9dc60dfef8ba20c6bd0818014984", "lat": 38.912131333333335, "lon": -77.045715, "rental_uris": {"android": "https://dc.lft.to/lastmile_qr_scan", "ios": "https://dc.lft.to/lastmile_qr_scan"}, "is_disabled": 0, "fusion_lat": 0.0, "name": "2bbe9dc60dfef8ba20c6bd0818014984", "fusion_lon": 0.0},