{"data": {"bikes": [{"fusion_lat": 0.0, "type": "electric_scooter", "name": "fcb4d14f0688b748623fab4bdd730196", "fusion_lon": 0.0, "bike_id": "fcb4d14f0688b748623fab4bdd730196", "is_reserved": 0, "rental_uris": {"android": "https://dc.lft.to/lastmile_qr_scan", "ios": "https://dc.lft.to/lastmile_qr_scan"}, "lat": 38.910922, "is_disabled": 0, "lon": -77.037161}, {"fusion_lat": 0.0, "type": "electric_scooter", "name": "5c28755a64faa61cad35653b5c7f496c", "fusion_lon": 0.0, "bike_id": "5c28755a64faa61cad35653b5c7f496c", "is_reserved": 0, "rental_uris": {"android": "https://dc.lft.to/lastmile_qr_scan", "ios": "https://dc.lft.to/lastmile_qr_scan"}, "lat": 38.88740933333333, "is_disabled": 0, "lon": -77.0258085}, {"fusion_lat": 0.0, "type": "electric_bike", "name": "a2545e02ca25fcc791366ee1ed867ada", "fusion_lon": 0.0, "bike_id": "a2545e02ca25fcc791366ee1ed867ada", "is_reserved": 0, "rental_uris": {"android": "https://dc.lft.to/lastmile_qr_scan", "ios": "https://dc.lft.to/lastmile_qr_scan"}, "lat": 38.9680285, "is_disabled": 0, "lon": -77.00038716666667}, {"fusion_lat": 0.0, "type": "electric_scooter", "name": "27a0ef504b9c06aa1f14f24291c5b69a", "fusion_lon": 0.0, "bike_id": "27a0ef504b9c06aa1f14f24291c5b69a", "is_reserved": 0, "rental_uris": {"android": "https://dc.lft.to/lastmile_qr_scan", "ios": "https://dc.lft.to/lastmile_qr_scan"}, "lat": 38.89230533333333, "is_disabled": 0, "lon": -77.0317655}, {"fusion_lat": 0.0, "type": "electric_scooter", "name": "d5d2702bbbde527894422e75309ebb50", "fusion_lon": 0.0, "bike_id": "d5d2702bbbde527894422e75309ebb50", "is_reserved": 0, "rental_uris": {"android": "https://dc.lft.to/lastmile_qr_scan", "ios": "https://dc.lft.to/lastmile_qr_scan"}, "lat": 38.89239533333333, "is_disabled": 0, "lon": -77.03207583333334}, {"fusion_lat": 0.0, "type": "electric_scooter", "name": "6719b9edeeb07e0f96932c8f604fc425", "fusion_lon": 0.0, "bike_id": "6719b9edeeb07e0f96932c8f604fc425", "is_reserved": 0, "rental_uris": {"android": "https://dc.lft.to/lastmile_qr_scan", "ios": "https://dc.lft.to/lastmile_qr_scan"}, "lat": 38.90927116666667, "is_disabled": 0, "lon": -77.03846283333333}, {"fusion_lat": 0.0, "type": "electric_scooter", "name": "79318123a55d7b95ddb2bff04cff366e", "fusion_lon": 0.0, "bike_id": "79318123a55d7b95ddb2bff04cff366e", "is_reserved": 0, "rental_uris": {"android": "https://dc.lft.to/lastmile_qr_scan", "ios": "https://dc.lft.to/lastmile_qr_scan"}, "lat": 38.909593666666666, "is_disabled": 0, "lon": -77.03211816666666}, {"fusion_lat": 0.0, "type": "electric_scooter", "name": "39bce55b1aac48ff4064c9b322661892", "fusion_lon": 0.0, "bike_id": "39bce55b1aac48ff4064c9b322661892", "is_reserved": 0, "rental_uris": {"android": "https://dc.lft.to/lastmile_qr_scan", "ios": "https://dc.lft.to/lastmile_qr_scan"}, "lat": 38.901552, "is_disabled": 0, "lon": -76.99023633333333}, {"fusion_lat": 0.0, "type": "electric_scooter", "name": "0e83944d11661d9048277a7a5eb5a3d7", "fusion_lon": 0.0, "bike_id": "0e83944d11661d9048277a7a5eb5a3d7", "is_reserved": 0, "rental_uris": {"android": "https://dc.lft.to/lastmile_qr_scan", "ios": "https://dc.lft.to/lastmile_qr_scan"}, "lat": 38.900315166666665, "is_disabled": 0, "lon": -76.98440916666667}, {"fusion_lat": 0.0, "type": "electric_scooter", "name": "ac43e8f029424d22d1bb02223e7f99a3", "fusion_lon": 0.0, "bike_id": "ac43e8f029424d22d1bb02223e7f99a3", "is_reserved": 0, "rental_uris": {"android": "https://dc.lft.to/lastmile_qr_scan", "ios": "https://dc.lft.to/lastmile_qr_scan"}, "lat": 38.913231833333334, "is_disabled": 0, "lon": -77.01459566666666}, {"fusion_lat": 0.0, "type": "electric_scooter", "name": "671a8ace3f7441c10fa93ed1744e41a2", "fusion_lon": 0.0, "bike_id": "671a8ace3f7441c10fa93ed1744e41a2", "is_reserved": 0, "rental_uris": {"android": "https://dc.lft.to/lastmile_qr_scan", "ios": "https://dc.lft.to/lastmile_qr_scan"}, "lat": 38.917488166666665, "is_disabled": 0, "lon": -77.03183183333333}, {"fusion_lat": 0.0, "type": "electric_scooter", "name": "d1ead24de3972956061efb0c324045da", "fusion_lon": 0.0, "bike_id": "d1ead24de3972956061efb0c324045da", "is_reserved": 0, "rental_uris": {"android": "https://dc.lft.to/lastmile_qr_scan", "ios": "https://dc.lft.to/lastmile_qr_scan"}, "lat": 38.903956666666666, "is_disabled": 0, "lon": -77.06266866666667}, {"fusion_lat": 0.0, "type": "electric_scooter", "name": "1db3ed05d9c8acff0dd3b32e73290125", "fusion_lon": 0.0, "bike_id": "1db3ed05d9c8acff0dd3b32e73290125", "is_reserved": 0, "rental_uris": {"android": "https://dc.lft.to/lastmile_qr_scan", "ios": "https://dc.lft.to/lastmile_qr_scan"}, "lat": 38.909809833333334, "is_disabled": 0, "lon": -77.02404016666667}, {"fusion_lat": 0.0, "type": "electric_scooter", "name": "27d441a9246be576288907d6a23c1f06", "fusion_lon": 0.0, "bike_id": "27d441a9246be576288907d6a23c1f06", "is_reserved": 0, "rental_uris": {"android": "https://dc.lft.to/lastmile_qr_scan", "ios": "https://dc.lft.to/lastmile_qr_scan"}, "lat": 38.902497333333336, "is_disabled": 0, "lon": -77.01935583333334}, {"fusion_lat": 0.0, "type": "electric_scooter", "name": "a8a8f65f01a7a9f8f2e19b92f6217932", "fusion_lon": 0.0, "bike_id": "a8a8f65f01a7a9f8f2e19b92f6217932", "is_reserved": 0, "rental_uris": {"android": "https://dc.lft.to/lastmile_qr_scan", "ios": "https://dc.lft.to/lastmile_qr_scan"}, "lat": 38.901694666666664, "is_disabled": 0, "lon": -76.98084466666667}, {"fusion_lat": 0.0, "type": "electric_bike", "name": "1d52feeefd5d0d37ad88ca09ad7055b4", "fusion_lon": 0.0, "bike_id": "1d52feeefd5d0d37ad88ca09ad7055b4", "is_reserved": 0, "rental_uris": {"android": "https://dc.lft.to/lastmile_qr_scan", "ios": "https://dc.lft.to/lastmile_qr_scan"}, "lat": 39.0579535, "is_disabled": 0, "lon": -77.1501675}, {"fusion_lat": 0.0, "type": "electric_scooter", "name": "350dc44bf4b131010629535bedcf2db7", "fusion_lon": 0.0, "bike_id": "350dc44bf4b131010629535bedcf2db7", "is_reserved": 0, "rental_uris": {"android": "https://dc.lft.to/lastmile_qr_scan", "ios": "https://dc.lft.to/lastmile_qr_scan"}, "lat": 38.909574, "is_disabled": 0, "lon": -77.02201683333334}, {"fusion_lat": 0.0, "type": "electric_scooter", "name": "0505525b8f61676808530ee452ece2de", "fusion_lon": 0.0, "bike_id": "0505525b8f61676808530ee452ece2de", "is_reserved": 0, "rental_uris": {"android": "https://dc.lft.to/lastmile_qr_scan", "ios": "https://dc.lft.to/lastmile_qr_scan"}, "lat": 38.924612833333335, "is_disabled": 0, "lon": -77.057483}, {"fusion_lat": 0.0, "type": "electric_scooter", "name": "b09260d2d378212d96278721d6863f0c", "fusion_lon": 0.0, "bike_id": "b09260d2d378212d96278721d6863f0c", "is_reserved": 0, "rental_uris": {"android": "https://dc.lft.to/lastmile_qr_scan", "ios": "https://dc.lft.to/lastmile_qr_scan"}, "lat": 38.91124466666667, "is_disabled": 0, "lon": -77.04361133333333}, {"fusion_lat": 0.0, "type": "electric_scooter", "name": "94b5f851dce34922a6178b5570e24a07", "fusion_lon": 0.0, "bike_id": "94b5f851dce34922a6178b5570e24a07", "is_reserved": 0, "rental_uris": {"android": "https://dc.lft.to/lastmile_qr_scan", "ios": "https://dc.lft.to/lastmile_qr_scan"}, "lat": 38.912785666666664, "is_disabled": 0, "lon": -77.04754883333334}, {"fusion_lat": 0.0, "type": "electric_bike", "name": "33b8073948bcbab90df0e5d2c6e38dd5", "fusion_lon": 0.0, "bike_id": "33b8073948bcbab90df0e5d2c6e38dd5", "is_reserved": 0, "rental_uris": {"android": "https://dc.lft.to/lastmile_qr_scan", "ios": "https://dc.lft.to/lastmile_qr_scan"}, "lat": 38.936350833333336, "is_disabled": 0, "lon": -77.03330366666667}, {"fusion_lat": 0.0, "type": "electric_scooter", "name": "e247f53c97d1f03fb678175a78aaaa5d", "fusion_lon": 0.0, "bike_id": "e247f53c97d1f03fb678175a78aaaa5d", "is_reserved": 0, "rental_uris": {"android": "https://dc.lft.to/lastmile_qr_scan", "ios": "https://dc.lft.to/lastmile_qr_scan"}, "lat": 38.9194955, "is_disabled": 0, "lon": -77.001848}, {"fusion_lat": 0.0, "type": "electric_scooter", "name": "4092d08d1d7b00dd34d405f05ce97755", "fusion_lon": 0.0, "bike_id": "4092d08d1d7b00dd34d405f05ce97755", "is_reserved": 0, "rental_uris": {"android": "https://dc.lft.to/lastmile_qr_scan", "ios": "https://dc.lft.to/lastmile_qr_scan"}, "lat": 38.91267116666667, "is_disabled": 0, "lon": -77.04411016666667}, {"fusion_lat": 0.0, "type": "electric_scooter", "name": "32ca15d28bc241cb4b5c9a99ead90c98", "fusion_lon": 0.0, "bike_id": "32ca15d28bc241cb4b5c9a99ead90c98", "is_reserved": 0, "rental_uris": {"android": "https://dc.lft.to/lastmile_qr_scan", "ios": "https://dc.lft.to/lastmile_qr_scan"}, "lat": 38.8991915, "is_disabled": 0, "lon": -76.93363716666667}, {"fusion_lat": 0.0, "type": "electric_scooter", "name": "95572659a4c69bd77ab5c37d475cd3dc", "fusion_lon": 0.0, "bike_id": "95572659a4c69bd77ab5c37d475cd3dc", "is_reserved": 0, "rental_uris": {"android": "https://dc.lft.to/lastmile_qr_scan", "ios": "https://dc.lft.to/lastmile_qr_scan"}, "lat": 38.919246666666666, "is_disabled": 0, "lon": -77.02413583333333}, {"fusion_lat": 0.0, "type": "electric_scooter", "name": "110c330e8480dc862276b7222c17f1bf", "fusion_lon": 0.0, "bike_id": "110c330e8480dc862276b7222c17f1bf", "is_reserved": 0, "rental_uris": {"android": "https://dc.lft.to/lastmile_qr_scan", "ios": "https://dc.lft.to/lastmile_qr_scan"}, "lat": 38.910657666666665, "is_disabled": 0, "lon": -77.0410335}, {"fusion_lat": 0.0, "type": "electric_scooter", "name": "176cc8666bc714703a1a9b847b4e8f68", "fusion_lon": 0.0, "bike_id": "176cc8666bc714703a1a9b847b4e8f68", "is_reserved": 0, "rental_uris": {"android": "https://dc.lft.to/lastmile_qr_scan", "ios": "https://dc.lft.to/lastmile_qr_scan"}, "lat": 38.89226333333333, "is_disabled": 0, "lon": -77.04866216666667}, {"fusion_lat": 0.0, "type": "electric_scooter", "name": "5b723d315a7358838a0e86ed9f30f7bf", "fusion_lon": 0.0, "bike_id": "5b723d315a7358838a0e86ed9f30f7bf", "is_reserved": 0, "rental_uris": {"android": "https://dc.lft.to/lastmile_qr_scan", "ios": "https://dc.lft.to/lastmile_qr_scan"}, "lat": 38.914484, "is_disabled": 0, "lon": -77.06711533333333}, {"fusion_lat": 0.0, "type": "electric_scooter", "name": "98042afa4adb5ed16a25ec475a90a542", "fusion_lon": 0.0, "bike_id": "98042afa4adb5ed16a25ec475a90a542", "is_reserved": 0, "rental_uris": {"android": "https://dc.lft.to/lastmile_qr_scan", "ios": "https://dc.lft.to/lastmile_qr_scan"}, "lat": 38.9255425, "is_disabled": 0, "lon": -77.02959933333334}, {"fusion_lat": 0.0, "type": "electric_scooter", "name": "7b63a8b70b5a75b27cb181baa830c900", "fusion_lon": 0.0, "bike_id": "7b63a8b70b5a75b27cb181baa830c900", "is_reserved": 0, "rental_uris": {"android": "https://dc.lft.to/lastmile_qr_scan", "ios": "https://dc.lft.to/lastmile_qr_scan"}, "lat": 38.921615333333335, "is_disabled": 0, "lon": -77.03385183333333}, {"fusion_lat": 0.0, "type": "electric_scooter", "name": "d1bf9d1c4b550f38cd30c18fe25846f8", "fusion_lon": 0.0, "bike_id": "d1bf9d1c4b550f38cd30c18fe25846f8", "is_reserved": 0, "rental_uris": {"android": "https://dc.lft.to/lastmile_qr_scan", "ios": "https://dc.lft.to/lastmile_qr_scan"}, "lat": 38.920629166666664, "is_disabled": 0, "lon": -77.00493833333333}, {"fusion_lat": 0.0, "type": "electric_scooter", "name": "7aeb394dd9a9b414c7d26c629af9f4b9", "fusion_lon": 0.0, "bike_id": "7aeb394dd9a9b414c7d26c629af9f4b9", "is_reserved": 0, "rental_uris": {"android": "https://dc.lft.to/lastmile_qr_scan", "ios": "https://dc.lft.to/lastmile_qr_scan"}, "lat": 38.913307833333334, "is_disabled": 0, "lon": -77.04533166666667}, {"fusion_lat": 0.0, "type": "electric_scooter", "name": "0b03f861db1c09cf5a6089177fd8aaed", "fusion_lon": 0.0, "bike_id": "0b03f861db1c09cf5a6089177fd8aaed", "is_reserved": 0, "rental_uris": {"android": "https://dc.lft.to/lastmile_qr_scan", "ios": "https://dc.lft.to/lastmile_qr_scan"}, "lat": 38.928158833333335, "is_disabled": 0, "lon": -77.05520583333333}, {"fusion_lat": 0.0, "type": "electric_scooter", "name": "feae970455f3c4aa44c20282fb679539", "fusion_lon": 0.0, "bike_id": "feae970455f3c4aa44c20282fb679539", "is_reserved": 0, "rental_uris": {"android": "https://dc.lft.to/lastmile_qr_scan", "ios": "https://dc.lft.to/lastmile_qr_scan"}, "lat": 38.927231, "is_disabled": 0, "lon": -77.041274}, {"fusion_lat": 0.0, "type": "electric_scooter", "name": "f5296f66c411c33952194f8bb31a27b2", "fusion_lon": 0.0, "bike_id": "f5296f66c411c33952194f8bb31a27b2", "is_reserved": 0, "rental_uris": {"android": "https://dc.lft.to/lastmile_qr_scan", "ios": "https://dc.lft.to/lastmile_qr_scan"}, "lat": 38.90020466666667, "is_disabled": 0, "lon": -77.044963}, {"fusion_lat": 0.0, "type": "electric_scooter", "name": "97b0cf3f74d15fb0a20674084e134e40", "fusion_lon": 0.0, "bike_id": "97b0cf3f74d15fb0a20674084e134e40", "is_reserved": 0, "rental_uris": {"android": "https://dc.lft.to/lastmile_qr_scan", "ios": "https://dc.lft.to/lastmile_qr_scan"}, "lat": 38.952341, "is_disabled": 0, "lon": -77.014259}, {"fusion_lat": 0.0, "type": "electric_scooter", "name": "0e35ed6ba16d006d84c034105b64c5cf", "fusion_lon": 0.0, "bike_id": "0e35ed6ba16d006d84c034105b64c5cf", "is_reserved": 0, "rental_uris": {"android": "https://dc.lft.to/lastmile_qr_scan", "ios": "https://dc.lft.to/lastmile_qr_scan"}, "lat": 38.930864166666666, "is_disabled": 0, "lon": -77.0041045}, {"fusion_lat": 0.0, "type": "electric_scooter", "name": "238db53adfc0baba48a15dd1e9c2d725", "fusion_lon": 0.0, "bike_id": "238db53adfc0baba48a15dd1e9c2d725", "is_reserved": 0, "rental_uris": {"android": "https://dc.lft.to/lastmile_qr_scan", "ios": "https://dc.lft.to/lastmile_qr_scan"}, "lat": 38.929887, "is_disabled": 0, "lon": -77.03472633333334}, {"fusion_lat": 0.0, "type": "electric_bike", "name": "e77671c805df1829957a73f5258b9e8d", "fusion_lon": 0.0, "bike_id": "e77671c805df1829957a73f5258b9e8d", "is_reserved": 0, "rental_uris": {"android": "https://dc.lft.to/lastmile_qr_scan", "ios": "https://dc.lft.to/lastmile_qr_scan"}, "lat": 38.87987316666667, "is_disabled": 0, "lon": -76.98472433333333}, {"fusion_lat": 0.0, "type": "electric_scooter", "name": "305e3b52f9b5fa342540c329709795ad", "fusion_lon": 0.0, "bike_id": "305e3b52f9b5fa342540c329709795ad", "is_reserved": 0, "rental_uris": {"android": "https://dc.lft.to/lastmile_qr_scan", "ios": "https://dc.lft.to/lastmile_qr_scan"}, "lat": 38.9285775, "is_disabled": 0, "lon": -77.032818}, {"fusion_lat": 0.0, "type": "electric_scooter", "name": "8868a6ff9aa20275bc7773a2042f54ee", "fusion_lon": 0.0, "bike_id": "8868a6ff9aa20275bc7773a2042f54ee", "is_reserved": 0, "rental_uris": {"android": "https://dc.lft.to/lastmile_qr_scan", "ios": "https://dc.lft.to/lastmile_qr_scan"}, "lat": 38.889888666666664, "is_disabled": 0, "lon": -76.983317}, {"fusion_lat": 0.0, "type": "electric_scooter", "name": "40ddf06d41106828402d1ae43d81fc67", "fusion_lon": 0.0, "bike_id": "40ddf06d41106828402d1ae43d81fc67", "is_reserved": 0, "rental_uris": {"android": "https://dc.lft.to/lastmile_qr_scan", "ios": "https://dc.lft.to/lastmile_qr_scan"}, "lat": 38.92277983333334, "is_disabled": 0, "lon": -77.03671933333334}, {"fusion_lat": 0.0, "type": "electric_scooter", "name": "df696043c7dc834b7af8ba6747a39585", "fusion_lon": 0.0, "bike_id": "df696043c7dc834b7af8ba6747a39585", "is_reserved": 0, "rental_uris": {"android": "https://dc.lft.to/lastmile_qr_scan", "ios": "https://dc.lft.to/lastmile_qr_scan"}, "lat": 38.93327, "is_disabled": 0, "lon": -77.04403966666666}, {"fusion_lat": 0.0, "type": "electric_scooter", "name": "94f3c49bda237bf1bbb8d8b87b738ed5", "fusion_lon": 0.0, "bike_id": "94f3c49bda237bf1bbb8d8b87b738ed5", "is_reserved": 0, "rental_uris": {"android": "https://dc.lft.to/lastmile_qr_scan", "ios": "https://dc.lft.to/lastmile_qr_scan"}, "lat": 38.91627716666667, "is_disabled": 0, "lon": -77.01081066666667}, {"fusion_lat": 0.0, "type": "electric_scooter", "name": "cfb29abbc83dbb17d3913a10db3515f0", "fusion_lon": 0.0, "bike_id": "cfb29abbc83dbb17d3913a10db3515f0", "is_reserved": 0, "rental_uris": {"android": "https://dc.lft.to/lastmile_qr_scan", "ios": "https://dc.lft.to/lastmile_qr_scan"}, "lat": 38.87710533333333, "is_disabled": 0, "lon": -76.99381883333334}, {"fusion_lat": 0.0, "type": "electric_scooter", "name": "8e3f5cc2049653b61cdd964d097bcc3a", "fusion_lon": 0.0, "bike_id": "8e3f5cc2049653b61cdd964d097bcc3a", "is_reserved": 0, "rental_uris": {"android": "https://dc.lft.to/lastmile_qr_scan", "ios": "https://dc.lft.to/lastmile_qr_scan"}, "lat": 38.871595, "is_disabled": 0, "lon": -76.97747683333333}, {"fusion_lat": 0.0, "type": "electric_scooter", "name": "4ef6dc586e49e162e1f7fa0ce85dff5d", "fusion_lon": 0.0, "bike_id": "4ef6dc586e49e162e1f7fa0ce85dff5d", "is_reserved": 0, "rental_uris": {"android": "https://dc.lft.to/lastmile_qr_scan", "ios": "https://dc.lft.to/lastmile_qr_scan"}, "lat": 38.931010666666666, "is_disabled": 0, "lon": -77.0247935}, {"fusion_lat": 0.0, "type": "electric_scooter", "name": "9577054c180af2bcb36f7c970a5f9ccf", "fusion_lon": 0.0, "bike_id": "9577054c180af2bcb36f7c970a5f9ccf", "is_reserved": 0, "rental_uris": {"android": "https://dc.lft.to/lastmile_qr_scan", "ios": "https://dc.lft.to/lastmile_qr_scan"}, "lat": 38.917087, "is_disabled": 0, "lon": -77.00864483333334}, {"fusion_lat": 0.0, "type": "electric_scooter", "name": "674590d08d08e45d3d38602e8b7c0ef5", "fusion_lon": 0.0, "bike_id": "674590d08d08e45d3d38602e8b7c0ef5", "is_reserved": 0, "rental_uris": {"android": "https://dc.lft.to/lastmile_qr_scan", "ios": "https://dc.lft.to/lastmile_qr_scan"}, "lat": 38.95558916666667, "is_disabled": 0, "lon": -77.0700305}, {"fusion_lat": 0.0, "type": "electric_scooter", "name": "163a6d4b7a2e1fe17d2ad5a34315d359", "fusion_lon": 0.0, "bike_id": "163a6d4b7a2e1fe17d2ad5a34315d359", "is_reserved": 0, "rental_uris": {"android": "https://dc.lft.to/lastmile_qr_scan", "ios": "https://dc.lft.to/lastmile_qr_scan"}, "lat": 38.913940333333336, "is_disabled": 0, "lon": -77.033224}, {"fusion_lat": 0.0, "type": "electric_scooter", "name": "c18c53a0b1a3112999f3c9274b84f0ca", "fusion_lon": 0.0, "bike_id": "c18c53a0b1a3112999f3c9274b84f0ca", "is_reserved": 0, "rental_uris": {"android": "https://dc.lft.to/lastmile_qr_scan", "ios": "https://dc.lft.to/lastmile_qr_scan"}, "lat": 38.950220333333334, "is_disabled": 0, "lon": -77.06730566666667}, {"fusion_lat": 0.0, "type": "electric_scooter", "name": "070f4fb1d9c51d84e193be200c48d972", "fusion_lon": 0.0, "bike_id": "070f4fb1d9c51d84e193be200c48d972", "is_reserved": 0, "rental_uris": {"android": "https://dc.lft.to/lastmile_qr_scan", "ios": "https://dc.lft.to/lastmile_qr_scan"}, "lat": 38.90500866666667, "is_disabled": 0, "lon": -76.97927483333333}, {"fusion_lat": 0.0, "type": "electric_scooter", "name": "829a7e874c7ba75f2d49870ba3a67c40", "fusion_lon": 0.0, "bike_id": "829a7e874c7ba75f2d49870ba3a67c40", "is_reserved": 0, "rental_uris": {"android": "https://dc.lft.to/lastmile_qr_scan", "ios": "https://dc.lft.to/lastmile_qr_scan"}, "lat": 38.88756866666667, "is_disabled": 0, "lon": -77.00878283333333}, {"fusion_lat": 0.0, "type": "electric_scooter", "name": "53fb26ddf900454054c1c580f6401bb8", "fusion_lon": 0.0, "bike_id": "53fb26ddf900454054c1c580f6401bb8", "is_reserved": 0, "rental_uris": {"android": "https://dc.lft.to/lastmile_qr_scan", "ios": "https://dc.lft.to/lastmile_qr_scan"}, "lat": 38.905597666666665, "is_disabled": 0, "lon": -76.97389733333333}, {"fusion_lat": 0.0, "type": "electric_scooter", "name": "0221a1f47bd02479172d0597b7a87fec", "fusion_lon": 0.0, "bike_id": "0221a1f47bd02479172d0597b7a87fec", "is_reserved": 0, "rental_uris": {"android": "https://dc.lft.to/lastmile_qr_scan", "ios": "https://dc.lft.to/lastmile_qr_scan"}, "lat": 38.89920633333333, "is_disabled": 0, "lon": -76.93377883333334}, {"fusion_lat": 0.0, "type": "electric_scooter", "name": "e4e296d91e46c2f3fae680ee111dda6a", "fusion_lon": 0.0, "bike_id": "e4e296d91e46c2f3fae680ee111dda6a", "is_reserved": 0, "rental_uris": {"android": "https://dc.lft.to/lastmile_qr_scan", "ios": "https://dc.lft.to/lastmile_qr_scan"}, "lat": 38.92463333333333, "is_disabled": 0, "lon": -77.07809183333333}, {"fusion_lat": 0.0, "type": "electric_scooter", "name": "29e690b206cf85a9be0370b6d46ba131", "fusion_lon": 0.0, "bike_id": "29e690b206cf85a9be0370b6d46ba131", "is_reserved": 0, "rental_uris": {"android": "https://dc.lft.to/lastmile_qr_scan", "ios": "https://dc.lft.to/lastmile_qr_scan"}, "lat": 38.887704666666664, "is_disabled": 0, "lon": -76.9896965}, {"fusion_lat": 0.0, "type": "electric_bike", "name": "1936b7b65a4dda6504a6a985aade0378", "fusion_lon": 0.0, "bike_id": "1936b7b65a4dda6504a6a985aade0378", "is_reserved": 0, "rental_uris": {"android": "https://dc.lft.to/lastmile_qr_scan", "ios": "https://dc.lft.to/lastmile_qr_scan"}, "lat": 38.893543333333334, "is_disabled": 0, "lon": -77.18740066666666}, {"fusion_lat": 0.0, "type": "electric_scooter", "name": "6397ca02420217549a2b64fb1d69cf77", "fusion_lon": 0.0, "bike_id": "6397ca02420217549a2b64fb1d69cf77", "is_reserved": 0, "rental_uris": {"android": "https://dc.lft.to/lastmile_qr_scan", "ios": "https://dc.lft.to/lastmile_qr_scan"}, "lat": 38.920522, "is_disabled": 0, "lon": -77.03337283333333}, {"fusion_lat": 0.0, "type": "electric_scooter", "name": "b193b18446c1b99430798c5b049f90ab", "fusion_lon": 0.0, "bike_id": "b193b18446c1b99430798c5b049f90ab", "is_reserved": 0, "rental_uris": {"android": "https://dc.lft.to/lastmile_qr_scan", "ios": "https://dc.lft.to/lastmile_qr_scan"}, "lat": 38.921744, "is_disabled": 0, "lon": -77.038471}, {"fusion_lat": 0.0, "type": "electric_scooter", "name": "5969ef8c9f35a3bf39bac27b6a968dca", "fusion_lon": 0.0, "bike_id": "5969ef8c9f35a3bf39bac27b6a968dca", "is_reserved": 0, "rental_uris": {"android": "https://dc.lft.to/lastmile_qr_scan", "ios": "https://dc.lft.to/lastmile_qr_scan"}, "lat": 38.911777, "is_disabled": 0, "lon": -77.0491645}, {"fusion_lat": 0.0, "type": "electric_scooter", "name": "dd58938dfdf6686e738557d16825b2d5", "fusion_lon": 0.0, "bike_id": "dd58938dfdf6686e738557d16825b2d5", "is_reserved": 0, "rental_uris": {"android": "https://dc.lft.to/lastmile_qr_scan", "ios": "https://dc.lft.to/lastmile_qr_scan"}, "lat": 38.902526333333334, "is_disabled": 0, "lon": -77.0268}, {"fusion_lat": 0.0, "type": "electric_scooter", "name": "cf895759305a2b1d5e691ac5311e6431", "fusion_lon": 0.0, "bike_id": "cf895759305a2b1d5e691ac5311e6431", "is_reserved": 0, "rental_uris": {"android": "https://dc.lft.to/lastmile_qr_scan", "ios": "https://dc.lft.to/lastmile_qr_scan"}, "lat": 38.923670666666666, "is_disabled": 0, "lon": -77.05049383333333}, {"fusion_lat": 0.0, "type": "electric_bike", "name": "fae15e2003eb3c175ef07544daf22fef", "fusion_lon": 0.0, "bike_id": "fae15e2003eb3c175ef07544daf22fef", "is_reserved": 0, "rental_uris": {"android": "https://dc.lft.to/lastmile_qr_scan", "ios": "https://dc.lft.to/lastmile_qr_scan"}, "lat": 38.85430516666667, "is_disabled": 0, "lon": -77.1207505}, {"fusion_lat": 0.0, "type": "electric_scooter", "name": "4fe912eab824057b04797a183adc9336", "fusion_lon": 0.0, "bike_id": "4fe912eab824057b04797a183adc9336", "is_reserved": 0, "rental_uris": {"android": "https://dc.lft.to/lastmile_qr_scan", "ios": "https://dc.lft.to/lastmile_qr_scan"}, "lat": 38.912263, "is_disabled": 0, "lon": -77.02273183333334}, {"fusion_lat": 0.0, "type": "electric_scooter", "name": "9eeb8a2f33eb3ef7393d96c742bab4c2", "fusion_lon": 0.0, "bike_id": "9eeb8a2f33eb3ef7393d96c742bab4c2", "is_reserved": 0, "rental_uris": {"android": "https://dc.lft.to/lastmile_qr_scan", "ios": "https://dc.lft.to/lastmile_qr_scan"}, "lat": 38.89884, "is_disabled": 0, "lon": -76.93172683333333}, {"fusion_lat": 0.0, "type": "electric_scooter", "name": "c536bbf36ff5ba541ab4f56fbb12eb1c", "fusion_lon": 0.0, "bike_id": "c536bbf36ff5ba541ab4f56fbb12eb1c", "is_reserved": 0, "rental_uris": {"android": "https://dc.lft.to/lastmile_qr_scan", "ios": "https://dc.lft.to/lastmile_qr_scan"}, "lat": 38.89324716666667, "is_disabled": 0, "lon": -76.94381866666667}, {"fusion_lat": 0.0, "type": "electric_scooter", "name": "064405ad740ddc946e3d63ab2435ce75", "fusion_lon": 0.0, "bike_id": "064405ad740ddc946e3d63ab2435ce75", "is_reserved": 0, "rental_uris": {"android": "https://dc.lft.to/lastmile_qr_scan", "ios": "https://dc.lft.to/lastmile_qr_scan"}, "lat": 38.93245616666667, "is_disabled": 0, "lon": -77.03413066666667}, {"fusion_lat": 0.0, "type": "electric_scooter", "name": "cd7e806db1178c9776083a431b79378c", "fusion_lon": 0.0, "bike_id": "cd7e806db1178c9776083a431b79378c", "is_reserved": 0, "rental_uris": {"android": "https://dc.lft.to/lastmile_qr_scan", "ios": "https://dc.lft.to/lastmile_qr_scan"}, "lat": 38.90688, "is_disabled": 0, "lon": -77.00044466666667}, {"fusion_lat": 0.0, "type": "electric_scooter", "name": "e06d910f272353c5067b45f8508b9b01", "fusion_lon": 0.0, "bike_id": "e06d910f272353c5067b45f8508b9b01", "is_reserved": 0, "rental_uris": {"android": "https://dc.lft.to/lastmile_qr_scan", "ios": "https://dc.lft.to/lastmile_qr_scan"}, "lat": 38.9108115, "is_disabled": 0, "lon": -77.03454516666666}, {"fusion_lat": 0.0, "type": "electric_bike", "name": "44780872f7d1f976bb3ba3591e5d1898", "fusion_lon": 0.0, "bike_id": "44780872f7d1f976bb3ba3591e5d1898", "is_reserved": 0, "rental_uris": {"android": "https://dc.lft.to/lastmile_qr_scan", "ios": "https://dc.lft.to/lastmile_qr_scan"}, "lat": 38.80760383333333, "is_disabled": 0, "lon": -77.09469383333334}, {"fusion_lat": 0.0, "type": "electric_scooter", "name": "7d3265d45a291c52f73cf24a5c2a128f", "fusion_lon": 0.0, "bike_id": "7d3265d45a291c52f73cf24a5c2a128f", "is_reserved": 0, "rental_uris": {"android": "https://dc.lft.to/lastmile_qr_scan", "ios": "https://dc.lft.to/lastmile_qr_scan"}, "lat": 38.9313075, "is_disabled": 0, "lon": -77.02368066666666}, {"fusion_lat": 0.0, "type": "electric_scooter", "name": "913f414d35bfa83310b4e70d7d9eff39", "fusion_lon": 0.0, "bike_id": "913f414d35bfa83310b4e70d7d9eff39", "is_reserved": 0, "rental_uris": {"android": "https://dc.lft.to/lastmile_qr_scan", "ios": "https://dc.lft.to/lastmile_qr_scan"}, "lat": 38.922714166666665, "is_disabled": 0, "lon": -77.03408416666667}, {"fusion_lat": 0.0, "type": "electric_scooter", "name": "a9b822e3a369806c707c48e489abd7f2", "fusion_lon": 0.0, "bike_id": "a9b822e3a369806c707c48e489abd7f2", "is_reserved": 0, "rental_uris": {"android": "https://dc.lft.to/lastmile_qr_scan", "ios": "https://dc.lft.to/lastmile_qr_scan"}, "lat": 38.892252, "is_disabled": 0, "lon": -77.043786}, {"fusion_lat": 0.0, "type": "electric_scooter", "name": "6f267de7882266b98ac2194f88fb610f", "fusion_lon": 0.0, "bike_id": "6f267de7882266b98ac2194f88fb610f", "is_reserved": 0, "rental_uris": {"android": "https://dc.lft.to/lastmile_qr_scan", "ios": "https://dc.lft.to/lastmile_qr_scan"}, "lat": 38.8643, "is_disabled": 0, "lon": -76.97429383333333}, {"fusion_lat": 0.0, "type": "electric_scooter", "name": "4ef0b378954e8225610f35004e1fbc07", "fusion_lon": 0.0, "bike_id": "4ef0b378954e8225610f35004e1fbc07", "is_reserved": 0, "rental_uris": {"android": "https://dc.lft.to/lastmile_qr_scan", "ios": "https://dc.lft.to/lastmile_qr_scan"}, "lat": 38.957345333333336, "is_disabled": 0, "lon": -77.0240035}, {"fusion_lat": 0.0, "type": "electric_scooter", "name": "512a76a8474729144426e1dc24cf121b", "fusion_lon": 0.0, "bike_id": "512a76a8474729144426e1dc24cf121b", "is_reserved": 0, "rental_uris": {"android": "https://dc.lft.to/lastmile_qr_scan", "ios": "https://dc.lft.to/lastmile_qr_scan"}, "lat": 38.935541666666666, "is_disabled": 0, "lon": -77.0221755}, {"fusion_lat": 0.0, "type": "electric_scooter", "name": "10df60f07d33e9f2e71c5fd8c8ad1e10", "fusion_lon": 0.0, "bike_id": "10df60f07d33e9f2e71c5fd8c8ad1e10", "is_reserved": 0, "rental_uris": {"android": "https://dc.lft.to/lastmile_qr_scan", "ios": "https://dc.lft.to/lastmile_qr_scan"}, "lat": 38.929444833333335, "is_disabled": 0, "lon": -77.01640216666667}, {"fusion_lat": 0.0, "type": "electric_scooter", "name": "e66969da387baf20e83c8932b7277cc2", "fusion_lon": 0.0, "bike_id": "e66969da387baf20e83c8932b7277cc2", "is_reserved": 0, "rental_uris": {"android": "https://dc.lft.to/lastmile_qr_scan", "ios": "https://dc.lft.to/lastmile_qr_scan"}, "lat": 38.9236035, "is_disabled": 0, "lon": -77.07307866666666}, {"fusion_lat": 0.0, "type": "electric_scooter", "name": "b0c5bb3dcbd3c03356ba7cca629b3d04", "fusion_lon": 0.0, "bike_id": "b0c5bb3dcbd3c03356ba7cca629b3d04", "is_reserved": 0, "rental_uris": {"android": "https://dc.lft.to/lastmile_qr_scan", "ios": "https://dc.lft.to/lastmile_qr_scan"}, "lat": 38.8861165, "is_disabled": 0, "lon": -76.95581033333333}, {"fusion_lat": 0.0, "type": "electric_scooter", "name": "288ea065cf2dd072998a9a35f1d1b64f", "fusion_lon": 0.0, "bike_id": "288ea065cf2dd072998a9a35f1d1b64f", "is_reserved": 0, "rental_uris": {"android": "https://dc.lft.to/lastmile_qr_scan", "ios": "https://dc.lft.to/lastmile_qr_scan"}, "lat": 38.892985333333336, "is_disabled": 0, "lon": -76.99819066666667}, {"fusion_lat": 0.0, "type": "electric_scooter", "name": "39454a03c7aabcb8740af61ffdae72ed", "fusion_lon": 0.0, "bike_id": "39454a03c7aabcb8740af61ffdae72ed", "is_reserved": 0, "rental_uris": {"android": "https://dc.lft.to/lastmile_qr_scan", "ios": "https://dc.lft.to/lastmile_qr_scan"}, "lat": 38.920630333333335, "is_disabled": 0, "lon": -77.03457066666667}, {"fusion_lat": 0.0, "type": "electric_scooter", "name": "064cf471922f10ce6437655188452efc", "fusion_lon": 0.0, "bike_id": "064cf471922f10ce6437655188452efc", "is_reserved": 0, "rental_uris": {"android": "https://dc.lft.to/lastmile_qr_scan", "ios": "https://dc.lft.to/lastmile_qr_scan"}, "lat": 38.923443666666664, "is_disabled": 0, "lon": -77.0242105}, {"fusion_lat": 0.0, "type": "electric_scooter", "name": "a4242d83dede3bdd27dbd28b71696f14", "fusion_lon": 0.0, "bike_id": "a4242d83dede3bdd27dbd28b71696f14", "is_reserved": 0, "rental_uris": {"android": "https://dc.lft.to/lastmile_qr_scan", "ios": "https://dc.lft.to/lastmile_qr_scan"}, "lat": 38.934105333333335, "is_disabled": 0, "lon": -77.03268883333334}, {"fusion_lat": 0.0, "type": "electric_scooter", "name": "fc1509985fa44c6cb4f74e62b787e65a", "fusion_lon": 0.0, "bike_id": "fc1509985fa44c6cb4f74e62b787e65a", "is_reserved": 0, "rental_uris": {"android": "https://dc.lft.to/lastmile_qr_scan", "ios": "https://dc.lft.to/lastmile_qr_scan"}, "lat": 38.91700216666667, "is_disabled": 0, "lon": -77.03486066666666}, {"fusion_lat": 0.0, "type": "electric_scooter", "name": "9cfd0189f5d2782cae0df5f88348abcc", "fusion_lon": 0.0, "bike_id": "9cfd0189f5d2782cae0df5f88348abcc", "is_reserved": 0, "rental_uris": {"android": "https://dc.lft.to/lastmile_qr_scan", "ios": "https://dc.lft.to/lastmile_qr_scan"}, "lat": 38.912622166666665, "is_disabled": 0, "lon": -77.0330335}, {"fusion_lat": 0.0, "type": "electric_bike", "name": "6e43e5b826c53798920bd3dd00a84383", "fusion_lon": 0.0, "bike_id": "6e43e5b826c53798920bd3dd00a84383", "is_reserved": 0, "rental_uris": {"android": "https://dc.lft.to/lastmile_qr_scan", "ios": "https://dc.lft.to/lastmile_qr_scan"}, "lat": 38.92724416666667, "is_disabled": 0, "lon": -77.07331833333333}, {"fusion_lat": 0.0, "type": "electric_scooter", "name": "227db2a1d6ae947f421854c6511add89", "fusion_lon": 0.0, "bike_id": "227db2a1d6ae947f421854c6511add89", "is_reserved": 0, "rental_uris": {"android": "https://dc.lft.to/lastmile_qr_scan", "ios": "https://dc.lft.to/lastmile_qr_scan"}, "lat": 38.90888966666667, "is_disabled": 0, "lon": -77.02178766666667}, {"fusion_lat": 0.0, "type": "electric_scooter", "name": "77815f347e9ee512874a9181c145d52f", "fusion_lon": 0.0, "bike_id": "77815f347e9ee512874a9181c145d52f", "is_reserved": 0, "rental_uris": {"android": "https://dc.lft.to/lastmile_qr_scan", "ios": "https://dc.lft.to/lastmile_qr_scan"}, "lat": 38.944621166666664, "is_disabled": 0, "lon": -77.060229}, {"fusion_lat": 0.0, "type": "electric_scooter", "name": "6df392122da83991429c6c8ceaa42525", "fusion_lon": 0.0, "bike_id": "6df392122da83991429c6c8ceaa42525", "is_reserved": 0, "rental_uris": {"android": "https://dc.lft.to/lastmile_qr_scan", "ios": "https://dc.lft.to/lastmile_qr_scan"}, "lat": 38.91570083333333, "is_disabled": 0, "lon": -77.03856583333334}, {"fusion_lat": 0.0, "type": "electric_scooter", "name": "596926ef16f4714db7ece99b7eded547", "fusion_lon": 0.0, "bike_id": "596926ef16f4714db7ece99b7eded547", "is_reserved": 0, "rental_uris": {"android": "https://dc.lft.to/lastmile_qr_scan", "ios": "https://dc.lft.to/lastmile_qr_scan"}, "lat": 38.90787533333334, "is_disabled": 0, "lon": -77.01109016666666}, {"fusion_lat": 0.0, "type": "electric_scooter", "name": "687ff96c87f1a3a071700b855c602054", "fusion_lon": 0.0, "bike_id": "687ff96c87f1a3a071700b855c602054", "is_reserved": 0, "rental_uris": {"android": "https://dc.lft.to/lastmile_qr_scan", "ios": "https://dc.lft.to/lastmile_qr_scan"}, "lat": 38.893678, "is_disabled": 0, "lon": -77.05493}, {"fusion_lat": 0.0, "type": "electric_scooter", "name": "7c7af3589fba9538e7cb5ecb2f24d1e7", "fusion_lon": 0.0, "bike_id": "7c7af3589fba9538e7cb5ecb2f24d1e7", "is_reserved": 0, "rental_uris": {"android": "https://dc.lft.to/lastmile_qr_scan", "ios": "https://dc.lft.to/lastmile_qr_scan"}, "lat": 38.90732966666667, "is_disabled": 0, "lon": -77.0344715}, {"fusion_lat": 0.0, "type": "electric_scooter", "name": "11e83732114aa9bc2375f15de5f9f44d", "fusion_lon": 0.0, "bike_id": "11e83732114aa9bc2375f15de5f9f44d", "is_reserved": 0, "rental_uris": {"android": "https://dc.lft.to/lastmile_qr_scan", "ios": "https://dc.lft.to/lastmile_qr_scan"}, "lat": 38.927142833333335, "is_disabled": 0, "lon": -77.02397483333333}, {"fusion_lat": 0.0, "type": "electric_scooter", "name": "a77ede863fb1c1990c6d3de8831a801f", "fusion_lon": 0.0, "bike_id": "a77ede863fb1c1990c6d3de8831a801f", "is_reserved": 0, "rental_uris": {"android": "https://dc.lft.to/lastmile_qr_scan", "ios": "https://dc.lft.to/lastmile_qr_scan"}, "lat": 38.894306666666665, "is_disabled": 0, "lon": -76.94879383333334}, {"fusion_lat": 0.0, "type": "electric_scooter", "name": "fd7cf14c92f266a4074260fbe52cc71e", "fusion_lon": 0.0, "bike_id": "fd7cf14c92f266a4074260fbe52cc71e", "is_reserved": 0, "rental_uris": {"android": "https://dc.lft.to/lastmile_qr_scan", "ios": "https://dc.lft.to/lastmile_qr_scan"}, "lat": 38.892255666666664, "is_disabled": 0, "lon": -77.0321315}, {"fusion_lat": 0.0, "type": "electric_scooter", "name": "bac62235e9f1a372ec6715120a23ab5f", "fusion_lon": 0.0, "bike_id": "bac62235e9f1a372ec6715120a23ab5f", "is_reserved": 0, "rental_uris": {"android": "https://dc.lft.to/lastmile_qr_scan", "ios": "https://dc.lft.to/lastmile_qr_scan"}, "lat": 38.95264866666667, "is_disabled": 0, "lon": -77.02568516666666}, {"fusion_lat": 0.0, "type": "electric_scooter", "name": "a90d289fd40a113bda35f4851590ce40", "fusion_lon": 0.0, "bike_id": "a90d289fd40a113bda35f4851590ce40", "is_reserved": 0, "rental_uris": {"android": "https://dc.lft.to/lastmile_qr_scan", "ios": "https://dc.lft.to/lastmile_qr_scan"}, "lat": 38.92382683333334, "is_disabled": 0, "lon": -77.02740366666667}, {"fusion_lat": 0.0, "type": "electric_bike", "name": "2d438633c3fe3998dca9b9e9b324567c", "fusion_lon": 0.0, "bike_id": "2d438633c3fe3998dca9b9e9b324567c", "is_reserved": 0, "rental_uris": {"android": "https://dc.lft.to/lastmile_qr_scan", "ios": "https://dc.lft.to/lastmile_qr_scan"}, "lat": 38.8981925, "is_disabled": 0, "lon": -76.9907085}, {"fusion_lat": 0.0, "type": "electric_scooter", "name": "3594e1074125bbf93b5986fb68b2f355", "fusion_lon": 0.0, "bike_id": "3594e1074125bbf93b5986fb68b2f355", "is_reserved": 0, "rental_uris": {"android": "https://dc.lft.to/lastmile_qr_scan", "ios": "https://dc.lft.to/lastmile_qr_scan"}, "lat": 38.892301, "is_disabled": 0, "lon": -77.03192233333333}, {"fusion_lat": 0.0, "type": "electric_scooter", "name": "d51b6d0132bb3ec18708aa53a2480f76", "fusion_lon": 0.0, "bike_id": "d51b6d0132bb3ec18708aa53a2480f76", "is_reserved": 0, "rental_uris": {"android": "https://dc.lft.to/lastmile_qr_scan", "ios": "https://dc.lft.to/lastmile_qr_scan"}, "lat": 38.9338375, "is_disabled": 0, "lon": -77.03555533333333}, {"fusion_lat": 0.0, "type": "electric_scooter", "name": "547aa1f02d43f13e1ef0cbfd4c81d537", "fusion_lon": 0.0, "bike_id": "547aa1f02d43f13e1ef0cbfd4c81d537", "is_reserved": 0, "rental_uris": {"android": "https://dc.lft.to/lastmile_qr_scan", "ios": "https://dc.lft.to/lastmile_qr_scan"}, "lat": 38.8956695, "is_disabled": 0, "lon": -77.0467535}, {"fusion_lat": 0.0, "type": "electric_scooter", "name": "d0a3ec6eee67d7365fe6cedd445de12b", "fusion_lon": 0.0, "bike_id": "d0a3ec6eee67d7365fe6cedd445de12b", "is_reserved": 0, "rental_uris": {"android": "https://dc.lft.to/lastmile_qr_scan", "ios": "https://dc.lft.to/lastmile_qr_scan"}, "lat": 38.90737583333333, "is_disabled": 0, "lon": -77.02691633333333}, {"fusion_lat": 0.0, "type": "electric_scooter", "name": "abe39f5dd1c782bb52af75e4f1a27e8f", "fusion_lon": 0.0, "bike_id": "abe39f5dd1c782bb52af75e4f1a27e8f", "is_reserved": 0, "rental_uris": {"android": "https://dc.lft.to/lastmile_qr_scan", "ios": "https://dc.lft.to/lastmile_qr_scan"}, "lat": 38.918769, "is_disabled": 0, "lon": -77.03476583333334}, {"fusion_lat": 0.0, "type": "electric_scooter", "name": "233a7399773e021528e005be97bbc896", "fusion_lon": 0.0, "bike_id": "233a7399773e021528e005be97bbc896", "is_reserved": 0, "rental_uris": {"android": "https://dc.lft.to/lastmile_qr_scan", "ios": "https://dc.lft.to/lastmile_qr_scan"}, "lat": 38.904130333333335, "is_disabled": 0, "lon": -77.029567}, {"fusion_lat": 0.0, "type": "electric_scooter", "name": "db1e9cdd9fc9f1ebf13c01b98fb7f304", "fusion_lon": 0.0, "bike_id": "db1e9cdd9fc9f1ebf13c01b98fb7f304", "is_reserved": 0, "rental_uris": {"android": "https://dc.lft.to/lastmile_qr_scan", "ios": "https://dc.lft.to/lastmile_qr_scan"}, "lat": 38.929073, "is_disabled": 0, "lon": -77.05459283333333}, {"fusion_lat": 0.0, "type": "electric_scooter", "name": "67b27f43c09da3953d45d6db2d24bde1", "fusion_lon": 0.0, "bike_id": "67b27f43c09da3953d45d6db2d24bde1", "is_reserved": 0, "rental_uris": {"android": "https://dc.lft.to/lastmile_qr_scan", "ios": "https://dc.lft.to/lastmile_qr_scan"}, "lat": 38.929168833333335, "is_disabled": 0, "lon": -77.02096716666667}, {"fusion_lat": 0.0, "type": "electric_scooter", "name": "7cfd934af434fc376afb5bec947a3fff", "fusion_lon": 0.0, "bike_id": "7cfd934af434fc376afb5bec947a3fff", "is_reserved": 0, "rental_uris": {"android": "https://dc.lft.to/lastmile_qr_scan", "ios": "https://dc.lft.to/lastmile_qr_scan"}, "lat": 38.880896, "is_disabled": 0, "lon": -76.930109}, {"fusion_lat": 0.0, "type": "electric_scooter", "name": "f0f9da383227a3c74b28f588f348e353", "fusion_lon": 0.0, "bike_id": "f0f9da383227a3c74b28f588f348e353", "is_reserved": 0, "rental_uris": {"android": "https://dc.lft.to/lastmile_qr_scan", "ios": "https://dc.lft.to/lastmile_qr_scan"}, "lat": 38.91126083333333, "is_disabled": 0, "lon": -77.06524616666667}, {"fusion_lat": 0.0, "type": "electric_scooter", "name": "5fbfebdf08706c20d73fc0bfa6d51bf9", "fusion_lon": 0.0, "bike_id": "5fbfebdf08706c20d73fc0bfa6d51bf9", "is_reserved": 0, "rental_uris": {"android": "https://dc.lft.to/lastmile_qr_scan", "ios": "https://dc.lft.to/lastmile_qr_scan"}, "lat": 38.91813833333333, "is_disabled": 0, "lon": -77.03167266666667}, {"fusion_lat": 0.0, "type": "electric_scooter", "name": "f69e0a2e175335f66bb4ef5eb3c0b802", "fusion_lon": 0.0, "bike_id": "f69e0a2e175335f66bb4ef5eb3c0b802", "is_reserved": 0, "rental_uris": {"android": "https://dc.lft.to/lastmile_qr_scan", "ios": "https://dc.lft.to/lastmile_qr_scan"}, "lat": 38.85198533333333, "is_disabled": 0, "lon": -76.9707355}, {"fusion_lat": 0.0, "type": "electric_scooter", "name": "5373e656660fb4cf834203bd88c38dbf", "fusion_lon": 0.0, "bike_id": "5373e656660fb4cf834203bd88c38dbf", "is_reserved": 0, "rental_uris": {"android": "https://dc.lft.to/lastmile_qr_scan", "ios": "https://dc.lft.to/lastmile_qr_scan"}, "lat": 38.91857316666667, "is_disabled": 0, "lon": -77.02528066666666}, {"fusion_lat": 0.0, "type": "electric_scooter", "name": "cd8230b826a345ae9e8987de80b3fc94", "fusion_lon": 0.0, "bike_id": "cd8230b826a345ae9e8987de80b3fc94", "is_reserved": 0, "rental_uris": {"android": "https://dc.lft.to/lastmile_qr_scan", "ios": "https://dc.lft.to/lastmile_qr_scan"}, "lat": 38.89887566666667, "is_disabled": 0, "lon": -76.93175466666666}, {"fusion_lat": 0.0, "type": "electric_scooter", "name": "9f36812b5a6f459bec64ac67d89d5335", "fusion_lon": 0.0, "bike_id": "9f36812b5a6f459bec64ac67d89d5335", "is_reserved": 0, "rental_uris": {"android": "https://dc.lft.to/lastmile_qr_scan", "ios": "https://dc.lft.to/lastmile_qr_scan"}, "lat": 38.874624833333336, "is_disabled": 0, "lon": -77.00960433333333}, {"fusion_lat": 0.0, "type": "electric_scooter", "name": "2fb1f30e055c6e348ee9a53779db1ce4", "fusion_lon": 0.0, "bike_id": "2fb1f30e055c6e348ee9a53779db1ce4", "is_reserved": 0, "rental_uris": {"android": "https://dc.lft.to/lastmile_qr_scan", "ios": "https://dc.lft.to/lastmile_qr_scan"}, "lat": 38.94902883333334, "is_disabled": 0, "lon": -77.00643133333334}, {"fusion_lat": 0.0, "type": "electric_scooter", "name": "f16fc377e4b1b9adfa4addf0679809cb", "fusion_lon": 0.0, "bike_id": "f16fc377e4b1b9adfa4addf0679809cb", "is_reserved": 0, "rental_uris": {"android": "https://dc.lft.to/lastmile_qr_scan", "ios": "https://dc.lft.to/lastmile_qr_scan"}, "lat": 38.892233, "is_disabled": 0, "lon": -77.04684833333333}, {"fusion_lat": 0.0, "type": "electric_scooter", "name": "262a1b168a24e9b0d8bd601e47e858d8", "fusion_lon": 0.0, "bike_id": "262a1b168a24e9b0d8bd601e47e858d8", "is_reserved": 0, "rental_uris": {"android": "https://dc.lft.to/lastmile_qr_scan", "ios": "https://dc.lft.to/lastmile_qr_scan"}, "lat": 38.90957383333333, "is_disabled": 0, "lon": -77.027152}, {"fusion_lat": 0.0, "type": "electric_scooter", "name": "b6a8e5741b65708da2dedd8ac1e33fb1", "fusion_lon": 0.0, "bike_id": "b6a8e5741b65708da2dedd8ac1e33fb1", "is_reserved": 0, "rental_uris": {"android": "https://dc.lft.to/lastmile_qr_scan", "ios": "https://dc.lft.to/lastmile_qr_scan"}, "lat": 38.9353865, "is_disabled": 0, "lon": -77.023498}, {"fusion_lat": 0.0, "type": "electric_scooter", "name": "93ab13e31383e6b101cfbb3f0fe3aa3a", "fusion_lon": 0.0, "bike_id": "93ab13e31383e6b101cfbb3f0fe3aa3a", "is_reserved": 0, "rental_uris": {"android": "https://dc.lft.to/lastmile_qr_scan", "ios": "https://dc.lft.to/lastmile_qr_scan"}, "lat": 38.93460683333333, "is_disabled": 0, "lon": -77.05782983333333}, {"fusion_lat": 0.0, "type": "electric_scooter", "name": "620fd234966f11cb6d56c4bd65342ae9", "fusion_lon": 0.0, "bike_id": "620fd234966f11cb6d56c4bd65342ae9", "is_reserved": 0, "rental_uris": {"android": "https://dc.lft.to/lastmile_qr_scan", "ios": "https://dc.lft.to/lastmile_qr_scan"}, "lat": 38.909959, "is_disabled": 0, "lon": -77.009162}, {"fusion_lat": 0.0, "type": "electric_scooter", "name": "0a2b6837fdb97040aaf918e1ce423644", "fusion_lon": 0.0, "bike_id": "0a2b6837fdb97040aaf918e1ce423644", "is_reserved": 0, "rental_uris": {"android": "https://dc.lft.to/lastmile_qr_scan", "ios": "https://dc.lft.to/lastmile_qr_scan"}, "lat": 38.923080666666664, "is_disabled": 0, "lon": -77.04460116666667}, {"fusion_lat": 0.0, "type": "electric_scooter", "name": "191be9407c34f7acf8881623cf92adfe", "fusion_lon": 0.0, "bike_id": "191be9407c34f7acf8881623cf92adfe", "is_reserved": 0, "rental_uris": {"android": "https://dc.lft.to/lastmile_qr_scan", "ios": "https://dc.lft.to/lastmile_qr_scan"}, "lat": 38.89845783333333, "is_disabled": 0, "lon": -76.9463935}, {"fusion_lat": 0.0, "type": "electric_scooter", "name": "9ec804ca9fdeb47f8a8254b97995c348", "fusion_lon": 0.0, "bike_id": "9ec804ca9fdeb47f8a8254b97995c348", "is_reserved": 0, "rental_uris": {"android": "https://dc.lft.to/lastmile_qr_scan", "ios": "https://dc.lft.to/lastmile_qr_scan"}, "lat": 38.90897666666667, "is_disabled": 0, "lon": -77.03209683333333}, {"fusion_lat": 0.0, "type": "electric_scooter", "name": "a0e09b129c7e6f9ae8de88324a5220e2", "fusion_lon": 0.0, "bike_id": "a0e09b129c7e6f9ae8de88324a5220e2", "is_reserved": 0, "rental_uris": {"android": "https://dc.lft.to/lastmile_qr_scan", "ios": "https://dc.lft.to/lastmile_qr_scan"}, "lat": 38.860620833333336, "is_disabled": 0, "lon": -76.98426733333334}, {"fusion_lat": 0.0, "type": "electric_scooter", "name": "b2a3d9c555010be3b3ac1b142ef7c456", "fusion_lon": 0.0, "bike_id": "b2a3d9c555010be3b3ac1b142ef7c456", "is_reserved": 0, "rental_uris": {"android": "https://dc.lft.to/lastmile_qr_scan", "ios": "https://dc.lft.to/lastmile_qr_scan"}, "lat": 38.90369033333333, "is_disabled": 0, "lon": -77.0175305}, {"fusion_lat": 0.0, "type": "electric_bike", "name": "3abe293c7c95267fd4f29190f679f90a", "fusion_lon": 0.0, "bike_id": "3abe293c7c95267fd4f29190f679f90a", "is_reserved": 0, "rental_uris": {"android": "https://dc.lft.to/lastmile_qr_scan", "ios": "https://dc.lft.to/lastmile_qr_scan"}, "lat": 38.87731683333333, "is_disabled": 0, "lon": -76.98105983333333}, {"fusion_lat": 0.0, "type": "electric_scooter", "name": "376994a101a64e9f7f7bb04843f6d1a0", "fusion_lon": 0.0, "bike_id": "376994a101a64e9f7f7bb04843f6d1a0", "is_reserved": 0, "rental_uris": {"android": "https://dc.lft.to/lastmile_qr_scan", "ios": "https://dc.lft.to/lastmile_qr_scan"}, "lat": 38.9191085, "is_disabled": 0, "lon": -77.0344395}, {"fusion_lat": 0.0, "type": "electric_scooter", "name": "0c497d6822f87b987ee8800e3122e499", "fusion_lon": 0.0, "bike_id": "0c497d6822f87b987ee8800e3122e499", "is_reserved": 0, "rental_uris": {"android": "https://dc.lft.to/lastmile_qr_scan", "ios": "https://dc.lft.to/lastmile_qr_scan"}, "lat": 38.906635, "is_disabled": 0, "lon": -77.01633416666667}, {"fusion_lat": 0.0, "type": "electric_scooter", "name": "083f772fdce0742ab390028c363d322b", "fusion_lon": 0.0, "bike_id": "083f772fdce0742ab390028c363d322b", "is_reserved": 0, "rental_uris": {"android": "https://dc.lft.to/lastmile_qr_scan", "ios": "https://dc.lft.to/lastmile_qr_scan"}, "lat": 38.892427833333336, "is_disabled": 0, "lon": -77.032107}, {"fusion_lat": 0.0, "type": "electric_scooter", "name": "c87de663954790108afef693e2684911", "fusion_lon": 0.0, "bike_id": "c87de663954790108afef693e2684911", "is_reserved": 0, "rental_uris": {"android": "https://dc.lft.to/lastmile_qr_scan", "ios": "https://dc.lft.to/lastmile_qr_scan"}, "lat": 38.90272866666667, "is_disabled": 0, "lon": -77.03458933333333}, {"fusion_lat": 0.0, "type": "electric_scooter", "name": "1ea9bd34186c4991b33287263d262142", "fusion_lon": 0.0, "bike_id": "1ea9bd34186c4991b33287263d262142", "is_reserved": 0, "rental_uris": {"android": "https://dc.lft.to/lastmile_qr_scan", "ios": "https://dc.lft.to/lastmile_qr_scan"}, "lat": 38.89750333333333, "is_disabled": 0, "lon": -77.033407}, {"fusion_lat": 0.0, "type": "electric_scooter", "name": "905940d7eababe57f11b874949b69bdd", "fusion_lon": 0.0, "bike_id": "905940d7eababe57f11b874949b69bdd", "is_reserved": 0, "rental_uris": {"android": "https://dc.lft.to/lastmile_qr_scan", "ios": "https://dc.lft.to/lastmile_qr_scan"}, "lat": 38.892229, "is_disabled": 0, "lon": -77.03225033333334}, {"fusion_lat": 0.0, "type": "electric_scooter", "name": "b9b46cbb76f36ad27a41eb30bc7bb6e3", "fusion_lon": 0.0, "bike_id": "b9b46cbb76f36ad27a41eb30bc7bb6e3", "is_reserved": 0, "rental_uris": {"android": "https://dc.lft.to/lastmile_qr_scan", "ios": "https://dc.lft.to/lastmile_qr_scan"}, "lat": 38.91332116666667, "is_disabled": 0, "lon": -77.045699}, {"fusion_lat": 0.0, "type": "electric_scooter", "name": "8d04c27c2008769157270facc7bb2cfe", "fusion_lon": 0.0, "bike_id": "8d04c27c2008769157270facc7bb2cfe", "is_reserved": 0, "rental_uris": {"android": "https://dc.lft.to/lastmile_qr_scan", "ios": "https://dc.lft.to/lastmile_qr_scan"}, "lat": 38.90383166666667, "is_disabled": 0, "lon": -77.044422}, {"fusion_lat": 0.0, "type": "electric_bike", "name": "7c6cd490b09d07801f4e97d5be8f33d7", "fusion_lon": 0.0, "bike_id": "7c6cd490b09d07801f4e97d5be8f33d7", "is_reserved": 0, "rental_uris": {"android": "https://dc.lft.to/lastmile_qr_scan", "ios": "https://dc.lft.to/lastmile_qr_scan"}, "lat": 38.9533065, "is_disabled": 0, "lon": -76.95438183333333}, {"fusion_lat": 0.0, "type": "electric_scooter", "name": "51b0664e32e6bc787c8bd467c5ec964d", "fusion_lon": 0.0, "bike_id": "51b0664e32e6bc787c8bd467c5ec964d", "is_reserved": 0, "rental_uris": {"android": "https://dc.lft.to/lastmile_qr_scan", "ios": "https://dc.lft.to/lastmile_qr_scan"}, "lat": 38.915695, "is_disabled": 0, "lon": -77.0318035}, {"fusion_lat": 0.0, "type": "electric_scooter", "name": "a8632e15eeff73945261e80f2864b760", "fusion_lon": 0.0, "bike_id": "a8632e15eeff73945261e80f2864b760", "is_reserved": 0, "rental_uris": {"android": "https://dc.lft.to/lastmile_qr_scan", "ios": "https://dc.lft.to/lastmile_qr_scan"}, "lat": 38.96783633333333, "is_disabled": 0, "lon": -77.01512283333334}, {"fusion_lat": 0.0, "type": "electric_scooter", "name": "ed4ede214baf4425ecf2d6559a9170d5", "fusion_lon": 0.0, "bike_id": "ed4ede214baf4425ecf2d6559a9170d5", "is_reserved": 0, "rental_uris": {"android": "https://dc.lft.to/lastmile_qr_scan", "ios": "https://dc.lft.to/lastmile_qr_scan"}, "lat": 38.907207666666665, "is_disabled": 0, "lon": -77.04757133333334}, {"fusion_lat": 0.0, "type": "electric_scooter", "name": "523dcf961480abe34aabd42aca6c07f0", "fusion_lon": 0.0, "bike_id": "523dcf961480abe34aabd42aca6c07f0", "is_reserved": 0, "rental_uris": {"android": "https://dc.lft.to/lastmile_qr_scan", "ios": "https://dc.lft.to/lastmile_qr_scan"}, "lat": 38.90259983333333, "is_disabled": 0, "lon": -77.00738166666666}, {"fusion_lat": 0.0, "type": "electric_scooter", "name": "3cc0b751f43d4cf51ea7743fdce1209f", "fusion_lon": 0.0, "bike_id": "3cc0b751f43d4cf51ea7743fdce1209f", "is_reserved": 0, "rental_uris": {"android": "https://dc.lft.to/lastmile_qr_scan", "ios": "https://dc.lft.to/lastmile_qr_scan"}, "lat": 38.91181183333333, "is_disabled": 0, "lon": -77.041642}, {"fusion_lat": 0.0, "type": "electric_scooter", "name": "2ae0232f06a69d0512f5c8d1ccf337bd", "fusion_lon": 0.0, "bike_id": "2ae0232f06a69d0512f5c8d1ccf337bd", "is_reserved": 0, "rental_uris": {"android": "https://dc.lft.to/lastmile_qr_scan", "ios": "https://dc.lft.to/lastmile_qr_scan"}, "lat": 38.93522316666667, "is_disabled": 0, "lon": -77.07275033333333}, {"fusion_lat": 0.0, "type": "electric_scooter", "name": "51bdbb198cd9ce270841ee5a41489f4c", "fusion_lon": 0.0, "bike_id": "51bdbb198cd9ce270841ee5a41489f4c", "is_reserved": 0, "rental_uris": {"android": "https://dc.lft.to/lastmile_qr_scan", "ios": "https://dc.lft.to/lastmile_qr_scan"}, "lat": 38.91955383333333, "is_disabled": 0, "lon": -76.98086583333334}, {"fusion_lat": 0.0, "type": "electric_scooter", "name": "828a989a76749dc841d9629a98ebbda3", "fusion_lon": 0.0, "bike_id": "828a989a76749dc841d9629a98ebbda3", "is_reserved": 0, "rental_uris": {"android": "https://dc.lft.to/lastmile_qr_scan", "ios": "https://dc.lft.to/lastmile_qr_scan"}, "lat": 38.9085655, "is_disabled": 0, "lon": -77.04275533333333}, {"fusion_lat": 0.0, "type": "electric_scooter", "name": "638aaf1ef10d3c47f662dce38d1acde7", "fusion_lon": 0.0, "bike_id": "638aaf1ef10d3c47f662dce38d1acde7", "is_reserved": 0, "rental_uris": {"android": "https://dc.lft.to/lastmile_qr_scan", "ios": "https://dc.lft.to/lastmile_qr_scan"}, "lat": 38.9224705, "is_disabled": 0, "lon": -77.043643}, {"fusion_lat": 0.0, "type": "electric_bike", "name": "8bf7ce220e2085d835aab1874892f650", "fusion_lon": 0.0, "bike_id": "8bf7ce220e2085d835aab1874892f650", "is_reserved": 0, "rental_uris": {"android": "https://dc.lft.to/lastmile_qr_scan", "ios": "https://dc.lft.to/lastmile_qr_scan"}, "lat": 38.896586, "is_disabled": 0, "lon": -76.9300495}, {"fusion_lat": 0.0, "type": "electric_scooter", "name": "a25f583328989b2c4504885fb65db90e", "fusion_lon": 0.0, "bike_id": "a25f583328989b2c4504885fb65db90e", "is_reserved": 0, "rental_uris": {"android": "https://dc.lft.to/lastmile_qr_scan", "ios": "https://dc.lft.to/lastmile_qr_scan"}, "lat": 38.905354, "is_disabled": 0, "lon": -77.0483415}, {"fusion_lat": 0.0, "type": "electric_scooter", "name": "9cf2d9384770f7dad0a2f92aa713d9a3", "fusion_lon": 0.0, "bike_id": "9cf2d9384770f7dad0a2f92aa713d9a3", "is_reserved": 0, "rental_uris": {"android": "https://dc.lft.to/lastmile_qr_scan", "ios": "https://dc.lft.to/lastmile_qr_scan"}, "lat": 38.921281666666665, "is_disabled": 0, "lon": -77.02547566666667}, {"fusion_lat": 0.0, "type": "electric_bike", "name": "85e1f007803f302fcda0df292ba36f0a", "fusion_lon": 0.0, "bike_id": "85e1f007803f302fcda0df292ba36f0a", "is_reserved": 0, "rental_uris": {"android": "https://dc.lft.to/lastmile_qr_scan", "ios": "https://dc.lft.to/lastmile_qr_scan"}, "lat": 38.90332766666667, "is_disabled": 0, "lon": -76.97529133333333}, {"fusion_lat": 0.0, "type": "electric_scooter", "name": "cc6e7e486855d11d5daa142cc6e22350", "fusion_lon": 0.0, "bike_id": "cc6e7e486855d11d5daa142cc6e22350", "is_reserved": 0, "rental_uris": {"android": "https://dc.lft.to/lastmile_qr_scan", "ios": "https://dc.lft.to/lastmile_qr_scan"}, "lat": 38.918290166666665, "is_disabled": 0, "lon": -77.03442183333334}, {"fusion_lat": 0.0, "type": "electric_scooter", "name": "2282c9422429b8e2d888a15384c73b50", "fusion_lon": 0.0, "bike_id": "2282c9422429b8e2d888a15384c73b50", "is_reserved": 0, "rental_uris": {"android": "https://dc.lft.to/lastmile_qr_scan", "ios": "https://dc.lft.to/lastmile_qr_scan"}, "lat": 38.913290333333336, "is_disabled": 0, "lon": -77.0452985}, {"fusion_lat": 0.0, "type": "electric_scooter", "name": "e23f393797c3437ea6be4ec211a6435b", "fusion_lon": 0.0, "bike_id": "e23f393797c3437ea6be4ec211a6435b", "is_reserved": 0, "rental_uris": {"android": "https://dc.lft.to/lastmile_qr_scan", "ios": "https://dc.lft.to/lastmile_qr_scan"}, "lat": 38.898581666666665, "is_disabled": 0, "lon": -76.97665466666666}, {"fusion_lat": 0.0, "type": "electric_scooter", "name": "dfe8dbc9fe4dcbd864202f4b6d4bb425", "fusion_lon": 0.0, "bike_id": "dfe8dbc9fe4dcbd864202f4b6d4bb425", "is_reserved": 0, "rental_uris": {"android": "https://dc.lft.to/lastmile_qr_scan", "ios": "https://dc.lft.to/lastmile_qr_scan"}, "lat": 38.917058, "is_disabled": 0, "lon": -77.03505483333333}, {"fusion_lat": 0.0, "type": "electric_scooter", "name": "147d9dbd309874dbab45a002499bf4b8", "fusion_lon": 0.0, "bike_id": "147d9dbd309874dbab45a002499bf4b8", "is_reserved": 0, "rental_uris": {"android": "https://dc.lft.to/lastmile_qr_scan", "ios": "https://dc.lft.to/lastmile_qr_scan"}, "lat": 38.878879833333336, "is_disabled": 0, "lon": -77.02305016666666}, {"fusion_lat": 0.0, "type": "electric_scooter", "name": "a752cce4cf7d1e29f52c8cda9afe6832", "fusion_lon": 0.0, "bike_id": "a752cce4cf7d1e29f52c8cda9afe6832", "is_reserved": 0, "rental_uris": {"android": "https://dc.lft.to/lastmile_qr_scan", "ios": "https://dc.lft.to/lastmile_qr_scan"}, "lat": 38.9144025, "is_disabled": 0, "lon": -77.0045695}, {"fusion_lat": 0.0, "type": "electric_scooter", "name": "8cd6f3daf24187809a6085aa00c22997", "fusion_lon": 0.0, "bike_id": "8cd6f3daf24187809a6085aa00c22997", "is_reserved": 0, "rental_uris": {"android": "https://dc.lft.to/lastmile_qr_scan", "ios": "https://dc.lft.to/lastmile_qr_scan"}, "lat": 38.9111295, "is_disabled": 0, "lon": -77.033791}, {"fusion_lat": 0.0, "type": "electric_scooter", "name": "746cd79954623b59dbff9b39735d1f8c", "fusion_lon": 0.0, "bike_id": "746cd79954623b59dbff9b39735d1f8c", "is_reserved": 0, "rental_uris": {"android": "https://dc.lft.to/lastmile_qr_scan", "ios": "https://dc.lft.to/lastmile_qr_scan"}, "lat": 38.88365566666667, "is_disabled": 0, "lon": -76.94156483333333}, {"fusion_lat": 0.0, "type": "electric_scooter", "name": "83bd3342fc2c6b216f24fe0fd7325b1d", "fusion_lon": 0.0, "bike_id": "83bd3342fc2c6b216f24fe0fd7325b1d", "is_reserved": 0, "rental_uris": {"android": "https://dc.lft.to/lastmile_qr_scan", "ios": "https://dc.lft.to/lastmile_qr_scan"}, "lat": 38.92247716666667, "is_disabled": 0, "lon": -77.02997783333333}, {"fusion_lat": 0.0, "type": "electric_scooter", "name": "a345fac0b77dba4ec0cf1868cdc1d5e1", "fusion_lon": 0.0, "bike_id": "a345fac0b77dba4ec0cf1868cdc1d5e1", "is_reserved": 0, "rental_uris": {"android": "https://dc.lft.to/lastmile_qr_scan", "ios": "https://dc.lft.to/lastmile_qr_scan"}, "lat": 38.9075495, "is_disabled": 0, "lon": -77.05032433333334}, {"fusion_lat": 0.0, "type": "electric_scooter", "name": "a486d11f109aafb9fb7a33a1044df368", "fusion_lon": 0.0, "bike_id": "a486d11f109aafb9fb7a33a1044df368", "is_reserved": 0, "rental_uris": {"android": "https://dc.lft.to/lastmile_qr_scan", "ios": "https://dc.lft.to/lastmile_qr_scan"}, "lat": 38.925805, "is_disabled": 0, "lon": -77.04013333333333}, {"fusion_lat": 0.0, "type": "electric_scooter", "name": "d8e4364814b8361ef2cffa4e6395270a", "fusion_lon": 0.0, "bike_id": "d8e4364814b8361ef2cffa4e6395270a", "is_reserved": 0, "rental_uris": {"android": "https://dc.lft.to/lastmile_qr_scan", "ios": "https://dc.lft.to/lastmile_qr_scan"}, "lat": 38.893958166666664, "is_disabled": 0, "lon": -77.02247016666666}, {"fusion_lat": 0.0, "type": "electric_scooter", "name": "b11c89b3aba97ec84f45624d20cf6a95", "fusion_lon": 0.0, "bike_id": "b11c89b3aba97ec84f45624d20cf6a95", "is_reserved": 0, "rental_uris": {"android": "https://dc.lft.to/lastmile_qr_scan", "ios": "https://dc.lft.to/lastmile_qr_scan"}, "lat": 38.9136005, "is_disabled": 0, "lon": -77.019987}, {"fusion_lat": 0.0, "type": "electric_scooter", "name": "c1ec3ba133fee824869291b2396d2e6b", "fusion_lon": 0.0, "bike_id": "c1ec3ba133fee824869291b2396d2e6b", "is_reserved": 0, "rental_uris": {"android": "https://dc.lft.to/lastmile_qr_scan", "ios": "https://dc.lft.to/lastmile_qr_scan"}, "lat": 38.887424, "is_disabled": 0, "lon": -77.02733233333333}, {"fusion_lat": 0.0, "type": "electric_scooter", "name": "020f803b5857030c781760b273c346f8", "fusion_lon": 0.0, "bike_id": "020f803b5857030c781760b273c346f8", "is_reserved": 0, "rental_uris": {"android": "https://dc.lft.to/lastmile_qr_scan", "ios": "https://dc.lft.to/lastmile_qr_scan"}, "lat": 38.9073995, "is_disabled": 0, "lon": -77.0318915}, {"fusion_lat": 0.0, "type": "electric_scooter", "name": "82c0b09897495baa1c3ae7ded5f9ef31", "fusion_lon": 0.0, "bike_id": "82c0b09897495baa1c3ae7ded5f9ef31", "is_reserved": 0, "rental_uris": {"android": "https://dc.lft.to/lastmile_qr_scan", "ios": "https://dc.lft.to/lastmile_qr_scan"}, "lat": 38.91058016666667, "is_disabled": 0, "lon": -77.05317033333333}, {"fusion_lat": 0.0, "type": "electric_scooter", "name": "7ef1b080953c3d7b167d684df92a30ba", "fusion_lon": 0.0, "bike_id": "7ef1b080953c3d7b167d684df92a30ba", "is_reserved": 0, "rental_uris": {"android": "https://dc.lft.to/lastmile_qr_scan", "ios": "https://dc.lft.to/lastmile_qr_scan"}, "lat": 38.930923, "is_disabled": 0, "lon": -77.03756333333334}, {"fusion_lat": 0.0, "type": "electric_scooter", "name": "a4a063a0ad3950bcc6949d7d098b986e", "fusion_lon": 0.0, "bike_id": "a4a063a0ad3950bcc6949d7d098b986e", "is_reserved": 0, "rental_uris": {"android": "https://dc.lft.to/lastmile_qr_scan", "ios": "https://dc.lft.to/lastmile_qr_scan"}, "lat": 38.93634216666667, "is_disabled": 0, "lon": -77.03661216666667}, {"fusion_lat": 0.0, "type": "electric_scooter", "name": "7e40063f27a0b1136d528da006d97bbf", "fusion_lon": 0.0, "bike_id": "7e40063f27a0b1136d528da006d97bbf", "is_reserved": 0, "rental_uris": {"android": "https://dc.lft.to/lastmile_qr_scan", "ios": "https://dc.lft.to/lastmile_qr_scan"}, "lat": 38.886829166666665, "is_disabled": 0, "lon": -76.9546985}, {"fusion_lat": 0.0, "type": "electric_scooter", "name": "bf0b61974d567a1460ecbd9c447b42e0", "fusion_lon": 0.0, "bike_id": "bf0b61974d567a1460ecbd9c447b42e0", "is_reserved": 0, "rental_uris": {"android": "https://dc.lft.to/lastmile_qr_scan", "ios": "https://dc.lft.to/lastmile_qr_scan"}, "lat": 38.90894216666667, "is_disabled": 0, "lon": -76.98536433333334}, {"fusion_lat": 0.0, "type": "electric_scooter", "name": "bad899f7f7caedac7f71190312404bda", "fusion_lon": 0.0, "bike_id": "bad899f7f7caedac7f71190312404bda", "is_reserved": 0, "rental_uris": {"android": "https://dc.lft.to/lastmile_qr_scan", "ios": "https://dc.lft.to/lastmile_qr_scan"}, "lat": 38.86509316666667, "is_disabled": 0, "lon": -76.99002966666667}, {"fusion_lat": 0.0, "type": "electric_scooter", "name": "b3f8b7428461b5d2756db18eb876cf21", "fusion_lon": 0.0, "bike_id": "b3f8b7428461b5d2756db18eb876cf21", "is_reserved": 0, "rental_uris": {"android": "https://dc.lft.to/lastmile_qr_scan", "ios": "https://dc.lft.to/lastmile_qr_scan"}, "lat": 38.89229616666667, "is_disabled": 0, "lon": -77.03138066666666}, {"fusion_lat": 0.0, "type": "electric_scooter", "name": "f2cdb9b8e488c919b7e17b3d15f0759c", "fusion_lon": 0.0, "bike_id": "f2cdb9b8e488c919b7e17b3d15f0759c", "is_reserved": 0, "rental_uris": {"android": "https://dc.lft.to/lastmile_qr_scan", "ios": "https://dc.lft.to/lastmile_qr_scan"}, "lat": 38.92585183333333, "is_disabled": 0, "lon": -77.02614666666666}, {"fusion_lat": 0.0, "type": "electric_scooter", "name": "74d02c362df82c074d6dc324b73d326a", "fusion_lon": 0.0, "bike_id": "74d02c362df82c074d6dc324b73d326a", "is_reserved": 0, "rental_uris": {"android": "https://dc.lft.to/lastmile_qr_scan", "ios": "https://dc.lft.to/lastmile_qr_scan"}, "lat": 38.91900483333333, "is_disabled": 0, "lon": -77.00315416666666}, {"fusion_lat": 0.0, "type": "electric_scooter", "name": "e5727fae2da72425509a5841b89685fa", "fusion_lon": 0.0, "bike_id": "e5727fae2da72425509a5841b89685fa", "is_reserved": 0, "rental_uris": {"android": "https://dc.lft.to/lastmile_qr_scan", "ios": "https://dc.lft.to/lastmile_qr_scan"}, "lat": 38.844285666666664, "is_disabled": 0, "lon": -76.99777816666666}, {"fusion_lat": 0.0, "type": "electric_scooter", "name": "76939d075b4f51d6a6d120cfc3aade5d", "fusion_lon": 0.0, "bike_id": "76939d075b4f51d6a6d120cfc3aade5d", "is_reserved": 0, "rental_uris": {"android": "https://dc.lft.to/lastmile_qr_scan", "ios": "https://dc.lft.to/lastmile_qr_scan"}, "lat": 38.879766000000004, "is_disabled": 0, "lon": -77.01380683333333}, {"fusion_lat": 0.0, "type": "electric_scooter", "name": "650ab5a7c78c2258db2f5cff4dd1356f", "fusion_lon": 0.0, "bike_id": "650ab5a7c78c2258db2f5cff4dd1356f", "is_reserved": 0, "rental_uris": {"android": "https://dc.lft.to/lastmile_qr_scan", "ios": "https://dc.lft.to/lastmile_qr_scan"}, "lat": 38.89744916666667, "is_disabled": 0, "lon": -76.94728883333333}, {"fusion_lat": 0.0, "type": "electric_scooter", "name": "29dde45afacc003ba5cc1eaac0a97322", "fusion_lon": 0.0, "bike_id": "29dde45afacc003ba5cc1eaac0a97322", "is_reserved": 0, "rental_uris": {"android": "https://dc.lft.to/lastmile_qr_scan", "ios": "https://dc.lft.to/lastmile_qr_scan"}, "lat": 38.94839483333333, "is_disabled": 0, "lon": -77.025449}, {"fusion_lat": 0.0, "type": "electric_scooter", "name": "0abdc9e8db41f43571b5ddb667c876f3", "fusion_lon": 0.0, "bike_id": "0abdc9e8db41f43571b5ddb667c876f3", "is_reserved": 0, "rental_uris": {"android": "https://dc.lft.to/lastmile_qr_scan", "ios": "https://dc.lft.to/lastmile_qr_scan"}, "lat": 38.92765433333334, "is_disabled": 0, "lon": -77.02295766666667}, {"fusion_lat": 0.0, "type": "electric_scooter", "name": "a798e7c6fcb6b6db236065e2c6009210", "fusion_lon": 0.0, "bike_id": "a798e7c6fcb6b6db236065e2c6009210", "is_reserved": 0, "rental_uris": {"android": "https://dc.lft.to/lastmile_qr_scan", "ios": "https://dc.lft.to/lastmile_qr_scan"}, "lat": 38.927209, "is_disabled": 0, "lon": -77.020909}, {"fusion_lat": 0.0, "type": "electric_scooter", "name": "45b1fe280d837f20bca5ef3dade52789", "fusion_lon": 0.0, "bike_id": "45b1fe280d837f20bca5ef3dade52789", "is_reserved": 0, "rental_uris": {"android": "https://dc.lft.to/lastmile_qr_scan", "ios": "https://dc.lft.to/lastmile_qr_scan"}, "lat": 38.905089833333335, "is_disabled": 0, "lon": -77.02588233333333}, {"fusion_lat": 0.0, "type": "electric_scooter", "name": "440771b2fc9dabfa78e2a93ee1270250", "fusion_lon": 0.0, "bike_id": "440771b2fc9dabfa78e2a93ee1270250", "is_reserved": 0, "rental_uris": {"android": "https://dc.lft.to/lastmile_qr_scan", "ios": "https://dc.lft.to/lastmile_qr_scan"}, "lat": 38.91107233333334, "is_disabled": 0, "lon": -77.04665133333333}, {"fusion_lat": 0.0, "type": "electric_scooter", "name": "5eb53b3e8850d51126fbc27d7cb07ad8", "fusion_lon": 0.0, "bike_id": "5eb53b3e8850d51126fbc27d7cb07ad8", "is_reserved": 0, "rental_uris": {"android": "https://dc.lft.to/lastmile_qr_scan", "ios": "https://dc.lft.to/lastmile_qr_scan"}, "lat": 38.91245133333334, "is_disabled": 0, "lon": -77.04479933333333}, {"fusion_lat": 0.0, "type": "electric_scooter", "name": "215cdd332d8e88d1481f8ac909181eb8", "fusion_lon": 0.0, "bike_id": "215cdd332d8e88d1481f8ac909181eb8", "is_reserved": 0, "rental_uris": {"android": "https://dc.lft.to/lastmile_qr_scan", "ios": "https://dc.lft.to/lastmile_qr_scan"}, "lat": 38.94960483333333, "is_disabled": 0, "lon": -77.02723683333333}, {"fusion_lat": 0.0, "type": "electric_scooter", "name": "f2f1393729b242a26b3fda2dff44b8f7", "fusion_lon": 0.0, "bike_id": "f2f1393729b242a26b3fda2dff44b8f7", "is_reserved": 0, "rental_uris": {"android": "https://dc.lft.to/lastmile_qr_scan", "ios": "https://dc.lft.to/lastmile_qr_scan"}, "lat": 38.9132395, "is_disabled": 0, "lon": -77.015104}, {"fusion_lat": 0.0, "type": "electric_scooter", "name": "0e78874bb1dfc735d3254a3289241990", "fusion_lon": 0.0, "bike_id": "0e78874bb1dfc735d3254a3289241990", "is_reserved": 0, "rental_uris": {"android": "https://dc.lft.to/lastmile_qr_scan", "ios": "https://dc.lft.to/lastmile_qr_scan"}, "lat": 38.919327333333335, "is_disabled": 0, "lon": -77.04554833333333}, {"fusion_lat": 0.0, "type": "electric_scooter", "name": "c3e209679286c711bde4a389f45e34d6", "fusion_lon": 0.0, "bike_id": "c3e209679286c711bde4a389f45e34d6", "is_reserved": 0, "rental_uris": {"android": "https://dc.lft.to/lastmile_qr_scan", "ios": "https://dc.lft.to/lastmile_qr_scan"}, "lat": 38.90788083333333, "is_disabled": 0, "lon": -77.0450535}, {"fusion_lat": 0.0, "type": "electric_scooter", "name": "e59c99897d6b59385eeb30a648047adf", "fusion_lon": 0.0, "bike_id": "e59c99897d6b59385eeb30a648047adf", "is_reserved": 0, "rental_uris": {"android": "https://dc.lft.to/lastmile_qr_scan", "ios": "https://dc.lft.to/lastmile_qr_scan"}, "lat": 38.9195215, "is_disabled": 0, "lon": -77.032228}, {"fusion_lat": 0.0, "type": "electric_bike", "name": "4b1980660fd8fd349c43ece3856f56f7", "fusion_lon": 0.0, "bike_id": "4b1980660fd8fd349c43ece3856f56f7", "is_reserved": 0, "rental_uris": {"android": "https://dc.lft.to/lastmile_qr_scan", "ios": "https://dc.lft.to/lastmile_qr_scan"}, "lat": 38.9492265, "is_disabled": 0, "lon": -77.00799283333333}, {"fusion_lat": 0.0, "type": "electric_scooter", "name": "855e01cc966d37bd4fe30e19761207a2", "fusion_lon": 0.0, "bike_id": "855e01cc966d37bd4fe30e19761207a2", "is_reserved": 0, "rental_uris": {"android": "https://dc.lft.to/lastmile_qr_scan", "ios": "https://dc.lft.to/lastmile_qr_scan"}, "lat": 38.9222305, "is_disabled": 0, "lon": -77.042476}, {"fusion_lat": 0.0, "type": "electric_bike", "name": "ca821964e271cd027135c7501538120b", "fusion_lon": 0.0, "bike_id": "ca821964e271cd027135c7501538120b", "is_reserved": 0, "rental_uris": {"android": "https://dc.lft.to/lastmile_qr_scan", "ios": "https://dc.lft.to/lastmile_qr_scan"}, "lat": 38.91862166666667, "is_disabled": 0, "lon": -76.9609235}, {"fusion_lat": 0.0, "type": "electric_scooter", "name": "49c8821a7de51d841217229f86a7315f", "fusion_lon": 0.0, "bike_id": "49c8821a7de51d841217229f86a7315f", "is_reserved": 0, "rental_uris": {"android": "https://dc.lft.to/lastmile_qr_scan", "ios": "https://dc.lft.to/lastmile_qr_scan"}, "lat": 38.90702733333333, "is_disabled": 0, "lon": -77.03578166666667}, {"fusion_lat": 0.0, "type": "electric_scooter", "name": "321d824a5abf16b352594f4a7caf1ca2", "fusion_lon": 0.0, "bike_id": "321d824a5abf16b352594f4a7caf1ca2", "is_reserved": 0, "rental_uris": {"android": "https://dc.lft.to/lastmile_qr_scan", "ios": "https://dc.lft.to/lastmile_qr_scan"}, "lat": 38.91460466666667, "is_disabled": 0, "lon": -77.01892233333334}, {"fusion_lat": 0.0, "type": "electric_scooter", "name": "163c5bdbe1a1cdf8876028f327dde75a", "fusion_lon": 0.0, "bike_id": "163c5bdbe1a1cdf8876028f327dde75a", "is_reserved": 0, "rental_uris": {"android": "https://dc.lft.to/lastmile_qr_scan", "ios": "https://dc.lft.to/lastmile_qr_scan"}, "lat": 38.90944833333333, "is_disabled": 0, "lon": -77.04665566666667}, {"fusion_lat": 0.0, "type": "electric_scooter", "name": "c8d2d5ff0284777867fc52ad69fa5b7e", "fusion_lon": 0.0, "bike_id": "c8d2d5ff0284777867fc52ad69fa5b7e", "is_reserved": 0, "rental_uris": {"android": "https://dc.lft.to/lastmile_qr_scan", "ios": "https://dc.lft.to/lastmile_qr_scan"}, "lat": 38.915548333333334, "is_disabled": 0, "lon": -77.038528}, {"fusion_lat": 0.0, "type": "electric_bike", "name": "7f998be117041057944fdadf57820093", "fusion_lon": 0.0, "bike_id": "7f998be117041057944fdadf57820093", "is_reserved": 0, "rental_uris": {"android": "https://dc.lft.to/lastmile_qr_scan", "ios": "https://dc.lft.to/lastmile_qr_scan"}, "lat": 38.9681885, "is_disabled": 0, "lon": -77.0722125}, {"fusion_lat": 0.0, "type": "electric_scooter", "name": "85510839f86e28fc812fe0f02e4f697d", "fusion_lon": 0.0, "bike_id": "85510839f86e28fc812fe0f02e4f697d", "is_reserved": 0, "rental_uris": {"android": "https://dc.lft.to/lastmile_qr_scan", "ios": "https://dc.lft.to/lastmile_qr_scan"}, "lat": 38.897396666666666, "is_disabled": 0, "lon": -77.05564733333334}, {"fusion_lat": 0.0, "type": "electric_scooter", "name": "f5e8598d161cc1064505441b48a5c3b5", "fusion_lon": 0.0, "bike_id": "f5e8598d161cc1064505441b48a5c3b5", "is_reserved": 0, "rental_uris": {"android": "https://dc.lft.to/lastmile_qr_scan", "ios": "https://dc.lft.to/lastmile_qr_scan"}, "lat": 38.9044955, "is_disabled": 0, "lon": -76.984955}, {"fusion_lat": 0.0, "type": "electric_scooter", "name": "9d7b90aabf0150f7c2608f5cc934f6ab", "fusion_lon": 0.0, "bike_id": "9d7b90aabf0150f7c2608f5cc934f6ab", "is_reserved": 0, "rental_uris": {"android": "https://dc.lft.to/lastmile_qr_scan", "ios": "https://dc.lft.to/lastmile_qr_scan"}, "lat": 38.92259216666667, "is_disabled": 0, "lon": -77.03518}, {"fusion_lat": 0.0, "type": "electric_scooter", "name": "0cc3f4e1641d75e8e2d27c3e5bea1779", "fusion_lon": 0.0, "bike_id": "0cc3f4e1641d75e8e2d27c3e5bea1779", "is_reserved": 0, "rental_uris": {"android": "https://dc.lft.to/lastmile_qr_scan", "ios": "https://dc.lft.to/lastmile_qr_scan"}, "lat": 38.91270383333333, "is_disabled": 0, "lon": -77.03820833333333}, {"fusion_lat": 0.0, "type": "electric_scooter", "name": "06a452ed2f033e2ab282ae5171c5107c", "fusion_lon": 0.0, "bike_id": "06a452ed2f033e2ab282ae5171c5107c", "is_reserved": 0, "rental_uris": {"android": "https://dc.lft.to/lastmile_qr_scan", "ios": "https://dc.lft.to/lastmile_qr_scan"}, "lat": 38.9337195, "is_disabled": 0, "lon": -77.0572685}, {"fusion_lat": 0.0, "type": "electric_scooter", "name": "af4ae706c1a053e70fceba1894d836e7", "fusion_lon": 0.0, "bike_id": "af4ae706c1a053e70fceba1894d836e7", "is_reserved": 0, "rental_uris": {"android": "https://dc.lft.to/lastmile_qr_scan", "ios": "https://dc.lft.to/lastmile_qr_scan"}, "lat": 38.8664735, "is_disabled": 0, "lon": -76.9852925}, {"fusion_lat": 0.0, "type": "electric_scooter", "name": "25a590c6a3f617167a02579c492c4020", "fusion_lon": 0.0, "bike_id": "25a590c6a3f617167a02579c492c4020", "is_reserved": 0, "rental_uris": {"android": "https://dc.lft.to/lastmile_qr_scan", "ios": "https://dc.lft.to/lastmile_qr_scan"}, "lat": 38.927972, "is_disabled": 0, "lon": -77.025996}, {"fusion_lat": 0.0, "type": "electric_scooter", "name": "604d480b92aba915b7aeb59fb2388071", "fusion_lon": 0.0, "bike_id": "604d480b92aba915b7aeb59fb2388071", "is_reserved": 0, "rental_uris": {"android": "https://dc.lft.to/lastmile_qr_scan", "ios": "https://dc.lft.to/lastmile_qr_scan"}, "lat": 38.911781500000004, "is_disabled": 0, "lon": -77.06093833333334}, {"fusion_lat": 0.0, "type": "electric_scooter", "name": "cd26bf26e310dc7ab7ea38b38819aa26", "fusion_lon": 0.0, "bike_id": "cd26bf26e310dc7ab7ea38b38819aa26", "is_reserved": 0, "rental_uris": {"android": "https://dc.lft.to/lastmile_qr_scan", "ios": "https://dc.lft.to/lastmile_qr_scan"}, "lat": 38.90031283333333, "is_disabled": 0, "lon": -76.98630583333333}, {"fusion_lat": 0.0, "type": "electric_scooter", "name": "984a68550dbd875ed398829009b0525e", "fusion_lon": 0.0, "bike_id": "984a68550dbd875ed398829009b0525e", "is_reserved": 0, "rental_uris": {"android": "https://dc.lft.to/lastmile_qr_scan", "ios": "https://dc.lft.to/lastmile_qr_scan"}, "lat": 38.92039, "is_disabled": 0, "lon": -76.99551183333334}, {"fusion_lat": 0.0, "type": "electric_scooter", "name": "be75ebd0fa3cd4187b94788aa9ecc6dd", "fusion_lon": 0.0, "bike_id": "be75ebd0fa3cd4187b94788aa9ecc6dd", "is_reserved": 0, "rental_uris": {"android": "https://dc.lft.to/lastmile_qr_scan", "ios": "https://dc.lft.to/lastmile_qr_scan"}, "lat": 38.87321416666666, "is_disabled": 0, "lon": -77.00576283333334}, {"fusion_lat": 0.0, "type": "electric_scooter", "name": "f58c5573ab420239b38c9b7f549d8fb1", "fusion_lon": 0.0, "bike_id": "f58c5573ab420239b38c9b7f549d8fb1", "is_reserved": 0, "rental_uris": {"android": "https://dc.lft.to/lastmile_qr_scan", "ios": "https://dc.lft.to/lastmile_qr_scan"}, "lat": 38.89332133333333, "is_disabled": 0, "lon": -77.01203083333333}, {"fusion_lat": 0.0, "type": "electric_scooter", "name": "8174362b08f70e37810ea26eb69cafb8", "fusion_lon": 0.0, "bike_id": "8174362b08f70e37810ea26eb69cafb8", "is_reserved": 0, "rental_uris": {"android": "https://dc.lft.to/lastmile_qr_scan", "ios": "https://dc.lft.to/lastmile_qr_scan"}, "lat": 38.88814283333333, "is_disabled": 0, "lon": -76.93343133333333}, {"fusion_lat": 0.0, "type": "electric_scooter", "name": "e5afd741bc4c7b4b21125828ae690dc6", "fusion_lon": 0.0, "bike_id": "e5afd741bc4c7b4b21125828ae690dc6", "is_reserved": 0, "rental_uris": {"android": "https://dc.lft.to/lastmile_qr_scan", "ios": "https://dc.lft.to/lastmile_qr_scan"}, "lat": 38.892458166666664, "is_disabled": 0, "lon": -77.0318075}, {"fusion_lat": 0.0, "type": "electric_scooter", "name": "1b81a8adf96a4c47db1c34032b5796ec", "fusion_lon": 0.0, "bike_id": "1b81a8adf96a4c47db1c34032b5796ec", "is_reserved": 0, "rental_uris": {"android": "https://dc.lft.to/lastmile_qr_scan", "ios": "https://dc.lft.to/lastmile_qr_scan"}, "lat": 38.91553716666667, "is_disabled": 0, "lon": -77.0298465}, {"fusion_lat": 0.0, "type": "electric_scooter", "name": "6c889c711c6be6a57b52c6d1cc362486", "fusion_lon": 0.0, "bike_id": "6c889c711c6be6a57b52c6d1cc362486", "is_reserved": 0, "rental_uris": {"android": "https://dc.lft.to/lastmile_qr_scan", "ios": "https://dc.lft.to/lastmile_qr_scan"}, "lat": 38.89728733333333, "is_disabled": 0, "lon": -77.027127}, {"fusion_lat": 0.0, "type": "electric_scooter", "name": "74be25093e434a710816a940f1a7629b", "fusion_lon": 0.0, "bike_id": "74be25093e434a710816a940f1a7629b", "is_reserved": 0, "rental_uris": {"android": "https://dc.lft.to/lastmile_qr_scan", "ios": "https://dc.lft.to/lastmile_qr_scan"}, "lat": 38.91722583333333, "is_disabled": 0, "lon": -77.02536566666667}, {"fusion_lat": 0.0, "type": "electric_scooter", "name": "74436497fb6b5ae035fb7405d0dced62", "fusion_lon": 0.0, "bike_id": "74436497fb6b5ae035fb7405d0dced62", "is_reserved": 0, "rental_uris": {"android": "https://dc.lft.to/lastmile_qr_scan", "ios": "https://dc.lft.to/lastmile_qr_scan"}, "lat": 38.909759, "is_disabled": 0, "lon": -77.02417866666667}, {"fusion_lat": 0.0, "type": "electric_scooter", "name": "7959d6f0c29a43a30af96b3526c1e973", "fusion_lon": 0.0, "bike_id": "7959d6f0c29a43a30af96b3526c1e973", "is_reserved": 0, "rental_uris": {"android": "https://dc.lft.to/lastmile_qr_scan", "ios": "https://dc.lft.to/lastmile_qr_scan"}, "lat": 38.933919333333336, "is_disabled": 0, "lon": -77.02353466666666}, {"fusion_lat": 0.0, "type": "electric_scooter", "name": "2ea626c7a72f247e499015eef063ef46", "fusion_lon": 0.0, "bike_id": "2ea626c7a72f247e499015eef063ef46", "is_reserved": 0, "rental_uris": {"android": "https://dc.lft.to/lastmile_qr_scan", "ios": "https://dc.lft.to/lastmile_qr_scan"}, "lat": 38.868810833333335, "is_disabled": 0, "lon": -76.98231633333333}, {"fusion_lat": 0.0, "type": "electric_bike", "name": "1b073d5c7595ef32522a7fcf654ba2f8", "fusion_lon": 0.0, "bike_id": "1b073d5c7595ef32522a7fcf654ba2f8", "is_reserved": 0, "rental_uris": {"android": "https://dc.lft.to/lastmile_qr_scan", "ios": "https://dc.lft.to/lastmile_qr_scan"}, "lat": 38.94566416666667, "is_disabled": 0, "lon": -76.96684866666666}, {"fusion_lat": 0.0, "type": "electric_scooter", "name": "a12316e39dbd104757ba27ba8a6253e1", "fusion_lon": 0.0, "bike_id": "a12316e39dbd104757ba27ba8a6253e1", "is_reserved": 0, "rental_uris": {"android": "https://dc.lft.to/lastmile_qr_scan", "ios": "https://dc.lft.to/lastmile_qr_scan"}, "lat": 38.898545, "is_disabled": 0, "lon": -76.930597}, {"fusion_lat": 0.0, "type": "electric_scooter", "name": "b1887d63c901e34dde48f0a4b2eebd78", "fusion_lon": 0.0, "bike_id": "b1887d63c901e34dde48f0a4b2eebd78", "is_reserved": 0, "rental_uris": {"android": "https://dc.lft.to/lastmile_qr_scan", "ios": "https://dc.lft.to/lastmile_qr_scan"}, "lat": 38.9239985, "is_disabled": 0, "lon": -77.0355475}, {"fusion_lat": 0.0, "type": "electric_scooter", "name": "2c781b67c863de926bc8021907c60988", "fusion_lon": 0.0, "bike_id": "2c781b67c863de926bc8021907c60988", "is_reserved": 0, "rental_uris": {"android": "https://dc.lft.to/lastmile_qr_scan", "ios": "https://dc.lft.to/lastmile_qr_scan"}, "lat": 38.90964483333333, "is_disabled": 0, "lon": -77.0320935}, {"fusion_lat": 0.0, "type": "electric_scooter", "name": "8aaca9d6656c0bdd7b0e1607a1741254", "fusion_lon": 0.0, "bike_id": "8aaca9d6656c0bdd7b0e1607a1741254", "is_reserved": 0, "rental_uris": {"android": "https://dc.lft.to/lastmile_qr_scan", "ios": "https://dc.lft.to/lastmile_qr_scan"}, "lat": 38.89225966666667, "is_disabled": 0, "lon": -77.0136965}, {"fusion_lat": 0.0, "type": "electric_scooter", "name": "b8a6913ed15e74eab6860196c159ca03", "fusion_lon": 0.0, "bike_id": "b8a6913ed15e74eab6860196c159ca03", "is_reserved": 0, "rental_uris": {"android": "https://dc.lft.to/lastmile_qr_scan", "ios": "https://dc.lft.to/lastmile_qr_scan"}, "lat": 38.900809, "is_disabled": 0, "lon": -77.00197983333334}, {"fusion_lat": 0.0, "type": "electric_scooter", "name": "f8c1edc9f1e22e4e38eb19eb0a395d62", "fusion_lon": 0.0, "bike_id": "f8c1edc9f1e22e4e38eb19eb0a395d62", "is_reserved": 0, "rental_uris": {"android": "https://dc.lft.to/lastmile_qr_scan", "ios": "https://dc.lft.to/lastmile_qr_scan"}, "lat": 38.86704116666667, "is_disabled": 0, "lon": -76.98712383333333}, {"fusion_lat": 0.0, "type": "electric_bike", "name": "d15ba694f8e8610efebf91e30a91953a", "fusion_lon": 0.0, "bike_id": "d15ba694f8e8610efebf91e30a91953a", "is_reserved": 0, "rental_uris": {"android": "https://dc.lft.to/lastmile_qr_scan", "ios": "https://dc.lft.to/lastmile_qr_scan"}, "lat": 38.88875516666667, "is_disabled": 0, "lon": -77.08172416666666}, {"fusion_lat": 0.0, "type": "electric_scooter", "name": "191725ae2a11948ab4d187384fd11c7f", "fusion_lon": 0.0, "bike_id": "191725ae2a11948ab4d187384fd11c7f", "is_reserved": 0, "rental_uris": {"android": "https://dc.lft.to/lastmile_qr_scan", "ios": "https://dc.lft.to/lastmile_qr_scan"}, "lat": 38.8431285, "is_disabled": 0, "lon": -76.99937166666666}, {"fusion_lat": 0.0, "type": "electric_scooter", "name": "a8320b236eecd544a3d332c15c18e278", "fusion_lon": 0.0, "bike_id": "a8320b236eecd544a3d332c15c18e278", "is_reserved": 0, "rental_uris": {"android": "https://dc.lft.to/lastmile_qr_scan", "ios": "https://dc.lft.to/lastmile_qr_scan"}, "lat": 38.8995945, "is_disabled": 0, "lon": -77.01825566666666}, {"fusion_lat": 0.0, "type": "electric_scooter", "name": "a662f8771277d6717bd5c966d9cf3e07", "fusion_lon": 0.0, "bike_id": "a662f8771277d6717bd5c966d9cf3e07", "is_reserved": 0, "rental_uris": {"android": "https://dc.lft.to/lastmile_qr_scan", "ios": "https://dc.lft.to/lastmile_qr_scan"}, "lat": 38.89227283333334, "is_disabled": 0, "lon": -77.04333966666667}, {"fusion_lat": 0.0, "type": "electric_scooter", "name": "652737b5e96685bdd1ad0aed7bfdcfaa", "fusion_lon": 0.0, "bike_id": "652737b5e96685bdd1ad0aed7bfdcfaa", "is_reserved": 0, "rental_uris": {"android": "https://dc.lft.to/lastmile_qr_scan", "ios": "https://dc.lft.to/lastmile_qr_scan"}, "lat": 38.934640333333334, "is_disabled": 0, "lon": -77.02771616666666}, {"fusion_lat": 0.0, "type": "electric_scooter", "name": "3435433ca44f4c4ae5f4676735e0a2f6", "fusion_lon": 0.0, "bike_id": "3435433ca44f4c4ae5f4676735e0a2f6", "is_reserved": 0, "rental_uris": {"android": "https://dc.lft.to/lastmile_qr_scan", "ios": "https://dc.lft.to/lastmile_qr_scan"}, "lat": 38.926652, "is_disabled": 0, "lon": -77.02327666666666}, {"fusion_lat": 0.0, "type": "electric_bike", "name": "985378bf141d3e7e235dd5c43145b0ec", "fusion_lon": 0.0, "bike_id": "985378bf141d3e7e235dd5c43145b0ec", "is_reserved": 0, "rental_uris": {"android": "https://dc.lft.to/lastmile_qr_scan", "ios": "https://dc.lft.to/lastmile_qr_scan"}, "lat": 38.90334466666667, "is_disabled": 0, "lon": -76.97535016666667}, {"fusion_lat": 0.0, "type": "electric_scooter", "name": "027b1c4e05d7971f21e9cf08bece78f0", "fusion_lon": 0.0, "bike_id": "027b1c4e05d7971f21e9cf08bece78f0", "is_reserved": 0, "rental_uris": {"android": "https://dc.lft.to/lastmile_qr_scan", "ios": "https://dc.lft.to/lastmile_qr_scan"}, "lat": 38.870449666666666, "is_disabled": 0, "lon": -77.00968083333333}, {"fusion_lat": 0.0, "type": "electric_scooter", "name": "fd11673df5757295d029da0a7ff276f8", "fusion_lon": 0.0, "bike_id": "fd11673df5757295d029da0a7ff276f8", "is_reserved": 0, "rental_uris": {"android": "https://dc.lft.to/lastmile_qr_scan", "ios": "https://dc.lft.to/lastmile_qr_scan"}, "lat": 38.909045666666664, "is_disabled": 0, "lon": -77.00471683333333}, {"fusion_lat": 0.0, "type": "electric_scooter", "name": "1b30db81a2a84a6365c83ecdef1d346d", "fusion_lon": 0.0, "bike_id": "1b30db81a2a84a6365c83ecdef1d346d", "is_reserved": 0, "rental_uris": {"android": "https://dc.lft.to/lastmile_qr_scan", "ios": "https://dc.lft.to/lastmile_qr_scan"}, "lat": 38.91707783333333, "is_disabled": 0, "lon": -77.04167933333333}, {"fusion_lat": 0.0, "type": "electric_scooter", "name": "0f3786fb7524ed3235c6e1542c5647c4", "fusion_lon": 0.0, "bike_id": "0f3786fb7524ed3235c6e1542c5647c4", "is_reserved": 0, "rental_uris": {"android": "https://dc.lft.to/lastmile_qr_scan", "ios": "https://dc.lft.to/lastmile_qr_scan"}, "lat": 38.930803, "is_disabled": 0, "lon": -77.03479516666667}, {"fusion_lat": 0.0, "type": "electric_scooter", "name": "9c5c7920579ef410d6b4f300dd734cf8", "fusion_lon": 0.0, "bike_id": "9c5c7920579ef410d6b4f300dd734cf8", "is_reserved": 0, "rental_uris": {"android": "https://dc.lft.to/lastmile_qr_scan", "ios": "https://dc.lft.to/lastmile_qr_scan"}, "lat": 38.92155183333333, "is_disabled": 0, "lon": -77.03505033333333}, {"fusion_lat": 0.0, "type": "electric_scooter", "name": "3bed49a6c7e6703f4a00fa21ed9f9f05", "fusion_lon": 0.0, "bike_id": "3bed49a6c7e6703f4a00fa21ed9f9f05", "is_reserved": 0, "rental_uris": {"android": "https://dc.lft.to/lastmile_qr_scan", "ios": "https://dc.lft.to/lastmile_qr_scan"}, "lat": 38.952068, "is_disabled": 0, "lon": -77.02725116666667}, {"fusion_lat": 0.0, "type": "electric_scooter", "name": "f5b26c4f5e02b5f9cb0c6265204ba844", "fusion_lon": 0.0, "bike_id": "f5b26c4f5e02b5f9cb0c6265204ba844", "is_reserved": 0, "rental_uris": {"android": "https://dc.lft.to/lastmile_qr_scan", "ios": "https://dc.lft.to/lastmile_qr_scan"}, "lat": 38.86418966666667, "is_disabled": 0, "lon": -76.99134033333333}, {"fusion_lat": 0.0, "type": "electric_scooter", "name": "463812059f76435afdbed6063e356497", "fusion_lon": 0.0, "bike_id": "463812059f76435afdbed6063e356497", "is_reserved": 0, "rental_uris": {"android": "https://dc.lft.to/lastmile_qr_scan", "ios": "https://dc.lft.to/lastmile_qr_scan"}, "lat": 38.91067133333333, "is_disabled": 0, "lon": -77.05384383333333}, {"fusion_lat": 0.0, "type": "electric_bike", "name": "678e05646f2b9d57f8ee5d8b605a4ada", "fusion_lon": 0.0, "bike_id": "678e05646f2b9d57f8ee5d8b605a4ada", "is_reserved": 0, "rental_uris": {"android": "https://dc.lft.to/lastmile_qr_scan", "ios": "https://dc.lft.to/lastmile_qr_scan"}, "lat": 38.9651365, "is_disabled": 0, "lon": -77.02822883333333}, {"fusion_lat": 0.0, "type": "electric_scooter", "name": "af6a0dc0953c3eb260fcd241026f0ba2", "fusion_lon": 0.0, "bike_id": "af6a0dc0953c3eb260fcd241026f0ba2", "is_reserved": 0, "rental_uris": {"android": "https://dc.lft.to/lastmile_qr_scan", "ios": "https://dc.lft.to/lastmile_qr_scan"}, "lat": 38.892218, "is_disabled": 0, "lon": -77.031628}, {"fusion_lat": 0.0, "type": "electric_scooter", "name": "f7e5d8b92ffce12d19477cb5a826d111", "fusion_lon": 0.0, "bike_id": "f7e5d8b92ffce12d19477cb5a826d111", "is_reserved": 0, "rental_uris": {"android": "https://dc.lft.to/lastmile_qr_scan", "ios": "https://dc.lft.to/lastmile_qr_scan"}, "lat": 38.9377585, "is_disabled": 0, "lon": -77.03260716666666}, {"fusion_lat": 0.0, "type": "electric_scooter", "name": "6853d6c2ce4ad6455aebf3246e8ec86f", "fusion_lon": 0.0, "bike_id": "6853d6c2ce4ad6455aebf3246e8ec86f", "is_reserved": 0, "rental_uris": {"android": "https://dc.lft.to/lastmile_qr_scan", "ios": "https://dc.lft.to/lastmile_qr_scan"}, "lat": 38.92417433333333, "is_disabled": 0, "lon": -77.02302066666667}, {"fusion_lat": 0.0, "type": "electric_scooter", "name": "d329655f5775b66e973e8ca58047b053", "fusion_lon": 0.0, "bike_id": "d329655f5775b66e973e8ca58047b053", "is_reserved": 0, "rental_uris": {"android": "https://dc.lft.to/lastmile_qr_scan", "ios": "https://dc.lft.to/lastmile_qr_scan"}, "lat": 38.887388, "is_disabled": 0, "lon": -77.02578366666667}, {"fusion_lat": 0.0, "type": "electric_scooter", "name": "b5b889780d54c7e5cb6125b73ca02369", "fusion_lon": 0.0, "bike_id": "b5b889780d54c7e5cb6125b73ca02369", "is_reserved": 0, "rental_uris": {"android": "https://dc.lft.to/lastmile_qr_scan", "ios": "https://dc.lft.to/lastmile_qr_scan"}, "lat": 38.89228416666667, "is_disabled": 0, "lon": -77.04337416666667}, {"fusion_lat": 0.0, "type": "electric_scooter", "name": "e7986b37a1c1bfb40214cf251c75a702", "fusion_lon": 0.0, "bike_id": "e7986b37a1c1bfb40214cf251c75a702", "is_reserved": 0, "rental_uris": {"android": "https://dc.lft.to/lastmile_qr_scan", "ios": "https://dc.lft.to/lastmile_qr_scan"}, "lat": 38.90977983333333, "is_disabled": 0, "lon": -77.03473533333333}, {"fusion_lat": 0.0, "type": "electric_scooter", "name": "a58275ad4c0f232cb8dbb56945ecee4b", "fusion_lon": 0.0, "bike_id": "a58275ad4c0f232cb8dbb56945ecee4b", "is_reserved": 0, "rental_uris": {"android": "https://dc.lft.to/lastmile_qr_scan", "ios": "https://dc.lft.to/lastmile_qr_scan"}, "lat": 38.923824333333336, "is_disabled": 0, "lon": -77.0309825}, {"fusion_lat": 0.0, "type": "electric_scooter", "name": "480847dce6bbd8c423ddb0bee3f81ec4", "fusion_lon": 0.0, "bike_id": "480847dce6bbd8c423ddb0bee3f81ec4", "is_reserved": 0, "rental_uris": {"android": "https://dc.lft.to/lastmile_qr_scan", "ios": "https://dc.lft.to/lastmile_qr_scan"}, "lat": 38.914814166666666, "is_disabled": 0, "lon": -77.025784}, {"fusion_lat": 0.0, "type": "electric_bike", "name": "8397cfbf1437620e3a89f4bc24851efe", "fusion_lon": 0.0, "bike_id": "8397cfbf1437620e3a89f4bc24851efe", "is_reserved": 0, "rental_uris": {"android": "https://dc.lft.to/lastmile_qr_scan", "ios": "https://dc.lft.to/lastmile_qr_scan"}, "lat": 38.97396366666667, "is_disabled": 0, "lon": -77.06454866666667}, {"fusion_lat": 0.0, "type": "electric_scooter", "name": "1b8df373c0e428e1d3853cd4840fb12b", "fusion_lon": 0.0, "bike_id": "1b8df373c0e428e1d3853cd4840fb12b", "is_reserved": 0, "rental_uris": {"android": "https://dc.lft.to/lastmile_qr_scan", "ios": "https://dc.lft.to/lastmile_qr_scan"}, "lat": 38.898888666666664, "is_disabled": 0, "lon": -77.05300266666667}, {"fusion_lat": 0.0, "type": "electric_scooter", "name": "b7953d0d09d04127554edbd430811ffa", "fusion_lon": 0.0, "bike_id": "b7953d0d09d04127554edbd430811ffa", "is_reserved": 0, "rental_uris": {"android": "https://dc.lft.to/lastmile_qr_scan", "ios": "https://dc.lft.to/lastmile_qr_scan"}, "lat": 38.89846466666667, "is_disabled": 0, "lon": -76.94642016666667}, {"fusion_lat": 0.0, "type": "electric_scooter", "name": "3029abbb32c2180d225fe6f1419b55d9", "fusion_lon": 0.0, "bike_id": "3029abbb32c2180d225fe6f1419b55d9", "is_reserved": 0, "rental_uris": {"android": "https://dc.lft.to/lastmile_qr_scan", "ios": "https://dc.lft.to/lastmile_qr_scan"}, "lat": 38.88920666666667, "is_disabled": 0, "lon": -76.99134916666667}, {"fusion_lat": 0.0, "type": "electric_scooter", "name": "1f8091f0f1eab382c9079b1cbfbddb9e", "fusion_lon": 0.0, "bike_id": "1f8091f0f1eab382c9079b1cbfbddb9e", "is_reserved": 0, "rental_uris": {"android": "https://dc.lft.to/lastmile_qr_scan", "ios": "https://dc.lft.to/lastmile_qr_scan"}, "lat": 38.92362716666667, "is_disabled": 0, "lon": -77.050655}, {"fusion_lat": 0.0, "type": "electric_scooter", "name": "0481849e41009758898b1ab770d7cc95", "fusion_lon": 0.0, "bike_id": "0481849e41009758898b1ab770d7cc95", "is_reserved": 0, "rental_uris": {"android": "https://dc.lft.to/lastmile_qr_scan", "ios": "https://dc.lft.to/lastmile_qr_scan"}, "lat": 38.9283385, "is_disabled": 0, "lon": -77.01409}, {"fusion_lat": 0.0, "type": "electric_scooter", "name": "fccac1cc37ef7db688435707b422e011", "fusion_lon": 0.0, "bike_id": "fccac1cc37ef7db688435707b422e011", "is_reserved": 0, "rental_uris": {"android": "https://dc.lft.to/lastmile_qr_scan", "ios": "https://dc.lft.to/lastmile_qr_scan"}, "lat": 38.9175485, "is_disabled": 0, "lon": -77.0149915}, {"fusion_lat": 0.0, "type": "electric_scooter", "name": "c083266c7a017ec865a885ef3b23da4a", "fusion_lon": 0.0, "bike_id": "c083266c7a017ec865a885ef3b23da4a", "is_reserved": 0, "rental_uris": {"android": "https://dc.lft.to/lastmile_qr_scan", "ios": "https://dc.lft.to/lastmile_qr_scan"}, "lat": 38.92681733333333, "is_disabled": 0, "lon": -77.02859366666667}, {"fusion_lat": 0.0, "type": "electric_scooter", "name": "aab422b432750cd5fab0c6392e9514ef", "fusion_lon": 0.0, "bike_id": "aab422b432750cd5fab0c6392e9514ef", "is_reserved": 0, "rental_uris": {"android": "https://dc.lft.to/lastmile_qr_scan", "ios": "https://dc.lft.to/lastmile_qr_scan"}, "lat": 38.90875466666667, "is_disabled": 0, "lon": -77.04340716666667}, {"fusion_lat": 0.0, "type": "electric_scooter", "name": "b0883e3674227820124dc47656a0c8eb", "fusion_lon": 0.0, "bike_id": "b0883e3674227820124dc47656a0c8eb", "is_reserved": 0, "rental_uris": {"android": "https://dc.lft.to/lastmile_qr_scan", "ios": "https://dc.lft.to/lastmile_qr_scan"}, "lat": 38.93442366666667, "is_disabled": 0, "lon": -77.03654416666667}, {"fusion_lat": 0.0, "type": "electric_scooter", "name": "ad3b42a4f60c3684186fc236da9f7d4a", "fusion_lon": 0.0, "bike_id": "ad3b42a4f60c3684186fc236da9f7d4a", "is_reserved": 0, "rental_uris": {"android": "https://dc.lft.to/lastmile_qr_scan", "ios": "https://dc.lft.to/lastmile_qr_scan"}, "lat": 38.936089, "is_disabled": 0, "lon": -77.05890983333333}, {"fusion_lat": 0.0, "type": "electric_scooter", "name": "bdf67386fd125daff4b094a6ac793fb3", "fusion_lon": 0.0, "bike_id": "bdf67386fd125daff4b094a6ac793fb3", "is_reserved": 0, "rental_uris": {"android": "https://dc.lft.to/lastmile_qr_scan", "ios": "https://dc.lft.to/lastmile_qr_scan"}, "lat": 38.908118333333334, "is_disabled": 0, "lon": -76.98734566666667}, {"fusion_lat": 0.0, "type": "electric_scooter", "name": "f6d7dc11c8ecc6c58edc87e11a8b8be8", "fusion_lon": 0.0, "bike_id": "f6d7dc11c8ecc6c58edc87e11a8b8be8", "is_reserved": 0, "rental_uris": {"android": "https://dc.lft.to/lastmile_qr_scan", "ios": "https://dc.lft.to/lastmile_qr_scan"}, "lat": 38.89958766666667, "is_disabled": 0, "lon": -77.0421225}, {"fusion_lat": 0.0, "type": "electric_scooter", "name": "714de913c058bfcbdb445db596c37adb", "fusion_lon": 0.0, "bike_id": "714de913c058bfcbdb445db596c37adb", "is_reserved": 0, "rental_uris": {"android": "https://dc.lft.to/lastmile_qr_scan", "ios": "https://dc.lft.to/lastmile_qr_scan"}, "lat": 38.905167, "is_disabled": 0, "lon": -77.05331516666666}, {"fusion_lat": 0.0, "type": "electric_scooter", "name": "2b79a287390c20b32e970efb4d308ac1", "fusion_lon": 0.0, "bike_id": "2b79a287390c20b32e970efb4d308ac1", "is_reserved": 0, "rental_uris": {"android": "https://dc.lft.to/lastmile_qr_scan", "ios": "https://dc.lft.to/lastmile_qr_scan"}, "lat": 38.939871, "is_disabled": 0, "lon": -77.0301265}, {"fusion_lat": 0.0, "type": "electric_scooter", "name": "44ba875fe136a10b0d1ab423a472480a", "fusion_lon": 0.0, "bike_id": "44ba875fe136a10b0d1ab423a472480a", "is_reserved": 0, "rental_uris": {"android": "https://dc.lft.to/lastmile_qr_scan", "ios": "https://dc.lft.to/lastmile_qr_scan"}, "lat": 38.923743, "is_disabled": 0, "lon": -77.02798616666666}, {"fusion_lat": 0.0, "type": "electric_scooter", "name": "68c979479d7061bde1c5dedc2261f75e", "fusion_lon": 0.0, "bike_id": "68c979479d7061bde1c5dedc2261f75e", "is_reserved": 0, "rental_uris": {"android": "https://dc.lft.to/lastmile_qr_scan", "ios": "https://dc.lft.to/lastmile_qr_scan"}, "lat": 38.90014083333333, "is_disabled": 0, "lon": -76.993038}, {"fusion_lat": 0.0, "type": "electric_scooter", "name": "e3259a031887aef1a11fc46c1c3dd0ab", "fusion_lon": 0.0, "bike_id": "e3259a031887aef1a11fc46c1c3dd0ab", "is_reserved": 0, "rental_uris": {"android": "https://dc.lft.to/lastmile_qr_scan", "ios": "https://dc.lft.to/lastmile_qr_scan"}, "lat": 38.93712583333333, "is_disabled": 0, "lon": -77.06097883333334}, {"fusion_lat": 0.0, "type": "electric_scooter", "name": "f287c155b50ef7e5ae2da1b66a86bc20", "fusion_lon": 0.0, "bike_id": "f287c155b50ef7e5ae2da1b66a86bc20", "is_reserved": 0, "rental_uris": {"android": "https://dc.lft.to/lastmile_qr_scan", "ios": "https://dc.lft.to/lastmile_qr_scan"}, "lat": 38.897386833333336, "is_disabled": 0, "lon": -77.01310166666667}, {"fusion_lat": 0.0, "type": "electric_scooter", "name": "5ca98bf76c33f4845aa95990b72e5202", "fusion_lon": 0.0, "bike_id": "5ca98bf76c33f4845aa95990b72e5202", "is_reserved": 0, "rental_uris": {"android": "https://dc.lft.to/lastmile_qr_scan", "ios": "https://dc.lft.to/lastmile_qr_scan"}, "lat": 38.888261666666665, "is_disabled": 0, "lon": -76.9936825}, {"fusion_lat": 0.0, "type": "electric_scooter", "name": "7d47696d0f544a135843c267c2b012e5", "fusion_lon": 0.0, "bike_id": "7d47696d0f544a135843c267c2b012e5", "is_reserved": 0, "rental_uris": {"android": "https://dc.lft.to/lastmile_qr_scan", "ios": "https://dc.lft.to/lastmile_qr_scan"}, "lat": 38.86686133333333, "is_disabled": 0, "lon": -76.98598716666666}, {"fusion_lat": 0.0, "type": "electric_bike", "name": "63d9829b8d9936a44ff246d915670424", "fusion_lon": 0.0, "bike_id": "63d9829b8d9936a44ff246d915670424", "is_reserved": 0, "rental_uris": {"android": "https://dc.lft.to/lastmile_qr_scan", "ios": "https://dc.lft.to/lastmile_qr_scan"}, "lat": 38.9623225, "is_disabled": 0, "lon": -77.02629783333333}, {"fusion_lat": 0.0, "type": "electric_scooter", "name": "bf45031f5408b13bee290935112ee3e8", "fusion_lon": 0.0, "bike_id": "bf45031f5408b13bee290935112ee3e8", "is_reserved": 0, "rental_uris": {"android": "https://dc.lft.to/lastmile_qr_scan", "ios": "https://dc.lft.to/lastmile_qr_scan"}, "lat": 38.908574, "is_disabled": 0, "lon": -77.04273166666667}, {"fusion_lat": 0.0, "type": "electric_scooter", "name": "7eb8a4a464dc8b17d6b251b8b12b66eb", "fusion_lon": 0.0, "bike_id": "7eb8a4a464dc8b17d6b251b8b12b66eb", "is_reserved": 0, "rental_uris": {"android": "https://dc.lft.to/lastmile_qr_scan", "ios": "https://dc.lft.to/lastmile_qr_scan"}, "lat": 38.927495666666665, "is_disabled": 0, "lon": -77.02538033333333}, {"fusion_lat": 0.0, "type": "electric_scooter", "name": "85503c1cec576dfd1a9a58b870a51dd5", "fusion_lon": 0.0, "bike_id": "85503c1cec576dfd1a9a58b870a51dd5", "is_reserved": 0, "rental_uris": {"android": "https://dc.lft.to/lastmile_qr_scan", "ios": "https://dc.lft.to/lastmile_qr_scan"}, "lat": 38.90564, "is_disabled": 0, "lon": -76.98382083333334}, {"fusion_lat": 0.0, "type": "electric_scooter", "name": "299adf9ab754138a6da0389fafe86e7b", "fusion_lon": 0.0, "bike_id": "299adf9ab754138a6da0389fafe86e7b", "is_reserved": 0, "rental_uris": {"android": "https://dc.lft.to/lastmile_qr_scan", "ios": "https://dc.lft.to/lastmile_qr_scan"}, "lat": 38.9182815, "is_disabled": 0, "lon": -77.0394615}, {"fusion_lat": 0.0, "type": "electric_scooter", "name": "e81e6ba420d611237b466c4a9da84d94", "fusion_lon": 0.0, "bike_id": "e81e6ba420d611237b466c4a9da84d94", "is_reserved": 0, "rental_uris": {"android": "https://dc.lft.to/lastmile_qr_scan", "ios": "https://dc.lft.to/lastmile_qr_scan"}, "lat": 38.925938333333335, "is_disabled": 0, "lon": -77.03757283333333}, {"fusion_lat": 0.0, "type": "electric_scooter", "name": "fc8113bbcdab128a90f8877e87ae0327", "fusion_lon": 0.0, "bike_id": "fc8113bbcdab128a90f8877e87ae0327", "is_reserved": 0, "rental_uris": {"android": "https://dc.lft.to/lastmile_qr_scan", "ios": "https://dc.lft.to/lastmile_qr_scan"}, "lat": 38.940718833333335, "is_disabled": 0, "lon": -77.011526}, {"fusion_lat": 0.0, "type": "electric_bike", "name": "3fef143e971d5ccf0d1ff74241850211", "fusion_lon": 0.0, "bike_id": "3fef143e971d5ccf0d1ff74241850211", "is_reserved": 0, "rental_uris": {"android": "https://dc.lft.to/lastmile_qr_scan", "ios": "https://dc.lft.to/lastmile_qr_scan"}, "lat": 38.827903666666664, "is_disabled": 0, "lon": -77.0091685}, {"fusion_lat": 0.0, "type": "electric_scooter", "name": "8da8c6e12fe52ae90a222289cd4a01c9", "fusion_lon": 0.0, "bike_id": "8da8c6e12fe52ae90a222289cd4a01c9", "is_reserved": 0, "rental_uris": {"android": "https://dc.lft.to/lastmile_qr_scan", "ios": "https://dc.lft.to/lastmile_qr_scan"}, "lat": 38.877640166666666, "is_disabled": 0, "lon": -77.01779016666667}, {"fusion_lat": 0.0, "type": "electric_scooter", "name": "4a75cec5fc8e88d139897b75f03204e9", "fusion_lon": 0.0, "bike_id": "4a75cec5fc8e88d139897b75f03204e9", "is_reserved": 0, "rental_uris": {"android": "https://dc.lft.to/lastmile_qr_scan", "ios": "https://dc.lft.to/lastmile_qr_scan"}, "lat": 38.913643666666665, "is_disabled": 0, "lon": -77.03845833333334}, {"fusion_lat": 0.0, "type": "electric_scooter", "name": "82c71055e6a48b3737528a64bbd3acb3", "fusion_lon": 0.0, "bike_id": "82c71055e6a48b3737528a64bbd3acb3", "is_reserved": 0, "rental_uris": {"android": "https://dc.lft.to/lastmile_qr_scan", "ios": "https://dc.lft.to/lastmile_qr_scan"}, "lat": 38.923641, "is_disabled": 0, "lon": -77.050461}, {"fusion_lat": 0.0, "type": "electric_scooter", "name": "60532909e98dbd0d45b008dd3d4f18e7", "fusion_lon": 0.0, "bike_id": "60532909e98dbd0d45b008dd3d4f18e7", "is_reserved": 0, "rental_uris": {"android": "https://dc.lft.to/lastmile_qr_scan", "ios": "https://dc.lft.to/lastmile_qr_scan"}, "lat": 38.9280195, "is_disabled": 0, "lon": -77.043569}, {"fusion_lat": 0.0, "type": "electric_scooter", "name": "35387740af983edb5d568942db6a01e5", "fusion_lon": 0.0, "bike_id": "35387740af983edb5d568942db6a01e5", "is_reserved": 0, "rental_uris": {"android": "https://dc.lft.to/lastmile_qr_scan", "ios": "https://dc.lft.to/lastmile_qr_scan"}, "lat": 38.892315333333336, "is_disabled": 0, "lon": -77.04367466666666}, {"fusion_lat": 0.0, "type": "electric_bike", "name": "276dc64e41b184da486176da67c9c668", "fusion_lon": 0.0, "bike_id": "276dc64e41b184da486176da67c9c668", "is_reserved": 0, "rental_uris": {"android": "https://dc.lft.to/lastmile_qr_scan", "ios": "https://dc.lft.to/lastmile_qr_scan"}, "lat": 38.8662255, "is_disabled": 0, "lon": -76.94570583333334}, {"fusion_lat": 0.0, "type": "electric_scooter", "name": "b171741c267d3d7e1b173e942f276f4b", "fusion_lon": 0.0, "bike_id": "b171741c267d3d7e1b173e942f276f4b", "is_reserved": 0, "rental_uris": {"android": "https://dc.lft.to/lastmile_qr_scan", "ios": "https://dc.lft.to/lastmile_qr_scan"}, "lat": 38.90872133333333, "is_disabled": 0, "lon": -77.0859415}, {"fusion_lat": 0.0, "type": "electric_scooter", "name": "18dde469c7c1ce92a58999cf6702b5e5", "fusion_lon": 0.0, "bike_id": "18dde469c7c1ce92a58999cf6702b5e5", "is_reserved": 0, "rental_uris": {"android": "https://dc.lft.to/lastmile_qr_scan", "ios": "https://dc.lft.to/lastmile_qr_scan"}, "lat": 38.92049816666667, "is_disabled": 0, "lon": -77.03393033333333},