{"data": {"bikes": [{"type": "electric_scooter", "bike_id": "70109ca93de691ad14907d3932bd3a66", "is_disabled": 0, "name": "70109ca93de691ad14907d3932bd3a66", "lon": -76.98376433333334, "is_reserved": 0, "fusion_lon": 0.0, "lat": 38.892624166666664, "rental_uris": {"android": "https://dc.lft.to/lastmile_qr_scan", "ios": "https://dc.lft.to/lastmile_qr_scan"}, "fusion_lat": 0.0}, {"type": "electric_scooter", "bike_id": "543e8dfbeb36f23347e14410d422c86d", "is_disabled": 0, "name": "543e8dfbeb36f23347e14410d422c86d", "lon": -76.99020183333333, "is_reserved": 0, "fusion_lon": 0.0, "lat": 38.88268633333333, "rental_uris": {"android": "https://dc.lft.to/lastmile_qr_scan", "ios": "https://dc.lft.to/lastmile_qr_scan"}, "fusion_lat": 0.0}, {"type": "electric_scooter", "bike_id": "3a133fd7fb7d64650b41ccb8abbbbf37", "is_disabled": 0, "name": "3a133fd7fb7d64650b41ccb8abbbbf37", "lon": -76.92901783333333, "is_reserved": 0, "fusion_lon": 0.0, "lat": 38.87945216666667, "rental_uris": {"android": "https://dc.lft.to/lastmile_qr_scan", "ios": "https://dc.lft.to/lastmile_qr_scan"}, "fusion_lat": 0.0}, {"type": "electric_scooter", "bike_id": "d6817c1d70ec41143cae31ca7bc201d2", "is_disabled": 0, "name": "d6817c1d70ec41143cae31ca7bc201d2", "lon": -77.06366033333333, "is_reserved": 0, "fusion_lon": 0.0, "lat": 38.92019716666667, "rental_uris": {"android": "https://dc.lft.to/lastmile_qr_scan", "ios": "https://dc.lft.to/lastmile_qr_scan"}, "fusion_lat": 0.0}, {"type": "electric_scooter", "bike_id": "b80aad31b90164f94a3d92014dbe1cf5", "is_disabled": 0, "name": "b80aad31b90164f94a3d92014dbe1cf5", "lon": -77.04516016666666, "is_reserved": 0, "fusion_lon": 0.0, "lat": 38.8996125, "rental_uris": {"android": "https://dc.lft.to/lastmile_qr_scan", "ios": "https://dc.lft.to/lastmile_qr_scan"}, "fusion_lat": 0.0}, {"type": "electric_scooter", "bike_id": "c36f13ff9f53bc17bf8661bfaebee5b1", "is_disabled": 0, "name": "c36f13ff9f53bc17bf8661bfaebee5b1", "lon": -76.998448, "is_reserved": 0, "fusion_lon": 0.0, "lat": 38.900568166666666, "rental_uris": {"android": "https://dc.lft.to/lastmile_qr_scan", "ios": "https://dc.lft.to/lastmile_qr_scan"}, "fusion_lat": 0.0}, {"type": "electric_scooter", "bike_id": "eb3eb952c6934bd7789a09f60a1cd1c6", "is_disabled": 0, "name": "eb3eb952c6934bd7789a09f60a1cd1c6", "lon": -77.03955433333333, "is_reserved": 0, "fusion_lon": 0.0, "lat": 38.8985345, "rental_uris": {"android": "https://dc.lft.to/lastmile_qr_scan", "ios": "https://dc.lft.to/lastmile_qr_scan"}, "fusion_lat": 0.0}, {"type": "electric_scooter", "bike_id": "e884a53ddf98d47aa425cd3601f5f9fe", "is_disabled": 0, "name": "e884a53ddf98d47aa425cd3601f5f9fe", "lon": -77.02352, "is_reserved": 0, "fusion_lon": 0.0, "lat": 38.941972166666666, "rental_uris": {"android": "https://dc.lft.to/lastmile_qr_scan", "ios": "https://dc.lft.to/lastmile_qr_scan"}, "fusion_lat": 0.0}, {"type": "electric_bike", "bike_id": "91afa0a7df38ceff5e6a34e011d16748", "is_disabled": 0, "name": "91afa0a7df38ceff5e6a34e011d16748", "lon": -76.96058283333333, "is_reserved": 0, "fusion_lon": 0.0, "lat": 38.884036333333334, "rental_uris": {"android": "https://dc.lft.to/lastmile_qr_scan", "ios": "https://dc.lft.to/lastmile_qr_scan"}, "fusion_lat": 0.0}, {"type": "electric_scooter", "bike_id": "38c2150ce94271ca0b64c68aa5709364", "is_disabled": 0, "name": "38c2150ce94271ca0b64c68aa5709364", "lon": -77.04213783333333, "is_reserved": 0, "fusion_lon": 0.0, "lat": 38.90926666666667, "rental_uris": {"android": "https://dc.lft.to/lastmile_qr_scan", "ios": "https://dc.lft.to/lastmile_qr_scan"}, "fusion_lat": 0.0}, {"type": "electric_scooter", "bike_id": "9ba274241604b2f35a0c5b2cffae0926", "is_disabled": 0, "name": "9ba274241604b2f35a0c5b2cffae0926", "lon": -76.99841516666666, "is_reserved": 0, "fusion_lon": 0.0, "lat": 38.900784333333334, "rental_uris": {"android": "https://dc.lft.to/lastmile_qr_scan", "ios": "https://dc.lft.to/lastmile_qr_scan"}, "fusion_lat": 0.0}, {"type": "electric_scooter", "bike_id": "03accf3860b18586a0351e9e7d8de9df", "is_disabled": 0, "name": "03accf3860b18586a0351e9e7d8de9df", "lon": -77.06617816666666, "is_reserved": 0, "fusion_lon": 0.0, "lat": 38.913656, "rental_uris": {"android": "https://dc.lft.to/lastmile_qr_scan", "ios": "https://dc.lft.to/lastmile_qr_scan"}, "fusion_lat": 0.0}, {"type": "electric_bike", "bike_id": "c6cbdf55f815b82a8ff6913f1585fc60", "is_disabled": 0, "name": "c6cbdf55f815b82a8ff6913f1585fc60", "lon": -76.99381016666666, "is_reserved": 0, "fusion_lon": 0.0, "lat": 38.99092616666667, "rental_uris": {"android": "https://dc.lft.to/lastmile_qr_scan", "ios": "https://dc.lft.to/lastmile_qr_scan"}, "fusion_lat": 0.0}, {"type": "electric_scooter", "bike_id": "e36ffb47f0c2f77b4c23267138966704", "is_disabled": 0, "name": "e36ffb47f0c2f77b4c23267138966704", "lon": -77.00822316666667, "is_reserved": 0, "fusion_lon": 0.0, "lat": 38.875954666666665, "rental_uris": {"android": "https://dc.lft.to/lastmile_qr_scan", "ios": "https://dc.lft.to/lastmile_qr_scan"}, "fusion_lat": 0.0}, {"type": "electric_scooter", "bike_id": "18f8a9d12c71b91a19947df75c58c254", "is_disabled": 0, "name": "18f8a9d12c71b91a19947df75c58c254", "lon": -77.026999, "is_reserved": 0, "fusion_lon": 0.0, "lat": 38.90237, "rental_uris": {"android": "https://dc.lft.to/lastmile_qr_scan", "ios": "https://dc.lft.to/lastmile_qr_scan"}, "fusion_lat": 0.0}, {"type": "electric_scooter", "bike_id": "6591677d2f06be568439a1e10b7f2b1e", "is_disabled": 0, "name": "6591677d2f06be568439a1e10b7f2b1e", "lon": -76.99755316666666, "is_reserved": 0, "fusion_lon": 0.0, "lat": 38.92260016666667, "rental_uris": {"android": "https://dc.lft.to/lastmile_qr_scan", "ios": "https://dc.lft.to/lastmile_qr_scan"}, "fusion_lat": 0.0}, {"type": "electric_scooter", "bike_id": "2fa9f19ee84921ff66b2186ea2015c8c", "is_disabled": 0, "name": "2fa9f19ee84921ff66b2186ea2015c8c", "lon": -77.03856033333334, "is_reserved": 0, "fusion_lon": 0.0, "lat": 38.909778333333335, "rental_uris": {"android": "https://dc.lft.to/lastmile_qr_scan", "ios": "https://dc.lft.to/lastmile_qr_scan"}, "fusion_lat": 0.0}, {"type": "electric_scooter", "bike_id": "3050d8cb3c845a4a9f24c2b4ef8d50ac", "is_disabled": 0, "name": "3050d8cb3c845a4a9f24c2b4ef8d50ac", "lon": -77.01454133333333, "is_reserved": 0, "fusion_lon": 0.0, "lat": 38.874259333333335, "rental_uris": {"android": "https://dc.lft.to/lastmile_qr_scan", "ios": "https://dc.lft.to/lastmile_qr_scan"}, "fusion_lat": 0.0}, {"type": "electric_scooter", "bike_id": "5d293145b06a37075497093301870b09", "is_disabled": 0, "name": "5d293145b06a37075497093301870b09", "lon": -77.01915616666666, "is_reserved": 0, "fusion_lon": 0.0, "lat": 38.923372666666666, "rental_uris": {"android": "https://dc.lft.to/lastmile_qr_scan", "ios": "https://dc.lft.to/lastmile_qr_scan"}, "fusion_lat": 0.0}, {"type": "electric_scooter", "bike_id": "765440e6701d51e0cf736703430845e2", "is_disabled": 0, "name": "765440e6701d51e0cf736703430845e2", "lon": -76.93632233333334, "is_reserved": 0, "fusion_lon": 0.0, "lat": 38.88350416666667, "rental_uris": {"android": "https://dc.lft.to/lastmile_qr_scan", "ios": "https://dc.lft.to/lastmile_qr_scan"}, "fusion_lat": 0.0}, {"type": "electric_scooter", "bike_id": "ec20ba1e766f8d26b01aca244805a877", "is_disabled": 0, "name": "ec20ba1e766f8d26b01aca244805a877", "lon": -77.02116833333334, "is_reserved": 0, "fusion_lon": 0.0, "lat": 38.923610333333336, "rental_uris": {"android": "https://dc.lft.to/lastmile_qr_scan", "ios": "https://dc.lft.to/lastmile_qr_scan"}, "fusion_lat": 0.0}, {"type": "electric_scooter", "bike_id": "4f84f0b05bcf9ea0193bb5bcb013dcc2", "is_disabled": 0, "name": "4f84f0b05bcf9ea0193bb5bcb013dcc2", "lon": -77.02226483333334, "is_reserved": 0, "fusion_lon": 0.0, "lat": 38.91269233333333, "rental_uris": {"android": "https://dc.lft.to/lastmile_qr_scan", "ios": "https://dc.lft.to/lastmile_qr_scan"}, "fusion_lat": 0.0}, {"type": "electric_bike", "bike_id": "045cd3c8fe06296a041c83d54a004fec", "is_disabled": 0, "name": "045cd3c8fe06296a041c83d54a004fec", "lon": -76.94234416666667, "is_reserved": 0, "fusion_lon": 0.0, "lat": 38.890487666666665, "rental_uris": {"android": "https://dc.lft.to/lastmile_qr_scan", "ios": "https://dc.lft.to/lastmile_qr_scan"}, "fusion_lat": 0.0}, {"type": "electric_scooter", "bike_id": "82990a955840c319ccd958d1d78ea34f", "is_disabled": 0, "name": "82990a955840c319ccd958d1d78ea34f", "lon": -77.0418345, "is_reserved": 0, "fusion_lon": 0.0, "lat": 38.920524666666665, "rental_uris": {"android": "https://dc.lft.to/lastmile_qr_scan", "ios": "https://dc.lft.to/lastmile_qr_scan"}, "fusion_lat": 0.0}, {"type": "electric_scooter", "bike_id": "e2e231831582f31404fb57dfa91bcb2d", "is_disabled": 0, "name": "e2e231831582f31404fb57dfa91bcb2d", "lon": -77.03209016666666, "is_reserved": 0, "fusion_lon": 0.0, "lat": 38.9103605, "rental_uris": {"android": "https://dc.lft.to/lastmile_qr_scan", "ios": "https://dc.lft.to/lastmile_qr_scan"}, "fusion_lat": 0.0}, {"type": "electric_bike", "bike_id": "58d01247d06702f8d4bbfc1a8ca9e055", "is_disabled": 0, "name": "58d01247d06702f8d4bbfc1a8ca9e055", "lon": -77.06694116666667, "is_reserved": 0, "fusion_lon": 0.0, "lat": 38.83168333333333, "rental_uris": {"android": "https://dc.lft.to/lastmile_qr_scan", "ios": "https://dc.lft.to/lastmile_qr_scan"}, "fusion_lat": 0.0}, {"type": "electric_scooter", "bike_id": "6bea60c2215d2f60b02f5d111a1acccf", "is_disabled": 0, "name": "6bea60c2215d2f60b02f5d111a1acccf", "lon": -77.0228335, "is_reserved": 0, "fusion_lon": 0.0, "lat": 38.916753, "rental_uris": {"android": "https://dc.lft.to/lastmile_qr_scan", "ios": "https://dc.lft.to/lastmile_qr_scan"}, "fusion_lat": 0.0}, {"type": "electric_scooter", "bike_id": "a8005e82936f8f0a9976c9208be49db5", "is_disabled": 0, "name": "a8005e82936f8f0a9976c9208be49db5", "lon": -77.014441, "is_reserved": 0, "fusion_lon": 0.0, "lat": 38.909583, "rental_uris": {"android": "https://dc.lft.to/lastmile_qr_scan", "ios": "https://dc.lft.to/lastmile_qr_scan"}, "fusion_lat": 0.0}, {"type": "electric_scooter", "bike_id": "da0cdfa4275f67700ba7883bcf4d851f", "is_disabled": 0, "name": "da0cdfa4275f67700ba7883bcf4d851f", "lon": -76.970353, "is_reserved": 0, "fusion_lon": 0.0, "lat": 38.873173, "rental_uris": {"android": "https://dc.lft.to/lastmile_qr_scan", "ios": "https://dc.lft.to/lastmile_qr_scan"}, "fusion_lat": 0.0}, {"type": "electric_scooter", "bike_id": "ace4b5602428a24317d9082eac4a7d6e", "is_disabled": 0, "name": "ace4b5602428a24317d9082eac4a7d6e", "lon": -77.00346883333333, "is_reserved": 0, "fusion_lon": 0.0, "lat": 38.87770966666667, "rental_uris": {"android": "https://dc.lft.to/lastmile_qr_scan", "ios": "https://dc.lft.to/lastmile_qr_scan"}, "fusion_lat": 0.0}, {"type": "electric_scooter", "bike_id": "d15782accb1f541b5a937cf8638ca450", "is_disabled": 0, "name": "d15782accb1f541b5a937cf8638ca450", "lon": -77.0278555, "is_reserved": 0, "fusion_lon": 0.0, "lat": 38.9619185, "rental_uris": {"android": "https://dc.lft.to/lastmile_qr_scan", "ios": "https://dc.lft.to/lastmile_qr_scan"}, "fusion_lat": 0.0}, {"type": "electric_scooter", "bike_id": "78ecc56edbb5d6d260f49cf31b663c16", "is_disabled": 0, "name": "78ecc56edbb5d6d260f49cf31b663c16", "lon": -77.04003233333333, "is_reserved": 0, "fusion_lon": 0.0, "lat": 38.9342445, "rental_uris": {"android": "https://dc.lft.to/lastmile_qr_scan", "ios": "https://dc.lft.to/lastmile_qr_scan"}, "fusion_lat": 0.0}, {"type": "electric_scooter", "bike_id": "318b9aa187a989e6491dbbe6425a0750", "is_disabled": 0, "name": "318b9aa187a989e6491dbbe6425a0750", "lon": -77.02084433333333, "is_reserved": 0, "fusion_lon": 0.0, "lat": 38.881788, "rental_uris": {"android": "https://dc.lft.to/lastmile_qr_scan", "ios": "https://dc.lft.to/lastmile_qr_scan"}, "fusion_lat": 0.0}, {"type": "electric_scooter", "bike_id": "5c4da620949d2e3817c3a4a368996c72", "is_disabled": 0, "name": "5c4da620949d2e3817c3a4a368996c72", "lon": -77.01177466666667, "is_reserved": 0, "fusion_lon": 0.0, "lat": 38.944174, "rental_uris": {"android": "https://dc.lft.to/lastmile_qr_scan", "ios": "https://dc.lft.to/lastmile_qr_scan"}, "fusion_lat": 0.0}, {"type": "electric_bike", "bike_id": "1e2bde7b0b9eb64148211a08f06315ce", "is_disabled": 0, "name": "1e2bde7b0b9eb64148211a08f06315ce", "lon": -76.97702383333333, "is_reserved": 0, "fusion_lon": 0.0, "lat": 38.82209816666666, "rental_uris": {"android": "https://dc.lft.to/lastmile_qr_scan", "ios": "https://dc.lft.to/lastmile_qr_scan"}, "fusion_lat": 0.0}, {"type": "electric_scooter", "bike_id": "6b25cff774569df5228b0b9cd020c141", "is_disabled": 0, "name": "6b25cff774569df5228b0b9cd020c141", "lon": -77.0118095, "is_reserved": 0, "fusion_lon": 0.0, "lat": 38.9001735, "rental_uris": {"android": "https://dc.lft.to/lastmile_qr_scan", "ios": "https://dc.lft.to/lastmile_qr_scan"}, "fusion_lat": 0.0}, {"type": "electric_scooter", "bike_id": "16d7e59ea7d957dd2eecd01ae3116596", "is_disabled": 0, "name": "16d7e59ea7d957dd2eecd01ae3116596", "lon": -77.03569416666667, "is_reserved": 0, "fusion_lon": 0.0, "lat": 38.90805816666666, "rental_uris": {"android": "https://dc.lft.to/lastmile_qr_scan", "ios": "https://dc.lft.to/lastmile_qr_scan"}, "fusion_lat": 0.0}, {"type": "electric_scooter", "bike_id": "8af57fe7b25235348d23d39222f71455", "is_disabled": 0, "name": "8af57fe7b25235348d23d39222f71455", "lon": -76.99735333333334, "is_reserved": 0, "fusion_lon": 0.0, "lat": 38.92040183333334, "rental_uris": {"android": "https://dc.lft.to/lastmile_qr_scan", "ios": "https://dc.lft.to/lastmile_qr_scan"}, "fusion_lat": 0.0}, {"type": "electric_scooter", "bike_id": "9fe769537a0959141f34f1b984ae8012", "is_disabled": 0, "name": "9fe769537a0959141f34f1b984ae8012", "lon": -76.93525216666667, "is_reserved": 0, "fusion_lon": 0.0, "lat": 38.8789615, "rental_uris": {"android": "https://dc.lft.to/lastmile_qr_scan", "ios": "https://dc.lft.to/lastmile_qr_scan"}, "fusion_lat": 0.0}, {"type": "electric_scooter", "bike_id": "fbd9d5c4cb6fbdd06a07220cfce12a5f", "is_disabled": 0, "name": "fbd9d5c4cb6fbdd06a07220cfce12a5f", "lon": -77.045135, "is_reserved": 0, "fusion_lon": 0.0, "lat": 38.905424333333336, "rental_uris": {"android": "https://dc.lft.to/lastmile_qr_scan", "ios": "https://dc.lft.to/lastmile_qr_scan"}, "fusion_lat": 0.0}, {"type": "electric_scooter", "bike_id": "20555a48dd4743ac28d4be8742578a70", "is_disabled": 0, "name": "20555a48dd4743ac28d4be8742578a70", "lon": -77.023907, "is_reserved": 0, "fusion_lon": 0.0, "lat": 38.91952583333333, "rental_uris": {"android": "https://dc.lft.to/lastmile_qr_scan", "ios": "https://dc.lft.to/lastmile_qr_scan"}, "fusion_lat": 0.0}, {"type": "electric_scooter", "bike_id": "aa927b27e0f4a356bb49b22a717f364c", "is_disabled": 0, "name": "aa927b27e0f4a356bb49b22a717f364c", "lon": -77.01218433333334, "is_reserved": 0, "fusion_lon": 0.0, "lat": 38.89775683333333, "rental_uris": {"android": "https://dc.lft.to/lastmile_qr_scan", "ios": "https://dc.lft.to/lastmile_qr_scan"}, "fusion_lat": 0.0}, {"type": "electric_scooter", "bike_id": "5ba97c7da1678e32f460bacb021ba724", "is_disabled": 0, "name": "5ba97c7da1678e32f460bacb021ba724", "lon": -77.04140283333334, "is_reserved": 0, "fusion_lon": 0.0, "lat": 38.92256883333334, "rental_uris": {"android": "https://dc.lft.to/lastmile_qr_scan", "ios": "https://dc.lft.to/lastmile_qr_scan"}, "fusion_lat": 0.0}, {"type": "electric_scooter", "bike_id": "c72b4356ba65f7c8c12d70ff97ea7d84", "is_disabled": 0, "name": "c72b4356ba65f7c8c12d70ff97ea7d84", "lon": -77.0401135, "is_reserved": 0, "fusion_lon": 0.0, "lat": 38.90727166666667, "rental_uris": {"android": "https://dc.lft.to/lastmile_qr_scan", "ios": "https://dc.lft.to/lastmile_qr_scan"}, "fusion_lat": 0.0}, {"type": "electric_scooter", "bike_id": "555e8c970b46e1ac30f8205762b43863", "is_disabled": 0, "name": "555e8c970b46e1ac30f8205762b43863", "lon": -77.0284595, "is_reserved": 0, "fusion_lon": 0.0, "lat": 38.93060966666667, "rental_uris": {"android": "https://dc.lft.to/lastmile_qr_scan", "ios": "https://dc.lft.to/lastmile_qr_scan"}, "fusion_lat": 0.0}, {"type": "electric_scooter", "bike_id": "577e71f671d3984a4cd4b70ace2d2a94", "is_disabled": 0, "name": "577e71f671d3984a4cd4b70ace2d2a94", "lon": -77.02408366666667, "is_reserved": 0, "fusion_lon": 0.0, "lat": 38.9170265, "rental_uris": {"android": "https://dc.lft.to/lastmile_qr_scan", "ios": "https://dc.lft.to/lastmile_qr_scan"}, "fusion_lat": 0.0}, {"type": "electric_scooter", "bike_id": "022d3b62f159aa1a22ea26e37b46ed81", "is_disabled": 0, "name": "022d3b62f159aa1a22ea26e37b46ed81", "lon": -77.04236483333334, "is_reserved": 0, "fusion_lon": 0.0, "lat": 38.903594166666664, "rental_uris": {"android": "https://dc.lft.to/lastmile_qr_scan", "ios": "https://dc.lft.to/lastmile_qr_scan"}, "fusion_lat": 0.0}, {"type": "electric_scooter", "bike_id": "7ec809f28fbb72ae8d4f4a4bc2f8aabe", "is_disabled": 0, "name": "7ec809f28fbb72ae8d4f4a4bc2f8aabe", "lon": -77.07321466666667, "is_reserved": 0, "fusion_lon": 0.0, "lat": 38.922017, "rental_uris": {"android": "https://dc.lft.to/lastmile_qr_scan", "ios": "https://dc.lft.to/lastmile_qr_scan"}, "fusion_lat": 0.0}, {"type": "electric_scooter", "bike_id": "d7c6899ae711897f06e4addf824b58d7", "is_disabled": 0, "name": "d7c6899ae711897f06e4addf824b58d7", "lon": -77.01173116666666, "is_reserved": 0, "fusion_lon": 0.0, "lat": 38.899979, "rental_uris": {"android": "https://dc.lft.to/lastmile_qr_scan", "ios": "https://dc.lft.to/lastmile_qr_scan"}, "fusion_lat": 0.0}, {"type": "electric_bike", "bike_id": "131148905cd535b5c939ee956402d9a6", "is_disabled": 0, "name": "131148905cd535b5c939ee956402d9a6", "lon": -77.0288455, "is_reserved": 0, "fusion_lon": 0.0, "lat": 38.921304166666665, "rental_uris": {"android": "https://dc.lft.to/lastmile_qr_scan", "ios": "https://dc.lft.to/lastmile_qr_scan"}, "fusion_lat": 0.0}, {"type": "electric_scooter", "bike_id": "57e6f2a64f700c83a3d1a00936d301f7", "is_disabled": 0, "name": "57e6f2a64f700c83a3d1a00936d301f7", "lon": -77.04893366666667, "is_reserved": 0, "fusion_lon": 0.0, "lat": 38.90534816666667, "rental_uris": {"android": "https://dc.lft.to/lastmile_qr_scan", "ios": "https://dc.lft.to/lastmile_qr_scan"}, "fusion_lat": 0.0}, {"type": "electric_scooter", "bike_id": "9c9e88444bdc89256fa3cb8fedded37b", "is_disabled": 0, "name": "9c9e88444bdc89256fa3cb8fedded37b", "lon": -77.02941266666667, "is_reserved": 0, "fusion_lon": 0.0, "lat": 38.90718483333333, "rental_uris": {"android": "https://dc.lft.to/lastmile_qr_scan", "ios": "https://dc.lft.to/lastmile_qr_scan"}, "fusion_lat": 0.0}, {"type": "electric_scooter", "bike_id": "6c575a0fd2b0a9ecf7556f96a358a428", "is_disabled": 0, "name": "6c575a0fd2b0a9ecf7556f96a358a428", "lon": -77.01186816666667, "is_reserved": 0, "fusion_lon": 0.0, "lat": 38.90019916666667, "rental_uris": {"android": "https://dc.lft.to/lastmile_qr_scan", "ios": "https://dc.lft.to/lastmile_qr_scan"}, "fusion_lat": 0.0}, {"type": "electric_scooter", "bike_id": "d566e4b9561823e29b7f838e6164a966", "is_disabled": 0, "name": "d566e4b9561823e29b7f838e6164a966", "lon": -77.033949, "is_reserved": 0, "fusion_lon": 0.0, "lat": 38.924664, "rental_uris": {"android": "https://dc.lft.to/lastmile_qr_scan", "ios": "https://dc.lft.to/lastmile_qr_scan"}, "fusion_lat": 0.0}, {"type": "electric_scooter", "bike_id": "dd3d4a98112931df3fd15a6102d12caf", "is_disabled": 0, "name": "dd3d4a98112931df3fd15a6102d12caf", "lon": -77.043595, "is_reserved": 0, "fusion_lon": 0.0, "lat": 38.91121183333333, "rental_uris": {"android": "https://dc.lft.to/lastmile_qr_scan", "ios": "https://dc.lft.to/lastmile_qr_scan"}, "fusion_lat": 0.0}, {"type": "electric_bike", "bike_id": "4491fb63f69130af190a0ae8c20ce50e", "is_disabled": 0, "name": "4491fb63f69130af190a0ae8c20ce50e", "lon": -77.077561, "is_reserved": 0, "fusion_lon": 0.0, "lat": 38.841893166666665, "rental_uris": {"android": "https://dc.lft.to/lastmile_qr_scan", "ios": "https://dc.lft.to/lastmile_qr_scan"}, "fusion_lat": 0.0}, {"type": "electric_scooter", "bike_id": "0e4e888ed054c0df45a1bd9381ea1eb8", "is_disabled": 0, "name": "0e4e888ed054c0df45a1bd9381ea1eb8", "lon": -77.01543166666667, "is_reserved": 0, "fusion_lon": 0.0, "lat": 38.893315666666666, "rental_uris": {"android": "https://dc.lft.to/lastmile_qr_scan", "ios": "https://dc.lft.to/lastmile_qr_scan"}, "fusion_lat": 0.0}, {"type": "electric_scooter", "bike_id": "fd5cc1198eacf3c6acac83793c94a099", "is_disabled": 0, "name": "fd5cc1198eacf3c6acac83793c94a099", "lon": -76.95740016666667, "is_reserved": 0, "fusion_lon": 0.0, "lat": 38.884010333333336, "rental_uris": {"android": "https://dc.lft.to/lastmile_qr_scan", "ios": "https://dc.lft.to/lastmile_qr_scan"}, "fusion_lat": 0.0}, {"type": "electric_scooter", "bike_id": "546dbcb45f824a9c4661d1bb952464e7", "is_disabled": 0, "name": "546dbcb45f824a9c4661d1bb952464e7", "lon": -77.03459016666666, "is_reserved": 0, "fusion_lon": 0.0, "lat": 38.911677833333336, "rental_uris": {"android": "https://dc.lft.to/lastmile_qr_scan", "ios": "https://dc.lft.to/lastmile_qr_scan"}, "fusion_lat": 0.0}, {"type": "electric_scooter", "bike_id": "ae32edd95ccaaf5c3429558a491e204c", "is_disabled": 0, "name": "ae32edd95ccaaf5c3429558a491e204c", "lon": -76.99573933333333, "is_reserved": 0, "fusion_lon": 0.0, "lat": 38.90012866666667, "rental_uris": {"android": "https://dc.lft.to/lastmile_qr_scan", "ios": "https://dc.lft.to/lastmile_qr_scan"}, "fusion_lat": 0.0}, {"type": "electric_scooter", "bike_id": "27f26262cf01ea6a76e7d0def13fa370", "is_disabled": 0, "name": "27f26262cf01ea6a76e7d0def13fa370", "lon": -76.98370283333334, "is_reserved": 0, "fusion_lon": 0.0, "lat": 38.892646666666664, "rental_uris": {"android": "https://dc.lft.to/lastmile_qr_scan", "ios": "https://dc.lft.to/lastmile_qr_scan"}, "fusion_lat": 0.0}, {"type": "electric_bike", "bike_id": "f001059213abe4c91ce36c5451e3c9e0", "is_disabled": 0, "name": "f001059213abe4c91ce36c5451e3c9e0", "lon": -77.05275, "is_reserved": 0, "fusion_lon": 0.0, "lat": 38.940882333333334, "rental_uris": {"android": "https://dc.lft.to/lastmile_qr_scan", "ios": "https://dc.lft.to/lastmile_qr_scan"}, "fusion_lat": 0.0}, {"type": "electric_scooter", "bike_id": "6aa7f554b82b43dbad465b0cfad51ed8", "is_disabled": 0, "name": "6aa7f554b82b43dbad465b0cfad51ed8", "lon": -77.032646, "is_reserved": 0, "fusion_lon": 0.0, "lat": 38.93521966666667, "rental_uris": {"android": "https://dc.lft.to/lastmile_qr_scan", "ios": "https://dc.lft.to/lastmile_qr_scan"}, "fusion_lat": 0.0}, {"type": "electric_scooter", "bike_id": "724b9aed527a376d900c9bace41d40c0", "is_disabled": 0, "name": "724b9aed527a376d900c9bace41d40c0", "lon": -77.0280955, "is_reserved": 0, "fusion_lon": 0.0, "lat": 38.91678616666667, "rental_uris": {"android": "https://dc.lft.to/lastmile_qr_scan", "ios": "https://dc.lft.to/lastmile_qr_scan"}, "fusion_lat": 0.0}, {"type": "electric_bike", "bike_id": "2063f12728232459f89370c278033353", "is_disabled": 0, "name": "2063f12728232459f89370c278033353", "lon": -77.00719766666667, "is_reserved": 0, "fusion_lon": 0.0, "lat": 38.9950095, "rental_uris": {"android": "https://dc.lft.to/lastmile_qr_scan", "ios": "https://dc.lft.to/lastmile_qr_scan"}, "fusion_lat": 0.0}, {"type": "electric_scooter", "bike_id": "99a8e3cd237eb9dc2dca3d6f214e06be", "is_disabled": 0, "name": "99a8e3cd237eb9dc2dca3d6f214e06be", "lon": -76.99627083333333, "is_reserved": 0, "fusion_lon": 0.0, "lat": 38.877339, "rental_uris": {"android": "https://dc.lft.to/lastmile_qr_scan", "ios": "https://dc.lft.to/lastmile_qr_scan"}, "fusion_lat": 0.0}, {"type": "electric_scooter", "bike_id": "d171a3e9398e5d7f47ef14d6a5ef3770", "is_disabled": 0, "name": "d171a3e9398e5d7f47ef14d6a5ef3770", "lon": -77.03375616666666, "is_reserved": 0, "fusion_lon": 0.0, "lat": 38.916827166666664, "rental_uris": {"android": "https://dc.lft.to/lastmile_qr_scan", "ios": "https://dc.lft.to/lastmile_qr_scan"}, "fusion_lat": 0.0}, {"type": "electric_scooter", "bike_id": "94d03bb97039e6efa82b2e1749ef311a", "is_disabled": 0, "name": "94d03bb97039e6efa82b2e1749ef311a", "lon": -77.02960433333334, "is_reserved": 0, "fusion_lon": 0.0, "lat": 38.9167015, "rental_uris": {"android": "https://dc.lft.to/lastmile_qr_scan", "ios": "https://dc.lft.to/lastmile_qr_scan"}, "fusion_lat": 0.0}, {"type": "electric_scooter", "bike_id": "c2fcc77681b529f935a4491aa8ea9553", "is_disabled": 0, "name": "c2fcc77681b529f935a4491aa8ea9553", "lon": -77.03866533333333, "is_reserved": 0, "fusion_lon": 0.0, "lat": 38.9170905, "rental_uris": {"android": "https://dc.lft.to/lastmile_qr_scan", "ios": "https://dc.lft.to/lastmile_qr_scan"}, "fusion_lat": 0.0}, {"type": "electric_scooter", "bike_id": "d2db814792943d6d84e2b4f7ef702bb8", "is_disabled": 0, "name": "d2db814792943d6d84e2b4f7ef702bb8", "lon": -76.998574, "is_reserved": 0, "fusion_lon": 0.0, "lat": 38.89184266666667, "rental_uris": {"android": "https://dc.lft.to/lastmile_qr_scan", "ios": "https://dc.lft.to/lastmile_qr_scan"}, "fusion_lat": 0.0}, {"type": "electric_scooter", "bike_id": "b549c44105a62780ce16fa9d8517cb74", "is_disabled": 0, "name": "b549c44105a62780ce16fa9d8517cb74", "lon": -77.028377, "is_reserved": 0, "fusion_lon": 0.0, "lat": 38.88737866666666, "rental_uris": {"android": "https://dc.lft.to/lastmile_qr_scan", "ios": "https://dc.lft.to/lastmile_qr_scan"}, "fusion_lat": 0.0}, {"type": "electric_scooter", "bike_id": "ade6259733dc99a0c666e1ad7696d865", "is_disabled": 0, "name": "ade6259733dc99a0c666e1ad7696d865", "lon": -77.0398705, "is_reserved": 0, "fusion_lon": 0.0, "lat": 38.899007166666664, "rental_uris": {"android": "https://dc.lft.to/lastmile_qr_scan", "ios": "https://dc.lft.to/lastmile_qr_scan"}, "fusion_lat": 0.0}, {"type": "electric_scooter", "bike_id": "2de1804bd032d3ba4828c63c70e3424c", "is_disabled": 0, "name": "2de1804bd032d3ba4828c63c70e3424c", "lon": -77.00336916666667, "is_reserved": 0, "fusion_lon": 0.0, "lat": 38.8935485, "rental_uris": {"android": "https://dc.lft.to/lastmile_qr_scan", "ios": "https://dc.lft.to/lastmile_qr_scan"}, "fusion_lat": 0.0}, {"type": "electric_scooter", "bike_id": "7fa8b99e562a32d0ad13ed5135e35bf2", "is_disabled": 0, "name": "7fa8b99e562a32d0ad13ed5135e35bf2", "lon": -77.0256955, "is_reserved": 0, "fusion_lon": 0.0, "lat": 38.88749383333333, "rental_uris": {"android": "https://dc.lft.to/lastmile_qr_scan", "ios": "https://dc.lft.to/lastmile_qr_scan"}, "fusion_lat": 0.0}, {"type": "electric_scooter", "bike_id": "5c603aeeec08873d1ecdf35cd5494bcf", "is_disabled": 0, "name": "5c603aeeec08873d1ecdf35cd5494bcf", "lon": -77.04029666666666, "is_reserved": 0, "fusion_lon": 0.0, "lat": 38.91844483333333, "rental_uris": {"android": "https://dc.lft.to/lastmile_qr_scan", "ios": "https://dc.lft.to/lastmile_qr_scan"}, "fusion_lat": 0.0}, {"type": "electric_scooter", "bike_id": "94ed1cbde050498c7eecc617506afc5d", "is_disabled": 0, "name": "94ed1cbde050498c7eecc617506afc5d", "lon": -77.02241516666666, "is_reserved": 0, "fusion_lon": 0.0, "lat": 38.898451666666666, "rental_uris": {"android": "https://dc.lft.to/lastmile_qr_scan", "ios": "https://dc.lft.to/lastmile_qr_scan"}, "fusion_lat": 0.0}, {"type": "electric_scooter", "bike_id": "8297be78d296084347182e27bd09a0f8", "is_disabled": 0, "name": "8297be78d296084347182e27bd09a0f8", "lon": -77.0202765, "is_reserved": 0, "fusion_lon": 0.0, "lat": 38.92438583333333, "rental_uris": {"android": "https://dc.lft.to/lastmile_qr_scan", "ios": "https://dc.lft.to/lastmile_qr_scan"}, "fusion_lat": 0.0}, {"type": "electric_scooter", "bike_id": "4994dd7e6f5a7f935fb6dc363ac50ce8", "is_disabled": 0, "name": "4994dd7e6f5a7f935fb6dc363ac50ce8", "lon": -77.03010783333333, "is_reserved": 0, "fusion_lon": 0.0, "lat": 38.88327183333333, "rental_uris": {"android": "https://dc.lft.to/lastmile_qr_scan", "ios": "https://dc.lft.to/lastmile_qr_scan"}, "fusion_lat": 0.0}, {"type": "electric_bike", "bike_id": "687a117e2632cabcc38035571ef3194d", "is_disabled": 0, "name": "687a117e2632cabcc38035571ef3194d", "lon": -76.99025366666666, "is_reserved": 0, "fusion_lon": 0.0, "lat": 38.898257666666666, "rental_uris": {"android": "https://dc.lft.to/lastmile_qr_scan", "ios": "https://dc.lft.to/lastmile_qr_scan"}, "fusion_lat": 0.0}, {"type": "electric_scooter", "bike_id": "f616b753d52f07e60124b46127402d5b", "is_disabled": 0, "name": "f616b753d52f07e60124b46127402d5b", "lon": -77.00667233333333, "is_reserved": 0, "fusion_lon": 0.0, "lat": 38.905874, "rental_uris": {"android": "https://dc.lft.to/lastmile_qr_scan", "ios": "https://dc.lft.to/lastmile_qr_scan"}, "fusion_lat": 0.0}, {"type": "electric_scooter", "bike_id": "947524610eea23067bd34a18fc927f03", "is_disabled": 0, "name": "947524610eea23067bd34a18fc927f03", "lon": -77.01876033333333, "is_reserved": 0, "fusion_lon": 0.0, "lat": 38.91414483333333, "rental_uris": {"android": "https://dc.lft.to/lastmile_qr_scan", "ios": "https://dc.lft.to/lastmile_qr_scan"}, "fusion_lat": 0.0}, {"type": "electric_scooter", "bike_id": "ade5250e9266be0379bb2db0708e64b0", "is_disabled": 0, "name": "ade5250e9266be0379bb2db0708e64b0", "lon": -77.05003683333334, "is_reserved": 0, "fusion_lon": 0.0, "lat": 38.9053015, "rental_uris": {"android": "https://dc.lft.to/lastmile_qr_scan", "ios": "https://dc.lft.to/lastmile_qr_scan"}, "fusion_lat": 0.0}, {"type": "electric_scooter", "bike_id": "b6fea09b6113f3595bf2862a28a55f34", "is_disabled": 0, "name": "b6fea09b6113f3595bf2862a28a55f34", "lon": -77.0281045, "is_reserved": 0, "fusion_lon": 0.0, "lat": 38.896564833333336, "rental_uris": {"android": "https://dc.lft.to/lastmile_qr_scan", "ios": "https://dc.lft.to/lastmile_qr_scan"}, "fusion_lat": 0.0}, {"type": "electric_scooter", "bike_id": "95a0099aa8260b6e236e0694abeb9cef", "is_disabled": 0, "name": "95a0099aa8260b6e236e0694abeb9cef", "lon": -77.0229635, "is_reserved": 0, "fusion_lon": 0.0, "lat": 38.91752266666667, "rental_uris": {"android": "https://dc.lft.to/lastmile_qr_scan", "ios": "https://dc.lft.to/lastmile_qr_scan"}, "fusion_lat": 0.0}, {"type": "electric_scooter", "bike_id": "6f1d27546b05cfdde1adc6c8c0923296", "is_disabled": 0, "name": "6f1d27546b05cfdde1adc6c8c0923296", "lon": -77.031873, "is_reserved": 0, "fusion_lon": 0.0, "lat": 38.907307833333334, "rental_uris": {"android": "https://dc.lft.to/lastmile_qr_scan", "ios": "https://dc.lft.to/lastmile_qr_scan"}, "fusion_lat": 0.0}, {"type": "electric_scooter", "bike_id": "f29d9b4507a894f9a289512246962234", "is_disabled": 0, "name": "f29d9b4507a894f9a289512246962234", "lon": -77.04490133333333, "is_reserved": 0, "fusion_lon": 0.0, "lat": 38.89739383333333, "rental_uris": {"android": "https://dc.lft.to/lastmile_qr_scan", "ios": "https://dc.lft.to/lastmile_qr_scan"}, "fusion_lat": 0.0}, {"type": "electric_scooter", "bike_id": "85fec59221f04f0269f8ada5dff123c4", "is_disabled": 0, "name": "85fec59221f04f0269f8ada5dff123c4", "lon": -77.031855, "is_reserved": 0, "fusion_lon": 0.0, "lat": 38.903666666666666, "rental_uris": {"android": "https://dc.lft.to/lastmile_qr_scan", "ios": "https://dc.lft.to/lastmile_qr_scan"}, "fusion_lat": 0.0}, {"type": "electric_scooter", "bike_id": "fc8fbc3521a4789cd4ac0149ec80ab99", "is_disabled": 0, "name": "fc8fbc3521a4789cd4ac0149ec80ab99", "lon": -77.025444, "is_reserved": 0, "fusion_lon": 0.0, "lat": 38.920868166666665, "rental_uris": {"android": "https://dc.lft.to/lastmile_qr_scan", "ios": "https://dc.lft.to/lastmile_qr_scan"}, "fusion_lat": 0.0}, {"type": "electric_scooter", "bike_id": "9be478bd011a4c3da2182e02f6fb5449", "is_disabled": 0, "name": "9be478bd011a4c3da2182e02f6fb5449", "lon": -77.041952, "is_reserved": 0, "fusion_lon": 0.0, "lat": 38.92050166666667, "rental_uris": {"android": "https://dc.lft.to/lastmile_qr_scan", "ios": "https://dc.lft.to/lastmile_qr_scan"}, "fusion_lat": 0.0}, {"type": "electric_scooter", "bike_id": "53db1aa314a54c19c5b2dde1e52b0edb", "is_disabled": 0, "name": "53db1aa314a54c19c5b2dde1e52b0edb", "lon": -77.03492833333334, "is_reserved": 0, "fusion_lon": 0.0, "lat": 38.90559583333334, "rental_uris": {"android": "https://dc.lft.to/lastmile_qr_scan", "ios": "https://dc.lft.to/lastmile_qr_scan"}, "fusion_lat": 0.0}, {"type": "electric_scooter", "bike_id": "d2e5b9fdea07d44ce50479519fb4c8d4", "is_disabled": 0, "name": "d2e5b9fdea07d44ce50479519fb4c8d4", "lon": -77.01950833333333, "is_reserved": 0, "fusion_lon": 0.0, "lat": 38.92416133333333, "rental_uris": {"android": "https://dc.lft.to/lastmile_qr_scan", "ios": "https://dc.lft.to/lastmile_qr_scan"}, "fusion_lat": 0.0}, {"type": "electric_scooter", "bike_id": "87e7505edd393d5b5f525ff573f76f8d", "is_disabled": 0, "name": "87e7505edd393d5b5f525ff573f76f8d", "lon": -77.07173233333333, "is_reserved": 0, "fusion_lon": 0.0, "lat": 38.907644, "rental_uris": {"android": "https://dc.lft.to/lastmile_qr_scan", "ios": "https://dc.lft.to/lastmile_qr_scan"}, "fusion_lat": 0.0}, {"type": "electric_scooter", "bike_id": "235ff952533046717d40ba44af59efc9", "is_disabled": 0, "name": "235ff952533046717d40ba44af59efc9", "lon": -76.9294675, "is_reserved": 0, "fusion_lon": 0.0, "lat": 38.9034435, "rental_uris": {"android": "https://dc.lft.to/lastmile_qr_scan", "ios": "https://dc.lft.to/lastmile_qr_scan"}, "fusion_lat": 0.0}, {"type": "electric_scooter", "bike_id": "bb97dafb1b2d6c5c2b416c967e739174", "is_disabled": 0, "name": "bb97dafb1b2d6c5c2b416c967e739174", "lon": -77.02284883333333, "is_reserved": 0, "fusion_lon": 0.0, "lat": 38.92558866666667, "rental_uris": {"android": "https://dc.lft.to/lastmile_qr_scan", "ios": "https://dc.lft.to/lastmile_qr_scan"}, "fusion_lat": 0.0}, {"type": "electric_bike", "bike_id": "0803e3d302e7f94231cc9a4e2adb2223", "is_disabled": 0, "name": "0803e3d302e7f94231cc9a4e2adb2223", "lon": -76.96094516666666, "is_reserved": 0, "fusion_lon": 0.0, "lat": 38.91860666666667, "rental_uris": {"android": "https://dc.lft.to/lastmile_qr_scan", "ios": "https://dc.lft.to/lastmile_qr_scan"}, "fusion_lat": 0.0}, {"type": "electric_scooter", "bike_id": "d7af68e500137accd9ca96cb3870c653", "is_disabled": 0, "name": "d7af68e500137accd9ca96cb3870c653", "lon": -77.04671, "is_reserved": 0, "fusion_lon": 0.0, "lat": 38.904149333333336, "rental_uris": {"android": "https://dc.lft.to/lastmile_qr_scan", "ios": "https://dc.lft.to/lastmile_qr_scan"}, "fusion_lat": 0.0}, {"type": "electric_scooter", "bike_id": "e3505c42cfac5f2d256c6afc817b61f2", "is_disabled": 0, "name": "e3505c42cfac5f2d256c6afc817b61f2", "lon": -77.03447316666667, "is_reserved": 0, "fusion_lon": 0.0, "lat": 38.91799983333333, "rental_uris": {"android": "https://dc.lft.to/lastmile_qr_scan", "ios": "https://dc.lft.to/lastmile_qr_scan"}, "fusion_lat": 0.0}, {"type": "electric_scooter", "bike_id": "dc36ef97049f8bcd4fdfb0a4450597b4", "is_disabled": 0, "name": "dc36ef97049f8bcd4fdfb0a4450597b4", "lon": -77.03204783333334, "is_reserved": 0, "fusion_lon": 0.0, "lat": 38.9072845, "rental_uris": {"android": "https://dc.lft.to/lastmile_qr_scan", "ios": "https://dc.lft.to/lastmile_qr_scan"}, "fusion_lat": 0.0}, {"type": "electric_bike", "bike_id": "a8d07786cee7c16767ad8745a97fdc66", "is_disabled": 0, "name": "a8d07786cee7c16767ad8745a97fdc66", "lon": -77.0775515, "is_reserved": 0, "fusion_lon": 0.0, "lat": 38.84189583333333, "rental_uris": {"android": "https://dc.lft.to/lastmile_qr_scan", "ios": "https://dc.lft.to/lastmile_qr_scan"}, "fusion_lat": 0.0}, {"type": "electric_bike", "bike_id": "3d0586b8098ac71e8dce19394030a7df", "is_disabled": 0, "name": "3d0586b8098ac71e8dce19394030a7df", "lon": -76.91808016666667, "is_reserved": 0, "fusion_lon": 0.0, "lat": 38.999968, "rental_uris": {"android": "https://dc.lft.to/lastmile_qr_scan", "ios": "https://dc.lft.to/lastmile_qr_scan"}, "fusion_lat": 0.0}, {"type": "electric_scooter", "bike_id": "2c50394db491ec713a022796f990c72c", "is_disabled": 0, "name": "2c50394db491ec713a022796f990c72c", "lon": -77.03459583333333, "is_reserved": 0, "fusion_lon": 0.0, "lat": 38.90274566666667, "rental_uris": {"android": "https://dc.lft.to/lastmile_qr_scan", "ios": "https://dc.lft.to/lastmile_qr_scan"}, "fusion_lat": 0.0}, {"type": "electric_scooter", "bike_id": "7ac10a914b5ba0182c3ec61dc975e36c", "is_disabled": 0, "name": "7ac10a914b5ba0182c3ec61dc975e36c", "lon": -77.017202, "is_reserved": 0, "fusion_lon": 0.0, "lat": 38.904539166666666, "rental_uris": {"android": "https://dc.lft.to/lastmile_qr_scan", "ios": "https://dc.lft.to/lastmile_qr_scan"}, "fusion_lat": 0.0}, {"type": "electric_scooter", "bike_id": "4f6a3f491ae81ac86efa13bdc59c230d", "is_disabled": 0, "name": "4f6a3f491ae81ac86efa13bdc59c230d", "lon": -77.02562533333334, "is_reserved": 0, "fusion_lon": 0.0, "lat": 38.953967666666664, "rental_uris": {"android": "https://dc.lft.to/lastmile_qr_scan", "ios": "https://dc.lft.to/lastmile_qr_scan"}, "fusion_lat": 0.0}, {"type": "electric_scooter", "bike_id": "b9e9b4ae079a33f233487229136ca717", "is_disabled": 0, "name": "b9e9b4ae079a33f233487229136ca717", "lon": -76.9446665, "is_reserved": 0, "fusion_lon": 0.0, "lat": 38.89025933333333, "rental_uris": {"android": "https://dc.lft.to/lastmile_qr_scan", "ios": "https://dc.lft.to/lastmile_qr_scan"}, "fusion_lat": 0.0}, {"type": "electric_scooter", "bike_id": "877059d16922a9d83169a94737fde03c", "is_disabled": 0, "name": "877059d16922a9d83169a94737fde03c", "lon": -77.00118516666667, "is_reserved": 0, "fusion_lon": 0.0, "lat": 38.878876166666664, "rental_uris": {"android": "https://dc.lft.to/lastmile_qr_scan", "ios": "https://dc.lft.to/lastmile_qr_scan"}, "fusion_lat": 0.0}, {"type": "electric_scooter", "bike_id": "fda01c7384c7e90c8e20917089fbad66", "is_disabled": 0, "name": "fda01c7384c7e90c8e20917089fbad66", "lon": -77.011874, "is_reserved": 0, "fusion_lon": 0.0, "lat": 38.900074000000004, "rental_uris": {"android": "https://dc.lft.to/lastmile_qr_scan", "ios": "https://dc.lft.to/lastmile_qr_scan"}, "fusion_lat": 0.0}, {"type": "electric_scooter", "bike_id": "7223f9f3909e30fc318280538ab83cdc", "is_disabled": 0, "name": "7223f9f3909e30fc318280538ab83cdc", "lon": -77.03462583333334, "is_reserved": 0, "fusion_lon": 0.0, "lat": 38.9157455, "rental_uris": {"android": "https://dc.lft.to/lastmile_qr_scan", "ios": "https://dc.lft.to/lastmile_qr_scan"}, "fusion_lat": 0.0}, {"type": "electric_scooter", "bike_id": "ec97c9dc5cd224bc94601396fae0ddd9", "is_disabled": 0, "name": "ec97c9dc5cd224bc94601396fae0ddd9", "lon": -77.03485666666667, "is_reserved": 0, "fusion_lon": 0.0, "lat": 38.93566033333333, "rental_uris": {"android": "https://dc.lft.to/lastmile_qr_scan", "ios": "https://dc.lft.to/lastmile_qr_scan"}, "fusion_lat": 0.0}, {"type": "electric_scooter", "bike_id": "a7284427afdacad3496f02cdadced759", "is_disabled": 0, "name": "a7284427afdacad3496f02cdadced759", "lon": -77.03866983333333, "is_reserved": 0, "fusion_lon": 0.0, "lat": 38.90970983333333, "rental_uris": {"android": "https://dc.lft.to/lastmile_qr_scan", "ios": "https://dc.lft.to/lastmile_qr_scan"}, "fusion_lat": 0.0}, {"type": "electric_scooter", "bike_id": "858b8fbb4f3e735e98cc744abad962b6", "is_disabled": 0, "name": "858b8fbb4f3e735e98cc744abad962b6", "lon": -77.03404466666667, "is_reserved": 0, "fusion_lon": 0.0, "lat": 38.924384, "rental_uris": {"android": "https://dc.lft.to/lastmile_qr_scan", "ios": "https://dc.lft.to/lastmile_qr_scan"}, "fusion_lat": 0.0}, {"type": "electric_scooter", "bike_id": "4fe6036e9c9a0b7d6ae9e3e2820ca448", "is_disabled": 0, "name": "4fe6036e9c9a0b7d6ae9e3e2820ca448", "lon": -77.020045, "is_reserved": 0, "fusion_lon": 0.0, "lat": 38.885858666666664, "rental_uris": {"android": "https://dc.lft.to/lastmile_qr_scan", "ios": "https://dc.lft.to/lastmile_qr_scan"}, "fusion_lat": 0.0}, {"type": "electric_scooter", "bike_id": "c7df30d5669827832343bc6f4cce362e", "is_disabled": 0, "name": "c7df30d5669827832343bc6f4cce362e", "lon": -77.03332033333334, "is_reserved": 0, "fusion_lon": 0.0, "lat": 38.916758333333334, "rental_uris": {"android": "https://dc.lft.to/lastmile_qr_scan", "ios": "https://dc.lft.to/lastmile_qr_scan"}, "fusion_lat": 0.0}, {"type": "electric_scooter", "bike_id": "ca6fd874f92ca2019cf74ce551346e50", "is_disabled": 0, "name": "ca6fd874f92ca2019cf74ce551346e50", "lon": -77.04139533333333, "is_reserved": 0, "fusion_lon": 0.0, "lat": 38.902804833333334, "rental_uris": {"android": "https://dc.lft.to/lastmile_qr_scan", "ios": "https://dc.lft.to/lastmile_qr_scan"}, "fusion_lat": 0.0}, {"type": "electric_scooter", "bike_id": "fda932d160152662e2813647c835aad4", "is_disabled": 0, "name": "fda932d160152662e2813647c835aad4", "lon": -77.04277366666666, "is_reserved": 0, "fusion_lon": 0.0, "lat": 38.9322335, "rental_uris": {"android": "https://dc.lft.to/lastmile_qr_scan", "ios": "https://dc.lft.to/lastmile_qr_scan"}, "fusion_lat": 0.0}, {"type": "electric_scooter", "bike_id": "5c90df018f78dbac85b8a53051ef30e5", "is_disabled": 0, "name": "5c90df018f78dbac85b8a53051ef30e5", "lon": -77.05007633333334, "is_reserved": 0, "fusion_lon": 0.0, "lat": 38.90506116666667, "rental_uris": {"android": "https://dc.lft.to/lastmile_qr_scan", "ios": "https://dc.lft.to/lastmile_qr_scan"}, "fusion_lat": 0.0}, {"type": "electric_scooter", "bike_id": "fa24c2a432b46680aa684063228e4408", "is_disabled": 0, "name": "fa24c2a432b46680aa684063228e4408", "lon": -77.046101, "is_reserved": 0, "fusion_lon": 0.0, "lat": 38.9328415, "rental_uris": {"android": "https://dc.lft.to/lastmile_qr_scan", "ios": "https://dc.lft.to/lastmile_qr_scan"}, "fusion_lat": 0.0}, {"type": "electric_scooter", "bike_id": "286b8f12e02728ad1a88baac39294145", "is_disabled": 0, "name": "286b8f12e02728ad1a88baac39294145", "lon": -77.07709483333333, "is_reserved": 0, "fusion_lon": 0.0, "lat": 38.925267833333336, "rental_uris": {"android": "https://dc.lft.to/lastmile_qr_scan", "ios": "https://dc.lft.to/lastmile_qr_scan"}, "fusion_lat": 0.0}, {"type": "electric_scooter", "bike_id": "42000dd7eb8481d35ceff5fa023cd87f", "is_disabled": 0, "name": "42000dd7eb8481d35ceff5fa023cd87f", "lon": -77.02426533333333, "is_reserved": 0, "fusion_lon": 0.0, "lat": 38.9209325, "rental_uris": {"android": "https://dc.lft.to/lastmile_qr_scan", "ios": "https://dc.lft.to/lastmile_qr_scan"}, "fusion_lat": 0.0}, {"type": "electric_bike", "bike_id": "a6f1087a9abdfdd0253d1e6c7da9967f", "is_disabled": 0, "name": "a6f1087a9abdfdd0253d1e6c7da9967f", "lon": -77.03658583333333, "is_reserved": 0, "fusion_lon": 0.0, "lat": 38.936326666666666, "rental_uris": {"android": "https://dc.lft.to/lastmile_qr_scan", "ios": "https://dc.lft.to/lastmile_qr_scan"}, "fusion_lat": 0.0}, {"type": "electric_bike", "bike_id": "b9f6a637df3d060a97a2b056f4a45ce8", "is_disabled": 0, "name": "b9f6a637df3d060a97a2b056f4a45ce8", "lon": -77.23178533333333, "is_reserved": 0, "fusion_lon": 0.0, "lat": 38.92893516666667, "rental_uris": {"android": "https://dc.lft.to/lastmile_qr_scan", "ios": "https://dc.lft.to/lastmile_qr_scan"}, "fusion_lat": 0.0}, {"type": "electric_scooter", "bike_id": "6d570b5be383aa38866519cb3fce28bf", "is_disabled": 0, "name": "6d570b5be383aa38866519cb3fce28bf", "lon": -77.0326105, "is_reserved": 0, "fusion_lon": 0.0, "lat": 38.91984716666666, "rental_uris": {"android": "https://dc.lft.to/lastmile_qr_scan", "ios": "https://dc.lft.to/lastmile_qr_scan"}, "fusion_lat": 0.0}, {"type": "electric_scooter", "bike_id": "53b3ee05f64f2c720bf569988ca173b7", "is_disabled": 0, "name": "53b3ee05f64f2c720bf569988ca173b7", "lon": -77.02390166666666, "is_reserved": 0, "fusion_lon": 0.0, "lat": 38.93708783333334, "rental_uris": {"android": "https://dc.lft.to/lastmile_qr_scan", "ios": "https://dc.lft.to/lastmile_qr_scan"}, "fusion_lat": 0.0}, {"type": "electric_scooter", "bike_id": "9e15509cfc5397cf46c64345d3342745", "is_disabled": 0, "name": "9e15509cfc5397cf46c64345d3342745", "lon": -77.02764433333333, "is_reserved": 0, "fusion_lon": 0.0, "lat": 38.95418866666667, "rental_uris": {"android": "https://dc.lft.to/lastmile_qr_scan", "ios": "https://dc.lft.to/lastmile_qr_scan"}, "fusion_lat": 0.0}, {"type": "electric_scooter", "bike_id": "ae62758e74107ad594fc3c4e601ff943", "is_disabled": 0, "name": "ae62758e74107ad594fc3c4e601ff943", "lon": -77.065162, "is_reserved": 0, "fusion_lon": 0.0, "lat": 38.90528, "rental_uris": {"android": "https://dc.lft.to/lastmile_qr_scan", "ios": "https://dc.lft.to/lastmile_qr_scan"}, "fusion_lat": 0.0}, {"type": "electric_scooter", "bike_id": "1a09abecd6e89f522da40802aa63afdd", "is_disabled": 0, "name": "1a09abecd6e89f522da40802aa63afdd", "lon": -77.01222166666666, "is_reserved": 0, "fusion_lon": 0.0, "lat": 38.91501016666667, "rental_uris": {"android": "https://dc.lft.to/lastmile_qr_scan", "ios": "https://dc.lft.to/lastmile_qr_scan"}, "fusion_lat": 0.0}, {"type": "electric_scooter", "bike_id": "4be28af40782e4129ca56c84aa1157b6", "is_disabled": 0, "name": "4be28af40782e4129ca56c84aa1157b6", "lon": -77.04526666666666, "is_reserved": 0, "fusion_lon": 0.0, "lat": 38.918265, "rental_uris": {"android": "https://dc.lft.to/lastmile_qr_scan", "ios": "https://dc.lft.to/lastmile_qr_scan"}, "fusion_lat": 0.0}, {"type": "electric_scooter", "bike_id": "fde50dfc0dd93ca004e1f4aa6410b49f", "is_disabled": 0, "name": "fde50dfc0dd93ca004e1f4aa6410b49f", "lon": -77.02206316666667, "is_reserved": 0, "fusion_lon": 0.0, "lat": 38.910599, "rental_uris": {"android": "https://dc.lft.to/lastmile_qr_scan", "ios": "https://dc.lft.to/lastmile_qr_scan"}, "fusion_lat": 0.0}, {"type": "electric_bike", "bike_id": "049500f1be19ddb0527ebd1e8e58ab73", "is_disabled": 0, "name": "049500f1be19ddb0527ebd1e8e58ab73", "lon": -77.10293466666667, "is_reserved": 0, "fusion_lon": 0.0, "lat": 38.85252166666667, "rental_uris": {"android": "https://dc.lft.to/lastmile_qr_scan", "ios": "https://dc.lft.to/lastmile_qr_scan"}, "fusion_lat": 0.0}, {"type": "electric_bike", "bike_id": "ecf8f0d49d30a492e0a2f1a2138358dc", "is_disabled": 0, "name": "ecf8f0d49d30a492e0a2f1a2138358dc", "lon": -76.97961683333334, "is_reserved": 0, "fusion_lon": 0.0, "lat": 38.920338, "rental_uris": {"android": "https://dc.lft.to/lastmile_qr_scan", "ios": "https://dc.lft.to/lastmile_qr_scan"}, "fusion_lat": 0.0}, {"type": "electric_scooter", "bike_id": "71cbca21887797a4589f73d3d5917090", "is_disabled": 0, "name": "71cbca21887797a4589f73d3d5917090", "lon": -77.03855466666667, "is_reserved": 0, "fusion_lon": 0.0, "lat": 38.916841833333336, "rental_uris": {"android": "https://dc.lft.to/lastmile_qr_scan", "ios": "https://dc.lft.to/lastmile_qr_scan"}, "fusion_lat": 0.0}, {"type": "electric_scooter", "bike_id": "c7349fb49cb90a0b2f68e46801c29649", "is_disabled": 0, "name": "c7349fb49cb90a0b2f68e46801c29649", "lon": -76.93365066666667, "is_reserved": 0, "fusion_lon": 0.0, "lat": 38.898310333333335, "rental_uris": {"android": "https://dc.lft.to/lastmile_qr_scan", "ios": "https://dc.lft.to/lastmile_qr_scan"}, "fusion_lat": 0.0}, {"type": "electric_scooter", "bike_id": "747ba4e6f7ff1b9db4c1bdcb44d09e69", "is_disabled": 0, "name": "747ba4e6f7ff1b9db4c1bdcb44d09e69", "lon": -77.03361733333334, "is_reserved": 0, "fusion_lon": 0.0, "lat": 38.935853333333334, "rental_uris": {"android": "https://dc.lft.to/lastmile_qr_scan", "ios": "https://dc.lft.to/lastmile_qr_scan"}, "fusion_lat": 0.0}, {"type": "electric_scooter", "bike_id": "4286aa144b1359a8da855e1dbb1321ea", "is_disabled": 0, "name": "4286aa144b1359a8da855e1dbb1321ea", "lon": -77.0195555, "is_reserved": 0, "fusion_lon": 0.0, "lat": 38.923312, "rental_uris": {"android": "https://dc.lft.to/lastmile_qr_scan", "ios": "https://dc.lft.to/lastmile_qr_scan"}, "fusion_lat": 0.0}, {"type": "electric_scooter", "bike_id": "7575984c33f53d4ce4d989cea3633efe", "is_disabled": 0, "name": "7575984c33f53d4ce4d989cea3633efe", "lon": -77.02567666666667, "is_reserved": 0, "fusion_lon": 0.0, "lat": 38.9484785, "rental_uris": {"android": "https://dc.lft.to/lastmile_qr_scan", "ios": "https://dc.lft.to/lastmile_qr_scan"}, "fusion_lat": 0.0}, {"type": "electric_scooter", "bike_id": "fa10881da60531a6c55d94670c78e8d8", "is_disabled": 0, "name": "fa10881da60531a6c55d94670c78e8d8", "lon": -77.00693066666666, "is_reserved": 0, "fusion_lon": 0.0, "lat": 38.90972983333333, "rental_uris": {"android": "https://dc.lft.to/lastmile_qr_scan", "ios": "https://dc.lft.to/lastmile_qr_scan"}, "fusion_lat": 0.0}, {"type": "electric_scooter", "bike_id": "92ea7860a904690947171eed299da2a0", "is_disabled": 0, "name": "92ea7860a904690947171eed299da2a0", "lon": -77.0327385, "is_reserved": 0, "fusion_lon": 0.0, "lat": 38.93163883333333, "rental_uris": {"android": "https://dc.lft.to/lastmile_qr_scan", "ios": "https://dc.lft.to/lastmile_qr_scan"}, "fusion_lat": 0.0}, {"type": "electric_scooter", "bike_id": "f69d091b03002275002c80ad03a30dd0", "is_disabled": 0, "name": "f69d091b03002275002c80ad03a30dd0", "lon": -77.02819183333334, "is_reserved": 0, "fusion_lon": 0.0, "lat": 38.91056433333333, "rental_uris": {"android": "https://dc.lft.to/lastmile_qr_scan", "ios": "https://dc.lft.to/lastmile_qr_scan"}, "fusion_lat": 0.0}, {"type": "electric_scooter", "bike_id": "b42d41fbbcb55e520fd5b689599f997a", "is_disabled": 0, "name": "b42d41fbbcb55e520fd5b689599f997a", "lon": -77.043886, "is_reserved": 0, "fusion_lon": 0.0, "lat": 38.91659466666667, "rental_uris": {"android": "https://dc.lft.to/lastmile_qr_scan", "ios": "https://dc.lft.to/lastmile_qr_scan"}, "fusion_lat": 0.0}, {"type": "electric_scooter", "bike_id": "9231bd48cc22afb70696acc207ee862b", "is_disabled": 0, "name": "9231bd48cc22afb70696acc207ee862b", "lon": -77.0189115, "is_reserved": 0, "fusion_lon": 0.0, "lat": 38.89748316666667, "rental_uris": {"android": "https://dc.lft.to/lastmile_qr_scan", "ios": "https://dc.lft.to/lastmile_qr_scan"}, "fusion_lat": 0.0}, {"type": "electric_scooter", "bike_id": "729bfd5ad2414a62c051b7bf670f29a1", "is_disabled": 0, "name": "729bfd5ad2414a62c051b7bf670f29a1", "lon": -77.01690266666667, "is_reserved": 0, "fusion_lon": 0.0, "lat": 38.92039066666667, "rental_uris": {"android": "https://dc.lft.to/lastmile_qr_scan", "ios": "https://dc.lft.to/lastmile_qr_scan"}, "fusion_lat": 0.0}, {"type": "electric_scooter", "bike_id": "3635a1672d3ef04baa6a708e55bf76c3", "is_disabled": 0, "name": "3635a1672d3ef04baa6a708e55bf76c3", "lon": -77.01959066666667, "is_reserved": 0, "fusion_lon": 0.0, "lat": 38.923284, "rental_uris": {"android": "https://dc.lft.to/lastmile_qr_scan", "ios": "https://dc.lft.to/lastmile_qr_scan"}, "fusion_lat": 0.0}, {"type": "electric_scooter", "bike_id": "96e0722f5ffffd3b9a7e8b6eab11502d", "is_disabled": 0, "name": "96e0722f5ffffd3b9a7e8b6eab11502d", "lon": -77.03091166666667, "is_reserved": 0, "fusion_lon": 0.0, "lat": 38.92375533333333, "rental_uris": {"android": "https://dc.lft.to/lastmile_qr_scan", "ios": "https://dc.lft.to/lastmile_qr_scan"}, "fusion_lat": 0.0}, {"type": "electric_scooter", "bike_id": "f3997f3441c370235d267e3a3d0e3ee8", "is_disabled": 0, "name": "f3997f3441c370235d267e3a3d0e3ee8", "lon": -77.04354416666666, "is_reserved": 0, "fusion_lon": 0.0, "lat": 38.910959166666665, "rental_uris": {"android": "https://dc.lft.to/lastmile_qr_scan", "ios": "https://dc.lft.to/lastmile_qr_scan"}, "fusion_lat": 0.0}, {"type": "electric_scooter", "bike_id": "cfb0fa4dfed6e94080b6a81eb0c37f5f", "is_disabled": 0, "name": "cfb0fa4dfed6e94080b6a81eb0c37f5f", "lon": -77.03975483333333, "is_reserved": 0, "fusion_lon": 0.0, "lat": 38.9012635, "rental_uris": {"android": "https://dc.lft.to/lastmile_qr_scan", "ios": "https://dc.lft.to/lastmile_qr_scan"}, "fusion_lat": 0.0}, {"type": "electric_scooter", "bike_id": "0a5867f5c469f1b63a1cf885c769222e", "is_disabled": 0, "name": "0a5867f5c469f1b63a1cf885c769222e", "lon": -77.04371133333333, "is_reserved": 0, "fusion_lon": 0.0, "lat": 38.901300666666664, "rental_uris": {"android": "https://dc.lft.to/lastmile_qr_scan", "ios": "https://dc.lft.to/lastmile_qr_scan"}, "fusion_lat": 0.0}, {"type": "electric_scooter", "bike_id": "7f3d09ffcdc10f6490a15bdbef4ee154", "is_disabled": 0, "name": "7f3d09ffcdc10f6490a15bdbef4ee154", "lon": -77.03637866666666, "is_reserved": 0, "fusion_lon": 0.0, "lat": 38.92704166666667, "rental_uris": {"android": "https://dc.lft.to/lastmile_qr_scan", "ios": "https://dc.lft.to/lastmile_qr_scan"}, "fusion_lat": 0.0}, {"type": "electric_scooter", "bike_id": "98e28a8fc30a5b88dc98881f6111d821", "is_disabled": 0, "name": "98e28a8fc30a5b88dc98881f6111d821", "lon": -77.03269616666667, "is_reserved": 0, "fusion_lon": 0.0, "lat": 38.9330685, "rental_uris": {"android": "https://dc.lft.to/lastmile_qr_scan", "ios": "https://dc.lft.to/lastmile_qr_scan"}, "fusion_lat": 0.0}, {"type": "electric_scooter", "bike_id": "09acc1b82d7a42d582544f0450157b04", "is_disabled": 0, "name": "09acc1b82d7a42d582544f0450157b04", "lon": -77.01949616666667, "is_reserved": 0, "fusion_lon": 0.0, "lat": 38.922633833333336, "rental_uris": {"android": "https://dc.lft.to/lastmile_qr_scan", "ios": "https://dc.lft.to/lastmile_qr_scan"}, "fusion_lat": 0.0}, {"type": "electric_scooter", "bike_id": "2c03248d4f2887d3f9c05eb93b710150", "is_disabled": 0, "name": "2c03248d4f2887d3f9c05eb93b710150", "lon": -77.02566316666666, "is_reserved": 0, "fusion_lon": 0.0, "lat": 38.941919166666665, "rental_uris": {"android": "https://dc.lft.to/lastmile_qr_scan", "ios": "https://dc.lft.to/lastmile_qr_scan"}, "fusion_lat": 0.0}, {"type": "electric_scooter", "bike_id": "cf506ab057d0f2c1816431187d80b2ce", "is_disabled": 0, "name": "cf506ab057d0f2c1816431187d80b2ce", "lon": -77.02069066666667, "is_reserved": 0, "fusion_lon": 0.0, "lat": 38.9236805, "rental_uris": {"android": "https://dc.lft.to/lastmile_qr_scan", "ios": "https://dc.lft.to/lastmile_qr_scan"}, "fusion_lat": 0.0}, {"type": "electric_bike", "bike_id": "dc98fb4c71cb096077f558e94ff5745e", "is_disabled": 0, "name": "dc98fb4c71cb096077f558e94ff5745e", "lon": -77.09698083333333, "is_reserved": 0, "fusion_lon": 0.0, "lat": 38.8868205, "rental_uris": {"android": "https://dc.lft.to/lastmile_qr_scan", "ios": "https://dc.lft.to/lastmile_qr_scan"}, "fusion_lat": 0.0}, {"type": "electric_scooter", "bike_id": "a21b16595ff57bec07e34b6a937ab4d6", "is_disabled": 0, "name": "a21b16595ff57bec07e34b6a937ab4d6", "lon": -77.046874, "is_reserved": 0, "fusion_lon": 0.0, "lat": 38.90217033333333, "rental_uris": {"android": "https://dc.lft.to/lastmile_qr_scan", "ios": "https://dc.lft.to/lastmile_qr_scan"}, "fusion_lat": 0.0}, {"type": "electric_scooter", "bike_id": "d736e0d9393285d37f4e6094c1afe14a", "is_disabled": 0, "name": "d736e0d9393285d37f4e6094c1afe14a", "lon": -77.05325516666667, "is_reserved": 0, "fusion_lon": 0.0, "lat": 38.915516, "rental_uris": {"android": "https://dc.lft.to/lastmile_qr_scan", "ios": "https://dc.lft.to/lastmile_qr_scan"}, "fusion_lat": 0.0}, {"type": "electric_scooter", "bike_id": "e56f158656e5da552290e741b99a4207", "is_disabled": 0, "name": "e56f158656e5da552290e741b99a4207", "lon": -77.0396765, "is_reserved": 0, "fusion_lon": 0.0, "lat": 38.898955666666666, "rental_uris": {"android": "https://dc.lft.to/lastmile_qr_scan", "ios": "https://dc.lft.to/lastmile_qr_scan"}, "fusion_lat": 0.0}, {"type": "electric_scooter", "bike_id": "f972eeef50d4b92b9d0c00ab0ab6bb77", "is_disabled": 0, "name": "f972eeef50d4b92b9d0c00ab0ab6bb77", "lon": -77.00540433333333, "is_reserved": 0, "fusion_lon": 0.0, "lat": 38.875442166666666, "rental_uris": {"android": "https://dc.lft.to/lastmile_qr_scan", "ios": "https://dc.lft.to/lastmile_qr_scan"}, "fusion_lat": 0.0}, {"type": "electric_scooter", "bike_id": "a30b36c30aaeacf955cb8146444a917b", "is_disabled": 0, "name": "a30b36c30aaeacf955cb8146444a917b", "lon": -76.99255833333333, "is_reserved": 0, "fusion_lon": 0.0, "lat": 38.919724, "rental_uris": {"android": "https://dc.lft.to/lastmile_qr_scan", "ios": "https://dc.lft.to/lastmile_qr_scan"}, "fusion_lat": 0.0}, {"type": "electric_scooter", "bike_id": "61db6955f48c8df287d3c9e90c68c3df", "is_disabled": 0, "name": "61db6955f48c8df287d3c9e90c68c3df", "lon": -77.0483025, "is_reserved": 0, "fusion_lon": 0.0, "lat": 38.89829483333333, "rental_uris": {"android": "https://dc.lft.to/lastmile_qr_scan", "ios": "https://dc.lft.to/lastmile_qr_scan"}, "fusion_lat": 0.0}, {"type": "electric_scooter", "bike_id": "8ea48e38c57f848467746e4af938e010", "is_disabled": 0, "name": "8ea48e38c57f848467746e4af938e010", "lon": -77.02297033333333, "is_reserved": 0, "fusion_lon": 0.0, "lat": 38.9177705, "rental_uris": {"android": "https://dc.lft.to/lastmile_qr_scan", "ios": "https://dc.lft.to/lastmile_qr_scan"}, "fusion_lat": 0.0}, {"type": "electric_bike", "bike_id": "ddc3bc5a7d4ee403ebdbedeccaab3991", "is_disabled": 0, "name": "ddc3bc5a7d4ee403ebdbedeccaab3991", "lon": -76.987247, "is_reserved": 0, "fusion_lon": 0.0, "lat": 38.863322833333335, "rental_uris": {"android": "https://dc.lft.to/lastmile_qr_scan", "ios": "https://dc.lft.to/lastmile_qr_scan"}, "fusion_lat": 0.0}, {"type": "electric_scooter", "bike_id": "0f5da59236d863d86d34f7953fdb9e1d", "is_disabled": 0, "name": "0f5da59236d863d86d34f7953fdb9e1d", "lon": -77.0395595, "is_reserved": 0, "fusion_lon": 0.0, "lat": 38.90010766666666, "rental_uris": {"android": "https://dc.lft.to/lastmile_qr_scan", "ios": "https://dc.lft.to/lastmile_qr_scan"}, "fusion_lat": 0.0}, {"type": "electric_scooter", "bike_id": "2b246ec4b12ef5e07b000f611958560d", "is_disabled": 0, "name": "2b246ec4b12ef5e07b000f611958560d", "lon": -77.05615833333333, "is_reserved": 0, "fusion_lon": 0.0, "lat": 38.92333216666667, "rental_uris": {"android": "https://dc.lft.to/lastmile_qr_scan", "ios": "https://dc.lft.to/lastmile_qr_scan"}, "fusion_lat": 0.0}, {"type": "electric_scooter", "bike_id": "2be02f287a7beaf06639d361b39d70a2", "is_disabled": 0, "name": "2be02f287a7beaf06639d361b39d70a2", "lon": -77.02818866666667, "is_reserved": 0, "fusion_lon": 0.0, "lat": 38.92311616666667, "rental_uris": {"android": "https://dc.lft.to/lastmile_qr_scan", "ios": "https://dc.lft.to/lastmile_qr_scan"}, "fusion_lat": 0.0}, {"type": "electric_scooter", "bike_id": "4acafa2b936e3635c4765f6154d4ec74", "is_disabled": 0, "name": "4acafa2b936e3635c4765f6154d4ec74", "lon": -77.04012083333333, "is_reserved": 0, "fusion_lon": 0.0, "lat": 38.909954666666664, "rental_uris": {"android": "https://dc.lft.to/lastmile_qr_scan", "ios": "https://dc.lft.to/lastmile_qr_scan"}, "fusion_lat": 0.0}, {"type": "electric_scooter", "bike_id": "66c0d05f3d07fae266290dbc5974bf13", "is_disabled": 0, "name": "66c0d05f3d07fae266290dbc5974bf13", "lon": -76.994801, "is_reserved": 0, "fusion_lon": 0.0, "lat": 38.888602166666665, "rental_uris": {"android": "https://dc.lft.to/lastmile_qr_scan", "ios": "https://dc.lft.to/lastmile_qr_scan"}, "fusion_lat": 0.0}, {"type": "electric_scooter", "bike_id": "630fd9d794dbfadabcf45718d722b18f", "is_disabled": 0, "name": "630fd9d794dbfadabcf45718d722b18f", "lon": -76.94947283333333, "is_reserved": 0, "fusion_lon": 0.0, "lat": 38.8954115, "rental_uris": {"android": "https://dc.lft.to/lastmile_qr_scan", "ios": "https://dc.lft.to/lastmile_qr_scan"}, "fusion_lat": 0.0}, {"type": "electric_scooter", "bike_id": "e132476d640ebbeb98121df18a92e803", "is_disabled": 0, "name": "e132476d640ebbeb98121df18a92e803", "lon": -77.03276583333333, "is_reserved": 0, "fusion_lon": 0.0, "lat": 38.93738183333333, "rental_uris": {"android": "https://dc.lft.to/lastmile_qr_scan", "ios": "https://dc.lft.to/lastmile_qr_scan"}, "fusion_lat": 0.0}, {"type": "electric_bike", "bike_id": "03d068d2658d623ba868a5a1504d2c30", "is_disabled": 0, "name": "03d068d2658d623ba868a5a1504d2c30", "lon": -77.0161455, "is_reserved": 0, "fusion_lon": 0.0, "lat": 38.903503666666666, "rental_uris": {"android": "https://dc.lft.to/lastmile_qr_scan", "ios": "https://dc.lft.to/lastmile_qr_scan"}, "fusion_lat": 0.0}, {"type": "electric_scooter", "bike_id": "8b6ada3c0b0d335188b4ba74a1f5c057", "is_disabled": 0, "name": "8b6ada3c0b0d335188b4ba74a1f5c057", "lon": -76.995045, "is_reserved": 0, "fusion_lon": 0.0, "lat": 38.88337883333333, "rental_uris": {"android": "https://dc.lft.to/lastmile_qr_scan", "ios": "https://dc.lft.to/lastmile_qr_scan"}, "fusion_lat": 0.0}, {"type": "electric_scooter", "bike_id": "2b452f953a5c06cfcfef9f668ef23f80", "is_disabled": 0, "name": "2b452f953a5c06cfcfef9f668ef23f80", "lon": -77.01391433333333, "is_reserved": 0, "fusion_lon": 0.0, "lat": 38.87895816666666, "rental_uris": {"android": "https://dc.lft.to/lastmile_qr_scan", "ios": "https://dc.lft.to/lastmile_qr_scan"}, "fusion_lat": 0.0}, {"type": "electric_scooter", "bike_id": "51fac80b08f5bcaf01bcb154cb58f9d8", "is_disabled": 0, "name": "51fac80b08f5bcaf01bcb154cb58f9d8", "lon": -77.04839983333333, "is_reserved": 0, "fusion_lon": 0.0, "lat": 38.916391, "rental_uris": {"android": "https://dc.lft.to/lastmile_qr_scan", "ios": "https://dc.lft.to/lastmile_qr_scan"}, "fusion_lat": 0.0}, {"type": "electric_scooter", "bike_id": "df9f6f2a19202499a4d56368e0fd1639", "is_disabled": 0, "name": "df9f6f2a19202499a4d56368e0fd1639", "lon": -76.99023516666666, "is_reserved": 0, "fusion_lon": 0.0, "lat": 38.86437033333333, "rental_uris": {"android": "https://dc.lft.to/lastmile_qr_scan", "ios": "https://dc.lft.to/lastmile_qr_scan"}, "fusion_lat": 0.0}, {"type": "electric_scooter", "bike_id": "d0ca62f51fd8ae7331f6854e1c361644", "is_disabled": 0, "name": "d0ca62f51fd8ae7331f6854e1c361644", "lon": -77.03403916666667, "is_reserved": 0, "fusion_lon": 0.0, "lat": 38.90235883333333, "rental_uris": {"android": "https://dc.lft.to/lastmile_qr_scan", "ios": "https://dc.lft.to/lastmile_qr_scan"}, "fusion_lat": 0.0}, {"type": "electric_scooter", "bike_id": "e9838e422f201c830112cce3e6239d35", "is_disabled": 0, "name": "e9838e422f201c830112cce3e6239d35", "lon": -77.033637, "is_reserved": 0, "fusion_lon": 0.0, "lat": 38.925377833333336, "rental_uris": {"android": "https://dc.lft.to/lastmile_qr_scan", "ios": "https://dc.lft.to/lastmile_qr_scan"}, "fusion_lat": 0.0}, {"type": "electric_bike", "bike_id": "7a9da80ac4351c98b3da6606a72a2cbf", "is_disabled": 0, "name": "7a9da80ac4351c98b3da6606a72a2cbf", "lon": -77.057065, "is_reserved": 0, "fusion_lon": 0.0, "lat": 38.905628666666665, "rental_uris": {"android": "https://dc.lft.to/lastmile_qr_scan", "ios": "https://dc.lft.to/lastmile_qr_scan"}, "fusion_lat": 0.0}, {"type": "electric_scooter", "bike_id": "730dd4a6b0c4017350d83cf53b39ff29", "is_disabled": 0, "name": "730dd4a6b0c4017350d83cf53b39ff29", "lon": -77.03084066666666, "is_reserved": 0, "fusion_lon": 0.0, "lat": 38.899971666666666, "rental_uris": {"android": "https://dc.lft.to/lastmile_qr_scan", "ios": "https://dc.lft.to/lastmile_qr_scan"}, "fusion_lat": 0.0}, {"type": "electric_scooter", "bike_id": "ff725f0788c13bb3f967f219e3ff8b68", "is_disabled": 0, "name": "ff725f0788c13bb3f967f219e3ff8b68", "lon": -77.00317066666666, "is_reserved": 0, "fusion_lon": 0.0, "lat": 38.88609983333333, "rental_uris": {"android": "https://dc.lft.to/lastmile_qr_scan", "ios": "https://dc.lft.to/lastmile_qr_scan"}, "fusion_lat": 0.0}, {"type": "electric_scooter", "bike_id": "173bc6122f8e773cba2f943e09ad8fae", "is_disabled": 0, "name": "173bc6122f8e773cba2f943e09ad8fae", "lon": -76.99612916666666, "is_reserved": 0, "fusion_lon": 0.0, "lat": 38.93165233333333, "rental_uris": {"android": "https://dc.lft.to/lastmile_qr_scan", "ios": "https://dc.lft.to/lastmile_qr_scan"}, "fusion_lat": 0.0}, {"type": "electric_scooter", "bike_id": "5dc4f87f98a322a9a046def219944c66", "is_disabled": 0, "name": "5dc4f87f98a322a9a046def219944c66", "lon": -76.99108883333334, "is_reserved": 0, "fusion_lon": 0.0, "lat": 38.857246333333336, "rental_uris": {"android": "https://dc.lft.to/lastmile_qr_scan", "ios": "https://dc.lft.to/lastmile_qr_scan"}, "fusion_lat": 0.0}, {"type": "electric_scooter", "bike_id": "26ca60f7eb95832c3b9cd94ad76cbe2c", "is_disabled": 0, "name": "26ca60f7eb95832c3b9cd94ad76cbe2c", "lon": -77.04166783333334, "is_reserved": 0, "fusion_lon": 0.0, "lat": 38.898428333333335, "rental_uris": {"android": "https://dc.lft.to/lastmile_qr_scan", "ios": "https://dc.lft.to/lastmile_qr_scan"}, "fusion_lat": 0.0}, {"type": "electric_scooter", "bike_id": "23c051542a973a7523fe986db91cf0e9", "is_disabled": 0, "name": "23c051542a973a7523fe986db91cf0e9", "lon": -77.042467, "is_reserved": 0, "fusion_lon": 0.0, "lat": 38.91966766666667, "rental_uris": {"android": "https://dc.lft.to/lastmile_qr_scan", "ios": "https://dc.lft.to/lastmile_qr_scan"}, "fusion_lat": 0.0}, {"type": "electric_scooter", "bike_id": "00dac69e43aef5149a75d4688267be3c", "is_disabled": 0, "name": "00dac69e43aef5149a75d4688267be3c", "lon": -77.041415, "is_reserved": 0, "fusion_lon": 0.0, "lat": 38.90886283333333, "rental_uris": {"android": "https://dc.lft.to/lastmile_qr_scan", "ios": "https://dc.lft.to/lastmile_qr_scan"}, "fusion_lat": 0.0}, {"type": "electric_scooter", "bike_id": "7df16c3191b66e935fd02f34f5bfc02f", "is_disabled": 0, "name": "7df16c3191b66e935fd02f34f5bfc02f", "lon": -77.03967366666667, "is_reserved": 0, "fusion_lon": 0.0, "lat": 38.90273033333333, "rental_uris": {"android": "https://dc.lft.to/lastmile_qr_scan", "ios": "https://dc.lft.to/lastmile_qr_scan"}, "fusion_lat": 0.0}, {"type": "electric_scooter", "bike_id": "ed15e623b343b3d71b2dcf959bc8b11e", "is_disabled": 0, "name": "ed15e623b343b3d71b2dcf959bc8b11e", "lon": -77.04332683333334, "is_reserved": 0, "fusion_lon": 0.0, "lat": 38.92220066666667, "rental_uris": {"android": "https://dc.lft.to/lastmile_qr_scan", "ios": "https://dc.lft.to/lastmile_qr_scan"}, "fusion_lat": 0.0}, {"type": "electric_bike", "bike_id": "00b8b64e4b2290e8ecb60971a67e661c", "is_disabled": 0, "name": "00b8b64e4b2290e8ecb60971a67e661c", "lon": -77.1294205, "is_reserved": 0, "fusion_lon": 0.0, "lat": 38.86578466666667, "rental_uris": {"android": "https://dc.lft.to/lastmile_qr_scan", "ios": "https://dc.lft.to/lastmile_qr_scan"}, "fusion_lat": 0.0}, {"type": "electric_scooter", "bike_id": "d1bef9d0986797bbd349bd8f3233205a", "is_disabled": 0, "name": "d1bef9d0986797bbd349bd8f3233205a", "lon": -77.0857555, "is_reserved": 0, "fusion_lon": 0.0, "lat": 38.933583666666664, "rental_uris": {"android": "https://dc.lft.to/lastmile_qr_scan", "ios": "https://dc.lft.to/lastmile_qr_scan"}, "fusion_lat": 0.0}, {"type": "electric_scooter", "bike_id": "fba80230f3898f0b74eb15caf72eb1d9", "is_disabled": 0, "name": "fba80230f3898f0b74eb15caf72eb1d9", "lon": -77.03900016666667, "is_reserved": 0, "fusion_lon": 0.0, "lat": 38.9012945, "rental_uris": {"android": "https://dc.lft.to/lastmile_qr_scan", "ios": "https://dc.lft.to/lastmile_qr_scan"}, "fusion_lat": 0.0}, {"type": "electric_scooter", "bike_id": "0751beb2358d866b3e9e65177a102217", "is_disabled": 0, "name": "0751beb2358d866b3e9e65177a102217", "lon": -77.03219766666666, "is_reserved": 0, "fusion_lon": 0.0, "lat": 38.893960166666666, "rental_uris": {"android": "https://dc.lft.to/lastmile_qr_scan", "ios": "https://dc.lft.to/lastmile_qr_scan"}, "fusion_lat": 0.0}, {"type": "electric_scooter", "bike_id": "283a928b5c779f68104de746e69f2117", "is_disabled": 0, "name": "283a928b5c779f68104de746e69f2117", "lon": -77.0416115, "is_reserved": 0, "fusion_lon": 0.0, "lat": 38.912497333333334, "rental_uris": {"android": "https://dc.lft.to/lastmile_qr_scan", "ios": "https://dc.lft.to/lastmile_qr_scan"}, "fusion_lat": 0.0}, {"type": "electric_scooter", "bike_id": "b3bcfaf752945da913b751c0b916de58", "is_disabled": 0, "name": "b3bcfaf752945da913b751c0b916de58", "lon": -77.02401633333334, "is_reserved": 0, "fusion_lon": 0.0, "lat": 38.90695433333333, "rental_uris": {"android": "https://dc.lft.to/lastmile_qr_scan", "ios": "https://dc.lft.to/lastmile_qr_scan"}, "fusion_lat": 0.0}, {"type": "electric_scooter", "bike_id": "14220b8a1602c1884300e808ba6facff", "is_disabled": 0, "name": "14220b8a1602c1884300e808ba6facff", "lon": -77.00898933333333, "is_reserved": 0, "fusion_lon": 0.0, "lat": 38.924799166666666, "rental_uris": {"android": "https://dc.lft.to/lastmile_qr_scan", "ios": "https://dc.lft.to/lastmile_qr_scan"}, "fusion_lat": 0.0}, {"type": "electric_scooter", "bike_id": "cf041fcbdf959ab83c171c023ae05cff", "is_disabled": 0, "name": "cf041fcbdf959ab83c171c023ae05cff", "lon": -77.01502833333333, "is_reserved": 0, "fusion_lon": 0.0, "lat": 38.92662333333333, "rental_uris": {"android": "https://dc.lft.to/lastmile_qr_scan", "ios": "https://dc.lft.to/lastmile_qr_scan"}, "fusion_lat": 0.0}, {"type": "electric_scooter", "bike_id": "921d714e43bdc4237610cd9f83199912", "is_disabled": 0, "name": "921d714e43bdc4237610cd9f83199912", "lon": -77.02825183333333, "is_reserved": 0, "fusion_lon": 0.0, "lat": 38.91764333333333, "rental_uris": {"android": "https://dc.lft.to/lastmile_qr_scan", "ios": "https://dc.lft.to/lastmile_qr_scan"}, "fusion_lat": 0.0}, {"type": "electric_scooter", "bike_id": "0b1a70706f4b5e740374a320b7e5ef85", "is_disabled": 0, "name": "0b1a70706f4b5e740374a320b7e5ef85", "lon": -77.00359266666666, "is_reserved": 0, "fusion_lon": 0.0, "lat": 38.886382833333336, "rental_uris": {"android": "https://dc.lft.to/lastmile_qr_scan", "ios": "https://dc.lft.to/lastmile_qr_scan"}, "fusion_lat": 0.0}, {"type": "electric_scooter", "bike_id": "d985a7c27c9bcfe6cf1872a9656a69da", "is_disabled": 0, "name": "d985a7c27c9bcfe6cf1872a9656a69da", "lon": -76.92972, "is_reserved": 0, "fusion_lon": 0.0, "lat": 38.89628116666667, "rental_uris": {"android": "https://dc.lft.to/lastmile_qr_scan", "ios": "https://dc.lft.to/lastmile_qr_scan"}, "fusion_lat": 0.0}, {"type": "electric_scooter", "bike_id": "b8ad6eb25cf03b643c190da4eeae9671", "is_disabled": 0, "name": "b8ad6eb25cf03b643c190da4eeae9671", "lon": -76.9899115, "is_reserved": 0, "fusion_lon": 0.0, "lat": 38.86437, "rental_uris": {"android": "https://dc.lft.to/lastmile_qr_scan", "ios": "https://dc.lft.to/lastmile_qr_scan"}, "fusion_lat": 0.0}, {"type": "electric_scooter", "bike_id": "6c52811b8a0a77bbdf8b969bd5a11071", "is_disabled": 0, "name": "6c52811b8a0a77bbdf8b969bd5a11071", "lon": -77.02864966666667, "is_reserved": 0, "fusion_lon": 0.0, "lat": 38.901564666666665, "rental_uris": {"android": "https://dc.lft.to/lastmile_qr_scan", "ios": "https://dc.lft.to/lastmile_qr_scan"}, "fusion_lat": 0.0}, {"type": "electric_scooter", "bike_id": "9c5bdb39b4f2f5ecf93b6537c640cde4", "is_disabled": 0, "name": "9c5bdb39b4f2f5ecf93b6537c640cde4", "lon": -77.028129, "is_reserved": 0, "fusion_lon": 0.0, "lat": 38.91041666666667, "rental_uris": {"android": "https://dc.lft.to/lastmile_qr_scan", "ios": "https://dc.lft.to/lastmile_qr_scan"}, "fusion_lat": 0.0}, {"type": "electric_scooter", "bike_id": "fd3f362d31e9fde96866d23ccaf56202", "is_disabled": 0, "name": "fd3f362d31e9fde96866d23ccaf56202", "lon": -77.00200733333334, "is_reserved": 0, "fusion_lon": 0.0, "lat": 38.90240083333333, "rental_uris": {"android": "https://dc.lft.to/lastmile_qr_scan", "ios": "https://dc.lft.to/lastmile_qr_scan"}, "fusion_lat": 0.0}, {"type": "electric_scooter", "bike_id": "81a693bcc0b4d6b4a26e58e0bcdcdfd1", "is_disabled": 0, "name": "81a693bcc0b4d6b4a26e58e0bcdcdfd1", "lon": -77.01790766666667, "is_reserved": 0, "fusion_lon": 0.0, "lat": 38.920329, "rental_uris": {"android": "https://dc.lft.to/lastmile_qr_scan", "ios": "https://dc.lft.to/lastmile_qr_scan"}, "fusion_lat": 0.0}, {"type": "electric_scooter", "bike_id": "dd1938eac6bd315a5cfb2ac4ead38ea0", "is_disabled": 0, "name": "dd1938eac6bd315a5cfb2ac4ead38ea0", "lon": -77.05281816666667, "is_reserved": 0, "fusion_lon": 0.0, "lat": 38.9100935, "rental_uris": {"android": "https://dc.lft.to/lastmile_qr_scan", "ios": "https://dc.lft.to/lastmile_qr_scan"}, "fusion_lat": 0.0}, {"type": "electric_scooter", "bike_id": "fabfe6e77d8b0cb9a6fd13d76dca88e4", "is_disabled": 0, "name": "fabfe6e77d8b0cb9a6fd13d76dca88e4", "lon": -77.01917316666666, "is_reserved": 0, "fusion_lon": 0.0, "lat": 38.92022816666667, "rental_uris": {"android": "https://dc.lft.to/lastmile_qr_scan", "ios": "https://dc.lft.to/lastmile_qr_scan"}, "fusion_lat": 0.0}, {"type": "electric_scooter", "bike_id": "74d7c84162da3ede1e53545a858857a1", "is_disabled": 0, "name": "74d7c84162da3ede1e53545a858857a1", "lon": -77.01763766666667, "is_reserved": 0, "fusion_lon": 0.0, "lat": 38.87688816666667, "rental_uris": {"android": "https://dc.lft.to/lastmile_qr_scan", "ios": "https://dc.lft.to/lastmile_qr_scan"}, "fusion_lat": 0.0}, {"type": "electric_scooter", "bike_id": "c568f7d710a29a1185c102cf6408b951", "is_disabled": 0, "name": "c568f7d710a29a1185c102cf6408b951", "lon": -77.0281155, "is_reserved": 0, "fusion_lon": 0.0, "lat": 38.90733016666667, "rental_uris": {"android": "https://dc.lft.to/lastmile_qr_scan", "ios": "https://dc.lft.to/lastmile_qr_scan"}, "fusion_lat": 0.0}, {"type": "electric_scooter", "bike_id": "7412633518b14bd2092dfb3ad5c0a18a", "is_disabled": 0, "name": "7412633518b14bd2092dfb3ad5c0a18a", "lon": -77.0745805, "is_reserved": 0, "fusion_lon": 0.0, "lat": 38.937812666666666, "rental_uris": {"android": "https://dc.lft.to/lastmile_qr_scan", "ios": "https://dc.lft.to/lastmile_qr_scan"}, "fusion_lat": 0.0}, {"type": "electric_scooter", "bike_id": "2d1772f588a5ce855ffdb5695e3352dd", "is_disabled": 0, "name": "2d1772f588a5ce855ffdb5695e3352dd", "lon": -77.045105, "is_reserved": 0, "fusion_lon": 0.0, "lat": 38.9037975, "rental_uris": {"android": "https://dc.lft.to/lastmile_qr_scan", "ios": "https://dc.lft.to/lastmile_qr_scan"}, "fusion_lat": 0.0}, {"type": "electric_scooter", "bike_id": "9fa7dab03ff759a8e504ccce709d60e7", "is_disabled": 0, "name": "9fa7dab03ff759a8e504ccce709d60e7", "lon": -76.97308783333334, "is_reserved": 0, "fusion_lon": 0.0, "lat": 38.919884333333336, "rental_uris": {"android": "https://dc.lft.to/lastmile_qr_scan", "ios": "https://dc.lft.to/lastmile_qr_scan"}, "fusion_lat": 0.0}, {"type": "electric_scooter", "bike_id": "f2f7300da7c44b5b94d6e9cff4b1ab94", "is_disabled": 0, "name": "f2f7300da7c44b5b94d6e9cff4b1ab94", "lon": -77.01963466666666, "is_reserved": 0, "fusion_lon": 0.0, "lat": 38.923287, "rental_uris": {"android": "https://dc.lft.to/lastmile_qr_scan", "ios": "https://dc.lft.to/lastmile_qr_scan"}, "fusion_lat": 0.0}, {"type": "electric_bike", "bike_id": "8bf38cfbc20d29145973dfc84eb8f2b6", "is_disabled": 0, "name": "8bf38cfbc20d29145973dfc84eb8f2b6", "lon": -77.043012, "is_reserved": 0, "fusion_lon": 0.0, "lat": 39.03429583333333, "rental_uris": {"android": "https://dc.lft.to/lastmile_qr_scan", "ios": "https://dc.lft.to/lastmile_qr_scan"}, "fusion_lat": 0.0}, {"type": "electric_scooter", "bike_id": "e9c0899679f32c0d454d5da789cdfd57", "is_disabled": 0, "name": "e9c0899679f32c0d454d5da789cdfd57", "lon": -77.0299315, "is_reserved": 0, "fusion_lon": 0.0, "lat": 38.90497216666667, "rental_uris": {"android": "https://dc.lft.to/lastmile_qr_scan", "ios": "https://dc.lft.to/lastmile_qr_scan"}, "fusion_lat": 0.0}, {"type": "electric_scooter", "bike_id": "401b27c8fe9178d1c62708ae797b9e93", "is_disabled": 0, "name": "401b27c8fe9178d1c62708ae797b9e93", "lon": -77.0350585, "is_reserved": 0, "fusion_lon": 0.0, "lat": 38.9215185, "rental_uris": {"android": "https://dc.lft.to/lastmile_qr_scan", "ios": "https://dc.lft.to/lastmile_qr_scan"}, "fusion_lat": 0.0}, {"type": "electric_bike", "bike_id": "e801c81aadf5eaaf5cb3e4eba0104933", "is_disabled": 0, "name": "e801c81aadf5eaaf5cb3e4eba0104933", "lon": -77.02666383333333, "is_reserved": 0, "fusion_lon": 0.0, "lat": 38.988181, "rental_uris": {"android": "https://dc.lft.to/lastmile_qr_scan", "ios": "https://dc.lft.to/lastmile_qr_scan"}, "fusion_lat": 0.0}, {"type": "electric_scooter", "bike_id": "d0e3ff75ed327144d84e1802b9b7acb8", "is_disabled": 0, "name": "d0e3ff75ed327144d84e1802b9b7acb8", "lon": -77.03479883333333, "is_reserved": 0, "fusion_lon": 0.0, "lat": 38.92890083333333, "rental_uris": {"android": "https://dc.lft.to/lastmile_qr_scan", "ios": "https://dc.lft.to/lastmile_qr_scan"}, "fusion_lat": 0.0}, {"type": "electric_scooter", "bike_id": "8c987c6aa54cebda61074ecd25c1d0f5", "is_disabled": 0, "name": "8c987c6aa54cebda61074ecd25c1d0f5", "lon": -77.03829283333333, "is_reserved": 0, "fusion_lon": 0.0, "lat": 38.907949, "rental_uris": {"android": "https://dc.lft.to/lastmile_qr_scan", "ios": "https://dc.lft.to/lastmile_qr_scan"}, "fusion_lat": 0.0}, {"type": "electric_scooter", "bike_id": "1e1ca9400014485a94a8d5d65f8a602f", "is_disabled": 0, "name": "1e1ca9400014485a94a8d5d65f8a602f", "lon": -77.03264233333333, "is_reserved": 0, "fusion_lon": 0.0, "lat": 38.93520516666667, "rental_uris": {"android": "https://dc.lft.to/lastmile_qr_scan", "ios": "https://dc.lft.to/lastmile_qr_scan"}, "fusion_lat": 0.0}, {"type": "electric_scooter", "bike_id": "239eb6934bd725a22e8cee5706785836", "is_disabled": 0, "name": "239eb6934bd725a22e8cee5706785836", "lon": -77.07009316666667, "is_reserved": 0, "fusion_lon": 0.0, "lat": 38.90591883333333, "rental_uris": {"android": "https://dc.lft.to/lastmile_qr_scan", "ios": "https://dc.lft.to/lastmile_qr_scan"}, "fusion_lat": 0.0}, {"type": "electric_scooter", "bike_id": "2096bef5baab65d109a6c43fa9e8c7b6", "is_disabled": 0, "name": "2096bef5baab65d109a6c43fa9e8c7b6", "lon": -77.00294666666667, "is_reserved": 0, "fusion_lon": 0.0, "lat": 38.891969333333336, "rental_uris": {"android": "https://dc.lft.to/lastmile_qr_scan", "ios": "https://dc.lft.to/lastmile_qr_scan"}, "fusion_lat": 0.0}, {"type": "electric_bike", "bike_id": "0cf10c62a7788ce8771cee4c41e7300d", "is_disabled": 0, "name": "0cf10c62a7788ce8771cee4c41e7300d", "lon": -76.9380605, "is_reserved": 0, "fusion_lon": 0.0, "lat": 38.9797465, "rental_uris": {"android": "https://dc.lft.to/lastmile_qr_scan", "ios": "https://dc.lft.to/lastmile_qr_scan"}, "fusion_lat": 0.0}, {"type": "electric_scooter", "bike_id": "c0762d5e0f2e5ead17a82f4c09a9c6f5", "is_disabled": 0, "name": "c0762d5e0f2e5ead17a82f4c09a9c6f5", "lon": -77.00486183333334, "is_reserved": 0, "fusion_lon": 0.0, "lat": 38.87458633333333, "rental_uris": {"android": "https://dc.lft.to/lastmile_qr_scan", "ios": "https://dc.lft.to/lastmile_qr_scan"}, "fusion_lat": 0.0}, {"type": "electric_scooter", "bike_id": "19165e82f9283fa0291ace7ce4e3c7b2", "is_disabled": 0, "name": "19165e82f9283fa0291ace7ce4e3c7b2", "lon": -77.037279, "is_reserved": 0, "fusion_lon": 0.0, "lat": 38.920294166666665, "rental_uris": {"android": "https://dc.lft.to/lastmile_qr_scan", "ios": "https://dc.lft.to/lastmile_qr_scan"}, "fusion_lat": 0.0}, {"type": "electric_bike", "bike_id": "b83bdce1251c82aec1255c4fff727795", "is_disabled": 0, "name": "b83bdce1251c82aec1255c4fff727795", "lon": -77.00957733333334, "is_reserved": 0, "fusion_lon": 0.0, "lat": 38.921350333333336, "rental_uris": {"android": "https://dc.lft.to/lastmile_qr_scan", "ios": "https://dc.lft.to/lastmile_qr_scan"}, "fusion_lat": 0.0}, {"type": "electric_scooter", "bike_id": "0ea1fd27f9c967653a676c063cf4ff5d", "is_disabled": 0, "name": "0ea1fd27f9c967653a676c063cf4ff5d", "lon": -77.03364583333334, "is_reserved": 0, "fusion_lon": 0.0, "lat": 38.92437916666667, "rental_uris": {"android": "https://dc.lft.to/lastmile_qr_scan", "ios": "https://dc.lft.to/lastmile_qr_scan"}, "fusion_lat": 0.0}, {"type": "electric_scooter", "bike_id": "b15c629b7eae9055e03d2b810bf80af2", "is_disabled": 0, "name": "b15c629b7eae9055e03d2b810bf80af2", "lon": -77.00395733333333, "is_reserved": 0, "fusion_lon": 0.0, "lat": 38.90863133333333, "rental_uris": {"android": "https://dc.lft.to/lastmile_qr_scan", "ios": "https://dc.lft.to/lastmile_qr_scan"}, "fusion_lat": 0.0}, {"type": "electric_scooter", "bike_id": "3b464f41cccb77cc7d76ddc108f47c79", "is_disabled": 0, "name": "3b464f41cccb77cc7d76ddc108f47c79", "lon": -77.02573566666666, "is_reserved": 0, "fusion_lon": 0.0, "lat": 38.8958235, "rental_uris": {"android": "https://dc.lft.to/lastmile_qr_scan", "ios": "https://dc.lft.to/lastmile_qr_scan"}, "fusion_lat": 0.0}, {"type": "electric_scooter", "bike_id": "08d49c06c793d5d00cde8dbd372f2db9", "is_disabled": 0, "name": "08d49c06c793d5d00cde8dbd372f2db9", "lon": -77.03282066666667, "is_reserved": 0, "fusion_lon": 0.0, "lat": 38.89894366666667, "rental_uris": {"android": "https://dc.lft.to/lastmile_qr_scan", "ios": "https://dc.lft.to/lastmile_qr_scan"}, "fusion_lat": 0.0}, {"type": "electric_scooter", "bike_id": "e8477cc3ab96f5b27aa9ffedb92a5ba8", "is_disabled": 0, "name": "e8477cc3ab96f5b27aa9ffedb92a5ba8", "lon": -77.03677966666666, "is_reserved": 0, "fusion_lon": 0.0, "lat": 38.92716333333333, "rental_uris": {"android": "https://dc.lft.to/lastmile_qr_scan", "ios": "https://dc.lft.to/lastmile_qr_scan"}, "fusion_lat": 0.0}, {"type": "electric_scooter", "bike_id": "79e03ef4deab3e5ac8eba02411b31f3d", "is_disabled": 0, "name": "79e03ef4deab3e5ac8eba02411b31f3d", "lon": -77.03175283333333, "is_reserved": 0, "fusion_lon": 0.0, "lat": 38.914176833333336, "rental_uris": {"android": "https://dc.lft.to/lastmile_qr_scan", "ios": "https://dc.lft.to/lastmile_qr_scan"}, "fusion_lat": 0.0}, {"type": "electric_bike", "bike_id": "fe65f34749d128ea00bd628e5f7ee03b", "is_disabled": 0, "name": "fe65f34749d128ea00bd628e5f7ee03b", "lon": -76.95708366666666, "is_reserved": 0, "fusion_lon": 0.0, "lat": 38.850864333333334, "rental_uris": {"android": "https://dc.lft.to/lastmile_qr_scan", "ios": "https://dc.lft.to/lastmile_qr_scan"}, "fusion_lat": 0.0}, {"type": "electric_scooter", "bike_id": "35f54d52e2372399477a1b009145d9a5", "is_disabled": 0, "name": "35f54d52e2372399477a1b009145d9a5", "lon": -77.03380133333333, "is_reserved": 0, "fusion_lon": 0.0, "lat": 38.92233383333333, "rental_uris": {"android": "https://dc.lft.to/lastmile_qr_scan", "ios": "https://dc.lft.to/lastmile_qr_scan"}, "fusion_lat": 0.0}, {"type": "electric_scooter", "bike_id": "2f767340fa8e2aa9de3b8f53f1863466", "is_disabled": 0, "name": "2f767340fa8e2aa9de3b8f53f1863466", "lon": -76.95738666666666, "is_reserved": 0, "fusion_lon": 0.0, "lat": 38.8838755, "rental_uris": {"android": "https://dc.lft.to/lastmile_qr_scan", "ios": "https://dc.lft.to/lastmile_qr_scan"}, "fusion_lat": 0.0}, {"type": "electric_scooter", "bike_id": "fa3bc18997a144e56be338acf84187a6", "is_disabled": 0, "name": "fa3bc18997a144e56be338acf84187a6", "lon": -77.0238475, "is_reserved": 0, "fusion_lon": 0.0, "lat": 38.90972033333333, "rental_uris": {"android": "https://dc.lft.to/lastmile_qr_scan", "ios": "https://dc.lft.to/lastmile_qr_scan"}, "fusion_lat": 0.0}, {"type": "electric_scooter", "bike_id": "7c7efcc4ea8323979e9bf732300f3554", "is_disabled": 0, "name": "7c7efcc4ea8323979e9bf732300f3554", "lon": -76.9956255, "is_reserved": 0, "fusion_lon": 0.0, "lat": 38.9202295, "rental_uris": {"android": "https://dc.lft.to/lastmile_qr_scan", "ios": "https://dc.lft.to/lastmile_qr_scan"}, "fusion_lat": 0.0}, {"type": "electric_bike", "bike_id": "75fb511ab714c8d2fd9a3f1486eb525b", "is_disabled": 0, "name": "75fb511ab714c8d2fd9a3f1486eb525b", "lon": -77.03826583333333, "is_reserved": 0, "fusion_lon": 0.0, "lat": 38.929735666666666, "rental_uris": {"android": "https://dc.lft.to/lastmile_qr_scan", "ios": "https://dc.lft.to/lastmile_qr_scan"}, "fusion_lat": 0.0}, {"type": "electric_scooter", "bike_id": "6a4d31964147b3b14e878efbc4d5da24", "is_disabled": 0, "name": "6a4d31964147b3b14e878efbc4d5da24", "lon": -76.98946733333334, "is_reserved": 0, "fusion_lon": 0.0, "lat": 38.9039145, "rental_uris": {"android": "https://dc.lft.to/lastmile_qr_scan", "ios": "https://dc.lft.to/lastmile_qr_scan"}, "fusion_lat": 0.0}, {"type": "electric_bike", "bike_id": "7330706ad23b82b0a0c8c30df4796704", "is_disabled": 0, "name": "7330706ad23b82b0a0c8c30df4796704", "lon": -77.16237733333334, "is_reserved": 0, "fusion_lon": 0.0, "lat": 38.88653983333333, "rental_uris": {"android": "https://dc.lft.to/lastmile_qr_scan", "ios": "https://dc.lft.to/lastmile_qr_scan"}, "fusion_lat": 0.0}, {"type": "electric_bike", "bike_id": "3f0e80b7209e767f98e28d011b8bbd47", "is_disabled": 0, "name": "3f0e80b7209e767f98e28d011b8bbd47", "lon": -77.09656816666667, "is_reserved": 0, "fusion_lon": 0.0, "lat": 38.952192833333335, "rental_uris": {"android": "https://dc.lft.to/lastmile_qr_scan", "ios": "https://dc.lft.to/lastmile_qr_scan"}, "fusion_lat": 0.0}, {"type": "electric_scooter", "bike_id": "7dcb2e72b22cd5c031bf55b320c35780", "is_disabled": 0, "name": "7dcb2e72b22cd5c031bf55b320c35780", "lon": -77.019609, "is_reserved": 0, "fusion_lon": 0.0, "lat": 38.923306833333335, "rental_uris": {"android": "https://dc.lft.to/lastmile_qr_scan", "ios": "https://dc.lft.to/lastmile_qr_scan"}, "fusion_lat": 0.0}, {"type": "electric_scooter", "bike_id": "7568d1a3b4045d6094ab2f5a9f1d2e1d", "is_disabled": 0, "name": "7568d1a3b4045d6094ab2f5a9f1d2e1d", "lon": -77.02807416666667, "is_reserved": 0, "fusion_lon": 0.0, "lat": 38.930811, "rental_uris": {"android": "https://dc.lft.to/lastmile_qr_scan", "ios": "https://dc.lft.to/lastmile_qr_scan"}, "fusion_lat": 0.0}, {"type": "electric_scooter", "bike_id": "2bbcecd773b274e7191eb5265140c627", "is_disabled": 0, "name": "2bbcecd773b274e7191eb5265140c627", "lon": -77.02287616666666, "is_reserved": 0, "fusion_lon": 0.0, "lat": 38.91672033333333, "rental_uris": {"android": "https://dc.lft.to/lastmile_qr_scan", "ios": "https://dc.lft.to/lastmile_qr_scan"}, "fusion_lat": 0.0}, {"type": "electric_scooter", "bike_id": "4fe1a35ad4ea565247168a7e04bda464", "is_disabled": 0, "name": "4fe1a35ad4ea565247168a7e04bda464", "lon": -77.032987, "is_reserved": 0, "fusion_lon": 0.0, "lat": 38.911135, "rental_uris": {"android": "https://dc.lft.to/lastmile_qr_scan", "ios": "https://dc.lft.to/lastmile_qr_scan"}, "fusion_lat": 0.0}, {"type": "electric_scooter", "bike_id": "3edc8f0f6229ceb708ba2ea7f9967dd4", "is_disabled": 0, "name": "3edc8f0f6229ceb708ba2ea7f9967dd4", "lon": -77.03661416666667, "is_reserved": 0, "fusion_lon": 0.0, "lat": 38.9179225, "rental_uris": {"android": "https://dc.lft.to/lastmile_qr_scan", "ios": "https://dc.lft.to/lastmile_qr_scan"}, "fusion_lat": 0.0}, {"type": "electric_scooter", "bike_id": "410c21c4823e03ca9374dc63e941a694", "is_disabled": 0, "name": "410c21c4823e03ca9374dc63e941a694", "lon": -77.0469835, "is_reserved": 0, "fusion_lon": 0.0, "lat": 38.921099166666664, "rental_uris": {"android": "https://dc.lft.to/lastmile_qr_scan", "ios": "https://dc.lft.to/lastmile_qr_scan"}, "fusion_lat": 0.0}, {"type": "electric_scooter", "bike_id": "23a06008557d5192966b53e5ed98e27e", "is_disabled": 0, "name": "23a06008557d5192966b53e5ed98e27e", "lon": -77.024139, "is_reserved": 0, "fusion_lon": 0.0, "lat": 38.93490666666667, "rental_uris": {"android": "https://dc.lft.to/lastmile_qr_scan", "ios": "https://dc.lft.to/lastmile_qr_scan"}, "fusion_lat": 0.0}, {"type": "electric_scooter", "bike_id": "b7a894babef3c81c41d09e4109e19e9d", "is_disabled": 0, "name": "b7a894babef3c81c41d09e4109e19e9d", "lon": -77.0191, "is_reserved": 0, "fusion_lon": 0.0, "lat": 38.923563, "rental_uris": {"android": "https://dc.lft.to/lastmile_qr_scan", "ios": "https://dc.lft.to/lastmile_qr_scan"}, "fusion_lat": 0.0}, {"type": "electric_scooter", "bike_id": "0916a998ea2be366301155d70e918c8e", "is_disabled": 0, "name": "0916a998ea2be366301155d70e918c8e", "lon": -77.03659233333333, "is_reserved": 0, "fusion_lon": 0.0, "lat": 38.92379583333334, "rental_uris": {"android": "https://dc.lft.to/lastmile_qr_scan", "ios": "https://dc.lft.to/lastmile_qr_scan"}, "fusion_lat": 0.0}, {"type": "electric_scooter", "bike_id": "c61063ced92772e2b39d882106ced703", "is_disabled": 0, "name": "c61063ced92772e2b39d882106ced703", "lon": -77.03465416666667, "is_reserved": 0, "fusion_lon": 0.0, "lat": 38.902985, "rental_uris": {"android": "https://dc.lft.to/lastmile_qr_scan", "ios": "https://dc.lft.to/lastmile_qr_scan"}, "fusion_lat": 0.0}, {"type": "electric_scooter", "bike_id": "12822b99a7c2fbcdff34c877154d3f80", "is_disabled": 0, "name": "12822b99a7c2fbcdff34c877154d3f80", "lon": -77.05817583333334, "is_reserved": 0, "fusion_lon": 0.0, "lat": 38.928977, "rental_uris": {"android": "https://dc.lft.to/lastmile_qr_scan", "ios": "https://dc.lft.to/lastmile_qr_scan"}, "fusion_lat": 0.0}, {"type": "electric_scooter", "bike_id": "115540004094618c8ca6adef7fd0c966", "is_disabled": 0, "name": "115540004094618c8ca6adef7fd0c966", "lon": -76.99726166666667, "is_reserved": 0, "fusion_lon": 0.0, "lat": 38.845402, "rental_uris": {"android": "https://dc.lft.to/lastmile_qr_scan", "ios": "https://dc.lft.to/lastmile_qr_scan"}, "fusion_lat": 0.0}, {"type": "electric_scooter", "bike_id": "86882a1508426476d9feefe8ce13464f", "is_disabled": 0, "name": "86882a1508426476d9feefe8ce13464f", "lon": -77.01189033333333, "is_reserved": 0, "fusion_lon": 0.0, "lat": 38.900119, "rental_uris": {"android": "https://dc.lft.to/lastmile_qr_scan", "ios": "https://dc.lft.to/lastmile_qr_scan"}, "fusion_lat": 0.0}, {"type": "electric_scooter", "bike_id": "50ef5339e273bf739929507e9c9cbbcd", "is_disabled": 0, "name": "50ef5339e273bf739929507e9c9cbbcd", "lon": -77.071712, "is_reserved": 0, "fusion_lon": 0.0, "lat": 38.90776233333333, "rental_uris": {"android": "https://dc.lft.to/lastmile_qr_scan", "ios": "https://dc.lft.to/lastmile_qr_scan"}, "fusion_lat": 0.0}, {"type": "electric_scooter", "bike_id": "24ab25f06eee0a8be0827a005ffa707f", "is_disabled": 0, "name": "24ab25f06eee0a8be0827a005ffa707f", "lon": -77.01302816666667, "is_reserved": 0, "fusion_lon": 0.0, "lat": 38.87775716666667, "rental_uris": {"android": "https://dc.lft.to/lastmile_qr_scan", "ios": "https://dc.lft.to/lastmile_qr_scan"}, "fusion_lat": 0.0}, {"type": "electric_scooter", "bike_id": "829088cc7324f1a3f777ba65954357fd", "is_disabled": 0, "name": "829088cc7324f1a3f777ba65954357fd", "lon": -77.03254283333334, "is_reserved": 0, "fusion_lon": 0.0, "lat": 38.918188666666666, "rental_uris": {"android": "https://dc.lft.to/lastmile_qr_scan", "ios": "https://dc.lft.to/lastmile_qr_scan"}, "fusion_lat": 0.0}, {"type": "electric_scooter", "bike_id": "8df87cbe8a35badd739340e55d03c7c1", "is_disabled": 0, "name": "8df87cbe8a35badd739340e55d03c7c1", "lon": -77.0188755, "is_reserved": 0, "fusion_lon": 0.0, "lat": 38.89753566666667, "rental_uris": {"android": "https://dc.lft.to/lastmile_qr_scan", "ios": "https://dc.lft.to/lastmile_qr_scan"}, "fusion_lat": 0.0}, {"type": "electric_scooter", "bike_id": "12f05aa624213e8e97d7c40c040aaf4a", "is_disabled": 0, "name": "12f05aa624213e8e97d7c40c040aaf4a", "lon": -77.0499515, "is_reserved": 0, "fusion_lon": 0.0, "lat": 38.900665000000004, "rental_uris": {"android": "https://dc.lft.to/lastmile_qr_scan", "ios": "https://dc.lft.to/lastmile_qr_scan"}, "fusion_lat": 0.0}, {"type": "electric_scooter", "bike_id": "d2d216e0876ffe505ade986735f9952b", "is_disabled": 0, "name": "d2d216e0876ffe505ade986735f9952b", "lon": -77.00322883333334, "is_reserved": 0, "fusion_lon": 0.0, "lat": 38.877233, "rental_uris": {"android": "https://dc.lft.to/lastmile_qr_scan", "ios": "https://dc.lft.to/lastmile_qr_scan"}, "fusion_lat": 0.0}, {"type": "electric_scooter", "bike_id": "749d28217a636cffc4b7dc3ff0a4b4be", "is_disabled": 0, "name": "749d28217a636cffc4b7dc3ff0a4b4be", "lon": -77.01783366666666, "is_reserved": 0, "fusion_lon": 0.0, "lat": 38.90031, "rental_uris": {"android": "https://dc.lft.to/lastmile_qr_scan", "ios": "https://dc.lft.to/lastmile_qr_scan"}, "fusion_lat": 0.0}, {"type": "electric_bike", "bike_id": "2226d8b3f6d6a140998051d9a3092382", "is_disabled": 0, "name": "2226d8b3f6d6a140998051d9a3092382", "lon": -77.04081183333334, "is_reserved": 0, "fusion_lon": 0.0, "lat": 38.830615, "rental_uris": {"android": "https://dc.lft.to/lastmile_qr_scan", "ios": "https://dc.lft.to/lastmile_qr_scan"}, "fusion_lat": 0.0}, {"type": "electric_scooter", "bike_id": "e2d2eddcc31b661b3f0060d0693f8d86", "is_disabled": 0, "name": "e2d2eddcc31b661b3f0060d0693f8d86", "lon": -77.02100666666666, "is_reserved": 0, "fusion_lon": 0.0, "lat": 38.92697866666666, "rental_uris": {"android": "https://dc.lft.to/lastmile_qr_scan", "ios": "https://dc.lft.to/lastmile_qr_scan"}, "fusion_lat": 0.0}, {"type": "electric_scooter", "bike_id": "561f9f168655cdefdf8d34068f0a9f48", "is_disabled": 0, "name": "561f9f168655cdefdf8d34068f0a9f48", "lon": -77.03338383333333, "is_reserved": 0, "fusion_lon": 0.0, "lat": 38.898913, "rental_uris": {"android": "https://dc.lft.to/lastmile_qr_scan", "ios": "https://dc.lft.to/lastmile_qr_scan"}, "fusion_lat": 0.0}, {"type": "electric_scooter", "bike_id": "3c98604e1b3a95f1171bd67400000184", "is_disabled": 0, "name": "3c98604e1b3a95f1171bd67400000184", "lon": -77.020511, "is_reserved": 0, "fusion_lon": 0.0, "lat": 38.921723666666665, "rental_uris": {"android": "https://dc.lft.to/lastmile_qr_scan", "ios": "https://dc.lft.to/lastmile_qr_scan"}, "fusion_lat": 0.0}, {"type": "electric_scooter", "bike_id": "eb1517d557d5b25c4f754fb78b223f91", "is_disabled": 0, "name": "eb1517d557d5b25c4f754fb78b223f91", "lon": -77.00375833333334, "is_reserved": 0, "fusion_lon": 0.0, "lat": 38.8972635, "rental_uris": {"android": "https://dc.lft.to/lastmile_qr_scan", "ios": "https://dc.lft.to/lastmile_qr_scan"}, "fusion_lat": 0.0}, {"type": "electric_bike", "bike_id": "0a54d80b43f4d873b8e2b511117ed243", "is_disabled": 0, "name": "0a54d80b43f4d873b8e2b511117ed243", "lon": -77.03259533333333, "is_reserved": 0, "fusion_lon": 0.0, "lat": 38.9351785, "rental_uris": {"android": "https://dc.lft.to/lastmile_qr_scan", "ios": "https://dc.lft.to/lastmile_qr_scan"}, "fusion_lat": 0.0}, {"type": "electric_scooter", "bike_id": "46fd3edd81997fd1d89147a079da2168", "is_disabled": 0, "name": "46fd3edd81997fd1d89147a079da2168", "lon": -77.07205266666666, "is_reserved": 0, "fusion_lon": 0.0, "lat": 38.9075955, "rental_uris": {"android": "https://dc.lft.to/lastmile_qr_scan", "ios": "https://dc.lft.to/lastmile_qr_scan"}, "fusion_lat": 0.0}, {"type": "electric_scooter", "bike_id": "2abda4bfe3b5e4c05aeebc8d73b08faf", "is_disabled": 0, "name": "2abda4bfe3b5e4c05aeebc8d73b08faf", "lon": -77.0250755, "is_reserved": 0, "fusion_lon": 0.0, "lat": 38.918025666666665, "rental_uris": {"android": "https://dc.lft.to/lastmile_qr_scan", "ios": "https://dc.lft.to/lastmile_qr_scan"}, "fusion_lat": 0.0}, {"type": "electric_scooter", "bike_id": "5be1824b314e0b5fdc4f7f15839cd526", "is_disabled": 0, "name": "5be1824b314e0b5fdc4f7f15839cd526", "lon": -77.0224435, "is_reserved": 0, "fusion_lon": 0.0, "lat": 38.89984466666667, "rental_uris": {"android": "https://dc.lft.to/lastmile_qr_scan", "ios": "https://dc.lft.to/lastmile_qr_scan"}, "fusion_lat": 0.0}, {"type": "electric_scooter", "bike_id": "47520dbc631aa67702cf7b0c07eef01c", "is_disabled": 0, "name": "47520dbc631aa67702cf7b0c07eef01c", "lon": -77.041158, "is_reserved": 0, "fusion_lon": 0.0, "lat": 38.91190616666667, "rental_uris": {"android": "https://dc.lft.to/lastmile_qr_scan", "ios": "https://dc.lft.to/lastmile_qr_scan"}, "fusion_lat": 0.0}, {"type": "electric_scooter", "bike_id": "fa96b99bf880f13d74697c68e4c6ecae", "is_disabled": 0, "name": "fa96b99bf880f13d74697c68e4c6ecae", "lon": -77.04394633333334, "is_reserved": 0, "fusion_lon": 0.0, "lat": 38.901424666666664, "rental_uris": {"android": "https://dc.lft.to/lastmile_qr_scan", "ios": "https://dc.lft.to/lastmile_qr_scan"}, "fusion_lat": 0.0}, {"type": "electric_scooter", "bike_id": "94598a5074214745941e41a54cdc62a9", "is_disabled": 0, "name": "94598a5074214745941e41a54cdc62a9", "lon": -77.03686833333333, "is_reserved": 0, "fusion_lon": 0.0, "lat": 38.93940833333333, "rental_uris": {"android": "https://dc.lft.to/lastmile_qr_scan", "ios": "https://dc.lft.to/lastmile_qr_scan"}, "fusion_lat": 0.0}, {"type": "electric_scooter", "bike_id": "e0a3877e8a4e703ed29a6fbda8ded835", "is_disabled": 0, "name": "e0a3877e8a4e703ed29a6fbda8ded835", "lon": -77.048822, "is_reserved": 0, "fusion_lon": 0.0, "lat": 38.900821, "rental_uris": {"android": "https://dc.lft.to/lastmile_qr_scan", "ios": "https://dc.lft.to/lastmile_qr_scan"}, "fusion_lat": 0.0}, {"type": "electric_scooter", "bike_id": "094ea52913f1bbf6e4c00e0845741189", "is_disabled": 0, "name": "094ea52913f1bbf6e4c00e0845741189", "lon": -77.02611883333333, "is_reserved": 0, "fusion_lon": 0.0, "lat": 38.9040125, "rental_uris": {"android": "https://dc.lft.to/lastmile_qr_scan", "ios": "https://dc.lft.to/lastmile_qr_scan"}, "fusion_lat": 0.0}, {"type": "electric_scooter", "bike_id": "085f7f9bcaabe1974e6a1f060986251d", "is_disabled": 0, "name": "085f7f9bcaabe1974e6a1f060986251d", "lon": -77.02110166666667, "is_reserved": 0, "fusion_lon": 0.0, "lat": 38.906015833333335, "rental_uris": {"android": "https://dc.lft.to/lastmile_qr_scan", "ios": "https://dc.lft.to/lastmile_qr_scan"}, "fusion_lat": 0.0}, {"type": "electric_scooter", "bike_id": "9ceeb02a30dc361602468ec0745206fb", "is_disabled": 0, "name": "9ceeb02a30dc361602468ec0745206fb", "lon": -77.040134, "is_reserved": 0, "fusion_lon": 0.0, "lat": 38.90997866666667, "rental_uris": {"android": "https://dc.lft.to/lastmile_qr_scan", "ios": "https://dc.lft.to/lastmile_qr_scan"}, "fusion_lat": 0.0}, {"type": "electric_scooter", "bike_id": "f51e46b525bf26a014d46455db494aec", "is_disabled": 0, "name": "f51e46b525bf26a014d46455db494aec", "lon": -77.01235916666667, "is_reserved": 0, "fusion_lon": 0.0, "lat": 38.91706283333333, "rental_uris": {"android": "https://dc.lft.to/lastmile_qr_scan", "ios": "https://dc.lft.to/lastmile_qr_scan"}, "fusion_lat": 0.0}, {"type": "electric_scooter", "bike_id": "8e19d5f89d5ac588adaa9f4e23a8ffe8", "is_disabled": 0, "name": "8e19d5f89d5ac588adaa9f4e23a8ffe8", "lon": -77.02152266666667, "is_reserved": 0, "fusion_lon": 0.0, "lat": 38.887420666666664, "rental_uris": {"android": "https://dc.lft.to/lastmile_qr_scan", "ios": "https://dc.lft.to/lastmile_qr_scan"}, "fusion_lat": 0.0}, {"type": "electric_scooter", "bike_id": "981a0d749a0eba610e08604a9035697a", "is_disabled": 0, "name": "981a0d749a0eba610e08604a9035697a", "lon": -77.0386825, "is_reserved": 0, "fusion_lon": 0.0, "lat": 38.912551666666666, "rental_uris": {"android": "https://dc.lft.to/lastmile_qr_scan", "ios": "https://dc.lft.to/lastmile_qr_scan"}, "fusion_lat": 0.0}, {"type": "electric_scooter", "bike_id": "957c819c9f138ffc9ab1b83651113b88", "is_disabled": 0, "name": "957c819c9f138ffc9ab1b83651113b88", "lon": -77.03458616666667, "is_reserved": 0, "fusion_lon": 0.0, "lat": 38.902677, "rental_uris": {"android": "https://dc.lft.to/lastmile_qr_scan", "ios": "https://dc.lft.to/lastmile_qr_scan"}, "fusion_lat": 0.0}, {"type": "electric_scooter", "bike_id": "525d5d4afba41295704dd08dc83e674a", "is_disabled": 0, "name": "525d5d4afba41295704dd08dc83e674a", "lon": -76.99505416666666, "is_reserved": 0, "fusion_lon": 0.0, "lat": 38.86214833333333, "rental_uris": {"android": "https://dc.lft.to/lastmile_qr_scan", "ios": "https://dc.lft.to/lastmile_qr_scan"}, "fusion_lat": 0.0}, {"type": "electric_scooter", "bike_id": "cf05ee4e726713dba507ae57b5a420df", "is_disabled": 0, "name": "cf05ee4e726713dba507ae57b5a420df", "lon": -77.0456715, "is_reserved": 0, "fusion_lon": 0.0, "lat": 38.903895, "rental_uris": {"android": "https://dc.lft.to/lastmile_qr_scan", "ios": "https://dc.lft.to/lastmile_qr_scan"}, "fusion_lat": 0.0}, {"type": "electric_scooter", "bike_id": "10c4410e1803f959fb38040ad6b92aa6", "is_disabled": 0, "name": "10c4410e1803f959fb38040ad6b92aa6", "lon": -77.0398535, "is_reserved": 0, "fusion_lon": 0.0, "lat": 38.895340833333336, "rental_uris": {"android": "https://dc.lft.to/lastmile_qr_scan", "ios": "https://dc.lft.to/lastmile_qr_scan"}, "fusion_lat": 0.0}, {"type": "electric_scooter", "bike_id": "03a6fe80f4839f569d3acb333c378923", "is_disabled": 0, "name": "03a6fe80f4839f569d3acb333c378923", "lon": -77.057026, "is_reserved": 0, "fusion_lon": 0.0, "lat": 38.90527483333334, "rental_uris": {"android": "https://dc.lft.to/lastmile_qr_scan", "ios": "https://dc.lft.to/lastmile_qr_scan"}, "fusion_lat": 0.0}, {"type": "electric_bike", "bike_id": "9820b181ac242cd8824fd124ee6efb92", "is_disabled": 0, "name": "9820b181ac242cd8824fd124ee6efb92", "lon": -76.96158116666666, "is_reserved": 0, "fusion_lon": 0.0, "lat": 38.856172666666666, "rental_uris": {"android": "https://dc.lft.to/lastmile_qr_scan", "ios": "https://dc.lft.to/lastmile_qr_scan"}, "fusion_lat": 0.0}, {"type": "electric_scooter", "bike_id": "41760302cb938aa45004dab8390278cf", "is_disabled": 0, "name": "41760302cb938aa45004dab8390278cf", "lon": -76.99760866666666, "is_reserved": 0, "fusion_lon": 0.0, "lat": 38.88502733333333, "rental_uris": {"android": "https://dc.lft.to/lastmile_qr_scan", "ios": "https://dc.lft.to/lastmile_qr_scan"}, "fusion_lat": 0.0}, {"type": "electric_scooter", "bike_id": "dbf4301b5cc67de7748ee7d43591e76c", "is_disabled": 0, "name": "dbf4301b5cc67de7748ee7d43591e76c", "lon": -77.0074665, "is_reserved": 0, "fusion_lon": 0.0, "lat": 38.87646266666667, "rental_uris": {"android": "https://dc.lft.to/lastmile_qr_scan", "ios": "https://dc.lft.to/lastmile_qr_scan"}, "fusion_lat": 0.0},