{"data": {"bikes": [{"lat": 38.93791, "is_disabled": 0, "type": "electric_scooter", "lon": -77.0247295, "bike_id": "74d791dfd6a71fe506550d8f4d98d1fb", "fusion_lat": 0.0, "name": "74d791dfd6a71fe506550d8f4d98d1fb", "is_reserved": 0, "rental_uris": {"android": "https://dc.lft.to/lastmile_qr_scan", "ios": "https://dc.lft.to/lastmile_qr_scan"}, "fusion_lon": 0.0}, {"lat": 38.908510166666666, "is_disabled": 0, "type": "electric_scooter", "lon": -77.006267, "bike_id": "cc6dc81859211b21cb26ae13b2b4f228", "fusion_lat": 0.0, "name": "cc6dc81859211b21cb26ae13b2b4f228", "is_reserved": 0, "rental_uris": {"android": "https://dc.lft.to/lastmile_qr_scan", "ios": "https://dc.lft.to/lastmile_qr_scan"}, "fusion_lon": 0.0}, {"lat": 38.896793333333335, "is_disabled": 0, "type": "electric_scooter", "lon": -77.05128366666666, "bike_id": "eaf6f63d2deb2ecfa6a216044d6f024d", "fusion_lat": 0.0, "name": "eaf6f63d2deb2ecfa6a216044d6f024d", "is_reserved": 0, "rental_uris": {"android": "https://dc.lft.to/lastmile_qr_scan", "ios": "https://dc.lft.to/lastmile_qr_scan"}, "fusion_lon": 0.0}, {"lat": 38.926446166666665, "is_disabled": 0, "type": "electric_scooter", "lon": -77.04317716666667, "bike_id": "2860c193ab723ff873c133bf6a036657", "fusion_lat": 0.0, "name": "2860c193ab723ff873c133bf6a036657", "is_reserved": 0, "rental_uris": {"android": "https://dc.lft.to/lastmile_qr_scan", "ios": "https://dc.lft.to/lastmile_qr_scan"}, "fusion_lon": 0.0}, {"lat": 38.9303695, "is_disabled": 0, "type": "electric_scooter", "lon": -77.02961016666667, "bike_id": "0526e682580553404f324192dcda0a0f", "fusion_lat": 0.0, "name": "0526e682580553404f324192dcda0a0f", "is_reserved": 0, "rental_uris": {"android": "https://dc.lft.to/lastmile_qr_scan", "ios": "https://dc.lft.to/lastmile_qr_scan"}, "fusion_lon": 0.0}, {"lat": 38.91800033333333, "is_disabled": 0, "type": "electric_bike", "lon": -77.22335, "bike_id": "430e21569d99dc4fdeceab6c3d5e3421", "fusion_lat": 0.0, "name": "430e21569d99dc4fdeceab6c3d5e3421", "is_reserved": 0, "rental_uris": {"android": "https://dc.lft.to/lastmile_qr_scan", "ios": "https://dc.lft.to/lastmile_qr_scan"}, "fusion_lon": 0.0}, {"lat": 38.92896866666667, "is_disabled": 0, "type": "electric_bike", "lon": -77.05780516666667, "bike_id": "ad9c89c516d2bdc8bc1e1a8821d4e6b3", "fusion_lat": 0.0, "name": "ad9c89c516d2bdc8bc1e1a8821d4e6b3", "is_reserved": 0, "rental_uris": {"android": "https://dc.lft.to/lastmile_qr_scan", "ios": "https://dc.lft.to/lastmile_qr_scan"}, "fusion_lon": 0.0}, {"lat": 38.91423266666666, "is_disabled": 0, "type": "electric_scooter", "lon": -77.0318805, "bike_id": "c3f85e3cc0cb48ad4dfccf81d8d30a46", "fusion_lat": 0.0, "name": "c3f85e3cc0cb48ad4dfccf81d8d30a46", "is_reserved": 0, "rental_uris": {"android": "https://dc.lft.to/lastmile_qr_scan", "ios": "https://dc.lft.to/lastmile_qr_scan"}, "fusion_lon": 0.0}, {"lat": 38.91366383333333, "is_disabled": 0, "type": "electric_scooter", "lon": -77.0684725, "bike_id": "79093c2136ff2d1020cbc2789e804ae1", "fusion_lat": 0.0, "name": "79093c2136ff2d1020cbc2789e804ae1", "is_reserved": 0, "rental_uris": {"android": "https://dc.lft.to/lastmile_qr_scan", "ios": "https://dc.lft.to/lastmile_qr_scan"}, "fusion_lon": 0.0}, {"lat": 38.927836166666665, "is_disabled": 0, "type": "electric_scooter", "lon": -77.0278705, "bike_id": "3cc7d729714af9f4da1445a3a4421106", "fusion_lat": 0.0, "name": "3cc7d729714af9f4da1445a3a4421106", "is_reserved": 0, "rental_uris": {"android": "https://dc.lft.to/lastmile_qr_scan", "ios": "https://dc.lft.to/lastmile_qr_scan"}, "fusion_lon": 0.0}, {"lat": 38.906897666666666, "is_disabled": 0, "type": "electric_bike", "lon": -77.0376725, "bike_id": "7e9c8e0647f1e46b39d16f5c2e6e4116", "fusion_lat": 0.0, "name": "7e9c8e0647f1e46b39d16f5c2e6e4116", "is_reserved": 0, "rental_uris": {"android": "https://dc.lft.to/lastmile_qr_scan", "ios": "https://dc.lft.to/lastmile_qr_scan"}, "fusion_lon": 0.0}, {"lat": 38.9100965, "is_disabled": 0, "type": "electric_scooter", "lon": -77.044433, "bike_id": "483d335a9686f46e78030a540c719251", "fusion_lat": 0.0, "name": "483d335a9686f46e78030a540c719251", "is_reserved": 0, "rental_uris": {"android": "https://dc.lft.to/lastmile_qr_scan", "ios": "https://dc.lft.to/lastmile_qr_scan"}, "fusion_lon": 0.0}, {"lat": 38.933575166666664, "is_disabled": 0, "type": "electric_bike", "lon": -77.09961783333334, "bike_id": "36d983cc3343b96f73ad6a497561e7f5", "fusion_lat": 0.0, "name": "36d983cc3343b96f73ad6a497561e7f5", "is_reserved": 0, "rental_uris": {"android": "https://dc.lft.to/lastmile_qr_scan", "ios": "https://dc.lft.to/lastmile_qr_scan"}, "fusion_lon": 0.0}, {"lat": 38.906608, "is_disabled": 0, "type": "electric_scooter", "lon": -77.03845433333333, "bike_id": "0619448a379c93586dce4ca0453ba124", "fusion_lat": 0.0, "name": "0619448a379c93586dce4ca0453ba124", "is_reserved": 0, "rental_uris": {"android": "https://dc.lft.to/lastmile_qr_scan", "ios": "https://dc.lft.to/lastmile_qr_scan"}, "fusion_lon": 0.0}, {"lat": 38.907697166666665, "is_disabled": 0, "type": "electric_scooter", "lon": -77.0606535, "bike_id": "d4728f87dfa3e2e998d88fe6fd155e4f", "fusion_lat": 0.0, "name": "d4728f87dfa3e2e998d88fe6fd155e4f", "is_reserved": 0, "rental_uris": {"android": "https://dc.lft.to/lastmile_qr_scan", "ios": "https://dc.lft.to/lastmile_qr_scan"}, "fusion_lon": 0.0}, {"lat": 38.865214333333334, "is_disabled": 0, "type": "electric_scooter", "lon": -76.99028533333333, "bike_id": "56921c613d8327631ca81a7b25cab308", "fusion_lat": 0.0, "name": "56921c613d8327631ca81a7b25cab308", "is_reserved": 0, "rental_uris": {"android": "https://dc.lft.to/lastmile_qr_scan", "ios": "https://dc.lft.to/lastmile_qr_scan"}, "fusion_lon": 0.0}, {"lat": 38.932063, "is_disabled": 0, "type": "electric_scooter", "lon": -76.97770783333333, "bike_id": "6ef4e62aa607dbfddaf90dc86a1f8d29", "fusion_lat": 0.0, "name": "6ef4e62aa607dbfddaf90dc86a1f8d29", "is_reserved": 0, "rental_uris": {"android": "https://dc.lft.to/lastmile_qr_scan", "ios": "https://dc.lft.to/lastmile_qr_scan"}, "fusion_lon": 0.0}, {"lat": 38.895906833333335, "is_disabled": 0, "type": "electric_bike", "lon": -77.12715283333333, "bike_id": "018521e7995a83e8a37f9f0271777795", "fusion_lat": 0.0, "name": "018521e7995a83e8a37f9f0271777795", "is_reserved": 0, "rental_uris": {"android": "https://dc.lft.to/lastmile_qr_scan", "ios": "https://dc.lft.to/lastmile_qr_scan"}, "fusion_lon": 0.0}, {"lat": 38.91412916666667, "is_disabled": 0, "type": "electric_scooter", "lon": -77.03807233333333, "bike_id": "8b4c49b7d3293a5fdf22fa4be9bf7bd8", "fusion_lat": 0.0, "name": "8b4c49b7d3293a5fdf22fa4be9bf7bd8", "is_reserved": 0, "rental_uris": {"android": "https://dc.lft.to/lastmile_qr_scan", "ios": "https://dc.lft.to/lastmile_qr_scan"}, "fusion_lon": 0.0}, {"lat": 38.965575, "is_disabled": 0, "type": "electric_bike", "lon": -77.02037566666667, "bike_id": "f6e49385ee34dd402595c504b2a31c10", "fusion_lat": 0.0, "name": "f6e49385ee34dd402595c504b2a31c10", "is_reserved": 0, "rental_uris": {"android": "https://dc.lft.to/lastmile_qr_scan", "ios": "https://dc.lft.to/lastmile_qr_scan"}, "fusion_lon": 0.0}, {"lat": 38.8970105, "is_disabled": 0, "type": "electric_bike", "lon": -77.00351733333333, "bike_id": "92c009eeaf6aefd23dfc88f0bc810a28", "fusion_lat": 0.0, "name": "92c009eeaf6aefd23dfc88f0bc810a28", "is_reserved": 0, "rental_uris": {"android": "https://dc.lft.to/lastmile_qr_scan", "ios": "https://dc.lft.to/lastmile_qr_scan"}, "fusion_lon": 0.0}, {"lat": 38.93140133333333, "is_disabled": 0, "type": "electric_scooter", "lon": -77.03283616666667, "bike_id": "585125584cadbb06fd57fc29f2807ed9", "fusion_lat": 0.0, "name": "585125584cadbb06fd57fc29f2807ed9", "is_reserved": 0, "rental_uris": {"android": "https://dc.lft.to/lastmile_qr_scan", "ios": "https://dc.lft.to/lastmile_qr_scan"}, "fusion_lon": 0.0}, {"lat": 38.92203666666666, "is_disabled": 0, "type": "electric_scooter", "lon": -76.95660183333334, "bike_id": "039e73091a47f148bce31bf6a4a72ab8", "fusion_lat": 0.0, "name": "039e73091a47f148bce31bf6a4a72ab8", "is_reserved": 0, "rental_uris": {"android": "https://dc.lft.to/lastmile_qr_scan", "ios": "https://dc.lft.to/lastmile_qr_scan"}, "fusion_lon": 0.0}, {"lat": 38.90228916666667, "is_disabled": 0, "type": "electric_scooter", "lon": -77.04339433333334, "bike_id": "4026f888c0d52e2d21963b8fcbca5e18", "fusion_lat": 0.0, "name": "4026f888c0d52e2d21963b8fcbca5e18", "is_reserved": 0, "rental_uris": {"android": "https://dc.lft.to/lastmile_qr_scan", "ios": "https://dc.lft.to/lastmile_qr_scan"}, "fusion_lon": 0.0}, {"lat": 38.90327283333333, "is_disabled": 0, "type": "electric_scooter", "lon": -77.029, "bike_id": "4aab63bab081d72e0cd0f3dd901c2d89", "fusion_lat": 0.0, "name": "4aab63bab081d72e0cd0f3dd901c2d89", "is_reserved": 0, "rental_uris": {"android": "https://dc.lft.to/lastmile_qr_scan", "ios": "https://dc.lft.to/lastmile_qr_scan"}, "fusion_lon": 0.0}, {"lat": 38.89970683333333, "is_disabled": 0, "type": "electric_scooter", "lon": -77.02300383333333, "bike_id": "8e59f05a37eb5e98b82f4699ef61d551", "fusion_lat": 0.0, "name": "8e59f05a37eb5e98b82f4699ef61d551", "is_reserved": 0, "rental_uris": {"android": "https://dc.lft.to/lastmile_qr_scan", "ios": "https://dc.lft.to/lastmile_qr_scan"}, "fusion_lon": 0.0}, {"lat": 38.9225595, "is_disabled": 0, "type": "electric_scooter", "lon": -77.04289066666666, "bike_id": "7e13061c5e8d766ea56a97ec1051894d", "fusion_lat": 0.0, "name": "7e13061c5e8d766ea56a97ec1051894d", "is_reserved": 0, "rental_uris": {"android": "https://dc.lft.to/lastmile_qr_scan", "ios": "https://dc.lft.to/lastmile_qr_scan"}, "fusion_lon": 0.0}, {"lat": 38.872115666666666, "is_disabled": 0, "type": "electric_bike", "lon": -77.015285, "bike_id": "908bfee8ab12f1050bb1ae92928ee3d4", "fusion_lat": 0.0, "name": "908bfee8ab12f1050bb1ae92928ee3d4", "is_reserved": 0, "rental_uris": {"android": "https://dc.lft.to/lastmile_qr_scan", "ios": "https://dc.lft.to/lastmile_qr_scan"}, "fusion_lon": 0.0}, {"lat": 38.928542, "is_disabled": 0, "type": "electric_bike", "lon": -77.22215566666667, "bike_id": "7e1a3d9281687b69a885fd8e84e72456", "fusion_lat": 0.0, "name": "7e1a3d9281687b69a885fd8e84e72456", "is_reserved": 0, "rental_uris": {"android": "https://dc.lft.to/lastmile_qr_scan", "ios": "https://dc.lft.to/lastmile_qr_scan"}, "fusion_lon": 0.0}, {"lat": 39.08857233333333, "is_disabled": 0, "type": "electric_bike", "lon": -77.17841166666666, "bike_id": "f046dae0370e761a6daa7284a617ada1", "fusion_lat": 0.0, "name": "f046dae0370e761a6daa7284a617ada1", "is_reserved": 0, "rental_uris": {"android": "https://dc.lft.to/lastmile_qr_scan", "ios": "https://dc.lft.to/lastmile_qr_scan"}, "fusion_lon": 0.0}, {"lat": 38.917762833333335, "is_disabled": 0, "type": "electric_scooter", "lon": -77.02885066666667, "bike_id": "44986e1dda0c0d16d6542f37a40d8755", "fusion_lat": 0.0, "name": "44986e1dda0c0d16d6542f37a40d8755", "is_reserved": 0, "rental_uris": {"android": "https://dc.lft.to/lastmile_qr_scan", "ios": "https://dc.lft.to/lastmile_qr_scan"}, "fusion_lon": 0.0}, {"lat": 38.9313095, "is_disabled": 0, "type": "electric_scooter", "lon": -77.03254016666666, "bike_id": "1bf2f04252d6f5487a1bf989e696a3f9", "fusion_lat": 0.0, "name": "1bf2f04252d6f5487a1bf989e696a3f9", "is_reserved": 0, "rental_uris": {"android": "https://dc.lft.to/lastmile_qr_scan", "ios": "https://dc.lft.to/lastmile_qr_scan"}, "fusion_lon": 0.0}, {"lat": 38.90175966666666, "is_disabled": 0, "type": "electric_scooter", "lon": -77.0498865, "bike_id": "3560d2d49801ac91d04e9ea7064aa65b", "fusion_lat": 0.0, "name": "3560d2d49801ac91d04e9ea7064aa65b", "is_reserved": 0, "rental_uris": {"android": "https://dc.lft.to/lastmile_qr_scan", "ios": "https://dc.lft.to/lastmile_qr_scan"}, "fusion_lon": 0.0}, {"lat": 38.92580783333333, "is_disabled": 0, "type": "electric_scooter", "lon": -77.052779, "bike_id": "6308a7d5b50366d21c0e79370c7404f7", "fusion_lat": 0.0, "name": "6308a7d5b50366d21c0e79370c7404f7", "is_reserved": 0, "rental_uris": {"android": "https://dc.lft.to/lastmile_qr_scan", "ios": "https://dc.lft.to/lastmile_qr_scan"}, "fusion_lon": 0.0}, {"lat": 38.914636, "is_disabled": 0, "type": "electric_scooter", "lon": -77.002178, "bike_id": "b8900a9a5d6a0a4c2d50f0e1185cdf32", "fusion_lat": 0.0, "name": "b8900a9a5d6a0a4c2d50f0e1185cdf32", "is_reserved": 0, "rental_uris": {"android": "https://dc.lft.to/lastmile_qr_scan", "ios": "https://dc.lft.to/lastmile_qr_scan"}, "fusion_lon": 0.0}, {"lat": 38.92110183333333, "is_disabled": 0, "type": "electric_bike", "lon": -77.04825533333333, "bike_id": "813490ff56f16e5b18a6c57fcdb3a5f4", "fusion_lat": 0.0, "name": "813490ff56f16e5b18a6c57fcdb3a5f4", "is_reserved": 0, "rental_uris": {"android": "https://dc.lft.to/lastmile_qr_scan", "ios": "https://dc.lft.to/lastmile_qr_scan"}, "fusion_lon": 0.0}, {"lat": 39.075031333333335, "is_disabled": 0, "type": "electric_bike", "lon": -77.11898983333333, "bike_id": "6883a1575b6331f0159922617c7decad", "fusion_lat": 0.0, "name": "6883a1575b6331f0159922617c7decad", "is_reserved": 0, "rental_uris": {"android": "https://dc.lft.to/lastmile_qr_scan", "ios": "https://dc.lft.to/lastmile_qr_scan"}, "fusion_lon": 0.0}, {"lat": 38.876774, "is_disabled": 0, "type": "electric_scooter", "lon": -77.00020166666667, "bike_id": "44c6c5a7973f37a2ba3c85646245e8d4", "fusion_lat": 0.0, "name": "44c6c5a7973f37a2ba3c85646245e8d4", "is_reserved": 0, "rental_uris": {"android": "https://dc.lft.to/lastmile_qr_scan", "ios": "https://dc.lft.to/lastmile_qr_scan"}, "fusion_lon": 0.0}, {"lat": 38.9051015, "is_disabled": 0, "type": "electric_bike", "lon": -77.056939, "bike_id": "d66ffcba2b1b01d5095373ea72b0f5b1", "fusion_lat": 0.0, "name": "d66ffcba2b1b01d5095373ea72b0f5b1", "is_reserved": 0, "rental_uris": {"android": "https://dc.lft.to/lastmile_qr_scan", "ios": "https://dc.lft.to/lastmile_qr_scan"}, "fusion_lon": 0.0}, {"lat": 38.921080333333336, "is_disabled": 0, "type": "electric_scooter", "lon": -77.04570533333333, "bike_id": "b465e9bff5f1d74de57554446934724f", "fusion_lat": 0.0, "name": "b465e9bff5f1d74de57554446934724f", "is_reserved": 0, "rental_uris": {"android": "https://dc.lft.to/lastmile_qr_scan", "ios": "https://dc.lft.to/lastmile_qr_scan"}, "fusion_lon": 0.0}, {"lat": 38.89836783333333, "is_disabled": 0, "type": "electric_scooter", "lon": -76.94467266666666, "bike_id": "e48884a4578fa1d5d3cbcad78f2b50f8", "fusion_lat": 0.0, "name": "e48884a4578fa1d5d3cbcad78f2b50f8", "is_reserved": 0, "rental_uris": {"android": "https://dc.lft.to/lastmile_qr_scan", "ios": "https://dc.lft.to/lastmile_qr_scan"}, "fusion_lon": 0.0}, {"lat": 38.91574166666667, "is_disabled": 0, "type": "electric_scooter", "lon": -77.046787, "bike_id": "7aac8012b5003747613e59bf93dd5b2b", "fusion_lat": 0.0, "name": "7aac8012b5003747613e59bf93dd5b2b", "is_reserved": 0, "rental_uris": {"android": "https://dc.lft.to/lastmile_qr_scan", "ios": "https://dc.lft.to/lastmile_qr_scan"}, "fusion_lon": 0.0}, {"lat": 38.90011166666667, "is_disabled": 0, "type": "electric_scooter", "lon": -77.01203033333333, "bike_id": "fc5219becac37e7b448cf26ddac2e069", "fusion_lat": 0.0, "name": "fc5219becac37e7b448cf26ddac2e069", "is_reserved": 0, "rental_uris": {"android": "https://dc.lft.to/lastmile_qr_scan", "ios": "https://dc.lft.to/lastmile_qr_scan"}, "fusion_lon": 0.0}, {"lat": 38.8846725, "is_disabled": 0, "type": "electric_scooter", "lon": -77.02413816666666, "bike_id": "6f1a048d57cea9984c8904b9a3fdc6ce", "fusion_lat": 0.0, "name": "6f1a048d57cea9984c8904b9a3fdc6ce", "is_reserved": 0, "rental_uris": {"android": "https://dc.lft.to/lastmile_qr_scan", "ios": "https://dc.lft.to/lastmile_qr_scan"}, "fusion_lon": 0.0}, {"lat": 38.9056215, "is_disabled": 0, "type": "electric_bike", "lon": -77.01312916666667, "bike_id": "c1ab99dfe88689b8e7b4d8dc9d38a885", "fusion_lat": 0.0, "name": "c1ab99dfe88689b8e7b4d8dc9d38a885", "is_reserved": 0, "rental_uris": {"android": "https://dc.lft.to/lastmile_qr_scan", "ios": "https://dc.lft.to/lastmile_qr_scan"}, "fusion_lon": 0.0}, {"lat": 38.865091, "is_disabled": 0, "type": "electric_scooter", "lon": -76.990083, "bike_id": "d72c12f2c996b7cb8e054e90c04ff295", "fusion_lat": 0.0, "name": "d72c12f2c996b7cb8e054e90c04ff295", "is_reserved": 0, "rental_uris": {"android": "https://dc.lft.to/lastmile_qr_scan", "ios": "https://dc.lft.to/lastmile_qr_scan"}, "fusion_lon": 0.0}, {"lat": 38.92507066666667, "is_disabled": 0, "type": "electric_scooter", "lon": -76.98230066666666, "bike_id": "157b6bcbdc086959fcbd408de07bbe9a", "fusion_lat": 0.0, "name": "157b6bcbdc086959fcbd408de07bbe9a", "is_reserved": 0, "rental_uris": {"android": "https://dc.lft.to/lastmile_qr_scan", "ios": "https://dc.lft.to/lastmile_qr_scan"}, "fusion_lon": 0.0}, {"lat": 38.86710716666666, "is_disabled": 0, "type": "electric_scooter", "lon": -76.98727133333334, "bike_id": "12f7ce9d5958fb0cc321c6b5ffdd0bde", "fusion_lat": 0.0, "name": "12f7ce9d5958fb0cc321c6b5ffdd0bde", "is_reserved": 0, "rental_uris": {"android": "https://dc.lft.to/lastmile_qr_scan", "ios": "https://dc.lft.to/lastmile_qr_scan"}, "fusion_lon": 0.0}, {"lat": 38.88132516666667, "is_disabled": 0, "type": "electric_scooter", "lon": -77.016362, "bike_id": "937b387fa356c6ebdbb5b6fc7c810576", "fusion_lat": 0.0, "name": "937b387fa356c6ebdbb5b6fc7c810576", "is_reserved": 0, "rental_uris": {"android": "https://dc.lft.to/lastmile_qr_scan", "ios": "https://dc.lft.to/lastmile_qr_scan"}, "fusion_lon": 0.0}, {"lat": 38.9126565, "is_disabled": 0, "type": "electric_scooter", "lon": -77.0225445, "bike_id": "7a463aab1c487c30138347933ef996e4", "fusion_lat": 0.0, "name": "7a463aab1c487c30138347933ef996e4", "is_reserved": 0, "rental_uris": {"android": "https://dc.lft.to/lastmile_qr_scan", "ios": "https://dc.lft.to/lastmile_qr_scan"}, "fusion_lon": 0.0}, {"lat": 38.905189, "is_disabled": 0, "type": "electric_scooter", "lon": -77.04879866666667, "bike_id": "68742b9c1cf3a26aaa3e6f4edf341649", "fusion_lat": 0.0, "name": "68742b9c1cf3a26aaa3e6f4edf341649", "is_reserved": 0, "rental_uris": {"android": "https://dc.lft.to/lastmile_qr_scan", "ios": "https://dc.lft.to/lastmile_qr_scan"}, "fusion_lon": 0.0}, {"lat": 38.859685, "is_disabled": 0, "type": "electric_bike", "lon": -77.05676266666667, "bike_id": "a7f830d9cb5055e6f5089138ecd5dc7c", "fusion_lat": 0.0, "name": "a7f830d9cb5055e6f5089138ecd5dc7c", "is_reserved": 0, "rental_uris": {"android": "https://dc.lft.to/lastmile_qr_scan", "ios": "https://dc.lft.to/lastmile_qr_scan"}, "fusion_lon": 0.0}, {"lat": 38.906238333333334, "is_disabled": 0, "type": "electric_scooter", "lon": -77.03392033333333, "bike_id": "285aab61844c0b62be4ccc74fc9af651", "fusion_lat": 0.0, "name": "285aab61844c0b62be4ccc74fc9af651", "is_reserved": 0, "rental_uris": {"android": "https://dc.lft.to/lastmile_qr_scan", "ios": "https://dc.lft.to/lastmile_qr_scan"}, "fusion_lon": 0.0}, {"lat": 38.91124633333333, "is_disabled": 0, "type": "electric_scooter", "lon": -77.03827116666666, "bike_id": "82238714d6fb9fb1f7d042705c7b6493", "fusion_lat": 0.0, "name": "82238714d6fb9fb1f7d042705c7b6493", "is_reserved": 0, "rental_uris": {"android": "https://dc.lft.to/lastmile_qr_scan", "ios": "https://dc.lft.to/lastmile_qr_scan"}, "fusion_lon": 0.0}, {"lat": 38.92030666666667, "is_disabled": 0, "type": "electric_scooter", "lon": -77.03074166666667, "bike_id": "82a2c54c32bdc80c0e4b8370b3c85677", "fusion_lat": 0.0, "name": "82a2c54c32bdc80c0e4b8370b3c85677", "is_reserved": 0, "rental_uris": {"android": "https://dc.lft.to/lastmile_qr_scan", "ios": "https://dc.lft.to/lastmile_qr_scan"}, "fusion_lon": 0.0}, {"lat": 38.918168333333334, "is_disabled": 0, "type": "electric_scooter", "lon": -77.01389183333333, "bike_id": "5344cd8f01209a4101b97ed970c5b9ca", "fusion_lat": 0.0, "name": "5344cd8f01209a4101b97ed970c5b9ca", "is_reserved": 0, "rental_uris": {"android": "https://dc.lft.to/lastmile_qr_scan", "ios": "https://dc.lft.to/lastmile_qr_scan"}, "fusion_lon": 0.0}, {"lat": 38.91331316666667, "is_disabled": 0, "type": "electric_scooter", "lon": -77.03193216666666, "bike_id": "f0a8ff656f2f39dcac0b181074b7c99c", "fusion_lat": 0.0, "name": "f0a8ff656f2f39dcac0b181074b7c99c", "is_reserved": 0, "rental_uris": {"android": "https://dc.lft.to/lastmile_qr_scan", "ios": "https://dc.lft.to/lastmile_qr_scan"}, "fusion_lon": 0.0}, {"lat": 38.92403516666667, "is_disabled": 0, "type": "electric_scooter", "lon": -77.05158716666666, "bike_id": "607fb2c00de35b570e47235d3cead235", "fusion_lat": 0.0, "name": "607fb2c00de35b570e47235d3cead235", "is_reserved": 0, "rental_uris": {"android": "https://dc.lft.to/lastmile_qr_scan", "ios": "https://dc.lft.to/lastmile_qr_scan"}, "fusion_lon": 0.0}, {"lat": 38.91413933333333, "is_disabled": 0, "type": "electric_scooter", "lon": -77.0202045, "bike_id": "e405abe11f13beec843afcd4049f7c32", "fusion_lat": 0.0, "name": "e405abe11f13beec843afcd4049f7c32", "is_reserved": 0, "rental_uris": {"android": "https://dc.lft.to/lastmile_qr_scan", "ios": "https://dc.lft.to/lastmile_qr_scan"}, "fusion_lon": 0.0}, {"lat": 38.949060333333335, "is_disabled": 0, "type": "electric_bike", "lon": -76.972411, "bike_id": "48798dcd958278333d3e3061505bd87a", "fusion_lat": 0.0, "name": "48798dcd958278333d3e3061505bd87a", "is_reserved": 0, "rental_uris": {"android": "https://dc.lft.to/lastmile_qr_scan", "ios": "https://dc.lft.to/lastmile_qr_scan"}, "fusion_lon": 0.0}, {"lat": 38.907227, "is_disabled": 0, "type": "electric_scooter", "lon": -77.00368016666667, "bike_id": "484d721ad8f2bffec351aa2170b971f4", "fusion_lat": 0.0, "name": "484d721ad8f2bffec351aa2170b971f4", "is_reserved": 0, "rental_uris": {"android": "https://dc.lft.to/lastmile_qr_scan", "ios": "https://dc.lft.to/lastmile_qr_scan"}, "fusion_lon": 0.0}, {"lat": 38.9268415, "is_disabled": 0, "type": "electric_scooter", "lon": -77.01573283333333, "bike_id": "f71c6ae8968d6ae9e23aa3b0dc621178", "fusion_lat": 0.0, "name": "f71c6ae8968d6ae9e23aa3b0dc621178", "is_reserved": 0, "rental_uris": {"android": "https://dc.lft.to/lastmile_qr_scan", "ios": "https://dc.lft.to/lastmile_qr_scan"}, "fusion_lon": 0.0}, {"lat": 38.88337766666667, "is_disabled": 0, "type": "electric_scooter", "lon": -77.00925583333333, "bike_id": "8df34af990962f0c1cefea4d4d23ec40", "fusion_lat": 0.0, "name": "8df34af990962f0c1cefea4d4d23ec40", "is_reserved": 0, "rental_uris": {"android": "https://dc.lft.to/lastmile_qr_scan", "ios": "https://dc.lft.to/lastmile_qr_scan"}, "fusion_lon": 0.0}, {"lat": 38.921858, "is_disabled": 0, "type": "electric_scooter", "lon": -77.04349966666666, "bike_id": "62170940a8e3066de214411ca26016e1", "fusion_lat": 0.0, "name": "62170940a8e3066de214411ca26016e1", "is_reserved": 0, "rental_uris": {"android": "https://dc.lft.to/lastmile_qr_scan", "ios": "https://dc.lft.to/lastmile_qr_scan"}, "fusion_lon": 0.0}, {"lat": 38.89816416666667, "is_disabled": 0, "type": "electric_scooter", "lon": -77.05025266666667, "bike_id": "37f3ccb00631565872a475d30fb44c76", "fusion_lat": 0.0, "name": "37f3ccb00631565872a475d30fb44c76", "is_reserved": 0, "rental_uris": {"android": "https://dc.lft.to/lastmile_qr_scan", "ios": "https://dc.lft.to/lastmile_qr_scan"}, "fusion_lon": 0.0}, {"lat": 38.93987683333334, "is_disabled": 0, "type": "electric_scooter", "lon": -77.02887316666667, "bike_id": "ec30ce19d5f3200eee6833d1539ce2b0", "fusion_lat": 0.0, "name": "ec30ce19d5f3200eee6833d1539ce2b0", "is_reserved": 0, "rental_uris": {"android": "https://dc.lft.to/lastmile_qr_scan", "ios": "https://dc.lft.to/lastmile_qr_scan"}, "fusion_lon": 0.0}, {"lat": 38.905991, "is_disabled": 0, "type": "electric_scooter", "lon": -77.03413183333333, "bike_id": "ad71760be3564ce952b716bd782e48f6", "fusion_lat": 0.0, "name": "ad71760be3564ce952b716bd782e48f6", "is_reserved": 0, "rental_uris": {"android": "https://dc.lft.to/lastmile_qr_scan", "ios": "https://dc.lft.to/lastmile_qr_scan"}, "fusion_lon": 0.0}, {"lat": 38.9088045, "is_disabled": 0, "type": "electric_scooter", "lon": -77.00375533333333, "bike_id": "71bce824640fe03b8002689e5c429d10", "fusion_lat": 0.0, "name": "71bce824640fe03b8002689e5c429d10", "is_reserved": 0, "rental_uris": {"android": "https://dc.lft.to/lastmile_qr_scan", "ios": "https://dc.lft.to/lastmile_qr_scan"}, "fusion_lon": 0.0}, {"lat": 38.94580466666667, "is_disabled": 0, "type": "electric_scooter", "lon": -77.064537, "bike_id": "7519aec7ad8130458fdaeb8b43066995", "fusion_lat": 0.0, "name": "7519aec7ad8130458fdaeb8b43066995", "is_reserved": 0, "rental_uris": {"android": "https://dc.lft.to/lastmile_qr_scan", "ios": "https://dc.lft.to/lastmile_qr_scan"}, "fusion_lon": 0.0}, {"lat": 38.90583216666667, "is_disabled": 0, "type": "electric_scooter", "lon": -77.02942716666666, "bike_id": "f2b95170bdfbf2b158ae2272b141bf82", "fusion_lat": 0.0, "name": "f2b95170bdfbf2b158ae2272b141bf82", "is_reserved": 0, "rental_uris": {"android": "https://dc.lft.to/lastmile_qr_scan", "ios": "https://dc.lft.to/lastmile_qr_scan"}, "fusion_lon": 0.0}, {"lat": 38.917018666666664, "is_disabled": 0, "type": "electric_bike", "lon": -77.02738683333334, "bike_id": "a3df669b780de1fc1f2f849c8966ac4c", "fusion_lat": 0.0, "name": "a3df669b780de1fc1f2f849c8966ac4c", "is_reserved": 0, "rental_uris": {"android": "https://dc.lft.to/lastmile_qr_scan", "ios": "https://dc.lft.to/lastmile_qr_scan"}, "fusion_lon": 0.0}, {"lat": 38.89714383333333, "is_disabled": 0, "type": "electric_scooter", "lon": -77.00801416666667, "bike_id": "b7f00b7000610cde68721af645029f99", "fusion_lat": 0.0, "name": "b7f00b7000610cde68721af645029f99", "is_reserved": 0, "rental_uris": {"android": "https://dc.lft.to/lastmile_qr_scan", "ios": "https://dc.lft.to/lastmile_qr_scan"}, "fusion_lon": 0.0}, {"lat": 38.91047966666667, "is_disabled": 0, "type": "electric_scooter", "lon": -77.015133, "bike_id": "5322d68f7b97b6c6cff48c0d5b56c8f5", "fusion_lat": 0.0, "name": "5322d68f7b97b6c6cff48c0d5b56c8f5", "is_reserved": 0, "rental_uris": {"android": "https://dc.lft.to/lastmile_qr_scan", "ios": "https://dc.lft.to/lastmile_qr_scan"}, "fusion_lon": 0.0}, {"lat": 38.922049666666666, "is_disabled": 0, "type": "electric_scooter", "lon": -77.04009833333333, "bike_id": "2ea0d63d76337da001fd6e516718f2f3", "fusion_lat": 0.0, "name": "2ea0d63d76337da001fd6e516718f2f3", "is_reserved": 0, "rental_uris": {"android": "https://dc.lft.to/lastmile_qr_scan", "ios": "https://dc.lft.to/lastmile_qr_scan"}, "fusion_lon": 0.0}, {"lat": 38.9539905, "is_disabled": 0, "type": "electric_scooter", "lon": -77.036319, "bike_id": "837d900e48d4d9e69e9dd36342c838ff", "fusion_lat": 0.0, "name": "837d900e48d4d9e69e9dd36342c838ff", "is_reserved": 0, "rental_uris": {"android": "https://dc.lft.to/lastmile_qr_scan", "ios": "https://dc.lft.to/lastmile_qr_scan"}, "fusion_lon": 0.0}, {"lat": 38.905626, "is_disabled": 0, "type": "electric_scooter", "lon": -77.03428866666667, "bike_id": "26547d09a6a818a7c7bcfce5769cfce8", "fusion_lat": 0.0, "name": "26547d09a6a818a7c7bcfce5769cfce8", "is_reserved": 0, "rental_uris": {"android": "https://dc.lft.to/lastmile_qr_scan", "ios": "https://dc.lft.to/lastmile_qr_scan"}, "fusion_lon": 0.0}, {"lat": 38.90378183333333, "is_disabled": 0, "type": "electric_scooter", "lon": -77.04347133333333, "bike_id": "5d57c3a1e179822539e521e2b3b9bd06", "fusion_lat": 0.0, "name": "5d57c3a1e179822539e521e2b3b9bd06", "is_reserved": 0, "rental_uris": {"android": "https://dc.lft.to/lastmile_qr_scan", "ios": "https://dc.lft.to/lastmile_qr_scan"}, "fusion_lon": 0.0}, {"lat": 38.86911716666667, "is_disabled": 0, "type": "electric_bike", "lon": -77.13188183333334, "bike_id": "b1434a886d8eaa0d845747dc6bef13af", "fusion_lat": 0.0, "name": "b1434a886d8eaa0d845747dc6bef13af", "is_reserved": 0, "rental_uris": {"android": "https://dc.lft.to/lastmile_qr_scan", "ios": "https://dc.lft.to/lastmile_qr_scan"}, "fusion_lon": 0.0}, {"lat": 38.91485483333334, "is_disabled": 0, "type": "electric_scooter", "lon": -77.03249866666667, "bike_id": "06e006ea7b5e7b357fe9a503425de6cc", "fusion_lat": 0.0, "name": "06e006ea7b5e7b357fe9a503425de6cc", "is_reserved": 0, "rental_uris": {"android": "https://dc.lft.to/lastmile_qr_scan", "ios": "https://dc.lft.to/lastmile_qr_scan"}, "fusion_lon": 0.0}, {"lat": 38.88590533333333, "is_disabled": 0, "type": "electric_scooter", "lon": -77.02203466666667, "bike_id": "4ddecebbf29e7e39dada8795d19dc1b7", "fusion_lat": 0.0, "name": "4ddecebbf29e7e39dada8795d19dc1b7", "is_reserved": 0, "rental_uris": {"android": "https://dc.lft.to/lastmile_qr_scan", "ios": "https://dc.lft.to/lastmile_qr_scan"}, "fusion_lon": 0.0}, {"lat": 38.93173016666667, "is_disabled": 0, "type": "electric_scooter", "lon": -77.0282115, "bike_id": "9ab5bf766119f7773496bb3bfe600991", "fusion_lat": 0.0, "name": "9ab5bf766119f7773496bb3bfe600991", "is_reserved": 0, "rental_uris": {"android": "https://dc.lft.to/lastmile_qr_scan", "ios": "https://dc.lft.to/lastmile_qr_scan"}, "fusion_lon": 0.0}, {"lat": 38.8904005, "is_disabled": 0, "type": "electric_scooter", "lon": -76.95141883333334, "bike_id": "b02de46335a766db21113f2c2cb3d00f", "fusion_lat": 0.0, "name": "b02de46335a766db21113f2c2cb3d00f", "is_reserved": 0, "rental_uris": {"android": "https://dc.lft.to/lastmile_qr_scan", "ios": "https://dc.lft.to/lastmile_qr_scan"}, "fusion_lon": 0.0}, {"lat": 38.90781283333333, "is_disabled": 0, "type": "electric_scooter", "lon": -77.04249983333334, "bike_id": "0c86f7cb9839814830b3bf7d579b7307", "fusion_lat": 0.0, "name": "0c86f7cb9839814830b3bf7d579b7307", "is_reserved": 0, "rental_uris": {"android": "https://dc.lft.to/lastmile_qr_scan", "ios": "https://dc.lft.to/lastmile_qr_scan"}, "fusion_lon": 0.0}, {"lat": 38.906467666666664, "is_disabled": 0, "type": "electric_scooter", "lon": -77.025998, "bike_id": "b2b8f09990339cda9676ccca9412335d", "fusion_lat": 0.0, "name": "b2b8f09990339cda9676ccca9412335d", "is_reserved": 0, "rental_uris": {"android": "https://dc.lft.to/lastmile_qr_scan", "ios": "https://dc.lft.to/lastmile_qr_scan"}, "fusion_lon": 0.0}, {"lat": 38.84035866666667, "is_disabled": 0, "type": "electric_bike", "lon": -76.97619916666666, "bike_id": "491c5aac4b29f565f67ab50778eceba0", "fusion_lat": 0.0, "name": "491c5aac4b29f565f67ab50778eceba0", "is_reserved": 0, "rental_uris": {"android": "https://dc.lft.to/lastmile_qr_scan", "ios": "https://dc.lft.to/lastmile_qr_scan"}, "fusion_lon": 0.0}, {"lat": 38.917826833333336, "is_disabled": 0, "type": "electric_scooter", "lon": -77.0231445, "bike_id": "dc867e329eaa04ef3239029aba45960d", "fusion_lat": 0.0, "name": "dc867e329eaa04ef3239029aba45960d", "is_reserved": 0, "rental_uris": {"android": "https://dc.lft.to/lastmile_qr_scan", "ios": "https://dc.lft.to/lastmile_qr_scan"}, "fusion_lon": 0.0}, {"lat": 38.91612516666667, "is_disabled": 0, "type": "electric_scooter", "lon": -77.02128116666667, "bike_id": "e2c75b26d161d1e0920efb71c2a1ba7e", "fusion_lat": 0.0, "name": "e2c75b26d161d1e0920efb71c2a1ba7e", "is_reserved": 0, "rental_uris": {"android": "https://dc.lft.to/lastmile_qr_scan", "ios": "https://dc.lft.to/lastmile_qr_scan"}, "fusion_lon": 0.0}, {"lat": 38.920029166666666, "is_disabled": 0, "type": "electric_scooter", "lon": -77.0205825, "bike_id": "8dc9958851e954eeb1fbab02eda69468", "fusion_lat": 0.0, "name": "8dc9958851e954eeb1fbab02eda69468", "is_reserved": 0, "rental_uris": {"android": "https://dc.lft.to/lastmile_qr_scan", "ios": "https://dc.lft.to/lastmile_qr_scan"}, "fusion_lon": 0.0}, {"lat": 38.91194216666667, "is_disabled": 0, "type": "electric_scooter", "lon": -77.03217733333334, "bike_id": "6b20d557356e512b1a32d866dede7d19", "fusion_lat": 0.0, "name": "6b20d557356e512b1a32d866dede7d19", "is_reserved": 0, "rental_uris": {"android": "https://dc.lft.to/lastmile_qr_scan", "ios": "https://dc.lft.to/lastmile_qr_scan"}, "fusion_lon": 0.0}, {"lat": 38.91680616666667, "is_disabled": 0, "type": "electric_scooter", "lon": -77.001997, "bike_id": "196922d367a4536bc139464a394695b3", "fusion_lat": 0.0, "name": "196922d367a4536bc139464a394695b3", "is_reserved": 0, "rental_uris": {"android": "https://dc.lft.to/lastmile_qr_scan", "ios": "https://dc.lft.to/lastmile_qr_scan"}, "fusion_lon": 0.0}, {"lat": 38.88362266666667, "is_disabled": 0, "type": "electric_scooter", "lon": -76.94157, "bike_id": "aa09faa83e8ab340f0595b7a0d1679d2", "fusion_lat": 0.0, "name": "aa09faa83e8ab340f0595b7a0d1679d2", "is_reserved": 0, "rental_uris": {"android": "https://dc.lft.to/lastmile_qr_scan", "ios": "https://dc.lft.to/lastmile_qr_scan"}, "fusion_lon": 0.0}, {"lat": 38.925323, "is_disabled": 0, "type": "electric_scooter", "lon": -77.02632433333333, "bike_id": "1cf8a021da50242d204dd674cfcff058", "fusion_lat": 0.0, "name": "1cf8a021da50242d204dd674cfcff058", "is_reserved": 0, "rental_uris": {"android": "https://dc.lft.to/lastmile_qr_scan", "ios": "https://dc.lft.to/lastmile_qr_scan"}, "fusion_lon": 0.0}, {"lat": 38.9325245, "is_disabled": 0, "type": "electric_scooter", "lon": -77.03270083333334, "bike_id": "3e288bc921a3a7c149f17a4a8a5c9298", "fusion_lat": 0.0, "name": "3e288bc921a3a7c149f17a4a8a5c9298", "is_reserved": 0, "rental_uris": {"android": "https://dc.lft.to/lastmile_qr_scan", "ios": "https://dc.lft.to/lastmile_qr_scan"}, "fusion_lon": 0.0}, {"lat": 38.958884, "is_disabled": 0, "type": "electric_bike", "lon": -76.92482333333334, "bike_id": "562ea2c1aec9f08ebaa429fe1edfd83f", "fusion_lat": 0.0, "name": "562ea2c1aec9f08ebaa429fe1edfd83f", "is_reserved": 0, "rental_uris": {"android": "https://dc.lft.to/lastmile_qr_scan", "ios": "https://dc.lft.to/lastmile_qr_scan"}, "fusion_lon": 0.0}, {"lat": 38.89577233333333, "is_disabled": 0, "type": "electric_scooter", "lon": -77.02195716666667, "bike_id": "edd84d7b956db5dcf5913d13d56e53ac", "fusion_lat": 0.0, "name": "edd84d7b956db5dcf5913d13d56e53ac", "is_reserved": 0, "rental_uris": {"android": "https://dc.lft.to/lastmile_qr_scan", "ios": "https://dc.lft.to/lastmile_qr_scan"}, "fusion_lon": 0.0}, {"lat": 38.91760333333333, "is_disabled": 0, "type": "electric_scooter", "lon": -76.97621883333333, "bike_id": "73fcfb841cccb8a04e6847d56e3f1e87", "fusion_lat": 0.0, "name": "73fcfb841cccb8a04e6847d56e3f1e87", "is_reserved": 0, "rental_uris": {"android": "https://dc.lft.to/lastmile_qr_scan", "ios": "https://dc.lft.to/lastmile_qr_scan"}, "fusion_lon": 0.0}, {"lat": 38.941197833333334, "is_disabled": 0, "type": "electric_scooter", "lon": -77.0007725, "bike_id": "44000d2588de126fd62fcaf0acaa6c3c", "fusion_lat": 0.0, "name": "44000d2588de126fd62fcaf0acaa6c3c", "is_reserved": 0, "rental_uris": {"android": "https://dc.lft.to/lastmile_qr_scan", "ios": "https://dc.lft.to/lastmile_qr_scan"}, "fusion_lon": 0.0}, {"lat": 38.90748883333333, "is_disabled": 0, "type": "electric_scooter", "lon": -77.00103616666667, "bike_id": "fa80ed9808f80765ce0d26a5d2d3e8e0", "fusion_lat": 0.0, "name": "fa80ed9808f80765ce0d26a5d2d3e8e0", "is_reserved": 0, "rental_uris": {"android": "https://dc.lft.to/lastmile_qr_scan", "ios": "https://dc.lft.to/lastmile_qr_scan"}, "fusion_lon": 0.0}, {"lat": 38.929524, "is_disabled": 0, "type": "electric_scooter", "lon": -76.99089166666667, "bike_id": "30d94db384d089113d98a511d2a60de7", "fusion_lat": 0.0, "name": "30d94db384d089113d98a511d2a60de7", "is_reserved": 0, "rental_uris": {"android": "https://dc.lft.to/lastmile_qr_scan", "ios": "https://dc.lft.to/lastmile_qr_scan"}, "fusion_lon": 0.0}, {"lat": 38.9178635, "is_disabled": 0, "type": "electric_scooter", "lon": -77.02315933333334, "bike_id": "16581fc3b94199c6168b3978feb15f2b", "fusion_lat": 0.0, "name": "16581fc3b94199c6168b3978feb15f2b", "is_reserved": 0, "rental_uris": {"android": "https://dc.lft.to/lastmile_qr_scan", "ios": "https://dc.lft.to/lastmile_qr_scan"}, "fusion_lon": 0.0}, {"lat": 38.9151835, "is_disabled": 0, "type": "electric_scooter", "lon": -77.03847583333334, "bike_id": "ca4eea25075b6d671f2ade9f6a38ab3a", "fusion_lat": 0.0, "name": "ca4eea25075b6d671f2ade9f6a38ab3a", "is_reserved": 0, "rental_uris": {"android": "https://dc.lft.to/lastmile_qr_scan", "ios": "https://dc.lft.to/lastmile_qr_scan"}, "fusion_lon": 0.0}, {"lat": 38.8928515, "is_disabled": 0, "type": "electric_scooter", "lon": -76.9585135, "bike_id": "e918c97b11387dcc0185161f8b030036", "fusion_lat": 0.0, "name": "e918c97b11387dcc0185161f8b030036", "is_reserved": 0, "rental_uris": {"android": "https://dc.lft.to/lastmile_qr_scan", "ios": "https://dc.lft.to/lastmile_qr_scan"}, "fusion_lon": 0.0}, {"lat": 38.8999415, "is_disabled": 0, "type": "electric_scooter", "lon": -76.999554, "bike_id": "3c555a1cee6d7113374c1e252ebd55aa", "fusion_lat": 0.0, "name": "3c555a1cee6d7113374c1e252ebd55aa", "is_reserved": 0, "rental_uris": {"android": "https://dc.lft.to/lastmile_qr_scan", "ios": "https://dc.lft.to/lastmile_qr_scan"}, "fusion_lon": 0.0}, {"lat": 38.88099283333333, "is_disabled": 0, "type": "electric_scooter", "lon": -76.99503033333333, "bike_id": "bab7fa4c42c30ff728ca05743c32e263", "fusion_lat": 0.0, "name": "bab7fa4c42c30ff728ca05743c32e263", "is_reserved": 0, "rental_uris": {"android": "https://dc.lft.to/lastmile_qr_scan", "ios": "https://dc.lft.to/lastmile_qr_scan"}, "fusion_lon": 0.0}, {"lat": 38.916852666666664, "is_disabled": 0, "type": "electric_scooter", "lon": -77.0296455, "bike_id": "3a62df7d0ca3afb285423e87a2aa4858", "fusion_lat": 0.0, "name": "3a62df7d0ca3afb285423e87a2aa4858", "is_reserved": 0, "rental_uris": {"android": "https://dc.lft.to/lastmile_qr_scan", "ios": "https://dc.lft.to/lastmile_qr_scan"}, "fusion_lon": 0.0}, {"lat": 38.89266166666667, "is_disabled": 0, "type": "electric_scooter", "lon": -77.020239, "bike_id": "1099807cf29452b41b640052a2cc2020", "fusion_lat": 0.0, "name": "1099807cf29452b41b640052a2cc2020", "is_reserved": 0, "rental_uris": {"android": "https://dc.lft.to/lastmile_qr_scan", "ios": "https://dc.lft.to/lastmile_qr_scan"}, "fusion_lon": 0.0}, {"lat": 38.92454983333333, "is_disabled": 0, "type": "electric_scooter", "lon": -77.08036433333334, "bike_id": "76fc29478f0596626357425b40e367cd", "fusion_lat": 0.0, "name": "76fc29478f0596626357425b40e367cd", "is_reserved": 0, "rental_uris": {"android": "https://dc.lft.to/lastmile_qr_scan", "ios": "https://dc.lft.to/lastmile_qr_scan"}, "fusion_lon": 0.0}, {"lat": 39.029334, "is_disabled": 0, "type": "electric_bike", "lon": -77.04928766666667, "bike_id": "bf2116e87fd9da2aa84b175170cd131f", "fusion_lat": 0.0, "name": "bf2116e87fd9da2aa84b175170cd131f", "is_reserved": 0, "rental_uris": {"android": "https://dc.lft.to/lastmile_qr_scan", "ios": "https://dc.lft.to/lastmile_qr_scan"}, "fusion_lon": 0.0}, {"lat": 38.90569766666667, "is_disabled": 0, "type": "electric_scooter", "lon": -77.02986866666667, "bike_id": "0e2d45f1c657758f168349fed996c13c", "fusion_lat": 0.0, "name": "0e2d45f1c657758f168349fed996c13c", "is_reserved": 0, "rental_uris": {"android": "https://dc.lft.to/lastmile_qr_scan", "ios": "https://dc.lft.to/lastmile_qr_scan"}, "fusion_lon": 0.0}, {"lat": 38.93437933333333, "is_disabled": 0, "type": "electric_scooter", "lon": -77.03440483333334, "bike_id": "743169b79a13f59dad8968daf67191b3", "fusion_lat": 0.0, "name": "743169b79a13f59dad8968daf67191b3", "is_reserved": 0, "rental_uris": {"android": "https://dc.lft.to/lastmile_qr_scan", "ios": "https://dc.lft.to/lastmile_qr_scan"}, "fusion_lon": 0.0}, {"lat": 38.95328333333333, "is_disabled": 0, "type": "electric_scooter", "lon": -77.027505, "bike_id": "8e6a1a67600e1e739cc3f08410a64253", "fusion_lat": 0.0, "name": "8e6a1a67600e1e739cc3f08410a64253", "is_reserved": 0, "rental_uris": {"android": "https://dc.lft.to/lastmile_qr_scan", "ios": "https://dc.lft.to/lastmile_qr_scan"}, "fusion_lon": 0.0}, {"lat": 38.88468983333333, "is_disabled": 0, "type": "electric_scooter", "lon": -76.992613, "bike_id": "f5aeb52aa652ac67d19a2d242c7ee0e9", "fusion_lat": 0.0, "name": "f5aeb52aa652ac67d19a2d242c7ee0e9", "is_reserved": 0, "rental_uris": {"android": "https://dc.lft.to/lastmile_qr_scan", "ios": "https://dc.lft.to/lastmile_qr_scan"}, "fusion_lon": 0.0}, {"lat": 38.92153916666667, "is_disabled": 0, "type": "electric_scooter", "lon": -77.035094, "bike_id": "7f9f2f0630c21d7cddf528d385a898cf", "fusion_lat": 0.0, "name": "7f9f2f0630c21d7cddf528d385a898cf", "is_reserved": 0, "rental_uris": {"android": "https://dc.lft.to/lastmile_qr_scan", "ios": "https://dc.lft.to/lastmile_qr_scan"}, "fusion_lon": 0.0}, {"lat": 38.960208, "is_disabled": 0, "type": "electric_bike", "lon": -77.01728766666666, "bike_id": "a2aaf00f868a8c14b0b9828da88d44c6", "fusion_lat": 0.0, "name": "a2aaf00f868a8c14b0b9828da88d44c6", "is_reserved": 0, "rental_uris": {"android": "https://dc.lft.to/lastmile_qr_scan", "ios": "https://dc.lft.to/lastmile_qr_scan"}, "fusion_lon": 0.0}, {"lat": 38.8075645, "is_disabled": 0, "type": "electric_bike", "lon": -77.09456316666666, "bike_id": "f3155bfe2ad6f62e69564cc54f48a729", "fusion_lat": 0.0, "name": "f3155bfe2ad6f62e69564cc54f48a729", "is_reserved": 0, "rental_uris": {"android": "https://dc.lft.to/lastmile_qr_scan", "ios": "https://dc.lft.to/lastmile_qr_scan"}, "fusion_lon": 0.0}, {"lat": 38.87292566666667, "is_disabled": 0, "type": "electric_scooter", "lon": -77.0093265, "bike_id": "9f945f55c32bcb0fba1dd1bd25dab1f8", "fusion_lat": 0.0, "name": "9f945f55c32bcb0fba1dd1bd25dab1f8", "is_reserved": 0, "rental_uris": {"android": "https://dc.lft.to/lastmile_qr_scan", "ios": "https://dc.lft.to/lastmile_qr_scan"}, "fusion_lon": 0.0}, {"lat": 38.88493483333333, "is_disabled": 0, "type": "electric_scooter", "lon": -77.00713733333333, "bike_id": "20595ec1cc8819325c6493e918967827", "fusion_lat": 0.0, "name": "20595ec1cc8819325c6493e918967827", "is_reserved": 0, "rental_uris": {"android": "https://dc.lft.to/lastmile_qr_scan", "ios": "https://dc.lft.to/lastmile_qr_scan"}, "fusion_lon": 0.0}, {"lat": 38.85451466666667, "is_disabled": 0, "type": "electric_scooter", "lon": -76.97233433333334, "bike_id": "945c04efcd7778a96665874d26db3ede", "fusion_lat": 0.0, "name": "945c04efcd7778a96665874d26db3ede", "is_reserved": 0, "rental_uris": {"android": "https://dc.lft.to/lastmile_qr_scan", "ios": "https://dc.lft.to/lastmile_qr_scan"}, "fusion_lon": 0.0}, {"lat": 38.92786483333333, "is_disabled": 0, "type": "electric_bike", "lon": -76.97224516666667, "bike_id": "9dcbb796a397cbf7e63818c921e578ff", "fusion_lat": 0.0, "name": "9dcbb796a397cbf7e63818c921e578ff", "is_reserved": 0, "rental_uris": {"android": "https://dc.lft.to/lastmile_qr_scan", "ios": "https://dc.lft.to/lastmile_qr_scan"}, "fusion_lon": 0.0}, {"lat": 38.917882166666665, "is_disabled": 0, "type": "electric_scooter", "lon": -77.04412183333334, "bike_id": "f364e748f9b617ffe8128c57d113f3b9", "fusion_lat": 0.0, "name": "f364e748f9b617ffe8128c57d113f3b9", "is_reserved": 0, "rental_uris": {"android": "https://dc.lft.to/lastmile_qr_scan", "ios": "https://dc.lft.to/lastmile_qr_scan"}, "fusion_lon": 0.0}, {"lat": 38.863830166666666, "is_disabled": 0, "type": "electric_scooter", "lon": -76.992505, "bike_id": "123026754ee5580bc0afbdbdceefa4f4", "fusion_lat": 0.0, "name": "123026754ee5580bc0afbdbdceefa4f4", "is_reserved": 0, "rental_uris": {"android": "https://dc.lft.to/lastmile_qr_scan", "ios": "https://dc.lft.to/lastmile_qr_scan"}, "fusion_lon": 0.0}, {"lat": 38.92350033333334, "is_disabled": 0, "type": "electric_scooter", "lon": -77.0439, "bike_id": "3073a9b1ecb65bb98ed8faed2a15e887", "fusion_lat": 0.0, "name": "3073a9b1ecb65bb98ed8faed2a15e887", "is_reserved": 0, "rental_uris": {"android": "https://dc.lft.to/lastmile_qr_scan", "ios": "https://dc.lft.to/lastmile_qr_scan"}, "fusion_lon": 0.0}, {"lat": 38.855179, "is_disabled": 0, "type": "electric_bike", "lon": -77.12046633333334, "bike_id": "14b38ca0d0ccd4ac7484a6d6e08ad7b1", "fusion_lat": 0.0, "name": "14b38ca0d0ccd4ac7484a6d6e08ad7b1", "is_reserved": 0, "rental_uris": {"android": "https://dc.lft.to/lastmile_qr_scan", "ios": "https://dc.lft.to/lastmile_qr_scan"}, "fusion_lon": 0.0}, {"lat": 38.865702, "is_disabled": 0, "type": "electric_bike", "lon": -76.97311183333333, "bike_id": "fb2aa4c3b19bf5ccccc7c12ec58dec6e", "fusion_lat": 0.0, "name": "fb2aa4c3b19bf5ccccc7c12ec58dec6e", "is_reserved": 0, "rental_uris": {"android": "https://dc.lft.to/lastmile_qr_scan", "ios": "https://dc.lft.to/lastmile_qr_scan"}, "fusion_lon": 0.0}, {"lat": 38.978343333333335, "is_disabled": 0, "type": "electric_bike", "lon": -77.02644416666666, "bike_id": "05e0d3e10cfd09d4a4da603c31542314", "fusion_lat": 0.0, "name": "05e0d3e10cfd09d4a4da603c31542314", "is_reserved": 0, "rental_uris": {"android": "https://dc.lft.to/lastmile_qr_scan", "ios": "https://dc.lft.to/lastmile_qr_scan"}, "fusion_lon": 0.0}, {"lat": 38.943143166666665, "is_disabled": 0, "type": "electric_scooter", "lon": -77.059309, "bike_id": "12038da3f444ca323f4735c322280f69", "fusion_lat": 0.0, "name": "12038da3f444ca323f4735c322280f69", "is_reserved": 0, "rental_uris": {"android": "https://dc.lft.to/lastmile_qr_scan", "ios": "https://dc.lft.to/lastmile_qr_scan"}, "fusion_lon": 0.0}, {"lat": 38.92445566666667, "is_disabled": 0, "type": "electric_scooter", "lon": -77.02031716666667, "bike_id": "9057589dc7381bf15f692afd3946ee82", "fusion_lat": 0.0, "name": "9057589dc7381bf15f692afd3946ee82", "is_reserved": 0, "rental_uris": {"android": "https://dc.lft.to/lastmile_qr_scan", "ios": "https://dc.lft.to/lastmile_qr_scan"}, "fusion_lon": 0.0}, {"lat": 38.890377, "is_disabled": 0, "type": "electric_scooter", "lon": -77.0297755, "bike_id": "5ce54c0c751286bc6280c63cbe5bcc51", "fusion_lat": 0.0, "name": "5ce54c0c751286bc6280c63cbe5bcc51", "is_reserved": 0, "rental_uris": {"android": "https://dc.lft.to/lastmile_qr_scan", "ios": "https://dc.lft.to/lastmile_qr_scan"}, "fusion_lon": 0.0}, {"lat": 38.8850415, "is_disabled": 0, "type": "electric_scooter", "lon": -77.00564183333333, "bike_id": "a96742fede27b7b08fcef46b65be7cfc", "fusion_lat": 0.0, "name": "a96742fede27b7b08fcef46b65be7cfc", "is_reserved": 0, "rental_uris": {"android": "https://dc.lft.to/lastmile_qr_scan", "ios": "https://dc.lft.to/lastmile_qr_scan"}, "fusion_lon": 0.0}, {"lat": 38.9057605, "is_disabled": 0, "type": "electric_scooter", "lon": -77.02206683333333, "bike_id": "6bc5c7535d5eaafd7d16455ed1179859", "fusion_lat": 0.0, "name": "6bc5c7535d5eaafd7d16455ed1179859", "is_reserved": 0, "rental_uris": {"android": "https://dc.lft.to/lastmile_qr_scan", "ios": "https://dc.lft.to/lastmile_qr_scan"}, "fusion_lon": 0.0}, {"lat": 38.921518666666664, "is_disabled": 0, "type": "electric_scooter", "lon": -77.0334945, "bike_id": "2709018575a25fbb98ffa87d712c3911", "fusion_lat": 0.0, "name": "2709018575a25fbb98ffa87d712c3911", "is_reserved": 0, "rental_uris": {"android": "https://dc.lft.to/lastmile_qr_scan", "ios": "https://dc.lft.to/lastmile_qr_scan"}, "fusion_lon": 0.0}, {"lat": 38.93143216666667, "is_disabled": 0, "type": "electric_scooter", "lon": -77.041442, "bike_id": "8687958be24837e8945322dafb17e693", "fusion_lat": 0.0, "name": "8687958be24837e8945322dafb17e693", "is_reserved": 0, "rental_uris": {"android": "https://dc.lft.to/lastmile_qr_scan", "ios": "https://dc.lft.to/lastmile_qr_scan"}, "fusion_lon": 0.0}, {"lat": 38.923170999999996, "is_disabled": 0, "type": "electric_scooter", "lon": -77.03962483333333, "bike_id": "56ca92863f753b9e2548d8b5731915c5", "fusion_lat": 0.0, "name": "56ca92863f753b9e2548d8b5731915c5", "is_reserved": 0, "rental_uris": {"android": "https://dc.lft.to/lastmile_qr_scan", "ios": "https://dc.lft.to/lastmile_qr_scan"}, "fusion_lon": 0.0}, {"lat": 38.8665295, "is_disabled": 0, "type": "electric_scooter", "lon": -76.98887566666667, "bike_id": "ee2c35d32257c7836c5470d5b0acf82f", "fusion_lat": 0.0, "name": "ee2c35d32257c7836c5470d5b0acf82f", "is_reserved": 0, "rental_uris": {"android": "https://dc.lft.to/lastmile_qr_scan", "ios": "https://dc.lft.to/lastmile_qr_scan"}, "fusion_lon": 0.0}, {"lat": 38.905717, "is_disabled": 0, "type": "electric_scooter", "lon": -77.0295805, "bike_id": "d22f2c26c29f92966d0aa6d132b6d3b5", "fusion_lat": 0.0, "name": "d22f2c26c29f92966d0aa6d132b6d3b5", "is_reserved": 0, "rental_uris": {"android": "https://dc.lft.to/lastmile_qr_scan", "ios": "https://dc.lft.to/lastmile_qr_scan"}, "fusion_lon": 0.0}, {"lat": 38.91355083333333, "is_disabled": 0, "type": "electric_scooter", "lon": -77.06930283333334, "bike_id": "864ff316f38061463fe573758bed4af3", "fusion_lat": 0.0, "name": "864ff316f38061463fe573758bed4af3", "is_reserved": 0, "rental_uris": {"android": "https://dc.lft.to/lastmile_qr_scan", "ios": "https://dc.lft.to/lastmile_qr_scan"}, "fusion_lon": 0.0}, {"lat": 38.92595766666667, "is_disabled": 0, "type": "electric_scooter", "lon": -77.02492466666666, "bike_id": "56e5b9486d0e7b501e5d96fdebc56b87", "fusion_lat": 0.0, "name": "56e5b9486d0e7b501e5d96fdebc56b87", "is_reserved": 0, "rental_uris": {"android": "https://dc.lft.to/lastmile_qr_scan", "ios": "https://dc.lft.to/lastmile_qr_scan"}, "fusion_lon": 0.0}, {"lat": 38.874712, "is_disabled": 0, "type": "electric_scooter", "lon": -77.00517833333333, "bike_id": "b8f53ee8d2278b24fa3a955042914f99", "fusion_lat": 0.0, "name": "b8f53ee8d2278b24fa3a955042914f99", "is_reserved": 0, "rental_uris": {"android": "https://dc.lft.to/lastmile_qr_scan", "ios": "https://dc.lft.to/lastmile_qr_scan"}, "fusion_lon": 0.0}, {"lat": 38.8962225, "is_disabled": 0, "type": "electric_scooter", "lon": -77.04509216666666, "bike_id": "25b03419e7bfd2361322756cc6fda7a0", "fusion_lat": 0.0, "name": "25b03419e7bfd2361322756cc6fda7a0", "is_reserved": 0, "rental_uris": {"android": "https://dc.lft.to/lastmile_qr_scan", "ios": "https://dc.lft.to/lastmile_qr_scan"}, "fusion_lon": 0.0}, {"lat": 38.960636, "is_disabled": 0, "type": "electric_scooter", "lon": -77.07308316666666, "bike_id": "347a8c8a329444edf1212db4cf7db862", "fusion_lat": 0.0, "name": "347a8c8a329444edf1212db4cf7db862", "is_reserved": 0, "rental_uris": {"android": "https://dc.lft.to/lastmile_qr_scan", "ios": "https://dc.lft.to/lastmile_qr_scan"}, "fusion_lon": 0.0}, {"lat": 38.900629, "is_disabled": 0, "type": "electric_scooter", "lon": -77.04540083333333, "bike_id": "b3949fc037067be322a18e6612d44687", "fusion_lat": 0.0, "name": "b3949fc037067be322a18e6612d44687", "is_reserved": 0, "rental_uris": {"android": "https://dc.lft.to/lastmile_qr_scan", "ios": "https://dc.lft.to/lastmile_qr_scan"}, "fusion_lon": 0.0}, {"lat": 38.91340233333333, "is_disabled": 0, "type": "electric_scooter", "lon": -77.04285833333333, "bike_id": "1c8944638e32c63124ec04d6b50e728b", "fusion_lat": 0.0, "name": "1c8944638e32c63124ec04d6b50e728b", "is_reserved": 0, "rental_uris": {"android": "https://dc.lft.to/lastmile_qr_scan", "ios": "https://dc.lft.to/lastmile_qr_scan"}, "fusion_lon": 0.0}, {"lat": 38.914883833333334, "is_disabled": 0, "type": "electric_scooter", "lon": -77.032345, "bike_id": "f1fc1d68de410e22da95fb80d6d628a0", "fusion_lat": 0.0, "name": "f1fc1d68de410e22da95fb80d6d628a0", "is_reserved": 0, "rental_uris": {"android": "https://dc.lft.to/lastmile_qr_scan", "ios": "https://dc.lft.to/lastmile_qr_scan"}, "fusion_lon": 0.0}, {"lat": 38.92852883333333, "is_disabled": 0, "type": "electric_scooter", "lon": -77.02999183333333, "bike_id": "0965f1a9f06ef6fb637ae9159d25ce49", "fusion_lat": 0.0, "name": "0965f1a9f06ef6fb637ae9159d25ce49", "is_reserved": 0, "rental_uris": {"android": "https://dc.lft.to/lastmile_qr_scan", "ios": "https://dc.lft.to/lastmile_qr_scan"}, "fusion_lon": 0.0}, {"lat": 38.915389, "is_disabled": 0, "type": "electric_scooter", "lon": -77.03209566666666, "bike_id": "dd8081e22df7d0ab99110e384deff676", "fusion_lat": 0.0, "name": "dd8081e22df7d0ab99110e384deff676", "is_reserved": 0, "rental_uris": {"android": "https://dc.lft.to/lastmile_qr_scan", "ios": "https://dc.lft.to/lastmile_qr_scan"}, "fusion_lon": 0.0}, {"lat": 38.8922815, "is_disabled": 0, "type": "electric_scooter", "lon": -77.05005383333334, "bike_id": "926dda689dae3cf29137e9ace425df81", "fusion_lat": 0.0, "name": "926dda689dae3cf29137e9ace425df81", "is_reserved": 0, "rental_uris": {"android": "https://dc.lft.to/lastmile_qr_scan", "ios": "https://dc.lft.to/lastmile_qr_scan"}, "fusion_lon": 0.0}, {"lat": 38.8955325, "is_disabled": 0, "type": "electric_scooter", "lon": -76.93381083333334, "bike_id": "c62dc283ee89b7240d172273e8769754", "fusion_lat": 0.0, "name": "c62dc283ee89b7240d172273e8769754", "is_reserved": 0, "rental_uris": {"android": "https://dc.lft.to/lastmile_qr_scan", "ios": "https://dc.lft.to/lastmile_qr_scan"}, "fusion_lon": 0.0}, {"lat": 38.926601833333336, "is_disabled": 0, "type": "electric_scooter", "lon": -77.05596716666666, "bike_id": "6c935734e6bc7fc104d803a77dcd05d8", "fusion_lat": 0.0, "name": "6c935734e6bc7fc104d803a77dcd05d8", "is_reserved": 0, "rental_uris": {"android": "https://dc.lft.to/lastmile_qr_scan", "ios": "https://dc.lft.to/lastmile_qr_scan"}, "fusion_lon": 0.0}, {"lat": 38.935340833333335, "is_disabled": 0, "type": "electric_scooter", "lon": -77.02353783333334, "bike_id": "27bc54b5b2cdc78ed3c62bccc2c7b223", "fusion_lat": 0.0, "name": "27bc54b5b2cdc78ed3c62bccc2c7b223", "is_reserved": 0, "rental_uris": {"android": "https://dc.lft.to/lastmile_qr_scan", "ios": "https://dc.lft.to/lastmile_qr_scan"}, "fusion_lon": 0.0}, {"lat": 38.903662, "is_disabled": 0, "type": "electric_scooter", "lon": -76.97655416666667, "bike_id": "242c3b1f877670b73735544124ba34ac", "fusion_lat": 0.0, "name": "242c3b1f877670b73735544124ba34ac", "is_reserved": 0, "rental_uris": {"android": "https://dc.lft.to/lastmile_qr_scan", "ios": "https://dc.lft.to/lastmile_qr_scan"}, "fusion_lon": 0.0}, {"lat": 38.8670665, "is_disabled": 0, "type": "electric_bike", "lon": -76.98956933333334, "bike_id": "17b89615fc825ebad1c291f9e33dc0bf", "fusion_lat": 0.0, "name": "17b89615fc825ebad1c291f9e33dc0bf", "is_reserved": 0, "rental_uris": {"android": "https://dc.lft.to/lastmile_qr_scan", "ios": "https://dc.lft.to/lastmile_qr_scan"}, "fusion_lon": 0.0}, {"lat": 38.95557083333333, "is_disabled": 0, "type": "electric_bike", "lon": -76.93545916666666, "bike_id": "ba077fa8fec01c01a102e9ddf80da24c", "fusion_lat": 0.0, "name": "ba077fa8fec01c01a102e9ddf80da24c", "is_reserved": 0, "rental_uris": {"android": "https://dc.lft.to/lastmile_qr_scan", "ios": "https://dc.lft.to/lastmile_qr_scan"}, "fusion_lon": 0.0}, {"lat": 38.91254433333334, "is_disabled": 0, "type": "electric_scooter", "lon": -77.04772616666666, "bike_id": "755c3c780f2415a1598cf87c58b049d8", "fusion_lat": 0.0, "name": "755c3c780f2415a1598cf87c58b049d8", "is_reserved": 0, "rental_uris": {"android": "https://dc.lft.to/lastmile_qr_scan", "ios": "https://dc.lft.to/lastmile_qr_scan"}, "fusion_lon": 0.0}, {"lat": 38.91552083333333, "is_disabled": 0, "type": "electric_scooter", "lon": -77.02429283333333, "bike_id": "39508d4da89250512a2658f026d8a333", "fusion_lat": 0.0, "name": "39508d4da89250512a2658f026d8a333", "is_reserved": 0, "rental_uris": {"android": "https://dc.lft.to/lastmile_qr_scan", "ios": "https://dc.lft.to/lastmile_qr_scan"}, "fusion_lon": 0.0}, {"lat": 38.898791, "is_disabled": 0, "type": "electric_scooter", "lon": -77.05339916666667, "bike_id": "935527e7e700c592e3e1a5c6d6d935e4", "fusion_lat": 0.0, "name": "935527e7e700c592e3e1a5c6d6d935e4", "is_reserved": 0, "rental_uris": {"android": "https://dc.lft.to/lastmile_qr_scan", "ios": "https://dc.lft.to/lastmile_qr_scan"}, "fusion_lon": 0.0}, {"lat": 38.8991495, "is_disabled": 0, "type": "electric_scooter", "lon": -76.933834, "bike_id": "aa3cd579347040643088a4d789801875", "fusion_lat": 0.0, "name": "aa3cd579347040643088a4d789801875", "is_reserved": 0, "rental_uris": {"android": "https://dc.lft.to/lastmile_qr_scan", "ios": "https://dc.lft.to/lastmile_qr_scan"}, "fusion_lon": 0.0}, {"lat": 38.88278016666667, "is_disabled": 0, "type": "electric_bike", "lon": -76.987786, "bike_id": "d70602bce3472f6e92eb021997579e86", "fusion_lat": 0.0, "name": "d70602bce3472f6e92eb021997579e86", "is_reserved": 0, "rental_uris": {"android": "https://dc.lft.to/lastmile_qr_scan", "ios": "https://dc.lft.to/lastmile_qr_scan"}, "fusion_lon": 0.0}, {"lat": 38.863472333333334, "is_disabled": 0, "type": "electric_scooter", "lon": -76.99002416666667, "bike_id": "9f050fd307a9f48dd1694a83b382cce7", "fusion_lat": 0.0, "name": "9f050fd307a9f48dd1694a83b382cce7", "is_reserved": 0, "rental_uris": {"android": "https://dc.lft.to/lastmile_qr_scan", "ios": "https://dc.lft.to/lastmile_qr_scan"}, "fusion_lon": 0.0}, {"lat": 38.848682, "is_disabled": 0, "type": "electric_scooter", "lon": -76.9769435, "bike_id": "803bca5232cfb360f62adb62d1105007", "fusion_lat": 0.0, "name": "803bca5232cfb360f62adb62d1105007", "is_reserved": 0, "rental_uris": {"android": "https://dc.lft.to/lastmile_qr_scan", "ios": "https://dc.lft.to/lastmile_qr_scan"}, "fusion_lon": 0.0}, {"lat": 38.934925666666665, "is_disabled": 0, "type": "electric_scooter", "lon": -77.03625283333334, "bike_id": "4064cb3c1db68f14aed246445791cfc9", "fusion_lat": 0.0, "name": "4064cb3c1db68f14aed246445791cfc9", "is_reserved": 0, "rental_uris": {"android": "https://dc.lft.to/lastmile_qr_scan", "ios": "https://dc.lft.to/lastmile_qr_scan"}, "fusion_lon": 0.0}, {"lat": 38.906195333333336, "is_disabled": 0, "type": "electric_scooter", "lon": -77.070266, "bike_id": "37779038dc260b9aaf960cbf52a0e1b9", "fusion_lat": 0.0, "name": "37779038dc260b9aaf960cbf52a0e1b9", "is_reserved": 0, "rental_uris": {"android": "https://dc.lft.to/lastmile_qr_scan", "ios": "https://dc.lft.to/lastmile_qr_scan"}, "fusion_lon": 0.0}, {"lat": 38.89732733333334, "is_disabled": 0, "type": "electric_scooter", "lon": -77.04993583333334, "bike_id": "8ae35b0463f255cac87b1586542f23df", "fusion_lat": 0.0, "name": "8ae35b0463f255cac87b1586542f23df", "is_reserved": 0, "rental_uris": {"android": "https://dc.lft.to/lastmile_qr_scan", "ios": "https://dc.lft.to/lastmile_qr_scan"}, "fusion_lon": 0.0}, {"lat": 38.90013783333333, "is_disabled": 0, "type": "electric_scooter", "lon": -77.012006, "bike_id": "e72c2870f40843aa8e278cc2bc3da25c", "fusion_lat": 0.0, "name": "e72c2870f40843aa8e278cc2bc3da25c", "is_reserved": 0, "rental_uris": {"android": "https://dc.lft.to/lastmile_qr_scan", "ios": "https://dc.lft.to/lastmile_qr_scan"}, "fusion_lon": 0.0}, {"lat": 38.92573433333333, "is_disabled": 0, "type": "electric_scooter", "lon": -76.98609466666667, "bike_id": "8120bb88e3d3704db86951af98bea0b2", "fusion_lat": 0.0, "name": "8120bb88e3d3704db86951af98bea0b2", "is_reserved": 0, "rental_uris": {"android": "https://dc.lft.to/lastmile_qr_scan", "ios": "https://dc.lft.to/lastmile_qr_scan"}, "fusion_lon": 0.0}, {"lat": 38.9940725, "is_disabled": 0, "type": "electric_bike", "lon": -77.0316635, "bike_id": "ecfc5c0a71cc4f31bd9e9d053c448f4d", "fusion_lat": 0.0, "name": "ecfc5c0a71cc4f31bd9e9d053c448f4d", "is_reserved": 0, "rental_uris": {"android": "https://dc.lft.to/lastmile_qr_scan", "ios": "https://dc.lft.to/lastmile_qr_scan"}, "fusion_lon": 0.0}, {"lat": 38.8428945, "is_disabled": 0, "type": "electric_scooter", "lon": -76.99946266666667, "bike_id": "da6ecc9008932540c893178f8bccf9e8", "fusion_lat": 0.0, "name": "da6ecc9008932540c893178f8bccf9e8", "is_reserved": 0, "rental_uris": {"android": "https://dc.lft.to/lastmile_qr_scan", "ios": "https://dc.lft.to/lastmile_qr_scan"}, "fusion_lon": 0.0}, {"lat": 38.923681, "is_disabled": 0, "type": "electric_scooter", "lon": -77.02922066666666, "bike_id": "f575fb1d78a05723d7ce50451fe16b98", "fusion_lat": 0.0, "name": "f575fb1d78a05723d7ce50451fe16b98", "is_reserved": 0, "rental_uris": {"android": "https://dc.lft.to/lastmile_qr_scan", "ios": "https://dc.lft.to/lastmile_qr_scan"}, "fusion_lon": 0.0}, {"lat": 38.877802, "is_disabled": 0, "type": "electric_scooter", "lon": -76.9951005, "bike_id": "7aab9bb0d96ab7969e4b39cb93e43aa8", "fusion_lat": 0.0, "name": "7aab9bb0d96ab7969e4b39cb93e43aa8", "is_reserved": 0, "rental_uris": {"android": "https://dc.lft.to/lastmile_qr_scan", "ios": "https://dc.lft.to/lastmile_qr_scan"}, "fusion_lon": 0.0}, {"lat": 38.90134033333333, "is_disabled": 0, "type": "electric_scooter", "lon": -77.03345166666666, "bike_id": "334d6eb2bfb0b8a84ca26c4103b18f6a", "fusion_lat": 0.0, "name": "334d6eb2bfb0b8a84ca26c4103b18f6a", "is_reserved": 0, "rental_uris": {"android": "https://dc.lft.to/lastmile_qr_scan", "ios": "https://dc.lft.to/lastmile_qr_scan"}, "fusion_lon": 0.0}, {"lat": 38.90611766666667, "is_disabled": 0, "type": "electric_bike", "lon": -77.04120766666666, "bike_id": "2e1092a3e460a7fc2e644de361145e8c", "fusion_lat": 0.0, "name": "2e1092a3e460a7fc2e644de361145e8c", "is_reserved": 0, "rental_uris": {"android": "https://dc.lft.to/lastmile_qr_scan", "ios": "https://dc.lft.to/lastmile_qr_scan"}, "fusion_lon": 0.0}, {"lat": 38.8849045, "is_disabled": 0, "type": "electric_scooter", "lon": -77.00707333333334, "bike_id": "70b68ec9d5dfdc9f28cd0dbc29ab3e09", "fusion_lat": 0.0, "name": "70b68ec9d5dfdc9f28cd0dbc29ab3e09", "is_reserved": 0, "rental_uris": {"android": "https://dc.lft.to/lastmile_qr_scan", "ios": "https://dc.lft.to/lastmile_qr_scan"}, "fusion_lon": 0.0}, {"lat": 38.92613683333333, "is_disabled": 0, "type": "electric_scooter", "lon": -77.02162516666667, "bike_id": "3e30c2e3cf9ee613958c5c03fa7dbf33", "fusion_lat": 0.0, "name": "3e30c2e3cf9ee613958c5c03fa7dbf33", "is_reserved": 0, "rental_uris": {"android": "https://dc.lft.to/lastmile_qr_scan", "ios": "https://dc.lft.to/lastmile_qr_scan"}, "fusion_lon": 0.0}, {"lat": 38.909794, "is_disabled": 0, "type": "electric_scooter", "lon": -77.0344565, "bike_id": "d1c2fd57936b499faa666737e2096fbe", "fusion_lat": 0.0, "name": "d1c2fd57936b499faa666737e2096fbe", "is_reserved": 0, "rental_uris": {"android": "https://dc.lft.to/lastmile_qr_scan", "ios": "https://dc.lft.to/lastmile_qr_scan"}, "fusion_lon": 0.0}, {"lat": 38.903803333333336, "is_disabled": 0, "type": "electric_scooter", "lon": -77.0447995, "bike_id": "81624d6f02274a98ebadc23225c5efc9", "fusion_lat": 0.0, "name": "81624d6f02274a98ebadc23225c5efc9", "is_reserved": 0, "rental_uris": {"android": "https://dc.lft.to/lastmile_qr_scan", "ios": "https://dc.lft.to/lastmile_qr_scan"}, "fusion_lon": 0.0}, {"lat": 38.92798283333333, "is_disabled": 0, "type": "electric_scooter", "lon": -77.02600683333333, "bike_id": "3113d284de40eeab3fefecd5833d1dac", "fusion_lat": 0.0, "name": "3113d284de40eeab3fefecd5833d1dac", "is_reserved": 0, "rental_uris": {"android": "https://dc.lft.to/lastmile_qr_scan", "ios": "https://dc.lft.to/lastmile_qr_scan"}, "fusion_lon": 0.0}, {"lat": 38.89752383333333, "is_disabled": 0, "type": "electric_scooter", "lon": -77.02240666666667, "bike_id": "bf61f97d42a0b196625d7fd0e29939b4", "fusion_lat": 0.0, "name": "bf61f97d42a0b196625d7fd0e29939b4", "is_reserved": 0, "rental_uris": {"android": "https://dc.lft.to/lastmile_qr_scan", "ios": "https://dc.lft.to/lastmile_qr_scan"}, "fusion_lon": 0.0}, {"lat": 38.93280583333333, "is_disabled": 0, "type": "electric_scooter", "lon": -77.02673133333333, "bike_id": "6e3ed119eac00ee419cc395b05fa8488", "fusion_lat": 0.0, "name": "6e3ed119eac00ee419cc395b05fa8488", "is_reserved": 0, "rental_uris": {"android": "https://dc.lft.to/lastmile_qr_scan", "ios": "https://dc.lft.to/lastmile_qr_scan"}, "fusion_lon": 0.0}, {"lat": 38.802280333333336, "is_disabled": 0, "type": "electric_bike", "lon": -77.0791695, "bike_id": "56cd944a0acf84c0fea4ff676103fbfb", "fusion_lat": 0.0, "name": "56cd944a0acf84c0fea4ff676103fbfb", "is_reserved": 0, "rental_uris": {"android": "https://dc.lft.to/lastmile_qr_scan", "ios": "https://dc.lft.to/lastmile_qr_scan"}, "fusion_lon": 0.0}, {"lat": 38.92102783333333, "is_disabled": 0, "type": "electric_scooter", "lon": -77.04686633333333, "bike_id": "c496b660e41b5dcb5ce3f9463ce43de9", "fusion_lat": 0.0, "name": "c496b660e41b5dcb5ce3f9463ce43de9", "is_reserved": 0, "rental_uris": {"android": "https://dc.lft.to/lastmile_qr_scan", "ios": "https://dc.lft.to/lastmile_qr_scan"}, "fusion_lon": 0.0}, {"lat": 38.863648166666664, "is_disabled": 0, "type": "electric_scooter", "lon": -76.99033933333334, "bike_id": "e5697178e54043d755342fc4a1988d5e", "fusion_lat": 0.0, "name": "e5697178e54043d755342fc4a1988d5e", "is_reserved": 0, "rental_uris": {"android": "https://dc.lft.to/lastmile_qr_scan", "ios": "https://dc.lft.to/lastmile_qr_scan"}, "fusion_lon": 0.0}, {"lat": 38.88532633333333, "is_disabled": 0, "type": "electric_scooter", "lon": -76.98269133333334, "bike_id": "e43ef73211579d7b501acbb91d861769", "fusion_lat": 0.0, "name": "e43ef73211579d7b501acbb91d861769", "is_reserved": 0, "rental_uris": {"android": "https://dc.lft.to/lastmile_qr_scan", "ios": "https://dc.lft.to/lastmile_qr_scan"}, "fusion_lon": 0.0}, {"lat": 38.93382716666667, "is_disabled": 0, "type": "electric_scooter", "lon": -76.99515883333333, "bike_id": "084af51afb2ce1e9ee248fccdf479ae3", "fusion_lat": 0.0, "name": "084af51afb2ce1e9ee248fccdf479ae3", "is_reserved": 0, "rental_uris": {"android": "https://dc.lft.to/lastmile_qr_scan", "ios": "https://dc.lft.to/lastmile_qr_scan"}, "fusion_lon": 0.0}, {"lat": 38.98111316666667, "is_disabled": 0, "type": "electric_bike", "lon": -77.09507916666666, "bike_id": "8daa3dc78a5ee3fb06ab05bd8eb20f4a", "fusion_lat": 0.0, "name": "8daa3dc78a5ee3fb06ab05bd8eb20f4a", "is_reserved": 0, "rental_uris": {"android": "https://dc.lft.to/lastmile_qr_scan", "ios": "https://dc.lft.to/lastmile_qr_scan"}, "fusion_lon": 0.0}, {"lat": 38.91758, "is_disabled": 0, "type": "electric_scooter", "lon": -77.04427716666666, "bike_id": "6996f68a379cdcc0b929406a1ee0208e", "fusion_lat": 0.0, "name": "6996f68a379cdcc0b929406a1ee0208e", "is_reserved": 0, "rental_uris": {"android": "https://dc.lft.to/lastmile_qr_scan", "ios": "https://dc.lft.to/lastmile_qr_scan"}, "fusion_lon": 0.0}, {"lat": 38.924525833333334, "is_disabled": 0, "type": "electric_scooter", "lon": -77.0397125, "bike_id": "4cc1246c530ed58af48307d425951594", "fusion_lat": 0.0, "name": "4cc1246c530ed58af48307d425951594", "is_reserved": 0, "rental_uris": {"android": "https://dc.lft.to/lastmile_qr_scan", "ios": "https://dc.lft.to/lastmile_qr_scan"}, "fusion_lon": 0.0}, {"lat": 38.866139833333335, "is_disabled": 0, "type": "electric_scooter", "lon": -76.98665233333334, "bike_id": "27e203d5b216af58c4cea24b11c55ccf", "fusion_lat": 0.0, "name": "27e203d5b216af58c4cea24b11c55ccf", "is_reserved": 0, "rental_uris": {"android": "https://dc.lft.to/lastmile_qr_scan", "ios": "https://dc.lft.to/lastmile_qr_scan"}, "fusion_lon": 0.0}, {"lat": 38.90154483333333, "is_disabled": 0, "type": "electric_scooter", "lon": -77.05120016666666, "bike_id": "a04653e4f787f2464a88ca446becd85d", "fusion_lat": 0.0, "name": "a04653e4f787f2464a88ca446becd85d", "is_reserved": 0, "rental_uris": {"android": "https://dc.lft.to/lastmile_qr_scan", "ios": "https://dc.lft.to/lastmile_qr_scan"}, "fusion_lon": 0.0}, {"lat": 38.89427933333333, "is_disabled": 0, "type": "electric_scooter", "lon": -77.02096516666667, "bike_id": "1d7ba9df3ae9f709a7e8e338b83da861", "fusion_lat": 0.0, "name": "1d7ba9df3ae9f709a7e8e338b83da861", "is_reserved": 0, "rental_uris": {"android": "https://dc.lft.to/lastmile_qr_scan", "ios": "https://dc.lft.to/lastmile_qr_scan"}, "fusion_lon": 0.0}, {"lat": 38.9507705, "is_disabled": 0, "type": "electric_bike", "lon": -77.01193233333333, "bike_id": "5e3ec6547fb56f2a3edba23a3563fec3", "fusion_lat": 0.0, "name": "5e3ec6547fb56f2a3edba23a3563fec3", "is_reserved": 0, "rental_uris": {"android": "https://dc.lft.to/lastmile_qr_scan", "ios": "https://dc.lft.to/lastmile_qr_scan"}, "fusion_lon": 0.0}, {"lat": 38.9057665, "is_disabled": 0, "type": "electric_scooter", "lon": -77.02204683333333, "bike_id": "f604c62199f98bfd1b49cea391a5719e", "fusion_lat": 0.0, "name": "f604c62199f98bfd1b49cea391a5719e", "is_reserved": 0, "rental_uris": {"android": "https://dc.lft.to/lastmile_qr_scan", "ios": "https://dc.lft.to/lastmile_qr_scan"}, "fusion_lon": 0.0}, {"lat": 38.935738, "is_disabled": 0, "type": "electric_scooter", "lon": -77.03756283333334, "bike_id": "b75c8935d4d0804280438b649e88dc51", "fusion_lat": 0.0, "name": "b75c8935d4d0804280438b649e88dc51", "is_reserved": 0, "rental_uris": {"android": "https://dc.lft.to/lastmile_qr_scan", "ios": "https://dc.lft.to/lastmile_qr_scan"}, "fusion_lon": 0.0}, {"lat": 38.907555333333335, "is_disabled": 0, "type": "electric_scooter", "lon": -77.04153683333334, "bike_id": "ba885abb8f6f521e3c4f438674f0d159", "fusion_lat": 0.0, "name": "ba885abb8f6f521e3c4f438674f0d159", "is_reserved": 0, "rental_uris": {"android": "https://dc.lft.to/lastmile_qr_scan", "ios": "https://dc.lft.to/lastmile_qr_scan"}, "fusion_lon": 0.0}, {"lat": 38.88273066666667, "is_disabled": 0, "type": "electric_bike", "lon": -76.93242166666667, "bike_id": "83b6cc1b862944433fb66bc0761f3443", "fusion_lat": 0.0, "name": "83b6cc1b862944433fb66bc0761f3443", "is_reserved": 0, "rental_uris": {"android": "https://dc.lft.to/lastmile_qr_scan", "ios": "https://dc.lft.to/lastmile_qr_scan"}, "fusion_lon": 0.0}, {"lat": 38.90194133333333, "is_disabled": 0, "type": "electric_scooter", "lon": -77.0216675, "bike_id": "17aa37a11b9d7d62c2f091a106b7591f", "fusion_lat": 0.0, "name": "17aa37a11b9d7d62c2f091a106b7591f", "is_reserved": 0, "rental_uris": {"android": "https://dc.lft.to/lastmile_qr_scan", "ios": "https://dc.lft.to/lastmile_qr_scan"}, "fusion_lon": 0.0}, {"lat": 38.899694833333335, "is_disabled": 0, "type": "electric_scooter", "lon": -77.052733, "bike_id": "3ee3c95271a3b141aed09b0a08b88f15", "fusion_lat": 0.0, "name": "3ee3c95271a3b141aed09b0a08b88f15", "is_reserved": 0, "rental_uris": {"android": "https://dc.lft.to/lastmile_qr_scan", "ios": "https://dc.lft.to/lastmile_qr_scan"}, "fusion_lon": 0.0}, {"lat": 38.903352, "is_disabled": 0, "type": "electric_scooter", "lon": -76.9705805, "bike_id": "b7199bf52387e0ba8ddffa414ace994e", "fusion_lat": 0.0, "name": "b7199bf52387e0ba8ddffa414ace994e", "is_reserved": 0, "rental_uris": {"android": "https://dc.lft.to/lastmile_qr_scan", "ios": "https://dc.lft.to/lastmile_qr_scan"}, "fusion_lon": 0.0}, {"lat": 38.9573375, "is_disabled": 0, "type": "electric_scooter", "lon": -77.0238355, "bike_id": "54e550458cae354975f9e3e88cf9040f", "fusion_lat": 0.0, "name": "54e550458cae354975f9e3e88cf9040f", "is_reserved": 0, "rental_uris": {"android": "https://dc.lft.to/lastmile_qr_scan", "ios": "https://dc.lft.to/lastmile_qr_scan"}, "fusion_lon": 0.0}, {"lat": 38.90643933333333, "is_disabled": 0, "type": "electric_scooter", "lon": -77.00607433333333, "bike_id": "cae0c2944096bc6ee7a7c541b424e52f", "fusion_lat": 0.0, "name": "cae0c2944096bc6ee7a7c541b424e52f", "is_reserved": 0, "rental_uris": {"android": "https://dc.lft.to/lastmile_qr_scan", "ios": "https://dc.lft.to/lastmile_qr_scan"}, "fusion_lon": 0.0}, {"lat": 38.91497433333333, "is_disabled": 0, "type": "electric_scooter", "lon": -76.9837215, "bike_id": "ce3a963f4f42ab6a57ec2a6705fc68e0", "fusion_lat": 0.0, "name": "ce3a963f4f42ab6a57ec2a6705fc68e0", "is_reserved": 0, "rental_uris": {"android": "https://dc.lft.to/lastmile_qr_scan", "ios": "https://dc.lft.to/lastmile_qr_scan"}, "fusion_lon": 0.0}, {"lat": 38.908816, "is_disabled": 0, "type": "electric_scooter", "lon": -77.03661733333334, "bike_id": "56978ab63de2064e4bbd76e3bf8548ee", "fusion_lat": 0.0, "name": "56978ab63de2064e4bbd76e3bf8548ee", "is_reserved": 0, "rental_uris": {"android": "https://dc.lft.to/lastmile_qr_scan", "ios": "https://dc.lft.to/lastmile_qr_scan"}, "fusion_lon": 0.0}, {"lat": 38.911892333333334, "is_disabled": 0, "type": "electric_scooter", "lon": -77.04486516666667, "bike_id": "48d6ac8523a1b341f87ee39f71a107eb", "fusion_lat": 0.0, "name": "48d6ac8523a1b341f87ee39f71a107eb", "is_reserved": 0, "rental_uris": {"android": "https://dc.lft.to/lastmile_qr_scan", "ios": "https://dc.lft.to/lastmile_qr_scan"}, "fusion_lon": 0.0}, {"lat": 38.90073833333334, "is_disabled": 0, "type": "electric_scooter", "lon": -77.002104, "bike_id": "4536b57f3a29e3536cb3a6b043ec3c9a", "fusion_lat": 0.0, "name": "4536b57f3a29e3536cb3a6b043ec3c9a", "is_reserved": 0, "rental_uris": {"android": "https://dc.lft.to/lastmile_qr_scan", "ios": "https://dc.lft.to/lastmile_qr_scan"}, "fusion_lon": 0.0}, {"lat": 38.89983466666666, "is_disabled": 0, "type": "electric_scooter", "lon": -77.05260716666666, "bike_id": "19444001b604f957bc6ce3d015338611", "fusion_lat": 0.0, "name": "19444001b604f957bc6ce3d015338611", "is_reserved": 0, "rental_uris": {"android": "https://dc.lft.to/lastmile_qr_scan", "ios": "https://dc.lft.to/lastmile_qr_scan"}, "fusion_lon": 0.0}, {"lat": 38.90413266666667, "is_disabled": 0, "type": "electric_scooter", "lon": -76.9928765, "bike_id": "fdeb038d16e4e0d422b3b4d962cdb634", "fusion_lat": 0.0, "name": "fdeb038d16e4e0d422b3b4d962cdb634", "is_reserved": 0, "rental_uris": {"android": "https://dc.lft.to/lastmile_qr_scan", "ios": "https://dc.lft.to/lastmile_qr_scan"}, "fusion_lon": 0.0}, {"lat": 38.917148, "is_disabled": 0, "type": "electric_scooter", "lon": -77.03477616666666, "bike_id": "b1c35160b430d83d0a6da45de5fe757a", "fusion_lat": 0.0, "name": "b1c35160b430d83d0a6da45de5fe757a", "is_reserved": 0, "rental_uris": {"android": "https://dc.lft.to/lastmile_qr_scan", "ios": "https://dc.lft.to/lastmile_qr_scan"}, "fusion_lon": 0.0}, {"lat": 38.899846833333335, "is_disabled": 0, "type": "electric_scooter", "lon": -77.021216, "bike_id": "e142044d2669eb336752a9964af93ab4", "fusion_lat": 0.0, "name": "e142044d2669eb336752a9964af93ab4", "is_reserved": 0, "rental_uris": {"android": "https://dc.lft.to/lastmile_qr_scan", "ios": "https://dc.lft.to/lastmile_qr_scan"}, "fusion_lon": 0.0}, {"lat": 38.99324516666667, "is_disabled": 0, "type": "electric_bike", "lon": -77.03292316666666, "bike_id": "3b21ef0d39bca9ea1c4b1b40122090a0", "fusion_lat": 0.0, "name": "3b21ef0d39bca9ea1c4b1b40122090a0", "is_reserved": 0, "rental_uris": {"android": "https://dc.lft.to/lastmile_qr_scan", "ios": "https://dc.lft.to/lastmile_qr_scan"}, "fusion_lon": 0.0}, {"lat": 38.873465333333336, "is_disabled": 0, "type": "electric_bike", "lon": -77.01864, "bike_id": "8f0f80de82da47cc45d901ba62c4733a", "fusion_lat": 0.0, "name": "8f0f80de82da47cc45d901ba62c4733a", "is_reserved": 0, "rental_uris": {"android": "https://dc.lft.to/lastmile_qr_scan", "ios": "https://dc.lft.to/lastmile_qr_scan"}, "fusion_lon": 0.0}, {"lat": 38.902622666666666, "is_disabled": 0, "type": "electric_scooter", "lon": -76.98698, "bike_id": "27f5c2bc73933e3b7ff1a5cfc346765d", "fusion_lat": 0.0, "name": "27f5c2bc73933e3b7ff1a5cfc346765d", "is_reserved": 0, "rental_uris": {"android": "https://dc.lft.to/lastmile_qr_scan", "ios": "https://dc.lft.to/lastmile_qr_scan"}, "fusion_lon": 0.0}, {"lat": 38.90383083333333, "is_disabled": 0, "type": "electric_scooter", "lon": -77.02995883333334, "bike_id": "703684a11f2961e0eab1cb27f1d717a3", "fusion_lat": 0.0, "name": "703684a11f2961e0eab1cb27f1d717a3", "is_reserved": 0, "rental_uris": {"android": "https://dc.lft.to/lastmile_qr_scan", "ios": "https://dc.lft.to/lastmile_qr_scan"}, "fusion_lon": 0.0}, {"lat": 38.89754666666666, "is_disabled": 0, "type": "electric_scooter", "lon": -76.94186066666667, "bike_id": "812a0f642b3d4065cca91955a97386dc", "fusion_lat": 0.0, "name": "812a0f642b3d4065cca91955a97386dc", "is_reserved": 0, "rental_uris": {"android": "https://dc.lft.to/lastmile_qr_scan", "ios": "https://dc.lft.to/lastmile_qr_scan"}, "fusion_lon": 0.0}, {"lat": 38.90540083333333, "is_disabled": 0, "type": "electric_scooter", "lon": -77.0568215, "bike_id": "d8853c7fb84e55e4515c47cb18ca0a1b", "fusion_lat": 0.0, "name": "d8853c7fb84e55e4515c47cb18ca0a1b", "is_reserved": 0, "rental_uris": {"android": "https://dc.lft.to/lastmile_qr_scan", "ios": "https://dc.lft.to/lastmile_qr_scan"}, "fusion_lon": 0.0}, {"lat": 38.902800166666665, "is_disabled": 0, "type": "electric_scooter", "lon": -77.0364645, "bike_id": "f2f6b6f3d68b19744d2735f13cacb4f9", "fusion_lat": 0.0, "name": "f2f6b6f3d68b19744d2735f13cacb4f9", "is_reserved": 0, "rental_uris": {"android": "https://dc.lft.to/lastmile_qr_scan", "ios": "https://dc.lft.to/lastmile_qr_scan"}, "fusion_lon": 0.0}, {"lat": 38.92230816666667, "is_disabled": 0, "type": "electric_scooter", "lon": -77.04343816666666, "bike_id": "aad86be732edd09a62c7eb358bc90e4b", "fusion_lat": 0.0, "name": "aad86be732edd09a62c7eb358bc90e4b", "is_reserved": 0, "rental_uris": {"android": "https://dc.lft.to/lastmile_qr_scan", "ios": "https://dc.lft.to/lastmile_qr_scan"}, "fusion_lon": 0.0}, {"lat": 38.914818333333336, "is_disabled": 0, "type": "electric_scooter", "lon": -77.013794, "bike_id": "5d8aaa354b6e7dfa24b66e60be852002", "fusion_lat": 0.0, "name": "5d8aaa354b6e7dfa24b66e60be852002", "is_reserved": 0, "rental_uris": {"android": "https://dc.lft.to/lastmile_qr_scan", "ios": "https://dc.lft.to/lastmile_qr_scan"}, "fusion_lon": 0.0}, {"lat": 38.9178195, "is_disabled": 0, "type": "electric_scooter", "lon": -77.02316883333333, "bike_id": "1b2a137d2fc7c2eacd15ab849b543297", "fusion_lat": 0.0, "name": "1b2a137d2fc7c2eacd15ab849b543297", "is_reserved": 0, "rental_uris": {"android": "https://dc.lft.to/lastmile_qr_scan", "ios": "https://dc.lft.to/lastmile_qr_scan"}, "fusion_lon": 0.0}, {"lat": 38.9238245, "is_disabled": 0, "type": "electric_scooter", "lon": -77.03057216666667, "bike_id": "3b8fbef65cf7b1aff4e2094af97b8dfa", "fusion_lat": 0.0, "name": "3b8fbef65cf7b1aff4e2094af97b8dfa", "is_reserved": 0, "rental_uris": {"android": "https://dc.lft.to/lastmile_qr_scan", "ios": "https://dc.lft.to/lastmile_qr_scan"}, "fusion_lon": 0.0}, {"lat": 38.85520066666667, "is_disabled": 0, "type": "electric_bike", "lon": -76.98435166666667, "bike_id": "b5660c9a32de59473cb904d982c9e67d", "fusion_lat": 0.0, "name": "b5660c9a32de59473cb904d982c9e67d", "is_reserved": 0, "rental_uris": {"android": "https://dc.lft.to/lastmile_qr_scan", "ios": "https://dc.lft.to/lastmile_qr_scan"}, "fusion_lon": 0.0}, {"lat": 38.911032166666665, "is_disabled": 0, "type": "electric_scooter", "lon": -77.0481745, "bike_id": "77a9366f2690c4fff562cc541471ec00", "fusion_lat": 0.0, "name": "77a9366f2690c4fff562cc541471ec00", "is_reserved": 0, "rental_uris": {"android": "https://dc.lft.to/lastmile_qr_scan", "ios": "https://dc.lft.to/lastmile_qr_scan"}, "fusion_lon": 0.0}, {"lat": 38.81345116666667, "is_disabled": 0, "type": "electric_bike", "lon": -77.04925083333333, "bike_id": "d2709a563a77d4e4f7466cc235c39f2d", "fusion_lat": 0.0, "name": "d2709a563a77d4e4f7466cc235c39f2d", "is_reserved": 0, "rental_uris": {"android": "https://dc.lft.to/lastmile_qr_scan", "ios": "https://dc.lft.to/lastmile_qr_scan"}, "fusion_lon": 0.0}, {"lat": 38.89012783333333, "is_disabled": 0, "type": "electric_scooter", "lon": -77.00052583333333, "bike_id": "6d65634882a98234e92b84c535bf66db", "fusion_lat": 0.0, "name": "6d65634882a98234e92b84c535bf66db", "is_reserved": 0, "rental_uris": {"android": "https://dc.lft.to/lastmile_qr_scan", "ios": "https://dc.lft.to/lastmile_qr_scan"}, "fusion_lon": 0.0}, {"lat": 38.90740916666667, "is_disabled": 0, "type": "electric_scooter", "lon": -77.04217083333333, "bike_id": "297fc7530963a2f4e0ae85be4793c8a8", "fusion_lat": 0.0, "name": "297fc7530963a2f4e0ae85be4793c8a8", "is_reserved": 0, "rental_uris": {"android": "https://dc.lft.to/lastmile_qr_scan", "ios": "https://dc.lft.to/lastmile_qr_scan"}, "fusion_lon": 0.0}, {"lat": 38.898385166666664, "is_disabled": 0, "type": "electric_scooter", "lon": -76.99504983333334, "bike_id": "20125fbaeb3ad01b4115f429852cb82c", "fusion_lat": 0.0, "name": "20125fbaeb3ad01b4115f429852cb82c", "is_reserved": 0, "rental_uris": {"android": "https://dc.lft.to/lastmile_qr_scan", "ios": "https://dc.lft.to/lastmile_qr_scan"}, "fusion_lon": 0.0}, {"lat": 38.90201166666667, "is_disabled": 0, "type": "electric_scooter", "lon": -77.02319133333333, "bike_id": "1e27854ee476deae08a7c15bccf10ebb", "fusion_lat": 0.0, "name": "1e27854ee476deae08a7c15bccf10ebb", "is_reserved": 0, "rental_uris": {"android": "https://dc.lft.to/lastmile_qr_scan", "ios": "https://dc.lft.to/lastmile_qr_scan"}, "fusion_lon": 0.0}, {"lat": 38.96227733333333, "is_disabled": 0, "type": "electric_bike", "lon": -77.0262895, "bike_id": "b5ea1ba1f8c7071711b32b0305307b61", "fusion_lat": 0.0, "name": "b5ea1ba1f8c7071711b32b0305307b61", "is_reserved": 0, "rental_uris": {"android": "https://dc.lft.to/lastmile_qr_scan", "ios": "https://dc.lft.to/lastmile_qr_scan"}, "fusion_lon": 0.0}, {"lat": 38.9224905, "is_disabled": 0, "type": "electric_scooter", "lon": -77.04344966666666, "bike_id": "1b3ec7f1db2df8ecaa8c5c8b4620f905", "fusion_lat": 0.0, "name": "1b3ec7f1db2df8ecaa8c5c8b4620f905", "is_reserved": 0, "rental_uris": {"android": "https://dc.lft.to/lastmile_qr_scan", "ios": "https://dc.lft.to/lastmile_qr_scan"}, "fusion_lon": 0.0}, {"lat": 38.903999666666664, "is_disabled": 0, "type": "electric_scooter", "lon": -76.984651, "bike_id": "3b751ddf3b90088c10f9925e3e2bdf61", "fusion_lat": 0.0, "name": "3b751ddf3b90088c10f9925e3e2bdf61", "is_reserved": 0, "rental_uris": {"android": "https://dc.lft.to/lastmile_qr_scan", "ios": "https://dc.lft.to/lastmile_qr_scan"}, "fusion_lon": 0.0}, {"lat": 38.908539833333336, "is_disabled": 0, "type": "electric_scooter", "lon": -77.00370733333334, "bike_id": "735007cf0ddb595d5e59301e67965642", "fusion_lat": 0.0, "name": "735007cf0ddb595d5e59301e67965642", "is_reserved": 0, "rental_uris": {"android": "https://dc.lft.to/lastmile_qr_scan", "ios": "https://dc.lft.to/lastmile_qr_scan"}, "fusion_lon": 0.0}, {"lat": 38.91342733333333, "is_disabled": 0, "type": "electric_scooter", "lon": -77.0127095, "bike_id": "9fa74cb0fbbe44a36965d8026b1554ef", "fusion_lat": 0.0, "name": "9fa74cb0fbbe44a36965d8026b1554ef", "is_reserved": 0, "rental_uris": {"android": "https://dc.lft.to/lastmile_qr_scan", "ios": "https://dc.lft.to/lastmile_qr_scan"}, "fusion_lon": 0.0}, {"lat": 38.9068505, "is_disabled": 0, "type": "electric_scooter", "lon": -77.02696033333334, "bike_id": "67e4aeccaf77333c6d85b728e7eb43d6", "fusion_lat": 0.0, "name": "67e4aeccaf77333c6d85b728e7eb43d6", "is_reserved": 0, "rental_uris": {"android": "https://dc.lft.to/lastmile_qr_scan", "ios": "https://dc.lft.to/lastmile_qr_scan"}, "fusion_lon": 0.0}, {"lat": 38.9024935, "is_disabled": 0, "type": "electric_scooter", "lon": -77.02819383333333, "bike_id": "7ab32ed654a17e28925532e42147d1fd", "fusion_lat": 0.0, "name": "7ab32ed654a17e28925532e42147d1fd", "is_reserved": 0, "rental_uris": {"android": "https://dc.lft.to/lastmile_qr_scan", "ios": "https://dc.lft.to/lastmile_qr_scan"}, "fusion_lon": 0.0}, {"lat": 38.89349033333333, "is_disabled": 0, "type": "electric_scooter", "lon": -77.03990416666667, "bike_id": "391d82b8389185c68e8f10a50c4fdf94", "fusion_lat": 0.0, "name": "391d82b8389185c68e8f10a50c4fdf94", "is_reserved": 0, "rental_uris": {"android": "https://dc.lft.to/lastmile_qr_scan", "ios": "https://dc.lft.to/lastmile_qr_scan"}, "fusion_lon": 0.0}, {"lat": 38.931991833333335, "is_disabled": 0, "type": "electric_scooter", "lon": -77.02356033333334, "bike_id": "9354244046f2e5e726463de046fd94e2", "fusion_lat": 0.0, "name": "9354244046f2e5e726463de046fd94e2", "is_reserved": 0, "rental_uris": {"android": "https://dc.lft.to/lastmile_qr_scan", "ios": "https://dc.lft.to/lastmile_qr_scan"}, "fusion_lon": 0.0}, {"lat": 38.886905166666665, "is_disabled": 0, "type": "electric_scooter", "lon": -77.01767366666667, "bike_id": "f009b8fc3e704bdd36658e336c410e5c", "fusion_lat": 0.0, "name": "f009b8fc3e704bdd36658e336c410e5c", "is_reserved": 0, "rental_uris": {"android": "https://dc.lft.to/lastmile_qr_scan", "ios": "https://dc.lft.to/lastmile_qr_scan"}, "fusion_lon": 0.0}, {"lat": 38.89223483333333, "is_disabled": 0, "type": "electric_bike", "lon": -77.10782166666667, "bike_id": "0d8c992fe371fb2305d134fdb4312a00", "fusion_lat": 0.0, "name": "0d8c992fe371fb2305d134fdb4312a00", "is_reserved": 0, "rental_uris": {"android": "https://dc.lft.to/lastmile_qr_scan", "ios": "https://dc.lft.to/lastmile_qr_scan"}, "fusion_lon": 0.0}, {"lat": 38.89492966666667, "is_disabled": 0, "type": "electric_scooter", "lon": -77.00204466666666, "bike_id": "c2251e7fa7f279845602f7091633bc17", "fusion_lat": 0.0, "name": "c2251e7fa7f279845602f7091633bc17", "is_reserved": 0, "rental_uris": {"android": "https://dc.lft.to/lastmile_qr_scan", "ios": "https://dc.lft.to/lastmile_qr_scan"}, "fusion_lon": 0.0}, {"lat": 38.85209416666667, "is_disabled": 0, "type": "electric_bike", "lon": -76.9958685, "bike_id": "af04219538bae27ff988a33c98678a1c", "fusion_lat": 0.0, "name": "af04219538bae27ff988a33c98678a1c", "is_reserved": 0, "rental_uris": {"android": "https://dc.lft.to/lastmile_qr_scan", "ios": "https://dc.lft.to/lastmile_qr_scan"}, "fusion_lon": 0.0}, {"lat": 38.804978166666665, "is_disabled": 0, "type": "electric_bike", "lon": -77.04132116666666, "bike_id": "9305d45099d81c5f4701b537255214ea", "fusion_lat": 0.0, "name": "9305d45099d81c5f4701b537255214ea", "is_reserved": 0, "rental_uris": {"android": "https://dc.lft.to/lastmile_qr_scan", "ios": "https://dc.lft.to/lastmile_qr_scan"}, "fusion_lon": 0.0}, {"lat": 38.86619316666667, "is_disabled": 0, "type": "electric_scooter", "lon": -76.98641316666667, "bike_id": "defeda4a2e90892dd1c80d8f016a1f0a", "fusion_lat": 0.0, "name": "defeda4a2e90892dd1c80d8f016a1f0a", "is_reserved": 0, "rental_uris": {"android": "https://dc.lft.to/lastmile_qr_scan", "ios": "https://dc.lft.to/lastmile_qr_scan"}, "fusion_lon": 0.0}, {"lat": 38.9333565, "is_disabled": 0, "type": "electric_scooter", "lon": -76.993105, "bike_id": "fd5bdf8f58dc91272f5b9b6e04bc7468", "fusion_lat": 0.0, "name": "fd5bdf8f58dc91272f5b9b6e04bc7468", "is_reserved": 0, "rental_uris": {"android": "https://dc.lft.to/lastmile_qr_scan", "ios": "https://dc.lft.to/lastmile_qr_scan"}, "fusion_lon": 0.0}, {"lat": 38.912853, "is_disabled": 0, "type": "electric_scooter", "lon": -77.03850033333333, "bike_id": "9b02be485dddd9c7842529e8977f01ec", "fusion_lat": 0.0, "name": "9b02be485dddd9c7842529e8977f01ec", "is_reserved": 0, "rental_uris": {"android": "https://dc.lft.to/lastmile_qr_scan", "ios": "https://dc.lft.to/lastmile_qr_scan"}, "fusion_lon": 0.0}, {"lat": 38.91840166666667, "is_disabled": 0, "type": "electric_scooter", "lon": -77.02311383333333, "bike_id": "87531a5faf6582c48257fbef67f71bbd", "fusion_lat": 0.0, "name": "87531a5faf6582c48257fbef67f71bbd", "is_reserved": 0, "rental_uris": {"android": "https://dc.lft.to/lastmile_qr_scan", "ios": "https://dc.lft.to/lastmile_qr_scan"}, "fusion_lon": 0.0}, {"lat": 38.9142265, "is_disabled": 0, "type": "electric_scooter", "lon": -77.031861, "bike_id": "abe198c0bafdd609e714c3b6143255dd", "fusion_lat": 0.0, "name": "abe198c0bafdd609e714c3b6143255dd", "is_reserved": 0, "rental_uris": {"android": "https://dc.lft.to/lastmile_qr_scan", "ios": "https://dc.lft.to/lastmile_qr_scan"}, "fusion_lon": 0.0}, {"lat": 38.913317166666666, "is_disabled": 0, "type": "electric_scooter", "lon": -77.03187, "bike_id": "3e43c184f5ecf82c419a29da90eb5883", "fusion_lat": 0.0, "name": "3e43c184f5ecf82c419a29da90eb5883", "is_reserved": 0, "rental_uris": {"android": "https://dc.lft.to/lastmile_qr_scan", "ios": "https://dc.lft.to/lastmile_qr_scan"}, "fusion_lon": 0.0}, {"lat": 38.937507333333336, "is_disabled": 0, "type": "electric_scooter", "lon": -77.0345585, "bike_id": "7f06db11600f181c3dc01b6cc91aa836", "fusion_lat": 0.0, "name": "7f06db11600f181c3dc01b6cc91aa836", "is_reserved": 0, "rental_uris": {"android": "https://dc.lft.to/lastmile_qr_scan", "ios": "https://dc.lft.to/lastmile_qr_scan"}, "fusion_lon": 0.0}, {"lat": 38.90644566666667, "is_disabled": 0, "type": "electric_scooter", "lon": -76.99026066666667, "bike_id": "a2c46c8b3e39d300d9b312cf1f95e480", "fusion_lat": 0.0, "name": "a2c46c8b3e39d300d9b312cf1f95e480", "is_reserved": 0, "rental_uris": {"android": "https://dc.lft.to/lastmile_qr_scan", "ios": "https://dc.lft.to/lastmile_qr_scan"}, "fusion_lon": 0.0}, {"lat": 38.90976033333333, "is_disabled": 0, "type": "electric_scooter", "lon": -77.033022, "bike_id": "4529572082f1205e98ebf64845e71541", "fusion_lat": 0.0, "name": "4529572082f1205e98ebf64845e71541", "is_reserved": 0, "rental_uris": {"android": "https://dc.lft.to/lastmile_qr_scan", "ios": "https://dc.lft.to/lastmile_qr_scan"}, "fusion_lon": 0.0}, {"lat": 38.95611433333333, "is_disabled": 0, "type": "electric_scooter", "lon": -77.01022466666667, "bike_id": "7fc6008b59e7029f5682150028c04ebf", "fusion_lat": 0.0, "name": "7fc6008b59e7029f5682150028c04ebf", "is_reserved": 0, "rental_uris": {"android": "https://dc.lft.to/lastmile_qr_scan", "ios": "https://dc.lft.to/lastmile_qr_scan"}, "fusion_lon": 0.0}, {"lat": 38.8443055, "is_disabled": 0, "type": "electric_scooter", "lon": -76.9978205, "bike_id": "e49203568009a735796aa232a1475834", "fusion_lat": 0.0, "name": "e49203568009a735796aa232a1475834", "is_reserved": 0, "rental_uris": {"android": "https://dc.lft.to/lastmile_qr_scan", "ios": "https://dc.lft.to/lastmile_qr_scan"}, "fusion_lon": 0.0}, {"lat": 38.915364, "is_disabled": 0, "type": "electric_scooter", "lon": -77.03201016666667, "bike_id": "3c9fd9d73e4236646d73e94dbc403ac8", "fusion_lat": 0.0, "name": "3c9fd9d73e4236646d73e94dbc403ac8", "is_reserved": 0, "rental_uris": {"android": "https://dc.lft.to/lastmile_qr_scan", "ios": "https://dc.lft.to/lastmile_qr_scan"}, "fusion_lon": 0.0}, {"lat": 38.876808, "is_disabled": 0, "type": "electric_scooter", "lon": -77.00419633333334, "bike_id": "80bf62c98a17987a7c8936dc75619686", "fusion_lat": 0.0, "name": "80bf62c98a17987a7c8936dc75619686", "is_reserved": 0, "rental_uris": {"android": "https://dc.lft.to/lastmile_qr_scan", "ios": "https://dc.lft.to/lastmile_qr_scan"}, "fusion_lon": 0.0}, {"lat": 38.907950166666666, "is_disabled": 0, "type": "electric_scooter", "lon": -77.00192183333333, "bike_id": "745daaa2bfd4651e2e82d7d186d15592", "fusion_lat": 0.0, "name": "745daaa2bfd4651e2e82d7d186d15592", "is_reserved": 0, "rental_uris": {"android": "https://dc.lft.to/lastmile_qr_scan", "ios": "https://dc.lft.to/lastmile_qr_scan"}, "fusion_lon": 0.0}, {"lat": 38.921202, "is_disabled": 0, "type": "electric_scooter", "lon": -77.04117933333333, "bike_id": "e5cbd73aba3519dab662a5fcf309c9d6", "fusion_lat": 0.0, "name": "e5cbd73aba3519dab662a5fcf309c9d6", "is_reserved": 0, "rental_uris": {"android": "https://dc.lft.to/lastmile_qr_scan", "ios": "https://dc.lft.to/lastmile_qr_scan"}, "fusion_lon": 0.0}, {"lat": 38.95297866666667, "is_disabled": 0, "type": "electric_bike", "lon": -76.9820765, "bike_id": "7c99aac778178c5a7d9ed9092f7b459a", "fusion_lat": 0.0, "name": "7c99aac778178c5a7d9ed9092f7b459a", "is_reserved": 0, "rental_uris": {"android": "https://dc.lft.to/lastmile_qr_scan", "ios": "https://dc.lft.to/lastmile_qr_scan"}, "fusion_lon": 0.0}, {"lat": 39.000060833333336, "is_disabled": 0, "type": "electric_bike", "lon": -76.91080816666667, "bike_id": "8fe9996958e58be4d667eae15bf84fed", "fusion_lat": 0.0, "name": "8fe9996958e58be4d667eae15bf84fed", "is_reserved": 0, "rental_uris": {"android": "https://dc.lft.to/lastmile_qr_scan", "ios": "https://dc.lft.to/lastmile_qr_scan"}, "fusion_lon": 0.0}, {"lat": 38.86556983333333, "is_disabled": 0, "type": "electric_scooter", "lon": -76.97426866666666, "bike_id": "b1a7a7bbb2c9a3637c07d38fbbcd4e26", "fusion_lat": 0.0, "name": "b1a7a7bbb2c9a3637c07d38fbbcd4e26", "is_reserved": 0, "rental_uris": {"android": "https://dc.lft.to/lastmile_qr_scan", "ios": "https://dc.lft.to/lastmile_qr_scan"}, "fusion_lon": 0.0}, {"lat": 38.933035833333335, "is_disabled": 0, "type": "electric_scooter", "lon": -77.02847133333333, "bike_id": "93723e4499837b1ad55082eacd914394", "fusion_lat": 0.0, "name": "93723e4499837b1ad55082eacd914394", "is_reserved": 0, "rental_uris": {"android": "https://dc.lft.to/lastmile_qr_scan", "ios": "https://dc.lft.to/lastmile_qr_scan"}, "fusion_lon": 0.0}, {"lat": 38.900906, "is_disabled": 0, "type": "electric_scooter", "lon": -77.04907016666667, "bike_id": "f045099643001f05e8640faab5aaf56f", "fusion_lat": 0.0, "name": "f045099643001f05e8640faab5aaf56f", "is_reserved": 0, "rental_uris": {"android": "https://dc.lft.to/lastmile_qr_scan", "ios": "https://dc.lft.to/lastmile_qr_scan"}, "fusion_lon": 0.0}, {"lat": 38.928016166666666, "is_disabled": 0, "type": "electric_scooter", "lon": -77.0553345, "bike_id": "080b43b88c596faea4a74bbe7179b2ed", "fusion_lat": 0.0, "name": "080b43b88c596faea4a74bbe7179b2ed", "is_reserved": 0, "rental_uris": {"android": "https://dc.lft.to/lastmile_qr_scan", "ios": "https://dc.lft.to/lastmile_qr_scan"}, "fusion_lon": 0.0}, {"lat": 38.86389283333333, "is_disabled": 0, "type": "electric_bike", "lon": -76.98991133333334, "bike_id": "27baf14e4f1aabcecfd4d5dceb5ab401", "fusion_lat": 0.0, "name": "27baf14e4f1aabcecfd4d5dceb5ab401", "is_reserved": 0, "rental_uris": {"android": "https://dc.lft.to/lastmile_qr_scan", "ios": "https://dc.lft.to/lastmile_qr_scan"}, "fusion_lon": 0.0}, {"lat": 38.915402, "is_disabled": 0, "type": "electric_scooter", "lon": -77.03212433333333, "bike_id": "fe6f28339ac2044f8d6bd5420bbbf715", "fusion_lat": 0.0, "name": "fe6f28339ac2044f8d6bd5420bbbf715", "is_reserved": 0, "rental_uris": {"android": "https://dc.lft.to/lastmile_qr_scan", "ios": "https://dc.lft.to/lastmile_qr_scan"}, "fusion_lon": 0.0}, {"lat": 38.9387525, "is_disabled": 0, "type": "electric_scooter", "lon": -77.020113, "bike_id": "ae923211d47133ef6d71c9bd6d5ebead", "fusion_lat": 0.0, "name": "ae923211d47133ef6d71c9bd6d5ebead", "is_reserved": 0, "rental_uris": {"android": "https://dc.lft.to/lastmile_qr_scan", "ios": "https://dc.lft.to/lastmile_qr_scan"}, "fusion_lon": 0.0}, {"lat": 38.902846833333335, "is_disabled": 0, "type": "electric_scooter", "lon": -77.03342433333333, "bike_id": "7d422adcffd5b342681f7323807a0f52", "fusion_lat": 0.0, "name": "7d422adcffd5b342681f7323807a0f52", "is_reserved": 0, "rental_uris": {"android": "https://dc.lft.to/lastmile_qr_scan", "ios": "https://dc.lft.to/lastmile_qr_scan"}, "fusion_lon": 0.0}, {"lat": 38.93374, "is_disabled": 0, "type": "electric_scooter", "lon": -77.023907, "bike_id": "f2687f18ef52e075903b85be99df7678", "fusion_lat": 0.0, "name": "f2687f18ef52e075903b85be99df7678", "is_reserved": 0, "rental_uris": {"android": "https://dc.lft.to/lastmile_qr_scan", "ios": "https://dc.lft.to/lastmile_qr_scan"}, "fusion_lon": 0.0}, {"lat": 38.9533505, "is_disabled": 0, "type": "electric_bike", "lon": -76.97366583333333, "bike_id": "59b41f8eb2812ceefc10408f7dc3ae5f", "fusion_lat": 0.0, "name": "59b41f8eb2812ceefc10408f7dc3ae5f", "is_reserved": 0, "rental_uris": {"android": "https://dc.lft.to/lastmile_qr_scan", "ios": "https://dc.lft.to/lastmile_qr_scan"}, "fusion_lon": 0.0}, {"lat": 38.92582633333333, "is_disabled": 0, "type": "electric_scooter", "lon": -77.02834616666667, "bike_id": "4276d8c27e84bb60e49be8839512b60d", "fusion_lat": 0.0, "name": "4276d8c27e84bb60e49be8839512b60d", "is_reserved": 0, "rental_uris": {"android": "https://dc.lft.to/lastmile_qr_scan", "ios": "https://dc.lft.to/lastmile_qr_scan"}, "fusion_lon": 0.0}, {"lat": 38.90365033333333, "is_disabled": 0, "type": "electric_scooter", "lon": -77.00347466666666, "bike_id": "4159cbfd71b4249acb33e315f6385fc5", "fusion_lat": 0.0, "name": "4159cbfd71b4249acb33e315f6385fc5", "is_reserved": 0, "rental_uris": {"android": "https://dc.lft.to/lastmile_qr_scan", "ios": "https://dc.lft.to/lastmile_qr_scan"}, "fusion_lon": 0.0}, {"lat": 38.925663166666666, "is_disabled": 0, "type": "electric_scooter", "lon": -77.05747433333333, "bike_id": "723153ead9616bee3ed7739ee5513ca7", "fusion_lat": 0.0, "name": "723153ead9616bee3ed7739ee5513ca7", "is_reserved": 0, "rental_uris": {"android": "https://dc.lft.to/lastmile_qr_scan", "ios": "https://dc.lft.to/lastmile_qr_scan"}, "fusion_lon": 0.0}, {"lat": 38.89801083333333, "is_disabled": 0, "type": "electric_scooter", "lon": -77.000545, "bike_id": "27d2ac6c244412de5398d1ba56e5cdb2", "fusion_lat": 0.0, "name": "27d2ac6c244412de5398d1ba56e5cdb2", "is_reserved": 0, "rental_uris": {"android": "https://dc.lft.to/lastmile_qr_scan", "ios": "https://dc.lft.to/lastmile_qr_scan"}, "fusion_lon": 0.0}, {"lat": 38.88092533333333, "is_disabled": 0, "type": "electric_scooter", "lon": -76.998556, "bike_id": "1ac3870edfb1603270fe4d1f4f4738cd", "fusion_lat": 0.0, "name": "1ac3870edfb1603270fe4d1f4f4738cd", "is_reserved": 0, "rental_uris": {"android": "https://dc.lft.to/lastmile_qr_scan", "ios": "https://dc.lft.to/lastmile_qr_scan"}, "fusion_lon": 0.0}, {"lat": 38.91960733333333, "is_disabled": 0, "type": "electric_scooter", "lon": -77.012105, "bike_id": "14f6cdd79962f483db1b6b296e5ada3f", "fusion_lat": 0.0, "name": "14f6cdd79962f483db1b6b296e5ada3f", "is_reserved": 0, "rental_uris": {"android": "https://dc.lft.to/lastmile_qr_scan", "ios": "https://dc.lft.to/lastmile_qr_scan"}, "fusion_lon": 0.0}, {"lat": 38.897717666666665, "is_disabled": 0, "type": "electric_bike", "lon": -76.90437983333334, "bike_id": "11c362edb23c5d5ec2391e66751b0341", "fusion_lat": 0.0, "name": "11c362edb23c5d5ec2391e66751b0341", "is_reserved": 0, "rental_uris": {"android": "https://dc.lft.to/lastmile_qr_scan", "ios": "https://dc.lft.to/lastmile_qr_scan"}, "fusion_lon": 0.0}, {"lat": 38.90188633333333, "is_disabled": 0, "type": "electric_scooter", "lon": -77.02164066666667, "bike_id": "ef464a78d8051f3a5660b21e00dbebe6", "fusion_lat": 0.0, "name": "ef464a78d8051f3a5660b21e00dbebe6", "is_reserved": 0, "rental_uris": {"android": "https://dc.lft.to/lastmile_qr_scan", "ios": "https://dc.lft.to/lastmile_qr_scan"}, "fusion_lon": 0.0}, {"lat": 38.90083966666667, "is_disabled": 0, "type": "electric_scooter", "lon": -77.04961616666667, "bike_id": "f9f810ccfc94f8ab6cf6a7579bab9d98", "fusion_lat": 0.0, "name": "f9f810ccfc94f8ab6cf6a7579bab9d98", "is_reserved": 0, "rental_uris": {"android": "https://dc.lft.to/lastmile_qr_scan", "ios": "https://dc.lft.to/lastmile_qr_scan"}, "fusion_lon": 0.0}, {"lat": 38.95636183333333, "is_disabled": 0, "type": "electric_bike", "lon": -76.93887666666667, "bike_id": "667921b7664dda58e2f1cd3aa710aae6", "fusion_lat": 0.0, "name": "667921b7664dda58e2f1cd3aa710aae6", "is_reserved": 0, "rental_uris": {"android": "https://dc.lft.to/lastmile_qr_scan", "ios": "https://dc.lft.to/lastmile_qr_scan"}, "fusion_lon": 0.0}, {"lat": 38.84277016666667, "is_disabled": 0, "type": "electric_bike", "lon": -76.98845716666666, "bike_id": "f84a2b36289b28419f4f2dea5137c1f3", "fusion_lat": 0.0, "name": "f84a2b36289b28419f4f2dea5137c1f3", "is_reserved": 0, "rental_uris": {"android": "https://dc.lft.to/lastmile_qr_scan", "ios": "https://dc.lft.to/lastmile_qr_scan"}, "fusion_lon": 0.0}, {"lat": 38.90609083333333, "is_disabled": 0, "type": "electric_scooter", "lon": -77.01525783333334, "bike_id": "544f4f83b23fa68175759a272efce9d7", "fusion_lat": 0.0, "name": "544f4f83b23fa68175759a272efce9d7", "is_reserved": 0, "rental_uris": {"android": "https://dc.lft.to/lastmile_qr_scan", "ios": "https://dc.lft.to/lastmile_qr_scan"}, "fusion_lon": 0.0}, {"lat": 38.92751166666667, "is_disabled": 0, "type": "electric_scooter", "lon": -76.99710166666667, "bike_id": "0019f36b15339e110da777938fb1231f", "fusion_lat": 0.0, "name": "0019f36b15339e110da777938fb1231f", "is_reserved": 0, "rental_uris": {"android": "https://dc.lft.to/lastmile_qr_scan", "ios": "https://dc.lft.to/lastmile_qr_scan"}, "fusion_lon": 0.0}, {"lat": 38.9054355, "is_disabled": 0, "type": "electric_scooter", "lon": -77.04666383333333, "bike_id": "f9fb27276fb2870346ec3d3fc826e23b", "fusion_lat": 0.0, "name": "f9fb27276fb2870346ec3d3fc826e23b", "is_reserved": 0, "rental_uris": {"android": "https://dc.lft.to/lastmile_qr_scan", "ios": "https://dc.lft.to/lastmile_qr_scan"}, "fusion_lon": 0.0}, {"lat": 38.894135166666665, "is_disabled": 0, "type": "electric_scooter", "lon": -77.02422066666666, "bike_id": "d7e7ded76931eae21379944527d4644c", "fusion_lat": 0.0, "name": "d7e7ded76931eae21379944527d4644c", "is_reserved": 0, "rental_uris": {"android": "https://dc.lft.to/lastmile_qr_scan", "ios": "https://dc.lft.to/lastmile_qr_scan"}, "fusion_lon": 0.0}, {"lat": 38.982714666666666, "is_disabled": 0, "type": "electric_bike", "lon": -77.0177105, "bike_id": "83755f10f650e759a3d5ccd312cb0389", "fusion_lat": 0.0, "name": "83755f10f650e759a3d5ccd312cb0389", "is_reserved": 0, "rental_uris": {"android": "https://dc.lft.to/lastmile_qr_scan", "ios": "https://dc.lft.to/lastmile_qr_scan"}, "fusion_lon": 0.0}, {"lat": 38.90118116666667, "is_disabled": 0, "type": "electric_scooter", "lon": -77.04995483333333, "bike_id": "16087b0098ab28eee7eb42d2b4a51353", "fusion_lat": 0.0, "name": "16087b0098ab28eee7eb42d2b4a51353", "is_reserved": 0, "rental_uris": {"android": "https://dc.lft.to/lastmile_qr_scan", "ios": "https://dc.lft.to/lastmile_qr_scan"}, "fusion_lon": 0.0},