{"data": {"bikes": [{"lat": 38.90815, "fusion_lat": 0.0, "type": "electric_scooter", "bike_id": "e8bf368c343e47d000e982f57bb1ed7d", "rental_uris": {"ios": "https://dc.lft.to/lastmile_qr_scan", "android": "https://dc.lft.to/lastmile_qr_scan"}, "fusion_lon": 0.0, "lon": -77.0345715, "name": "e8bf368c343e47d000e982f57bb1ed7d", "is_reserved": 0, "is_disabled": 0}, {"lat": 38.88009666666667, "fusion_lat": 0.0, "type": "electric_scooter", "bike_id": "e96c4d2599c3dc6cbf707e3ea9a64bf2", "rental_uris": {"ios": "https://dc.lft.to/lastmile_qr_scan", "android": "https://dc.lft.to/lastmile_qr_scan"}, "fusion_lon": 0.0, "lon": -77.024822, "name": "e96c4d2599c3dc6cbf707e3ea9a64bf2", "is_reserved": 0, "is_disabled": 0}, {"lat": 38.916283, "fusion_lat": 0.0, "type": "electric_scooter", "bike_id": "ef8d473665bd2a9f99c82ce7f2b615e2", "rental_uris": {"ios": "https://dc.lft.to/lastmile_qr_scan", "android": "https://dc.lft.to/lastmile_qr_scan"}, "fusion_lon": 0.0, "lon": -77.03212566666667, "name": "ef8d473665bd2a9f99c82ce7f2b615e2", "is_reserved": 0, "is_disabled": 0}, {"lat": 38.92419916666667, "fusion_lat": 0.0, "type": "electric_scooter", "bike_id": "899c50539924f80ee2323862d00e35e9", "rental_uris": {"ios": "https://dc.lft.to/lastmile_qr_scan", "android": "https://dc.lft.to/lastmile_qr_scan"}, "fusion_lon": 0.0, "lon": -77.019487, "name": "899c50539924f80ee2323862d00e35e9", "is_reserved": 0, "is_disabled": 0}, {"lat": 38.917076, "fusion_lat": 0.0, "type": "electric_scooter", "bike_id": "76860b920a39a3b7dbb18396be6cc700", "rental_uris": {"ios": "https://dc.lft.to/lastmile_qr_scan", "android": "https://dc.lft.to/lastmile_qr_scan"}, "fusion_lon": 0.0, "lon": -77.027772, "name": "76860b920a39a3b7dbb18396be6cc700", "is_reserved": 0, "is_disabled": 0}, {"lat": 38.909825166666664, "fusion_lat": 0.0, "type": "electric_scooter", "bike_id": "8ab236c17fc35e11c6013a5ab7305968", "rental_uris": {"ios": "https://dc.lft.to/lastmile_qr_scan", "android": "https://dc.lft.to/lastmile_qr_scan"}, "fusion_lon": 0.0, "lon": -77.03195383333333, "name": "8ab236c17fc35e11c6013a5ab7305968", "is_reserved": 0, "is_disabled": 0}, {"lat": 38.9169355, "fusion_lat": 0.0, "type": "electric_scooter", "bike_id": "1251445e8c6239cb981731c12ceda60e", "rental_uris": {"ios": "https://dc.lft.to/lastmile_qr_scan", "android": "https://dc.lft.to/lastmile_qr_scan"}, "fusion_lon": 0.0, "lon": -77.0418835, "name": "1251445e8c6239cb981731c12ceda60e", "is_reserved": 0, "is_disabled": 0}, {"lat": 38.90008733333333, "fusion_lat": 0.0, "type": "electric_scooter", "bike_id": "a0f64fb3f558c22307ed5efe0534b878", "rental_uris": {"ios": "https://dc.lft.to/lastmile_qr_scan", "android": "https://dc.lft.to/lastmile_qr_scan"}, "fusion_lon": 0.0, "lon": -77.04135533333333, "name": "a0f64fb3f558c22307ed5efe0534b878", "is_reserved": 0, "is_disabled": 0}, {"lat": 38.927919833333334, "fusion_lat": 0.0, "type": "electric_scooter", "bike_id": "855a7871e3ca68ec6845ba661cd8fc82", "rental_uris": {"ios": "https://dc.lft.to/lastmile_qr_scan", "android": "https://dc.lft.to/lastmile_qr_scan"}, "fusion_lon": 0.0, "lon": -77.02208516666667, "name": "855a7871e3ca68ec6845ba661cd8fc82", "is_reserved": 0, "is_disabled": 0}, {"lat": 38.9232835, "fusion_lat": 0.0, "type": "electric_bike", "bike_id": "58086a83ca45f88b1924b58394e54314", "rental_uris": {"ios": "https://dc.lft.to/lastmile_qr_scan", "android": "https://dc.lft.to/lastmile_qr_scan"}, "fusion_lon": 0.0, "lon": -77.02439583333333, "name": "58086a83ca45f88b1924b58394e54314", "is_reserved": 0, "is_disabled": 0}, {"lat": 38.89435483333333, "fusion_lat": 0.0, "type": "electric_scooter", "bike_id": "750c026681b393eb672ccd5b3a64e6de", "rental_uris": {"ios": "https://dc.lft.to/lastmile_qr_scan", "android": "https://dc.lft.to/lastmile_qr_scan"}, "fusion_lon": 0.0, "lon": -76.94985633333333, "name": "750c026681b393eb672ccd5b3a64e6de", "is_reserved": 0, "is_disabled": 0}, {"lat": 38.918058333333335, "fusion_lat": 0.0, "type": "electric_scooter", "bike_id": "08256bda70c3dfc08a78a2f1d8faff2f", "rental_uris": {"ios": "https://dc.lft.to/lastmile_qr_scan", "android": "https://dc.lft.to/lastmile_qr_scan"}, "fusion_lon": 0.0, "lon": -77.02976733333334, "name": "08256bda70c3dfc08a78a2f1d8faff2f", "is_reserved": 0, "is_disabled": 0}, {"lat": 38.92231816666666, "fusion_lat": 0.0, "type": "electric_scooter", "bike_id": "65408f422b7c4ca3ce67dfa9214fbae1", "rental_uris": {"ios": "https://dc.lft.to/lastmile_qr_scan", "android": "https://dc.lft.to/lastmile_qr_scan"}, "fusion_lon": 0.0, "lon": -77.035235, "name": "65408f422b7c4ca3ce67dfa9214fbae1", "is_reserved": 0, "is_disabled": 0}, {"lat": 38.83242283333333, "fusion_lat": 0.0, "type": "electric_bike", "bike_id": "6bec827f4a52fb4a6acb9ff8d38857aa", "rental_uris": {"ios": "https://dc.lft.to/lastmile_qr_scan", "android": "https://dc.lft.to/lastmile_qr_scan"}, "fusion_lon": 0.0, "lon": -77.00723833333333, "name": "6bec827f4a52fb4a6acb9ff8d38857aa", "is_reserved": 0, "is_disabled": 0}, {"lat": 38.9068245, "fusion_lat": 0.0, "type": "electric_scooter", "bike_id": "368ad983e47d6d4dcd5be543987a0d37", "rental_uris": {"ios": "https://dc.lft.to/lastmile_qr_scan", "android": "https://dc.lft.to/lastmile_qr_scan"}, "fusion_lon": 0.0, "lon": -77.03835183333334, "name": "368ad983e47d6d4dcd5be543987a0d37", "is_reserved": 0, "is_disabled": 0}, {"lat": 38.947391, "fusion_lat": 0.0, "type": "electric_scooter", "bike_id": "901c4859c08521f2efa6b740b5397a44", "rental_uris": {"ios": "https://dc.lft.to/lastmile_qr_scan", "android": "https://dc.lft.to/lastmile_qr_scan"}, "fusion_lon": 0.0, "lon": -77.01610866666667, "name": "901c4859c08521f2efa6b740b5397a44", "is_reserved": 0, "is_disabled": 0}, {"lat": 38.91343916666667, "fusion_lat": 0.0, "type": "electric_scooter", "bike_id": "21eaf7b46809964f80004c9f3811ba19", "rental_uris": {"ios": "https://dc.lft.to/lastmile_qr_scan", "android": "https://dc.lft.to/lastmile_qr_scan"}, "fusion_lon": 0.0, "lon": -77.02388283333333, "name": "21eaf7b46809964f80004c9f3811ba19", "is_reserved": 0, "is_disabled": 0}, {"lat": 38.911522166666664, "fusion_lat": 0.0, "type": "electric_scooter", "bike_id": "78b5038cc75a1c9a620866512ae3bf7b", "rental_uris": {"ios": "https://dc.lft.to/lastmile_qr_scan", "android": "https://dc.lft.to/lastmile_qr_scan"}, "fusion_lon": 0.0, "lon": -77.03463866666667, "name": "78b5038cc75a1c9a620866512ae3bf7b", "is_reserved": 0, "is_disabled": 0}, {"lat": 38.92283783333333, "fusion_lat": 0.0, "type": "electric_scooter", "bike_id": "9f6f36475b92f0cb1f6fd39d1d2205f6", "rental_uris": {"ios": "https://dc.lft.to/lastmile_qr_scan", "android": "https://dc.lft.to/lastmile_qr_scan"}, "fusion_lon": 0.0, "lon": -77.03665483333333, "name": "9f6f36475b92f0cb1f6fd39d1d2205f6", "is_reserved": 0, "is_disabled": 0}, {"lat": 38.90715383333333, "fusion_lat": 0.0, "type": "electric_scooter", "bike_id": "d03cf8a7d83fb86780cc1fcc23b35ad8", "rental_uris": {"ios": "https://dc.lft.to/lastmile_qr_scan", "android": "https://dc.lft.to/lastmile_qr_scan"}, "fusion_lon": 0.0, "lon": -77.03354866666666, "name": "d03cf8a7d83fb86780cc1fcc23b35ad8", "is_reserved": 0, "is_disabled": 0}, {"lat": 38.902533, "fusion_lat": 0.0, "type": "electric_scooter", "bike_id": "6c3003d9b36a3c891e49cfd470c2b76a", "rental_uris": {"ios": "https://dc.lft.to/lastmile_qr_scan", "android": "https://dc.lft.to/lastmile_qr_scan"}, "fusion_lon": 0.0, "lon": -77.02657966666666, "name": "6c3003d9b36a3c891e49cfd470c2b76a", "is_reserved": 0, "is_disabled": 0}, {"lat": 38.91621766666667, "fusion_lat": 0.0, "type": "electric_scooter", "bike_id": "0885cdec554d5649ec11cfe98e31a11d", "rental_uris": {"ios": "https://dc.lft.to/lastmile_qr_scan", "android": "https://dc.lft.to/lastmile_qr_scan"}, "fusion_lon": 0.0, "lon": -77.04813683333333, "name": "0885cdec554d5649ec11cfe98e31a11d", "is_reserved": 0, "is_disabled": 0}, {"lat": 38.88396733333333, "fusion_lat": 0.0, "type": "electric_scooter", "bike_id": "908050165f68fe0a67cfd76b34ec8477", "rental_uris": {"ios": "https://dc.lft.to/lastmile_qr_scan", "android": "https://dc.lft.to/lastmile_qr_scan"}, "fusion_lon": 0.0, "lon": -77.0261945, "name": "908050165f68fe0a67cfd76b34ec8477", "is_reserved": 0, "is_disabled": 0}, {"lat": 38.8990435, "fusion_lat": 0.0, "type": "electric_scooter", "bike_id": "6f996b0f55de4d22e71f7b8f4cfe6612", "rental_uris": {"ios": "https://dc.lft.to/lastmile_qr_scan", "android": "https://dc.lft.to/lastmile_qr_scan"}, "fusion_lon": 0.0, "lon": -76.94548016666667, "name": "6f996b0f55de4d22e71f7b8f4cfe6612", "is_reserved": 0, "is_disabled": 0}, {"lat": 38.90822883333333, "fusion_lat": 0.0, "type": "electric_scooter", "bike_id": "9c546fbc677f0634d0b575836e655f7d", "rental_uris": {"ios": "https://dc.lft.to/lastmile_qr_scan", "android": "https://dc.lft.to/lastmile_qr_scan"}, "fusion_lon": 0.0, "lon": -77.0391095, "name": "9c546fbc677f0634d0b575836e655f7d", "is_reserved": 0, "is_disabled": 0}, {"lat": 38.923795, "fusion_lat": 0.0, "type": "electric_scooter", "bike_id": "6efb42de47bcc1c329c2410385fe5a73", "rental_uris": {"ios": "https://dc.lft.to/lastmile_qr_scan", "android": "https://dc.lft.to/lastmile_qr_scan"}, "fusion_lon": 0.0, "lon": -77.03560533333334, "name": "6efb42de47bcc1c329c2410385fe5a73", "is_reserved": 0, "is_disabled": 0}, {"lat": 38.90805066666667, "fusion_lat": 0.0, "type": "electric_scooter", "bike_id": "1101ff9b7a4122348c44f3a7621c3170", "rental_uris": {"ios": "https://dc.lft.to/lastmile_qr_scan", "android": "https://dc.lft.to/lastmile_qr_scan"}, "fusion_lon": 0.0, "lon": -77.03457983333334, "name": "1101ff9b7a4122348c44f3a7621c3170", "is_reserved": 0, "is_disabled": 0}, {"lat": 38.90767683333333, "fusion_lat": 0.0, "type": "electric_scooter", "bike_id": "dfe0d673f2515fc364bf6cf0dcdeb35a", "rental_uris": {"ios": "https://dc.lft.to/lastmile_qr_scan", "android": "https://dc.lft.to/lastmile_qr_scan"}, "fusion_lon": 0.0, "lon": -77.04353433333333, "name": "dfe0d673f2515fc364bf6cf0dcdeb35a", "is_reserved": 0, "is_disabled": 0}, {"lat": 38.89172033333333, "fusion_lat": 0.0, "type": "electric_scooter", "bike_id": "7a6f6b3600c3cd163a632b0916178020", "rental_uris": {"ios": "https://dc.lft.to/lastmile_qr_scan", "android": "https://dc.lft.to/lastmile_qr_scan"}, "fusion_lon": 0.0, "lon": -76.92650433333333, "name": "7a6f6b3600c3cd163a632b0916178020", "is_reserved": 0, "is_disabled": 0}, {"lat": 38.8921915, "fusion_lat": 0.0, "type": "electric_scooter", "bike_id": "b1a870be4bb52b30fb86bcfeb957e183", "rental_uris": {"ios": "https://dc.lft.to/lastmile_qr_scan", "android": "https://dc.lft.to/lastmile_qr_scan"}, "fusion_lon": 0.0, "lon": -77.04330466666667, "name": "b1a870be4bb52b30fb86bcfeb957e183", "is_reserved": 0, "is_disabled": 0}, {"lat": 38.924485, "fusion_lat": 0.0, "type": "electric_scooter", "bike_id": "b4927399a259d3a3c253cbba2a7418b4", "rental_uris": {"ios": "https://dc.lft.to/lastmile_qr_scan", "android": "https://dc.lft.to/lastmile_qr_scan"}, "fusion_lon": 0.0, "lon": -76.9898775, "name": "b4927399a259d3a3c253cbba2a7418b4", "is_reserved": 0, "is_disabled": 0}, {"lat": 38.90948783333333, "fusion_lat": 0.0, "type": "electric_scooter", "bike_id": "e34c0b2c81f376940976ef6bfd04b59c", "rental_uris": {"ios": "https://dc.lft.to/lastmile_qr_scan", "android": "https://dc.lft.to/lastmile_qr_scan"}, "fusion_lon": 0.0, "lon": -77.034375, "name": "e34c0b2c81f376940976ef6bfd04b59c", "is_reserved": 0, "is_disabled": 0}, {"lat": 38.92516533333333, "fusion_lat": 0.0, "type": "electric_scooter", "bike_id": "acfb804c02f29dee7d1737f9da785c7f", "rental_uris": {"ios": "https://dc.lft.to/lastmile_qr_scan", "android": "https://dc.lft.to/lastmile_qr_scan"}, "fusion_lon": 0.0, "lon": -77.05036083333333, "name": "acfb804c02f29dee7d1737f9da785c7f", "is_reserved": 0, "is_disabled": 0}, {"lat": 38.91709983333333, "fusion_lat": 0.0, "type": "electric_scooter", "bike_id": "b574f83300007e491169996c5aa6d07d", "rental_uris": {"ios": "https://dc.lft.to/lastmile_qr_scan", "android": "https://dc.lft.to/lastmile_qr_scan"}, "fusion_lon": 0.0, "lon": -77.03677366666666, "name": "b574f83300007e491169996c5aa6d07d", "is_reserved": 0, "is_disabled": 0}, {"lat": 38.9111925, "fusion_lat": 0.0, "type": "electric_scooter", "bike_id": "f1c71541043d35e6e82ea3380152a9a7", "rental_uris": {"ios": "https://dc.lft.to/lastmile_qr_scan", "android": "https://dc.lft.to/lastmile_qr_scan"}, "fusion_lon": 0.0, "lon": -76.9976015, "name": "f1c71541043d35e6e82ea3380152a9a7", "is_reserved": 0, "is_disabled": 0}, {"lat": 38.8988785, "fusion_lat": 0.0, "type": "electric_scooter", "bike_id": "46eb924ca7ae92716eef763669177152", "rental_uris": {"ios": "https://dc.lft.to/lastmile_qr_scan", "android": "https://dc.lft.to/lastmile_qr_scan"}, "fusion_lon": 0.0, "lon": -77.03991366666666, "name": "46eb924ca7ae92716eef763669177152", "is_reserved": 0, "is_disabled": 0}, {"lat": 38.91024433333333, "fusion_lat": 0.0, "type": "electric_scooter", "bike_id": "2535a26db025eb615b4c938e2af4abed", "rental_uris": {"ios": "https://dc.lft.to/lastmile_qr_scan", "android": "https://dc.lft.to/lastmile_qr_scan"}, "fusion_lon": 0.0, "lon": -76.9867385, "name": "2535a26db025eb615b4c938e2af4abed", "is_reserved": 0, "is_disabled": 0}, {"lat": 38.93934333333333, "fusion_lat": 0.0, "type": "electric_scooter", "bike_id": "f1aeef4c625f7558ebccd21eb38ddd7f", "rental_uris": {"ios": "https://dc.lft.to/lastmile_qr_scan", "android": "https://dc.lft.to/lastmile_qr_scan"}, "fusion_lon": 0.0, "lon": -77.01588883333334, "name": "f1aeef4c625f7558ebccd21eb38ddd7f", "is_reserved": 0, "is_disabled": 0}, {"lat": 38.91736066666667, "fusion_lat": 0.0, "type": "electric_scooter", "bike_id": "43bcf53ed4286f6093516d0be30e6843", "rental_uris": {"ios": "https://dc.lft.to/lastmile_qr_scan", "android": "https://dc.lft.to/lastmile_qr_scan"}, "fusion_lon": 0.0, "lon": -77.0364395, "name": "43bcf53ed4286f6093516d0be30e6843", "is_reserved": 0, "is_disabled": 0}, {"lat": 38.92757316666667, "fusion_lat": 0.0, "type": "electric_scooter", "bike_id": "db24270ba7b13bb63c3736dc6a6c7f4a", "rental_uris": {"ios": "https://dc.lft.to/lastmile_qr_scan", "android": "https://dc.lft.to/lastmile_qr_scan"}, "fusion_lon": 0.0, "lon": -77.05267766666667, "name": "db24270ba7b13bb63c3736dc6a6c7f4a", "is_reserved": 0, "is_disabled": 0}, {"lat": 38.900622166666665, "fusion_lat": 0.0, "type": "electric_scooter", "bike_id": "264dce192c9dcce3f82d54cb4c93abae", "rental_uris": {"ios": "https://dc.lft.to/lastmile_qr_scan", "android": "https://dc.lft.to/lastmile_qr_scan"}, "fusion_lon": 0.0, "lon": -77.04553966666667, "name": "264dce192c9dcce3f82d54cb4c93abae", "is_reserved": 0, "is_disabled": 0}, {"lat": 38.920605, "fusion_lat": 0.0, "type": "electric_scooter", "bike_id": "e2e9c811bd286e161d3a0f8ed0fc7a18", "rental_uris": {"ios": "https://dc.lft.to/lastmile_qr_scan", "android": "https://dc.lft.to/lastmile_qr_scan"}, "fusion_lon": 0.0, "lon": -77.04564533333334, "name": "e2e9c811bd286e161d3a0f8ed0fc7a18", "is_reserved": 0, "is_disabled": 0}, {"lat": 38.8843905, "fusion_lat": 0.0, "type": "electric_scooter", "bike_id": "721018ce13d1f8206d53bbce23d972fd", "rental_uris": {"ios": "https://dc.lft.to/lastmile_qr_scan", "android": "https://dc.lft.to/lastmile_qr_scan"}, "fusion_lon": 0.0, "lon": -77.01767866666667, "name": "721018ce13d1f8206d53bbce23d972fd", "is_reserved": 0, "is_disabled": 0}, {"lat": 38.81989466666667, "fusion_lat": 0.0, "type": "electric_bike", "bike_id": "b5edbfff8ac5c7e7db7d8d7674f0c2d7", "rental_uris": {"ios": "https://dc.lft.to/lastmile_qr_scan", "android": "https://dc.lft.to/lastmile_qr_scan"}, "fusion_lon": 0.0, "lon": -76.998138, "name": "b5edbfff8ac5c7e7db7d8d7674f0c2d7", "is_reserved": 0, "is_disabled": 0}, {"lat": 38.91151283333333, "fusion_lat": 0.0, "type": "electric_scooter", "bike_id": "a7021901d2cf89f3640307f2abe8b2f8", "rental_uris": {"ios": "https://dc.lft.to/lastmile_qr_scan", "android": "https://dc.lft.to/lastmile_qr_scan"}, "fusion_lon": 0.0, "lon": -77.00215566666667, "name": "a7021901d2cf89f3640307f2abe8b2f8", "is_reserved": 0, "is_disabled": 0}, {"lat": 38.909569, "fusion_lat": 0.0, "type": "electric_scooter", "bike_id": "a281bc36819ff6381760254e9b49f8cc", "rental_uris": {"ios": "https://dc.lft.to/lastmile_qr_scan", "android": "https://dc.lft.to/lastmile_qr_scan"}, "fusion_lon": 0.0, "lon": -77.01975566666667, "name": "a281bc36819ff6381760254e9b49f8cc", "is_reserved": 0, "is_disabled": 0}, {"lat": 38.91596216666667, "fusion_lat": 0.0, "type": "electric_scooter", "bike_id": "0c76013691545bfb301f22d601fa6efa", "rental_uris": {"ios": "https://dc.lft.to/lastmile_qr_scan", "android": "https://dc.lft.to/lastmile_qr_scan"}, "fusion_lon": 0.0, "lon": -77.03211566666667, "name": "0c76013691545bfb301f22d601fa6efa", "is_reserved": 0, "is_disabled": 0}, {"lat": 38.92365516666667, "fusion_lat": 0.0, "type": "electric_scooter", "bike_id": "c4c2b9c3ca6c9c042c3ffd6ae8c7c961", "rental_uris": {"ios": "https://dc.lft.to/lastmile_qr_scan", "android": "https://dc.lft.to/lastmile_qr_scan"}, "fusion_lon": 0.0, "lon": -77.0212855, "name": "c4c2b9c3ca6c9c042c3ffd6ae8c7c961", "is_reserved": 0, "is_disabled": 0}, {"lat": 38.877170166666666, "fusion_lat": 0.0, "type": "electric_scooter", "bike_id": "550f655906152fa0a4d652e40f5297a6", "rental_uris": {"ios": "https://dc.lft.to/lastmile_qr_scan", "android": "https://dc.lft.to/lastmile_qr_scan"}, "fusion_lon": 0.0, "lon": -77.01755533333333, "name": "550f655906152fa0a4d652e40f5297a6", "is_reserved": 0, "is_disabled": 0}, {"lat": 38.91195866666666, "fusion_lat": 0.0, "type": "electric_scooter", "bike_id": "5d23c4a2b2a4e07b6288d735bd8a8614", "rental_uris": {"ios": "https://dc.lft.to/lastmile_qr_scan", "android": "https://dc.lft.to/lastmile_qr_scan"}, "fusion_lon": 0.0, "lon": -77.04537466666666, "name": "5d23c4a2b2a4e07b6288d735bd8a8614", "is_reserved": 0, "is_disabled": 0}, {"lat": 38.900063833333334, "fusion_lat": 0.0, "type": "electric_scooter", "bike_id": "3865da205ede11fa61c315734f7be48f", "rental_uris": {"ios": "https://dc.lft.to/lastmile_qr_scan", "android": "https://dc.lft.to/lastmile_qr_scan"}, "fusion_lon": 0.0, "lon": -77.00654383333334, "name": "3865da205ede11fa61c315734f7be48f", "is_reserved": 0, "is_disabled": 0}, {"lat": 38.903148, "fusion_lat": 0.0, "type": "electric_scooter", "bike_id": "5c13dfa10b1263a67fdda4560fe52314", "rental_uris": {"ios": "https://dc.lft.to/lastmile_qr_scan", "android": "https://dc.lft.to/lastmile_qr_scan"}, "fusion_lon": 0.0, "lon": -77.03330083333333, "name": "5c13dfa10b1263a67fdda4560fe52314", "is_reserved": 0, "is_disabled": 0}, {"lat": 38.8971485, "fusion_lat": 0.0, "type": "electric_scooter", "bike_id": "f562b81ac99bec043c187b73d56198ab", "rental_uris": {"ios": "https://dc.lft.to/lastmile_qr_scan", "android": "https://dc.lft.to/lastmile_qr_scan"}, "fusion_lon": 0.0, "lon": -77.007964, "name": "f562b81ac99bec043c187b73d56198ab", "is_reserved": 0, "is_disabled": 0}, {"lat": 38.906668, "fusion_lat": 0.0, "type": "electric_scooter", "bike_id": "06312c6d08b0b8c9554d7030694bc840", "rental_uris": {"ios": "https://dc.lft.to/lastmile_qr_scan", "android": "https://dc.lft.to/lastmile_qr_scan"}, "fusion_lon": 0.0, "lon": -77.02707316666667, "name": "06312c6d08b0b8c9554d7030694bc840", "is_reserved": 0, "is_disabled": 0}, {"lat": 38.937751166666665, "fusion_lat": 0.0, "type": "electric_scooter", "bike_id": "bc5501ad91abdf314124bf013ef94087", "rental_uris": {"ios": "https://dc.lft.to/lastmile_qr_scan", "android": "https://dc.lft.to/lastmile_qr_scan"}, "fusion_lon": 0.0, "lon": -77.03285766666667, "name": "bc5501ad91abdf314124bf013ef94087", "is_reserved": 0, "is_disabled": 0}, {"lat": 38.922603, "fusion_lat": 0.0, "type": "electric_scooter", "bike_id": "3a32dd20a8b220799ad6886f28a7e6f8", "rental_uris": {"ios": "https://dc.lft.to/lastmile_qr_scan", "android": "https://dc.lft.to/lastmile_qr_scan"}, "fusion_lon": 0.0, "lon": -77.02976383333333, "name": "3a32dd20a8b220799ad6886f28a7e6f8", "is_reserved": 0, "is_disabled": 0}, {"lat": 38.90136116666667, "fusion_lat": 0.0, "type": "electric_scooter", "bike_id": "fdd0cf25b0bfc6c0f104a6156e1146d6", "rental_uris": {"ios": "https://dc.lft.to/lastmile_qr_scan", "android": "https://dc.lft.to/lastmile_qr_scan"}, "fusion_lon": 0.0, "lon": -77.02545833333333, "name": "fdd0cf25b0bfc6c0f104a6156e1146d6", "is_reserved": 0, "is_disabled": 0}, {"lat": 38.9257785, "fusion_lat": 0.0, "type": "electric_scooter", "bike_id": "0f5be9a06c5e203f84a7f603a947b83f", "rental_uris": {"ios": "https://dc.lft.to/lastmile_qr_scan", "android": "https://dc.lft.to/lastmile_qr_scan"}, "fusion_lon": 0.0, "lon": -77.0275605, "name": "0f5be9a06c5e203f84a7f603a947b83f", "is_reserved": 0, "is_disabled": 0}, {"lat": 38.89670383333333, "fusion_lat": 0.0, "type": "electric_scooter", "bike_id": "43dd25fc9f8c8fa074e56ca955386365", "rental_uris": {"ios": "https://dc.lft.to/lastmile_qr_scan", "android": "https://dc.lft.to/lastmile_qr_scan"}, "fusion_lon": 0.0, "lon": -76.93206433333333, "name": "43dd25fc9f8c8fa074e56ca955386365", "is_reserved": 0, "is_disabled": 0}, {"lat": 38.9015875, "fusion_lat": 0.0, "type": "electric_scooter", "bike_id": "78e7bf37f44d729f4e3b69bf34e5562a", "rental_uris": {"ios": "https://dc.lft.to/lastmile_qr_scan", "android": "https://dc.lft.to/lastmile_qr_scan"}, "fusion_lon": 0.0, "lon": -77.0269305, "name": "78e7bf37f44d729f4e3b69bf34e5562a", "is_reserved": 0, "is_disabled": 0}, {"lat": 38.887623166666664, "fusion_lat": 0.0, "type": "electric_scooter", "bike_id": "5118071e538af567c7dfa5a3371af0f8", "rental_uris": {"ios": "https://dc.lft.to/lastmile_qr_scan", "android": "https://dc.lft.to/lastmile_qr_scan"}, "fusion_lon": 0.0, "lon": -76.98690566666667, "name": "5118071e538af567c7dfa5a3371af0f8", "is_reserved": 0, "is_disabled": 0}, {"lat": 38.90028816666667, "fusion_lat": 0.0, "type": "electric_scooter", "bike_id": "5cc61f7dcfe3857778a94d644dde733c", "rental_uris": {"ios": "https://dc.lft.to/lastmile_qr_scan", "android": "https://dc.lft.to/lastmile_qr_scan"}, "fusion_lon": 0.0, "lon": -77.03988583333333, "name": "5cc61f7dcfe3857778a94d644dde733c", "is_reserved": 0, "is_disabled": 0}, {"lat": 38.90065416666667, "fusion_lat": 0.0, "type": "electric_scooter", "bike_id": "e94a3a1c2590cbd80abc336efc35959a", "rental_uris": {"ios": "https://dc.lft.to/lastmile_qr_scan", "android": "https://dc.lft.to/lastmile_qr_scan"}, "fusion_lon": 0.0, "lon": -77.04491366666667, "name": "e94a3a1c2590cbd80abc336efc35959a", "is_reserved": 0, "is_disabled": 0}, {"lat": 38.920144666666666, "fusion_lat": 0.0, "type": "electric_scooter", "bike_id": "17360cd559f4cc978cc67e3ae3099e7a", "rental_uris": {"ios": "https://dc.lft.to/lastmile_qr_scan", "android": "https://dc.lft.to/lastmile_qr_scan"}, "fusion_lon": 0.0, "lon": -77.02184, "name": "17360cd559f4cc978cc67e3ae3099e7a", "is_reserved": 0, "is_disabled": 0}, {"lat": 38.87450366666667, "fusion_lat": 0.0, "type": "electric_scooter", "bike_id": "9b0d1780835f307dc40c82903d1afd8b", "rental_uris": {"ios": "https://dc.lft.to/lastmile_qr_scan", "android": "https://dc.lft.to/lastmile_qr_scan"}, "fusion_lon": 0.0, "lon": -77.00126666666667, "name": "9b0d1780835f307dc40c82903d1afd8b", "is_reserved": 0, "is_disabled": 0}, {"lat": 38.9106875, "fusion_lat": 0.0, "type": "electric_scooter", "bike_id": "19d5beec61204b019dcb5be7c29a2903", "rental_uris": {"ios": "https://dc.lft.to/lastmile_qr_scan", "android": "https://dc.lft.to/lastmile_qr_scan"}, "fusion_lon": 0.0, "lon": -77.02713466666667, "name": "19d5beec61204b019dcb5be7c29a2903", "is_reserved": 0, "is_disabled": 0}, {"lat": 38.921619166666666, "fusion_lat": 0.0, "type": "electric_scooter", "bike_id": "ede4758ec7adb6c8e7c0c5328cf5f217", "rental_uris": {"ios": "https://dc.lft.to/lastmile_qr_scan", "android": "https://dc.lft.to/lastmile_qr_scan"}, "fusion_lon": 0.0, "lon": -77.040317, "name": "ede4758ec7adb6c8e7c0c5328cf5f217", "is_reserved": 0, "is_disabled": 0}, {"lat": 38.83105483333333, "fusion_lat": 0.0, "type": "electric_bike", "bike_id": "f71acf9acdae96a3738ae6d90f9e571a", "rental_uris": {"ios": "https://dc.lft.to/lastmile_qr_scan", "android": "https://dc.lft.to/lastmile_qr_scan"}, "fusion_lon": 0.0, "lon": -77.112849, "name": "f71acf9acdae96a3738ae6d90f9e571a", "is_reserved": 0, "is_disabled": 0}, {"lat": 38.91258833333333, "fusion_lat": 0.0, "type": "electric_scooter", "bike_id": "b553dc0c8f1ad9ea26f077aaae6c4d13", "rental_uris": {"ios": "https://dc.lft.to/lastmile_qr_scan", "android": "https://dc.lft.to/lastmile_qr_scan"}, "fusion_lon": 0.0, "lon": -77.03809866666667, "name": "b553dc0c8f1ad9ea26f077aaae6c4d13", "is_reserved": 0, "is_disabled": 0}, {"lat": 38.9181965, "fusion_lat": 0.0, "type": "electric_scooter", "bike_id": "a9cbfee7d40a7eed76af6236c96b58d6", "rental_uris": {"ios": "https://dc.lft.to/lastmile_qr_scan", "android": "https://dc.lft.to/lastmile_qr_scan"}, "fusion_lon": 0.0, "lon": -77.04180483333333, "name": "a9cbfee7d40a7eed76af6236c96b58d6", "is_reserved": 0, "is_disabled": 0}, {"lat": 38.904048, "fusion_lat": 0.0, "type": "electric_scooter", "bike_id": "e3e7bc8786792167bcabb71f77225015", "rental_uris": {"ios": "https://dc.lft.to/lastmile_qr_scan", "android": "https://dc.lft.to/lastmile_qr_scan"}, "fusion_lon": 0.0, "lon": -77.02046933333334, "name": "e3e7bc8786792167bcabb71f77225015", "is_reserved": 0, "is_disabled": 0}, {"lat": 38.89741466666667, "fusion_lat": 0.0, "type": "electric_scooter", "bike_id": "3e0191496213ffb4968a8a4e2085d626", "rental_uris": {"ios": "https://dc.lft.to/lastmile_qr_scan", "android": "https://dc.lft.to/lastmile_qr_scan"}, "fusion_lon": 0.0, "lon": -77.00147116666666, "name": "3e0191496213ffb4968a8a4e2085d626", "is_reserved": 0, "is_disabled": 0}, {"lat": 38.928845333333335, "fusion_lat": 0.0, "type": "electric_scooter", "bike_id": "8f0e70b5394cee91b076d02be7971e81", "rental_uris": {"ios": "https://dc.lft.to/lastmile_qr_scan", "android": "https://dc.lft.to/lastmile_qr_scan"}, "fusion_lon": 0.0, "lon": -77.0322665, "name": "8f0e70b5394cee91b076d02be7971e81", "is_reserved": 0, "is_disabled": 0}, {"lat": 38.90493633333333, "fusion_lat": 0.0, "type": "electric_scooter", "bike_id": "a7f37a2c73e59caab8e47a2d8f2a516b", "rental_uris": {"ios": "https://dc.lft.to/lastmile_qr_scan", "android": "https://dc.lft.to/lastmile_qr_scan"}, "fusion_lon": 0.0, "lon": -77.01783433333334, "name": "a7f37a2c73e59caab8e47a2d8f2a516b", "is_reserved": 0, "is_disabled": 0}, {"lat": 38.90669033333333, "fusion_lat": 0.0, "type": "electric_scooter", "bike_id": "cdeab745d7b9157966c4ff06c94e8002", "rental_uris": {"ios": "https://dc.lft.to/lastmile_qr_scan", "android": "https://dc.lft.to/lastmile_qr_scan"}, "fusion_lon": 0.0, "lon": -77.0271995, "name": "cdeab745d7b9157966c4ff06c94e8002", "is_reserved": 0, "is_disabled": 0}, {"lat": 38.928959666666664, "fusion_lat": 0.0, "type": "electric_scooter", "bike_id": "3a821ec74a82da72ed17892a9426911f", "rental_uris": {"ios": "https://dc.lft.to/lastmile_qr_scan", "android": "https://dc.lft.to/lastmile_qr_scan"}, "fusion_lon": 0.0, "lon": -77.0580835, "name": "3a821ec74a82da72ed17892a9426911f", "is_reserved": 0, "is_disabled": 0}, {"lat": 38.93446183333333, "fusion_lat": 0.0, "type": "electric_scooter", "bike_id": "2afca3d352d03f5f8d2daf963de8b2b1", "rental_uris": {"ios": "https://dc.lft.to/lastmile_qr_scan", "android": "https://dc.lft.to/lastmile_qr_scan"}, "fusion_lon": 0.0, "lon": -77.0296965, "name": "2afca3d352d03f5f8d2daf963de8b2b1", "is_reserved": 0, "is_disabled": 0}, {"lat": 38.89818483333333, "fusion_lat": 0.0, "type": "electric_scooter", "bike_id": "8172e58c94deb8f47124dda8a623391c", "rental_uris": {"ios": "https://dc.lft.to/lastmile_qr_scan", "android": "https://dc.lft.to/lastmile_qr_scan"}, "fusion_lon": 0.0, "lon": -77.01540066666666, "name": "8172e58c94deb8f47124dda8a623391c", "is_reserved": 0, "is_disabled": 0}, {"lat": 38.917115, "fusion_lat": 0.0, "type": "electric_scooter", "bike_id": "93f5519a186d6587de37e3142ba8254f", "rental_uris": {"ios": "https://dc.lft.to/lastmile_qr_scan", "android": "https://dc.lft.to/lastmile_qr_scan"}, "fusion_lon": 0.0, "lon": -77.03342416666666, "name": "93f5519a186d6587de37e3142ba8254f", "is_reserved": 0, "is_disabled": 0}, {"lat": 38.987840166666665, "fusion_lat": 0.0, "type": "electric_bike", "bike_id": "0fb7cb83f08f082ca8c653cf4382b3e1", "rental_uris": {"ios": "https://dc.lft.to/lastmile_qr_scan", "android": "https://dc.lft.to/lastmile_qr_scan"}, "fusion_lon": 0.0, "lon": -77.14096966666666, "name": "0fb7cb83f08f082ca8c653cf4382b3e1", "is_reserved": 0, "is_disabled": 0}, {"lat": 38.83869583333333, "fusion_lat": 0.0, "type": "electric_bike", "bike_id": "4e134641a5499c3bf33e51566840fd1a", "rental_uris": {"ios": "https://dc.lft.to/lastmile_qr_scan", "android": "https://dc.lft.to/lastmile_qr_scan"}, "fusion_lon": 0.0, "lon": -76.99706183333333, "name": "4e134641a5499c3bf33e51566840fd1a", "is_reserved": 0, "is_disabled": 0}, {"lat": 38.895458833333336, "fusion_lat": 0.0, "type": "electric_scooter", "bike_id": "0d6861d9845526affcefac36f1cef199", "rental_uris": {"ios": "https://dc.lft.to/lastmile_qr_scan", "android": "https://dc.lft.to/lastmile_qr_scan"}, "fusion_lon": 0.0, "lon": -76.98334233333334, "name": "0d6861d9845526affcefac36f1cef199", "is_reserved": 0, "is_disabled": 0}, {"lat": 38.8737705, "fusion_lat": 0.0, "type": "electric_scooter", "bike_id": "ebb51a159df75cdd4fbcea48bbb18609", "rental_uris": {"ios": "https://dc.lft.to/lastmile_qr_scan", "android": "https://dc.lft.to/lastmile_qr_scan"}, "fusion_lon": 0.0, "lon": -77.00127533333334, "name": "ebb51a159df75cdd4fbcea48bbb18609", "is_reserved": 0, "is_disabled": 0}, {"lat": 38.92072816666666, "fusion_lat": 0.0, "type": "electric_bike", "bike_id": "63093eedcc09da280d6c5359a95e3113", "rental_uris": {"ios": "https://dc.lft.to/lastmile_qr_scan", "android": "https://dc.lft.to/lastmile_qr_scan"}, "fusion_lon": 0.0, "lon": -77.02421766666667, "name": "63093eedcc09da280d6c5359a95e3113", "is_reserved": 0, "is_disabled": 0}, {"lat": 38.91335733333333, "fusion_lat": 0.0, "type": "electric_scooter", "bike_id": "a9ca19674df3fbb9c5deef87eddc6a71", "rental_uris": {"ios": "https://dc.lft.to/lastmile_qr_scan", "android": "https://dc.lft.to/lastmile_qr_scan"}, "fusion_lon": 0.0, "lon": -77.00332766666666, "name": "a9ca19674df3fbb9c5deef87eddc6a71", "is_reserved": 0, "is_disabled": 0}, {"lat": 38.927164833333336, "fusion_lat": 0.0, "type": "electric_scooter", "bike_id": "469664c17c1ee451efdd541e95f4f2ee", "rental_uris": {"ios": "https://dc.lft.to/lastmile_qr_scan", "android": "https://dc.lft.to/lastmile_qr_scan"}, "fusion_lon": 0.0, "lon": -77.0534725, "name": "469664c17c1ee451efdd541e95f4f2ee", "is_reserved": 0, "is_disabled": 0}, {"lat": 38.90468033333333, "fusion_lat": 0.0, "type": "electric_scooter", "bike_id": "5289e2d3b98797c0cf3766bf4dde6f5f", "rental_uris": {"ios": "https://dc.lft.to/lastmile_qr_scan", "android": "https://dc.lft.to/lastmile_qr_scan"}, "fusion_lon": 0.0, "lon": -77.06600083333333, "name": "5289e2d3b98797c0cf3766bf4dde6f5f", "is_reserved": 0, "is_disabled": 0}, {"lat": 38.863297833333334, "fusion_lat": 0.0, "type": "electric_bike", "bike_id": "1b43cee2edde222e15a54f557abafd34", "rental_uris": {"ios": "https://dc.lft.to/lastmile_qr_scan", "android": "https://dc.lft.to/lastmile_qr_scan"}, "fusion_lon": 0.0, "lon": -76.98721766666667, "name": "1b43cee2edde222e15a54f557abafd34", "is_reserved": 0, "is_disabled": 0}, {"lat": 38.9306165, "fusion_lat": 0.0, "type": "electric_scooter", "bike_id": "47bd05f1b842383ac35e4e157c181213", "rental_uris": {"ios": "https://dc.lft.to/lastmile_qr_scan", "android": "https://dc.lft.to/lastmile_qr_scan"}, "fusion_lon": 0.0, "lon": -77.03179016666667, "name": "47bd05f1b842383ac35e4e157c181213", "is_reserved": 0, "is_disabled": 0}, {"lat": 38.9269695, "fusion_lat": 0.0, "type": "electric_scooter", "bike_id": "ae290df764672a70ff6da13c5df00cc5", "rental_uris": {"ios": "https://dc.lft.to/lastmile_qr_scan", "android": "https://dc.lft.to/lastmile_qr_scan"}, "fusion_lon": 0.0, "lon": -76.99768883333333, "name": "ae290df764672a70ff6da13c5df00cc5", "is_reserved": 0, "is_disabled": 0}, {"lat": 38.91811666666667, "fusion_lat": 0.0, "type": "electric_scooter", "bike_id": "893b8be790e72751468f6c99f050dc80", "rental_uris": {"ios": "https://dc.lft.to/lastmile_qr_scan", "android": "https://dc.lft.to/lastmile_qr_scan"}, "fusion_lon": 0.0, "lon": -77.03562833333334, "name": "893b8be790e72751468f6c99f050dc80", "is_reserved": 0, "is_disabled": 0}, {"lat": 38.93260216666667, "fusion_lat": 0.0, "type": "electric_scooter", "bike_id": "d3c1a4b57ccf8a0cf2b37d98f209f6d9", "rental_uris": {"ios": "https://dc.lft.to/lastmile_qr_scan", "android": "https://dc.lft.to/lastmile_qr_scan"}, "fusion_lon": 0.0, "lon": -77.0208965, "name": "d3c1a4b57ccf8a0cf2b37d98f209f6d9", "is_reserved": 0, "is_disabled": 0}, {"lat": 38.911361, "fusion_lat": 0.0, "type": "electric_scooter", "bike_id": "f9d1fcb1ff7eba11fcf9618c6ebfce58", "rental_uris": {"ios": "https://dc.lft.to/lastmile_qr_scan", "android": "https://dc.lft.to/lastmile_qr_scan"}, "fusion_lon": 0.0, "lon": -77.0280865, "name": "f9d1fcb1ff7eba11fcf9618c6ebfce58", "is_reserved": 0, "is_disabled": 0}, {"lat": 38.909481666666665, "fusion_lat": 0.0, "type": "electric_scooter", "bike_id": "9d9eea53ca9c637fcc3ed977aedddd05", "rental_uris": {"ios": "https://dc.lft.to/lastmile_qr_scan", "android": "https://dc.lft.to/lastmile_qr_scan"}, "fusion_lon": 0.0, "lon": -77.03443716666666, "name": "9d9eea53ca9c637fcc3ed977aedddd05", "is_reserved": 0, "is_disabled": 0}, {"lat": 38.907204, "fusion_lat": 0.0, "type": "electric_scooter", "bike_id": "6112065014456e1e5038530029163b39", "rental_uris": {"ios": "https://dc.lft.to/lastmile_qr_scan", "android": "https://dc.lft.to/lastmile_qr_scan"}, "fusion_lon": 0.0, "lon": -77.043279, "name": "6112065014456e1e5038530029163b39", "is_reserved": 0, "is_disabled": 0}, {"lat": 38.89997616666667, "fusion_lat": 0.0, "type": "electric_scooter", "bike_id": "aee5f8952bf07eb7a3669f437b8ce5bb", "rental_uris": {"ios": "https://dc.lft.to/lastmile_qr_scan", "android": "https://dc.lft.to/lastmile_qr_scan"}, "fusion_lon": 0.0, "lon": -77.02135233333334, "name": "aee5f8952bf07eb7a3669f437b8ce5bb", "is_reserved": 0, "is_disabled": 0}, {"lat": 38.946527, "fusion_lat": 0.0, "type": "electric_scooter", "bike_id": "c7dbaaffddb2b0673500a435a87da6dd", "rental_uris": {"ios": "https://dc.lft.to/lastmile_qr_scan", "android": "https://dc.lft.to/lastmile_qr_scan"}, "fusion_lon": 0.0, "lon": -77.02968216666666, "name": "c7dbaaffddb2b0673500a435a87da6dd", "is_reserved": 0, "is_disabled": 0}, {"lat": 38.927552666666664, "fusion_lat": 0.0, "type": "electric_scooter", "bike_id": "03550c6b2529add5b0b89c9dd5fc0be5", "rental_uris": {"ios": "https://dc.lft.to/lastmile_qr_scan", "android": "https://dc.lft.to/lastmile_qr_scan"}, "fusion_lon": 0.0, "lon": -77.03351966666666, "name": "03550c6b2529add5b0b89c9dd5fc0be5", "is_reserved": 0, "is_disabled": 0}, {"lat": 38.916831333333334, "fusion_lat": 0.0, "type": "electric_scooter", "bike_id": "6242293c7b87edcc00d3bc507ca5b202", "rental_uris": {"ios": "https://dc.lft.to/lastmile_qr_scan", "android": "https://dc.lft.to/lastmile_qr_scan"}, "fusion_lon": 0.0, "lon": -77.02952966666666, "name": "6242293c7b87edcc00d3bc507ca5b202", "is_reserved": 0, "is_disabled": 0}, {"lat": 38.89230466666667, "fusion_lat": 0.0, "type": "electric_scooter", "bike_id": "558771c325c227b06ceaa74e278680bf", "rental_uris": {"ios": "https://dc.lft.to/lastmile_qr_scan", "android": "https://dc.lft.to/lastmile_qr_scan"}, "fusion_lon": 0.0, "lon": -77.04875816666667, "name": "558771c325c227b06ceaa74e278680bf", "is_reserved": 0, "is_disabled": 0}, {"lat": 38.92439266666667, "fusion_lat": 0.0, "type": "electric_scooter", "bike_id": "88caae73a2d7e2d5d81662031ab20e9f", "rental_uris": {"ios": "https://dc.lft.to/lastmile_qr_scan", "android": "https://dc.lft.to/lastmile_qr_scan"}, "fusion_lon": 0.0, "lon": -77.020315, "name": "88caae73a2d7e2d5d81662031ab20e9f", "is_reserved": 0, "is_disabled": 0}, {"lat": 38.89800233333333, "fusion_lat": 0.0, "type": "electric_scooter", "bike_id": "56ce7047be85886a2a63ef5084dcfb61", "rental_uris": {"ios": "https://dc.lft.to/lastmile_qr_scan", "android": "https://dc.lft.to/lastmile_qr_scan"}, "fusion_lon": 0.0, "lon": -77.01205066666667, "name": "56ce7047be85886a2a63ef5084dcfb61", "is_reserved": 0, "is_disabled": 0}, {"lat": 38.8948925, "fusion_lat": 0.0, "type": "electric_scooter", "bike_id": "9ae26fd6a9cf8c93cf5e1e49c9a4d472", "rental_uris": {"ios": "https://dc.lft.to/lastmile_qr_scan", "android": "https://dc.lft.to/lastmile_qr_scan"}, "fusion_lon": 0.0, "lon": -77.01086966666666, "name": "9ae26fd6a9cf8c93cf5e1e49c9a4d472", "is_reserved": 0, "is_disabled": 0}, {"lat": 38.9243465, "fusion_lat": 0.0, "type": "electric_scooter", "bike_id": "a2f23d6c335d582208ec897a4ff57007", "rental_uris": {"ios": "https://dc.lft.to/lastmile_qr_scan", "android": "https://dc.lft.to/lastmile_qr_scan"}, "fusion_lon": 0.0, "lon": -77.05210016666666, "name": "a2f23d6c335d582208ec897a4ff57007", "is_reserved": 0, "is_disabled": 0}, {"lat": 38.9278065, "fusion_lat": 0.0, "type": "electric_scooter", "bike_id": "d8f3fab8533e98877ece3502ce4f0f76", "rental_uris": {"ios": "https://dc.lft.to/lastmile_qr_scan", "android": "https://dc.lft.to/lastmile_qr_scan"}, "fusion_lon": 0.0, "lon": -77.02700833333333, "name": "d8f3fab8533e98877ece3502ce4f0f76", "is_reserved": 0, "is_disabled": 0}, {"lat": 38.9136285, "fusion_lat": 0.0, "type": "electric_scooter", "bike_id": "60b4e9a4e93c73383e50dd97413cada3", "rental_uris": {"ios": "https://dc.lft.to/lastmile_qr_scan", "android": "https://dc.lft.to/lastmile_qr_scan"}, "fusion_lon": 0.0, "lon": -77.0200045, "name": "60b4e9a4e93c73383e50dd97413cada3", "is_reserved": 0, "is_disabled": 0}, {"lat": 38.905959, "fusion_lat": 0.0, "type": "electric_scooter", "bike_id": "dcedba61144053b742c3ef266a72423e", "rental_uris": {"ios": "https://dc.lft.to/lastmile_qr_scan", "android": "https://dc.lft.to/lastmile_qr_scan"}, "fusion_lon": 0.0, "lon": -77.04027733333334, "name": "dcedba61144053b742c3ef266a72423e", "is_reserved": 0, "is_disabled": 0}, {"lat": 38.92084283333333, "fusion_lat": 0.0, "type": "electric_scooter", "bike_id": "6594ce1ba391ced7569182962b529794", "rental_uris": {"ios": "https://dc.lft.to/lastmile_qr_scan", "android": "https://dc.lft.to/lastmile_qr_scan"}, "fusion_lon": 0.0, "lon": -76.99476266666667, "name": "6594ce1ba391ced7569182962b529794", "is_reserved": 0, "is_disabled": 0}, {"lat": 38.909435, "fusion_lat": 0.0, "type": "electric_scooter", "bike_id": "d4de26765884ddea4086d2d5fbc97a8c", "rental_uris": {"ios": "https://dc.lft.to/lastmile_qr_scan", "android": "https://dc.lft.to/lastmile_qr_scan"}, "fusion_lon": 0.0, "lon": -77.04479883333333, "name": "d4de26765884ddea4086d2d5fbc97a8c", "is_reserved": 0, "is_disabled": 0}, {"lat": 38.92865416666667, "fusion_lat": 0.0, "type": "electric_scooter", "bike_id": "d46ba67a3a45f8b6bea8012db622ab9c", "rental_uris": {"ios": "https://dc.lft.to/lastmile_qr_scan", "android": "https://dc.lft.to/lastmile_qr_scan"}, "fusion_lon": 0.0, "lon": -77.032321, "name": "d46ba67a3a45f8b6bea8012db622ab9c", "is_reserved": 0, "is_disabled": 0}, {"lat": 38.915922, "fusion_lat": 0.0, "type": "electric_scooter", "bike_id": "dff12184c2884f19506141b53f968058", "rental_uris": {"ios": "https://dc.lft.to/lastmile_qr_scan", "android": "https://dc.lft.to/lastmile_qr_scan"}, "fusion_lon": 0.0, "lon": -77.0338775, "name": "dff12184c2884f19506141b53f968058", "is_reserved": 0, "is_disabled": 0}, {"lat": 38.947348, "fusion_lat": 0.0, "type": "electric_scooter", "bike_id": "56ba7b7d593f099b4723c24331fd8508", "rental_uris": {"ios": "https://dc.lft.to/lastmile_qr_scan", "android": "https://dc.lft.to/lastmile_qr_scan"}, "fusion_lon": 0.0, "lon": -77.07950366666667, "name": "56ba7b7d593f099b4723c24331fd8508", "is_reserved": 0, "is_disabled": 0}, {"lat": 38.92253266666667, "fusion_lat": 0.0, "type": "electric_scooter", "bike_id": "8c281249374eafe379fc4d4eb0d5292f", "rental_uris": {"ios": "https://dc.lft.to/lastmile_qr_scan", "android": "https://dc.lft.to/lastmile_qr_scan"}, "fusion_lon": 0.0, "lon": -77.01952983333334, "name": "8c281249374eafe379fc4d4eb0d5292f", "is_reserved": 0, "is_disabled": 0}, {"lat": 38.8979255, "fusion_lat": 0.0, "type": "electric_scooter", "bike_id": "7e2c1cc717a7ee79fb7ffb042913ee22", "rental_uris": {"ios": "https://dc.lft.to/lastmile_qr_scan", "android": "https://dc.lft.to/lastmile_qr_scan"}, "fusion_lon": 0.0, "lon": -77.02813133333333, "name": "7e2c1cc717a7ee79fb7ffb042913ee22", "is_reserved": 0, "is_disabled": 0}, {"lat": 38.894723666666664, "fusion_lat": 0.0, "type": "electric_scooter", "bike_id": "e9decfff44f93f36696e815b991c58bf", "rental_uris": {"ios": "https://dc.lft.to/lastmile_qr_scan", "android": "https://dc.lft.to/lastmile_qr_scan"}, "fusion_lon": 0.0, "lon": -77.00308683333333, "name": "e9decfff44f93f36696e815b991c58bf", "is_reserved": 0, "is_disabled": 0}, {"lat": 38.9054595, "fusion_lat": 0.0, "type": "electric_scooter", "bike_id": "5358a273a6e822618d9b77434ff240f4", "rental_uris": {"ios": "https://dc.lft.to/lastmile_qr_scan", "android": "https://dc.lft.to/lastmile_qr_scan"}, "fusion_lon": 0.0, "lon": -77.0429855, "name": "5358a273a6e822618d9b77434ff240f4", "is_reserved": 0, "is_disabled": 0}, {"lat": 38.90976766666667, "fusion_lat": 0.0, "type": "electric_scooter", "bike_id": "6a530a8de60efe546c04a218e735ab6a", "rental_uris": {"ios": "https://dc.lft.to/lastmile_qr_scan", "android": "https://dc.lft.to/lastmile_qr_scan"}, "fusion_lon": 0.0, "lon": -77.03256433333334, "name": "6a530a8de60efe546c04a218e735ab6a", "is_reserved": 0, "is_disabled": 0}, {"lat": 38.924795333333336, "fusion_lat": 0.0, "type": "electric_scooter", "bike_id": "aca5e2f71197aea64d48398050992d8c", "rental_uris": {"ios": "https://dc.lft.to/lastmile_qr_scan", "android": "https://dc.lft.to/lastmile_qr_scan"}, "fusion_lon": 0.0, "lon": -77.05217983333333, "name": "aca5e2f71197aea64d48398050992d8c", "is_reserved": 0, "is_disabled": 0}, {"lat": 38.923282, "fusion_lat": 0.0, "type": "electric_scooter", "bike_id": "ef230d3bcf1b676b41ff432d67a29ee8", "rental_uris": {"ios": "https://dc.lft.to/lastmile_qr_scan", "android": "https://dc.lft.to/lastmile_qr_scan"}, "fusion_lon": 0.0, "lon": -77.021301, "name": "ef230d3bcf1b676b41ff432d67a29ee8", "is_reserved": 0, "is_disabled": 0}, {"lat": 38.89792666666666, "fusion_lat": 0.0, "type": "electric_scooter", "bike_id": "31f908b2407035531b2314026782ae75", "rental_uris": {"ios": "https://dc.lft.to/lastmile_qr_scan", "android": "https://dc.lft.to/lastmile_qr_scan"}, "fusion_lon": 0.0, "lon": -77.022278, "name": "31f908b2407035531b2314026782ae75", "is_reserved": 0, "is_disabled": 0}, {"lat": 38.9355385, "fusion_lat": 0.0, "type": "electric_scooter", "bike_id": "7f66e2b7aaa91978a1a71d6a8cb15809", "rental_uris": {"ios": "https://dc.lft.to/lastmile_qr_scan", "android": "https://dc.lft.to/lastmile_qr_scan"}, "fusion_lon": 0.0, "lon": -77.074604, "name": "7f66e2b7aaa91978a1a71d6a8cb15809", "is_reserved": 0, "is_disabled": 0}, {"lat": 38.92578833333334, "fusion_lat": 0.0, "type": "electric_scooter", "bike_id": "97f6ff5292e9a83de401ad20ba962158", "rental_uris": {"ios": "https://dc.lft.to/lastmile_qr_scan", "android": "https://dc.lft.to/lastmile_qr_scan"}, "fusion_lon": 0.0, "lon": -77.03193783333333, "name": "97f6ff5292e9a83de401ad20ba962158", "is_reserved": 0, "is_disabled": 0}, {"lat": 38.905669833333334, "fusion_lat": 0.0, "type": "electric_scooter", "bike_id": "72a158c6dbfdd014d98a6302def4c4a7", "rental_uris": {"ios": "https://dc.lft.to/lastmile_qr_scan", "android": "https://dc.lft.to/lastmile_qr_scan"}, "fusion_lon": 0.0, "lon": -77.00323516666667, "name": "72a158c6dbfdd014d98a6302def4c4a7", "is_reserved": 0, "is_disabled": 0}, {"lat": 38.92209716666667, "fusion_lat": 0.0, "type": "electric_scooter", "bike_id": "0752b3add966569f5be870609d07ee09", "rental_uris": {"ios": "https://dc.lft.to/lastmile_qr_scan", "android": "https://dc.lft.to/lastmile_qr_scan"}, "fusion_lon": 0.0, "lon": -77.03656216666667, "name": "0752b3add966569f5be870609d07ee09", "is_reserved": 0, "is_disabled": 0}, {"lat": 38.901134666666664, "fusion_lat": 0.0, "type": "electric_scooter", "bike_id": "ab436171a5bf163078f9fb668d31b787", "rental_uris": {"ios": "https://dc.lft.to/lastmile_qr_scan", "android": "https://dc.lft.to/lastmile_qr_scan"}, "fusion_lon": 0.0, "lon": -77.01661583333333, "name": "ab436171a5bf163078f9fb668d31b787", "is_reserved": 0, "is_disabled": 0}, {"lat": 38.91125516666666, "fusion_lat": 0.0, "type": "electric_scooter", "bike_id": "62435087608e2d8176e42c6530eb95b6", "rental_uris": {"ios": "https://dc.lft.to/lastmile_qr_scan", "android": "https://dc.lft.to/lastmile_qr_scan"}, "fusion_lon": 0.0, "lon": -77.02200533333334, "name": "62435087608e2d8176e42c6530eb95b6", "is_reserved": 0, "is_disabled": 0}, {"lat": 38.90558633333333, "fusion_lat": 0.0, "type": "electric_scooter", "bike_id": "5cd81027037381130342d883fea016b0", "rental_uris": {"ios": "https://dc.lft.to/lastmile_qr_scan", "android": "https://dc.lft.to/lastmile_qr_scan"}, "fusion_lon": 0.0, "lon": -77.04992316666667, "name": "5cd81027037381130342d883fea016b0", "is_reserved": 0, "is_disabled": 0}, {"lat": 38.9039265, "fusion_lat": 0.0, "type": "electric_scooter", "bike_id": "d847ec1cf51d756d442227c92a6a486b", "rental_uris": {"ios": "https://dc.lft.to/lastmile_qr_scan", "android": "https://dc.lft.to/lastmile_qr_scan"}, "fusion_lon": 0.0, "lon": -77.063011, "name": "d847ec1cf51d756d442227c92a6a486b", "is_reserved": 0, "is_disabled": 0}, {"lat": 38.921370333333336, "fusion_lat": 0.0, "type": "electric_scooter", "bike_id": "175aff84bea4c295f110c4d3cb46798c", "rental_uris": {"ios": "https://dc.lft.to/lastmile_qr_scan", "android": "https://dc.lft.to/lastmile_qr_scan"}, "fusion_lon": 0.0, "lon": -77.0412425, "name": "175aff84bea4c295f110c4d3cb46798c", "is_reserved": 0, "is_disabled": 0}, {"lat": 38.90247933333333, "fusion_lat": 0.0, "type": "electric_scooter", "bike_id": "46e748316b87a89003c15f267bb6fc70", "rental_uris": {"ios": "https://dc.lft.to/lastmile_qr_scan", "android": "https://dc.lft.to/lastmile_qr_scan"}, "fusion_lon": 0.0, "lon": -77.04665916666667, "name": "46e748316b87a89003c15f267bb6fc70", "is_reserved": 0, "is_disabled": 0}, {"lat": 38.900308833333334, "fusion_lat": 0.0, "type": "electric_scooter", "bike_id": "50c09d8fed24a5b78413dc7e1d88817f", "rental_uris": {"ios": "https://dc.lft.to/lastmile_qr_scan", "android": "https://dc.lft.to/lastmile_qr_scan"}, "fusion_lon": 0.0, "lon": -77.00209966666667, "name": "50c09d8fed24a5b78413dc7e1d88817f", "is_reserved": 0, "is_disabled": 0}, {"lat": 38.8900265, "fusion_lat": 0.0, "type": "electric_scooter", "bike_id": "3e4edbbfb8833e6a721a74e0e8cd336d", "rental_uris": {"ios": "https://dc.lft.to/lastmile_qr_scan", "android": "https://dc.lft.to/lastmile_qr_scan"}, "fusion_lon": 0.0, "lon": -76.977307, "name": "3e4edbbfb8833e6a721a74e0e8cd336d", "is_reserved": 0, "is_disabled": 0}, {"lat": 38.920105166666666, "fusion_lat": 0.0, "type": "electric_scooter", "bike_id": "022c3fd8ad08a694dd54e9d6186b4359", "rental_uris": {"ios": "https://dc.lft.to/lastmile_qr_scan", "android": "https://dc.lft.to/lastmile_qr_scan"}, "fusion_lon": 0.0, "lon": -77.021898, "name": "022c3fd8ad08a694dd54e9d6186b4359", "is_reserved": 0, "is_disabled": 0}, {"lat": 38.899549666666665, "fusion_lat": 0.0, "type": "electric_scooter", "bike_id": "9b0def6ec853e6e98cbb6a0c9d3075ab", "rental_uris": {"ios": "https://dc.lft.to/lastmile_qr_scan", "android": "https://dc.lft.to/lastmile_qr_scan"}, "fusion_lon": 0.0, "lon": -77.04643816666666, "name": "9b0def6ec853e6e98cbb6a0c9d3075ab", "is_reserved": 0, "is_disabled": 0}, {"lat": 38.891744333333335, "fusion_lat": 0.0, "type": "electric_scooter", "bike_id": "e60cf8a975f3c5552651a1824f5f6cfd", "rental_uris": {"ios": "https://dc.lft.to/lastmile_qr_scan", "android": "https://dc.lft.to/lastmile_qr_scan"}, "fusion_lon": 0.0, "lon": -77.01560083333334, "name": "e60cf8a975f3c5552651a1824f5f6cfd", "is_reserved": 0, "is_disabled": 0}, {"lat": 38.8868005, "fusion_lat": 0.0, "type": "electric_scooter", "bike_id": "09a42c7a1b550fd0cb1dbc7436d55fbd", "rental_uris": {"ios": "https://dc.lft.to/lastmile_qr_scan", "android": "https://dc.lft.to/lastmile_qr_scan"}, "fusion_lon": 0.0, "lon": -77.0019645, "name": "09a42c7a1b550fd0cb1dbc7436d55fbd", "is_reserved": 0, "is_disabled": 0}, {"lat": 38.90024016666667, "fusion_lat": 0.0, "type": "electric_scooter", "bike_id": "32952d6b738b03e5ef53bd2af74cf3f0", "rental_uris": {"ios": "https://dc.lft.to/lastmile_qr_scan", "android": "https://dc.lft.to/lastmile_qr_scan"}, "fusion_lon": 0.0, "lon": -77.002172, "name": "32952d6b738b03e5ef53bd2af74cf3f0", "is_reserved": 0, "is_disabled": 0}, {"lat": 38.9023115, "fusion_lat": 0.0, "type": "electric_scooter", "bike_id": "77ff96a8dc4b51101bc1521d7b876a63", "rental_uris": {"ios": "https://dc.lft.to/lastmile_qr_scan", "android": "https://dc.lft.to/lastmile_qr_scan"}, "fusion_lon": 0.0, "lon": -77.0163945, "name": "77ff96a8dc4b51101bc1521d7b876a63", "is_reserved": 0, "is_disabled": 0}, {"lat": 38.87105716666667, "fusion_lat": 0.0, "type": "electric_scooter", "bike_id": "34a72ae1dba1eb21e557cdbe8216554b", "rental_uris": {"ios": "https://dc.lft.to/lastmile_qr_scan", "android": "https://dc.lft.to/lastmile_qr_scan"}, "fusion_lon": 0.0, "lon": -76.96574266666667, "name": "34a72ae1dba1eb21e557cdbe8216554b", "is_reserved": 0, "is_disabled": 0}, {"lat": 38.94500383333333, "fusion_lat": 0.0, "type": "electric_scooter", "bike_id": "249b3fd0bd5cbe87f028b5d886968fb7", "rental_uris": {"ios": "https://dc.lft.to/lastmile_qr_scan", "android": "https://dc.lft.to/lastmile_qr_scan"}, "fusion_lon": 0.0, "lon": -77.03853866666667, "name": "249b3fd0bd5cbe87f028b5d886968fb7", "is_reserved": 0, "is_disabled": 0}, {"lat": 38.922527, "fusion_lat": 0.0, "type": "electric_scooter", "bike_id": "4cf929f341d25275942efa88563eb57b", "rental_uris": {"ios": "https://dc.lft.to/lastmile_qr_scan", "android": "https://dc.lft.to/lastmile_qr_scan"}, "fusion_lon": 0.0, "lon": -77.03521216666667, "name": "4cf929f341d25275942efa88563eb57b", "is_reserved": 0, "is_disabled": 0}, {"lat": 38.921605166666666, "fusion_lat": 0.0, "type": "electric_scooter", "bike_id": "cab5d869409b0a03ade34d15328892d6", "rental_uris": {"ios": "https://dc.lft.to/lastmile_qr_scan", "android": "https://dc.lft.to/lastmile_qr_scan"}, "fusion_lon": 0.0, "lon": -77.0202405, "name": "cab5d869409b0a03ade34d15328892d6", "is_reserved": 0, "is_disabled": 0}, {"lat": 38.883142166666666, "fusion_lat": 0.0, "type": "electric_bike", "bike_id": "e8d52b7f6da5eb855d0e50279deeecc4", "rental_uris": {"ios": "https://dc.lft.to/lastmile_qr_scan", "android": "https://dc.lft.to/lastmile_qr_scan"}, "fusion_lon": 0.0, "lon": -77.10663633333333, "name": "e8d52b7f6da5eb855d0e50279deeecc4", "is_reserved": 0, "is_disabled": 0}, {"lat": 38.905233333333335, "fusion_lat": 0.0, "type": "electric_scooter", "bike_id": "680da44cb88dae271e01e624eab2089c", "rental_uris": {"ios": "https://dc.lft.to/lastmile_qr_scan", "android": "https://dc.lft.to/lastmile_qr_scan"}, "fusion_lon": 0.0, "lon": -77.05001383333334, "name": "680da44cb88dae271e01e624eab2089c", "is_reserved": 0, "is_disabled": 0}, {"lat": 38.9182035, "fusion_lat": 0.0, "type": "electric_scooter", "bike_id": "c241b431dfbe58e18113cb7a5d8b1aac", "rental_uris": {"ios": "https://dc.lft.to/lastmile_qr_scan", "android": "https://dc.lft.to/lastmile_qr_scan"}, "fusion_lon": 0.0, "lon": -77.0242525, "name": "c241b431dfbe58e18113cb7a5d8b1aac", "is_reserved": 0, "is_disabled": 0}, {"lat": 38.905369, "fusion_lat": 0.0, "type": "electric_scooter", "bike_id": "dd7ea5dda6305362d5493d44fba14a2d", "rental_uris": {"ios": "https://dc.lft.to/lastmile_qr_scan", "android": "https://dc.lft.to/lastmile_qr_scan"}, "fusion_lon": 0.0, "lon": -77.02208933333333, "name": "dd7ea5dda6305362d5493d44fba14a2d", "is_reserved": 0, "is_disabled": 0}, {"lat": 38.92419066666667, "fusion_lat": 0.0, "type": "electric_scooter", "bike_id": "f2119189b1a073a045dfdf60d7c511d2", "rental_uris": {"ios": "https://dc.lft.to/lastmile_qr_scan", "android": "https://dc.lft.to/lastmile_qr_scan"}, "fusion_lon": 0.0, "lon": -77.04022966666666, "name": "f2119189b1a073a045dfdf60d7c511d2", "is_reserved": 0, "is_disabled": 0}, {"lat": 38.907771, "fusion_lat": 0.0, "type": "electric_scooter", "bike_id": "916df80b17ea565f2c57d0a55e4b513a", "rental_uris": {"ios": "https://dc.lft.to/lastmile_qr_scan", "android": "https://dc.lft.to/lastmile_qr_scan"}, "fusion_lon": 0.0, "lon": -77.07168083333333, "name": "916df80b17ea565f2c57d0a55e4b513a", "is_reserved": 0, "is_disabled": 0}, {"lat": 38.92622883333333, "fusion_lat": 0.0, "type": "electric_scooter", "bike_id": "77891ba88ca12ee48d7d72a4091f3669", "rental_uris": {"ios": "https://dc.lft.to/lastmile_qr_scan", "android": "https://dc.lft.to/lastmile_qr_scan"}, "fusion_lon": 0.0, "lon": -77.0352715, "name": "77891ba88ca12ee48d7d72a4091f3669", "is_reserved": 0, "is_disabled": 0}, {"lat": 38.91115933333333, "fusion_lat": 0.0, "type": "electric_scooter", "bike_id": "05c8f98994a99fd27e110362371538c5", "rental_uris": {"ios": "https://dc.lft.to/lastmile_qr_scan", "android": "https://dc.lft.to/lastmile_qr_scan"}, "fusion_lon": 0.0, "lon": -77.04496533333334, "name": "05c8f98994a99fd27e110362371538c5", "is_reserved": 0, "is_disabled": 0}, {"lat": 38.88722033333333, "fusion_lat": 0.0, "type": "electric_scooter", "bike_id": "e5d8583dbd38ea0110f1742852c64240", "rental_uris": {"ios": "https://dc.lft.to/lastmile_qr_scan", "android": "https://dc.lft.to/lastmile_qr_scan"}, "fusion_lon": 0.0, "lon": -77.02839866666666, "name": "e5d8583dbd38ea0110f1742852c64240", "is_reserved": 0, "is_disabled": 0}, {"lat": 38.901987166666665, "fusion_lat": 0.0, "type": "electric_scooter", "bike_id": "9a35406e9f138f2f2e360ce25f55630f", "rental_uris": {"ios": "https://dc.lft.to/lastmile_qr_scan", "android": "https://dc.lft.to/lastmile_qr_scan"}, "fusion_lon": 0.0, "lon": -77.02349116666667, "name": "9a35406e9f138f2f2e360ce25f55630f", "is_reserved": 0, "is_disabled": 0}, {"lat": 38.87713166666666, "fusion_lat": 0.0, "type": "electric_scooter", "bike_id": "f5573c568de6c7df6bd03f03f21626ac", "rental_uris": {"ios": "https://dc.lft.to/lastmile_qr_scan", "android": "https://dc.lft.to/lastmile_qr_scan"}, "fusion_lon": 0.0, "lon": -77.01850566666667, "name": "f5573c568de6c7df6bd03f03f21626ac", "is_reserved": 0, "is_disabled": 0}, {"lat": 38.9038685, "fusion_lat": 0.0, "type": "electric_scooter", "bike_id": "4073b30230ffa084bbe4582552b3f188", "rental_uris": {"ios": "https://dc.lft.to/lastmile_qr_scan", "android": "https://dc.lft.to/lastmile_qr_scan"}, "fusion_lon": 0.0, "lon": -77.03368116666667, "name": "4073b30230ffa084bbe4582552b3f188", "is_reserved": 0, "is_disabled": 0}, {"lat": 38.917131166666664, "fusion_lat": 0.0, "type": "electric_scooter", "bike_id": "3b22401b6b715c642f4f1d6d607ff9c1", "rental_uris": {"ios": "https://dc.lft.to/lastmile_qr_scan", "android": "https://dc.lft.to/lastmile_qr_scan"}, "fusion_lon": 0.0, "lon": -76.97647233333333, "name": "3b22401b6b715c642f4f1d6d607ff9c1", "is_reserved": 0, "is_disabled": 0}, {"lat": 38.9347965, "fusion_lat": 0.0, "type": "electric_scooter", "bike_id": "ad17c5cc8b3667b6b2fe464678ce2ef8", "rental_uris": {"ios": "https://dc.lft.to/lastmile_qr_scan", "android": "https://dc.lft.to/lastmile_qr_scan"}, "fusion_lon": 0.0, "lon": -77.07348316666666, "name": "ad17c5cc8b3667b6b2fe464678ce2ef8", "is_reserved": 0, "is_disabled": 0}, {"lat": 38.9050775, "fusion_lat": 0.0, "type": "electric_scooter", "bike_id": "0d512a1926be29bf0399c6c56df07695", "rental_uris": {"ios": "https://dc.lft.to/lastmile_qr_scan", "android": "https://dc.lft.to/lastmile_qr_scan"}, "fusion_lon": 0.0, "lon": -77.048154, "name": "0d512a1926be29bf0399c6c56df07695", "is_reserved": 0, "is_disabled": 0}, {"lat": 38.97368016666667, "fusion_lat": 0.0, "type": "electric_scooter", "bike_id": "784446bb64edc06ec9a8954b6410bf7d", "rental_uris": {"ios": "https://dc.lft.to/lastmile_qr_scan", "android": "https://dc.lft.to/lastmile_qr_scan"}, "fusion_lon": 0.0, "lon": -77.018624, "name": "784446bb64edc06ec9a8954b6410bf7d", "is_reserved": 0, "is_disabled": 0}, {"lat": 38.8853965, "fusion_lat": 0.0, "type": "electric_scooter", "bike_id": "29c9934387dd5bbc085ac6a12035b528", "rental_uris": {"ios": "https://dc.lft.to/lastmile_qr_scan", "android": "https://dc.lft.to/lastmile_qr_scan"}, "fusion_lon": 0.0, "lon": -76.9788855, "name": "29c9934387dd5bbc085ac6a12035b528", "is_reserved": 0, "is_disabled": 0}, {"lat": 38.89983216666667, "fusion_lat": 0.0, "type": "electric_scooter", "bike_id": "2bf78b3678fe3519789d54fdba624909", "rental_uris": {"ios": "https://dc.lft.to/lastmile_qr_scan", "android": "https://dc.lft.to/lastmile_qr_scan"}, "fusion_lon": 0.0, "lon": -76.985607, "name": "2bf78b3678fe3519789d54fdba624909", "is_reserved": 0, "is_disabled": 0}, {"lat": 38.90916, "fusion_lat": 0.0, "type": "electric_scooter", "bike_id": "a21b1fd8e50087f427dd33d1a82d23bd", "rental_uris": {"ios": "https://dc.lft.to/lastmile_qr_scan", "android": "https://dc.lft.to/lastmile_qr_scan"}, "fusion_lon": 0.0, "lon": -77.0395905, "name": "a21b1fd8e50087f427dd33d1a82d23bd", "is_reserved": 0, "is_disabled": 0}, {"lat": 38.92256233333333, "fusion_lat": 0.0, "type": "electric_scooter", "bike_id": "ca63a37486d6a4e0ae2616ec97fb1270", "rental_uris": {"ios": "https://dc.lft.to/lastmile_qr_scan", "android": "https://dc.lft.to/lastmile_qr_scan"}, "fusion_lon": 0.0, "lon": -77.02105116666667, "name": "ca63a37486d6a4e0ae2616ec97fb1270", "is_reserved": 0, "is_disabled": 0}, {"lat": 38.89789616666667, "fusion_lat": 0.0, "type": "electric_scooter", "bike_id": "6a2c2b7fba8d09a35c6562a5ad290dd9", "rental_uris": {"ios": "https://dc.lft.to/lastmile_qr_scan", "android": "https://dc.lft.to/lastmile_qr_scan"}, "fusion_lon": 0.0, "lon": -77.00921383333333, "name": "6a2c2b7fba8d09a35c6562a5ad290dd9", "is_reserved": 0, "is_disabled": 0}, {"lat": 38.91473083333333, "fusion_lat": 0.0, "type": "electric_scooter", "bike_id": "50261dd5af9dceaf73777a9e4f27b5cc", "rental_uris": {"ios": "https://dc.lft.to/lastmile_qr_scan", "android": "https://dc.lft.to/lastmile_qr_scan"}, "fusion_lon": 0.0, "lon": -77.03208516666666, "name": "50261dd5af9dceaf73777a9e4f27b5cc", "is_reserved": 0, "is_disabled": 0}, {"lat": 38.89013683333334, "fusion_lat": 0.0, "type": "electric_scooter", "bike_id": "75e687de5d4c426ce11a98d9aeae9676", "rental_uris": {"ios": "https://dc.lft.to/lastmile_qr_scan", "android": "https://dc.lft.to/lastmile_qr_scan"}, "fusion_lon": 0.0, "lon": -76.93738866666666, "name": "75e687de5d4c426ce11a98d9aeae9676", "is_reserved": 0, "is_disabled": 0}, {"lat": 38.964688833333334, "fusion_lat": 0.0, "type": "electric_bike", "bike_id": "c2ecaa653c5ed1abbce667b45f02de2f", "rental_uris": {"ios": "https://dc.lft.to/lastmile_qr_scan", "android": "https://dc.lft.to/lastmile_qr_scan"}, "fusion_lon": 0.0, "lon": -77.03563433333333, "name": "c2ecaa653c5ed1abbce667b45f02de2f", "is_reserved": 0, "is_disabled": 0}, {"lat": 38.922297, "fusion_lat": 0.0, "type": "electric_scooter", "bike_id": "67f3c73d7e8219a6450b109cb86abb12", "rental_uris": {"ios": "https://dc.lft.to/lastmile_qr_scan", "android": "https://dc.lft.to/lastmile_qr_scan"}, "fusion_lon": 0.0, "lon": -77.02114866666666, "name": "67f3c73d7e8219a6450b109cb86abb12", "is_reserved": 0, "is_disabled": 0}, {"lat": 38.9093975, "fusion_lat": 0.0, "type": "electric_scooter", "bike_id": "8b04d6ddc76546c3e6b5ddb691ed0fbd", "rental_uris": {"ios": "https://dc.lft.to/lastmile_qr_scan", "android": "https://dc.lft.to/lastmile_qr_scan"}, "fusion_lon": 0.0, "lon": -77.04417433333333, "name": "8b04d6ddc76546c3e6b5ddb691ed0fbd", "is_reserved": 0, "is_disabled": 0}, {"lat": 38.92256733333333, "fusion_lat": 0.0, "type": "electric_scooter", "bike_id": "1f6f56e94d9f0512c00356228a70424d", "rental_uris": {"ios": "https://dc.lft.to/lastmile_qr_scan", "android": "https://dc.lft.to/lastmile_qr_scan"}, "fusion_lon": 0.0, "lon": -77.0210315, "name": "1f6f56e94d9f0512c00356228a70424d", "is_reserved": 0, "is_disabled": 0}, {"lat": 38.909719, "fusion_lat": 0.0, "type": "electric_scooter", "bike_id": "6df87dad7eb3f054c2929b849bbdad3a", "rental_uris": {"ios": "https://dc.lft.to/lastmile_qr_scan", "android": "https://dc.lft.to/lastmile_qr_scan"}, "fusion_lon": 0.0, "lon": -77.03817833333333, "name": "6df87dad7eb3f054c2929b849bbdad3a", "is_reserved": 0, "is_disabled": 0}, {"lat": 38.91171833333333, "fusion_lat": 0.0, "type": "electric_scooter", "bike_id": "069ee008404cb5a3060f7765141af044", "rental_uris": {"ios": "https://dc.lft.to/lastmile_qr_scan", "android": "https://dc.lft.to/lastmile_qr_scan"}, "fusion_lon": 0.0, "lon": -77.031898, "name": "069ee008404cb5a3060f7765141af044", "is_reserved": 0, "is_disabled": 0}, {"lat": 38.842533333333336, "fusion_lat": 0.0, "type": "electric_bike", "bike_id": "012d3b0c0f550352ae8dff92c6dfad3e", "rental_uris": {"ios": "https://dc.lft.to/lastmile_qr_scan", "android": "https://dc.lft.to/lastmile_qr_scan"}, "fusion_lon": 0.0, "lon": -76.98842316666666, "name": "012d3b0c0f550352ae8dff92c6dfad3e", "is_reserved": 0, "is_disabled": 0}, {"lat": 38.8975335, "fusion_lat": 0.0, "type": "electric_scooter", "bike_id": "f66dd94679867e5e92844d30603df1b2", "rental_uris": {"ios": "https://dc.lft.to/lastmile_qr_scan", "android": "https://dc.lft.to/lastmile_qr_scan"}, "fusion_lon": 0.0, "lon": -77.029885, "name": "f66dd94679867e5e92844d30603df1b2", "is_reserved": 0, "is_disabled": 0}, {"lat": 38.9149215, "fusion_lat": 0.0, "type": "electric_scooter", "bike_id": "7e06b9434d7b58dcf33a9eb554e31a42", "rental_uris": {"ios": "https://dc.lft.to/lastmile_qr_scan", "android": "https://dc.lft.to/lastmile_qr_scan"}, "fusion_lon": 0.0, "lon": -77.04545283333333, "name": "7e06b9434d7b58dcf33a9eb554e31a42", "is_reserved": 0, "is_disabled": 0}, {"lat": 38.92040983333333, "fusion_lat": 0.0, "type": "electric_scooter", "bike_id": "82d1742016b5f412d36b49745d1ff55f", "rental_uris": {"ios": "https://dc.lft.to/lastmile_qr_scan", "android": "https://dc.lft.to/lastmile_qr_scan"}, "fusion_lon": 0.0, "lon": -77.0183835, "name": "82d1742016b5f412d36b49745d1ff55f", "is_reserved": 0, "is_disabled": 0}, {"lat": 38.87335933333333, "fusion_lat": 0.0, "type": "electric_scooter", "bike_id": "37bc9ead158ef0828b97ca3b4e84e429", "rental_uris": {"ios": "https://dc.lft.to/lastmile_qr_scan", "android": "https://dc.lft.to/lastmile_qr_scan"}, "fusion_lon": 0.0, "lon": -76.96785233333334, "name": "37bc9ead158ef0828b97ca3b4e84e429", "is_reserved": 0, "is_disabled": 0}, {"lat": 38.988252333333335, "fusion_lat": 0.0, "type": "electric_bike", "bike_id": "1bbefe65c2666fc4c9cacf1933253f47", "rental_uris": {"ios": "https://dc.lft.to/lastmile_qr_scan", "android": "https://dc.lft.to/lastmile_qr_scan"}, "fusion_lon": 0.0, "lon": -76.9964825, "name": "1bbefe65c2666fc4c9cacf1933253f47", "is_reserved": 0, "is_disabled": 0}, {"lat": 38.96675, "fusion_lat": 0.0, "type": "electric_bike", "bike_id": "b840755b70a7015d3fb54ead73b5b8ff", "rental_uris": {"ios": "https://dc.lft.to/lastmile_qr_scan", "android": "https://dc.lft.to/lastmile_qr_scan"}, "fusion_lon": 0.0, "lon": -77.02263833333333, "name": "b840755b70a7015d3fb54ead73b5b8ff", "is_reserved": 0, "is_disabled": 0}, {"lat": 38.921021333333336, "fusion_lat": 0.0, "type": "electric_scooter", "bike_id": "9ae625cb8cc73bf780ae07de06c61155", "rental_uris": {"ios": "https://dc.lft.to/lastmile_qr_scan", "android": "https://dc.lft.to/lastmile_qr_scan"}, "fusion_lon": 0.0, "lon": -77.04686183333334, "name": "9ae625cb8cc73bf780ae07de06c61155", "is_reserved": 0, "is_disabled": 0}, {"lat": 38.904681833333335, "fusion_lat": 0.0, "type": "electric_scooter", "bike_id": "aec06ff565b7bcaa3ee4cc7b312b54ab", "rental_uris": {"ios": "https://dc.lft.to/lastmile_qr_scan", "android": "https://dc.lft.to/lastmile_qr_scan"}, "fusion_lon": 0.0, "lon": -77.01895366666666, "name": "aec06ff565b7bcaa3ee4cc7b312b54ab", "is_reserved": 0, "is_disabled": 0}, {"lat": 38.90501116666667, "fusion_lat": 0.0, "type": "electric_scooter", "bike_id": "b32593046d8018fefc7d2bcd0556af4c", "rental_uris": {"ios": "https://dc.lft.to/lastmile_qr_scan", "android": "https://dc.lft.to/lastmile_qr_scan"}, "fusion_lon": 0.0, "lon": -77.0294775, "name": "b32593046d8018fefc7d2bcd0556af4c", "is_reserved": 0, "is_disabled": 0}, {"lat": 38.892247166666664, "fusion_lat": 0.0, "type": "electric_scooter", "bike_id": "570c709dcb0204c85db92dcd468ea7cd", "rental_uris": {"ios": "https://dc.lft.to/lastmile_qr_scan", "android": "https://dc.lft.to/lastmile_qr_scan"}, "fusion_lon": 0.0, "lon": -77.04469033333334, "name": "570c709dcb0204c85db92dcd468ea7cd", "is_reserved": 0, "is_disabled": 0}, {"lat": 38.917457166666665, "fusion_lat": 0.0, "type": "electric_scooter", "bike_id": "841eabe605bfbb2d44a26ce3bff5c51e", "rental_uris": {"ios": "https://dc.lft.to/lastmile_qr_scan", "android": "https://dc.lft.to/lastmile_qr_scan"}, "fusion_lon": 0.0, "lon": -77.0693905, "name": "841eabe605bfbb2d44a26ce3bff5c51e", "is_reserved": 0, "is_disabled": 0}, {"lat": 38.9234155, "fusion_lat": 0.0, "type": "electric_scooter", "bike_id": "07cd2d477c26b59e528dfd1987b48193", "rental_uris": {"ios": "https://dc.lft.to/lastmile_qr_scan", "android": "https://dc.lft.to/lastmile_qr_scan"}, "fusion_lon": 0.0, "lon": -77.05167, "name": "07cd2d477c26b59e528dfd1987b48193", "is_reserved": 0, "is_disabled": 0}, {"lat": 38.911062666666666, "fusion_lat": 0.0, "type": "electric_scooter", "bike_id": "b929b53bc90309b512e446738f8c7303", "rental_uris": {"ios": "https://dc.lft.to/lastmile_qr_scan", "android": "https://dc.lft.to/lastmile_qr_scan"}, "fusion_lon": 0.0, "lon": -77.03143616666667, "name": "b929b53bc90309b512e446738f8c7303", "is_reserved": 0, "is_disabled": 0}, {"lat": 38.83809183333334, "fusion_lat": 0.0, "type": "electric_bike", "bike_id": "5e4e83c18b2ada434434d5c8b259da4a", "rental_uris": {"ios": "https://dc.lft.to/lastmile_qr_scan", "android": "https://dc.lft.to/lastmile_qr_scan"}, "fusion_lon": 0.0, "lon": -77.0952465, "name": "5e4e83c18b2ada434434d5c8b259da4a", "is_reserved": 0, "is_disabled": 0}, {"lat": 38.978831166666666, "fusion_lat": 0.0, "type": "electric_bike", "bike_id": "9ca37d25ee454ad09528cfee38fd12ac", "rental_uris": {"ios": "https://dc.lft.to/lastmile_qr_scan", "android": "https://dc.lft.to/lastmile_qr_scan"}, "fusion_lon": 0.0, "lon": -77.06034033333333, "name": "9ca37d25ee454ad09528cfee38fd12ac", "is_reserved": 0, "is_disabled": 0}, {"lat": 38.90272066666667, "fusion_lat": 0.0, "type": "electric_scooter", "bike_id": "c0db5a55a98833ca81620d3cee9afdac", "rental_uris": {"ios": "https://dc.lft.to/lastmile_qr_scan", "android": "https://dc.lft.to/lastmile_qr_scan"}, "fusion_lon": 0.0, "lon": -77.03322533333333, "name": "c0db5a55a98833ca81620d3cee9afdac", "is_reserved": 0, "is_disabled": 0}, {"lat": 38.90825183333333, "fusion_lat": 0.0, "type": "electric_scooter", "bike_id": "16db7c323ecad92c55920c905404ab16", "rental_uris": {"ios": "https://dc.lft.to/lastmile_qr_scan", "android": "https://dc.lft.to/lastmile_qr_scan"}, "fusion_lon": 0.0, "lon": -77.073149, "name": "16db7c323ecad92c55920c905404ab16", "is_reserved": 0, "is_disabled": 0}, {"lat": 38.92015933333333, "fusion_lat": 0.0, "type": "electric_scooter", "bike_id": "e280e894e0c2e1842b18556aa0492a47", "rental_uris": {"ios": "https://dc.lft.to/lastmile_qr_scan", "android": "https://dc.lft.to/lastmile_qr_scan"}, "fusion_lon": 0.0, "lon": -77.0218035, "name": "e280e894e0c2e1842b18556aa0492a47", "is_reserved": 0, "is_disabled": 0}, {"lat": 38.917529, "fusion_lat": 0.0, "type": "electric_scooter", "bike_id": "a0d7e947edf347927e70cddb2d686646", "rental_uris": {"ios": "https://dc.lft.to/lastmile_qr_scan", "android": "https://dc.lft.to/lastmile_qr_scan"}, "fusion_lon": 0.0, "lon": -77.03198966666666, "name": "a0d7e947edf347927e70cddb2d686646", "is_reserved": 0, "is_disabled": 0}, {"lat": 38.884986166666664, "fusion_lat": 0.0, "type": "electric_scooter", "bike_id": "d00921030550fb7e36d9873e0b55a9d0", "rental_uris": {"ios": "https://dc.lft.to/lastmile_qr_scan", "android": "https://dc.lft.to/lastmile_qr_scan"}, "fusion_lon": 0.0, "lon": -77.02969283333333, "name": "d00921030550fb7e36d9873e0b55a9d0", "is_reserved": 0, "is_disabled": 0}, {"lat": 38.90456616666667, "fusion_lat": 0.0, "type": "electric_scooter", "bike_id": "4082f6c6d1349ec2791a1903e9fa0bfb", "rental_uris": {"ios": "https://dc.lft.to/lastmile_qr_scan", "android": "https://dc.lft.to/lastmile_qr_scan"}, "fusion_lon": 0.0, "lon": -77.04672283333333, "name": "4082f6c6d1349ec2791a1903e9fa0bfb", "is_reserved": 0, "is_disabled": 0}, {"lat": 38.92794516666667, "fusion_lat": 0.0, "type": "electric_scooter", "bike_id": "889b6d05f9370d18078faccd914ac3b1", "rental_uris": {"ios": "https://dc.lft.to/lastmile_qr_scan", "android": "https://dc.lft.to/lastmile_qr_scan"}, "fusion_lon": 0.0, "lon": -77.01553033333333, "name": "889b6d05f9370d18078faccd914ac3b1", "is_reserved": 0, "is_disabled": 0}, {"lat": 38.900334, "fusion_lat": 0.0, "type": "electric_scooter", "bike_id": "0fc35d573119945d2ff5f9e213ecf804", "rental_uris": {"ios": "https://dc.lft.to/lastmile_qr_scan", "android": "https://dc.lft.to/lastmile_qr_scan"}, "fusion_lon": 0.0, "lon": -77.01218916666667, "name": "0fc35d573119945d2ff5f9e213ecf804", "is_reserved": 0, "is_disabled": 0}, {"lat": 38.95619583333333, "fusion_lat": 0.0, "type": "electric_bike", "bike_id": "ebadab85290d92291f9d2e685aee23ee", "rental_uris": {"ios": "https://dc.lft.to/lastmile_qr_scan", "android": "https://dc.lft.to/lastmile_qr_scan"}, "fusion_lon": 0.0, "lon": -76.93871016666667, "name": "ebadab85290d92291f9d2e685aee23ee", "is_reserved": 0, "is_disabled": 0}, {"lat": 38.9075395, "fusion_lat": 0.0, "type": "electric_scooter", "bike_id": "61dccf7a4b74602ab0b7a5e1e1a550c9", "rental_uris": {"ios": "https://dc.lft.to/lastmile_qr_scan", "android": "https://dc.lft.to/lastmile_qr_scan"}, "fusion_lon": 0.0, "lon": -77.00019266666666, "name": "61dccf7a4b74602ab0b7a5e1e1a550c9", "is_reserved": 0, "is_disabled": 0}, {"lat": 38.91636483333333, "fusion_lat": 0.0, "type": "electric_scooter", "bike_id": "0771e5e101c226ece2c43a8f27b55f87", "rental_uris": {"ios": "https://dc.lft.to/lastmile_qr_scan", "android": "https://dc.lft.to/lastmile_qr_scan"}, "fusion_lon": 0.0, "lon": -77.022318, "name": "0771e5e101c226ece2c43a8f27b55f87", "is_reserved": 0, "is_disabled": 0}, {"lat": 38.918087166666666, "fusion_lat": 0.0, "type": "electric_scooter", "bike_id": "22b6c37d16dbab285438bb87524c43f2", "rental_uris": {"ios": "https://dc.lft.to/lastmile_qr_scan", "android": "https://dc.lft.to/lastmile_qr_scan"}, "fusion_lon": 0.0, "lon": -77.03471033333334, "name": "22b6c37d16dbab285438bb87524c43f2", "is_reserved": 0, "is_disabled": 0}, {"lat": 38.90511583333333, "fusion_lat": 0.0, "type": "electric_scooter", "bike_id": "5e03527857ababcae371a1510822cd84", "rental_uris": {"ios": "https://dc.lft.to/lastmile_qr_scan", "android": "https://dc.lft.to/lastmile_qr_scan"}, "fusion_lon": 0.0, "lon": -77.06466283333333, "name": "5e03527857ababcae371a1510822cd84", "is_reserved": 0, "is_disabled": 0}, {"lat": 38.92235466666666, "fusion_lat": 0.0, "type": "electric_scooter", "bike_id": "83443ec253e14ea5b74dcfb52cbb9ecb", "rental_uris": {"ios": "https://dc.lft.to/lastmile_qr_scan", "android": "https://dc.lft.to/lastmile_qr_scan"}, "fusion_lon": 0.0, "lon": -77.01824366666666, "name": "83443ec253e14ea5b74dcfb52cbb9ecb", "is_reserved": 0, "is_disabled": 0}, {"lat": 38.90250016666667, "fusion_lat": 0.0, "type": "electric_scooter", "bike_id": "55e30084576ee17e0d8d7109ebb9e34c", "rental_uris": {"ios": "https://dc.lft.to/lastmile_qr_scan", "android": "https://dc.lft.to/lastmile_qr_scan"}, "fusion_lon": 0.0, "lon": -77.03560266666666, "name": "55e30084576ee17e0d8d7109ebb9e34c", "is_reserved": 0, "is_disabled": 0}, {"lat": 38.90981816666667, "fusion_lat": 0.0, "type": "electric_scooter", "bike_id": "3c6b35210e4a7525c291e80592c39355", "rental_uris": {"ios": "https://dc.lft.to/lastmile_qr_scan", "android": "https://dc.lft.to/lastmile_qr_scan"}, "fusion_lon": 0.0, "lon": -77.03207566666667, "name": "3c6b35210e4a7525c291e80592c39355", "is_reserved": 0, "is_disabled": 0}, {"lat": 38.875317333333335, "fusion_lat": 0.0, "type": "electric_scooter", "bike_id": "de95ba17ff0b5d6cd446edf3cf3c60c6", "rental_uris": {"ios": "https://dc.lft.to/lastmile_qr_scan", "android": "https://dc.lft.to/lastmile_qr_scan"}, "fusion_lon": 0.0, "lon": -77.0056215, "name": "de95ba17ff0b5d6cd446edf3cf3c60c6", "is_reserved": 0, "is_disabled": 0}, {"lat": 39.08606983333333, "fusion_lat": 0.0, "type": "electric_bike", "bike_id": "5f31c431d787fa6c48bf71f4a8a2a4aa", "rental_uris": {"ios": "https://dc.lft.to/lastmile_qr_scan", "android": "https://dc.lft.to/lastmile_qr_scan"}, "fusion_lon": 0.0, "lon": -77.1525545, "name": "5f31c431d787fa6c48bf71f4a8a2a4aa", "is_reserved": 0, "is_disabled": 0}, {"lat": 38.878787333333335, "fusion_lat": 0.0, "type": "electric_scooter", "bike_id": "da7cc2b51790d972129292b7d9f54430", "rental_uris": {"ios": "https://dc.lft.to/lastmile_qr_scan", "android": "https://dc.lft.to/lastmile_qr_scan"}, "fusion_lon": 0.0, "lon": -77.023189, "name": "da7cc2b51790d972129292b7d9f54430", "is_reserved": 0, "is_disabled": 0}, {"lat": 38.92049, "fusion_lat": 0.0, "type": "electric_scooter", "bike_id": "98d607ca821e70a28eedb57608fe7c83", "rental_uris": {"ios": "https://dc.lft.to/lastmile_qr_scan", "android": "https://dc.lft.to/lastmile_qr_scan"}, "fusion_lon": 0.0, "lon": -77.018019, "name": "98d607ca821e70a28eedb57608fe7c83", "is_reserved": 0, "is_disabled": 0}, {"lat": 38.916931, "fusion_lat": 0.0, "type": "electric_scooter", "bike_id": "afe93b0a0fcbcd05a38308c76a01f0a2", "rental_uris": {"ios": "https://dc.lft.to/lastmile_qr_scan", "android": "https://dc.lft.to/lastmile_qr_scan"}, "fusion_lon": 0.0, "lon": -77.035864, "name": "afe93b0a0fcbcd05a38308c76a01f0a2", "is_reserved": 0, "is_disabled": 0}, {"lat": 38.90550066666667, "fusion_lat": 0.0, "type": "electric_scooter", "bike_id": "5278630c738f163ad8ac219edd30c4de", "rental_uris": {"ios": "https://dc.lft.to/lastmile_qr_scan", "android": "https://dc.lft.to/lastmile_qr_scan"}, "fusion_lon": 0.0, "lon": -77.0029005, "name": "5278630c738f163ad8ac219edd30c4de", "is_reserved": 0, "is_disabled": 0}, {"lat": 38.93132933333333, "fusion_lat": 0.0, "type": "electric_scooter", "bike_id": "51c2094cdf36c6a249ea8f5520034440", "rental_uris": {"ios": "https://dc.lft.to/lastmile_qr_scan", "android": "https://dc.lft.to/lastmile_qr_scan"}, "fusion_lon": 0.0, "lon": -77.02802716666666, "name": "51c2094cdf36c6a249ea8f5520034440", "is_reserved": 0, "is_disabled": 0}, {"lat": 38.91568483333333, "fusion_lat": 0.0, "type": "electric_scooter", "bike_id": "9d3656a07ddd9c76bb66c7188048585e", "rental_uris": {"ios": "https://dc.lft.to/lastmile_qr_scan", "android": "https://dc.lft.to/lastmile_qr_scan"}, "fusion_lon": 0.0, "lon": -77.02521716666666, "name": "9d3656a07ddd9c76bb66c7188048585e", "is_reserved": 0, "is_disabled": 0}, {"lat": 38.9070395, "fusion_lat": 0.0, "type": "electric_scooter", "bike_id": "c18937b505686a196abd3eb136fc5825", "rental_uris": {"ios": "https://dc.lft.to/lastmile_qr_scan", "android": "https://dc.lft.to/lastmile_qr_scan"}, "fusion_lon": 0.0, "lon": -76.988533, "name": "c18937b505686a196abd3eb136fc5825", "is_reserved": 0, "is_disabled": 0}, {"lat": 38.872829833333334, "fusion_lat": 0.0, "type": "electric_bike", "bike_id": "e6390ee56ddef7157fd8a92379409640", "rental_uris": {"ios": "https://dc.lft.to/lastmile_qr_scan", "android": "https://dc.lft.to/lastmile_qr_scan"}, "fusion_lon": 0.0, "lon": -77.23320533333333, "name": "e6390ee56ddef7157fd8a92379409640", "is_reserved": 0, "is_disabled": 0}, {"lat": 38.89910916666667, "fusion_lat": 0.0, "type": "electric_scooter", "bike_id": "c5fb666ae266b4213bc00b2193383534", "rental_uris": {"ios": "https://dc.lft.to/lastmile_qr_scan", "android": "https://dc.lft.to/lastmile_qr_scan"}, "fusion_lon": 0.0, "lon": -77.041535, "name": "c5fb666ae266b4213bc00b2193383534", "is_reserved": 0, "is_disabled": 0}, {"lat": 38.902842666666665, "fusion_lat": 0.0, "type": "electric_scooter", "bike_id": "f65e6cbc037a4980c1b0b1f8b5d644ca", "rental_uris": {"ios": "https://dc.lft.to/lastmile_qr_scan", "android": "https://dc.lft.to/lastmile_qr_scan"}, "fusion_lon": 0.0, "lon": -77.04002983333334, "name": "f65e6cbc037a4980c1b0b1f8b5d644ca", "is_reserved": 0, "is_disabled": 0}, {"lat": 38.926758166666666, "fusion_lat": 0.0, "type": "electric_scooter", "bike_id": "a5d272e7be724b41fd829bb1c0629500", "rental_uris": {"ios": "https://dc.lft.to/lastmile_qr_scan", "android": "https://dc.lft.to/lastmile_qr_scan"}, "fusion_lon": 0.0, "lon": -77.02774983333333, "name": "a5d272e7be724b41fd829bb1c0629500", "is_reserved": 0, "is_disabled": 0}, {"lat": 38.84527, "fusion_lat": 0.0, "type": "electric_bike", "bike_id": "f9a3a16972b6f53906d38c9e9c8cddd2", "rental_uris": {"ios": "https://dc.lft.to/lastmile_qr_scan", "android": "https://dc.lft.to/lastmile_qr_scan"}, "fusion_lon": 0.0, "lon": -76.981479, "name": "f9a3a16972b6f53906d38c9e9c8cddd2", "is_reserved": 0, "is_disabled": 0}, {"lat": 38.936287166666666, "fusion_lat": 0.0, "type": "electric_scooter", "bike_id": "44fac913a3e183f84efcd3d3d4d42a23", "rental_uris": {"ios": "https://dc.lft.to/lastmile_qr_scan", "android": "https://dc.lft.to/lastmile_qr_scan"}, "fusion_lon": 0.0, "lon": -77.058785, "name": "44fac913a3e183f84efcd3d3d4d42a23", "is_reserved": 0, "is_disabled": 0}, {"lat": 38.914143333333335, "fusion_lat": 0.0, "type": "electric_scooter", "bike_id": "c067ed16ecf3178f786aca07419477cc", "rental_uris": {"ios": "https://dc.lft.to/lastmile_qr_scan", "android": "https://dc.lft.to/lastmile_qr_scan"}, "fusion_lon": 0.0, "lon": -77.041604, "name": "c067ed16ecf3178f786aca07419477cc", "is_reserved": 0, "is_disabled": 0}, {"lat": 38.89898516666667, "fusion_lat": 0.0, "type": "electric_scooter", "bike_id": "8d81452ca056f457e445ce7f2d7400f0", "rental_uris": {"ios": "https://dc.lft.to/lastmile_qr_scan", "android": "https://dc.lft.to/lastmile_qr_scan"}, "fusion_lon": 0.0, "lon": -76.9808045, "name": "8d81452ca056f457e445ce7f2d7400f0", "is_reserved": 0, "is_disabled": 0}, {"lat": 38.898906333333336, "fusion_lat": 0.0, "type": "electric_scooter", "bike_id": "d781662489574a0a370402a03f1d51ee", "rental_uris": {"ios": "https://dc.lft.to/lastmile_qr_scan", "android": "https://dc.lft.to/lastmile_qr_scan"}, "fusion_lon": 0.0, "lon": -77.04879383333333, "name": "d781662489574a0a370402a03f1d51ee", "is_reserved": 0, "is_disabled": 0}, {"lat": 38.91239733333333, "fusion_lat": 0.0, "type": "electric_scooter", "bike_id": "e7a49a8c7e353541e0ee56927d7d948b", "rental_uris": {"ios": "https://dc.lft.to/lastmile_qr_scan", "android": "https://dc.lft.to/lastmile_qr_scan"}, "fusion_lon": 0.0, "lon": -77.04889783333333, "name": "e7a49a8c7e353541e0ee56927d7d948b", "is_reserved": 0, "is_disabled": 0}, {"lat": 38.93892316666667, "fusion_lat": 0.0, "type": "electric_scooter", "bike_id": "273a5be1daa49984ce4873ffa5cbc1dd", "rental_uris": {"ios": "https://dc.lft.to/lastmile_qr_scan", "android": "https://dc.lft.to/lastmile_qr_scan"}, "fusion_lon": 0.0, "lon": -77.017609, "name": "273a5be1daa49984ce4873ffa5cbc1dd", "is_reserved": 0, "is_disabled": 0}, {"lat": 38.8963815, "fusion_lat": 0.0, "type": "electric_scooter", "bike_id": "514ee9a34ed074da87f3a2e30c00c7c7", "rental_uris": {"ios": "https://dc.lft.to/lastmile_qr_scan", "android": "https://dc.lft.to/lastmile_qr_scan"}, "fusion_lon": 0.0, "lon": -77.04007766666666, "name": "514ee9a34ed074da87f3a2e30c00c7c7", "is_reserved": 0, "is_disabled": 0}, {"lat": 38.9170905, "fusion_lat": 0.0, "type": "electric_scooter", "bike_id": "4449333292d5b5b42de5aa630af4116d", "rental_uris": {"ios": "https://dc.lft.to/lastmile_qr_scan", "android": "https://dc.lft.to/lastmile_qr_scan"}, "fusion_lon": 0.0, "lon": -77.03242716666666, "name": "4449333292d5b5b42de5aa630af4116d", "is_reserved": 0, "is_disabled": 0}, {"lat": 38.90015133333333, "fusion_lat": 0.0, "type": "electric_scooter", "bike_id": "60b0279b77749aac7be7cb0628c30d31", "rental_uris": {"ios": "https://dc.lft.to/lastmile_qr_scan", "android": "https://dc.lft.to/lastmile_qr_scan"}, "fusion_lon": 0.0, "lon": -77.00673583333334, "name": "60b0279b77749aac7be7cb0628c30d31", "is_reserved": 0, "is_disabled": 0}, {"lat": 38.862321333333334, "fusion_lat": 0.0, "type": "electric_scooter", "bike_id": "4788774ca115962ee3a241f1284e1cfa", "rental_uris": {"ios": "https://dc.lft.to/lastmile_qr_scan", "android": "https://dc.lft.to/lastmile_qr_scan"}, "fusion_lon": 0.0, "lon": -76.995523, "name": "4788774ca115962ee3a241f1284e1cfa", "is_reserved": 0, "is_disabled": 0}, {"lat": 39.0705485, "fusion_lat": 0.0, "type": "electric_bike", "bike_id": "3ae71af96a92f0ba901c0653014afed2", "rental_uris": {"ios": "https://dc.lft.to/lastmile_qr_scan", "android": "https://dc.lft.to/lastmile_qr_scan"}, "fusion_lon": 0.0, "lon": -77.11524383333334, "name": "3ae71af96a92f0ba901c0653014afed2", "is_reserved": 0, "is_disabled": 0}, {"lat": 38.914859166666666, "fusion_lat": 0.0, "type": "electric_scooter", "bike_id": "8f69e71823745cd1fd35528072b71eb2", "rental_uris": {"ios": "https://dc.lft.to/lastmile_qr_scan", "android": "https://dc.lft.to/lastmile_qr_scan"}, "fusion_lon": 0.0, "lon": -77.04240766666666, "name": "8f69e71823745cd1fd35528072b71eb2", "is_reserved": 0, "is_disabled": 0}, {"lat": 38.92176333333333, "fusion_lat": 0.0, "type": "electric_scooter", "bike_id": "1c1f2c1bddfd52cb89b813ccaa68c26d", "rental_uris": {"ios": "https://dc.lft.to/lastmile_qr_scan", "android": "https://dc.lft.to/lastmile_qr_scan"}, "fusion_lon": 0.0, "lon": -77.01912633333333, "name": "1c1f2c1bddfd52cb89b813ccaa68c26d", "is_reserved": 0, "is_disabled": 0}, {"lat": 38.885568166666665, "fusion_lat": 0.0, "type": "electric_scooter", "bike_id": "8c753f88e88f573d090a10a0a905bf20", "rental_uris": {"ios": "https://dc.lft.to/lastmile_qr_scan", "android": "https://dc.lft.to/lastmile_qr_scan"}, "fusion_lon": 0.0, "lon": -76.997996, "name": "8c753f88e88f573d090a10a0a905bf20", "is_reserved": 0, "is_disabled": 0}, {"lat": 38.874031333333335, "fusion_lat": 0.0, "type": "electric_scooter", "bike_id": "3cef1c1c2abd3ba34745a78e3b216bf7", "rental_uris": {"ios": "https://dc.lft.to/lastmile_qr_scan", "android": "https://dc.lft.to/lastmile_qr_scan"}, "fusion_lon": 0.0, "lon": -77.002137, "name": "3cef1c1c2abd3ba34745a78e3b216bf7", "is_reserved": 0, "is_disabled": 0}, {"lat": 38.91600316666667, "fusion_lat": 0.0, "type": "electric_scooter", "bike_id": "f059e3c5c6c1aa2c9c5d55366fdfd56f", "rental_uris": {"ios": "https://dc.lft.to/lastmile_qr_scan", "android": "https://dc.lft.to/lastmile_qr_scan"}, "fusion_lon": 0.0, "lon": -77.04908116666667, "name": "f059e3c5c6c1aa2c9c5d55366fdfd56f", "is_reserved": 0, "is_disabled": 0}, {"lat": 38.882126, "fusion_lat": 0.0, "type": "electric_scooter", "bike_id": "675c376a3fedfff6da9b7eb9af3d55d0", "rental_uris": {"ios": "https://dc.lft.to/lastmile_qr_scan", "android": "https://dc.lft.to/lastmile_qr_scan"}, "fusion_lon": 0.0, "lon": -77.0174925, "name": "675c376a3fedfff6da9b7eb9af3d55d0", "is_reserved": 0, "is_disabled": 0}, {"lat": 38.923413, "fusion_lat": 0.0, "type": "electric_scooter", "bike_id": "b9b04f9f53cd5b0f4855d46e25b51d46", "rental_uris": {"ios": "https://dc.lft.to/lastmile_qr_scan", "android": "https://dc.lft.to/lastmile_qr_scan"}, "fusion_lon": 0.0, "lon": -77.05170833333334, "name": "b9b04f9f53cd5b0f4855d46e25b51d46", "is_reserved": 0, "is_disabled": 0}, {"lat": 38.92097233333333, "fusion_lat": 0.0, "type": "electric_scooter", "bike_id": "c7301eae77dc27539b7c546547fcb6bb", "rental_uris": {"ios": "https://dc.lft.to/lastmile_qr_scan", "android": "https://dc.lft.to/lastmile_qr_scan"}, "fusion_lon": 0.0, "lon": -77.0221935, "name": "c7301eae77dc27539b7c546547fcb6bb", "is_reserved": 0, "is_disabled": 0}, {"lat": 38.83157166666667, "fusion_lat": 0.0, "type": "electric_bike", "bike_id": "3909c636eebb074d684432c48400c648", "rental_uris": {"ios": "https://dc.lft.to/lastmile_qr_scan", "android": "https://dc.lft.to/lastmile_qr_scan"}, "fusion_lon": 0.0, "lon": -76.99571983333334, "name": "3909c636eebb074d684432c48400c648", "is_reserved": 0, "is_disabled": 0}, {"lat": 38.9020305, "fusion_lat": 0.0, "type": "electric_scooter", "bike_id": "af8f88fa2c42f81d22019ac0cbd2cebc", "rental_uris": {"ios": "https://dc.lft.to/lastmile_qr_scan", "android": "https://dc.lft.to/lastmile_qr_scan"}, "fusion_lon": 0.0, "lon": -77.0237665, "name": "af8f88fa2c42f81d22019ac0cbd2cebc", "is_reserved": 0, "is_disabled": 0}, {"lat": 38.92026833333333, "fusion_lat": 0.0, "type": "electric_scooter", "bike_id": "d9594f79cc03f8803a271c1cfed6906b", "rental_uris": {"ios": "https://dc.lft.to/lastmile_qr_scan", "android": "https://dc.lft.to/lastmile_qr_scan"}, "fusion_lon": 0.0, "lon": -77.07159866666667, "name": "d9594f79cc03f8803a271c1cfed6906b", "is_reserved": 0, "is_disabled": 0}, {"lat": 38.922202, "fusion_lat": 0.0, "type": "electric_scooter", "bike_id": "bcf711184b8e5621b0f4ef505c772312", "rental_uris": {"ios": "https://dc.lft.to/lastmile_qr_scan", "android": "https://dc.lft.to/lastmile_qr_scan"}, "fusion_lon": 0.0, "lon": -77.04404433333333, "name": "bcf711184b8e5621b0f4ef505c772312", "is_reserved": 0, "is_disabled": 0}, {"lat": 38.89877716666667, "fusion_lat": 0.0, "type": "electric_scooter", "bike_id": "ec385ee2af2d633f58f16233c22ac114", "rental_uris": {"ios": "https://dc.lft.to/lastmile_qr_scan", "android": "https://dc.lft.to/lastmile_qr_scan"}, "fusion_lon": 0.0, "lon": -77.0081915, "name": "ec385ee2af2d633f58f16233c22ac114", "is_reserved": 0, "is_disabled": 0}, {"lat": 38.90208633333334, "fusion_lat": 0.0, "type": "electric_scooter", "bike_id": "185fb92d155928beb3d1639bc3fa4452", "rental_uris": {"ios": "https://dc.lft.to/lastmile_qr_scan", "android": "https://dc.lft.to/lastmile_qr_scan"}, "fusion_lon": 0.0, "lon": -77.02324683333333, "name": "185fb92d155928beb3d1639bc3fa4452", "is_reserved": 0, "is_disabled": 0}, {"lat": 38.91894583333333, "fusion_lat": 0.0, "type": "electric_scooter", "bike_id": "5e5c6765a613ad3599ff8cad9e68254b", "rental_uris": {"ios": "https://dc.lft.to/lastmile_qr_scan", "android": "https://dc.lft.to/lastmile_qr_scan"}, "fusion_lon": 0.0, "lon": -77.02956433333334, "name": "5e5c6765a613ad3599ff8cad9e68254b", "is_reserved": 0, "is_disabled": 0}, {"lat": 38.919165666666665, "fusion_lat": 0.0, "type": "electric_scooter", "bike_id": "d5ff3369eef50c41974fcd864591ef86", "rental_uris": {"ios": "https://dc.lft.to/lastmile_qr_scan", "android": "https://dc.lft.to/lastmile_qr_scan"}, "fusion_lon": 0.0, "lon": -77.03361033333333, "name": "d5ff3369eef50c41974fcd864591ef86", "is_reserved": 0, "is_disabled": 0}, {"lat": 38.897805, "fusion_lat": 0.0, "type": "electric_bike", "bike_id": "4f84b385c58b7091be8687618f7c5ddf", "rental_uris": {"ios": "https://dc.lft.to/lastmile_qr_scan", "android": "https://dc.lft.to/lastmile_qr_scan"}, "fusion_lon": 0.0, "lon": -77.007557, "name": "4f84b385c58b7091be8687618f7c5ddf", "is_reserved": 0, "is_disabled": 0}, {"lat": 38.899037166666666, "fusion_lat": 0.0, "type": "electric_scooter", "bike_id": "76f258469712cff0311c2043a96da3ee", "rental_uris": {"ios": "https://dc.lft.to/lastmile_qr_scan", "android": "https://dc.lft.to/lastmile_qr_scan"}, "fusion_lon": 0.0, "lon": -77.02175116666666, "name": "76f258469712cff0311c2043a96da3ee", "is_reserved": 0, "is_disabled": 0}, {"lat": 38.9782505, "fusion_lat": 0.0, "type": "electric_bike", "bike_id": "2a7d406e889d5a0f0282c3d6ed323207", "rental_uris": {"ios": "https://dc.lft.to/lastmile_qr_scan", "android": "https://dc.lft.to/lastmile_qr_scan"}, "fusion_lon": 0.0, "lon": -76.92895433333334, "name": "2a7d406e889d5a0f0282c3d6ed323207", "is_reserved": 0, "is_disabled": 0}, {"lat": 38.992256833333336, "fusion_lat": 0.0, "type": "electric_bike", "bike_id": "557cfe24521cf0ee40d1b831c21b39ea", "rental_uris": {"ios": "https://dc.lft.to/lastmile_qr_scan", "android": "https://dc.lft.to/lastmile_qr_scan"}, "fusion_lon": 0.0, "lon": -77.035837, "name": "557cfe24521cf0ee40d1b831c21b39ea", "is_reserved": 0, "is_disabled": 0}, {"lat": 38.89915166666667, "fusion_lat": 0.0, "type": "electric_scooter", "bike_id": "003026ce6bde8a117922a2ddeb59cfbb", "rental_uris": {"ios": "https://dc.lft.to/lastmile_qr_scan", "android": "https://dc.lft.to/lastmile_qr_scan"}, "fusion_lon": 0.0, "lon": -76.93383, "name": "003026ce6bde8a117922a2ddeb59cfbb", "is_reserved": 0, "is_disabled": 0}, {"lat": 38.9190705, "fusion_lat": 0.0, "type": "electric_scooter", "bike_id": "c57a368174a203fc542ea69f39525058", "rental_uris": {"ios": "https://dc.lft.to/lastmile_qr_scan", "android": "https://dc.lft.to/lastmile_qr_scan"}, "fusion_lon": 0.0, "lon": -77.0249335, "name": "c57a368174a203fc542ea69f39525058", "is_reserved": 0, "is_disabled": 0}, {"lat": 38.924735, "fusion_lat": 0.0, "type": "electric_bike", "bike_id": "1390fdf91a6539746645c4fe43e88cf6", "rental_uris": {"ios": "https://dc.lft.to/lastmile_qr_scan", "android": "https://dc.lft.to/lastmile_qr_scan"}, "fusion_lon": 0.0, "lon": -77.057577, "name": "1390fdf91a6539746645c4fe43e88cf6", "is_reserved": 0, "is_disabled": 0}, {"lat": 38.884587833333335, "fusion_lat": 0.0, "type": "electric_bike", "bike_id": "394dbcb5de987b94738b1aa8184c824a", "rental_uris": {"ios": "https://dc.lft.to/lastmile_qr_scan", "android": "https://dc.lft.to/lastmile_qr_scan"}, "fusion_lon": 0.0, "lon": -76.952412, "name": "394dbcb5de987b94738b1aa8184c824a", "is_reserved": 0, "is_disabled": 0}, {"lat": 38.91608816666667, "fusion_lat": 0.0, "type": "electric_scooter", "bike_id": "33355bc4ed912f0e96d85b22102073ce", "rental_uris": {"ios": "https://dc.lft.to/lastmile_qr_scan", "android": "https://dc.lft.to/lastmile_qr_scan"}, "fusion_lon": 0.0, "lon": -77.0213165, "name": "33355bc4ed912f0e96d85b22102073ce", "is_reserved": 0, "is_disabled": 0}, {"lat": 38.916861, "fusion_lat": 0.0, "type": "electric_scooter", "bike_id": "3b6be1655e4a5a860ffb86a3aae1a8c8", "rental_uris": {"ios": "https://dc.lft.to/lastmile_qr_scan", "android": "https://dc.lft.to/lastmile_qr_scan"}, "fusion_lon": 0.0, "lon": -77.029586, "name": "3b6be1655e4a5a860ffb86a3aae1a8c8", "is_reserved": 0, "is_disabled": 0}, {"lat": 38.902361666666664, "fusion_lat": 0.0, "type": "electric_scooter", "bike_id": "260cbf59698e12ca763583ec0c70910b", "rental_uris": {"ios": "https://dc.lft.to/lastmile_qr_scan", "android": "https://dc.lft.to/lastmile_qr_scan"}, "fusion_lon": 0.0, "lon": -77.00199733333334, "name": "260cbf59698e12ca763583ec0c70910b", "is_reserved": 0, "is_disabled": 0}, {"lat": 38.921707, "fusion_lat": 0.0, "type": "electric_scooter", "bike_id": "ac812f5ba0e2a88b0e8383556ae450e2", "rental_uris": {"ios": "https://dc.lft.to/lastmile_qr_scan", "android": "https://dc.lft.to/lastmile_qr_scan"}, "fusion_lon": 0.0, "lon": -77.0383065, "name": "ac812f5ba0e2a88b0e8383556ae450e2", "is_reserved": 0, "is_disabled": 0}, {"lat": 38.926680833333336, "fusion_lat": 0.0, "type": "electric_scooter", "bike_id": "00736830fdc23eb603c593ad09765506", "rental_uris": {"ios": "https://dc.lft.to/lastmile_qr_scan", "android": "https://dc.lft.to/lastmile_qr_scan"}, "fusion_lon": 0.0, "lon": -77.01513666666666, "name": "00736830fdc23eb603c593ad09765506", "is_reserved": 0, "is_disabled": 0}, {"lat": 38.90309466666667, "fusion_lat": 0.0, "type": "electric_scooter", "bike_id": "ae8259f586a85e58f1f24d12f2027cbf", "rental_uris": {"ios": "https://dc.lft.to/lastmile_qr_scan", "android": "https://dc.lft.to/lastmile_qr_scan"}, "fusion_lon": 0.0, "lon": -77.01637166666667, "name": "ae8259f586a85e58f1f24d12f2027cbf", "is_reserved": 0, "is_disabled": 0}, {"lat": 38.842833666666664, "fusion_lat": 0.0, "type": "electric_bike", "bike_id": "90bd1c13138b81f2485dd80c2899dcb4", "rental_uris": {"ios": "https://dc.lft.to/lastmile_qr_scan", "android": "https://dc.lft.to/lastmile_qr_scan"}, "fusion_lon": 0.0, "lon": -77.07525883333334, "name": "90bd1c13138b81f2485dd80c2899dcb4", "is_reserved": 0, "is_disabled": 0}, {"lat": 38.92633583333333, "fusion_lat": 0.0, "type": "electric_scooter", "bike_id": "c9b5271db13258eb83f27b9d28169885", "rental_uris": {"ios": "https://dc.lft.to/lastmile_qr_scan", "android": "https://dc.lft.to/lastmile_qr_scan"}, "fusion_lon": 0.0, "lon": -77.021688, "name": "c9b5271db13258eb83f27b9d28169885", "is_reserved": 0, "is_disabled": 0}, {"lat": 38.8876925, "fusion_lat": 0.0, "type": "electric_scooter", "bike_id": "baa2da6226c2650eb28555b017c8f3b6", "rental_uris": {"ios": "https://dc.lft.to/lastmile_qr_scan", "android": "https://dc.lft.to/lastmile_qr_scan"}, "fusion_lon": 0.0, "lon": -77.02838733333333, "name": "baa2da6226c2650eb28555b017c8f3b6", "is_reserved": 0, "is_disabled": 0}, {"lat": 38.9021415, "fusion_lat": 0.0, "type": "electric_scooter", "bike_id": "1eb8a5a6e41fa37ede2e5e43f6b71026", "rental_uris": {"ios": "https://dc.lft.to/lastmile_qr_scan", "android": "https://dc.lft.to/lastmile_qr_scan"}, "fusion_lon": 0.0, "lon": -77.02264066666666, "name": "1eb8a5a6e41fa37ede2e5e43f6b71026", "is_reserved": 0, "is_disabled": 0}, {"lat": 38.89742566666666, "fusion_lat": 0.0, "type": "electric_scooter", "bike_id": "74bf219260bf8437a64df9a01b6d23f9", "rental_uris": {"ios": "https://dc.lft.to/lastmile_qr_scan", "android": "https://dc.lft.to/lastmile_qr_scan"}, "fusion_lon": 0.0, "lon": -77.04343966666667, "name": "74bf219260bf8437a64df9a01b6d23f9", "is_reserved": 0, "is_disabled": 0}, {"lat": 38.8718645, "fusion_lat": 0.0, "type": "electric_scooter", "bike_id": "80c95c76ce8ac761c9087edf0adb4f4a", "rental_uris": {"ios": "https://dc.lft.to/lastmile_qr_scan", "android": "https://dc.lft.to/lastmile_qr_scan"}, "fusion_lon": 0.0, "lon": -77.006421, "name": "80c95c76ce8ac761c9087edf0adb4f4a", "is_reserved": 0, "is_disabled": 0}, {"lat": 38.90729616666667, "fusion_lat": 0.0, "type": "electric_scooter", "bike_id": "65ba436f7dae42bfc1ca3c8cde6a5404", "rental_uris": {"ios": "https://dc.lft.to/lastmile_qr_scan", "android": "https://dc.lft.to/lastmile_qr_scan"}, "fusion_lon": 0.0, "lon": -77.00057816666667, "name": "65ba436f7dae42bfc1ca3c8cde6a5404", "is_reserved": 0, "is_disabled": 0}, {"lat": 38.89220316666667, "fusion_lat": 0.0, "type": "electric_scooter", "bike_id": "d5c813b47544688860713483668b8bf0", "rental_uris": {"ios": "https://dc.lft.to/lastmile_qr_scan", "android": "https://dc.lft.to/lastmile_qr_scan"}, "fusion_lon": 0.0, "lon": -77.04465083333334, "name": "d5c813b47544688860713483668b8bf0", "is_reserved": 0, "is_disabled": 0}, {"lat": 38.924485833333335, "fusion_lat": 0.0, "type": "electric_scooter", "bike_id": "6e9ca1230cb78a76db3bb260a351ce0e", "rental_uris": {"ios": "https://dc.lft.to/lastmile_qr_scan", "android": "https://dc.lft.to/lastmile_qr_scan"}, "fusion_lon": 0.0, "lon": -77.07581816666666, "name": "6e9ca1230cb78a76db3bb260a351ce0e", "is_reserved": 0, "is_disabled": 0}, {"lat": 38.90778266666667, "fusion_lat": 0.0, "type": "electric_scooter", "bike_id": "0201ce741bc18d727f3c9b16c0990540", "rental_uris": {"ios": "https://dc.lft.to/lastmile_qr_scan", "android": "https://dc.lft.to/lastmile_qr_scan"}, "fusion_lon": 0.0, "lon": -77.03523233333334, "name": "0201ce741bc18d727f3c9b16c0990540", "is_reserved": 0, "is_disabled": 0}, {"lat": 38.904137166666665, "fusion_lat": 0.0, "type": "electric_scooter", "bike_id": "d8482d236ebb1b19c2330738874af21f", "rental_uris": {"ios": "https://dc.lft.to/lastmile_qr_scan", "android": "https://dc.lft.to/lastmile_qr_scan"}, "fusion_lon": 0.0, "lon": -77.05339416666666, "name": "d8482d236ebb1b19c2330738874af21f", "is_reserved": 0, "is_disabled": 0}, {"lat": 38.88733883333333, "fusion_lat": 0.0, "type": "electric_scooter", "bike_id": "705cf1c86773bb4c3aee8bc7804cd44c", "rental_uris": {"ios": "https://dc.lft.to/lastmile_qr_scan", "android": "https://dc.lft.to/lastmile_qr_scan"}, "fusion_lon": 0.0, "lon": -77.03177416666666, "name": "705cf1c86773bb4c3aee8bc7804cd44c", "is_reserved": 0, "is_disabled": 0}, {"lat": 38.926674166666665, "fusion_lat": 0.0, "type": "electric_bike", "bike_id": "7c4190f8f0115b1bbe1e02577e538be7", "rental_uris": {"ios": "https://dc.lft.to/lastmile_qr_scan", "android": "https://dc.lft.to/lastmile_qr_scan"}, "fusion_lon": 0.0, "lon": -77.02751633333334, "name": "7c4190f8f0115b1bbe1e02577e538be7", "is_reserved": 0, "is_disabled": 0}, {"lat": 38.922273, "fusion_lat": 0.0, "type": "electric_scooter", "bike_id": "d91356e373e6859de8c518fb64d8a2db", "rental_uris": {"ios": "https://dc.lft.to/lastmile_qr_scan", "android": "https://dc.lft.to/lastmile_qr_scan"}, "fusion_lon": 0.0, "lon": -77.03897283333333, "name": "d91356e373e6859de8c518fb64d8a2db", "is_reserved": 0, "is_disabled": 0}, {"lat": 38.909732166666664, "fusion_lat": 0.0, "type": "electric_scooter", "bike_id": "94d5c5ce1133e24252f6225dc93ada26", "rental_uris": {"ios": "https://dc.lft.to/lastmile_qr_scan", "android": "https://dc.lft.to/lastmile_qr_scan"}, "fusion_lon": 0.0, "lon": -77.03187683333333, "name": "94d5c5ce1133e24252f6225dc93ada26", "is_reserved": 0, "is_disabled": 0}, {"lat": 38.909616166666666, "fusion_lat": 0.0, "type": "electric_scooter", "bike_id": "d939d716a8aff79613cc1434e362e228", "rental_uris": {"ios": "https://dc.lft.to/lastmile_qr_scan", "android": "https://dc.lft.to/lastmile_qr_scan"}, "fusion_lon": 0.0, "lon": -77.04134416666666, "name": "d939d716a8aff79613cc1434e362e228", "is_reserved": 0, "is_disabled": 0}, {"lat": 38.89253083333333, "fusion_lat": 0.0, "type": "electric_scooter", "bike_id": "a225bcfadec7f1b0d3ce7e7407adfd8f", "rental_uris": {"ios": "https://dc.lft.to/lastmile_qr_scan", "android": "https://dc.lft.to/lastmile_qr_scan"}, "fusion_lon": 0.0, "lon": -77.003361, "name": "a225bcfadec7f1b0d3ce7e7407adfd8f", "is_reserved": 0, "is_disabled": 0}, {"lat": 38.91890166666666, "fusion_lat": 0.0, "type": "electric_scooter", "bike_id": "3b74120c630ed71519bf97daa6945e86", "rental_uris": {"ios": "https://dc.lft.to/lastmile_qr_scan", "android": "https://dc.lft.to/lastmile_qr_scan"}, "fusion_lon": 0.0, "lon": -77.04626216666666, "name": "3b74120c630ed71519bf97daa6945e86", "is_reserved": 0, "is_disabled": 0}, {"lat": 38.88752616666667, "fusion_lat": 0.0, "type": "electric_scooter", "bike_id": "5f9a400333fee2c891a1c88c8ff29d11", "rental_uris": {"ios": "https://dc.lft.to/lastmile_qr_scan", "android": "https://dc.lft.to/lastmile_qr_scan"}, "fusion_lon": 0.0, "lon": -76.99604133333334, "name": "5f9a400333fee2c891a1c88c8ff29d11", "is_reserved": 0, "is_disabled": 0}, {"lat": 38.90239116666667, "fusion_lat": 0.0, "type": "electric_scooter", "bike_id": "41cfafba3e360b03ee4d619bc3100f5b", "rental_uris": {"ios": "https://dc.lft.to/lastmile_qr_scan", "android": "https://dc.lft.to/lastmile_qr_scan"}, "fusion_lon": 0.0, "lon": -77.00205416666667, "name": "41cfafba3e360b03ee4d619bc3100f5b", "is_reserved": 0, "is_disabled": 0}, {"lat": 38.91036916666667, "fusion_lat": 0.0, "type": "electric_scooter", "bike_id": "3a96c81b88a14ace0a6ddc7a0dd82ca4", "rental_uris": {"ios": "https://dc.lft.to/lastmile_qr_scan", "android": "https://dc.lft.to/lastmile_qr_scan"}, "fusion_lon": 0.0, "lon": -77.0330055, "name": "3a96c81b88a14ace0a6ddc7a0dd82ca4", "is_reserved": 0, "is_disabled": 0}, {"lat": 38.936986833333336, "fusion_lat": 0.0, "type": "electric_scooter", "bike_id": "8cdcfa6807de2e091241a0162583973d", "rental_uris": {"ios": "https://dc.lft.to/lastmile_qr_scan", "android": "https://dc.lft.to/lastmile_qr_scan"}, "fusion_lon": 0.0, "lon": -77.05594783333333, "name": "8cdcfa6807de2e091241a0162583973d", "is_reserved": 0, "is_disabled": 0}, {"lat": 38.848442666666664, "fusion_lat": 0.0, "type": "electric_bike", "bike_id": "5a3dce26a54b45e3000a03866d79ebc4", "rental_uris": {"ios": "https://dc.lft.to/lastmile_qr_scan", "android": "https://dc.lft.to/lastmile_qr_scan"}, "fusion_lon": 0.0, "lon": -77.08491966666666, "name": "5a3dce26a54b45e3000a03866d79ebc4", "is_reserved": 0, "is_disabled": 0}, {"lat": 38.935332333333335, "fusion_lat": 0.0, "type": "electric_scooter", "bike_id": "73b5725fa40ab823c0f166f4968bdfb2", "rental_uris": {"ios": "https://dc.lft.to/lastmile_qr_scan", "android": "https://dc.lft.to/lastmile_qr_scan"}, "fusion_lon": 0.0, "lon": -77.03471483333334, "name": "73b5725fa40ab823c0f166f4968bdfb2", "is_reserved": 0, "is_disabled": 0},