{"data": {"bikes": [{"lon": -77.02278133333333, "lat": 38.902211333333334, "name": "5ce7efa56dabc29fce57743a9e015a6f", "fusion_lat": 0.0, "fusion_lon": 0.0, "rental_uris": {"android": "https://dc.lft.to/lastmile_qr_scan", "ios": "https://dc.lft.to/lastmile_qr_scan"}, "is_reserved": 0, "is_disabled": 0, "type": "electric_scooter", "bike_id": "5ce7efa56dabc29fce57743a9e015a6f"}, {"lon": -77.0366115, "lat": 38.92298133333333, "name": "923bb7c3e169c33b32019df29b48eaf9", "fusion_lat": 0.0, "fusion_lon": 0.0, "rental_uris": {"android": "https://dc.lft.to/lastmile_qr_scan", "ios": "https://dc.lft.to/lastmile_qr_scan"}, "is_reserved": 0, "is_disabled": 0, "type": "electric_scooter", "bike_id": "923bb7c3e169c33b32019df29b48eaf9"}, {"lon": -77.03180783333333, "lat": 38.8941365, "name": "874623f486fce2906c2265288db25cf5", "fusion_lat": 0.0, "fusion_lon": 0.0, "rental_uris": {"android": "https://dc.lft.to/lastmile_qr_scan", "ios": "https://dc.lft.to/lastmile_qr_scan"}, "is_reserved": 0, "is_disabled": 0, "type": "electric_scooter", "bike_id": "874623f486fce2906c2265288db25cf5"}, {"lon": -76.99585216666667, "lat": 38.955079, "name": "1095cffddf3070a6d3d65f12622214f5", "fusion_lat": 0.0, "fusion_lon": 0.0, "rental_uris": {"android": "https://dc.lft.to/lastmile_qr_scan", "ios": "https://dc.lft.to/lastmile_qr_scan"}, "is_reserved": 0, "is_disabled": 0, "type": "electric_scooter", "bike_id": "1095cffddf3070a6d3d65f12622214f5"}, {"lon": -77.06293066666667, "lat": 38.90486333333333, "name": "7ff4cce6237be48dbf954413283b52b4", "fusion_lat": 0.0, "fusion_lon": 0.0, "rental_uris": {"android": "https://dc.lft.to/lastmile_qr_scan", "ios": "https://dc.lft.to/lastmile_qr_scan"}, "is_reserved": 0, "is_disabled": 0, "type": "electric_scooter", "bike_id": "7ff4cce6237be48dbf954413283b52b4"}, {"lon": -77.03338966666666, "lat": 38.92162166666667, "name": "3727cdaf1486a9ffadc7bae732ae24b9", "fusion_lat": 0.0, "fusion_lon": 0.0, "rental_uris": {"android": "https://dc.lft.to/lastmile_qr_scan", "ios": "https://dc.lft.to/lastmile_qr_scan"}, "is_reserved": 0, "is_disabled": 0, "type": "electric_scooter", "bike_id": "3727cdaf1486a9ffadc7bae732ae24b9"}, {"lon": -77.00806333333334, "lat": 38.9056075, "name": "e8a837b8a1adeae689253ffd9c88fb49", "fusion_lat": 0.0, "fusion_lon": 0.0, "rental_uris": {"android": "https://dc.lft.to/lastmile_qr_scan", "ios": "https://dc.lft.to/lastmile_qr_scan"}, "is_reserved": 0, "is_disabled": 0, "type": "electric_scooter", "bike_id": "e8a837b8a1adeae689253ffd9c88fb49"}, {"lon": -77.03701716666667, "lat": 38.926469, "name": "697840cbb43854766c15b6def3f52c5e", "fusion_lat": 0.0, "fusion_lon": 0.0, "rental_uris": {"android": "https://dc.lft.to/lastmile_qr_scan", "ios": "https://dc.lft.to/lastmile_qr_scan"}, "is_reserved": 0, "is_disabled": 0, "type": "electric_scooter", "bike_id": "697840cbb43854766c15b6def3f52c5e"}, {"lon": -77.06345966666666, "lat": 38.9068795, "name": "781b16ed6a419a81556cb6d3b2ba3cc1", "fusion_lat": 0.0, "fusion_lon": 0.0, "rental_uris": {"android": "https://dc.lft.to/lastmile_qr_scan", "ios": "https://dc.lft.to/lastmile_qr_scan"}, "is_reserved": 0, "is_disabled": 0, "type": "electric_scooter", "bike_id": "781b16ed6a419a81556cb6d3b2ba3cc1"}, {"lon": -77.02851133333333, "lat": 38.925743833333335, "name": "bcf224d5c76e22b8e3026f3e474370cd", "fusion_lat": 0.0, "fusion_lon": 0.0, "rental_uris": {"android": "https://dc.lft.to/lastmile_qr_scan", "ios": "https://dc.lft.to/lastmile_qr_scan"}, "is_reserved": 0, "is_disabled": 0, "type": "electric_scooter", "bike_id": "bcf224d5c76e22b8e3026f3e474370cd"}, {"lon": -77.05142, "lat": 38.902135, "name": "c0ac714643a188b8830b57f76e914912", "fusion_lat": 0.0, "fusion_lon": 0.0, "rental_uris": {"android": "https://dc.lft.to/lastmile_qr_scan", "ios": "https://dc.lft.to/lastmile_qr_scan"}, "is_reserved": 0, "is_disabled": 0, "type": "electric_scooter", "bike_id": "c0ac714643a188b8830b57f76e914912"}, {"lon": -77.0433465, "lat": 38.9045455, "name": "064a75d0cb01cf19ae145f74525eaee9", "fusion_lat": 0.0, "fusion_lon": 0.0, "rental_uris": {"android": "https://dc.lft.to/lastmile_qr_scan", "ios": "https://dc.lft.to/lastmile_qr_scan"}, "is_reserved": 0, "is_disabled": 0, "type": "electric_bike", "bike_id": "064a75d0cb01cf19ae145f74525eaee9"}, {"lon": -76.93175116666667, "lat": 38.89886033333333, "name": "0464d2e1f6a7c96f69bf1f38ad8c183b", "fusion_lat": 0.0, "fusion_lon": 0.0, "rental_uris": {"android": "https://dc.lft.to/lastmile_qr_scan", "ios": "https://dc.lft.to/lastmile_qr_scan"}, "is_reserved": 0, "is_disabled": 0, "type": "electric_scooter", "bike_id": "0464d2e1f6a7c96f69bf1f38ad8c183b"}, {"lon": -77.00215816666666, "lat": 38.92453616666667, "name": "dfdf85ed2d2f529a9403e30d64a592b5", "fusion_lat": 0.0, "fusion_lon": 0.0, "rental_uris": {"android": "https://dc.lft.to/lastmile_qr_scan", "ios": "https://dc.lft.to/lastmile_qr_scan"}, "is_reserved": 0, "is_disabled": 0, "type": "electric_scooter", "bike_id": "dfdf85ed2d2f529a9403e30d64a592b5"}, {"lon": -76.91929966666666, "lat": 38.8907875, "name": "69a7fe10e2966f79e314fbb34cb6ac28", "fusion_lat": 0.0, "fusion_lon": 0.0, "rental_uris": {"android": "https://dc.lft.to/lastmile_qr_scan", "ios": "https://dc.lft.to/lastmile_qr_scan"}, "is_reserved": 0, "is_disabled": 0, "type": "electric_scooter", "bike_id": "69a7fe10e2966f79e314fbb34cb6ac28"}, {"lon": -77.0276535, "lat": 38.913448833333334, "name": "e8596f6bc2b02dedb6a238e914122c59", "fusion_lat": 0.0, "fusion_lon": 0.0, "rental_uris": {"android": "https://dc.lft.to/lastmile_qr_scan", "ios": "https://dc.lft.to/lastmile_qr_scan"}, "is_reserved": 0, "is_disabled": 0, "type": "electric_scooter", "bike_id": "e8596f6bc2b02dedb6a238e914122c59"}, {"lon": -76.99128366666666, "lat": 38.900349166666665, "name": "cb4e68883b44c7a50701d5e5c1ffea75", "fusion_lat": 0.0, "fusion_lon": 0.0, "rental_uris": {"android": "https://dc.lft.to/lastmile_qr_scan", "ios": "https://dc.lft.to/lastmile_qr_scan"}, "is_reserved": 0, "is_disabled": 0, "type": "electric_scooter", "bike_id": "cb4e68883b44c7a50701d5e5c1ffea75"}, {"lon": -77.0382275, "lat": 38.92061983333333, "name": "0998014fa77c5f5da7d5465c25b10f56", "fusion_lat": 0.0, "fusion_lon": 0.0, "rental_uris": {"android": "https://dc.lft.to/lastmile_qr_scan", "ios": "https://dc.lft.to/lastmile_qr_scan"}, "is_reserved": 0, "is_disabled": 0, "type": "electric_scooter", "bike_id": "0998014fa77c5f5da7d5465c25b10f56"}, {"lon": -77.033403, "lat": 38.91701416666667, "name": "274488443c4db3bfd1c234f0396b3fcd", "fusion_lat": 0.0, "fusion_lon": 0.0, "rental_uris": {"android": "https://dc.lft.to/lastmile_qr_scan", "ios": "https://dc.lft.to/lastmile_qr_scan"}, "is_reserved": 0, "is_disabled": 0, "type": "electric_scooter", "bike_id": "274488443c4db3bfd1c234f0396b3fcd"}, {"lon": -76.99050766666667, "lat": 38.93713, "name": "cb0682cd9bd1b3aa41a075073100f0f4", "fusion_lat": 0.0, "fusion_lon": 0.0, "rental_uris": {"android": "https://dc.lft.to/lastmile_qr_scan", "ios": "https://dc.lft.to/lastmile_qr_scan"}, "is_reserved": 0, "is_disabled": 0, "type": "electric_bike", "bike_id": "cb0682cd9bd1b3aa41a075073100f0f4"}, {"lon": -77.03650016666667, "lat": 38.91315016666667, "name": "b913025205542b97fb2a19f60d08a50c", "fusion_lat": 0.0, "fusion_lon": 0.0, "rental_uris": {"android": "https://dc.lft.to/lastmile_qr_scan", "ios": "https://dc.lft.to/lastmile_qr_scan"}, "is_reserved": 0, "is_disabled": 0, "type": "electric_scooter", "bike_id": "b913025205542b97fb2a19f60d08a50c"}, {"lon": -77.006002, "lat": 38.89799133333333, "name": "d914df188886d9bd7dc0523922d05cb8", "fusion_lat": 0.0, "fusion_lon": 0.0, "rental_uris": {"android": "https://dc.lft.to/lastmile_qr_scan", "ios": "https://dc.lft.to/lastmile_qr_scan"}, "is_reserved": 0, "is_disabled": 0, "type": "electric_bike", "bike_id": "d914df188886d9bd7dc0523922d05cb8"}, {"lon": -77.023624, "lat": 38.9207595, "name": "b687513f8ff7efe9ca44bbc67459213d", "fusion_lat": 0.0, "fusion_lon": 0.0, "rental_uris": {"android": "https://dc.lft.to/lastmile_qr_scan", "ios": "https://dc.lft.to/lastmile_qr_scan"}, "is_reserved": 0, "is_disabled": 0, "type": "electric_scooter", "bike_id": "b687513f8ff7efe9ca44bbc67459213d"}, {"lon": -77.041172, "lat": 38.91894116666667, "name": "6a0c2c3d54eb8911075b950672db8549", "fusion_lat": 0.0, "fusion_lon": 0.0, "rental_uris": {"android": "https://dc.lft.to/lastmile_qr_scan", "ios": "https://dc.lft.to/lastmile_qr_scan"}, "is_reserved": 0, "is_disabled": 0, "type": "electric_scooter", "bike_id": "6a0c2c3d54eb8911075b950672db8549"}, {"lon": -77.04479733333334, "lat": 38.91080983333333, "name": "5416c534d18210b289657273a643abc4", "fusion_lat": 0.0, "fusion_lon": 0.0, "rental_uris": {"android": "https://dc.lft.to/lastmile_qr_scan", "ios": "https://dc.lft.to/lastmile_qr_scan"}, "is_reserved": 0, "is_disabled": 0, "type": "electric_scooter", "bike_id": "5416c534d18210b289657273a643abc4"}, {"lon": -77.04789116666667, "lat": 38.89369216666667, "name": "89638bb773098c033bccf01ffdcbcb9d", "fusion_lat": 0.0, "fusion_lon": 0.0, "rental_uris": {"android": "https://dc.lft.to/lastmile_qr_scan", "ios": "https://dc.lft.to/lastmile_qr_scan"}, "is_reserved": 0, "is_disabled": 0, "type": "electric_scooter", "bike_id": "89638bb773098c033bccf01ffdcbcb9d"}, {"lon": -77.022821, "lat": 38.902236, "name": "4448d105c8006d7cea7e70752d2a8e08", "fusion_lat": 0.0, "fusion_lon": 0.0, "rental_uris": {"android": "https://dc.lft.to/lastmile_qr_scan", "ios": "https://dc.lft.to/lastmile_qr_scan"}, "is_reserved": 0, "is_disabled": 0, "type": "electric_scooter", "bike_id": "4448d105c8006d7cea7e70752d2a8e08"}, {"lon": -77.0296595, "lat": 38.91685483333333, "name": "907720282e6db50d8aa843a05c83fb31", "fusion_lat": 0.0, "fusion_lon": 0.0, "rental_uris": {"android": "https://dc.lft.to/lastmile_qr_scan", "ios": "https://dc.lft.to/lastmile_qr_scan"}, "is_reserved": 0, "is_disabled": 0, "type": "electric_scooter", "bike_id": "907720282e6db50d8aa843a05c83fb31"}, {"lon": -76.96629633333333, "lat": 38.942066, "name": "a8917b9eb00d36cf11119271b5669c3a", "fusion_lat": 0.0, "fusion_lon": 0.0, "rental_uris": {"android": "https://dc.lft.to/lastmile_qr_scan", "ios": "https://dc.lft.to/lastmile_qr_scan"}, "is_reserved": 0, "is_disabled": 0, "type": "electric_bike", "bike_id": "a8917b9eb00d36cf11119271b5669c3a"}, {"lon": -77.026559, "lat": 38.9386415, "name": "1d386ee8c7635d78ef5ff0aa42d319bf", "fusion_lat": 0.0, "fusion_lon": 0.0, "rental_uris": {"android": "https://dc.lft.to/lastmile_qr_scan", "ios": "https://dc.lft.to/lastmile_qr_scan"}, "is_reserved": 0, "is_disabled": 0, "type": "electric_scooter", "bike_id": "1d386ee8c7635d78ef5ff0aa42d319bf"}, {"lon": -77.02855483333333, "lat": 38.933502833333336, "name": "e20c3ae736f54ed536030996ec5b77ba", "fusion_lat": 0.0, "fusion_lon": 0.0, "rental_uris": {"android": "https://dc.lft.to/lastmile_qr_scan", "ios": "https://dc.lft.to/lastmile_qr_scan"}, "is_reserved": 0, "is_disabled": 0, "type": "electric_scooter", "bike_id": "e20c3ae736f54ed536030996ec5b77ba"}, {"lon": -77.02202016666666, "lat": 38.8860295, "name": "954105051eec494236e3d96f006abf68", "fusion_lat": 0.0, "fusion_lon": 0.0, "rental_uris": {"android": "https://dc.lft.to/lastmile_qr_scan", "ios": "https://dc.lft.to/lastmile_qr_scan"}, "is_reserved": 0, "is_disabled": 0, "type": "electric_scooter", "bike_id": "954105051eec494236e3d96f006abf68"}, {"lon": -77.09958783333333, "lat": 38.9224935, "name": "7c5978fe71866789025c34fc042a0605", "fusion_lat": 0.0, "fusion_lon": 0.0, "rental_uris": {"android": "https://dc.lft.to/lastmile_qr_scan", "ios": "https://dc.lft.to/lastmile_qr_scan"}, "is_reserved": 0, "is_disabled": 0, "type": "electric_scooter", "bike_id": "7c5978fe71866789025c34fc042a0605"}, {"lon": -77.07840033333333, "lat": 38.926823666666664, "name": "fd54464174afe7d0f2a894b1452fe568", "fusion_lat": 0.0, "fusion_lon": 0.0, "rental_uris": {"android": "https://dc.lft.to/lastmile_qr_scan", "ios": "https://dc.lft.to/lastmile_qr_scan"}, "is_reserved": 0, "is_disabled": 0, "type": "electric_scooter", "bike_id": "fd54464174afe7d0f2a894b1452fe568"}, {"lon": -77.0222635, "lat": 38.887458, "name": "9a74f8ccc281327354b0dac4ef0b9808", "fusion_lat": 0.0, "fusion_lon": 0.0, "rental_uris": {"android": "https://dc.lft.to/lastmile_qr_scan", "ios": "https://dc.lft.to/lastmile_qr_scan"}, "is_reserved": 0, "is_disabled": 0, "type": "electric_scooter", "bike_id": "9a74f8ccc281327354b0dac4ef0b9808"}, {"lon": -76.93757933333333, "lat": 38.890481333333334, "name": "dd38bdb03d7ba9b132a54a7bed7a295d", "fusion_lat": 0.0, "fusion_lon": 0.0, "rental_uris": {"android": "https://dc.lft.to/lastmile_qr_scan", "ios": "https://dc.lft.to/lastmile_qr_scan"}, "is_reserved": 0, "is_disabled": 0, "type": "electric_scooter", "bike_id": "dd38bdb03d7ba9b132a54a7bed7a295d"}, {"lon": -77.02396966666667, "lat": 38.90986183333333, "name": "1d720a6aef2bbfbfd9e81fd95ddcb602", "fusion_lat": 0.0, "fusion_lon": 0.0, "rental_uris": {"android": "https://dc.lft.to/lastmile_qr_scan", "ios": "https://dc.lft.to/lastmile_qr_scan"}, "is_reserved": 0, "is_disabled": 0, "type": "electric_scooter", "bike_id": "1d720a6aef2bbfbfd9e81fd95ddcb602"}, {"lon": -77.04704033333333, "lat": 38.92097033333334, "name": "b340eaaad9d064cdbafcb4deb63285f7", "fusion_lat": 0.0, "fusion_lon": 0.0, "rental_uris": {"android": "https://dc.lft.to/lastmile_qr_scan", "ios": "https://dc.lft.to/lastmile_qr_scan"}, "is_reserved": 0, "is_disabled": 0, "type": "electric_scooter", "bike_id": "b340eaaad9d064cdbafcb4deb63285f7"}, {"lon": -77.04550633333334, "lat": 38.920717833333335, "name": "9635f062f5a4db8926eff67960ded568", "fusion_lat": 0.0, "fusion_lon": 0.0, "rental_uris": {"android": "https://dc.lft.to/lastmile_qr_scan", "ios": "https://dc.lft.to/lastmile_qr_scan"}, "is_reserved": 0, "is_disabled": 0, "type": "electric_scooter", "bike_id": "9635f062f5a4db8926eff67960ded568"}, {"lon": -77.0086885, "lat": 38.827349166666664, "name": "575971cb0f90c8c18685f690f585002a", "fusion_lat": 0.0, "fusion_lon": 0.0, "rental_uris": {"android": "https://dc.lft.to/lastmile_qr_scan", "ios": "https://dc.lft.to/lastmile_qr_scan"}, "is_reserved": 0, "is_disabled": 0, "type": "electric_bike", "bike_id": "575971cb0f90c8c18685f690f585002a"}, {"lon": -77.0248065, "lat": 38.9388275, "name": "060f13e47382032bfd8ad9afeece402c", "fusion_lat": 0.0, "fusion_lon": 0.0, "rental_uris": {"android": "https://dc.lft.to/lastmile_qr_scan", "ios": "https://dc.lft.to/lastmile_qr_scan"}, "is_reserved": 0, "is_disabled": 0, "type": "electric_scooter", "bike_id": "060f13e47382032bfd8ad9afeece402c"}, {"lon": -77.04430116666667, "lat": 38.9005835, "name": "ba5482b4790d166606d1ae9afe03f279", "fusion_lat": 0.0, "fusion_lon": 0.0, "rental_uris": {"android": "https://dc.lft.to/lastmile_qr_scan", "ios": "https://dc.lft.to/lastmile_qr_scan"}, "is_reserved": 0, "is_disabled": 0, "type": "electric_scooter", "bike_id": "ba5482b4790d166606d1ae9afe03f279"}, {"lon": -77.07277916666666, "lat": 38.934894666666665, "name": "7e08ec0ec46b63ab0c7a43b85ec27b2a", "fusion_lat": 0.0, "fusion_lon": 0.0, "rental_uris": {"android": "https://dc.lft.to/lastmile_qr_scan", "ios": "https://dc.lft.to/lastmile_qr_scan"}, "is_reserved": 0, "is_disabled": 0, "type": "electric_scooter", "bike_id": "7e08ec0ec46b63ab0c7a43b85ec27b2a"}, {"lon": -77.05315916666666, "lat": 38.90270183333333, "name": "4c7038c653e0514638e77b5a55c541c8", "fusion_lat": 0.0, "fusion_lon": 0.0, "rental_uris": {"android": "https://dc.lft.to/lastmile_qr_scan", "ios": "https://dc.lft.to/lastmile_qr_scan"}, "is_reserved": 0, "is_disabled": 0, "type": "electric_scooter", "bike_id": "4c7038c653e0514638e77b5a55c541c8"}, {"lon": -77.06167716666667, "lat": 38.943088333333336, "name": "4aabd3055c08238398f9c25269741d0f", "fusion_lat": 0.0, "fusion_lon": 0.0, "rental_uris": {"android": "https://dc.lft.to/lastmile_qr_scan", "ios": "https://dc.lft.to/lastmile_qr_scan"}, "is_reserved": 0, "is_disabled": 0, "type": "electric_scooter", "bike_id": "4aabd3055c08238398f9c25269741d0f"}, {"lon": -77.04497433333333, "lat": 38.90733133333333, "name": "0991dae67ebd650806cff2a14c724a99", "fusion_lat": 0.0, "fusion_lon": 0.0, "rental_uris": {"android": "https://dc.lft.to/lastmile_qr_scan", "ios": "https://dc.lft.to/lastmile_qr_scan"}, "is_reserved": 0, "is_disabled": 0, "type": "electric_scooter", "bike_id": "0991dae67ebd650806cff2a14c724a99"}, {"lon": -76.985669, "lat": 38.855848, "name": "3da132f21fea6cddcdebdefd8b598fd8", "fusion_lat": 0.0, "fusion_lon": 0.0, "rental_uris": {"android": "https://dc.lft.to/lastmile_qr_scan", "ios": "https://dc.lft.to/lastmile_qr_scan"}, "is_reserved": 0, "is_disabled": 0, "type": "electric_scooter", "bike_id": "3da132f21fea6cddcdebdefd8b598fd8"}, {"lon": -77.00371616666666, "lat": 38.88784183333333, "name": "7b575bfaa4a2634e2d30cbbba514adae", "fusion_lat": 0.0, "fusion_lon": 0.0, "rental_uris": {"android": "https://dc.lft.to/lastmile_qr_scan", "ios": "https://dc.lft.to/lastmile_qr_scan"}, "is_reserved": 0, "is_disabled": 0, "type": "electric_scooter", "bike_id": "7b575bfaa4a2634e2d30cbbba514adae"}, {"lon": -77.032118, "lat": 38.91719233333333, "name": "862334e803c8f614dcf075e143f94a77", "fusion_lat": 0.0, "fusion_lon": 0.0, "rental_uris": {"android": "https://dc.lft.to/lastmile_qr_scan", "ios": "https://dc.lft.to/lastmile_qr_scan"}, "is_reserved": 0, "is_disabled": 0, "type": "electric_scooter", "bike_id": "862334e803c8f614dcf075e143f94a77"}, {"lon": -77.05150133333333, "lat": 38.905739, "name": "2e401870bcc12891ace2555826f2ca15", "fusion_lat": 0.0, "fusion_lon": 0.0, "rental_uris": {"android": "https://dc.lft.to/lastmile_qr_scan", "ios": "https://dc.lft.to/lastmile_qr_scan"}, "is_reserved": 0, "is_disabled": 0, "type": "electric_scooter", "bike_id": "2e401870bcc12891ace2555826f2ca15"}, {"lon": -77.0194485, "lat": 38.9241885, "name": "206c01088e9345da8d1ba984502a8cea", "fusion_lat": 0.0, "fusion_lon": 0.0, "rental_uris": {"android": "https://dc.lft.to/lastmile_qr_scan", "ios": "https://dc.lft.to/lastmile_qr_scan"}, "is_reserved": 0, "is_disabled": 0, "type": "electric_scooter", "bike_id": "206c01088e9345da8d1ba984502a8cea"}, {"lon": -77.03459183333334, "lat": 38.90877033333334, "name": "7419fbbef4ee3d7bd66a488887379ca7", "fusion_lat": 0.0, "fusion_lon": 0.0, "rental_uris": {"android": "https://dc.lft.to/lastmile_qr_scan", "ios": "https://dc.lft.to/lastmile_qr_scan"}, "is_reserved": 0, "is_disabled": 0, "type": "electric_scooter", "bike_id": "7419fbbef4ee3d7bd66a488887379ca7"}, {"lon": -77.02604716666667, "lat": 38.9005045, "name": "df7b212a4423732f1f0679171253bc17", "fusion_lat": 0.0, "fusion_lon": 0.0, "rental_uris": {"android": "https://dc.lft.to/lastmile_qr_scan", "ios": "https://dc.lft.to/lastmile_qr_scan"}, "is_reserved": 0, "is_disabled": 0, "type": "electric_scooter", "bike_id": "df7b212a4423732f1f0679171253bc17"}, {"lon": -77.02290783333333, "lat": 38.9164175, "name": "811ea6067897f8d0e826a9f7757969bd", "fusion_lat": 0.0, "fusion_lon": 0.0, "rental_uris": {"android": "https://dc.lft.to/lastmile_qr_scan", "ios": "https://dc.lft.to/lastmile_qr_scan"}, "is_reserved": 0, "is_disabled": 0, "type": "electric_scooter", "bike_id": "811ea6067897f8d0e826a9f7757969bd"}, {"lon": -77.04221383333334, "lat": 38.90736233333333, "name": "aae4887e8485dacb67c059706b5f4697", "fusion_lat": 0.0, "fusion_lon": 0.0, "rental_uris": {"android": "https://dc.lft.to/lastmile_qr_scan", "ios": "https://dc.lft.to/lastmile_qr_scan"}, "is_reserved": 0, "is_disabled": 0, "type": "electric_bike", "bike_id": "aae4887e8485dacb67c059706b5f4697"}, {"lon": -77.0283045, "lat": 38.914176833333336, "name": "a6648fba9ef48218e9acfd9c374b8a80", "fusion_lat": 0.0, "fusion_lon": 0.0, "rental_uris": {"android": "https://dc.lft.to/lastmile_qr_scan", "ios": "https://dc.lft.to/lastmile_qr_scan"}, "is_reserved": 0, "is_disabled": 0, "type": "electric_scooter", "bike_id": "a6648fba9ef48218e9acfd9c374b8a80"}, {"lon": -76.99840183333333, "lat": 38.8391855, "name": "f5ca4700db7b5f4ad7877ff9ffec5812", "fusion_lat": 0.0, "fusion_lon": 0.0, "rental_uris": {"android": "https://dc.lft.to/lastmile_qr_scan", "ios": "https://dc.lft.to/lastmile_qr_scan"}, "is_reserved": 0, "is_disabled": 0, "type": "electric_bike", "bike_id": "f5ca4700db7b5f4ad7877ff9ffec5812"}, {"lon": -77.03480466666667, "lat": 38.91713516666667, "name": "dd283e81b7e96e109fc6ad6bfe2ef47e", "fusion_lat": 0.0, "fusion_lon": 0.0, "rental_uris": {"android": "https://dc.lft.to/lastmile_qr_scan", "ios": "https://dc.lft.to/lastmile_qr_scan"}, "is_reserved": 0, "is_disabled": 0, "type": "electric_scooter", "bike_id": "dd283e81b7e96e109fc6ad6bfe2ef47e"}, {"lon": -77.02573983333333, "lat": 38.887501666666665, "name": "498238ad120f28feee2ec7c5975ac3aa", "fusion_lat": 0.0, "fusion_lon": 0.0, "rental_uris": {"android": "https://dc.lft.to/lastmile_qr_scan", "ios": "https://dc.lft.to/lastmile_qr_scan"}, "is_reserved": 0, "is_disabled": 0, "type": "electric_scooter", "bike_id": "498238ad120f28feee2ec7c5975ac3aa"}, {"lon": -76.935729, "lat": 38.885304833333336, "name": "85ef4c6befa5d988b4c58da207a695d8", "fusion_lat": 0.0, "fusion_lon": 0.0, "rental_uris": {"android": "https://dc.lft.to/lastmile_qr_scan", "ios": "https://dc.lft.to/lastmile_qr_scan"}, "is_reserved": 0, "is_disabled": 0, "type": "electric_bike", "bike_id": "85ef4c6befa5d988b4c58da207a695d8"}, {"lon": -76.980254, "lat": 38.903854833333334, "name": "374dfc3ba9e084b10eb795cca7038026", "fusion_lat": 0.0, "fusion_lon": 0.0, "rental_uris": {"android": "https://dc.lft.to/lastmile_qr_scan", "ios": "https://dc.lft.to/lastmile_qr_scan"}, "is_reserved": 0, "is_disabled": 0, "type": "electric_scooter", "bike_id": "374dfc3ba9e084b10eb795cca7038026"}, {"lon": -77.04320216666666, "lat": 38.9231795, "name": "457419c8de30456be3ee495fa99c3572", "fusion_lat": 0.0, "fusion_lon": 0.0, "rental_uris": {"android": "https://dc.lft.to/lastmile_qr_scan", "ios": "https://dc.lft.to/lastmile_qr_scan"}, "is_reserved": 0, "is_disabled": 0, "type": "electric_bike", "bike_id": "457419c8de30456be3ee495fa99c3572"}, {"lon": -77.00506266666666, "lat": 38.8753415, "name": "2f33db68d48821fe19ca12f6be590b6b", "fusion_lat": 0.0, "fusion_lon": 0.0, "rental_uris": {"android": "https://dc.lft.to/lastmile_qr_scan", "ios": "https://dc.lft.to/lastmile_qr_scan"}, "is_reserved": 0, "is_disabled": 0, "type": "electric_scooter", "bike_id": "2f33db68d48821fe19ca12f6be590b6b"}, {"lon": -77.0321725, "lat": 38.91646433333333, "name": "53facc91f957e9250885b3a5de68425a", "fusion_lat": 0.0, "fusion_lon": 0.0, "rental_uris": {"android": "https://dc.lft.to/lastmile_qr_scan", "ios": "https://dc.lft.to/lastmile_qr_scan"}, "is_reserved": 0, "is_disabled": 0, "type": "electric_scooter", "bike_id": "53facc91f957e9250885b3a5de68425a"}, {"lon": -77.01075466666667, "lat": 38.9626035, "name": "ff799f2b884bb07594e17a9929206bc5", "fusion_lat": 0.0, "fusion_lon": 0.0, "rental_uris": {"android": "https://dc.lft.to/lastmile_qr_scan", "ios": "https://dc.lft.to/lastmile_qr_scan"}, "is_reserved": 0, "is_disabled": 0, "type": "electric_bike", "bike_id": "ff799f2b884bb07594e17a9929206bc5"}, {"lon": -77.03728, "lat": 38.933611166666665, "name": "472bcd35e3f6084ee0fb189a8f3821c3", "fusion_lat": 0.0, "fusion_lon": 0.0, "rental_uris": {"android": "https://dc.lft.to/lastmile_qr_scan", "ios": "https://dc.lft.to/lastmile_qr_scan"}, "is_reserved": 0, "is_disabled": 0, "type": "electric_scooter", "bike_id": "472bcd35e3f6084ee0fb189a8f3821c3"}, {"lon": -77.0178005, "lat": 38.974418666666665, "name": "0eba82dc3315cc75aa7c5496a4816517", "fusion_lat": 0.0, "fusion_lon": 0.0, "rental_uris": {"android": "https://dc.lft.to/lastmile_qr_scan", "ios": "https://dc.lft.to/lastmile_qr_scan"}, "is_reserved": 0, "is_disabled": 0, "type": "electric_bike", "bike_id": "0eba82dc3315cc75aa7c5496a4816517"}, {"lon": -77.00032516666667, "lat": 38.906746166666665, "name": "d9af884745275c825a3362f2e72b8064", "fusion_lat": 0.0, "fusion_lon": 0.0, "rental_uris": {"android": "https://dc.lft.to/lastmile_qr_scan", "ios": "https://dc.lft.to/lastmile_qr_scan"}, "is_reserved": 0, "is_disabled": 0, "type": "electric_scooter", "bike_id": "d9af884745275c825a3362f2e72b8064"}, {"lon": -76.98612466666667, "lat": 38.85461133333333, "name": "54d92c639e8fc3c197c8ac5de5c272dc", "fusion_lat": 0.0, "fusion_lon": 0.0, "rental_uris": {"android": "https://dc.lft.to/lastmile_qr_scan", "ios": "https://dc.lft.to/lastmile_qr_scan"}, "is_reserved": 0, "is_disabled": 0, "type": "electric_scooter", "bike_id": "54d92c639e8fc3c197c8ac5de5c272dc"}, {"lon": -77.051588, "lat": 38.923893666666665, "name": "573be8f9d3d285cb87d44246f566e420", "fusion_lat": 0.0, "fusion_lon": 0.0, "rental_uris": {"android": "https://dc.lft.to/lastmile_qr_scan", "ios": "https://dc.lft.to/lastmile_qr_scan"}, "is_reserved": 0, "is_disabled": 0, "type": "electric_scooter", "bike_id": "573be8f9d3d285cb87d44246f566e420"}, {"lon": -77.00915983333333, "lat": 38.910529, "name": "2b0fd6a817501e072e45690c05d81b0e", "fusion_lat": 0.0, "fusion_lon": 0.0, "rental_uris": {"android": "https://dc.lft.to/lastmile_qr_scan", "ios": "https://dc.lft.to/lastmile_qr_scan"}, "is_reserved": 0, "is_disabled": 0, "type": "electric_scooter", "bike_id": "2b0fd6a817501e072e45690c05d81b0e"}, {"lon": -77.040597, "lat": 38.9176825, "name": "126094ccc8870950f64c1b60337bf563", "fusion_lat": 0.0, "fusion_lon": 0.0, "rental_uris": {"android": "https://dc.lft.to/lastmile_qr_scan", "ios": "https://dc.lft.to/lastmile_qr_scan"}, "is_reserved": 0, "is_disabled": 0, "type": "electric_scooter", "bike_id": "126094ccc8870950f64c1b60337bf563"}, {"lon": -77.0658115, "lat": 38.91239, "name": "1e5c7ca6f69c4db582fbf0a208dc7091", "fusion_lat": 0.0, "fusion_lon": 0.0, "rental_uris": {"android": "https://dc.lft.to/lastmile_qr_scan", "ios": "https://dc.lft.to/lastmile_qr_scan"}, "is_reserved": 0, "is_disabled": 0, "type": "electric_bike", "bike_id": "1e5c7ca6f69c4db582fbf0a208dc7091"}, {"lon": -77.03263533333333, "lat": 38.908652833333335, "name": "1156ccbf69f180e88cebeb68a48017a1", "fusion_lat": 0.0, "fusion_lon": 0.0, "rental_uris": {"android": "https://dc.lft.to/lastmile_qr_scan", "ios": "https://dc.lft.to/lastmile_qr_scan"}, "is_reserved": 0, "is_disabled": 0, "type": "electric_scooter", "bike_id": "1156ccbf69f180e88cebeb68a48017a1"}, {"lon": -77.01203233333334, "lat": 38.91978483333333, "name": "e78ad392e9fbfcc7299f4b08bbadcdb5", "fusion_lat": 0.0, "fusion_lon": 0.0, "rental_uris": {"android": "https://dc.lft.to/lastmile_qr_scan", "ios": "https://dc.lft.to/lastmile_qr_scan"}, "is_reserved": 0, "is_disabled": 0, "type": "electric_scooter", "bike_id": "e78ad392e9fbfcc7299f4b08bbadcdb5"}, {"lon": -76.99936483333333, "lat": 38.896206, "name": "4a2a5126bd3d7b19eec2da2130ab4f63", "fusion_lat": 0.0, "fusion_lon": 0.0, "rental_uris": {"android": "https://dc.lft.to/lastmile_qr_scan", "ios": "https://dc.lft.to/lastmile_qr_scan"}, "is_reserved": 0, "is_disabled": 0, "type": "electric_scooter", "bike_id": "4a2a5126bd3d7b19eec2da2130ab4f63"}, {"lon": -77.0372205, "lat": 38.906267666666665, "name": "71542d2a7a106002e023e3f7457beccf", "fusion_lat": 0.0, "fusion_lon": 0.0, "rental_uris": {"android": "https://dc.lft.to/lastmile_qr_scan", "ios": "https://dc.lft.to/lastmile_qr_scan"}, "is_reserved": 0, "is_disabled": 0, "type": "electric_scooter", "bike_id": "71542d2a7a106002e023e3f7457beccf"}, {"lon": -77.02896383333334, "lat": 38.95840883333334, "name": "bf164f03e741f2e80fe0f87fc0f10d1c", "fusion_lat": 0.0, "fusion_lon": 0.0, "rental_uris": {"android": "https://dc.lft.to/lastmile_qr_scan", "ios": "https://dc.lft.to/lastmile_qr_scan"}, "is_reserved": 0, "is_disabled": 0, "type": "electric_scooter", "bike_id": "bf164f03e741f2e80fe0f87fc0f10d1c"}, {"lon": -77.03605433333334, "lat": 38.95615683333333, "name": "d62e70091751a55b03cce87f288bab70", "fusion_lat": 0.0, "fusion_lon": 0.0, "rental_uris": {"android": "https://dc.lft.to/lastmile_qr_scan", "ios": "https://dc.lft.to/lastmile_qr_scan"}, "is_reserved": 0, "is_disabled": 0, "type": "electric_scooter", "bike_id": "d62e70091751a55b03cce87f288bab70"}, {"lon": -77.04910733333334, "lat": 38.89729783333333, "name": "68b3d02b915d4e5efc16dbd0422a113a", "fusion_lat": 0.0, "fusion_lon": 0.0, "rental_uris": {"android": "https://dc.lft.to/lastmile_qr_scan", "ios": "https://dc.lft.to/lastmile_qr_scan"}, "is_reserved": 0, "is_disabled": 0, "type": "electric_scooter", "bike_id": "68b3d02b915d4e5efc16dbd0422a113a"}, {"lon": -77.0554815, "lat": 38.89970616666667, "name": "cc2728cf59e3e543472ee6a1c4024c56", "fusion_lat": 0.0, "fusion_lon": 0.0, "rental_uris": {"android": "https://dc.lft.to/lastmile_qr_scan", "ios": "https://dc.lft.to/lastmile_qr_scan"}, "is_reserved": 0, "is_disabled": 0, "type": "electric_scooter", "bike_id": "cc2728cf59e3e543472ee6a1c4024c56"}, {"lon": -76.98730916666666, "lat": 38.86717266666667, "name": "f7276d899fa54a951519d5829d694e1c", "fusion_lat": 0.0, "fusion_lon": 0.0, "rental_uris": {"android": "https://dc.lft.to/lastmile_qr_scan", "ios": "https://dc.lft.to/lastmile_qr_scan"}, "is_reserved": 0, "is_disabled": 0, "type": "electric_scooter", "bike_id": "f7276d899fa54a951519d5829d694e1c"}, {"lon": -77.02830933333334, "lat": 38.8923185, "name": "cecb836e7275a3effc79309b257557d6", "fusion_lat": 0.0, "fusion_lon": 0.0, "rental_uris": {"android": "https://dc.lft.to/lastmile_qr_scan", "ios": "https://dc.lft.to/lastmile_qr_scan"}, "is_reserved": 0, "is_disabled": 0, "type": "electric_scooter", "bike_id": "cecb836e7275a3effc79309b257557d6"}, {"lon": -77.0218205, "lat": 38.909883666666666, "name": "1e9bdab54319186772183b858b20e92f", "fusion_lat": 0.0, "fusion_lon": 0.0, "rental_uris": {"android": "https://dc.lft.to/lastmile_qr_scan", "ios": "https://dc.lft.to/lastmile_qr_scan"}, "is_reserved": 0, "is_disabled": 0, "type": "electric_scooter", "bike_id": "1e9bdab54319186772183b858b20e92f"}, {"lon": -76.98035783333333, "lat": 38.889653333333335, "name": "11f521061775be46ef4b6333cef59439", "fusion_lat": 0.0, "fusion_lon": 0.0, "rental_uris": {"android": "https://dc.lft.to/lastmile_qr_scan", "ios": "https://dc.lft.to/lastmile_qr_scan"}, "is_reserved": 0, "is_disabled": 0, "type": "electric_scooter", "bike_id": "11f521061775be46ef4b6333cef59439"}, {"lon": -76.983464, "lat": 38.91538933333333, "name": "f899feaf575b542d39fd4cda9bac52d4", "fusion_lat": 0.0, "fusion_lon": 0.0, "rental_uris": {"android": "https://dc.lft.to/lastmile_qr_scan", "ios": "https://dc.lft.to/lastmile_qr_scan"}, "is_reserved": 0, "is_disabled": 0, "type": "electric_scooter", "bike_id": "f899feaf575b542d39fd4cda9bac52d4"}, {"lon": -77.02125233333334, "lat": 38.923995166666664, "name": "15f5e3e7dfc09525fe2feefd875193ff", "fusion_lat": 0.0, "fusion_lon": 0.0, "rental_uris": {"android": "https://dc.lft.to/lastmile_qr_scan", "ios": "https://dc.lft.to/lastmile_qr_scan"}, "is_reserved": 0, "is_disabled": 0, "type": "electric_scooter", "bike_id": "15f5e3e7dfc09525fe2feefd875193ff"}, {"lon": -77.051323, "lat": 38.9063455, "name": "2e9d59c1453efe0b954945e171ee72c8", "fusion_lat": 0.0, "fusion_lon": 0.0, "rental_uris": {"android": "https://dc.lft.to/lastmile_qr_scan", "ios": "https://dc.lft.to/lastmile_qr_scan"}, "is_reserved": 0, "is_disabled": 0, "type": "electric_scooter", "bike_id": "2e9d59c1453efe0b954945e171ee72c8"}, {"lon": -76.93347833333333, "lat": 38.898992, "name": "8f6d312247d64ee44214592bf13e3355", "fusion_lat": 0.0, "fusion_lon": 0.0, "rental_uris": {"android": "https://dc.lft.to/lastmile_qr_scan", "ios": "https://dc.lft.to/lastmile_qr_scan"}, "is_reserved": 0, "is_disabled": 0, "type": "electric_scooter", "bike_id": "8f6d312247d64ee44214592bf13e3355"}, {"lon": -77.02411783333334, "lat": 38.919087166666664, "name": "6e649600e73db272055e9461d644dd4e", "fusion_lat": 0.0, "fusion_lon": 0.0, "rental_uris": {"android": "https://dc.lft.to/lastmile_qr_scan", "ios": "https://dc.lft.to/lastmile_qr_scan"}, "is_reserved": 0, "is_disabled": 0, "type": "electric_scooter", "bike_id": "6e649600e73db272055e9461d644dd4e"}, {"lon": -77.00304316666667, "lat": 38.9091895, "name": "05d15735cc2f1d340c56e48866b16539", "fusion_lat": 0.0, "fusion_lon": 0.0, "rental_uris": {"android": "https://dc.lft.to/lastmile_qr_scan", "ios": "https://dc.lft.to/lastmile_qr_scan"}, "is_reserved": 0, "is_disabled": 0, "type": "electric_scooter", "bike_id": "05d15735cc2f1d340c56e48866b16539"}, {"lon": -77.060175, "lat": 38.939224333333335, "name": "5655f2c1c7f51a78e6c718684e9fbc69", "fusion_lat": 0.0, "fusion_lon": 0.0, "rental_uris": {"android": "https://dc.lft.to/lastmile_qr_scan", "ios": "https://dc.lft.to/lastmile_qr_scan"}, "is_reserved": 0, "is_disabled": 0, "type": "electric_scooter", "bike_id": "5655f2c1c7f51a78e6c718684e9fbc69"}, {"lon": -76.94857816666666, "lat": 38.88305533333333, "name": "1bec904bab59defee3eb1d2113eacbb8", "fusion_lat": 0.0, "fusion_lon": 0.0, "rental_uris": {"android": "https://dc.lft.to/lastmile_qr_scan", "ios": "https://dc.lft.to/lastmile_qr_scan"}, "is_reserved": 0, "is_disabled": 0, "type": "electric_scooter", "bike_id": "1bec904bab59defee3eb1d2113eacbb8"}, {"lon": -77.03196183333333, "lat": 38.915778833333334, "name": "c069b481b2f564e51a70c2e826077266", "fusion_lat": 0.0, "fusion_lon": 0.0, "rental_uris": {"android": "https://dc.lft.to/lastmile_qr_scan", "ios": "https://dc.lft.to/lastmile_qr_scan"}, "is_reserved": 0, "is_disabled": 0, "type": "electric_scooter", "bike_id": "c069b481b2f564e51a70c2e826077266"}, {"lon": -77.06459166666667, "lat": 38.91047016666667, "name": "8cbdab45fa8df760ec750af0b8965dec", "fusion_lat": 0.0, "fusion_lon": 0.0, "rental_uris": {"android": "https://dc.lft.to/lastmile_qr_scan", "ios": "https://dc.lft.to/lastmile_qr_scan"}, "is_reserved": 0, "is_disabled": 0, "type": "electric_scooter", "bike_id": "8cbdab45fa8df760ec750af0b8965dec"}, {"lon": -77.0239205, "lat": 38.93279533333333, "name": "a72733cbc9c66d20bc62237788f3bf4c", "fusion_lat": 0.0, "fusion_lon": 0.0, "rental_uris": {"android": "https://dc.lft.to/lastmile_qr_scan", "ios": "https://dc.lft.to/lastmile_qr_scan"}, "is_reserved": 0, "is_disabled": 0, "type": "electric_scooter", "bike_id": "a72733cbc9c66d20bc62237788f3bf4c"}, {"lon": -77.03352366666667, "lat": 38.937383833333335, "name": "59e15e2fd7943beb552835a5747e9819", "fusion_lat": 0.0, "fusion_lon": 0.0, "rental_uris": {"android": "https://dc.lft.to/lastmile_qr_scan", "ios": "https://dc.lft.to/lastmile_qr_scan"}, "is_reserved": 0, "is_disabled": 0, "type": "electric_scooter", "bike_id": "59e15e2fd7943beb552835a5747e9819"}, {"lon": -77.0271845, "lat": 38.918201333333336, "name": "24aa948b1350dcb1a746b6ff1c4612a2", "fusion_lat": 0.0, "fusion_lon": 0.0, "rental_uris": {"android": "https://dc.lft.to/lastmile_qr_scan", "ios": "https://dc.lft.to/lastmile_qr_scan"}, "is_reserved": 0, "is_disabled": 0, "type": "electric_scooter", "bike_id": "24aa948b1350dcb1a746b6ff1c4612a2"}, {"lon": -77.013212, "lat": 38.8923805, "name": "fc528b99e118549b110f53e49d78f838", "fusion_lat": 0.0, "fusion_lon": 0.0, "rental_uris": {"android": "https://dc.lft.to/lastmile_qr_scan", "ios": "https://dc.lft.to/lastmile_qr_scan"}, "is_reserved": 0, "is_disabled": 0, "type": "electric_scooter", "bike_id": "fc528b99e118549b110f53e49d78f838"}, {"lon": -77.00226133333334, "lat": 38.900653, "name": "909df9dbc459e25ac908b4b9ffcc3595", "fusion_lat": 0.0, "fusion_lon": 0.0, "rental_uris": {"android": "https://dc.lft.to/lastmile_qr_scan", "ios": "https://dc.lft.to/lastmile_qr_scan"}, "is_reserved": 0, "is_disabled": 0, "type": "electric_scooter", "bike_id": "909df9dbc459e25ac908b4b9ffcc3595"}, {"lon": -76.97596983333334, "lat": 38.903336333333336, "name": "89f69c2c7bb218cfbadc61ca03c89060", "fusion_lat": 0.0, "fusion_lon": 0.0, "rental_uris": {"android": "https://dc.lft.to/lastmile_qr_scan", "ios": "https://dc.lft.to/lastmile_qr_scan"}, "is_reserved": 0, "is_disabled": 0, "type": "electric_scooter", "bike_id": "89f69c2c7bb218cfbadc61ca03c89060"}, {"lon": -77.033651, "lat": 38.902802, "name": "a09ad70b99b3a0d57e0926e900bf1ecb", "fusion_lat": 0.0, "fusion_lon": 0.0, "rental_uris": {"android": "https://dc.lft.to/lastmile_qr_scan", "ios": "https://dc.lft.to/lastmile_qr_scan"}, "is_reserved": 0, "is_disabled": 0, "type": "electric_scooter", "bike_id": "a09ad70b99b3a0d57e0926e900bf1ecb"}, {"lon": -77.0442815, "lat": 38.93153383333333, "name": "cb026f0d1e0217aa23df50d87d39122d", "fusion_lat": 0.0, "fusion_lon": 0.0, "rental_uris": {"android": "https://dc.lft.to/lastmile_qr_scan", "ios": "https://dc.lft.to/lastmile_qr_scan"}, "is_reserved": 0, "is_disabled": 0, "type": "electric_scooter", "bike_id": "cb026f0d1e0217aa23df50d87d39122d"}, {"lon": -77.00335366666667, "lat": 38.893581166666664, "name": "29f3407120e75169ba2ae66448f86454", "fusion_lat": 0.0, "fusion_lon": 0.0, "rental_uris": {"android": "https://dc.lft.to/lastmile_qr_scan", "ios": "https://dc.lft.to/lastmile_qr_scan"}, "is_reserved": 0, "is_disabled": 0, "type": "electric_scooter", "bike_id": "29f3407120e75169ba2ae66448f86454"}, {"lon": -77.04340233333333, "lat": 38.905545000000004, "name": "053a5facf9c392dcd6c2ef0fff42051e", "fusion_lat": 0.0, "fusion_lon": 0.0, "rental_uris": {"android": "https://dc.lft.to/lastmile_qr_scan", "ios": "https://dc.lft.to/lastmile_qr_scan"}, "is_reserved": 0, "is_disabled": 0, "type": "electric_scooter", "bike_id": "053a5facf9c392dcd6c2ef0fff42051e"}, {"lon": -77.02722816666666, "lat": 38.9513455, "name": "ccb2ca56d96c34435aa5eec563552cbf", "fusion_lat": 0.0, "fusion_lon": 0.0, "rental_uris": {"android": "https://dc.lft.to/lastmile_qr_scan", "ios": "https://dc.lft.to/lastmile_qr_scan"}, "is_reserved": 0, "is_disabled": 0, "type": "electric_scooter", "bike_id": "ccb2ca56d96c34435aa5eec563552cbf"}, {"lon": -77.03371966666667, "lat": 38.935922166666664, "name": "123f0174282fe4309c7eea39a4b2463c", "fusion_lat": 0.0, "fusion_lon": 0.0, "rental_uris": {"android": "https://dc.lft.to/lastmile_qr_scan", "ios": "https://dc.lft.to/lastmile_qr_scan"}, "is_reserved": 0, "is_disabled": 0, "type": "electric_scooter", "bike_id": "123f0174282fe4309c7eea39a4b2463c"}, {"lon": -77.04266833333334, "lat": 38.9223875, "name": "3b3e48bd7171083382a490588f0ea20d", "fusion_lat": 0.0, "fusion_lon": 0.0, "rental_uris": {"android": "https://dc.lft.to/lastmile_qr_scan", "ios": "https://dc.lft.to/lastmile_qr_scan"}, "is_reserved": 0, "is_disabled": 0, "type": "electric_scooter", "bike_id": "3b3e48bd7171083382a490588f0ea20d"}, {"lon": -77.025984, "lat": 38.9259835, "name": "6837e015f433eb3ffc451aeb22208e24", "fusion_lat": 0.0, "fusion_lon": 0.0, "rental_uris": {"android": "https://dc.lft.to/lastmile_qr_scan", "ios": "https://dc.lft.to/lastmile_qr_scan"}, "is_reserved": 0, "is_disabled": 0, "type": "electric_scooter", "bike_id": "6837e015f433eb3ffc451aeb22208e24"}, {"lon": -77.0434325, "lat": 38.90377566666667, "name": "29597154fdfe27100a2feff04994e5ee", "fusion_lat": 0.0, "fusion_lon": 0.0, "rental_uris": {"android": "https://dc.lft.to/lastmile_qr_scan", "ios": "https://dc.lft.to/lastmile_qr_scan"}, "is_reserved": 0, "is_disabled": 0, "type": "electric_scooter", "bike_id": "29597154fdfe27100a2feff04994e5ee"}, {"lon": -77.032099, "lat": 38.916511166666666, "name": "ab29a32c4a04d6ee94b3ac4bc6b4cbb7", "fusion_lat": 0.0, "fusion_lon": 0.0, "rental_uris": {"android": "https://dc.lft.to/lastmile_qr_scan", "ios": "https://dc.lft.to/lastmile_qr_scan"}, "is_reserved": 0, "is_disabled": 0, "type": "electric_scooter", "bike_id": "ab29a32c4a04d6ee94b3ac4bc6b4cbb7"}, {"lon": -76.98745933333333, "lat": 38.85791533333333, "name": "72e8bb752ea8b6028d34f30c0ccf254b", "fusion_lat": 0.0, "fusion_lon": 0.0, "rental_uris": {"android": "https://dc.lft.to/lastmile_qr_scan", "ios": "https://dc.lft.to/lastmile_qr_scan"}, "is_reserved": 0, "is_disabled": 0, "type": "electric_bike", "bike_id": "72e8bb752ea8b6028d34f30c0ccf254b"}, {"lon": -77.03180533333334, "lat": 38.9191905, "name": "0dd5246de2ec5bd387f8d26299e6904d", "fusion_lat": 0.0, "fusion_lon": 0.0, "rental_uris": {"android": "https://dc.lft.to/lastmile_qr_scan", "ios": "https://dc.lft.to/lastmile_qr_scan"}, "is_reserved": 0, "is_disabled": 0, "type": "electric_scooter", "bike_id": "0dd5246de2ec5bd387f8d26299e6904d"}, {"lon": -77.03221183333333, "lat": 38.892201166666666, "name": "d847a3ef633f9e5b2ceb5dddae2b6b7a", "fusion_lat": 0.0, "fusion_lon": 0.0, "rental_uris": {"android": "https://dc.lft.to/lastmile_qr_scan", "ios": "https://dc.lft.to/lastmile_qr_scan"}, "is_reserved": 0, "is_disabled": 0, "type": "electric_scooter", "bike_id": "d847a3ef633f9e5b2ceb5dddae2b6b7a"}, {"lon": -77.02387016666667, "lat": 38.92906816666667, "name": "094d917749c15340b0c5e203f62b4d3a", "fusion_lat": 0.0, "fusion_lon": 0.0, "rental_uris": {"android": "https://dc.lft.to/lastmile_qr_scan", "ios": "https://dc.lft.to/lastmile_qr_scan"}, "is_reserved": 0, "is_disabled": 0, "type": "electric_bike", "bike_id": "094d917749c15340b0c5e203f62b4d3a"}, {"lon": -77.02959, "lat": 38.892275, "name": "fc668658adfa142a956681ec74f73c97", "fusion_lat": 0.0, "fusion_lon": 0.0, "rental_uris": {"android": "https://dc.lft.to/lastmile_qr_scan", "ios": "https://dc.lft.to/lastmile_qr_scan"}, "is_reserved": 0, "is_disabled": 0, "type": "electric_scooter", "bike_id": "fc668658adfa142a956681ec74f73c97"}, {"lon": -77.03282183333333, "lat": 38.89876366666667, "name": "8eca25990bddba0d1f650fdb6dd55df3", "fusion_lat": 0.0, "fusion_lon": 0.0, "rental_uris": {"android": "https://dc.lft.to/lastmile_qr_scan", "ios": "https://dc.lft.to/lastmile_qr_scan"}, "is_reserved": 0, "is_disabled": 0, "type": "electric_scooter", "bike_id": "8eca25990bddba0d1f650fdb6dd55df3"}, {"lon": -76.9839565, "lat": 38.92202483333333, "name": "ccea3fb51c6ef505e04570e880bb5c6f", "fusion_lat": 0.0, "fusion_lon": 0.0, "rental_uris": {"android": "https://dc.lft.to/lastmile_qr_scan", "ios": "https://dc.lft.to/lastmile_qr_scan"}, "is_reserved": 0, "is_disabled": 0, "type": "electric_bike", "bike_id": "ccea3fb51c6ef505e04570e880bb5c6f"}, {"lon": -77.12632416666666, "lat": 39.05815466666667, "name": "6d62a6b7da9bd411a6a0ff03bd5589d3", "fusion_lat": 0.0, "fusion_lon": 0.0, "rental_uris": {"android": "https://dc.lft.to/lastmile_qr_scan", "ios": "https://dc.lft.to/lastmile_qr_scan"}, "is_reserved": 0, "is_disabled": 0, "type": "electric_bike", "bike_id": "6d62a6b7da9bd411a6a0ff03bd5589d3"}, {"lon": -76.99830883333334, "lat": 38.8442075, "name": "f5d23356ea702b315216e47b59c47925", "fusion_lat": 0.0, "fusion_lon": 0.0, "rental_uris": {"android": "https://dc.lft.to/lastmile_qr_scan", "ios": "https://dc.lft.to/lastmile_qr_scan"}, "is_reserved": 0, "is_disabled": 0, "type": "electric_scooter", "bike_id": "f5d23356ea702b315216e47b59c47925"}, {"lon": -77.04874033333333, "lat": 38.906511, "name": "aad28451c42d8d8030153795e015a995", "fusion_lat": 0.0, "fusion_lon": 0.0, "rental_uris": {"android": "https://dc.lft.to/lastmile_qr_scan", "ios": "https://dc.lft.to/lastmile_qr_scan"}, "is_reserved": 0, "is_disabled": 0, "type": "electric_scooter", "bike_id": "aad28451c42d8d8030153795e015a995"}, {"lon": -77.03127116666667, "lat": 38.910380833333335, "name": "3e3660c01fb9e5d7f48081c8ec50e5f5", "fusion_lat": 0.0, "fusion_lon": 0.0, "rental_uris": {"android": "https://dc.lft.to/lastmile_qr_scan", "ios": "https://dc.lft.to/lastmile_qr_scan"}, "is_reserved": 0, "is_disabled": 0, "type": "electric_scooter", "bike_id": "3e3660c01fb9e5d7f48081c8ec50e5f5"}, {"lon": -77.022791, "lat": 38.902203666666665, "name": "2fbc87eeb5ac2c67308761d3463ea13b", "fusion_lat": 0.0, "fusion_lon": 0.0, "rental_uris": {"android": "https://dc.lft.to/lastmile_qr_scan", "ios": "https://dc.lft.to/lastmile_qr_scan"}, "is_reserved": 0, "is_disabled": 0, "type": "electric_scooter", "bike_id": "2fbc87eeb5ac2c67308761d3463ea13b"}, {"lon": -77.00920766666667, "lat": 38.909981333333334, "name": "72ba9b289162fc8a6f416272c42a4ecf", "fusion_lat": 0.0, "fusion_lon": 0.0, "rental_uris": {"android": "https://dc.lft.to/lastmile_qr_scan", "ios": "https://dc.lft.to/lastmile_qr_scan"}, "is_reserved": 0, "is_disabled": 0, "type": "electric_scooter", "bike_id": "72ba9b289162fc8a6f416272c42a4ecf"}, {"lon": -76.97985116666666, "lat": 38.87753516666667, "name": "514f35b5aecca8d155a9469ca4a190c7", "fusion_lat": 0.0, "fusion_lon": 0.0, "rental_uris": {"android": "https://dc.lft.to/lastmile_qr_scan", "ios": "https://dc.lft.to/lastmile_qr_scan"}, "is_reserved": 0, "is_disabled": 0, "type": "electric_bike", "bike_id": "514f35b5aecca8d155a9469ca4a190c7"}, {"lon": -77.0359235, "lat": 38.90689966666667, "name": "33cfc3e4f0a2a0d1b588f949cc01aece", "fusion_lat": 0.0, "fusion_lon": 0.0, "rental_uris": {"android": "https://dc.lft.to/lastmile_qr_scan", "ios": "https://dc.lft.to/lastmile_qr_scan"}, "is_reserved": 0, "is_disabled": 0, "type": "electric_scooter", "bike_id": "33cfc3e4f0a2a0d1b588f949cc01aece"}, {"lon": -77.01237033333334, "lat": 38.915513833333335, "name": "5c5ba4f7fd407001245d95b6137203fb", "fusion_lat": 0.0, "fusion_lon": 0.0, "rental_uris": {"android": "https://dc.lft.to/lastmile_qr_scan", "ios": "https://dc.lft.to/lastmile_qr_scan"}, "is_reserved": 0, "is_disabled": 0, "type": "electric_scooter", "bike_id": "5c5ba4f7fd407001245d95b6137203fb"}, {"lon": -77.0187555, "lat": 38.90970883333333, "name": "5c3cd70edd320561af923b1d3dc40572", "fusion_lat": 0.0, "fusion_lon": 0.0, "rental_uris": {"android": "https://dc.lft.to/lastmile_qr_scan", "ios": "https://dc.lft.to/lastmile_qr_scan"}, "is_reserved": 0, "is_disabled": 0, "type": "electric_scooter", "bike_id": "5c3cd70edd320561af923b1d3dc40572"}, {"lon": -76.97743033333333, "lat": 38.90506233333333, "name": "d057477448834ee87871e41b50a7e9a5", "fusion_lat": 0.0, "fusion_lon": 0.0, "rental_uris": {"android": "https://dc.lft.to/lastmile_qr_scan", "ios": "https://dc.lft.to/lastmile_qr_scan"}, "is_reserved": 0, "is_disabled": 0, "type": "electric_scooter", "bike_id": "d057477448834ee87871e41b50a7e9a5"}, {"lon": -77.04335233333333, "lat": 38.9054815, "name": "1eae14aad5007535111aff6a35f9b982", "fusion_lat": 0.0, "fusion_lon": 0.0, "rental_uris": {"android": "https://dc.lft.to/lastmile_qr_scan", "ios": "https://dc.lft.to/lastmile_qr_scan"}, "is_reserved": 0, "is_disabled": 0, "type": "electric_scooter", "bike_id": "1eae14aad5007535111aff6a35f9b982"}, {"lon": -77.0459635, "lat": 38.9022835, "name": "5a186b2522afc6f5ed4b82b3ee132dae", "fusion_lat": 0.0, "fusion_lon": 0.0, "rental_uris": {"android": "https://dc.lft.to/lastmile_qr_scan", "ios": "https://dc.lft.to/lastmile_qr_scan"}, "is_reserved": 0, "is_disabled": 0, "type": "electric_scooter", "bike_id": "5a186b2522afc6f5ed4b82b3ee132dae"}, {"lon": -77.05056966666666, "lat": 38.84403733333333, "name": "511a747a4d9dd5c277cc0c283bf325db", "fusion_lat": 0.0, "fusion_lon": 0.0, "rental_uris": {"android": "https://dc.lft.to/lastmile_qr_scan", "ios": "https://dc.lft.to/lastmile_qr_scan"}, "is_reserved": 0, "is_disabled": 0, "type": "electric_bike", "bike_id": "511a747a4d9dd5c277cc0c283bf325db"}, {"lon": -77.03294183333334, "lat": 38.92220583333334, "name": "6cdf3e2e3e975fb7762633854eee193d", "fusion_lat": 0.0, "fusion_lon": 0.0, "rental_uris": {"android": "https://dc.lft.to/lastmile_qr_scan", "ios": "https://dc.lft.to/lastmile_qr_scan"}, "is_reserved": 0, "is_disabled": 0, "type": "electric_scooter", "bike_id": "6cdf3e2e3e975fb7762633854eee193d"}, {"lon": -77.03792866666667, "lat": 38.905834166666665, "name": "ab591280f767f434297d49513042382f", "fusion_lat": 0.0, "fusion_lon": 0.0, "rental_uris": {"android": "https://dc.lft.to/lastmile_qr_scan", "ios": "https://dc.lft.to/lastmile_qr_scan"}, "is_reserved": 0, "is_disabled": 0, "type": "electric_scooter", "bike_id": "ab591280f767f434297d49513042382f"}, {"lon": -77.02403016666666, "lat": 38.90871766666667, "name": "b2b83c102c5e6432da5d3912395481e1", "fusion_lat": 0.0, "fusion_lon": 0.0, "rental_uris": {"android": "https://dc.lft.to/lastmile_qr_scan", "ios": "https://dc.lft.to/lastmile_qr_scan"}, "is_reserved": 0, "is_disabled": 0, "type": "electric_scooter", "bike_id": "b2b83c102c5e6432da5d3912395481e1"}, {"lon": -76.94784066666666, "lat": 38.894399666666665, "name": "09762533ecf0ec3f1d3974478270a9d3", "fusion_lat": 0.0, "fusion_lon": 0.0, "rental_uris": {"android": "https://dc.lft.to/lastmile_qr_scan", "ios": "https://dc.lft.to/lastmile_qr_scan"}, "is_reserved": 0, "is_disabled": 0, "type": "electric_bike", "bike_id": "09762533ecf0ec3f1d3974478270a9d3"}, {"lon": -77.025278, "lat": 38.94096583333334, "name": "ba160edcb23cee480afeb881b3c9b0e2", "fusion_lat": 0.0, "fusion_lon": 0.0, "rental_uris": {"android": "https://dc.lft.to/lastmile_qr_scan", "ios": "https://dc.lft.to/lastmile_qr_scan"}, "is_reserved": 0, "is_disabled": 0, "type": "electric_scooter", "bike_id": "ba160edcb23cee480afeb881b3c9b0e2"}, {"lon": -77.03134016666667, "lat": 38.91565683333334, "name": "ed5829816c6ac8b6a88f678b07be8bdd", "fusion_lat": 0.0, "fusion_lon": 0.0, "rental_uris": {"android": "https://dc.lft.to/lastmile_qr_scan", "ios": "https://dc.lft.to/lastmile_qr_scan"}, "is_reserved": 0, "is_disabled": 0, "type": "electric_scooter", "bike_id": "ed5829816c6ac8b6a88f678b07be8bdd"}, {"lon": -77.02819333333333, "lat": 38.93278016666667, "name": "0eba03f6e6da0db408da8855d1ca3fe1", "fusion_lat": 0.0, "fusion_lon": 0.0, "rental_uris": {"android": "https://dc.lft.to/lastmile_qr_scan", "ios": "https://dc.lft.to/lastmile_qr_scan"}, "is_reserved": 0, "is_disabled": 0, "type": "electric_scooter", "bike_id": "0eba03f6e6da0db408da8855d1ca3fe1"}, {"lon": -77.36086216666666, "lat": 38.93962283333333, "name": "16252c3b80a8e0298feadad531ffe344", "fusion_lat": 0.0, "fusion_lon": 0.0, "rental_uris": {"android": "https://dc.lft.to/lastmile_qr_scan", "ios": "https://dc.lft.to/lastmile_qr_scan"}, "is_reserved": 0, "is_disabled": 0, "type": "electric_bike", "bike_id": "16252c3b80a8e0298feadad531ffe344"}, {"lon": -77.029786, "lat": 38.916796166666664, "name": "8b000d410e8941bd450b8f7e566db72f", "fusion_lat": 0.0, "fusion_lon": 0.0, "rental_uris": {"android": "https://dc.lft.to/lastmile_qr_scan", "ios": "https://dc.lft.to/lastmile_qr_scan"}, "is_reserved": 0, "is_disabled": 0, "type": "electric_scooter", "bike_id": "8b000d410e8941bd450b8f7e566db72f"}, {"lon": -76.874977, "lat": 38.9909085, "name": "4f1328ee88cc150d95b2e76dc199fd25", "fusion_lat": 0.0, "fusion_lon": 0.0, "rental_uris": {"android": "https://dc.lft.to/lastmile_qr_scan", "ios": "https://dc.lft.to/lastmile_qr_scan"}, "is_reserved": 0, "is_disabled": 0, "type": "electric_bike", "bike_id": "4f1328ee88cc150d95b2e76dc199fd25"}, {"lon": -77.0019555, "lat": 38.900427666666666, "name": "10cb158691be2ca39391799b02110a02", "fusion_lat": 0.0, "fusion_lon": 0.0, "rental_uris": {"android": "https://dc.lft.to/lastmile_qr_scan", "ios": "https://dc.lft.to/lastmile_qr_scan"}, "is_reserved": 0, "is_disabled": 0, "type": "electric_scooter", "bike_id": "10cb158691be2ca39391799b02110a02"}, {"lon": -77.11216483333334, "lat": 38.828743, "name": "993ddd6aef873b48fa480ac1074aadca", "fusion_lat": 0.0, "fusion_lon": 0.0, "rental_uris": {"android": "https://dc.lft.to/lastmile_qr_scan", "ios": "https://dc.lft.to/lastmile_qr_scan"}, "is_reserved": 0, "is_disabled": 0, "type": "electric_bike", "bike_id": "993ddd6aef873b48fa480ac1074aadca"}, {"lon": -77.04387466666667, "lat": 38.907258666666664, "name": "0be638cd229fc1d79a04db2ab6bf3400", "fusion_lat": 0.0, "fusion_lon": 0.0, "rental_uris": {"android": "https://dc.lft.to/lastmile_qr_scan", "ios": "https://dc.lft.to/lastmile_qr_scan"}, "is_reserved": 0, "is_disabled": 0, "type": "electric_scooter", "bike_id": "0be638cd229fc1d79a04db2ab6bf3400"}, {"lon": -76.93161816666667, "lat": 38.898779166666664, "name": "b59f37817c8b976c64b2ecbc302cdf32", "fusion_lat": 0.0, "fusion_lon": 0.0, "rental_uris": {"android": "https://dc.lft.to/lastmile_qr_scan", "ios": "https://dc.lft.to/lastmile_qr_scan"}, "is_reserved": 0, "is_disabled": 0, "type": "electric_scooter", "bike_id": "b59f37817c8b976c64b2ecbc302cdf32"}, {"lon": -77.01821933333333, "lat": 38.90255033333333, "name": "bc2d8ad6a7e585922e767b0ce535c645", "fusion_lat": 0.0, "fusion_lon": 0.0, "rental_uris": {"android": "https://dc.lft.to/lastmile_qr_scan", "ios": "https://dc.lft.to/lastmile_qr_scan"}, "is_reserved": 0, "is_disabled": 0, "type": "electric_scooter", "bike_id": "bc2d8ad6a7e585922e767b0ce535c645"}, {"lon": -77.02699716666666, "lat": 38.91634666666667, "name": "f4363d29b093dcf964b4cb3d182f6ba8", "fusion_lat": 0.0, "fusion_lon": 0.0, "rental_uris": {"android": "https://dc.lft.to/lastmile_qr_scan", "ios": "https://dc.lft.to/lastmile_qr_scan"}, "is_reserved": 0, "is_disabled": 0, "type": "electric_scooter", "bike_id": "f4363d29b093dcf964b4cb3d182f6ba8"}, {"lon": -77.03133716666666, "lat": 38.915664666666665, "name": "f8510416db8cd793278dfdc8ff384d15", "fusion_lat": 0.0, "fusion_lon": 0.0, "rental_uris": {"android": "https://dc.lft.to/lastmile_qr_scan", "ios": "https://dc.lft.to/lastmile_qr_scan"}, "is_reserved": 0, "is_disabled": 0, "type": "electric_scooter", "bike_id": "f8510416db8cd793278dfdc8ff384d15"}, {"lon": -77.05753, "lat": 38.904949333333334, "name": "745533e7a2e7e75f67c522dd3771bcab", "fusion_lat": 0.0, "fusion_lon": 0.0, "rental_uris": {"android": "https://dc.lft.to/lastmile_qr_scan", "ios": "https://dc.lft.to/lastmile_qr_scan"}, "is_reserved": 0, "is_disabled": 0, "type": "electric_scooter", "bike_id": "745533e7a2e7e75f67c522dd3771bcab"}, {"lon": -76.990646, "lat": 38.9266125, "name": "77f84f0553ee1097283bbeeb9cf78e57", "fusion_lat": 0.0, "fusion_lon": 0.0, "rental_uris": {"android": "https://dc.lft.to/lastmile_qr_scan", "ios": "https://dc.lft.to/lastmile_qr_scan"}, "is_reserved": 0, "is_disabled": 0, "type": "electric_scooter", "bike_id": "77f84f0553ee1097283bbeeb9cf78e57"}, {"lon": -77.046778, "lat": 38.9074125, "name": "f1d7ea3615bec4cc27348463a9721274", "fusion_lat": 0.0, "fusion_lon": 0.0, "rental_uris": {"android": "https://dc.lft.to/lastmile_qr_scan", "ios": "https://dc.lft.to/lastmile_qr_scan"}, "is_reserved": 0, "is_disabled": 0, "type": "electric_scooter", "bike_id": "f1d7ea3615bec4cc27348463a9721274"}, {"lon": -77.04167966666667, "lat": 38.916090833333335, "name": "54be2080e605545514e7fc0bdd4a0f26", "fusion_lat": 0.0, "fusion_lon": 0.0, "rental_uris": {"android": "https://dc.lft.to/lastmile_qr_scan", "ios": "https://dc.lft.to/lastmile_qr_scan"}, "is_reserved": 0, "is_disabled": 0, "type": "electric_scooter", "bike_id": "54be2080e605545514e7fc0bdd4a0f26"}, {"lon": -76.97956733333334, "lat": 38.90379, "name": "8c3453af23a4e662140566fa1d56f690", "fusion_lat": 0.0, "fusion_lon": 0.0, "rental_uris": {"android": "https://dc.lft.to/lastmile_qr_scan", "ios": "https://dc.lft.to/lastmile_qr_scan"}, "is_reserved": 0, "is_disabled": 0, "type": "electric_scooter", "bike_id": "8c3453af23a4e662140566fa1d56f690"}, {"lon": -77.0328015, "lat": 38.910279, "name": "da5964e67ad8fa2e4f37d40dd7496f3f", "fusion_lat": 0.0, "fusion_lon": 0.0, "rental_uris": {"android": "https://dc.lft.to/lastmile_qr_scan", "ios": "https://dc.lft.to/lastmile_qr_scan"}, "is_reserved": 0, "is_disabled": 0, "type": "electric_scooter", "bike_id": "da5964e67ad8fa2e4f37d40dd7496f3f"}, {"lon": -77.028541, "lat": 38.9650795, "name": "239826f39eeefcec9b05815ea022256c", "fusion_lat": 0.0, "fusion_lon": 0.0, "rental_uris": {"android": "https://dc.lft.to/lastmile_qr_scan", "ios": "https://dc.lft.to/lastmile_qr_scan"}, "is_reserved": 0, "is_disabled": 0, "type": "electric_scooter", "bike_id": "239826f39eeefcec9b05815ea022256c"}, {"lon": -77.0328655, "lat": 38.9398805, "name": "68605f5a53be48f10821e0b1cbc02db9", "fusion_lat": 0.0, "fusion_lon": 0.0, "rental_uris": {"android": "https://dc.lft.to/lastmile_qr_scan", "ios": "https://dc.lft.to/lastmile_qr_scan"}, "is_reserved": 0, "is_disabled": 0, "type": "electric_scooter", "bike_id": "68605f5a53be48f10821e0b1cbc02db9"}, {"lon": -76.98678233333334, "lat": 38.88215816666667, "name": "191fe3e927066cc26f27b3fac734fea2", "fusion_lat": 0.0, "fusion_lon": 0.0, "rental_uris": {"android": "https://dc.lft.to/lastmile_qr_scan", "ios": "https://dc.lft.to/lastmile_qr_scan"}, "is_reserved": 0, "is_disabled": 0, "type": "electric_scooter", "bike_id": "191fe3e927066cc26f27b3fac734fea2"}, {"lon": -77.05139516666667, "lat": 38.90818016666667, "name": "f8bc122a0eeeb11989d2a440aee92ede", "fusion_lat": 0.0, "fusion_lon": 0.0, "rental_uris": {"android": "https://dc.lft.to/lastmile_qr_scan", "ios": "https://dc.lft.to/lastmile_qr_scan"}, "is_reserved": 0, "is_disabled": 0, "type": "electric_scooter", "bike_id": "f8bc122a0eeeb11989d2a440aee92ede"}, {"lon": -76.98360383333333, "lat": 38.915053666666665, "name": "5fe718d6a570fc5d842b168b638dab1d", "fusion_lat": 0.0, "fusion_lon": 0.0, "rental_uris": {"android": "https://dc.lft.to/lastmile_qr_scan", "ios": "https://dc.lft.to/lastmile_qr_scan"}, "is_reserved": 0, "is_disabled": 0, "type": "electric_scooter", "bike_id": "5fe718d6a570fc5d842b168b638dab1d"}, {"lon": -76.994209, "lat": 38.901432666666665, "name": "9522a71ee90d00a2ee2ff4bf55425676", "fusion_lat": 0.0, "fusion_lon": 0.0, "rental_uris": {"android": "https://dc.lft.to/lastmile_qr_scan", "ios": "https://dc.lft.to/lastmile_qr_scan"}, "is_reserved": 0, "is_disabled": 0, "type": "electric_scooter", "bike_id": "9522a71ee90d00a2ee2ff4bf55425676"}, {"lon": -77.00507466666667, "lat": 38.875337, "name": "331adf4183ddb0c817cde15e0f7251c2", "fusion_lat": 0.0, "fusion_lon": 0.0, "rental_uris": {"android": "https://dc.lft.to/lastmile_qr_scan", "ios": "https://dc.lft.to/lastmile_qr_scan"}, "is_reserved": 0, "is_disabled": 0, "type": "electric_scooter", "bike_id": "331adf4183ddb0c817cde15e0f7251c2"}, {"lon": -76.93437466666667, "lat": 38.89966233333333, "name": "06bcfc427312f29a04c775e081260e97", "fusion_lat": 0.0, "fusion_lon": 0.0, "rental_uris": {"android": "https://dc.lft.to/lastmile_qr_scan", "ios": "https://dc.lft.to/lastmile_qr_scan"}, "is_reserved": 0, "is_disabled": 0, "type": "electric_scooter", "bike_id": "06bcfc427312f29a04c775e081260e97"}, {"lon": -77.02405116666667, "lat": 38.9349235, "name": "1908dd0a17e8b4d6f6f31ff54836671c", "fusion_lat": 0.0, "fusion_lon": 0.0, "rental_uris": {"android": "https://dc.lft.to/lastmile_qr_scan", "ios": "https://dc.lft.to/lastmile_qr_scan"}, "is_reserved": 0, "is_disabled": 0, "type": "electric_scooter", "bike_id": "1908dd0a17e8b4d6f6f31ff54836671c"}, {"lon": -77.00335966666667, "lat": 38.89354383333333, "name": "a4dffb8c79fbbd6c6ba38448859870e9", "fusion_lat": 0.0, "fusion_lon": 0.0, "rental_uris": {"android": "https://dc.lft.to/lastmile_qr_scan", "ios": "https://dc.lft.to/lastmile_qr_scan"}, "is_reserved": 0, "is_disabled": 0, "type": "electric_scooter", "bike_id": "a4dffb8c79fbbd6c6ba38448859870e9"}, {"lon": -76.992847, "lat": 38.89990183333333, "name": "a82cf46e2509fdf6a3089faa8bfb8fd1", "fusion_lat": 0.0, "fusion_lon": 0.0, "rental_uris": {"android": "https://dc.lft.to/lastmile_qr_scan", "ios": "https://dc.lft.to/lastmile_qr_scan"}, "is_reserved": 0, "is_disabled": 0, "type": "electric_scooter", "bike_id": "a82cf46e2509fdf6a3089faa8bfb8fd1"}, {"lon": -77.01208716666666, "lat": 38.91251783333333, "name": "b3b668c83ed276420c7568a8798bcc0c", "fusion_lat": 0.0, "fusion_lon": 0.0, "rental_uris": {"android": "https://dc.lft.to/lastmile_qr_scan", "ios": "https://dc.lft.to/lastmile_qr_scan"}, "is_reserved": 0, "is_disabled": 0, "type": "electric_scooter", "bike_id": "b3b668c83ed276420c7568a8798bcc0c"}, {"lon": -76.99000733333334, "lat": 38.865057666666665, "name": "e8e3a2bc4cc4a46cf889c591dba1e9ae", "fusion_lat": 0.0, "fusion_lon": 0.0, "rental_uris": {"android": "https://dc.lft.to/lastmile_qr_scan", "ios": "https://dc.lft.to/lastmile_qr_scan"}, "is_reserved": 0, "is_disabled": 0, "type": "electric_scooter", "bike_id": "e8e3a2bc4cc4a46cf889c591dba1e9ae"}, {"lon": -77.02781533333334, "lat": 38.918205666666665, "name": "853272b26e7f6bb77c6efde72cf02c10", "fusion_lat": 0.0, "fusion_lon": 0.0, "rental_uris": {"android": "https://dc.lft.to/lastmile_qr_scan", "ios": "https://dc.lft.to/lastmile_qr_scan"}, "is_reserved": 0, "is_disabled": 0, "type": "electric_scooter", "bike_id": "853272b26e7f6bb77c6efde72cf02c10"}, {"lon": -77.114245, "lat": 38.84293, "name": "257ecd3260144a2a59a75f4326682db0", "fusion_lat": 0.0, "fusion_lon": 0.0, "rental_uris": {"android": "https://dc.lft.to/lastmile_qr_scan", "ios": "https://dc.lft.to/lastmile_qr_scan"}, "is_reserved": 0, "is_disabled": 0, "type": "electric_bike", "bike_id": "257ecd3260144a2a59a75f4326682db0"}, {"lon": -77.0297815, "lat": 38.895732333333335, "name": "66dd83be859dc5507592e82ad8583b87", "fusion_lat": 0.0, "fusion_lon": 0.0, "rental_uris": {"android": "https://dc.lft.to/lastmile_qr_scan", "ios": "https://dc.lft.to/lastmile_qr_scan"}, "is_reserved": 0, "is_disabled": 0, "type": "electric_scooter", "bike_id": "66dd83be859dc5507592e82ad8583b87"}, {"lon": -77.01357066666667, "lat": 38.91413933333333, "name": "b3e0432906f51eb4686ca573cf1dfad7", "fusion_lat": 0.0, "fusion_lon": 0.0, "rental_uris": {"android": "https://dc.lft.to/lastmile_qr_scan", "ios": "https://dc.lft.to/lastmile_qr_scan"}, "is_reserved": 0, "is_disabled": 0, "type": "electric_scooter", "bike_id": "b3e0432906f51eb4686ca573cf1dfad7"}, {"lon": -77.02196733333334, "lat": 38.91887116666667, "name": "6651825b87f5b3e55dd56dc6ad2b5067", "fusion_lat": 0.0, "fusion_lon": 0.0, "rental_uris": {"android": "https://dc.lft.to/lastmile_qr_scan", "ios": "https://dc.lft.to/lastmile_qr_scan"}, "is_reserved": 0, "is_disabled": 0, "type": "electric_scooter", "bike_id": "6651825b87f5b3e55dd56dc6ad2b5067"}, {"lon": -77.05089683333334, "lat": 38.813386666666666, "name": "701ce251a75a726e8da027ac77d42727", "fusion_lat": 0.0, "fusion_lon": 0.0, "rental_uris": {"android": "https://dc.lft.to/lastmile_qr_scan", "ios": "https://dc.lft.to/lastmile_qr_scan"}, "is_reserved": 0, "is_disabled": 0, "type": "electric_bike", "bike_id": "701ce251a75a726e8da027ac77d42727"}, {"lon": -77.00859766666666, "lat": 38.86946483333333, "name": "f65329021a688cd9aa21c8e92e4b12e7", "fusion_lat": 0.0, "fusion_lon": 0.0, "rental_uris": {"android": "https://dc.lft.to/lastmile_qr_scan", "ios": "https://dc.lft.to/lastmile_qr_scan"}, "is_reserved": 0, "is_disabled": 0, "type": "electric_scooter", "bike_id": "f65329021a688cd9aa21c8e92e4b12e7"}, {"lon": -77.0009895, "lat": 38.87375483333334, "name": "e5953546c404747efcddfc28b7bb7755", "fusion_lat": 0.0, "fusion_lon": 0.0, "rental_uris": {"android": "https://dc.lft.to/lastmile_qr_scan", "ios": "https://dc.lft.to/lastmile_qr_scan"}, "is_reserved": 0, "is_disabled": 0, "type": "electric_scooter", "bike_id": "e5953546c404747efcddfc28b7bb7755"}, {"lon": -77.0478245, "lat": 38.9052275, "name": "1e92e2de0da250e83751da9717442aec", "fusion_lat": 0.0, "fusion_lon": 0.0, "rental_uris": {"android": "https://dc.lft.to/lastmile_qr_scan", "ios": "https://dc.lft.to/lastmile_qr_scan"}, "is_reserved": 0, "is_disabled": 0, "type": "electric_scooter", "bike_id": "1e92e2de0da250e83751da9717442aec"}, {"lon": -77.03704016666667, "lat": 38.9166305, "name": "5cf0adeb61c8cd2d5dbd5f036dcf2d28", "fusion_lat": 0.0, "fusion_lon": 0.0, "rental_uris": {"android": "https://dc.lft.to/lastmile_qr_scan", "ios": "https://dc.lft.to/lastmile_qr_scan"}, "is_reserved": 0, "is_disabled": 0, "type": "electric_scooter", "bike_id": "5cf0adeb61c8cd2d5dbd5f036dcf2d28"}, {"lon": -77.0790595, "lat": 38.839372166666664, "name": "a57cf2ac06258c79e25e064d3ce45fd3", "fusion_lat": 0.0, "fusion_lon": 0.0, "rental_uris": {"android": "https://dc.lft.to/lastmile_qr_scan", "ios": "https://dc.lft.to/lastmile_qr_scan"}, "is_reserved": 0, "is_disabled": 0, "type": "electric_bike", "bike_id": "a57cf2ac06258c79e25e064d3ce45fd3"}, {"lon": -77.02899016666667, "lat": 38.884229500000004, "name": "4c06b5f1613a78ab09fbc33674a74403", "fusion_lat": 0.0, "fusion_lon": 0.0, "rental_uris": {"android": "https://dc.lft.to/lastmile_qr_scan", "ios": "https://dc.lft.to/lastmile_qr_scan"}, "is_reserved": 0, "is_disabled": 0, "type": "electric_scooter", "bike_id": "4c06b5f1613a78ab09fbc33674a74403"}, {"lon": -77.01532983333334, "lat": 38.88737116666667, "name": "f09fbcbcd50dd1350aaebceb3c0b359f", "fusion_lat": 0.0, "fusion_lon": 0.0, "rental_uris": {"android": "https://dc.lft.to/lastmile_qr_scan", "ios": "https://dc.lft.to/lastmile_qr_scan"}, "is_reserved": 0, "is_disabled": 0, "type": "electric_scooter", "bike_id": "f09fbcbcd50dd1350aaebceb3c0b359f"}, {"lon": -77.00520366666667, "lat": 38.928874, "name": "251fd4dec1bd9b0a34fa525739decb68", "fusion_lat": 0.0, "fusion_lon": 0.0, "rental_uris": {"android": "https://dc.lft.to/lastmile_qr_scan", "ios": "https://dc.lft.to/lastmile_qr_scan"}, "is_reserved": 0, "is_disabled": 0, "type": "electric_scooter", "bike_id": "251fd4dec1bd9b0a34fa525739decb68"}, {"lon": -76.99621616666667, "lat": 38.90036166666667, "name": "ec2800929d7b166726e83cc794833a3b", "fusion_lat": 0.0, "fusion_lon": 0.0, "rental_uris": {"android": "https://dc.lft.to/lastmile_qr_scan", "ios": "https://dc.lft.to/lastmile_qr_scan"}, "is_reserved": 0, "is_disabled": 0, "type": "electric_scooter", "bike_id": "ec2800929d7b166726e83cc794833a3b"}, {"lon": -77.00497866666667, "lat": 38.89690366666667, "name": "bf480cb8059a67d357d2ca36c242a452", "fusion_lat": 0.0, "fusion_lon": 0.0, "rental_uris": {"android": "https://dc.lft.to/lastmile_qr_scan", "ios": "https://dc.lft.to/lastmile_qr_scan"}, "is_reserved": 0, "is_disabled": 0, "type": "electric_scooter", "bike_id": "bf480cb8059a67d357d2ca36c242a452"}, {"lon": -77.03877133333333, "lat": 38.908127666666665, "name": "557018d3553e3dbaadc57808b7a5c239", "fusion_lat": 0.0, "fusion_lon": 0.0, "rental_uris": {"android": "https://dc.lft.to/lastmile_qr_scan", "ios": "https://dc.lft.to/lastmile_qr_scan"}, "is_reserved": 0, "is_disabled": 0, "type": "electric_scooter", "bike_id": "557018d3553e3dbaadc57808b7a5c239"}, {"lon": -77.00758883333333, "lat": 38.926751833333334, "name": "2bb9bb891f3bdc421db27e00831ddfc8", "fusion_lat": 0.0, "fusion_lon": 0.0, "rental_uris": {"android": "https://dc.lft.to/lastmile_qr_scan", "ios": "https://dc.lft.to/lastmile_qr_scan"}, "is_reserved": 0, "is_disabled": 0, "type": "electric_scooter", "bike_id": "2bb9bb891f3bdc421db27e00831ddfc8"}, {"lon": -77.0239125, "lat": 38.90988183333333, "name": "24eda5665a8377a8b151e560ad0f0927", "fusion_lat": 0.0, "fusion_lon": 0.0, "rental_uris": {"android": "https://dc.lft.to/lastmile_qr_scan", "ios": "https://dc.lft.to/lastmile_qr_scan"}, "is_reserved": 0, "is_disabled": 0, "type": "electric_scooter", "bike_id": "24eda5665a8377a8b151e560ad0f0927"}, {"lon": -77.03795733333334, "lat": 38.92581366666667, "name": "7c64fbeec61e0cafded0791de7923789", "fusion_lat": 0.0, "fusion_lon": 0.0, "rental_uris": {"android": "https://dc.lft.to/lastmile_qr_scan", "ios": "https://dc.lft.to/lastmile_qr_scan"}, "is_reserved": 0, "is_disabled": 0, "type": "electric_scooter", "bike_id": "7c64fbeec61e0cafded0791de7923789"}, {"lon": -77.0234505, "lat": 38.9621175, "name": "ebc0ce8bcd1b1211c58d982d122abf8f", "fusion_lat": 0.0, "fusion_lon": 0.0, "rental_uris": {"android": "https://dc.lft.to/lastmile_qr_scan", "ios": "https://dc.lft.to/lastmile_qr_scan"}, "is_reserved": 0, "is_disabled": 0, "type": "electric_scooter", "bike_id": "ebc0ce8bcd1b1211c58d982d122abf8f"}, {"lon": -76.995457, "lat": 38.884213, "name": "0aabddb5750a0c7584aa47ccbd694bef", "fusion_lat": 0.0, "fusion_lon": 0.0, "rental_uris": {"android": "https://dc.lft.to/lastmile_qr_scan", "ios": "https://dc.lft.to/lastmile_qr_scan"}, "is_reserved": 0, "is_disabled": 0, "type": "electric_scooter", "bike_id": "0aabddb5750a0c7584aa47ccbd694bef"}, {"lon": -77.0229235, "lat": 38.915713, "name": "4e10f960797430b4da8d6d337a459a5e", "fusion_lat": 0.0, "fusion_lon": 0.0, "rental_uris": {"android": "https://dc.lft.to/lastmile_qr_scan", "ios": "https://dc.lft.to/lastmile_qr_scan"}, "is_reserved": 0, "is_disabled": 0, "type": "electric_scooter", "bike_id": "4e10f960797430b4da8d6d337a459a5e"}, {"lon": -77.00050466666667, "lat": 38.907105, "name": "769d1c4c45fc93e05e645dc066a96b11", "fusion_lat": 0.0, "fusion_lon": 0.0, "rental_uris": {"android": "https://dc.lft.to/lastmile_qr_scan", "ios": "https://dc.lft.to/lastmile_qr_scan"}, "is_reserved": 0, "is_disabled": 0, "type": "electric_scooter", "bike_id": "769d1c4c45fc93e05e645dc066a96b11"}, {"lon": -77.05731833333333, "lat": 38.93366566666667, "name": "4163af698c2cedcd830b35fea8da93c8", "fusion_lat": 0.0, "fusion_lon": 0.0, "rental_uris": {"android": "https://dc.lft.to/lastmile_qr_scan", "ios": "https://dc.lft.to/lastmile_qr_scan"}, "is_reserved": 0, "is_disabled": 0, "type": "electric_scooter", "bike_id": "4163af698c2cedcd830b35fea8da93c8"}, {"lon": -77.13231833333333, "lat": 38.869747, "name": "9201796be259db1d91df4a001ce9062b", "fusion_lat": 0.0, "fusion_lon": 0.0, "rental_uris": {"android": "https://dc.lft.to/lastmile_qr_scan", "ios": "https://dc.lft.to/lastmile_qr_scan"}, "is_reserved": 0, "is_disabled": 0, "type": "electric_bike", "bike_id": "9201796be259db1d91df4a001ce9062b"}, {"lon": -77.01886966666666, "lat": 38.9120305, "name": "2645ba01323dabc3fbec9edc8867565d", "fusion_lat": 0.0, "fusion_lon": 0.0, "rental_uris": {"android": "https://dc.lft.to/lastmile_qr_scan", "ios": "https://dc.lft.to/lastmile_qr_scan"}, "is_reserved": 0, "is_disabled": 0, "type": "electric_scooter", "bike_id": "2645ba01323dabc3fbec9edc8867565d"}, {"lon": -77.00279583333334, "lat": 38.905606166666665, "name": "fcca8a387ae4d22a7a1ba70ad8086490", "fusion_lat": 0.0, "fusion_lon": 0.0, "rental_uris": {"android": "https://dc.lft.to/lastmile_qr_scan", "ios": "https://dc.lft.to/lastmile_qr_scan"}, "is_reserved": 0, "is_disabled": 0, "type": "electric_scooter", "bike_id": "fcca8a387ae4d22a7a1ba70ad8086490"}, {"lon": -77.03658183333333, "lat": 38.922826, "name": "20b3bb1ed639c21ff587aaeaf918b939", "fusion_lat": 0.0, "fusion_lon": 0.0, "rental_uris": {"android": "https://dc.lft.to/lastmile_qr_scan", "ios": "https://dc.lft.to/lastmile_qr_scan"}, "is_reserved": 0, "is_disabled": 0, "type": "electric_scooter", "bike_id": "20b3bb1ed639c21ff587aaeaf918b939"}, {"lon": -77.0274285, "lat": 38.928554, "name": "41931ce33ab6c6ee60e7994c077e0046", "fusion_lat": 0.0, "fusion_lon": 0.0, "rental_uris": {"android": "https://dc.lft.to/lastmile_qr_scan", "ios": "https://dc.lft.to/lastmile_qr_scan"}, "is_reserved": 0, "is_disabled": 0, "type": "electric_scooter", "bike_id": "41931ce33ab6c6ee60e7994c077e0046"}, {"lon": -77.04354183333334, "lat": 38.89670683333333, "name": "2a039c4b4cf54bef0e460c494e7045fd", "fusion_lat": 0.0, "fusion_lon": 0.0, "rental_uris": {"android": "https://dc.lft.to/lastmile_qr_scan", "ios": "https://dc.lft.to/lastmile_qr_scan"}, "is_reserved": 0, "is_disabled": 0, "type": "electric_scooter", "bike_id": "2a039c4b4cf54bef0e460c494e7045fd"}, {"lon": -77.03655216666667, "lat": 38.936031, "name": "9bf58fedd128fc15ac97f04252c137f8", "fusion_lat": 0.0, "fusion_lon": 0.0, "rental_uris": {"android": "https://dc.lft.to/lastmile_qr_scan", "ios": "https://dc.lft.to/lastmile_qr_scan"}, "is_reserved": 0, "is_disabled": 0, "type": "electric_scooter", "bike_id": "9bf58fedd128fc15ac97f04252c137f8"}, {"lon": -77.05183066666666, "lat": 38.924258333333334, "name": "faf20d303912a66e5aa646547ff61729", "fusion_lat": 0.0, "fusion_lon": 0.0, "rental_uris": {"android": "https://dc.lft.to/lastmile_qr_scan", "ios": "https://dc.lft.to/lastmile_qr_scan"}, "is_reserved": 0, "is_disabled": 0, "type": "electric_scooter", "bike_id": "faf20d303912a66e5aa646547ff61729"}, {"lon": -77.03831816666667, "lat": 38.9119225, "name": "4cc221fb06259fa2aa518e275cd821c5", "fusion_lat": 0.0, "fusion_lon": 0.0, "rental_uris": {"android": "https://dc.lft.to/lastmile_qr_scan", "ios": "https://dc.lft.to/lastmile_qr_scan"}, "is_reserved": 0, "is_disabled": 0, "type": "electric_scooter", "bike_id": "4cc221fb06259fa2aa518e275cd821c5"}, {"lon": -77.002316, "lat": 38.9004925, "name": "9e3603143492524de82bb71daa2562a4", "fusion_lat": 0.0, "fusion_lon": 0.0, "rental_uris": {"android": "https://dc.lft.to/lastmile_qr_scan", "ios": "https://dc.lft.to/lastmile_qr_scan"}, "is_reserved": 0, "is_disabled": 0, "type": "electric_bike", "bike_id": "9e3603143492524de82bb71daa2562a4"}, {"lon": -76.9994375, "lat": 38.908715, "name": "3f4529ef3305bfdd638a17a1c7048324", "fusion_lat": 0.0, "fusion_lon": 0.0, "rental_uris": {"android": "https://dc.lft.to/lastmile_qr_scan", "ios": "https://dc.lft.to/lastmile_qr_scan"}, "is_reserved": 0, "is_disabled": 0, "type": "electric_scooter", "bike_id": "3f4529ef3305bfdd638a17a1c7048324"}, {"lon": -77.03237633333333, "lat": 38.91479833333333, "name": "ca2cf68926f5190bf9917672aa1e5122", "fusion_lat": 0.0, "fusion_lon": 0.0, "rental_uris": {"android": "https://dc.lft.to/lastmile_qr_scan", "ios": "https://dc.lft.to/lastmile_qr_scan"}, "is_reserved": 0, "is_disabled": 0, "type": "electric_scooter", "bike_id": "ca2cf68926f5190bf9917672aa1e5122"}, {"lon": -77.00444516666667, "lat": 38.87667883333334, "name": "29995a1814a0b8eccbd71bc1ad4e074f", "fusion_lat": 0.0, "fusion_lon": 0.0, "rental_uris": {"android": "https://dc.lft.to/lastmile_qr_scan", "ios": "https://dc.lft.to/lastmile_qr_scan"}, "is_reserved": 0, "is_disabled": 0, "type": "electric_scooter", "bike_id": "29995a1814a0b8eccbd71bc1ad4e074f"}, {"lon": -76.98534783333334, "lat": 38.883843666666664, "name": "64430982398cc97530723cecc8b2bb02", "fusion_lat": 0.0, "fusion_lon": 0.0, "rental_uris": {"android": "https://dc.lft.to/lastmile_qr_scan", "ios": "https://dc.lft.to/lastmile_qr_scan"}, "is_reserved": 0, "is_disabled": 0, "type": "electric_scooter", "bike_id": "64430982398cc97530723cecc8b2bb02"}, {"lon": -76.99819616666667, "lat": 38.88867783333333, "name": "83276d8347577853b39311889ab6950f", "fusion_lat": 0.0, "fusion_lon": 0.0, "rental_uris": {"android": "https://dc.lft.to/lastmile_qr_scan", "ios": "https://dc.lft.to/lastmile_qr_scan"}, "is_reserved": 0, "is_disabled": 0, "type": "electric_scooter", "bike_id": "83276d8347577853b39311889ab6950f"}, {"lon": -77.03307716666667, "lat": 38.89645866666667, "name": "ffc1865b8b555b458321b66512dd7311", "fusion_lat": 0.0, "fusion_lon": 0.0, "rental_uris": {"android": "https://dc.lft.to/lastmile_qr_scan", "ios": "https://dc.lft.to/lastmile_qr_scan"}, "is_reserved": 0, "is_disabled": 0, "type": "electric_scooter", "bike_id": "ffc1865b8b555b458321b66512dd7311"}, {"lon": -77.06382016666667, "lat": 38.944790166666664, "name": "f7cba5de00ddbc03cc7da16c0b6d0de2", "fusion_lat": 0.0, "fusion_lon": 0.0, "rental_uris": {"android": "https://dc.lft.to/lastmile_qr_scan", "ios": "https://dc.lft.to/lastmile_qr_scan"}, "is_reserved": 0, "is_disabled": 0, "type": "electric_scooter", "bike_id": "f7cba5de00ddbc03cc7da16c0b6d0de2"}, {"lon": -77.056417, "lat": 38.9242785, "name": "a2249ac4542f2d0b0b4bae96be17626b", "fusion_lat": 0.0, "fusion_lon": 0.0, "rental_uris": {"android": "https://dc.lft.to/lastmile_qr_scan", "ios": "https://dc.lft.to/lastmile_qr_scan"}, "is_reserved": 0, "is_disabled": 0, "type": "electric_scooter", "bike_id": "a2249ac4542f2d0b0b4bae96be17626b"}, {"lon": -77.033553, "lat": 38.92444783333333, "name": "1a173c3173599fbc426f7217b17c4a27", "fusion_lat": 0.0, "fusion_lon": 0.0, "rental_uris": {"android": "https://dc.lft.to/lastmile_qr_scan", "ios": "https://dc.lft.to/lastmile_qr_scan"}, "is_reserved": 0, "is_disabled": 0, "type": "electric_scooter", "bike_id": "1a173c3173599fbc426f7217b17c4a27"}, {"lon": -77.00586833333334, "lat": 38.877029666666665, "name": "a756aabbda42d46d5edd544aad3a297e", "fusion_lat": 0.0, "fusion_lon": 0.0, "rental_uris": {"android": "https://dc.lft.to/lastmile_qr_scan", "ios": "https://dc.lft.to/lastmile_qr_scan"}, "is_reserved": 0, "is_disabled": 0, "type": "electric_scooter", "bike_id": "a756aabbda42d46d5edd544aad3a297e"}, {"lon": -77.07358733333334, "lat": 38.93354566666667, "name": "ebe0c0c3d66133f5c46ea4a22b052224", "fusion_lat": 0.0, "fusion_lon": 0.0, "rental_uris": {"android": "https://dc.lft.to/lastmile_qr_scan", "ios": "https://dc.lft.to/lastmile_qr_scan"}, "is_reserved": 0, "is_disabled": 0, "type": "electric_scooter", "bike_id": "ebe0c0c3d66133f5c46ea4a22b052224"}, {"lon": -77.04875766666666, "lat": 38.90121283333333, "name": "89b7ad85833fef8bdb6b9287b6caffa8", "fusion_lat": 0.0, "fusion_lon": 0.0, "rental_uris": {"android": "https://dc.lft.to/lastmile_qr_scan", "ios": "https://dc.lft.to/lastmile_qr_scan"}, "is_reserved": 0, "is_disabled": 0, "type": "electric_scooter", "bike_id": "89b7ad85833fef8bdb6b9287b6caffa8"}, {"lon": -77.12261183333334, "lat": 38.89187183333333, "name": "7c0c53e405a38384f5699fe7a394bea6", "fusion_lat": 0.0, "fusion_lon": 0.0, "rental_uris": {"android": "https://dc.lft.to/lastmile_qr_scan", "ios": "https://dc.lft.to/lastmile_qr_scan"}, "is_reserved": 0, "is_disabled": 0, "type": "electric_bike", "bike_id": "7c0c53e405a38384f5699fe7a394bea6"}, {"lon": -77.1122095, "lat": 38.828767666666664, "name": "3959f81a26a2580af84cd75f1e9c9ae0", "fusion_lat": 0.0, "fusion_lon": 0.0, "rental_uris": {"android": "https://dc.lft.to/lastmile_qr_scan", "ios": "https://dc.lft.to/lastmile_qr_scan"}, "is_reserved": 0, "is_disabled": 0, "type": "electric_bike", "bike_id": "3959f81a26a2580af84cd75f1e9c9ae0"}, {"lon": -77.03569733333333, "lat": 38.957208333333334, "name": "941934afb6344380334cd4345a958568", "fusion_lat": 0.0, "fusion_lon": 0.0, "rental_uris": {"android": "https://dc.lft.to/lastmile_qr_scan", "ios": "https://dc.lft.to/lastmile_qr_scan"}, "is_reserved": 0, "is_disabled": 0, "type": "electric_scooter", "bike_id": "941934afb6344380334cd4345a958568"}, {"lon": -77.0122695, "lat": 38.918943, "name": "1286ebac465681eaa8ffbca50ef93526", "fusion_lat": 0.0, "fusion_lon": 0.0, "rental_uris": {"android": "https://dc.lft.to/lastmile_qr_scan", "ios": "https://dc.lft.to/lastmile_qr_scan"}, "is_reserved": 0, "is_disabled": 0, "type": "electric_scooter", "bike_id": "1286ebac465681eaa8ffbca50ef93526"}, {"lon": -77.07687383333334, "lat": 38.831925166666664, "name": "6390d4b6916a96565f9f3841fbcb937f", "fusion_lat": 0.0, "fusion_lon": 0.0, "rental_uris": {"android": "https://dc.lft.to/lastmile_qr_scan", "ios": "https://dc.lft.to/lastmile_qr_scan"}, "is_reserved": 0, "is_disabled": 0, "type": "electric_bike", "bike_id": "6390d4b6916a96565f9f3841fbcb937f"}, {"lon": -77.04751833333333, "lat": 38.902257, "name": "622e7c3233f555e0d0a74d47204185bd", "fusion_lat": 0.0, "fusion_lon": 0.0, "rental_uris": {"android": "https://dc.lft.to/lastmile_qr_scan", "ios": "https://dc.lft.to/lastmile_qr_scan"}, "is_reserved": 0, "is_disabled": 0, "type": "electric_scooter", "bike_id": "622e7c3233f555e0d0a74d47204185bd"}, {"lon": -76.98738983333334, "lat": 38.94434483333333, "name": "386fd1a774caf3e819b1f7c2fbe9ca92", "fusion_lat": 0.0, "fusion_lon": 0.0, "rental_uris": {"android": "https://dc.lft.to/lastmile_qr_scan", "ios": "https://dc.lft.to/lastmile_qr_scan"}, "is_reserved": 0, "is_disabled": 0, "type": "electric_bike", "bike_id": "386fd1a774caf3e819b1f7c2fbe9ca92"}, {"lon": -77.02701566666667, "lat": 38.89955533333333, "name": "1803d76a76ef94add03d16e20850601f", "fusion_lat": 0.0, "fusion_lon": 0.0, "rental_uris": {"android": "https://dc.lft.to/lastmile_qr_scan", "ios": "https://dc.lft.to/lastmile_qr_scan"}, "is_reserved": 0, "is_disabled": 0, "type": "electric_scooter", "bike_id": "1803d76a76ef94add03d16e20850601f"}, {"lon": -77.01092666666666, "lat": 38.9055965, "name": "785b159b60fd7f439b6044960871c10c", "fusion_lat": 0.0, "fusion_lon": 0.0, "rental_uris": {"android": "https://dc.lft.to/lastmile_qr_scan", "ios": "https://dc.lft.to/lastmile_qr_scan"}, "is_reserved": 0, "is_disabled": 0, "type": "electric_scooter", "bike_id": "785b159b60fd7f439b6044960871c10c"}, {"lon": -76.935423, "lat": 38.955497, "name": "97fd4212514221b6a905a7aef06ec3f8", "fusion_lat": 0.0, "fusion_lon": 0.0, "rental_uris": {"android": "https://dc.lft.to/lastmile_qr_scan", "ios": "https://dc.lft.to/lastmile_qr_scan"}, "is_reserved": 0, "is_disabled": 0, "type": "electric_bike", "bike_id": "97fd4212514221b6a905a7aef06ec3f8"}, {"lon": -77.03346866666666, "lat": 38.897889666666664, "name": "fefff6e044e0bd0399d464d9894dbd3a", "fusion_lat": 0.0, "fusion_lon": 0.0, "rental_uris": {"android": "https://dc.lft.to/lastmile_qr_scan", "ios": "https://dc.lft.to/lastmile_qr_scan"}, "is_reserved": 0, "is_disabled": 0, "type": "electric_scooter", "bike_id": "fefff6e044e0bd0399d464d9894dbd3a"}, {"lon": -77.03631033333333, "lat": 38.956004, "name": "c1001a3477aa64abfa888a5bfba66a52", "fusion_lat": 0.0, "fusion_lon": 0.0, "rental_uris": {"android": "https://dc.lft.to/lastmile_qr_scan", "ios": "https://dc.lft.to/lastmile_qr_scan"}, "is_reserved": 0, "is_disabled": 0, "type": "electric_scooter", "bike_id": "c1001a3477aa64abfa888a5bfba66a52"}, {"lon": -77.02402766666667, "lat": 38.901827, "name": "cfbc69a15d2690455afd6d920161e253", "fusion_lat": 0.0, "fusion_lon": 0.0, "rental_uris": {"android": "https://dc.lft.to/lastmile_qr_scan", "ios": "https://dc.lft.to/lastmile_qr_scan"}, "is_reserved": 0, "is_disabled": 0, "type": "electric_scooter", "bike_id": "cfbc69a15d2690455afd6d920161e253"}, {"lon": -77.00136466666666, "lat": 38.900079166666664, "name": "3f7b598fd569b5d7dedc8dfc5eb316bd", "fusion_lat": 0.0, "fusion_lon": 0.0, "rental_uris": {"android": "https://dc.lft.to/lastmile_qr_scan", "ios": "https://dc.lft.to/lastmile_qr_scan"}, "is_reserved": 0, "is_disabled": 0, "type": "electric_scooter", "bike_id": "3f7b598fd569b5d7dedc8dfc5eb316bd"}, {"lon": -77.03868183333333, "lat": 38.908183666666666, "name": "f51eaa5a166972798cb9832abe70d83a", "fusion_lat": 0.0, "fusion_lon": 0.0, "rental_uris": {"android": "https://dc.lft.to/lastmile_qr_scan", "ios": "https://dc.lft.to/lastmile_qr_scan"}, "is_reserved": 0, "is_disabled": 0, "type": "electric_scooter", "bike_id": "f51eaa5a166972798cb9832abe70d83a"}, {"lon": -77.03324066666667, "lat": 38.8965515, "name": "e8d2280a4a098e8f766df2ae2599cf46", "fusion_lat": 0.0, "fusion_lon": 0.0, "rental_uris": {"android": "https://dc.lft.to/lastmile_qr_scan", "ios": "https://dc.lft.to/lastmile_qr_scan"}, "is_reserved": 0, "is_disabled": 0, "type": "electric_scooter", "bike_id": "e8d2280a4a098e8f766df2ae2599cf46"}, {"lon": -76.99187966666666, "lat": 38.905116166666666, "name": "ec0f233972e97b9bfed083432333c050", "fusion_lat": 0.0, "fusion_lon": 0.0, "rental_uris": {"android": "https://dc.lft.to/lastmile_qr_scan", "ios": "https://dc.lft.to/lastmile_qr_scan"}, "is_reserved": 0, "is_disabled": 0, "type": "electric_scooter", "bike_id": "ec0f233972e97b9bfed083432333c050"}, {"lon": -76.99744366666667, "lat": 38.9002465, "name": "c9b80e2d8c4780fa121a580b2ad05e53", "fusion_lat": 0.0, "fusion_lon": 0.0, "rental_uris": {"android": "https://dc.lft.to/lastmile_qr_scan", "ios": "https://dc.lft.to/lastmile_qr_scan"}, "is_reserved": 0, "is_disabled": 0, "type": "electric_scooter", "bike_id": "c9b80e2d8c4780fa121a580b2ad05e53"}, {"lon": -77.03777266666667, "lat": 38.903597166666664, "name": "28bb586ae2b8b01e8e8dde2b25629f60", "fusion_lat": 0.0, "fusion_lon": 0.0, "rental_uris": {"android": "https://dc.lft.to/lastmile_qr_scan", "ios": "https://dc.lft.to/lastmile_qr_scan"}, "is_reserved": 0, "is_disabled": 0, "type": "electric_scooter", "bike_id": "28bb586ae2b8b01e8e8dde2b25629f60"}, {"lon": -77.018616, "lat": 38.89263666666667, "name": "1798a7cca6e8d358292eb200f936f537", "fusion_lat": 0.0, "fusion_lon": 0.0, "rental_uris": {"android": "https://dc.lft.to/lastmile_qr_scan", "ios": "https://dc.lft.to/lastmile_qr_scan"}, "is_reserved": 0, "is_disabled": 0, "type": "electric_scooter", "bike_id": "1798a7cca6e8d358292eb200f936f537"}, {"lon": -76.99021633333334, "lat": 38.858697, "name": "3726b26220a24819941bdb15279f77d1", "fusion_lat": 0.0, "fusion_lon": 0.0, "rental_uris": {"android": "https://dc.lft.to/lastmile_qr_scan", "ios": "https://dc.lft.to/lastmile_qr_scan"}, "is_reserved": 0, "is_disabled": 0, "type": "electric_scooter", "bike_id": "3726b26220a24819941bdb15279f77d1"}, {"lon": -77.04849166666666, "lat": 38.919638166666665, "name": "87421b79cdf5068aa4141ce6ce66d1f2", "fusion_lat": 0.0, "fusion_lon": 0.0, "rental_uris": {"android": "https://dc.lft.to/lastmile_qr_scan", "ios": "https://dc.lft.to/lastmile_qr_scan"}, "is_reserved": 0, "is_disabled": 0, "type": "electric_scooter", "bike_id": "87421b79cdf5068aa4141ce6ce66d1f2"}, {"lon": -77.02554466666666, "lat": 38.89240983333333, "name": "859289c130eb035aee626fc59353b14f", "fusion_lat": 0.0, "fusion_lon": 0.0, "rental_uris": {"android": "https://dc.lft.to/lastmile_qr_scan", "ios": "https://dc.lft.to/lastmile_qr_scan"}, "is_reserved": 0, "is_disabled": 0, "type": "electric_scooter", "bike_id": "859289c130eb035aee626fc59353b14f"}, {"lon": -77.03218083333333, "lat": 38.90897833333333, "name": "89b0612e100903d457414dda80fb11ce", "fusion_lat": 0.0, "fusion_lon": 0.0, "rental_uris": {"android": "https://dc.lft.to/lastmile_qr_scan", "ios": "https://dc.lft.to/lastmile_qr_scan"}, "is_reserved": 0, "is_disabled": 0, "type": "electric_scooter", "bike_id": "89b0612e100903d457414dda80fb11ce"}, {"lon": -77.0372725, "lat": 38.91705066666667, "name": "05097792618e39936bc7e081d9c30d5f", "fusion_lat": 0.0, "fusion_lon": 0.0, "rental_uris": {"android": "https://dc.lft.to/lastmile_qr_scan", "ios": "https://dc.lft.to/lastmile_qr_scan"}, "is_reserved": 0, "is_disabled": 0, "type": "electric_scooter", "bike_id": "05097792618e39936bc7e081d9c30d5f"}, {"lon": -77.0253845, "lat": 38.92070566666666, "name": "a91d3f6fbcb6b51d9e65e5fd3a43e70e", "fusion_lat": 0.0, "fusion_lon": 0.0, "rental_uris": {"android": "https://dc.lft.to/lastmile_qr_scan", "ios": "https://dc.lft.to/lastmile_qr_scan"}, "is_reserved": 0, "is_disabled": 0, "type": "electric_scooter", "bike_id": "a91d3f6fbcb6b51d9e65e5fd3a43e70e"}, {"lon": -77.04796283333333, "lat": 38.89368666666667, "name": "19126e0534fe39f2f674504f6502399a", "fusion_lat": 0.0, "fusion_lon": 0.0, "rental_uris": {"android": "https://dc.lft.to/lastmile_qr_scan", "ios": "https://dc.lft.to/lastmile_qr_scan"}, "is_reserved": 0, "is_disabled": 0, "type": "electric_scooter", "bike_id": "19126e0534fe39f2f674504f6502399a"}, {"lon": -77.03264766666666, "lat": 38.9382515, "name": "9fc0fb651b3b2b1ed6eb123d17a848c4", "fusion_lat": 0.0, "fusion_lon": 0.0, "rental_uris": {"android": "https://dc.lft.to/lastmile_qr_scan", "ios": "https://dc.lft.to/lastmile_qr_scan"}, "is_reserved": 0, "is_disabled": 0, "type": "electric_scooter", "bike_id": "9fc0fb651b3b2b1ed6eb123d17a848c4"}, {"lon": -77.00577716666666, "lat": 38.8721125, "name": "4de8d931c3a6f837d883bf599d44c59c", "fusion_lat": 0.0, "fusion_lon": 0.0, "rental_uris": {"android": "https://dc.lft.to/lastmile_qr_scan", "ios": "https://dc.lft.to/lastmile_qr_scan"}, "is_reserved": 0, "is_disabled": 0, "type": "electric_scooter", "bike_id": "4de8d931c3a6f837d883bf599d44c59c"}, {"lon": -77.01839183333334, "lat": 38.9088105, "name": "8ede0dd9a4f1d125d1d638998053eab8", "fusion_lat": 0.0, "fusion_lon": 0.0, "rental_uris": {"android": "https://dc.lft.to/lastmile_qr_scan", "ios": "https://dc.lft.to/lastmile_qr_scan"}, "is_reserved": 0, "is_disabled": 0, "type": "electric_scooter", "bike_id": "8ede0dd9a4f1d125d1d638998053eab8"}, {"lon": -77.0441675, "lat": 38.90567866666667, "name": "d92b426ef9a585949b57f8784a3aae21", "fusion_lat": 0.0, "fusion_lon": 0.0, "rental_uris": {"android": "https://dc.lft.to/lastmile_qr_scan", "ios": "https://dc.lft.to/lastmile_qr_scan"}, "is_reserved": 0, "is_disabled": 0, "type": "electric_scooter", "bike_id": "d92b426ef9a585949b57f8784a3aae21"}, {"lon": -77.016531, "lat": 38.953270333333336, "name": "ba0275efc60378c6f5538737e9814b17", "fusion_lat": 0.0, "fusion_lon": 0.0, "rental_uris": {"android": "https://dc.lft.to/lastmile_qr_scan", "ios": "https://dc.lft.to/lastmile_qr_scan"}, "is_reserved": 0, "is_disabled": 0, "type": "electric_scooter", "bike_id": "ba0275efc60378c6f5538737e9814b17"}, {"lon": -77.05441733333333, "lat": 38.89608283333333, "name": "f4fdf87d91d90480bc42dfd8056ba6f2", "fusion_lat": 0.0, "fusion_lon": 0.0, "rental_uris": {"android": "https://dc.lft.to/lastmile_qr_scan", "ios": "https://dc.lft.to/lastmile_qr_scan"}, "is_reserved": 0, "is_disabled": 0, "type": "electric_scooter", "bike_id": "f4fdf87d91d90480bc42dfd8056ba6f2"}, {"lon": -77.028917, "lat": 38.9072265, "name": "629b8a0c564ce00ae59cb61a3afc40ee", "fusion_lat": 0.0, "fusion_lon": 0.0, "rental_uris": {"android": "https://dc.lft.to/lastmile_qr_scan", "ios": "https://dc.lft.to/lastmile_qr_scan"}, "is_reserved": 0, "is_disabled": 0, "type": "electric_bike", "bike_id": "629b8a0c564ce00ae59cb61a3afc40ee"}, {"lon": -77.04236133333333, "lat": 38.93864766666667, "name": "a57bea81f9035c2980b1cab492a7659b", "fusion_lat": 0.0, "fusion_lon": 0.0, "rental_uris": {"android": "https://dc.lft.to/lastmile_qr_scan", "ios": "https://dc.lft.to/lastmile_qr_scan"}, "is_reserved": 0, "is_disabled": 0, "type": "electric_bike", "bike_id": "a57bea81f9035c2980b1cab492a7659b"}, {"lon": -77.021979, "lat": 38.931310333333336, "name": "f07eef9026ae915eb91408cd6e8c97b9", "fusion_lat": 0.0, "fusion_lon": 0.0, "rental_uris": {"android": "https://dc.lft.to/lastmile_qr_scan", "ios": "https://dc.lft.to/lastmile_qr_scan"}, "is_reserved": 0, "is_disabled": 0, "type": "electric_scooter", "bike_id": "f07eef9026ae915eb91408cd6e8c97b9"}, {"lon": -77.012064, "lat": 38.900142, "name": "321f2d66dc70f4a9415c3b7a16252687", "fusion_lat": 0.0, "fusion_lon": 0.0, "rental_uris": {"android": "https://dc.lft.to/lastmile_qr_scan", "ios": "https://dc.lft.to/lastmile_qr_scan"}, "is_reserved": 0, "is_disabled": 0, "type": "electric_scooter", "bike_id": "321f2d66dc70f4a9415c3b7a16252687"}, {"lon": -76.982626, "lat": 38.86356966666666, "name": "8ae87548fb514f333beb4fcceca9e1a3", "fusion_lat": 0.0, "fusion_lon": 0.0, "rental_uris": {"android": "https://dc.lft.to/lastmile_qr_scan", "ios": "https://dc.lft.to/lastmile_qr_scan"}, "is_reserved": 0, "is_disabled": 0, "type": "electric_scooter", "bike_id": "8ae87548fb514f333beb4fcceca9e1a3"}, {"lon": -76.94724783333334, "lat": 38.896911333333335, "name": "23ae6367683e1b83bf263d7676d4ebb0", "fusion_lat": 0.0, "fusion_lon": 0.0, "rental_uris": {"android": "https://dc.lft.to/lastmile_qr_scan", "ios": "https://dc.lft.to/lastmile_qr_scan"}, "is_reserved": 0, "is_disabled": 0, "type": "electric_scooter", "bike_id": "23ae6367683e1b83bf263d7676d4ebb0"}, {"lon": -77.02946883333334, "lat": 38.905026166666666, "name": "60f43688c3edb1066931e70791aba274", "fusion_lat": 0.0, "fusion_lon": 0.0, "rental_uris": {"android": "https://dc.lft.to/lastmile_qr_scan", "ios": "https://dc.lft.to/lastmile_qr_scan"}, "is_reserved": 0, "is_disabled": 0, "type": "electric_scooter", "bike_id": "60f43688c3edb1066931e70791aba274"}, {"lon": -77.0472605, "lat": 38.8995095, "name": "d795585043f0cce8ea4b048474dc1104", "fusion_lat": 0.0, "fusion_lon": 0.0, "rental_uris": {"android": "https://dc.lft.to/lastmile_qr_scan", "ios": "https://dc.lft.to/lastmile_qr_scan"}, "is_reserved": 0, "is_disabled": 0, "type": "electric_scooter", "bike_id": "d795585043f0cce8ea4b048474dc1104"}, {"lon": -76.98128633333333, "lat": 38.9049775, "name": "31c301b667426a38978c7fa93e547103", "fusion_lat": 0.0, "fusion_lon": 0.0, "rental_uris": {"android": "https://dc.lft.to/lastmile_qr_scan", "ios": "https://dc.lft.to/lastmile_qr_scan"}, "is_reserved": 0, "is_disabled": 0, "type": "electric_scooter", "bike_id": "31c301b667426a38978c7fa93e547103"}, {"lon": -77.01106966666667, "lat": 38.89519516666667, "name": "baaff692c11aa31613ca4ffab70a3289", "fusion_lat": 0.0, "fusion_lon": 0.0, "rental_uris": {"android": "https://dc.lft.to/lastmile_qr_scan", "ios": "https://dc.lft.to/lastmile_qr_scan"}, "is_reserved": 0, "is_disabled": 0, "type": "electric_scooter", "bike_id": "baaff692c11aa31613ca4ffab70a3289"}, {"lon": -77.0235335, "lat": 38.897268333333336, "name": "ec94d4687482f75585ed115f5f293136", "fusion_lat": 0.0, "fusion_lon": 0.0, "rental_uris": {"android": "https://dc.lft.to/lastmile_qr_scan", "ios": "https://dc.lft.to/lastmile_qr_scan"}, "is_reserved": 0, "is_disabled": 0, "type": "electric_scooter", "bike_id": "ec94d4687482f75585ed115f5f293136"}, {"lon": -77.0464585, "lat": 38.85209783333333, "name": "d04f01569529250e4a3bb8f6a11cc45f", "fusion_lat": 0.0, "fusion_lon": 0.0, "rental_uris": {"android": "https://dc.lft.to/lastmile_qr_scan", "ios": "https://dc.lft.to/lastmile_qr_scan"}, "is_reserved": 0, "is_disabled": 0, "type": "electric_bike", "bike_id": "d04f01569529250e4a3bb8f6a11cc45f"}, {"lon": -77.0215555, "lat": 38.9246395, "name": "4ebb43fc065376f8fecb80522080047b", "fusion_lat": 0.0, "fusion_lon": 0.0, "rental_uris": {"android": "https://dc.lft.to/lastmile_qr_scan", "ios": "https://dc.lft.to/lastmile_qr_scan"}, "is_reserved": 0, "is_disabled": 0, "type": "electric_scooter", "bike_id": "4ebb43fc065376f8fecb80522080047b"}, {"lon": -77.03746316666667, "lat": 38.916934, "name": "a1afed4ab474b634a6c6c74b14029318", "fusion_lat": 0.0, "fusion_lon": 0.0, "rental_uris": {"android": "https://dc.lft.to/lastmile_qr_scan", "ios": "https://dc.lft.to/lastmile_qr_scan"}, "is_reserved": 0, "is_disabled": 0, "type": "electric_scooter", "bike_id": "a1afed4ab474b634a6c6c74b14029318"}, {"lon": -76.99947666666667, "lat": 38.842934, "name": "c0773222c2144902cd9e416417919ef3", "fusion_lat": 0.0, "fusion_lon": 0.0, "rental_uris": {"android": "https://dc.lft.to/lastmile_qr_scan", "ios": "https://dc.lft.to/lastmile_qr_scan"}, "is_reserved": 0, "is_disabled": 0, "type": "electric_scooter", "bike_id": "c0773222c2144902cd9e416417919ef3"}, {"lon": -77.0444885, "lat": 38.918717, "name": "5415b79b481dfacd5c8f72920e18689c", "fusion_lat": 0.0, "fusion_lon": 0.0, "rental_uris": {"android": "https://dc.lft.to/lastmile_qr_scan", "ios": "https://dc.lft.to/lastmile_qr_scan"}, "is_reserved": 0, "is_disabled": 0, "type": "electric_scooter", "bike_id": "5415b79b481dfacd5c8f72920e18689c"}, {"lon": -77.03165033333333, "lat": 38.94460683333333, "name": "0df2cb248e9b600cef8218d481c0876f", "fusion_lat": 0.0, "fusion_lon": 0.0, "rental_uris": {"android": "https://dc.lft.to/lastmile_qr_scan", "ios": "https://dc.lft.to/lastmile_qr_scan"}, "is_reserved": 0, "is_disabled": 0, "type": "electric_bike", "bike_id": "0df2cb248e9b600cef8218d481c0876f"}, {"lon": -77.03319033333334, "lat": 38.900426, "name": "4476359dd86af2086c15bd10382a1cec", "fusion_lat": 0.0, "fusion_lon": 0.0, "rental_uris": {"android": "https://dc.lft.to/lastmile_qr_scan", "ios": "https://dc.lft.to/lastmile_qr_scan"}, "is_reserved": 0, "is_disabled": 0, "type": "electric_scooter", "bike_id": "4476359dd86af2086c15bd10382a1cec"}, {"lon": -77.027271, "lat": 38.972106, "name": "5f8d5d4213ff6e632f893ac3e30d36c4", "fusion_lat": 0.0, "fusion_lon": 0.0, "rental_uris": {"android": "https://dc.lft.to/lastmile_qr_scan", "ios": "https://dc.lft.to/lastmile_qr_scan"}, "is_reserved": 0, "is_disabled": 0, "type": "electric_bike", "bike_id": "5f8d5d4213ff6e632f893ac3e30d36c4"}, {"lon": -77.04292383333333, "lat": 38.911086833333336, "name": "53f79b3eca1c063399be8d36e0143440", "fusion_lat": 0.0, "fusion_lon": 0.0, "rental_uris": {"android": "https://dc.lft.to/lastmile_qr_scan", "ios": "https://dc.lft.to/lastmile_qr_scan"}, "is_reserved": 0, "is_disabled": 0, "type": "electric_scooter", "bike_id": "53f79b3eca1c063399be8d36e0143440"}, {"lon": -77.03203183333333, "lat": 38.91627, "name": "2198c86971d4d6e44f97086a520a14aa", "fusion_lat": 0.0, "fusion_lon": 0.0, "rental_uris": {"android": "https://dc.lft.to/lastmile_qr_scan", "ios": "https://dc.lft.to/lastmile_qr_scan"}, "is_reserved": 0, "is_disabled": 0, "type": "electric_scooter", "bike_id": "2198c86971d4d6e44f97086a520a14aa"}, {"lon": -77.06163266666667, "lat": 38.94224, "name": "4c2439fbc1aa4c4acb95b74613ad6428", "fusion_lat": 0.0, "fusion_lon": 0.0, "rental_uris": {"android": "https://dc.lft.to/lastmile_qr_scan", "ios": "https://dc.lft.to/lastmile_qr_scan"}, "is_reserved": 0, "is_disabled": 0, "type": "electric_scooter", "bike_id": "4c2439fbc1aa4c4acb95b74613ad6428"}, {"lon": -77.05049216666667, "lat": 38.901999333333336, "name": "1705318250f60c89ee74ba3cbc889ba3", "fusion_lat": 0.0, "fusion_lon": 0.0, "rental_uris": {"android": "https://dc.lft.to/lastmile_qr_scan", "ios": "https://dc.lft.to/lastmile_qr_scan"}, "is_reserved": 0, "is_disabled": 0, "type": "electric_scooter", "bike_id": "1705318250f60c89ee74ba3cbc889ba3"}, {"lon": -77.12743116666667, "lat": 38.8882345, "name": "85eed84d71397495fcd2af4b5dc597d8", "fusion_lat": 0.0, "fusion_lon": 0.0, "rental_uris": {"android": "https://dc.lft.to/lastmile_qr_scan", "ios": "https://dc.lft.to/lastmile_qr_scan"}, "is_reserved": 0, "is_disabled": 0, "type": "electric_bike", "bike_id": "85eed84d71397495fcd2af4b5dc597d8"}, {"lon": -77.0272135, "lat": 38.90263933333333, "name": "c5141645506e18fb196266698f16e0d7", "fusion_lat": 0.0, "fusion_lon": 0.0, "rental_uris": {"android": "https://dc.lft.to/lastmile_qr_scan", "ios": "https://dc.lft.to/lastmile_qr_scan"}, "is_reserved": 0, "is_disabled": 0, "type": "electric_scooter", "bike_id": "c5141645506e18fb196266698f16e0d7"}, {"lon": -77.03975183333333, "lat": 38.90277116666667, "name": "e2f03a221f60e1698536f57dd371df00", "fusion_lat": 0.0, "fusion_lon": 0.0, "rental_uris": {"android": "https://dc.lft.to/lastmile_qr_scan", "ios": "https://dc.lft.to/lastmile_qr_scan"}, "is_reserved": 0, "is_disabled": 0, "type": "electric_scooter", "bike_id": "e2f03a221f60e1698536f57dd371df00"}, {"lon": -77.025872, "lat": 38.89245116666667, "name": "156f8ee42027ebba06b99f6ad7c19d79", "fusion_lat": 0.0, "fusion_lon": 0.0, "rental_uris": {"android": "https://dc.lft.to/lastmile_qr_scan", "ios": "https://dc.lft.to/lastmile_qr_scan"}, "is_reserved": 0, "is_disabled": 0, "type": "electric_scooter", "bike_id": "156f8ee42027ebba06b99f6ad7c19d79"}, {"lon": -76.98774533333334, "lat": 38.911741, "name": "fbcb098493b9f9e240f73193188965df", "fusion_lat": 0.0, "fusion_lon": 0.0, "rental_uris": {"android": "https://dc.lft.to/lastmile_qr_scan", "ios": "https://dc.lft.to/lastmile_qr_scan"}, "is_reserved": 0, "is_disabled": 0, "type": "electric_scooter", "bike_id": "fbcb098493b9f9e240f73193188965df"}, {"lon": -77.03830883333333, "lat": 38.91110166666667, "name": "2b7b4ac991537bfcadcbd741628cf7cb", "fusion_lat": 0.0, "fusion_lon": 0.0, "rental_uris": {"android": "https://dc.lft.to/lastmile_qr_scan", "ios": "https://dc.lft.to/lastmile_qr_scan"}, "is_reserved": 0, "is_disabled": 0, "type": "electric_scooter", "bike_id": "2b7b4ac991537bfcadcbd741628cf7cb"}, {"lon": -77.00079316666667, "lat": 38.88668633333333, "name": "3e5b7f031cce6cd77476274eb6c72eb0", "fusion_lat": 0.0, "fusion_lon": 0.0, "rental_uris": {"android": "https://dc.lft.to/lastmile_qr_scan", "ios": "https://dc.lft.to/lastmile_qr_scan"}, "is_reserved": 0, "is_disabled": 0, "type": "electric_scooter", "bike_id": "3e5b7f031cce6cd77476274eb6c72eb0"}, {"lon": -76.94119016666667, "lat": 38.907941, "name": "403214cee5e97e7aac818cdaf1e5d22f", "fusion_lat": 0.0, "fusion_lon": 0.0, "rental_uris": {"android": "https://dc.lft.to/lastmile_qr_scan", "ios": "https://dc.lft.to/lastmile_qr_scan"}, "is_reserved": 0, "is_disabled": 0, "type": "electric_scooter", "bike_id": "403214cee5e97e7aac818cdaf1e5d22f"}, {"lon": -76.9381255, "lat": 38.913048333333336, "name": "a4cbcf4eb777c7cadb08214d565f2470", "fusion_lat": 0.0, "fusion_lon": 0.0, "rental_uris": {"android": "https://dc.lft.to/lastmile_qr_scan", "ios": "https://dc.lft.to/lastmile_qr_scan"}, "is_reserved": 0, "is_disabled": 0, "type": "electric_scooter", "bike_id": "a4cbcf4eb777c7cadb08214d565f2470"}, {"lon": -76.931603, "lat": 38.89878, "name": "80a528864853491a7f3083885de6ecbc", "fusion_lat": 0.0, "fusion_lon": 0.0, "rental_uris": {"android": "https://dc.lft.to/lastmile_qr_scan", "ios": "https://dc.lft.to/lastmile_qr_scan"}, "is_reserved": 0, "is_disabled": 0, "type": "electric_scooter", "bike_id": "80a528864853491a7f3083885de6ecbc"}, {"lon": -77.04676783333333, "lat": 38.895600333333334, "name": "ae6a58bdff6b9744fc0e2db69c899f9c", "fusion_lat": 0.0, "fusion_lon": 0.0, "rental_uris": {"android": "https://dc.lft.to/lastmile_qr_scan", "ios": "https://dc.lft.to/lastmile_qr_scan"}, "is_reserved": 0, "is_disabled": 0, "type": "electric_scooter", "bike_id": "ae6a58bdff6b9744fc0e2db69c899f9c"}, {"lon": -77.02394783333334, "lat": 38.887349666666665, "name": "ea85ab2f37576572f68ed73cab8dfc70", "fusion_lat": 0.0, "fusion_lon": 0.0, "rental_uris": {"android": "https://dc.lft.to/lastmile_qr_scan", "ios": "https://dc.lft.to/lastmile_qr_scan"},