{"data": {"bikes": [{"fusion_lat": 0.0, "name": "2b49d7807191f4df92a6ae594f80ab35", "is_disabled": 0, "rental_uris": {"android": "https://dc.lft.to/lastmile_qr_scan", "ios": "https://dc.lft.to/lastmile_qr_scan"}, "fusion_lon": 0.0, "lat": 38.93062883333333, "bike_id": "2b49d7807191f4df92a6ae594f80ab35", "type": "electric_scooter", "is_reserved": 0, "lon": -77.03945066666667}, {"fusion_lat": 0.0, "name": "afea57ca2b7fcc6929e195578785b526", "is_disabled": 0, "rental_uris": {"android": "https://dc.lft.to/lastmile_qr_scan", "ios": "https://dc.lft.to/lastmile_qr_scan"}, "fusion_lon": 0.0, "lat": 38.916583333333335, "bike_id": "afea57ca2b7fcc6929e195578785b526", "type": "electric_bike", "is_reserved": 0, "lon": -76.98221983333333}, {"fusion_lat": 0.0, "name": "77b4f3db7222603343b45935ceda869c", "is_disabled": 0, "rental_uris": {"android": "https://dc.lft.to/lastmile_qr_scan", "ios": "https://dc.lft.to/lastmile_qr_scan"}, "fusion_lon": 0.0, "lat": 38.94979566666667, "bike_id": "77b4f3db7222603343b45935ceda869c", "type": "electric_scooter", "is_reserved": 0, "lon": -77.02698983333333}, {"fusion_lat": 0.0, "name": "b24e409de8779d1f26417112a76839f6", "is_disabled": 0, "rental_uris": {"android": "https://dc.lft.to/lastmile_qr_scan", "ios": "https://dc.lft.to/lastmile_qr_scan"}, "fusion_lon": 0.0, "lat": 38.949816166666665, "bike_id": "b24e409de8779d1f26417112a76839f6", "type": "electric_scooter", "is_reserved": 0, "lon": -77.02695966666667}, {"fusion_lat": 0.0, "name": "0fa5d544fb301543fd48da68b9e80a22", "is_disabled": 0, "rental_uris": {"android": "https://dc.lft.to/lastmile_qr_scan", "ios": "https://dc.lft.to/lastmile_qr_scan"}, "fusion_lon": 0.0, "lat": 38.92544183333333, "bike_id": "0fa5d544fb301543fd48da68b9e80a22", "type": "electric_scooter", "is_reserved": 0, "lon": -77.05113433333334}, {"fusion_lat": 0.0, "name": "d81c87732e0f42005690d118ebcbd3a4", "is_disabled": 0, "rental_uris": {"android": "https://dc.lft.to/lastmile_qr_scan", "ios": "https://dc.lft.to/lastmile_qr_scan"}, "fusion_lon": 0.0, "lat": 38.89223666666667, "bike_id": "d81c87732e0f42005690d118ebcbd3a4", "type": "electric_scooter", "is_reserved": 0, "lon": -77.014962}, {"fusion_lat": 0.0, "name": "0c8397bfe046fde19bdbbe16f9cebd50", "is_disabled": 0, "rental_uris": {"android": "https://dc.lft.to/lastmile_qr_scan", "ios": "https://dc.lft.to/lastmile_qr_scan"}, "fusion_lon": 0.0, "lat": 38.957364, "bike_id": "0c8397bfe046fde19bdbbe16f9cebd50", "type": "electric_scooter", "is_reserved": 0, "lon": -77.02401366666666}, {"fusion_lat": 0.0, "name": "88147a2a96e63da08ca86f87e1d34178", "is_disabled": 0, "rental_uris": {"android": "https://dc.lft.to/lastmile_qr_scan", "ios": "https://dc.lft.to/lastmile_qr_scan"}, "fusion_lon": 0.0, "lat": 38.87569883333333, "bike_id": "88147a2a96e63da08ca86f87e1d34178", "type": "electric_scooter", "is_reserved": 0, "lon": -77.00732533333333}, {"fusion_lat": 0.0, "name": "f29fd79f80b0af9957a82977b966e861", "is_disabled": 0, "rental_uris": {"android": "https://dc.lft.to/lastmile_qr_scan", "ios": "https://dc.lft.to/lastmile_qr_scan"}, "fusion_lon": 0.0, "lat": 38.945156, "bike_id": "f29fd79f80b0af9957a82977b966e861", "type": "electric_bike", "is_reserved": 0, "lon": -77.00674483333333}, {"fusion_lat": 0.0, "name": "7e8935454fc74dce128a2d00556ce092", "is_disabled": 0, "rental_uris": {"android": "https://dc.lft.to/lastmile_qr_scan", "ios": "https://dc.lft.to/lastmile_qr_scan"}, "fusion_lon": 0.0, "lat": 38.9064575, "bike_id": "7e8935454fc74dce128a2d00556ce092", "type": "electric_scooter", "is_reserved": 0, "lon": -77.02958266666667}, {"fusion_lat": 0.0, "name": "83e3e7a60ee2d7e2108f4e4800bc3423", "is_disabled": 0, "rental_uris": {"android": "https://dc.lft.to/lastmile_qr_scan", "ios": "https://dc.lft.to/lastmile_qr_scan"}, "fusion_lon": 0.0, "lat": 38.9429465, "bike_id": "83e3e7a60ee2d7e2108f4e4800bc3423", "type": "electric_scooter", "is_reserved": 0, "lon": -77.07704916666667}, {"fusion_lat": 0.0, "name": "fb5f142298b5154148ff739bb0ebae06", "is_disabled": 0, "rental_uris": {"android": "https://dc.lft.to/lastmile_qr_scan", "ios": "https://dc.lft.to/lastmile_qr_scan"}, "fusion_lon": 0.0, "lat": 38.871115333333336, "bike_id": "fb5f142298b5154148ff739bb0ebae06", "type": "electric_scooter", "is_reserved": 0, "lon": -76.99030516666667}, {"fusion_lat": 0.0, "name": "4ab71dff2fb2ae5b80949ef2042dfe45", "is_disabled": 0, "rental_uris": {"android": "https://dc.lft.to/lastmile_qr_scan", "ios": "https://dc.lft.to/lastmile_qr_scan"}, "fusion_lon": 0.0, "lat": 38.92682033333333, "bike_id": "4ab71dff2fb2ae5b80949ef2042dfe45", "type": "electric_scooter", "is_reserved": 0, "lon": -77.02253066666667}, {"fusion_lat": 0.0, "name": "e3c435906462dd5bcd5a1492b78779a0", "is_disabled": 0, "rental_uris": {"android": "https://dc.lft.to/lastmile_qr_scan", "ios": "https://dc.lft.to/lastmile_qr_scan"}, "fusion_lon": 0.0, "lat": 38.895168166666664, "bike_id": "e3c435906462dd5bcd5a1492b78779a0", "type": "electric_scooter", "is_reserved": 0, "lon": -76.9808155}, {"fusion_lat": 0.0, "name": "048ae314c13fbdae57b8384bbf3dcd2b", "is_disabled": 0, "rental_uris": {"android": "https://dc.lft.to/lastmile_qr_scan", "ios": "https://dc.lft.to/lastmile_qr_scan"}, "fusion_lon": 0.0, "lat": 38.9355035, "bike_id": "048ae314c13fbdae57b8384bbf3dcd2b", "type": "electric_scooter", "is_reserved": 0, "lon": -77.02224333333334}, {"fusion_lat": 0.0, "name": "e64093aa7656386dd8c9fdcd2175fd38", "is_disabled": 0, "rental_uris": {"android": "https://dc.lft.to/lastmile_qr_scan", "ios": "https://dc.lft.to/lastmile_qr_scan"}, "fusion_lon": 0.0, "lat": 38.953478, "bike_id": "e64093aa7656386dd8c9fdcd2175fd38", "type": "electric_scooter", "is_reserved": 0, "lon": -77.07948283333333}, {"fusion_lat": 0.0, "name": "0f4350bb0d5933ba690ff868fdb89d6f", "is_disabled": 0, "rental_uris": {"android": "https://dc.lft.to/lastmile_qr_scan", "ios": "https://dc.lft.to/lastmile_qr_scan"}, "fusion_lon": 0.0, "lat": 38.9111495, "bike_id": "0f4350bb0d5933ba690ff868fdb89d6f", "type": "electric_scooter", "is_reserved": 0, "lon": -76.997667}, {"fusion_lat": 0.0, "name": "76c4e9d681a21ba30b9e419167d2edb2", "is_disabled": 0, "rental_uris": {"android": "https://dc.lft.to/lastmile_qr_scan", "ios": "https://dc.lft.to/lastmile_qr_scan"}, "fusion_lon": 0.0, "lat": 38.9080615, "bike_id": "76c4e9d681a21ba30b9e419167d2edb2", "type": "electric_bike", "is_reserved": 0, "lon": -77.01884616666666}, {"fusion_lat": 0.0, "name": "3331d574409a933e814e76823312e4ca", "is_disabled": 0, "rental_uris": {"android": "https://dc.lft.to/lastmile_qr_scan", "ios": "https://dc.lft.to/lastmile_qr_scan"}, "fusion_lon": 0.0, "lat": 38.893114833333335, "bike_id": "3331d574409a933e814e76823312e4ca", "type": "electric_scooter", "is_reserved": 0, "lon": -77.05586166666667}, {"fusion_lat": 0.0, "name": "acb9ed155d6fdec01a866a1b954d82cd", "is_disabled": 0, "rental_uris": {"android": "https://dc.lft.to/lastmile_qr_scan", "ios": "https://dc.lft.to/lastmile_qr_scan"}, "fusion_lon": 0.0, "lat": 38.94980366666667, "bike_id": "acb9ed155d6fdec01a866a1b954d82cd", "type": "electric_scooter", "is_reserved": 0, "lon": -77.02696266666666}, {"fusion_lat": 0.0, "name": "a5788d988cc6a3da4980ff3f74bb0ea5", "is_disabled": 0, "rental_uris": {"android": "https://dc.lft.to/lastmile_qr_scan", "ios": "https://dc.lft.to/lastmile_qr_scan"}, "fusion_lon": 0.0, "lat": 38.90267133333333, "bike_id": "a5788d988cc6a3da4980ff3f74bb0ea5", "type": "electric_scooter", "is_reserved": 0, "lon": -77.01849783333333}, {"fusion_lat": 0.0, "name": "e8af241e943b793c464f5f3e2c2df0e6", "is_disabled": 0, "rental_uris": {"android": "https://dc.lft.to/lastmile_qr_scan", "ios": "https://dc.lft.to/lastmile_qr_scan"}, "fusion_lon": 0.0, "lat": 38.907686, "bike_id": "e8af241e943b793c464f5f3e2c2df0e6", "type": "electric_scooter", "is_reserved": 0, "lon": -76.999169}, {"fusion_lat": 0.0, "name": "e61b6f31801465fba356a429a1539607", "is_disabled": 0, "rental_uris": {"android": "https://dc.lft.to/lastmile_qr_scan", "ios": "https://dc.lft.to/lastmile_qr_scan"}, "fusion_lon": 0.0, "lat": 38.861401666666666, "bike_id": "e61b6f31801465fba356a429a1539607", "type": "electric_bike", "is_reserved": 0, "lon": -76.971665}, {"fusion_lat": 0.0, "name": "b265578e1b9334e183467a17ba6e09c8", "is_disabled": 0, "rental_uris": {"android": "https://dc.lft.to/lastmile_qr_scan", "ios": "https://dc.lft.to/lastmile_qr_scan"}, "fusion_lon": 0.0, "lat": 38.920464333333335, "bike_id": "b265578e1b9334e183467a17ba6e09c8", "type": "electric_scooter", "is_reserved": 0, "lon": -77.0236915}, {"fusion_lat": 0.0, "name": "06810fc8335e86cb864abeb0c421e986", "is_disabled": 0, "rental_uris": {"android": "https://dc.lft.to/lastmile_qr_scan", "ios": "https://dc.lft.to/lastmile_qr_scan"}, "fusion_lon": 0.0, "lat": 38.911786666666664, "bike_id": "06810fc8335e86cb864abeb0c421e986", "type": "electric_scooter", "is_reserved": 0, "lon": -77.0686305}, {"fusion_lat": 0.0, "name": "a21cbaf07c2ad30a5feed0845431dffb", "is_disabled": 0, "rental_uris": {"android": "https://dc.lft.to/lastmile_qr_scan", "ios": "https://dc.lft.to/lastmile_qr_scan"}, "fusion_lon": 0.0, "lat": 38.892496333333334, "bike_id": "a21cbaf07c2ad30a5feed0845431dffb", "type": "electric_scooter", "is_reserved": 0, "lon": -77.03954}, {"fusion_lat": 0.0, "name": "c28ffd89564f464e59d71b776d4fd416", "is_disabled": 0, "rental_uris": {"android": "https://dc.lft.to/lastmile_qr_scan", "ios": "https://dc.lft.to/lastmile_qr_scan"}, "fusion_lon": 0.0, "lat": 38.934642833333335, "bike_id": "c28ffd89564f464e59d71b776d4fd416", "type": "electric_scooter", "is_reserved": 0, "lon": -77.0224535}, {"fusion_lat": 0.0, "name": "5977c6aaaf707e1ce672d7cc850e1d36", "is_disabled": 0, "rental_uris": {"android": "https://dc.lft.to/lastmile_qr_scan", "ios": "https://dc.lft.to/lastmile_qr_scan"}, "fusion_lon": 0.0, "lat": 38.942314, "bike_id": "5977c6aaaf707e1ce672d7cc850e1d36", "type": "electric_scooter", "is_reserved": 0, "lon": -77.01416033333334}, {"fusion_lat": 0.0, "name": "7c70391d24f690454b7d6900756751e5", "is_disabled": 0, "rental_uris": {"android": "https://dc.lft.to/lastmile_qr_scan", "ios": "https://dc.lft.to/lastmile_qr_scan"}, "fusion_lon": 0.0, "lat": 38.918595833333335, "bike_id": "7c70391d24f690454b7d6900756751e5", "type": "electric_scooter", "is_reserved": 0, "lon": -77.04591366666666}, {"fusion_lat": 0.0, "name": "8e913c654858df8bf97bce0491b7c030", "is_disabled": 0, "rental_uris": {"android": "https://dc.lft.to/lastmile_qr_scan", "ios": "https://dc.lft.to/lastmile_qr_scan"}, "fusion_lon": 0.0, "lat": 38.90456366666667, "bike_id": "8e913c654858df8bf97bce0491b7c030", "type": "electric_scooter", "is_reserved": 0, "lon": -76.982594}, {"fusion_lat": 0.0, "name": "c07f5b544e4d7ca6a16355a7cef77e05", "is_disabled": 0, "rental_uris": {"android": "https://dc.lft.to/lastmile_qr_scan", "ios": "https://dc.lft.to/lastmile_qr_scan"}, "fusion_lon": 0.0, "lat": 38.926981, "bike_id": "c07f5b544e4d7ca6a16355a7cef77e05", "type": "electric_scooter", "is_reserved": 0, "lon": -77.02127033333333}, {"fusion_lat": 0.0, "name": "12a7e2af25b53f5eb7dda26fe4d70c0b", "is_disabled": 0, "rental_uris": {"android": "https://dc.lft.to/lastmile_qr_scan", "ios": "https://dc.lft.to/lastmile_qr_scan"}, "fusion_lon": 0.0, "lat": 38.9036155, "bike_id": "12a7e2af25b53f5eb7dda26fe4d70c0b", "type": "electric_scooter", "is_reserved": 0, "lon": -77.06017133333333}, {"fusion_lat": 0.0, "name": "7c476234620501cf768ba183ee2ac476", "is_disabled": 0, "rental_uris": {"android": "https://dc.lft.to/lastmile_qr_scan", "ios": "https://dc.lft.to/lastmile_qr_scan"}, "fusion_lon": 0.0, "lat": 38.92690666666667, "bike_id": "7c476234620501cf768ba183ee2ac476", "type": "electric_scooter", "is_reserved": 0, "lon": -77.00769733333334}, {"fusion_lat": 0.0, "name": "0e9e0c374ba5d45f82f3f4a4b0277c9a", "is_disabled": 0, "rental_uris": {"android": "https://dc.lft.to/lastmile_qr_scan", "ios": "https://dc.lft.to/lastmile_qr_scan"}, "fusion_lon": 0.0, "lat": 38.895689833333336, "bike_id": "0e9e0c374ba5d45f82f3f4a4b0277c9a", "type": "electric_bike", "is_reserved": 0, "lon": -77.12735383333333}, {"fusion_lat": 0.0, "name": "d8e890e4faeed3b926e62369c6793d2e", "is_disabled": 0, "rental_uris": {"android": "https://dc.lft.to/lastmile_qr_scan", "ios": "https://dc.lft.to/lastmile_qr_scan"}, "fusion_lon": 0.0, "lat": 38.842816666666664, "bike_id": "d8e890e4faeed3b926e62369c6793d2e", "type": "electric_bike", "is_reserved": 0, "lon": -77.04491316666666}, {"fusion_lat": 0.0, "name": "12c34772de05830bc26a177cdd6f5b10", "is_disabled": 0, "rental_uris": {"android": "https://dc.lft.to/lastmile_qr_scan", "ios": "https://dc.lft.to/lastmile_qr_scan"}, "fusion_lon": 0.0, "lat": 38.9295075, "bike_id": "12c34772de05830bc26a177cdd6f5b10", "type": "electric_scooter", "is_reserved": 0, "lon": -77.03464733333334}, {"fusion_lat": 0.0, "name": "01cfe186706ca30d57693495f30661c5", "is_disabled": 0, "rental_uris": {"android": "https://dc.lft.to/lastmile_qr_scan", "ios": "https://dc.lft.to/lastmile_qr_scan"}, "fusion_lon": 0.0, "lat": 38.90282066666666, "bike_id": "01cfe186706ca30d57693495f30661c5", "type": "electric_scooter", "is_reserved": 0, "lon": -77.03371583333333}, {"fusion_lat": 0.0, "name": "2bd2d9222ca4d041241329cc6921ff00", "is_disabled": 0, "rental_uris": {"android": "https://dc.lft.to/lastmile_qr_scan", "ios": "https://dc.lft.to/lastmile_qr_scan"}, "fusion_lon": 0.0, "lat": 38.893016333333335, "bike_id": "2bd2d9222ca4d041241329cc6921ff00", "type": "electric_scooter", "is_reserved": 0, "lon": -77.04661683333333}, {"fusion_lat": 0.0, "name": "4f179e8e28c0a2ade0d913815543c964", "is_disabled": 0, "rental_uris": {"android": "https://dc.lft.to/lastmile_qr_scan", "ios": "https://dc.lft.to/lastmile_qr_scan"}, "fusion_lon": 0.0, "lat": 38.853125, "bike_id": "4f179e8e28c0a2ade0d913815543c964", "type": "electric_bike", "is_reserved": 0, "lon": -77.04598283333333}, {"fusion_lat": 0.0, "name": "0a7c79a2847f4fd790aa7becce042551", "is_disabled": 0, "rental_uris": {"android": "https://dc.lft.to/lastmile_qr_scan", "ios": "https://dc.lft.to/lastmile_qr_scan"}, "fusion_lon": 0.0, "lat": 38.903606, "bike_id": "0a7c79a2847f4fd790aa7becce042551", "type": "electric_scooter", "is_reserved": 0, "lon": -77.00342983333333}, {"fusion_lat": 0.0, "name": "ddb6c7d0c66d65b1d179544b21958e65", "is_disabled": 0, "rental_uris": {"android": "https://dc.lft.to/lastmile_qr_scan", "ios": "https://dc.lft.to/lastmile_qr_scan"}, "fusion_lon": 0.0, "lat": 38.91132783333333, "bike_id": "ddb6c7d0c66d65b1d179544b21958e65", "type": "electric_scooter", "is_reserved": 0, "lon": -77.010505}, {"fusion_lat": 0.0, "name": "05f8a44c6f92616fe9356c849bcacc71", "is_disabled": 0, "rental_uris": {"android": "https://dc.lft.to/lastmile_qr_scan", "ios": "https://dc.lft.to/lastmile_qr_scan"}, "fusion_lon": 0.0, "lat": 38.9070925, "bike_id": "05f8a44c6f92616fe9356c849bcacc71", "type": "electric_scooter", "is_reserved": 0, "lon": -77.01020866666667}, {"fusion_lat": 0.0, "name": "da89b563237ffc5ef0e0b809532271a8", "is_disabled": 0, "rental_uris": {"android": "https://dc.lft.to/lastmile_qr_scan", "ios": "https://dc.lft.to/lastmile_qr_scan"}, "fusion_lon": 0.0, "lat": 38.898767666666664, "bike_id": "da89b563237ffc5ef0e0b809532271a8", "type": "electric_scooter", "is_reserved": 0, "lon": -76.931843}, {"fusion_lat": 0.0, "name": "82ead0141ee4c5cbd65a570e6c061d66", "is_disabled": 0, "rental_uris": {"android": "https://dc.lft.to/lastmile_qr_scan", "ios": "https://dc.lft.to/lastmile_qr_scan"}, "fusion_lon": 0.0, "lat": 38.847560333333334, "bike_id": "82ead0141ee4c5cbd65a570e6c061d66", "type": "electric_scooter", "is_reserved": 0, "lon": -76.99497733333334}, {"fusion_lat": 0.0, "name": "f83643ba60dba695ac2b1c73ffc45fa8", "is_disabled": 0, "rental_uris": {"android": "https://dc.lft.to/lastmile_qr_scan", "ios": "https://dc.lft.to/lastmile_qr_scan"}, "fusion_lon": 0.0, "lat": 38.9024575, "bike_id": "f83643ba60dba695ac2b1c73ffc45fa8", "type": "electric_scooter", "is_reserved": 0, "lon": -77.00767516666667}, {"fusion_lat": 0.0, "name": "a2645d244814ef7f8fffef5f6310d8d1", "is_disabled": 0, "rental_uris": {"android": "https://dc.lft.to/lastmile_qr_scan", "ios": "https://dc.lft.to/lastmile_qr_scan"}, "fusion_lon": 0.0, "lat": 38.897154, "bike_id": "a2645d244814ef7f8fffef5f6310d8d1", "type": "electric_scooter", "is_reserved": 0, "lon": -77.02730916666667}, {"fusion_lat": 0.0, "name": "4932f132efd8084c1fb1c61e8144da3c", "is_disabled": 0, "rental_uris": {"android": "https://dc.lft.to/lastmile_qr_scan", "ios": "https://dc.lft.to/lastmile_qr_scan"}, "fusion_lon": 0.0, "lat": 38.933714, "bike_id": "4932f132efd8084c1fb1c61e8144da3c", "type": "electric_scooter", "is_reserved": 0, "lon": -77.02412816666667}, {"fusion_lat": 0.0, "name": "13c76f3ff11a4b56cf3f247a075887c9", "is_disabled": 0, "rental_uris": {"android": "https://dc.lft.to/lastmile_qr_scan", "ios": "https://dc.lft.to/lastmile_qr_scan"}, "fusion_lon": 0.0, "lat": 39.05254983333333, "bike_id": "13c76f3ff11a4b56cf3f247a075887c9", "type": "electric_bike", "is_reserved": 0, "lon": -77.080657}, {"fusion_lat": 0.0, "name": "358482d7fbe418223bbccb47ac5ea658", "is_disabled": 0, "rental_uris": {"android": "https://dc.lft.to/lastmile_qr_scan", "ios": "https://dc.lft.to/lastmile_qr_scan"}, "fusion_lon": 0.0, "lat": 38.9352255, "bike_id": "358482d7fbe418223bbccb47ac5ea658", "type": "electric_scooter", "is_reserved": 0, "lon": -77.072606}, {"fusion_lat": 0.0, "name": "00318d4b4b4f01e0cbf3f770dc532582", "is_disabled": 0, "rental_uris": {"android": "https://dc.lft.to/lastmile_qr_scan", "ios": "https://dc.lft.to/lastmile_qr_scan"}, "fusion_lon": 0.0, "lat": 38.9147485, "bike_id": "00318d4b4b4f01e0cbf3f770dc532582", "type": "electric_scooter", "is_reserved": 0, "lon": -77.02407183333334}, {"fusion_lat": 0.0, "name": "8c5ea0ec42f06e52b51fbddcd355a432", "is_disabled": 0, "rental_uris": {"android": "https://dc.lft.to/lastmile_qr_scan", "ios": "https://dc.lft.to/lastmile_qr_scan"}, "fusion_lon": 0.0, "lat": 38.8985165, "bike_id": "8c5ea0ec42f06e52b51fbddcd355a432", "type": "electric_scooter", "is_reserved": 0, "lon": -76.990317}, {"fusion_lat": 0.0, "name": "b12282f9e09974ac128f4d0517a4dcec", "is_disabled": 0, "rental_uris": {"android": "https://dc.lft.to/lastmile_qr_scan", "ios": "https://dc.lft.to/lastmile_qr_scan"}, "fusion_lon": 0.0, "lat": 38.88332166666667, "bike_id": "b12282f9e09974ac128f4d0517a4dcec", "type": "electric_scooter", "is_reserved": 0, "lon": -77.01737433333334}, {"fusion_lat": 0.0, "name": "1fc416a96529f25e5275cd327efdaa92", "is_disabled": 0, "rental_uris": {"android": "https://dc.lft.to/lastmile_qr_scan", "ios": "https://dc.lft.to/lastmile_qr_scan"}, "fusion_lon": 0.0, "lat": 38.918104, "bike_id": "1fc416a96529f25e5275cd327efdaa92", "type": "electric_scooter", "is_reserved": 0, "lon": -77.03724583333333}, {"fusion_lat": 0.0, "name": "da59866b79040ee09e098d89a8286e9d", "is_disabled": 0, "rental_uris": {"android": "https://dc.lft.to/lastmile_qr_scan", "ios": "https://dc.lft.to/lastmile_qr_scan"}, "fusion_lon": 0.0, "lat": 38.92236466666667, "bike_id": "da59866b79040ee09e098d89a8286e9d", "type": "electric_scooter", "is_reserved": 0, "lon": -77.0424705}, {"fusion_lat": 0.0, "name": "32edf3e2641966df94e2516495abc6e0", "is_disabled": 0, "rental_uris": {"android": "https://dc.lft.to/lastmile_qr_scan", "ios": "https://dc.lft.to/lastmile_qr_scan"}, "fusion_lon": 0.0, "lat": 38.93096966666667, "bike_id": "32edf3e2641966df94e2516495abc6e0", "type": "electric_scooter", "is_reserved": 0, "lon": -77.02556366666667}, {"fusion_lat": 0.0, "name": "24d99c8ccd2b565b831581e8a9cebe2b", "is_disabled": 0, "rental_uris": {"android": "https://dc.lft.to/lastmile_qr_scan", "ios": "https://dc.lft.to/lastmile_qr_scan"}, "fusion_lon": 0.0, "lat": 38.923217, "bike_id": "24d99c8ccd2b565b831581e8a9cebe2b", "type": "electric_scooter", "is_reserved": 0, "lon": -77.0560655}, {"fusion_lat": 0.0, "name": "a7095bf3f76620caac0d1d984eb3a468", "is_disabled": 0, "rental_uris": {"android": "https://dc.lft.to/lastmile_qr_scan", "ios": "https://dc.lft.to/lastmile_qr_scan"}, "fusion_lon": 0.0, "lat": 38.90789083333333, "bike_id": "a7095bf3f76620caac0d1d984eb3a468", "type": "electric_scooter", "is_reserved": 0, "lon": -77.07435416666667}, {"fusion_lat": 0.0, "name": "fd89b0f2de9e89bd176ac65bef55d39e", "is_disabled": 0, "rental_uris": {"android": "https://dc.lft.to/lastmile_qr_scan", "ios": "https://dc.lft.to/lastmile_qr_scan"}, "fusion_lon": 0.0, "lat": 38.89743216666667, "bike_id": "fd89b0f2de9e89bd176ac65bef55d39e", "type": "electric_scooter", "is_reserved": 0, "lon": -77.02722716666666}, {"fusion_lat": 0.0, "name": "250325aaa9d172827bd2e9991e84985c", "is_disabled": 0, "rental_uris": {"android": "https://dc.lft.to/lastmile_qr_scan", "ios": "https://dc.lft.to/lastmile_qr_scan"}, "fusion_lon": 0.0, "lat": 38.90212, "bike_id": "250325aaa9d172827bd2e9991e84985c", "type": "electric_scooter", "is_reserved": 0, "lon": -76.9951165}, {"fusion_lat": 0.0, "name": "8fecb3585c214ce76efcb8afa74e5b9b", "is_disabled": 0, "rental_uris": {"android": "https://dc.lft.to/lastmile_qr_scan", "ios": "https://dc.lft.to/lastmile_qr_scan"}, "fusion_lon": 0.0, "lat": 38.904983333333334, "bike_id": "8fecb3585c214ce76efcb8afa74e5b9b", "type": "electric_scooter", "is_reserved": 0, "lon": -76.99686016666666}, {"fusion_lat": 0.0, "name": "3a1acf49309786d8c09215dc227f14b6", "is_disabled": 0, "rental_uris": {"android": "https://dc.lft.to/lastmile_qr_scan", "ios": "https://dc.lft.to/lastmile_qr_scan"}, "fusion_lon": 0.0, "lat": 38.9386055, "bike_id": "3a1acf49309786d8c09215dc227f14b6", "type": "electric_scooter", "is_reserved": 0, "lon": -77.024583}, {"fusion_lat": 0.0, "name": "c30fc93ff3acec3e114c75562fc76008", "is_disabled": 0, "rental_uris": {"android": "https://dc.lft.to/lastmile_qr_scan", "ios": "https://dc.lft.to/lastmile_qr_scan"}, "fusion_lon": 0.0, "lat": 38.9407075, "bike_id": "c30fc93ff3acec3e114c75562fc76008", "type": "electric_bike", "is_reserved": 0, "lon": -76.99462766666667}, {"fusion_lat": 0.0, "name": "37200a7786ee64449a54fb37b5b161c7", "is_disabled": 0, "rental_uris": {"android": "https://dc.lft.to/lastmile_qr_scan", "ios": "https://dc.lft.to/lastmile_qr_scan"}, "fusion_lon": 0.0, "lat": 38.9023785, "bike_id": "37200a7786ee64449a54fb37b5b161c7", "type": "electric_scooter", "is_reserved": 0, "lon": -77.02302}, {"fusion_lat": 0.0, "name": "886ef24634c4a83667ab322b8736a848", "is_disabled": 0, "rental_uris": {"android": "https://dc.lft.to/lastmile_qr_scan", "ios": "https://dc.lft.to/lastmile_qr_scan"}, "fusion_lon": 0.0, "lat": 38.87468366666667, "bike_id": "886ef24634c4a83667ab322b8736a848", "type": "electric_scooter", "is_reserved": 0, "lon": -77.01697116666666}, {"fusion_lat": 0.0, "name": "cb72d0c415a59944e88e716d00970afc", "is_disabled": 0, "rental_uris": {"android": "https://dc.lft.to/lastmile_qr_scan", "ios": "https://dc.lft.to/lastmile_qr_scan"}, "fusion_lon": 0.0, "lat": 38.927377666666665, "bike_id": "cb72d0c415a59944e88e716d00970afc", "type": "electric_scooter", "is_reserved": 0, "lon": -77.02707216666667}, {"fusion_lat": 0.0, "name": "5d71801a12fa8d7c3e2aa232efdb42be", "is_disabled": 0, "rental_uris": {"android": "https://dc.lft.to/lastmile_qr_scan", "ios": "https://dc.lft.to/lastmile_qr_scan"}, "fusion_lon": 0.0, "lat": 38.865145166666665, "bike_id": "5d71801a12fa8d7c3e2aa232efdb42be", "type": "electric_bike", "is_reserved": 0, "lon": -77.1293775}, {"fusion_lat": 0.0, "name": "e619acfbf41c9c4a8f84987fb0ef282f", "is_disabled": 0, "rental_uris": {"android": "https://dc.lft.to/lastmile_qr_scan", "ios": "https://dc.lft.to/lastmile_qr_scan"}, "fusion_lon": 0.0, "lat": 38.8988375, "bike_id": "e619acfbf41c9c4a8f84987fb0ef282f", "type": "electric_scooter", "is_reserved": 0, "lon": -77.02608316666667}, {"fusion_lat": 0.0, "name": "cede532147a9d4f152504315afb390ff", "is_disabled": 0, "rental_uris": {"android": "https://dc.lft.to/lastmile_qr_scan", "ios": "https://dc.lft.to/lastmile_qr_scan"}, "fusion_lon": 0.0, "lat": 38.93257883333333, "bike_id": "cede532147a9d4f152504315afb390ff", "type": "electric_scooter", "is_reserved": 0, "lon": -77.03863816666667}, {"fusion_lat": 0.0, "name": "fff8758d8fb191c5527e38039d9c6364", "is_disabled": 0, "rental_uris": {"android": "https://dc.lft.to/lastmile_qr_scan", "ios": "https://dc.lft.to/lastmile_qr_scan"}, "fusion_lon": 0.0, "lat": 38.9380925, "bike_id": "fff8758d8fb191c5527e38039d9c6364", "type": "electric_scooter", "is_reserved": 0, "lon": -77.06020366666667}, {"fusion_lat": 0.0, "name": "d3bb8605d67ea96f07d45fac2daecbef", "is_disabled": 0, "rental_uris": {"android": "https://dc.lft.to/lastmile_qr_scan", "ios": "https://dc.lft.to/lastmile_qr_scan"}, "fusion_lon": 0.0, "lat": 38.86266966666667, "bike_id": "d3bb8605d67ea96f07d45fac2daecbef", "type": "electric_bike", "is_reserved": 0, "lon": -76.98352016666666}, {"fusion_lat": 0.0, "name": "dcf8ad0999ca251cd33ad60415a67312", "is_disabled": 0, "rental_uris": {"android": "https://dc.lft.to/lastmile_qr_scan", "ios": "https://dc.lft.to/lastmile_qr_scan"}, "fusion_lon": 0.0, "lat": 38.908777, "bike_id": "dcf8ad0999ca251cd33ad60415a67312", "type": "electric_bike", "is_reserved": 0, "lon": -77.03193383333333}, {"fusion_lat": 0.0, "name": "6e7206a64a861c98b53622c09fca2e08", "is_disabled": 0, "rental_uris": {"android": "https://dc.lft.to/lastmile_qr_scan", "ios": "https://dc.lft.to/lastmile_qr_scan"}, "fusion_lon": 0.0, "lat": 38.9245895, "bike_id": "6e7206a64a861c98b53622c09fca2e08", "type": "electric_scooter", "is_reserved": 0, "lon": -76.9933655}, {"fusion_lat": 0.0, "name": "fe66e8f0f23fd8d0d1d9da38d0967523", "is_disabled": 0, "rental_uris": {"android": "https://dc.lft.to/lastmile_qr_scan", "ios": "https://dc.lft.to/lastmile_qr_scan"}, "fusion_lon": 0.0, "lat": 38.93561866666667, "bike_id": "fe66e8f0f23fd8d0d1d9da38d0967523", "type": "electric_bike", "is_reserved": 0, "lon": -77.03700366666666}, {"fusion_lat": 0.0, "name": "a2564c2587c9694d3d964709f9d5b678", "is_disabled": 0, "rental_uris": {"android": "https://dc.lft.to/lastmile_qr_scan", "ios": "https://dc.lft.to/lastmile_qr_scan"}, "fusion_lon": 0.0, "lat": 38.92060133333333, "bike_id": "a2564c2587c9694d3d964709f9d5b678", "type": "electric_scooter", "is_reserved": 0, "lon": -77.04197483333333}, {"fusion_lat": 0.0, "name": "5c9254735a7755b8da9af58936900c5d", "is_disabled": 0, "rental_uris": {"android": "https://dc.lft.to/lastmile_qr_scan", "ios": "https://dc.lft.to/lastmile_qr_scan"}, "fusion_lon": 0.0, "lat": 38.927829833333334, "bike_id": "5c9254735a7755b8da9af58936900c5d", "type": "electric_scooter", "is_reserved": 0, "lon": -76.97974283333333}, {"fusion_lat": 0.0, "name": "a6b9b512e099a9d8f03999cd48bcc809", "is_disabled": 0, "rental_uris": {"android": "https://dc.lft.to/lastmile_qr_scan", "ios": "https://dc.lft.to/lastmile_qr_scan"}, "fusion_lon": 0.0, "lat": 38.91026433333333, "bike_id": "a6b9b512e099a9d8f03999cd48bcc809", "type": "electric_scooter", "is_reserved": 0, "lon": -77.00756733333333}, {"fusion_lat": 0.0, "name": "caa61f7ba4401af47916dd77d8a3b418", "is_disabled": 0, "rental_uris": {"android": "https://dc.lft.to/lastmile_qr_scan", "ios": "https://dc.lft.to/lastmile_qr_scan"}, "fusion_lon": 0.0, "lat": 38.9206715, "bike_id": "caa61f7ba4401af47916dd77d8a3b418", "type": "electric_scooter", "is_reserved": 0, "lon": -76.99857983333334}, {"fusion_lat": 0.0, "name": "9d3dbe2130ce4c547302d08557b51aa5", "is_disabled": 0, "rental_uris": {"android": "https://dc.lft.to/lastmile_qr_scan", "ios": "https://dc.lft.to/lastmile_qr_scan"}, "fusion_lon": 0.0, "lat": 38.88625, "bike_id": "9d3dbe2130ce4c547302d08557b51aa5", "type": "electric_scooter", "is_reserved": 0, "lon": -77.019937}, {"fusion_lat": 0.0, "name": "988c4d2f7adbcf02b0f3478081b468d3", "is_disabled": 0, "rental_uris": {"android": "https://dc.lft.to/lastmile_qr_scan", "ios": "https://dc.lft.to/lastmile_qr_scan"}, "fusion_lon": 0.0, "lat": 38.901084, "bike_id": "988c4d2f7adbcf02b0f3478081b468d3", "type": "electric_scooter", "is_reserved": 0, "lon": -77.01920483333333}, {"fusion_lat": 0.0, "name": "f92d07483db43ae18632ae67040c08fd", "is_disabled": 0, "rental_uris": {"android": "https://dc.lft.to/lastmile_qr_scan", "ios": "https://dc.lft.to/lastmile_qr_scan"}, "fusion_lon": 0.0, "lat": 38.894800833333335, "bike_id": "f92d07483db43ae18632ae67040c08fd", "type": "electric_scooter", "is_reserved": 0, "lon": -77.02181716666666}, {"fusion_lat": 0.0, "name": "3ca5dfa44370a437f32791fe372575bb", "is_disabled": 0, "rental_uris": {"android": "https://dc.lft.to/lastmile_qr_scan", "ios": "https://dc.lft.to/lastmile_qr_scan"}, "fusion_lon": 0.0, "lat": 38.920751, "bike_id": "3ca5dfa44370a437f32791fe372575bb", "type": "electric_scooter", "is_reserved": 0, "lon": -77.04199733333333}, {"fusion_lat": 0.0, "name": "22f2d0396f277991ed717d940022acf8", "is_disabled": 0, "rental_uris": {"android": "https://dc.lft.to/lastmile_qr_scan", "ios": "https://dc.lft.to/lastmile_qr_scan"}, "fusion_lon": 0.0, "lat": 38.923578166666665, "bike_id": "22f2d0396f277991ed717d940022acf8", "type": "electric_scooter", "is_reserved": 0, "lon": -77.042388}, {"fusion_lat": 0.0, "name": "12bc38b2f0b7a08371425c89c0ceed24", "is_disabled": 0, "rental_uris": {"android": "https://dc.lft.to/lastmile_qr_scan", "ios": "https://dc.lft.to/lastmile_qr_scan"}, "fusion_lon": 0.0, "lat": 38.90733483333333, "bike_id": "12bc38b2f0b7a08371425c89c0ceed24", "type": "electric_scooter", "is_reserved": 0, "lon": -77.04503283333334}, {"fusion_lat": 0.0, "name": "9c0d2f4f5ea64e7f69ab68af3eab6620", "is_disabled": 0, "rental_uris": {"android": "https://dc.lft.to/lastmile_qr_scan", "ios": "https://dc.lft.to/lastmile_qr_scan"}, "fusion_lon": 0.0, "lat": 39.00773733333333, "bike_id": "9c0d2f4f5ea64e7f69ab68af3eab6620", "type": "electric_bike", "is_reserved": 0, "lon": -76.8897595}, {"fusion_lat": 0.0, "name": "7352bfd68f35a22aaaecaef7bebd0719", "is_disabled": 0, "rental_uris": {"android": "https://dc.lft.to/lastmile_qr_scan", "ios": "https://dc.lft.to/lastmile_qr_scan"}, "fusion_lon": 0.0, "lat": 38.89221033333333, "bike_id": "7352bfd68f35a22aaaecaef7bebd0719", "type": "electric_scooter", "is_reserved": 0, "lon": -77.023622}, {"fusion_lat": 0.0, "name": "e86fb7b645f38a8aaf4f5af7bb66dfde", "is_disabled": 0, "rental_uris": {"android": "https://dc.lft.to/lastmile_qr_scan", "ios": "https://dc.lft.to/lastmile_qr_scan"}, "fusion_lon": 0.0, "lat": 38.9181865, "bike_id": "e86fb7b645f38a8aaf4f5af7bb66dfde", "type": "electric_scooter", "is_reserved": 0, "lon": -77.0037355}, {"fusion_lat": 0.0, "name": "38e5fdc1a9ed6595c982a46249462ac7", "is_disabled": 0, "rental_uris": {"android": "https://dc.lft.to/lastmile_qr_scan", "ios": "https://dc.lft.to/lastmile_qr_scan"}, "fusion_lon": 0.0, "lat": 38.928695166666664, "bike_id": "38e5fdc1a9ed6595c982a46249462ac7", "type": "electric_scooter", "is_reserved": 0, "lon": -77.056513}, {"fusion_lat": 0.0, "name": "a3954f80b64e9fad7e75c71d295719f7", "is_disabled": 0, "rental_uris": {"android": "https://dc.lft.to/lastmile_qr_scan", "ios": "https://dc.lft.to/lastmile_qr_scan"}, "fusion_lon": 0.0, "lat": 38.89743133333333, "bike_id": "a3954f80b64e9fad7e75c71d295719f7", "type": "electric_scooter", "is_reserved": 0, "lon": -77.019648}, {"fusion_lat": 0.0, "name": "66a877d71262a53f652cc30dcae154a0", "is_disabled": 0, "rental_uris": {"android": "https://dc.lft.to/lastmile_qr_scan", "ios": "https://dc.lft.to/lastmile_qr_scan"}, "fusion_lon": 0.0, "lat": 38.9140485, "bike_id": "66a877d71262a53f652cc30dcae154a0", "type": "electric_scooter", "is_reserved": 0, "lon": -77.0321695}, {"fusion_lat": 0.0, "name": "7c7437729f0d90e37b62e413d2bd3922", "is_disabled": 0, "rental_uris": {"android": "https://dc.lft.to/lastmile_qr_scan", "ios": "https://dc.lft.to/lastmile_qr_scan"}, "fusion_lon": 0.0, "lat": 38.88451933333333, "bike_id": "7c7437729f0d90e37b62e413d2bd3922", "type": "electric_scooter", "is_reserved": 0, "lon": -76.99390516666666}, {"fusion_lat": 0.0, "name": "e80af919592043ea966882d039243707", "is_disabled": 0, "rental_uris": {"android": "https://dc.lft.to/lastmile_qr_scan", "ios": "https://dc.lft.to/lastmile_qr_scan"}, "fusion_lon": 0.0, "lat": 38.911223, "bike_id": "e80af919592043ea966882d039243707", "type": "electric_scooter", "is_reserved": 0, "lon": -77.0208435}, {"fusion_lat": 0.0, "name": "9ad2c2bb510a67f7aa967d63fc9a45ec", "is_disabled": 0, "rental_uris": {"android": "https://dc.lft.to/lastmile_qr_scan", "ios": "https://dc.lft.to/lastmile_qr_scan"}, "fusion_lon": 0.0, "lat": 38.8068375, "bike_id": "9ad2c2bb510a67f7aa967d63fc9a45ec", "type": "electric_bike", "is_reserved": 0, "lon": -77.06915266666667}, {"fusion_lat": 0.0, "name": "6145398c66042ee78ec852733454e5eb", "is_disabled": 0, "rental_uris": {"android": "https://dc.lft.to/lastmile_qr_scan", "ios": "https://dc.lft.to/lastmile_qr_scan"}, "fusion_lon": 0.0, "lat": 38.9086435, "bike_id": "6145398c66042ee78ec852733454e5eb", "type": "electric_scooter", "is_reserved": 0, "lon": -77.04748433333333}, {"fusion_lat": 0.0, "name": "4cb4a259481c3bb088e620f189d0c5c8", "is_disabled": 0, "rental_uris": {"android": "https://dc.lft.to/lastmile_qr_scan", "ios": "https://dc.lft.to/lastmile_qr_scan"}, "fusion_lon": 0.0, "lat": 38.9072895, "bike_id": "4cb4a259481c3bb088e620f189d0c5c8", "type": "electric_scooter", "is_reserved": 0, "lon": -77.05054933333334}, {"fusion_lat": 0.0, "name": "7bed23cc820d13c706e08d0663aed7b9", "is_disabled": 0, "rental_uris": {"android": "https://dc.lft.to/lastmile_qr_scan", "ios": "https://dc.lft.to/lastmile_qr_scan"}, "fusion_lon": 0.0, "lat": 38.924564833333335, "bike_id": "7bed23cc820d13c706e08d0663aed7b9", "type": "electric_scooter", "is_reserved": 0, "lon": -76.99912216666667}, {"fusion_lat": 0.0, "name": "968d003866661ce278891cff8e71c41c", "is_disabled": 0, "rental_uris": {"android": "https://dc.lft.to/lastmile_qr_scan", "ios": "https://dc.lft.to/lastmile_qr_scan"}, "fusion_lon": 0.0, "lat": 38.90061133333333, "bike_id": "968d003866661ce278891cff8e71c41c", "type": "electric_scooter", "is_reserved": 0, "lon": -76.98690066666667}, {"fusion_lat": 0.0, "name": "229ee875434631bad6dd6a6b95bdb961", "is_disabled": 0, "rental_uris": {"android": "https://dc.lft.to/lastmile_qr_scan", "ios": "https://dc.lft.to/lastmile_qr_scan"}, "fusion_lon": 0.0, "lat": 38.885032, "bike_id": "229ee875434631bad6dd6a6b95bdb961", "type": "electric_scooter", "is_reserved": 0, "lon": -76.99754233333333}, {"fusion_lat": 0.0, "name": "7cc07c2da76b9fc75a0053fdfb3d3094", "is_disabled": 0, "rental_uris": {"android": "https://dc.lft.to/lastmile_qr_scan", "ios": "https://dc.lft.to/lastmile_qr_scan"}, "fusion_lon": 0.0, "lat": 38.90852533333333, "bike_id": "7cc07c2da76b9fc75a0053fdfb3d3094", "type": "electric_scooter", "is_reserved": 0, "lon": -77.04739866666667}, {"fusion_lat": 0.0, "name": "4346adc8a5223600114f78daf0b2d70c", "is_disabled": 0, "rental_uris": {"android": "https://dc.lft.to/lastmile_qr_scan", "ios": "https://dc.lft.to/lastmile_qr_scan"}, "fusion_lon": 0.0, "lat": 38.917272833333335, "bike_id": "4346adc8a5223600114f78daf0b2d70c", "type": "electric_scooter", "is_reserved": 0, "lon": -77.02812466666667}, {"fusion_lat": 0.0, "name": "ba66f10aebca0f211e9b3bab71b344a2", "is_disabled": 0, "rental_uris": {"android": "https://dc.lft.to/lastmile_qr_scan", "ios": "https://dc.lft.to/lastmile_qr_scan"}, "fusion_lon": 0.0, "lat": 39.0141775, "bike_id": "ba66f10aebca0f211e9b3bab71b344a2", "type": "electric_bike", "is_reserved": 0, "lon": -77.0449515}, {"fusion_lat": 0.0, "name": "f057720afac34b2025b6a1815e9559ae", "is_disabled": 0, "rental_uris": {"android": "https://dc.lft.to/lastmile_qr_scan", "ios": "https://dc.lft.to/lastmile_qr_scan"}, "fusion_lon": 0.0, "lat": 38.895602, "bike_id": "f057720afac34b2025b6a1815e9559ae", "type": "electric_scooter", "is_reserved": 0, "lon": -76.99426866666667}, {"fusion_lat": 0.0, "name": "fc1ae8bab02f068753a30ecc46b1406e", "is_disabled": 0, "rental_uris": {"android": "https://dc.lft.to/lastmile_qr_scan", "ios": "https://dc.lft.to/lastmile_qr_scan"}, "fusion_lon": 0.0, "lat": 38.92157233333333, "bike_id": "fc1ae8bab02f068753a30ecc46b1406e", "type": "electric_scooter", "is_reserved": 0, "lon": -77.020945}, {"fusion_lat": 0.0, "name": "50ae9b26be2cec953a1dfe6aff4acf10", "is_disabled": 0, "rental_uris": {"android": "https://dc.lft.to/lastmile_qr_scan", "ios": "https://dc.lft.to/lastmile_qr_scan"}, "fusion_lon": 0.0, "lat": 38.90861266666667, "bike_id": "50ae9b26be2cec953a1dfe6aff4acf10", "type": "electric_scooter", "is_reserved": 0, "lon": -77.0235885}, {"fusion_lat": 0.0, "name": "33ae64b8c8e179e0484c8d38b4ec4a84", "is_disabled": 0, "rental_uris": {"android": "https://dc.lft.to/lastmile_qr_scan", "ios": "https://dc.lft.to/lastmile_qr_scan"}, "fusion_lon": 0.0, "lat": 38.879000833333336, "bike_id": "33ae64b8c8e179e0484c8d38b4ec4a84", "type": "electric_scooter", "is_reserved": 0, "lon": -77.013566}, {"fusion_lat": 0.0, "name": "0049e814e70d46a1c21557817685dda5", "is_disabled": 0, "rental_uris": {"android": "https://dc.lft.to/lastmile_qr_scan", "ios": "https://dc.lft.to/lastmile_qr_scan"}, "fusion_lon": 0.0, "lat": 38.922927, "bike_id": "0049e814e70d46a1c21557817685dda5", "type": "electric_scooter", "is_reserved": 0, "lon": -77.02522666666667}, {"fusion_lat": 0.0, "name": "80712f518a02725775fdb412b0685383", "is_disabled": 0, "rental_uris": {"android": "https://dc.lft.to/lastmile_qr_scan", "ios": "https://dc.lft.to/lastmile_qr_scan"}, "fusion_lon": 0.0, "lat": 38.927667, "bike_id": "80712f518a02725775fdb412b0685383", "type": "electric_scooter", "is_reserved": 0, "lon": -77.01620833333334}, {"fusion_lat": 0.0, "name": "84d7ec35853ee33083e517b1bf45bfbe", "is_disabled": 0, "rental_uris": {"android": "https://dc.lft.to/lastmile_qr_scan", "ios": "https://dc.lft.to/lastmile_qr_scan"}, "fusion_lon": 0.0, "lat": 38.90644833333333, "bike_id": "84d7ec35853ee33083e517b1bf45bfbe", "type": "electric_scooter", "is_reserved": 0, "lon": -77.0531455}, {"fusion_lat": 0.0, "name": "a47f865c6fb94d25ca6d7bf2af983927", "is_disabled": 0, "rental_uris": {"android": "https://dc.lft.to/lastmile_qr_scan", "ios": "https://dc.lft.to/lastmile_qr_scan"}, "fusion_lon": 0.0, "lat": 38.895288666666666, "bike_id": "a47f865c6fb94d25ca6d7bf2af983927", "type": "electric_scooter", "is_reserved": 0, "lon": -76.93410533333333}, {"fusion_lat": 0.0, "name": "5a0745ddbd4767058828c5fa83d533c0", "is_disabled": 0, "rental_uris": {"android": "https://dc.lft.to/lastmile_qr_scan", "ios": "https://dc.lft.to/lastmile_qr_scan"}, "fusion_lon": 0.0, "lat": 38.91977416666667, "bike_id": "5a0745ddbd4767058828c5fa83d533c0", "type": "electric_scooter", "is_reserved": 0, "lon": -77.07099016666666}, {"fusion_lat": 0.0, "name": "30821dcf209367a7e25d7fede3ad4f8b", "is_disabled": 0, "rental_uris": {"android": "https://dc.lft.to/lastmile_qr_scan", "ios": "https://dc.lft.to/lastmile_qr_scan"}, "fusion_lon": 0.0, "lat": 38.907201, "bike_id": "30821dcf209367a7e25d7fede3ad4f8b", "type": "electric_scooter", "is_reserved": 0, "lon": -77.04736733333333}, {"fusion_lat": 0.0, "name": "747008891deb07987267ca76e6afbe5e", "is_disabled": 0, "rental_uris": {"android": "https://dc.lft.to/lastmile_qr_scan", "ios": "https://dc.lft.to/lastmile_qr_scan"}, "fusion_lon": 0.0, "lat": 38.90555416666667, "bike_id": "747008891deb07987267ca76e6afbe5e", "type": "electric_scooter", "is_reserved": 0, "lon": -77.0651365}, {"fusion_lat": 0.0, "name": "5fbc0ab39b6fc9866a495956f2a566e5", "is_disabled": 0, "rental_uris": {"android": "https://dc.lft.to/lastmile_qr_scan", "ios": "https://dc.lft.to/lastmile_qr_scan"}, "fusion_lon": 0.0, "lat": 38.922546, "bike_id": "5fbc0ab39b6fc9866a495956f2a566e5", "type": "electric_scooter", "is_reserved": 0, "lon": -77.0745195}, {"fusion_lat": 0.0, "name": "b95e01cda9deed1fe84bb569a94b699c", "is_disabled": 0, "rental_uris": {"android": "https://dc.lft.to/lastmile_qr_scan", "ios": "https://dc.lft.to/lastmile_qr_scan"}, "fusion_lon": 0.0, "lat": 38.91499733333333, "bike_id": "b95e01cda9deed1fe84bb569a94b699c", "type": "electric_scooter", "is_reserved": 0, "lon": -76.98375433333334}, {"fusion_lat": 0.0, "name": "6cdd48a7d9f6c19f92195cd168ca1a45", "is_disabled": 0, "rental_uris": {"android": "https://dc.lft.to/lastmile_qr_scan", "ios": "https://dc.lft.to/lastmile_qr_scan"}, "fusion_lon": 0.0, "lat": 38.93402016666667, "bike_id": "6cdd48a7d9f6c19f92195cd168ca1a45", "type": "electric_scooter", "is_reserved": 0, "lon": -77.057435}, {"fusion_lat": 0.0, "name": "423feae9686b69cc6af78cd90caf63f5", "is_disabled": 0, "rental_uris": {"android": "https://dc.lft.to/lastmile_qr_scan", "ios": "https://dc.lft.to/lastmile_qr_scan"}, "fusion_lon": 0.0, "lat": 38.905585, "bike_id": "423feae9686b69cc6af78cd90caf63f5", "type": "electric_scooter", "is_reserved": 0, "lon": -76.99789216666667}, {"fusion_lat": 0.0, "name": "8a002bf609e92bcd99e06297f093a712", "is_disabled": 0, "rental_uris": {"android": "https://dc.lft.to/lastmile_qr_scan", "ios": "https://dc.lft.to/lastmile_qr_scan"}, "fusion_lon": 0.0, "lat": 38.9079165, "bike_id": "8a002bf609e92bcd99e06297f093a712", "type": "electric_scooter", "is_reserved": 0, "lon": -76.99423283333333}, {"fusion_lat": 0.0, "name": "cb2636532da1e1e87a59b5d83df4101b", "is_disabled": 0, "rental_uris": {"android": "https://dc.lft.to/lastmile_qr_scan", "ios": "https://dc.lft.to/lastmile_qr_scan"}, "fusion_lon": 0.0, "lat": 38.905633333333334, "bike_id": "cb2636532da1e1e87a59b5d83df4101b", "type": "electric_scooter", "is_reserved": 0, "lon": -76.981966}, {"fusion_lat": 0.0, "name": "28062587ee6ad795bb225d081f99a71d", "is_disabled": 0, "rental_uris": {"android": "https://dc.lft.to/lastmile_qr_scan", "ios": "https://dc.lft.to/lastmile_qr_scan"}, "fusion_lon": 0.0, "lat": 38.888259, "bike_id": "28062587ee6ad795bb225d081f99a71d", "type": "electric_scooter", "is_reserved": 0, "lon": -76.98663883333333}, {"fusion_lat": 0.0, "name": "8d139652709d00e2c7c7efda3949534e", "is_disabled": 0, "rental_uris": {"android": "https://dc.lft.to/lastmile_qr_scan", "ios": "https://dc.lft.to/lastmile_qr_scan"}, "fusion_lon": 0.0, "lat": 38.93510066666666, "bike_id": "8d139652709d00e2c7c7efda3949534e", "type": "electric_scooter", "is_reserved": 0, "lon": -77.024195}, {"fusion_lat": 0.0, "name": "cb67934b21dca55b668918d8b7dc9963", "is_disabled": 0, "rental_uris": {"android": "https://dc.lft.to/lastmile_qr_scan", "ios": "https://dc.lft.to/lastmile_qr_scan"}, "fusion_lon": 0.0, "lat": 38.925871666666666, "bike_id": "cb67934b21dca55b668918d8b7dc9963", "type": "electric_scooter", "is_reserved": 0, "lon": -77.0373715}, {"fusion_lat": 0.0, "name": "583e54d7a398dea3193ff083c0a021d7", "is_disabled": 0, "rental_uris": {"android": "https://dc.lft.to/lastmile_qr_scan", "ios": "https://dc.lft.to/lastmile_qr_scan"}, "fusion_lon": 0.0, "lat": 38.916220333333335, "bike_id": "583e54d7a398dea3193ff083c0a021d7", "type": "electric_scooter", "is_reserved": 0, "lon": -77.03853683333334}, {"fusion_lat": 0.0, "name": "89c7cf3ee33973a72d66ef435d67e210", "is_disabled": 0, "rental_uris": {"android": "https://dc.lft.to/lastmile_qr_scan", "ios": "https://dc.lft.to/lastmile_qr_scan"}, "fusion_lon": 0.0, "lat": 38.900377, "bike_id": "89c7cf3ee33973a72d66ef435d67e210", "type": "electric_scooter", "is_reserved": 0, "lon": -77.058253}, {"fusion_lat": 0.0, "name": "76bdea9b30d064352e6b67f1d1265dbc", "is_disabled": 0, "rental_uris": {"android": "https://dc.lft.to/lastmile_qr_scan", "ios": "https://dc.lft.to/lastmile_qr_scan"}, "fusion_lon": 0.0, "lat": 38.90681933333333, "bike_id": "76bdea9b30d064352e6b67f1d1265dbc", "type": "electric_scooter", "is_reserved": 0, "lon": -77.07010583333333}, {"fusion_lat": 0.0, "name": "cd8c0f8545dc42d0348b70eb8248d90a", "is_disabled": 0, "rental_uris": {"android": "https://dc.lft.to/lastmile_qr_scan", "ios": "https://dc.lft.to/lastmile_qr_scan"}, "fusion_lon": 0.0, "lat": 38.8973125, "bike_id": "cd8c0f8545dc42d0348b70eb8248d90a", "type": "electric_scooter", "is_reserved": 0, "lon": -77.02153566666667}, {"fusion_lat": 0.0, "name": "a3ff612f387fc0d18b8e8fc885a43153", "is_disabled": 0, "rental_uris": {"android": "https://dc.lft.to/lastmile_qr_scan", "ios": "https://dc.lft.to/lastmile_qr_scan"}, "fusion_lon": 0.0, "lat": 38.89910283333333, "bike_id": "a3ff612f387fc0d18b8e8fc885a43153", "type": "electric_scooter", "is_reserved": 0, "lon": -76.93347216666666}, {"fusion_lat": 0.0, "name": "1de77e71e08bad011812230c74b87d81", "is_disabled": 0, "rental_uris": {"android": "https://dc.lft.to/lastmile_qr_scan", "ios": "https://dc.lft.to/lastmile_qr_scan"}, "fusion_lon": 0.0, "lat": 38.934168, "bike_id": "1de77e71e08bad011812230c74b87d81", "type": "electric_scooter", "is_reserved": 0, "lon": -77.04161633333334}, {"fusion_lat": 0.0, "name": "5986e84b4e0c83505ee35b997e2bbade", "is_disabled": 0, "rental_uris": {"android": "https://dc.lft.to/lastmile_qr_scan", "ios": "https://dc.lft.to/lastmile_qr_scan"}, "fusion_lon": 0.0, "lat": 38.92869683333333, "bike_id": "5986e84b4e0c83505ee35b997e2bbade", "type": "electric_scooter", "is_reserved": 0, "lon": -77.03497066666667}, {"fusion_lat": 0.0, "name": "08200c9f7f46ca0517921273928886be", "is_disabled": 0, "rental_uris": {"android": "https://dc.lft.to/lastmile_qr_scan", "ios": "https://dc.lft.to/lastmile_qr_scan"}, "fusion_lon": 0.0, "lat": 38.905598, "bike_id": "08200c9f7f46ca0517921273928886be", "type": "electric_scooter", "is_reserved": 0, "lon": -77.00501116666666}, {"fusion_lat": 0.0, "name": "0483b2f042effeac2569c8f34fc95201", "is_disabled": 0, "rental_uris": {"android": "https://dc.lft.to/lastmile_qr_scan", "ios": "https://dc.lft.to/lastmile_qr_scan"}, "fusion_lon": 0.0, "lat": 38.93902966666667, "bike_id": "0483b2f042effeac2569c8f34fc95201", "type": "electric_scooter", "is_reserved": 0, "lon": -77.03261866666666}, {"fusion_lat": 0.0, "name": "e11e78d09adc4f624d2e02471071b0a2", "is_disabled": 0, "rental_uris": {"android": "https://dc.lft.to/lastmile_qr_scan", "ios": "https://dc.lft.to/lastmile_qr_scan"}, "fusion_lon": 0.0, "lat": 38.935341, "bike_id": "e11e78d09adc4f624d2e02471071b0a2", "type": "electric_scooter", "is_reserved": 0, "lon": -77.02851116666666}, {"fusion_lat": 0.0, "name": "92c766acf62b9b4907f3ea4b40ba390a", "is_disabled": 0, "rental_uris": {"android": "https://dc.lft.to/lastmile_qr_scan", "ios": "https://dc.lft.to/lastmile_qr_scan"}, "fusion_lon": 0.0, "lat": 38.928535333333336, "bike_id": "92c766acf62b9b4907f3ea4b40ba390a", "type": "electric_scooter", "is_reserved": 0, "lon": -77.03636633333333}, {"fusion_lat": 0.0, "name": "0312ff083d90d1325caa20c5d1532ef4", "is_disabled": 0, "rental_uris": {"android": "https://dc.lft.to/lastmile_qr_scan", "ios": "https://dc.lft.to/lastmile_qr_scan"}, "fusion_lon": 0.0, "lat": 38.90078583333333, "bike_id": "0312ff083d90d1325caa20c5d1532ef4", "type": "electric_scooter", "is_reserved": 0, "lon": -77.04940216666667}, {"fusion_lat": 0.0, "name": "91e23b6885b03572a6f6b75d3c0655ce", "is_disabled": 0, "rental_uris": {"android": "https://dc.lft.to/lastmile_qr_scan", "ios": "https://dc.lft.to/lastmile_qr_scan"}, "fusion_lon": 0.0, "lat": 38.924651, "bike_id": "91e23b6885b03572a6f6b75d3c0655ce", "type": "electric_scooter", "is_reserved": 0, "lon": -77.02074333333333}, {"fusion_lat": 0.0, "name": "3bf4ed4e7f602410bc263019765bf3b3", "is_disabled": 0, "rental_uris": {"android": "https://dc.lft.to/lastmile_qr_scan", "ios": "https://dc.lft.to/lastmile_qr_scan"}, "fusion_lon": 0.0, "lat": 38.883252, "bike_id": "3bf4ed4e7f602410bc263019765bf3b3", "type": "electric_scooter", "is_reserved": 0, "lon": -77.01921283333333}, {"fusion_lat": 0.0, "name": "c19f417392c1d761d6605830799624cd", "is_disabled": 0, "rental_uris": {"android": "https://dc.lft.to/lastmile_qr_scan", "ios": "https://dc.lft.to/lastmile_qr_scan"}, "fusion_lon": 0.0, "lat": 38.90732233333333, "bike_id": "c19f417392c1d761d6605830799624cd", "type": "electric_scooter", "is_reserved": 0, "lon": -77.04758633333333}, {"fusion_lat": 0.0, "name": "129c7efa2b37e5bfaf1e42a0761238d5", "is_disabled": 0, "rental_uris": {"android": "https://dc.lft.to/lastmile_qr_scan", "ios": "https://dc.lft.to/lastmile_qr_scan"}, "fusion_lon": 0.0, "lat": 38.89878316666667, "bike_id": "129c7efa2b37e5bfaf1e42a0761238d5", "type": "electric_scooter", "is_reserved": 0, "lon": -76.9318085}, {"fusion_lat": 0.0, "name": "d2340bdf52b2463a6c52c7cebc6a635e", "is_disabled": 0, "rental_uris": {"android": "https://dc.lft.to/lastmile_qr_scan", "ios": "https://dc.lft.to/lastmile_qr_scan"}, "fusion_lon": 0.0, "lat": 38.91973616666667, "bike_id": "d2340bdf52b2463a6c52c7cebc6a635e", "type": "electric_scooter", "is_reserved": 0, "lon": -77.070913}, {"fusion_lat": 0.0, "name": "4b10a62cd3b30f37f8d840c88067caad", "is_disabled": 0, "rental_uris": {"android": "https://dc.lft.to/lastmile_qr_scan", "ios": "https://dc.lft.to/lastmile_qr_scan"}, "fusion_lon": 0.0, "lat": 38.903997, "bike_id": "4b10a62cd3b30f37f8d840c88067caad", "type": "electric_scooter", "is_reserved": 0, "lon": -77.05010966666667}, {"fusion_lat": 0.0, "name": "83adadeb527333e26973250a583109d5", "is_disabled": 0, "rental_uris": {"android": "https://dc.lft.to/lastmile_qr_scan", "ios": "https://dc.lft.to/lastmile_qr_scan"}, "fusion_lon": 0.0, "lat": 38.918203, "bike_id": "83adadeb527333e26973250a583109d5", "type": "electric_scooter", "is_reserved": 0, "lon": -77.04513516666667}, {"fusion_lat": 0.0, "name": "c2b552135d7f094a36420378f78c35f2", "is_disabled": 0, "rental_uris": {"android": "https://dc.lft.to/lastmile_qr_scan", "ios": "https://dc.lft.to/lastmile_qr_scan"}, "fusion_lon": 0.0, "lat": 38.9370515, "bike_id": "c2b552135d7f094a36420378f78c35f2", "type": "electric_scooter", "is_reserved": 0, "lon": -77.06102783333333}, {"fusion_lat": 0.0, "name": "70c1b571e216ea5383f9dacefc47945e", "is_disabled": 0, "rental_uris": {"android": "https://dc.lft.to/lastmile_qr_scan", "ios": "https://dc.lft.to/lastmile_qr_scan"}, "fusion_lon": 0.0, "lat": 38.935142166666665, "bike_id": "70c1b571e216ea5383f9dacefc47945e", "type": "electric_scooter", "is_reserved": 0, "lon": -77.0334855}, {"fusion_lat": 0.0, "name": "9e721ce8a5af2ce44ad0df59809cf2d4", "is_disabled": 0, "rental_uris": {"android": "https://dc.lft.to/lastmile_qr_scan", "ios": "https://dc.lft.to/lastmile_qr_scan"}, "fusion_lon": 0.0, "lat": 38.92173283333333, "bike_id": "9e721ce8a5af2ce44ad0df59809cf2d4", "type": "electric_scooter", "is_reserved": 0, "lon": -77.04026016666667}, {"fusion_lat": 0.0, "name": "488fd0e1d6223c360fa02e3d4fbc8369", "is_disabled": 0, "rental_uris": {"android": "https://dc.lft.to/lastmile_qr_scan", "ios": "https://dc.lft.to/lastmile_qr_scan"}, "fusion_lon": 0.0, "lat": 38.93766566666667, "bike_id": "488fd0e1d6223c360fa02e3d4fbc8369", "type": "electric_scooter", "is_reserved": 0, "lon": -77.0207005}, {"fusion_lat": 0.0, "name": "998861141c48d987738ed5f2e95be161", "is_disabled": 0, "rental_uris": {"android": "https://dc.lft.to/lastmile_qr_scan", "ios": "https://dc.lft.to/lastmile_qr_scan"}, "fusion_lon": 0.0, "lat": 38.931152833333336, "bike_id": "998861141c48d987738ed5f2e95be161", "type": "electric_scooter", "is_reserved": 0, "lon": -77.021199}, {"fusion_lat": 0.0, "name": "085209b8bdd1e7a8ca5887fac9dbfdac", "is_disabled": 0, "rental_uris": {"android": "https://dc.lft.to/lastmile_qr_scan", "ios": "https://dc.lft.to/lastmile_qr_scan"}, "fusion_lon": 0.0, "lat": 38.941286166666664, "bike_id": "085209b8bdd1e7a8ca5887fac9dbfdac", "type": "electric_scooter", "is_reserved": 0, "lon": -77.02649833333334}, {"fusion_lat": 0.0, "name": "86be81b2c6a77d2a177f9ad54380d1ef", "is_disabled": 0, "rental_uris": {"android": "https://dc.lft.to/lastmile_qr_scan", "ios": "https://dc.lft.to/lastmile_qr_scan"}, "fusion_lon": 0.0, "lat": 38.9053105, "bike_id": "86be81b2c6a77d2a177f9ad54380d1ef", "type": "electric_scooter", "is_reserved": 0, "lon": -77.06492466666667}, {"fusion_lat": 0.0, "name": "1e7295b76b7e78fbf4443e39c3f17701", "is_disabled": 0, "rental_uris": {"android": "https://dc.lft.to/lastmile_qr_scan", "ios": "https://dc.lft.to/lastmile_qr_scan"}, "fusion_lon": 0.0, "lat": 38.807627, "bike_id": "1e7295b76b7e78fbf4443e39c3f17701", "type": "electric_bike", "is_reserved": 0, "lon": -77.09467233333334}, {"fusion_lat": 0.0, "name": "fb9a09b17cb83223e4b773c875ea0bb7", "is_disabled": 0, "rental_uris": {"android": "https://dc.lft.to/lastmile_qr_scan", "ios": "https://dc.lft.to/lastmile_qr_scan"}, "fusion_lon": 0.0, "lat": 38.881207833333335, "bike_id": "fb9a09b17cb83223e4b773c875ea0bb7", "type": "electric_scooter", "is_reserved": 0, "lon": -77.01652533333333}, {"fusion_lat": 0.0, "name": "a031ea60737a47363e51ce77febe93d1", "is_disabled": 0, "rental_uris": {"android": "https://dc.lft.to/lastmile_qr_scan", "ios": "https://dc.lft.to/lastmile_qr_scan"}, "fusion_lon": 0.0, "lat": 38.902941, "bike_id": "a031ea60737a47363e51ce77febe93d1", "type": "electric_scooter", "is_reserved": 0, "lon": -76.9763545}, {"fusion_lat": 0.0, "name": "481e6fea6a410d83c13918b6dec5422b", "is_disabled": 0, "rental_uris": {"android": "https://dc.lft.to/lastmile_qr_scan", "ios": "https://dc.lft.to/lastmile_qr_scan"}, "fusion_lon": 0.0, "lat": 38.997751, "bike_id": "481e6fea6a410d83c13918b6dec5422b", "type": "electric_bike", "is_reserved": 0, "lon": -77.04708016666666}, {"fusion_lat": 0.0, "name": "b297347a8e15be0c4cf3c25854a6fe7f", "is_disabled": 0, "rental_uris": {"android": "https://dc.lft.to/lastmile_qr_scan", "ios": "https://dc.lft.to/lastmile_qr_scan"}, "fusion_lon": 0.0, "lat": 38.9014615, "bike_id": "b297347a8e15be0c4cf3c25854a6fe7f", "type": "electric_scooter", "is_reserved": 0, "lon": -77.03054366666667}, {"fusion_lat": 0.0, "name": "58a8deaa383ba0a1a4cf892a05562ad1", "is_disabled": 0, "rental_uris": {"android": "https://dc.lft.to/lastmile_qr_scan", "ios": "https://dc.lft.to/lastmile_qr_scan"}, "fusion_lon": 0.0, "lat": 38.9165295, "bike_id": "58a8deaa383ba0a1a4cf892a05562ad1", "type": "electric_scooter", "is_reserved": 0, "lon": -77.031584}, {"fusion_lat": 0.0, "name": "1259a6d7dc976c3f3fbdb7bee9facac9", "is_disabled": 0, "rental_uris": {"android": "https://dc.lft.to/lastmile_qr_scan", "ios": "https://dc.lft.to/lastmile_qr_scan"}, "fusion_lon": 0.0, "lat": 38.926404, "bike_id": "1259a6d7dc976c3f3fbdb7bee9facac9", "type": "electric_scooter", "is_reserved": 0, "lon": -77.03231933333333}, {"fusion_lat": 0.0, "name": "784e79c2101a5bebf574a334246dd27d", "is_disabled": 0, "rental_uris": {"android": "https://dc.lft.to/lastmile_qr_scan", "ios": "https://dc.lft.to/lastmile_qr_scan"}, "fusion_lon": 0.0, "lat": 38.92412616666667, "bike_id": "784e79c2101a5bebf574a334246dd27d", "type": "electric_scooter", "is_reserved": 0, "lon": -77.02105483333334}, {"fusion_lat": 0.0, "name": "766bdd735accbc9d4a265c7a71bc2469", "is_disabled": 0, "rental_uris": {"android": "https://dc.lft.to/lastmile_qr_scan", "ios": "https://dc.lft.to/lastmile_qr_scan"}, "fusion_lon": 0.0, "lat": 38.883061, "bike_id": "766bdd735accbc9d4a265c7a71bc2469", "type": "electric_scooter", "is_reserved": 0, "lon": -76.948615}, {"fusion_lat": 0.0, "name": "7ce5030f30ef2fbb25adf1d24bf38b55", "is_disabled": 0, "rental_uris": {"android": "https://dc.lft.to/lastmile_qr_scan", "ios": "https://dc.lft.to/lastmile_qr_scan"}, "fusion_lon": 0.0, "lat": 38.819229666666665, "bike_id": "7ce5030f30ef2fbb25adf1d24bf38b55", "type": "electric_bike", "is_reserved": 0, "lon": -77.04794533333333}, {"fusion_lat": 0.0, "name": "686825c624d1e95e8b2cb11684160759", "is_disabled": 0, "rental_uris": {"android": "https://dc.lft.to/lastmile_qr_scan", "ios": "https://dc.lft.to/lastmile_qr_scan"}, "fusion_lon": 0.0, "lat": 38.928641166666665, "bike_id": "686825c624d1e95e8b2cb11684160759", "type": "electric_scooter", "is_reserved": 0, "lon": -77.03407683333333}, {"fusion_lat": 0.0, "name": "d34e377862ac02294e12c99bb05fe7c7", "is_disabled": 0, "rental_uris": {"android": "https://dc.lft.to/lastmile_qr_scan", "ios": "https://dc.lft.to/lastmile_qr_scan"}, "fusion_lon": 0.0, "lat": 38.807554833333334, "bike_id": "d34e377862ac02294e12c99bb05fe7c7", "type": "electric_bike", "is_reserved": 0, "lon": -77.0945215}, {"fusion_lat": 0.0, "name": "4b94f750d5b464429abff3bc0a8c8937", "is_disabled": 0, "rental_uris": {"android": "https://dc.lft.to/lastmile_qr_scan", "ios": "https://dc.lft.to/lastmile_qr_scan"}, "fusion_lon": 0.0, "lat": 38.92536966666667, "bike_id": "4b94f750d5b464429abff3bc0a8c8937", "type": "electric_scooter", "is_reserved": 0, "lon": -77.0075455}, {"fusion_lat": 0.0, "name": "66f11d805cab4e6415ca1f6e7b231651", "is_disabled": 0, "rental_uris": {"android": "https://dc.lft.to/lastmile_qr_scan", "ios": "https://dc.lft.to/lastmile_qr_scan"}, "fusion_lon": 0.0, "lat": 38.89247666666667, "bike_id": "66f11d805cab4e6415ca1f6e7b231651", "type": "electric_scooter", "is_reserved": 0, "lon": -77.03345683333333}, {"fusion_lat": 0.0, "name": "5599c5157fce95d385a7d033ff1f6c5a", "is_disabled": 0, "rental_uris": {"android": "https://dc.lft.to/lastmile_qr_scan", "ios": "https://dc.lft.to/lastmile_qr_scan"}, "fusion_lon": 0.0, "lat": 38.926853333333334, "bike_id": "5599c5157fce95d385a7d033ff1f6c5a", "type": "electric_scooter", "is_reserved": 0, "lon": -77.0308815}, {"fusion_lat": 0.0, "name": "6f855c0673303ea01f135e4d578ec764", "is_disabled": 0, "rental_uris": {"android": "https://dc.lft.to/lastmile_qr_scan", "ios": "https://dc.lft.to/lastmile_qr_scan"}, "fusion_lon": 0.0, "lat": 38.8997525, "bike_id": "6f855c0673303ea01f135e4d578ec764", "type": "electric_scooter", "is_reserved": 0, "lon": -77.03364733333333}, {"fusion_lat": 0.0, "name": "e9f9571946f04222d2fc79255a28bbb8", "is_disabled": 0, "rental_uris": {"android": "https://dc.lft.to/lastmile_qr_scan", "ios": "https://dc.lft.to/lastmile_qr_scan"}, "fusion_lon": 0.0, "lat": 38.9072175, "bike_id": "e9f9571946f04222d2fc79255a28bbb8", "type": "electric_scooter", "is_reserved": 0, "lon": -77.047519}, {"fusion_lat": 0.0, "name": "39a30562ae837e12abaa8336124deafb", "is_disabled": 0, "rental_uris": {"android": "https://dc.lft.to/lastmile_qr_scan", "ios": "https://dc.lft.to/lastmile_qr_scan"}, "fusion_lon": 0.0, "lat": 38.900167, "bike_id": "39a30562ae837e12abaa8336124deafb", "type": "electric_scooter", "is_reserved": 0, "lon": -77.01118983333333}, {"fusion_lat": 0.0, "name": "3ca9952a10300fe9f2f5552f2531333b", "is_disabled": 0, "rental_uris": {"android": "https://dc.lft.to/lastmile_qr_scan", "ios": "https://dc.lft.to/lastmile_qr_scan"}, "fusion_lon": 0.0, "lat": 38.90345283333333, "bike_id": "3ca9952a10300fe9f2f5552f2531333b", "type": "electric_scooter", "is_reserved": 0, "lon": -76.93367933333333}, {"fusion_lat": 0.0, "name": "90fd7beac7e6e78731d4f851b5a10757", "is_disabled": 0, "rental_uris": {"android": "https://dc.lft.to/lastmile_qr_scan", "ios": "https://dc.lft.to/lastmile_qr_scan"}, "fusion_lon": 0.0, "lat": 38.93776583333333, "bike_id": "90fd7beac7e6e78731d4f851b5a10757", "type": "electric_scooter", "is_reserved": 0, "lon": -77.032592}, {"fusion_lat": 0.0, "name": "6877b397d2b29911ca9024adb76a5664", "is_disabled": 0, "rental_uris": {"android": "https://dc.lft.to/lastmile_qr_scan", "ios": "https://dc.lft.to/lastmile_qr_scan"}, "fusion_lon": 0.0, "lat": 38.883352, "bike_id": "6877b397d2b29911ca9024adb76a5664", "type": "electric_scooter", "is_reserved": 0, "lon": -77.01465183333333}, {"fusion_lat": 0.0, "name": "87dad1a33631db144d94bcc33c744f31", "is_disabled": 0, "rental_uris": {"android": "https://dc.lft.to/lastmile_qr_scan", "ios": "https://dc.lft.to/lastmile_qr_scan"}, "fusion_lon": 0.0, "lat": 38.921014, "bike_id": "87dad1a33631db144d94bcc33c744f31", "type": "electric_scooter", "is_reserved": 0, "lon": -77.04698133333333}, {"fusion_lat": 0.0, "name": "9ce4bd21de35d5f2a9a962f90f64618f", "is_disabled": 0, "rental_uris": {"android": "https://dc.lft.to/lastmile_qr_scan", "ios": "https://dc.lft.to/lastmile_qr_scan"}, "fusion_lon": 0.0, "lat": 38.9353035, "bike_id": "9ce4bd21de35d5f2a9a962f90f64618f", "type": "electric_scooter", "is_reserved": 0, "lon": -77.045179}, {"fusion_lat": 0.0, "name": "a891049498de456ef2af879769096183", "is_disabled": 0, "rental_uris": {"android": "https://dc.lft.to/lastmile_qr_scan", "ios": "https://dc.lft.to/lastmile_qr_scan"}, "fusion_lon": 0.0, "lat": 38.925933666666666, "bike_id": "a891049498de456ef2af879769096183", "type": "electric_scooter", "is_reserved": 0, "lon": -77.02475}, {"fusion_lat": 0.0, "name": "4056608ed013f44bb872f5445f1ce013", "is_disabled": 0, "rental_uris": {"android": "https://dc.lft.to/lastmile_qr_scan", "ios": "https://dc.lft.to/lastmile_qr_scan"}, "fusion_lon": 0.0, "lat": 38.90929783333333, "bike_id": "4056608ed013f44bb872f5445f1ce013", "type": "electric_scooter", "is_reserved": 0, "lon": -77.06247683333333}, {"fusion_lat": 0.0, "name": "da92ea8c9d2393c0ff50fbe0558e16c7", "is_disabled": 0, "rental_uris": {"android": "https://dc.lft.to/lastmile_qr_scan", "ios": "https://dc.lft.to/lastmile_qr_scan"}, "fusion_lon": 0.0, "lat": 38.90351, "bike_id": "da92ea8c9d2393c0ff50fbe0558e16c7", "type": "electric_scooter", "is_reserved": 0, "lon": -76.97474}, {"fusion_lat": 0.0, "name": "9a242a648d147bae5cb6261c53165963", "is_disabled": 0, "rental_uris": {"android": "https://dc.lft.to/lastmile_qr_scan", "ios": "https://dc.lft.to/lastmile_qr_scan"}, "fusion_lon": 0.0, "lat": 38.904740333333336, "bike_id": "9a242a648d147bae5cb6261c53165963", "type": "electric_scooter", "is_reserved": 0, "lon": -77.0354225}, {"fusion_lat": 0.0, "name": "f80023f10d8846a8782184622efd950f", "is_disabled": 0, "rental_uris": {"android": "https://dc.lft.to/lastmile_qr_scan", "ios": "https://dc.lft.to/lastmile_qr_scan"}, "fusion_lon": 0.0, "lat": 38.89223466666667, "bike_id": "f80023f10d8846a8782184622efd950f", "type": "electric_scooter", "is_reserved": 0, "lon": -77.033374}, {"fusion_lat": 0.0, "name": "bcf764d91fe8a0cdd0dd8d8bec8700ed", "is_disabled": 0, "rental_uris": {"android": "https://dc.lft.to/lastmile_qr_scan", "ios": "https://dc.lft.to/lastmile_qr_scan"}, "fusion_lon": 0.0, "lat": 38.93462783333333, "bike_id": "bcf764d91fe8a0cdd0dd8d8bec8700ed", "type": "electric_scooter", "is_reserved": 0, "lon": -77.034014}, {"fusion_lat": 0.0, "name": "e0c603f235f6303093891a6e7977893e", "is_disabled": 0, "rental_uris": {"android": "https://dc.lft.to/lastmile_qr_scan", "ios": "https://dc.lft.to/lastmile_qr_scan"}, "fusion_lon": 0.0, "lat": 38.9009835, "bike_id": "e0c603f235f6303093891a6e7977893e", "type": "electric_scooter", "is_reserved": 0, "lon": -77.05066516666666}, {"fusion_lat": 0.0, "name": "23b555c06adc3a8c747e52f68cd26c9e", "is_disabled": 0, "rental_uris": {"android": "https://dc.lft.to/lastmile_qr_scan", "ios": "https://dc.lft.to/lastmile_qr_scan"}, "fusion_lon": 0.0, "lat": 38.973729166666665, "bike_id": "23b555c06adc3a8c747e52f68cd26c9e", "type": "electric_scooter", "is_reserved": 0, "lon": -77.01283916666667}, {"fusion_lat": 0.0, "name": "5b0781a3287646306e2a15f54846a7af", "is_disabled": 0, "rental_uris": {"android": "https://dc.lft.to/lastmile_qr_scan", "ios": "https://dc.lft.to/lastmile_qr_scan"}, "fusion_lon": 0.0, "lat": 38.938795, "bike_id": "5b0781a3287646306e2a15f54846a7af", "type": "electric_scooter", "is_reserved": 0, "lon": -77.02470783333334}, {"fusion_lat": 0.0, "name": "9142b5828d1762c44983bcc5e439c405", "is_disabled": 0, "rental_uris": {"android": "https://dc.lft.to/lastmile_qr_scan", "ios": "https://dc.lft.to/lastmile_qr_scan"}, "fusion_lon": 0.0, "lat": 38.907312166666664, "bike_id": "9142b5828d1762c44983bcc5e439c405", "type": "electric_scooter", "is_reserved": 0, "lon": -77.00953216666667}, {"fusion_lat": 0.0, "name": "36ca906a62cdb0c47b5b15f96b85576d", "is_disabled": 0, "rental_uris": {"android": "https://dc.lft.to/lastmile_qr_scan", "ios": "https://dc.lft.to/lastmile_qr_scan"}, "fusion_lon": 0.0, "lat": 38.90063933333333, "bike_id": "36ca906a62cdb0c47b5b15f96b85576d", "type": "electric_scooter", "is_reserved": 0, "lon": -77.0493115}, {"fusion_lat": 0.0, "name": "4876ddc75292b2672d920ea8503ab422", "is_disabled": 0, "rental_uris": {"android": "https://dc.lft.to/lastmile_qr_scan", "ios": "https://dc.lft.to/lastmile_qr_scan"}, "fusion_lon": 0.0, "lat": 38.90686433333333, "bike_id": "4876ddc75292b2672d920ea8503ab422", "type": "electric_bike", "is_reserved": 0, "lon": -76.9449245}, {"fusion_lat": 0.0, "name": "5114b8af2996aef4034cf3bb3fce49e3", "is_disabled": 0, "rental_uris": {"android": "https://dc.lft.to/lastmile_qr_scan", "ios": "https://dc.lft.to/lastmile_qr_scan"}, "fusion_lon": 0.0, "lat": 38.863720666666666, "bike_id": "5114b8af2996aef4034cf3bb3fce49e3", "type": "electric_bike", "is_reserved": 0, "lon": -76.97003566666666}, {"fusion_lat": 0.0, "name": "8db8ca537c0cda7f1ba1da598f1d3545", "is_disabled": 0, "rental_uris": {"android": "https://dc.lft.to/lastmile_qr_scan", "ios": "https://dc.lft.to/lastmile_qr_scan"}, "fusion_lon": 0.0, "lat": 38.905588, "bike_id": "8db8ca537c0cda7f1ba1da598f1d3545", "type": "electric_scooter", "is_reserved": 0, "lon": -77.0292705}, {"fusion_lat": 0.0, "name": "f15f7ce9bd03fb7ccf8c3028e8a887f0", "is_disabled": 0, "rental_uris": {"android": "https://dc.lft.to/lastmile_qr_scan", "ios": "https://dc.lft.to/lastmile_qr_scan"}, "fusion_lon": 0.0, "lat": 38.8877305, "bike_id": "f15f7ce9bd03fb7ccf8c3028e8a887f0", "type": "electric_scooter", "is_reserved": 0, "lon": -76.9774745}, {"fusion_lat": 0.0, "name": "1f6fb68ad662f48388e2e7e612c5e215", "is_disabled": 0, "rental_uris": {"android": "https://dc.lft.to/lastmile_qr_scan", "ios": "https://dc.lft.to/lastmile_qr_scan"}, "fusion_lon": 0.0, "lat": 38.901522666666665, "bike_id": "1f6fb68ad662f48388e2e7e612c5e215", "type": "electric_scooter", "is_reserved": 0, "lon": -76.93065366666667}, {"fusion_lat": 0.0, "name": "644be994e091196dc11fd5dcc142ab21", "is_disabled": 0, "rental_uris": {"android": "https://dc.lft.to/lastmile_qr_scan", "ios": "https://dc.lft.to/lastmile_qr_scan"}, "fusion_lon": 0.0, "lat": 38.89743933333333, "bike_id": "644be994e091196dc11fd5dcc142ab21", "type": "electric_scooter", "is_reserved": 0, "lon": -77.0249845}, {"fusion_lat": 0.0, "name": "911b1e3b8c357eb2305253013c4f7423", "is_disabled": 0, "rental_uris": {"android": "https://dc.lft.to/lastmile_qr_scan", "ios": "https://dc.lft.to/lastmile_qr_scan"}, "fusion_lon": 0.0, "lat": 38.93770033333333, "bike_id": "911b1e3b8c357eb2305253013c4f7423", "type": "electric_scooter", "is_reserved": 0, "lon": -77.03283233333333}, {"fusion_lat": 0.0, "name": "ea4c079fa554e7a024a296db34399269", "is_disabled": 0, "rental_uris": {"android": "https://dc.lft.to/lastmile_qr_scan", "ios": "https://dc.lft.to/lastmile_qr_scan"}, "fusion_lon": 0.0, "lat": 38.931481833333336, "bike_id": "ea4c079fa554e7a024a296db34399269", "type": "electric_bike", "is_reserved": 0, "lon": -77.038235}, {"fusion_lat": 0.0, "name": "3f7ac52dfd6a466a066514cc09eb61f7", "is_disabled": 0, "rental_uris": {"android": "https://dc.lft.to/lastmile_qr_scan", "ios": "https://dc.lft.to/lastmile_qr_scan"}, "fusion_lon": 0.0, "lat": 38.909408666666664, "bike_id": "3f7ac52dfd6a466a066514cc09eb61f7", "type": "electric_scooter", "is_reserved": 0, "lon": -77.01844383333334}, {"fusion_lat": 0.0, "name": "2aff12485907231d5e76928e74bcfd92", "is_disabled": 0, "rental_uris": {"android": "https://dc.lft.to/lastmile_qr_scan", "ios": "https://dc.lft.to/lastmile_qr_scan"}, "fusion_lon": 0.0, "lat": 38.92350666666667, "bike_id": "2aff12485907231d5e76928e74bcfd92", "type": "electric_scooter", "is_reserved": 0, "lon": -76.992496}, {"fusion_lat": 0.0, "name": "3208ad5cd4e175ea9fc59a48ce7e2c8f", "is_disabled": 0, "rental_uris": {"android": "https://dc.lft.to/lastmile_qr_scan", "ios": "https://dc.lft.to/lastmile_qr_scan"}, "fusion_lon": 0.0, "lat": 38.9451845, "bike_id": "3208ad5cd4e175ea9fc59a48ce7e2c8f", "type": "electric_scooter", "is_reserved": 0, "lon": -77.03886583333333}, {"fusion_lat": 0.0, "name": "cd92427baa47ee5d9619554438acfa52", "is_disabled": 0, "rental_uris": {"android": "https://dc.lft.to/lastmile_qr_scan", "ios": "https://dc.lft.to/lastmile_qr_scan"}, "fusion_lon": 0.0, "lat": 38.84757166666667, "bike_id": "cd92427baa47ee5d9619554438acfa52", "type": "electric_scooter", "is_reserved": 0, "lon": -76.99499983333334}, {"fusion_lat": 0.0, "name": "db417caac5fd2a68e85a683c73971095", "is_disabled": 0, "rental_uris": {"android": "https://dc.lft.to/lastmile_qr_scan", "ios": "https://dc.lft.to/lastmile_qr_scan"}, "fusion_lon": 0.0, "lat": 38.937077, "bike_id": "db417caac5fd2a68e85a683c73971095", "type": "electric_scooter", "is_reserved": 0, "lon": -77.06101183333334}, {"fusion_lat": 0.0, "name": "b1333f97892531a96017a9180243a926", "is_disabled": 0, "rental_uris": {"android": "https://dc.lft.to/lastmile_qr_scan", "ios": "https://dc.lft.to/lastmile_qr_scan"}, "fusion_lon": 0.0, "lat": 38.901436833333335, "bike_id": "b1333f97892531a96017a9180243a926", "type": "electric_scooter", "is_reserved": 0, "lon": -77.0403485}, {"fusion_lat": 0.0, "name": "49e23e1186107b33f1bbaa9d5da88f00", "is_disabled": 0, "rental_uris": {"android": "https://dc.lft.to/lastmile_qr_scan", "ios": "https://dc.lft.to/lastmile_qr_scan"}, "fusion_lon": 0.0, "lat": 38.94109266666667, "bike_id": "49e23e1186107b33f1bbaa9d5da88f00", "type": "electric_scooter", "is_reserved": 0, "lon": -77.034779}, {"fusion_lat": 0.0, "name": "6d17ce1a8d2c5fc3b0804eda0f816e69", "is_disabled": 0, "rental_uris": {"android": "https://dc.lft.to/lastmile_qr_scan", "ios": "https://dc.lft.to/lastmile_qr_scan"}, "fusion_lon": 0.0, "lat": 38.903246833333334, "bike_id": "6d17ce1a8d2c5fc3b0804eda0f816e69", "type": "electric_scooter", "is_reserved": 0, "lon": -77.03203083333334}, {"fusion_lat": 0.0, "name": "07b95e3f31b181ead3b9d46d5a8e03f5", "is_disabled": 0, "rental_uris": {"android": "https://dc.lft.to/lastmile_qr_scan", "ios": "https://dc.lft.to/lastmile_qr_scan"}, "fusion_lon": 0.0, "lat": 38.93586833333333, "bike_id": "07b95e3f31b181ead3b9d46d5a8e03f5", "type": "electric_scooter", "is_reserved": 0, "lon": -77.02376916666667}, {"fusion_lat": 0.0, "name": "bef3c0d2593df2e5d8b861a32a7b1a28", "is_disabled": 0, "rental_uris": {"android": "https://dc.lft.to/lastmile_qr_scan", "ios": "https://dc.lft.to/lastmile_qr_scan"}, "fusion_lon": 0.0, "lat": 38.887517333333335, "bike_id": "bef3c0d2593df2e5d8b861a32a7b1a28", "type": "electric_scooter", "is_reserved": 0, "lon": -76.99783983333333}, {"fusion_lat": 0.0, "name": "db2f88d90e27fb325f42fe42db9102e2", "is_disabled": 0, "rental_uris": {"android": "https://dc.lft.to/lastmile_qr_scan", "ios": "https://dc.lft.to/lastmile_qr_scan"}, "fusion_lon": 0.0, "lat": 38.90674383333333, "bike_id": "db2f88d90e27fb325f42fe42db9102e2", "type": "electric_scooter", "is_reserved": 0, "lon": -77.02963883333334}, {"fusion_lat": 0.0, "name": "c8833d99c4e1ea674b7cf50475900803", "is_disabled": 0, "rental_uris": {"android": "https://dc.lft.to/lastmile_qr_scan", "ios": "https://dc.lft.to/lastmile_qr_scan"}, "fusion_lon": 0.0, "lat": 38.8898825, "bike_id": "c8833d99c4e1ea674b7cf50475900803", "type": "electric_scooter", "is_reserved": 0, "lon": -76.9298515}, {"fusion_lat": 0.0, "name": "a7c0e9ac5a0a81bd831b2bffc1bfabe6", "is_disabled": 0, "rental_uris": {"android": "https://dc.lft.to/lastmile_qr_scan", "ios": "https://dc.lft.to/lastmile_qr_scan"}, "fusion_lon": 0.0, "lat": 38.9169615, "bike_id": "a7c0e9ac5a0a81bd831b2bffc1bfabe6", "type": "electric_scooter", "is_reserved": 0, "lon": -77.0273865}, {"fusion_lat": 0.0, "name": "6a7d9c2fd6b8db5787c4161cce25928d", "is_disabled": 0, "rental_uris": {"android": "https://dc.lft.to/lastmile_qr_scan", "ios": "https://dc.lft.to/lastmile_qr_scan"}, "fusion_lon": 0.0, "lat": 38.92039883333333, "bike_id": "6a7d9c2fd6b8db5787c4161cce25928d", "type": "electric_scooter", "is_reserved": 0, "lon": -77.02420183333334}, {"fusion_lat": 0.0, "name": "d5434eff45b99aa13cb74fade91f2514", "is_disabled": 0, "rental_uris": {"android": "https://dc.lft.to/lastmile_qr_scan", "ios": "https://dc.lft.to/lastmile_qr_scan"}, "fusion_lon": 0.0, "lat": 38.91216633333333, "bike_id": "d5434eff45b99aa13cb74fade91f2514", "type": "electric_scooter", "is_reserved": 0, "lon": -77.02180066666666}, {"fusion_lat": 0.0, "name": "250b7b935e8a1d9acd665fc18666665f", "is_disabled": 0, "rental_uris": {"android": "https://dc.lft.to/lastmile_qr_scan", "ios": "https://dc.lft.to/lastmile_qr_scan"}, "fusion_lon": 0.0, "lat": 38.9025175, "bike_id": "250b7b935e8a1d9acd665fc18666665f", "type": "electric_scooter", "is_reserved": 0, "lon": -77.02871883333333}, {"fusion_lat": 0.0, "name": "aecd769c86f9962e99c04b44f2a89be7", "is_disabled": 0, "rental_uris": {"android": "https://dc.lft.to/lastmile_qr_scan", "ios": "https://dc.lft.to/lastmile_qr_scan"}, "fusion_lon": 0.0, "lat": 38.87677, "bike_id": "aecd769c86f9962e99c04b44f2a89be7", "type": "electric_bike", "is_reserved": 0, "lon": -77.01433366666667}, {"fusion_lat": 0.0, "name": "2c0c2fb624f9a846a5ee4fa868c26307", "is_disabled": 0, "rental_uris": {"android": "https://dc.lft.to/lastmile_qr_scan", "ios": "https://dc.lft.to/lastmile_qr_scan"}, "fusion_lon": 0.0, "lat": 38.880375, "bike_id": "2c0c2fb624f9a846a5ee4fa868c26307", "type": "electric_scooter", "is_reserved": 0, "lon": -77.0132655}, {"fusion_lat": 0.0, "name": "4c0bb5e020b194f9dff4887146c1ca7e", "is_disabled": 0, "rental_uris": {"android": "https://dc.lft.to/lastmile_qr_scan", "ios": "https://dc.lft.to/lastmile_qr_scan"}, "fusion_lon": 0.0, "lat": 38.96619316666666, "bike_id": "4c0bb5e020b194f9dff4887146c1ca7e", "type": "electric_bike", "is_reserved": 0, "lon": -77.03424916666667}, {"fusion_lat": 0.0, "name": "faf9dca456b3de3f131ca73881e1c5d3", "is_disabled": 0, "rental_uris": {"android": "https://dc.lft.to/lastmile_qr_scan", "ios": "https://dc.lft.to/lastmile_qr_scan"}, "fusion_lon": 0.0, "lat": 38.8767, "bike_id": "faf9dca456b3de3f131ca73881e1c5d3", "type": "electric_bike", "is_reserved": 0, "lon": -77.02086733333333}, {"fusion_lat": 0.0, "name": "e4e219321471f24c188017f2772693e8", "is_disabled": 0, "rental_uris": {"android": "https://dc.lft.to/lastmile_qr_scan", "ios": "https://dc.lft.to/lastmile_qr_scan"}, "fusion_lon": 0.0, "lat": 38.898703166666664, "bike_id": "e4e219321471f24c188017f2772693e8", "type": "electric_scooter", "is_reserved": 0, "lon": -77.02047}, {"fusion_lat": 0.0, "name": "763b2891e46b4dc9eb42e793489f837d", "is_disabled": 0, "rental_uris": {"android": "https://dc.lft.to/lastmile_qr_scan", "ios": "https://dc.lft.to/lastmile_qr_scan"}, "fusion_lon": 0.0, "lat": 38.91927333333334, "bike_id": "763b2891e46b4dc9eb42e793489f837d", "type": "electric_scooter", "is_reserved": 0, "lon": -77.045097}, {"fusion_lat": 0.0, "name": "63942f911157b87f7104a6cdc3822604", "is_disabled": 0, "rental_uris": {"android": "https://dc.lft.to/lastmile_qr_scan", "ios": "https://dc.lft.to/lastmile_qr_scan"}, "fusion_lon": 0.0, "lat": 38.873730333333334, "bike_id": "63942f911157b87f7104a6cdc3822604", "type": "electric_scooter", "is_reserved": 0, "lon": -77.00154533333334}, {"fusion_lat": 0.0, "name": "16d641e2a74d127a3e98a5ff705cb346", "is_disabled": 0, "rental_uris": {"android": "https://dc.lft.to/lastmile_qr_scan", "ios": "https://dc.lft.to/lastmile_qr_scan"}, "fusion_lon": 0.0, "lat": 38.9005405, "bike_id": "16d641e2a74d127a3e98a5ff705cb346", "type": "electric_scooter", "is_reserved": 0, "lon": -77.00384683333333}, {"fusion_lat": 0.0, "name": "96965aaa63806ea3176109e683dc10e0", "is_disabled": 0, "rental_uris": {"android": "https://dc.lft.to/lastmile_qr_scan", "ios": "https://dc.lft.to/lastmile_qr_scan"}, "fusion_lon": 0.0, "lat": 38.90670866666667, "bike_id": "96965aaa63806ea3176109e683dc10e0", "type": "electric_scooter", "is_reserved": 0, "lon": -77.02704666666666}, {"fusion_lat": 0.0, "name": "bbc0c29e47ace4ee51f5d1af7a5aa72e", "is_disabled": 0, "rental_uris": {"android": "https://dc.lft.to/lastmile_qr_scan", "ios": "https://dc.lft.to/lastmile_qr_scan"}, "fusion_lon": 0.0, "lat": 38.9286845, "bike_id": "bbc0c29e47ace4ee51f5d1af7a5aa72e", "type": "electric_scooter", "is_reserved": 0, "lon": -77.03477466666666}, {"fusion_lat": 0.0, "name": "d71587000036b7d654a7ca7118bc1dc0", "is_disabled": 0, "rental_uris": {"android": "https://dc.lft.to/lastmile_qr_scan", "ios": "https://dc.lft.to/lastmile_qr_scan"}, "fusion_lon": 0.0, "lat": 38.91471166666667, "bike_id": "d71587000036b7d654a7ca7118bc1dc0", "type": "electric_scooter", "is_reserved": 0, "lon": -77.03898466666666}, {"fusion_lat": 0.0, "name": "caa8bdc50385533aaab1dcd14213ab26", "is_disabled": 0, "rental_uris": {"android": "https://dc.lft.to/lastmile_qr_scan", "ios": "https://dc.lft.to/lastmile_qr_scan"}, "fusion_lon": 0.0, "lat": 38.93860766666667, "bike_id": "caa8bdc50385533aaab1dcd14213ab26", "type": "electric_scooter", "is_reserved": 0, "lon": -77.02452433333333}, {"fusion_lat": 0.0, "name": "d04e6e885f26240e29fac70257fe2c47", "is_disabled": 0, "rental_uris": {"android": "https://dc.lft.to/lastmile_qr_scan", "ios": "https://dc.lft.to/lastmile_qr_scan"}, "fusion_lon": 0.0, "lat": 38.92105433333333, "bike_id": "d04e6e885f26240e29fac70257fe2c47", "type": "electric_scooter", "is_reserved": 0, "lon": -77.0747395}, {"fusion_lat": 0.0, "name": "321b34030811a371db8e6b191b028066", "is_disabled": 0, "rental_uris": {"android": "https://dc.lft.to/lastmile_qr_scan", "ios": "https://dc.lft.to/lastmile_qr_scan"}, "fusion_lon": 0.0, "lat": 38.915033666666666, "bike_id": "321b34030811a371db8e6b191b028066", "type": "electric_scooter", "is_reserved": 0, "lon": -77.00920183333334}, {"fusion_lat": 0.0, "name": "1939b6df750567fb5523b8591d214fd6", "is_disabled": 0, "rental_uris": {"android": "https://dc.lft.to/lastmile_qr_scan", "ios": "https://dc.lft.to/lastmile_qr_scan"}, "fusion_lon": 0.0, "lat": 38.904107833333335, "bike_id": "1939b6df750567fb5523b8591d214fd6", "type": "electric_scooter", "is_reserved": 0, "lon": -76.973301}, {"fusion_lat": 0.0, "name": "b25836e5e821a770c7b1eee6b8c416d7", "is_disabled": 0, "rental_uris": {"android": "https://dc.lft.to/lastmile_qr_scan", "ios": "https://dc.lft.to/lastmile_qr_scan"}, "fusion_lon": 0.0, "lat": 38.915595, "bike_id": "b25836e5e821a770c7b1eee6b8c416d7", "type": "electric_scooter", "is_reserved": 0, "lon": -77.038166}, {"fusion_lat": 0.0, "name": "c9a12bf75c0bf3767a422fbbd2f27143", "is_disabled": 0, "rental_uris": {"android": "https://dc.lft.to/lastmile_qr_scan", "ios": "https://dc.lft.to/lastmile_qr_scan"}, "fusion_lon": 0.0, "lat": 38.877670333333334, "bike_id": "c9a12bf75c0bf3767a422fbbd2f27143", "type": "electric_scooter", "is_reserved": 0, "lon": -76.9938565}, {"fusion_lat": 0.0, "name": "9e383deb5b46aa758e4bd2889e86488d", "is_disabled": 0, "rental_uris": {"android": "https://dc.lft.to/lastmile_qr_scan", "ios": "https://dc.lft.to/lastmile_qr_scan"}, "fusion_lon": 0.0, "lat": 38.935770166666664, "bike_id": "9e383deb5b46aa758e4bd2889e86488d", "type": "electric_scooter", "is_reserved": 0, "lon": -77.019203}, {"fusion_lat": 0.0, "name": "223b31442e434f0ff9a7a1148f5acbeb", "is_disabled": 0, "rental_uris": {"android": "https://dc.lft.to/lastmile_qr_scan", "ios": "https://dc.lft.to/lastmile_qr_scan"}, "fusion_lon": 0.0, "lat": 38.922541333333335, "bike_id": "223b31442e434f0ff9a7a1148f5acbeb", "type": "electric_scooter", "is_reserved": 0, "lon": -77.03386566666667}, {"fusion_lat": 0.0, "name": "e9cba4b8574f35b6367352fdaa545b69", "is_disabled": 0, "rental_uris": {"android": "https://dc.lft.to/lastmile_qr_scan", "ios": "https://dc.lft.to/lastmile_qr_scan"}, "fusion_lon": 0.0, "lat": 38.90583783333334, "bike_id": "e9cba4b8574f35b6367352fdaa545b69", "type": "electric_scooter", "is_reserved": 0, "lon": -77.00884483333333}, {"fusion_lat": 0.0, "name": "04e03f319fb96f3a2a7c771099104369", "is_disabled": 0, "rental_uris": {"android": "https://dc.lft.to/lastmile_qr_scan", "ios": "https://dc.lft.to/lastmile_qr_scan"}, "fusion_lon": 0.0, "lat": 38.8999365, "bike_id": "04e03f319fb96f3a2a7c771099104369", "type": "electric_scooter", "is_reserved": 0, "lon": -77.02502483333333}, {"fusion_lat": 0.0, "name": "f1b0be3fb53eabc28a3b25f1f2209e46", "is_disabled": 0, "rental_uris": {"android": "https://dc.lft.to/lastmile_qr_scan", "ios": "https://dc.lft.to/lastmile_qr_scan"}, "fusion_lon": 0.0, "lat": 38.89763383333333, "bike_id": "f1b0be3fb53eabc28a3b25f1f2209e46", "type": "electric_scooter", "is_reserved": 0, "lon": -77.0516315}, {"fusion_lat": 0.0, "name": "d44af32b8c8a51542051af8d0375ab0a", "is_disabled": 0, "rental_uris": {"android": "https://dc.lft.to/lastmile_qr_scan", "ios": "https://dc.lft.to/lastmile_qr_scan"}, "fusion_lon": 0.0, "lat": 38.89733416666667, "bike_id": "d44af32b8c8a51542051af8d0375ab0a", "type": "electric_scooter", "is_reserved": 0, "lon": -77.045662}, {"fusion_lat": 0.0, "name": "8f7eb16e875fd7c9d2fe668d8638e459", "is_disabled": 0, "rental_uris": {"android": "https://dc.lft.to/lastmile_qr_scan", "ios": "https://dc.lft.to/lastmile_qr_scan"}, "fusion_lon": 0.0, "lat": 38.83402916666667, "bike_id": "8f7eb16e875fd7c9d2fe668d8638e459", "type": "electric_bike", "is_reserved": 0, "lon": -77.00335316666667}, {"fusion_lat": 0.0, "name": "c6646ecaa2135f75f7a606f75f4e8890", "is_disabled": 0, "rental_uris": {"android": "https://dc.lft.to/lastmile_qr_scan", "ios": "https://dc.lft.to/lastmile_qr_scan"}, "fusion_lon": 0.0, "lat": 38.88443066666667, "bike_id": "c6646ecaa2135f75f7a606f75f4e8890", "type": "electric_scooter", "is_reserved": 0, "lon": -77.00349016666667}, {"fusion_lat": 0.0, "name": "9c3c3977cbd598ab0ca9658b45e63f69", "is_disabled": 0, "rental_uris": {"android": "https://dc.lft.to/lastmile_qr_scan", "ios": "https://dc.lft.to/lastmile_qr_scan"}, "fusion_lon": 0.0, "lat": 38.892261833333336, "bike_id": "9c3c3977cbd598ab0ca9658b45e63f69", "type": "electric_scooter", "is_reserved": 0, "lon": -77.00296916666667}, {"fusion_lat": 0.0, "name": "bca3cdbcb5dff529c5bc72ce8b8609dd", "is_disabled": 0, "rental_uris": {"android": "https://dc.lft.to/lastmile_qr_scan", "ios": "https://dc.lft.to/lastmile_qr_scan"}, "fusion_lon": 0.0, "lat": 38.90718316666667, "bike_id": "bca3cdbcb5dff529c5bc72ce8b8609dd", "type": "electric_scooter", "is_reserved": 0, "lon": -77.0254575}, {"fusion_lat": 0.0, "name": "0bed30a8d0a5c421ad840d68a8f17af1", "is_disabled": 0, "rental_uris": {"android": "https://dc.lft.to/lastmile_qr_scan", "ios": "https://dc.lft.to/lastmile_qr_scan"}, "fusion_lon": 0.0, "lat": 38.883287333333335, "bike_id": "0bed30a8d0a5c421ad840d68a8f17af1", "type": "electric_scooter", "is_reserved": 0, "lon": -77.01931066666667}, {"fusion_lat": 0.0, "name": "2c0929c27053d2a0c0519bd132af0fb2", "is_disabled": 0, "rental_uris": {"android": "https://dc.lft.to/lastmile_qr_scan", "ios": "https://dc.lft.to/lastmile_qr_scan"}, "fusion_lon": 0.0, "lat": 38.81941716666667, "bike_id": "2c0929c27053d2a0c0519bd132af0fb2", "type": "electric_bike", "is_reserved": 0, "lon": -77.00202233333333}, {"fusion_lat": 0.0, "name": "0544ce244f91dc2e4fe4fe8160eccce1", "is_disabled": 0, "rental_uris": {"android": "https://dc.lft.to/lastmile_qr_scan", "ios": "https://dc.lft.to/lastmile_qr_scan"}, "fusion_lon": 0.0, "lat": 38.900209, "bike_id": "0544ce244f91dc2e4fe4fe8160eccce1", "type": "electric_scooter", "is_reserved": 0, "lon": -77.0019675}, {"fusion_lat": 0.0, "name": "5dd18a2717a25e9b1cef4a90d89c6702", "is_disabled": 0, "rental_uris": {"android": "https://dc.lft.to/lastmile_qr_scan", "ios": "https://dc.lft.to/lastmile_qr_scan"}, "fusion_lon": 0.0, "lat": 38.909545666666666, "bike_id": "5dd18a2717a25e9b1cef4a90d89c6702", "type": "electric_scooter", "is_reserved": 0, "lon": -76.985412}, {"fusion_lat": 0.0, "name": "70019164d46a1fbe32616292a44767fa", "is_disabled": 0, "rental_uris": {"android": "https://dc.lft.to/lastmile_qr_scan", "ios": "https://dc.lft.to/lastmile_qr_scan"}, "fusion_lon": 0.0, "lat": 38.90459833333333, "bike_id": "70019164d46a1fbe32616292a44767fa", "type": "electric_scooter", "is_reserved": 0, "lon": -77.02951583333333}, {"fusion_lat": 0.0, "name": "1ac2e2f2e7eac28729ff0b429900d7f3", "is_disabled": 0, "rental_uris": {"android": "https://dc.lft.to/lastmile_qr_scan", "ios": "https://dc.lft.to/lastmile_qr_scan"}, "fusion_lon": 0.0, "lat": 38.84128166666667, "bike_id": "1ac2e2f2e7eac28729ff0b429900d7f3", "type": "electric_bike", "is_reserved": 0, "lon": -77.063058}, {"fusion_lat": 0.0, "name": "57bfc2eeb8f920315e73f8d510907062", "is_disabled": 0, "rental_uris": {"android": "https://dc.lft.to/lastmile_qr_scan", "ios": "https://dc.lft.to/lastmile_qr_scan"}, "fusion_lon": 0.0, "lat": 38.863534333333334, "bike_id": "57bfc2eeb8f920315e73f8d510907062", "type": "electric_bike", "is_reserved": 0, "lon": -77.07719966666667}, {"fusion_lat": 0.0, "name": "616525321404d15078372ad96d12463c", "is_disabled": 0, "rental_uris": {"android": "https://dc.lft.to/lastmile_qr_scan", "ios": "https://dc.lft.to/lastmile_qr_scan"}, "fusion_lon": 0.0, "lat": 38.888335, "bike_id": "616525321404d15078372ad96d12463c", "type": "electric_scooter", "is_reserved": 0, "lon": -77.048455}, {"fusion_lat": 0.0, "name": "8f0f4a3e205dd43978d5f620ce9d5581", "is_disabled": 0, "rental_uris": {"android": "https://dc.lft.to/lastmile_qr_scan", "ios": "https://dc.lft.to/lastmile_qr_scan"}, "fusion_lon": 0.0, "lat": 38.931525, "bike_id": "8f0f4a3e205dd43978d5f620ce9d5581", "type": "electric_scooter", "is_reserved": 0, "lon": -77.03966}, {"fusion_lat": 0.0, "name": "5603dcaa0c2e5486b95160ba4e9eb0ec", "is_disabled": 0, "rental_uris": {"android": "https://dc.lft.to/lastmile_qr_scan", "ios": "https://dc.lft.to/lastmile_qr_scan"}, "fusion_lon": 0.0, "lat": 38.937522333333334, "bike_id": "5603dcaa0c2e5486b95160ba4e9eb0ec", "type": "electric_scooter", "is_reserved": 0, "lon": -77.025288}, {"fusion_lat": 0.0, "name": "0ede29219fb9225dd1dc2b646dcb5cef", "is_disabled": 0, "rental_uris": {"android": "https://dc.lft.to/lastmile_qr_scan", "ios": "https://dc.lft.to/lastmile_qr_scan"}, "fusion_lon": 0.0, "lat": 38.909847, "bike_id": "0ede29219fb9225dd1dc2b646dcb5cef", "type": "electric_scooter", "is_reserved": 0, "lon": -77.05484516666667}, {"fusion_lat": 0.0, "name": "cc0b66de98f42c4d1c99d11099421ca7", "is_disabled": 0, "rental_uris": {"android": "https://dc.lft.to/lastmile_qr_scan", "ios": "https://dc.lft.to/lastmile_qr_scan"}, "fusion_lon": 0.0, "lat": 38.903795833333334, "bike_id": "cc0b66de98f42c4d1c99d11099421ca7", "type": "electric_scooter", "is_reserved": 0, "lon": -77.06717783333333}, {"fusion_lat": 0.0, "name": "22cf95eb21f6c3d5bf846202d6170da9", "is_disabled": 0, "rental_uris": {"android": "https://dc.lft.to/lastmile_qr_scan", "ios": "https://dc.lft.to/lastmile_qr_scan"}, "fusion_lon": 0.0, "lat": 38.88293816666667, "bike_id": "22cf95eb21f6c3d5bf846202d6170da9", "type": "electric_scooter", "is_reserved": 0, "lon": -77.0137735}, {"fusion_lat": 0.0, "name": "4f82e9b6f09c2c0c91643c071a95513d", "is_disabled": 0, "rental_uris": {"android": "https://dc.lft.to/lastmile_qr_scan", "ios": "https://dc.lft.to/lastmile_qr_scan"}, "fusion_lon": 0.0, "lat": 38.90314016666667, "bike_id": "4f82e9b6f09c2c0c91643c071a95513d", "type": "electric_scooter", "is_reserved": 0, "lon": -77.05323666666666}, {"fusion_lat": 0.0, "name": "1c930e30db75127da57b579033c5d877", "is_disabled": 0, "rental_uris": {"android": "https://dc.lft.to/lastmile_qr_scan", "ios": "https://dc.lft.to/lastmile_qr_scan"}, "fusion_lon": 0.0, "lat": 38.90262633333333, "bike_id": "1c930e30db75127da57b579033c5d877", "type": "electric_bike", "is_reserved": 0, "lon": -77.00246666666666}, {"fusion_lat": 0.0, "name": "d01d13e817ed745ac5ee684fac7b4d1c", "is_disabled": 0, "rental_uris": {"android": "https://dc.lft.to/lastmile_qr_scan", "ios": "https://dc.lft.to/lastmile_qr_scan"}, "fusion_lon": 0.0, "lat": 38.92219766666667, "bike_id": "d01d13e817ed745ac5ee684fac7b4d1c", "type": "electric_scooter", "is_reserved": 0, "lon": -77.03518933333334}, {"fusion_lat": 0.0, "name": "d0a4c332a6d33c8bdf41db64acef3421", "is_disabled": 0, "rental_uris": {"android": "https://dc.lft.to/lastmile_qr_scan", "ios": "https://dc.lft.to/lastmile_qr_scan"}, "fusion_lon": 0.0, "lat": 38.883963333333334, "bike_id": "d0a4c332a6d33c8bdf41db64acef3421", "type": "electric_scooter", "is_reserved": 0, "lon": -76.93049416666666}, {"fusion_lat": 0.0, "name": "ab953c0bdf770f4f1ac0abf759848410", "is_disabled": 0, "rental_uris": {"android": "https://dc.lft.to/lastmile_qr_scan", "ios": "https://dc.lft.to/lastmile_qr_scan"}, "fusion_lon": 0.0, "lat": 38.91676116666667, "bike_id": "ab953c0bdf770f4f1ac0abf759848410", "type": "electric_scooter", "is_reserved": 0, "lon": -77.02720516666666}, {"fusion_lat": 0.0, "name": "e00abf4d6a91b275643d80285c908bae", "is_disabled": 0, "rental_uris": {"android": "https://dc.lft.to/lastmile_qr_scan", "ios": "https://dc.lft.to/lastmile_qr_scan"}, "fusion_lon": 0.0, "lat": 38.930671333333336, "bike_id": "e00abf4d6a91b275643d80285c908bae", "type": "electric_scooter", "is_reserved": 0, "lon": -77.0297715}, {"fusion_lat": 0.0, "name": "7bf25684dffae7473c1da374fdabea83", "is_disabled": 0, "rental_uris": {"android": "https://dc.lft.to/lastmile_qr_scan", "ios": "https://dc.lft.to/lastmile_qr_scan"}, "fusion_lon": 0.0, "lat": 38.895142166666666, "bike_id": "7bf25684dffae7473c1da374fdabea83", "type": "electric_scooter", "is_reserved": 0, "lon": -77.01110283333334}, {"fusion_lat": 0.0, "name": "c34c7c1af5658175b15e6badbef62d04", "is_disabled": 0, "rental_uris": {"android": "https://dc.lft.to/lastmile_qr_scan", "ios": "https://dc.lft.to/lastmile_qr_scan"}, "fusion_lon": 0.0, "lat": 38.93055483333333, "bike_id": "c34c7c1af5658175b15e6badbef62d04", "type": "electric_scooter", "is_reserved": 0, "lon": -77.03353066666666}, {"fusion_lat": 0.0, "name": "5d308595797bc380811413afb2826314", "is_disabled": 0, "rental_uris": {"android": "https://dc.lft.to/lastmile_qr_scan", "ios": "https://dc.lft.to/lastmile_qr_scan"}, "fusion_lon": 0.0, "lat": 38.857980833333336, "bike_id": "5d308595797bc380811413afb2826314", "type": "electric_bike", "is_reserved": 0, "lon": -77.12012533333333}, {"fusion_lat": 0.0, "name": "e60cdc06d8925106fb109d4c056ef75a", "is_disabled": 0, "rental_uris": {"android": "https://dc.lft.to/lastmile_qr_scan", "ios": "https://dc.lft.to/lastmile_qr_scan"}, "fusion_lon": 0.0, "lat": 38.89463283333333, "bike_id": "e60cdc06d8925106fb109d4c056ef75a", "type": "electric_scooter", "is_reserved": 0, "lon": -77.02688583333334}, {"fusion_lat": 0.0, "name": "18933e1e9e4fd49c89ae3bdda3dcc271", "is_disabled": 0, "rental_uris": {"android": "https://dc.lft.to/lastmile_qr_scan", "ios": "https://dc.lft.to/lastmile_qr_scan"}, "fusion_lon": 0.0, "lat": 38.90251766666667, "bike_id": "18933e1e9e4fd49c89ae3bdda3dcc271", "type": "electric_scooter", "is_reserved": 0, "lon": -77.01926166666667}, {"fusion_lat": 0.0, "name": "929ce46fe2bbe6477917dc677ad87dc0", "is_disabled": 0, "rental_uris": {"android": "https://dc.lft.to/lastmile_qr_scan", "ios": "https://dc.lft.to/lastmile_qr_scan"}, "fusion_lon": 0.0, "lat": 38.935617, "bike_id": "929ce46fe2bbe6477917dc677ad87dc0", "type": "electric_scooter", "is_reserved": 0, "lon": -77.03487466666667}, {"fusion_lat": 0.0, "name": "1511d686188193aa534ce1a809a89f17", "is_disabled": 0, "rental_uris": {"android": "https://dc.lft.to/lastmile_qr_scan", "ios": "https://dc.lft.to/lastmile_qr_scan"}, "fusion_lon": 0.0, "lat": 38.862660166666664, "bike_id": "1511d686188193aa534ce1a809a89f17", "type": "electric_bike", "is_reserved": 0, "lon": -76.98353283333333}, {"fusion_lat": 0.0, "name": "9f07a174eebe4da9047aafb634c7de27", "is_disabled": 0, "rental_uris": {"android": "https://dc.lft.to/lastmile_qr_scan", "ios": "https://dc.lft.to/lastmile_qr_scan"}, "fusion_lon": 0.0, "lat": 38.915149166666666, "bike_id": "9f07a174eebe4da9047aafb634c7de27", "type": "electric_scooter", "is_reserved": 0, "lon": -77.02691733333333}, {"fusion_lat": 0.0, "name": "4207fc08f533520c07628ca58da51593", "is_disabled": 0, "rental_uris": {"android": "https://dc.lft.to/lastmile_qr_scan", "ios": "https://dc.lft.to/lastmile_qr_scan"}, "fusion_lon": 0.0, "lat": 38.877104333333335, "bike_id": "4207fc08f533520c07628ca58da51593", "type": "electric_scooter", "is_reserved": 0, "lon": -76.99383266666666}, {"fusion_lat": 0.0, "name": "f498370ba243921440d84bef7819565a", "is_disabled": 0, "rental_uris": {"android": "https://dc.lft.to/lastmile_qr_scan", "ios": "https://dc.lft.to/lastmile_qr_scan"}, "fusion_lon": 0.0, "lat": 38.945241, "bike_id": "f498370ba243921440d84bef7819565a", "type": "electric_scooter", "is_reserved": 0, "lon": -77.02272}, {"fusion_lat": 0.0, "name": "a74465b3019203282d9d371e03b2bbed", "is_disabled": 0, "rental_uris": {"android": "https://dc.lft.to/lastmile_qr_scan", "ios": "https://dc.lft.to/lastmile_qr_scan"}, "fusion_lon": 0.0, "lat": 38.919091, "bike_id": "a74465b3019203282d9d371e03b2bbed", "type": "electric_scooter", "is_reserved": 0, "lon": -77.01217566666666}, {"fusion_lat": 0.0, "name": "2f05332bf1a82cbbd866a0bdc6a1a864", "is_disabled": 0, "rental_uris": {"android": "https://dc.lft.to/lastmile_qr_scan", "ios": "https://dc.lft.to/lastmile_qr_scan"}, "fusion_lon": 0.0, "lat": 38.903862333333336, "bike_id": "2f05332bf1a82cbbd866a0bdc6a1a864", "type": "electric_scooter", "is_reserved": 0, "lon": -77.01736333333334}, {"fusion_lat": 0.0, "name": "752a05814093becca40ec3b0bc1fac02", "is_disabled": 0, "rental_uris": {"android": "https://dc.lft.to/lastmile_qr_scan", "ios": "https://dc.lft.to/lastmile_qr_scan"}, "fusion_lon": 0.0, "lat": 38.935036, "bike_id": "752a05814093becca40ec3b0bc1fac02", "type": "electric_scooter", "is_reserved": 0, "lon": -77.07360316666667}, {"fusion_lat": 0.0, "name": "0ef01e81a95d6ae43aa16936a4fefded", "is_disabled": 0, "rental_uris": {"android": "https://dc.lft.to/lastmile_qr_scan", "ios": "https://dc.lft.to/lastmile_qr_scan"}, "fusion_lon": 0.0, "lat": 38.91034116666667, "bike_id": "0ef01e81a95d6ae43aa16936a4fefded", "type": "electric_scooter", "is_reserved": 0, "lon": -77.03327116666667}, {"fusion_lat": 0.0, "name": "233d370a9676846d4cf770b1764a96d8", "is_disabled": 0, "rental_uris": {"android": "https://dc.lft.to/lastmile_qr_scan", "ios": "https://dc.lft.to/lastmile_qr_scan"}, "fusion_lon": 0.0, "lat": 38.9036235, "bike_id": "233d370a9676846d4cf770b1764a96d8", "type": "electric_scooter", "is_reserved": 0, "lon": -77.0364875}, {"fusion_lat": 0.0, "name": "238b4b3b46110f7f4e75d6c0ae3a805a", "is_disabled": 0, "rental_uris": {"android": "https://dc.lft.to/lastmile_qr_scan", "ios": "https://dc.lft.to/lastmile_qr_scan"}, "fusion_lon": 0.0, "lat": 38.91277433333333, "bike_id": "238b4b3b46110f7f4e75d6c0ae3a805a", "type": "electric_scooter", "is_reserved": 0, "lon": -77.04653966666666}, {"fusion_lat": 0.0, "name": "cf073bc33b5973eb7d60d1aa9acb7e60", "is_disabled": 0, "rental_uris": {"android": "https://dc.lft.to/lastmile_qr_scan", "ios": "https://dc.lft.to/lastmile_qr_scan"}, "fusion_lon": 0.0, "lat": 38.9839225, "bike_id": "cf073bc33b5973eb7d60d1aa9acb7e60", "type": "electric_scooter", "is_reserved": 0, "lon": -77.02631533333333}, {"fusion_lat": 0.0, "name": "826531ba2ee5f53edc6534c8b28b770e", "is_disabled": 0, "rental_uris": {"android": "https://dc.lft.to/lastmile_qr_scan", "ios": "https://dc.lft.to/lastmile_qr_scan"}, "fusion_lon": 0.0, "lat": 38.8901805, "bike_id": "826531ba2ee5f53edc6534c8b28b770e", "type": "electric_scooter", "is_reserved": 0, "lon": -76.93734466666666}, {"fusion_lat": 0.0, "name": "6353e3f93ce40ac8be5bb1b194ca20c0", "is_disabled": 0, "rental_uris": {"android": "https://dc.lft.to/lastmile_qr_scan", "ios": "https://dc.lft.to/lastmile_qr_scan"}, "fusion_lon": 0.0, "lat": 38.91355983333333, "bike_id": "6353e3f93ce40ac8be5bb1b194ca20c0", "type": "electric_scooter", "is_reserved": 0, "lon": -77.02177216666666}, {"fusion_lat": 0.0, "name": "56e45034fc2d06150be63c5af932e58e", "is_disabled": 0, "rental_uris": {"android": "https://dc.lft.to/lastmile_qr_scan", "ios": "https://dc.lft.to/lastmile_qr_scan"}, "fusion_lon": 0.0, "lat": 38.88613, "bike_id": "56e45034fc2d06150be63c5af932e58e", "type": "electric_scooter", "is_reserved": 0, "lon": -77.01245066666667}, {"fusion_lat": 0.0, "name": "42181794696c76d408dde55fa5e1c70a", "is_disabled": 0, "rental_uris": {"android": "https://dc.lft.to/lastmile_qr_scan", "ios": "https://dc.lft.to/lastmile_qr_scan"}, "fusion_lon": 0.0, "lat": 38.935038, "bike_id": "42181794696c76d408dde55fa5e1c70a", "type": "electric_scooter", "is_reserved": 0, "lon": -77.03614783333333}, {"fusion_lat": 0.0, "name": "008a8974933729a4c5bb0ef0bddf16d9", "is_disabled": 0, "rental_uris": {"android": "https://dc.lft.to/lastmile_qr_scan", "ios": "https://dc.lft.to/lastmile_qr_scan"}, "fusion_lon": 0.0, "lat": 38.89237766666667, "bike_id": "008a8974933729a4c5bb0ef0bddf16d9", "type": "electric_scooter", "is_reserved": 0, "lon": -77.04654483333333}, {"fusion_lat": 0.0, "name": "05a40a9c35ca7412cf87a6e888dd2f88", "is_disabled": 0, "rental_uris": {"android": "https://dc.lft.to/lastmile_qr_scan", "ios": "https://dc.lft.to/lastmile_qr_scan"}, "fusion_lon": 0.0, "lat": 38.9132815, "bike_id": "05a40a9c35ca7412cf87a6e888dd2f88", "type": "electric_scooter", "is_reserved": 0, "lon": -77.045477}, {"fusion_lat": 0.0, "name": "c524d8cd0a8e9f6d4c645c197cb1c32b", "is_disabled": 0, "rental_uris": {"android": "https://dc.lft.to/lastmile_qr_scan", "ios": "https://dc.lft.to/lastmile_qr_scan"}, "fusion_lon": 0.0, "lat": 38.902315333333334, "bike_id": "c524d8cd0a8e9f6d4c645c197cb1c32b", "type": "electric_scooter", "is_reserved": 0, "lon": -77.05340866666667}, {"fusion_lat": 0.0, "name": "160f74c50e8ef2a5aa618c69a79dec4f", "is_disabled": 0, "rental_uris": {"android": "https://dc.lft.to/lastmile_qr_scan", "ios": "https://dc.lft.to/lastmile_qr_scan"}, "fusion_lon": 0.0, "lat": 38.92873483333333, "bike_id": "160f74c50e8ef2a5aa618c69a79dec4f", "type": "electric_scooter", "is_reserved": 0, "lon": -77.0136635}, {"fusion_lat": 0.0, "name": "9f940fa7400fd97bf2491bb9d8d4f087", "is_disabled": 0, "rental_uris": {"android": "https://dc.lft.to/lastmile_qr_scan", "ios": "https://dc.lft.to/lastmile_qr_scan"}, "fusion_lon": 0.0, "lat": 38.9051595, "bike_id": "9f940fa7400fd97bf2491bb9d8d4f087", "type": "electric_scooter", "is_reserved": 0, "lon": -77.05145733333333}, {"fusion_lat": 0.0, "name": "9c74fcfca7066067aa22b47a942261b4", "is_disabled": 0, "rental_uris": {"android": "https://dc.lft.to/lastmile_qr_scan", "ios": "https://dc.lft.to/lastmile_qr_scan"}, "fusion_lon": 0.0, "lat": 38.916319333333334, "bike_id": "9c74fcfca7066067aa22b47a942261b4", "type": "electric_scooter", "is_reserved": 0, "lon": -77.03150733333334}, {"fusion_lat": 0.0, "name": "9aadb927bd465ead3c578c2f4f75b1b8", "is_disabled": 0, "rental_uris": {"android": "https://dc.lft.to/lastmile_qr_scan", "ios": "https://dc.lft.to/lastmile_qr_scan"}, "fusion_lon": 0.0, "lat": 38.9165735, "bike_id": "9aadb927bd465ead3c578c2f4f75b1b8", "type": "electric_scooter", "is_reserved": 0, "lon": -77.02805716666667}, {"fusion_lat": 0.0, "name": "535d6e9fecfb328441dfcafc49c452c6", "is_disabled": 0, "rental_uris": {"android": "https://dc.lft.to/lastmile_qr_scan", "ios": "https://dc.lft.to/lastmile_qr_scan"}, "fusion_lon": 0.0, "lat": 38.896107666666666, "bike_id": "535d6e9fecfb328441dfcafc49c452c6", "type": "electric_scooter", "is_reserved": 0, "lon": -77.009286}, {"fusion_lat": 0.0, "name": "4965878a34ab10d301e82d5de02541c7", "is_disabled": 0, "rental_uris": {"android": "https://dc.lft.to/lastmile_qr_scan", "ios": "https://dc.lft.to/lastmile_qr_scan"}, "fusion_lon": 0.0, "lat": 38.901985833333335, "bike_id": "4965878a34ab10d301e82d5de02541c7", "type": "electric_scooter", "is_reserved": 0, "lon": -76.97858433333333}, {"fusion_lat": 0.0, "name": "a726c12e3edbeeefefa311c32cdd8eb1", "is_disabled": 0, "rental_uris": {"android": "https://dc.lft.to/lastmile_qr_scan", "ios": "https://dc.lft.to/lastmile_qr_scan"}, "fusion_lon": 0.0, "lat": 38.933206, "bike_id": "a726c12e3edbeeefefa311c32cdd8eb1", "type": "electric_scooter", "is_reserved": 0, "lon": -77.027505}, {"fusion_lat": 0.0, "name": "7e70e25b97665836b8e84fa17e360e65", "is_disabled": 0, "rental_uris": {"android": "https://dc.lft.to/lastmile_qr_scan", "ios": "https://dc.lft.to/lastmile_qr_scan"}, "fusion_lon": 0.0, "lat": 38.88643866666666, "bike_id": "7e70e25b97665836b8e84fa17e360e65", "type": "electric_scooter", "is_reserved": 0, "lon": -77.01947683333333}, {"fusion_lat": 0.0, "name": "d73671af1c7817a66c076606153a6e9e", "is_disabled": 0, "rental_uris": {"android": "https://dc.lft.to/lastmile_qr_scan", "ios": "https://dc.lft.to/lastmile_qr_scan"}, "fusion_lon": 0.0, "lat": 38.925718, "bike_id": "d73671af1c7817a66c076606153a6e9e", "type": "electric_scooter", "is_reserved": 0, "lon": -77.02247816666667},