{"data": {"bikes": [{"is_reserved": 0, "fusion_lon": 0.0, "fusion_lat": 0.0, "name": "cbd89bf17583eaa3e2cf1a485807de4f", "type": "electric_scooter", "is_disabled": 0, "lat": 38.921264, "rental_uris": {"android": "https://dc.lft.to/lastmile_qr_scan", "ios": "https://dc.lft.to/lastmile_qr_scan"}, "bike_id": "cbd89bf17583eaa3e2cf1a485807de4f", "lon": -77.01836516666667}, {"is_reserved": 0, "fusion_lon": 0.0, "fusion_lat": 0.0, "name": "60ef9d954299549f5db30e7f6b48de66", "type": "electric_scooter", "is_disabled": 0, "lat": 38.92647483333333, "rental_uris": {"android": "https://dc.lft.to/lastmile_qr_scan", "ios": "https://dc.lft.to/lastmile_qr_scan"}, "bike_id": "60ef9d954299549f5db30e7f6b48de66", "lon": -77.04137833333333}, {"is_reserved": 0, "fusion_lon": 0.0, "fusion_lat": 0.0, "name": "accf58346188c363b249ef6d0728af6d", "type": "electric_scooter", "is_disabled": 0, "lat": 38.9096235, "rental_uris": {"android": "https://dc.lft.to/lastmile_qr_scan", "ios": "https://dc.lft.to/lastmile_qr_scan"}, "bike_id": "accf58346188c363b249ef6d0728af6d", "lon": -77.038662}, {"is_reserved": 0, "fusion_lon": 0.0, "fusion_lat": 0.0, "name": "94368f8eea8e2ed834fdbeccf0156d66", "type": "electric_scooter", "is_disabled": 0, "lat": 38.905473666666666, "rental_uris": {"android": "https://dc.lft.to/lastmile_qr_scan", "ios": "https://dc.lft.to/lastmile_qr_scan"}, "bike_id": "94368f8eea8e2ed834fdbeccf0156d66", "lon": -77.04490416666667}, {"is_reserved": 0, "fusion_lon": 0.0, "fusion_lat": 0.0, "name": "5988ca352ff449e25bd03f66db647115", "type": "electric_scooter", "is_disabled": 0, "lat": 38.90001816666667, "rental_uris": {"android": "https://dc.lft.to/lastmile_qr_scan", "ios": "https://dc.lft.to/lastmile_qr_scan"}, "bike_id": "5988ca352ff449e25bd03f66db647115", "lon": -77.02720966666666}, {"is_reserved": 0, "fusion_lon": 0.0, "fusion_lat": 0.0, "name": "7e724296fe021b2ab746455943bbb285", "type": "electric_scooter", "is_disabled": 0, "lat": 38.89714883333333, "rental_uris": {"android": "https://dc.lft.to/lastmile_qr_scan", "ios": "https://dc.lft.to/lastmile_qr_scan"}, "bike_id": "7e724296fe021b2ab746455943bbb285", "lon": -77.0212075}, {"is_reserved": 0, "fusion_lon": 0.0, "fusion_lat": 0.0, "name": "9a20d207c2ec67e3def3440048dbb367", "type": "electric_scooter", "is_disabled": 0, "lat": 38.895744, "rental_uris": {"android": "https://dc.lft.to/lastmile_qr_scan", "ios": "https://dc.lft.to/lastmile_qr_scan"}, "bike_id": "9a20d207c2ec67e3def3440048dbb367", "lon": -77.0467715}, {"is_reserved": 0, "fusion_lon": 0.0, "fusion_lat": 0.0, "name": "518b1fd2d685b3bc11d21030c353bd67", "type": "electric_scooter", "is_disabled": 0, "lat": 38.88084716666667, "rental_uris": {"android": "https://dc.lft.to/lastmile_qr_scan", "ios": "https://dc.lft.to/lastmile_qr_scan"}, "bike_id": "518b1fd2d685b3bc11d21030c353bd67", "lon": -76.98512516666666}, {"is_reserved": 0, "fusion_lon": 0.0, "fusion_lat": 0.0, "name": "81bb98b9007f4cb8e63be3f92658a2a1", "type": "electric_scooter", "is_disabled": 0, "lat": 38.926806666666664, "rental_uris": {"android": "https://dc.lft.to/lastmile_qr_scan", "ios": "https://dc.lft.to/lastmile_qr_scan"}, "bike_id": "81bb98b9007f4cb8e63be3f92658a2a1", "lon": -77.029937}, {"is_reserved": 0, "fusion_lon": 0.0, "fusion_lat": 0.0, "name": "dc6b37fcc76773943d139b09b8afb723", "type": "electric_scooter", "is_disabled": 0, "lat": 38.90640466666667, "rental_uris": {"android": "https://dc.lft.to/lastmile_qr_scan", "ios": "https://dc.lft.to/lastmile_qr_scan"}, "bike_id": "dc6b37fcc76773943d139b09b8afb723", "lon": -77.04863683333333}, {"is_reserved": 0, "fusion_lon": 0.0, "fusion_lat": 0.0, "name": "73bd868fe9a345bed86c9f3ee89d557e", "type": "electric_scooter", "is_disabled": 0, "lat": 38.919144333333335, "rental_uris": {"android": "https://dc.lft.to/lastmile_qr_scan", "ios": "https://dc.lft.to/lastmile_qr_scan"}, "bike_id": "73bd868fe9a345bed86c9f3ee89d557e", "lon": -77.0250725}, {"is_reserved": 0, "fusion_lon": 0.0, "fusion_lat": 0.0, "name": "a8cf4eac52e7210e4cd5566f78c76a25", "type": "electric_scooter", "is_disabled": 0, "lat": 38.915729, "rental_uris": {"android": "https://dc.lft.to/lastmile_qr_scan", "ios": "https://dc.lft.to/lastmile_qr_scan"}, "bike_id": "a8cf4eac52e7210e4cd5566f78c76a25", "lon": -77.0199015}, {"is_reserved": 0, "fusion_lon": 0.0, "fusion_lat": 0.0, "name": "4ab516b5a3f12fd7f3831f99ad177f2e", "type": "electric_scooter", "is_disabled": 0, "lat": 38.917951, "rental_uris": {"android": "https://dc.lft.to/lastmile_qr_scan", "ios": "https://dc.lft.to/lastmile_qr_scan"}, "bike_id": "4ab516b5a3f12fd7f3831f99ad177f2e", "lon": -77.04022}, {"is_reserved": 0, "fusion_lon": 0.0, "fusion_lat": 0.0, "name": "07cce5b630e01cd87ed6e777faa8369c", "type": "electric_bike", "is_disabled": 0, "lat": 38.87086266666667, "rental_uris": {"android": "https://dc.lft.to/lastmile_qr_scan", "ios": "https://dc.lft.to/lastmile_qr_scan"}, "bike_id": "07cce5b630e01cd87ed6e777faa8369c", "lon": -77.012106}, {"is_reserved": 0, "fusion_lon": 0.0, "fusion_lat": 0.0, "name": "e05e307200296c5a76ac2df2ca12850e", "type": "electric_scooter", "is_disabled": 0, "lat": 38.89220816666667, "rental_uris": {"android": "https://dc.lft.to/lastmile_qr_scan", "ios": "https://dc.lft.to/lastmile_qr_scan"}, "bike_id": "e05e307200296c5a76ac2df2ca12850e", "lon": -77.0235185}, {"is_reserved": 0, "fusion_lon": 0.0, "fusion_lat": 0.0, "name": "cca802207fdb7324db1e61b3e121a988", "type": "electric_bike", "is_disabled": 0, "lat": 39.0629665, "rental_uris": {"android": "https://dc.lft.to/lastmile_qr_scan", "ios": "https://dc.lft.to/lastmile_qr_scan"}, "bike_id": "cca802207fdb7324db1e61b3e121a988", "lon": -77.04981116666667}, {"is_reserved": 0, "fusion_lon": 0.0, "fusion_lat": 0.0, "name": "7fc8e36befb3bab22ba227c7d0647df5", "type": "electric_scooter", "is_disabled": 0, "lat": 38.906369166666664, "rental_uris": {"android": "https://dc.lft.to/lastmile_qr_scan", "ios": "https://dc.lft.to/lastmile_qr_scan"}, "bike_id": "7fc8e36befb3bab22ba227c7d0647df5", "lon": -77.04802}, {"is_reserved": 0, "fusion_lon": 0.0, "fusion_lat": 0.0, "name": "79390e5debc19c329885be0bac5638f7", "type": "electric_scooter", "is_disabled": 0, "lat": 38.89272166666667, "rental_uris": {"android": "https://dc.lft.to/lastmile_qr_scan", "ios": "https://dc.lft.to/lastmile_qr_scan"}, "bike_id": "79390e5debc19c329885be0bac5638f7", "lon": -76.9423635}, {"is_reserved": 0, "fusion_lon": 0.0, "fusion_lat": 0.0, "name": "41e7868a2f027acbbccaa674a5fd532c", "type": "electric_scooter", "is_disabled": 0, "lat": 38.89915666666667, "rental_uris": {"android": "https://dc.lft.to/lastmile_qr_scan", "ios": "https://dc.lft.to/lastmile_qr_scan"}, "bike_id": "41e7868a2f027acbbccaa674a5fd532c", "lon": -76.93381266666667}, {"is_reserved": 0, "fusion_lon": 0.0, "fusion_lat": 0.0, "name": "a3d478b05dc55c0491a3f80ffa6d099f", "type": "electric_scooter", "is_disabled": 0, "lat": 38.92660633333333, "rental_uris": {"android": "https://dc.lft.to/lastmile_qr_scan", "ios": "https://dc.lft.to/lastmile_qr_scan"}, "bike_id": "a3d478b05dc55c0491a3f80ffa6d099f", "lon": -77.00869666666667}, {"is_reserved": 0, "fusion_lon": 0.0, "fusion_lat": 0.0, "name": "e991f0aae41bed77dfb0930c7d3a1e25", "type": "electric_bike", "is_disabled": 0, "lat": 39.034273, "rental_uris": {"android": "https://dc.lft.to/lastmile_qr_scan", "ios": "https://dc.lft.to/lastmile_qr_scan"}, "bike_id": "e991f0aae41bed77dfb0930c7d3a1e25", "lon": -77.04101633333333}, {"is_reserved": 0, "fusion_lon": 0.0, "fusion_lat": 0.0, "name": "e57c50d25aa48dd60645f0ae3192812c", "type": "electric_scooter", "is_disabled": 0, "lat": 38.906436, "rental_uris": {"android": "https://dc.lft.to/lastmile_qr_scan", "ios": "https://dc.lft.to/lastmile_qr_scan"}, "bike_id": "e57c50d25aa48dd60645f0ae3192812c", "lon": -77.05136116666667}, {"is_reserved": 0, "fusion_lon": 0.0, "fusion_lat": 0.0, "name": "23e64d489abfbe4b4662ca20f049a9d8", "type": "electric_bike", "is_disabled": 0, "lat": 38.8833495, "rental_uris": {"android": "https://dc.lft.to/lastmile_qr_scan", "ios": "https://dc.lft.to/lastmile_qr_scan"}, "bike_id": "23e64d489abfbe4b4662ca20f049a9d8", "lon": -77.0656615}, {"is_reserved": 0, "fusion_lon": 0.0, "fusion_lat": 0.0, "name": "b27299d9dffa99f44034da9819e357b2", "type": "electric_scooter", "is_disabled": 0, "lat": 38.902391, "rental_uris": {"android": "https://dc.lft.to/lastmile_qr_scan", "ios": "https://dc.lft.to/lastmile_qr_scan"}, "bike_id": "b27299d9dffa99f44034da9819e357b2", "lon": -77.00202416666667}, {"is_reserved": 0, "fusion_lon": 0.0, "fusion_lat": 0.0, "name": "03e4cdc115bc95805ef710deabf2d67b", "type": "electric_bike", "is_disabled": 0, "lat": 38.90859, "rental_uris": {"android": "https://dc.lft.to/lastmile_qr_scan", "ios": "https://dc.lft.to/lastmile_qr_scan"}, "bike_id": "03e4cdc115bc95805ef710deabf2d67b", "lon": -76.94006133333333}, {"is_reserved": 0, "fusion_lon": 0.0, "fusion_lat": 0.0, "name": "4b738f6b2806d16e82d6e6f595b2d7a9", "type": "electric_bike", "is_disabled": 0, "lat": 39.05498433333333, "rental_uris": {"android": "https://dc.lft.to/lastmile_qr_scan", "ios": "https://dc.lft.to/lastmile_qr_scan"}, "bike_id": "4b738f6b2806d16e82d6e6f595b2d7a9", "lon": -77.11789783333333}, {"is_reserved": 0, "fusion_lon": 0.0, "fusion_lat": 0.0, "name": "1ed877c0f9dd473d7ff5c2f97e7d444d", "type": "electric_scooter", "is_disabled": 0, "lat": 38.925649, "rental_uris": {"android": "https://dc.lft.to/lastmile_qr_scan", "ios": "https://dc.lft.to/lastmile_qr_scan"}, "bike_id": "1ed877c0f9dd473d7ff5c2f97e7d444d", "lon": -77.02285816666667}, {"is_reserved": 0, "fusion_lon": 0.0, "fusion_lat": 0.0, "name": "b0649a558de541fcfb2c51c78eb3a8b6", "type": "electric_scooter", "is_disabled": 0, "lat": 38.908654166666665, "rental_uris": {"android": "https://dc.lft.to/lastmile_qr_scan", "ios": "https://dc.lft.to/lastmile_qr_scan"}, "bike_id": "b0649a558de541fcfb2c51c78eb3a8b6", "lon": -77.0429185}, {"is_reserved": 0, "fusion_lon": 0.0, "fusion_lat": 0.0, "name": "d935c226c359efc0b3c11b798b0abe4f", "type": "electric_scooter", "is_disabled": 0, "lat": 38.91566783333333, "rental_uris": {"android": "https://dc.lft.to/lastmile_qr_scan", "ios": "https://dc.lft.to/lastmile_qr_scan"}, "bike_id": "d935c226c359efc0b3c11b798b0abe4f", "lon": -77.0320985}, {"is_reserved": 0, "fusion_lon": 0.0, "fusion_lat": 0.0, "name": "efa2696312f392680a86c13db5a7a3f4", "type": "electric_scooter", "is_disabled": 0, "lat": 38.88601533333333, "rental_uris": {"android": "https://dc.lft.to/lastmile_qr_scan", "ios": "https://dc.lft.to/lastmile_qr_scan"}, "bike_id": "efa2696312f392680a86c13db5a7a3f4", "lon": -77.01247433333333}, {"is_reserved": 0, "fusion_lon": 0.0, "fusion_lat": 0.0, "name": "11f6dd7d3a6f6b5f9f4ab8e139b4067c", "type": "electric_scooter", "is_disabled": 0, "lat": 38.8431205, "rental_uris": {"android": "https://dc.lft.to/lastmile_qr_scan", "ios": "https://dc.lft.to/lastmile_qr_scan"}, "bike_id": "11f6dd7d3a6f6b5f9f4ab8e139b4067c", "lon": -76.99933583333333}, {"is_reserved": 0, "fusion_lon": 0.0, "fusion_lat": 0.0, "name": "b9f2c6233c6dfb2087ee76d64ce8c438", "type": "electric_scooter", "is_disabled": 0, "lat": 38.91956066666667, "rental_uris": {"android": "https://dc.lft.to/lastmile_qr_scan", "ios": "https://dc.lft.to/lastmile_qr_scan"}, "bike_id": "b9f2c6233c6dfb2087ee76d64ce8c438", "lon": -77.023848}, {"is_reserved": 0, "fusion_lon": 0.0, "fusion_lat": 0.0, "name": "c9124848eba10ed97fc8833a348b8271", "type": "electric_scooter", "is_disabled": 0, "lat": 38.92042, "rental_uris": {"android": "https://dc.lft.to/lastmile_qr_scan", "ios": "https://dc.lft.to/lastmile_qr_scan"}, "bike_id": "c9124848eba10ed97fc8833a348b8271", "lon": -77.01678216666667}, {"is_reserved": 0, "fusion_lon": 0.0, "fusion_lat": 0.0, "name": "7e809b3f93d75a87b71309d220d2ae05", "type": "electric_scooter", "is_disabled": 0, "lat": 38.898957833333334, "rental_uris": {"android": "https://dc.lft.to/lastmile_qr_scan", "ios": "https://dc.lft.to/lastmile_qr_scan"}, "bike_id": "7e809b3f93d75a87b71309d220d2ae05", "lon": -77.02604116666667}, {"is_reserved": 0, "fusion_lon": 0.0, "fusion_lat": 0.0, "name": "a472f98be536c67f24f8774ee8fd7148", "type": "electric_scooter", "is_disabled": 0, "lat": 38.861512833333336, "rental_uris": {"android": "https://dc.lft.to/lastmile_qr_scan", "ios": "https://dc.lft.to/lastmile_qr_scan"}, "bike_id": "a472f98be536c67f24f8774ee8fd7148", "lon": -76.983848}, {"is_reserved": 0, "fusion_lon": 0.0, "fusion_lat": 0.0, "name": "bcef0fbace2aca7afa3d8e52e7cf5a35", "type": "electric_scooter", "is_disabled": 0, "lat": 38.91025116666667, "rental_uris": {"android": "https://dc.lft.to/lastmile_qr_scan", "ios": "https://dc.lft.to/lastmile_qr_scan"}, "bike_id": "bcef0fbace2aca7afa3d8e52e7cf5a35", "lon": -77.0344275}, {"is_reserved": 0, "fusion_lon": 0.0, "fusion_lat": 0.0, "name": "0f7408beac93628092b1b251cfc80744", "type": "electric_scooter", "is_disabled": 0, "lat": 38.8877655, "rental_uris": {"android": "https://dc.lft.to/lastmile_qr_scan", "ios": "https://dc.lft.to/lastmile_qr_scan"}, "bike_id": "0f7408beac93628092b1b251cfc80744", "lon": -76.95529666666667}, {"is_reserved": 0, "fusion_lon": 0.0, "fusion_lat": 0.0, "name": "4c2ee600ed81a59d4ee63d6947bd65f9", "type": "electric_scooter", "is_disabled": 0, "lat": 38.896022, "rental_uris": {"android": "https://dc.lft.to/lastmile_qr_scan", "ios": "https://dc.lft.to/lastmile_qr_scan"}, "bike_id": "4c2ee600ed81a59d4ee63d6947bd65f9", "lon": -76.990334}, {"is_reserved": 0, "fusion_lon": 0.0, "fusion_lat": 0.0, "name": "25b9f7d6dc15a465b53cfefa686a514c", "type": "electric_scooter", "is_disabled": 0, "lat": 38.900043333333336, "rental_uris": {"android": "https://dc.lft.to/lastmile_qr_scan", "ios": "https://dc.lft.to/lastmile_qr_scan"}, "bike_id": "25b9f7d6dc15a465b53cfefa686a514c", "lon": -76.998426}, {"is_reserved": 0, "fusion_lon": 0.0, "fusion_lat": 0.0, "name": "13341d973b41987163d53c5fd171cf37", "type": "electric_scooter", "is_disabled": 0, "lat": 38.93055733333333, "rental_uris": {"android": "https://dc.lft.to/lastmile_qr_scan", "ios": "https://dc.lft.to/lastmile_qr_scan"}, "bike_id": "13341d973b41987163d53c5fd171cf37", "lon": -77.0188545}, {"is_reserved": 0, "fusion_lon": 0.0, "fusion_lat": 0.0, "name": "f37a33d62d575af926b7745844e623a0", "type": "electric_bike", "is_disabled": 0, "lat": 39.013727333333335, "rental_uris": {"android": "https://dc.lft.to/lastmile_qr_scan", "ios": "https://dc.lft.to/lastmile_qr_scan"}, "bike_id": "f37a33d62d575af926b7745844e623a0", "lon": -76.92135999999999}, {"is_reserved": 0, "fusion_lon": 0.0, "fusion_lat": 0.0, "name": "7c0c051297d3706891ae80e1e827de38", "type": "electric_scooter", "is_disabled": 0, "lat": 38.897565666666665, "rental_uris": {"android": "https://dc.lft.to/lastmile_qr_scan", "ios": "https://dc.lft.to/lastmile_qr_scan"}, "bike_id": "7c0c051297d3706891ae80e1e827de38", "lon": -77.02692716666667}, {"is_reserved": 0, "fusion_lon": 0.0, "fusion_lat": 0.0, "name": "b8c676e764b1316183a700d155e9c615", "type": "electric_scooter", "is_disabled": 0, "lat": 38.8922705, "rental_uris": {"android": "https://dc.lft.to/lastmile_qr_scan", "ios": "https://dc.lft.to/lastmile_qr_scan"}, "bike_id": "b8c676e764b1316183a700d155e9c615", "lon": -77.04333316666667}, {"is_reserved": 0, "fusion_lon": 0.0, "fusion_lat": 0.0, "name": "64307f334a92e122e0660989c6b73228", "type": "electric_scooter", "is_disabled": 0, "lat": 38.897500666666666, "rental_uris": {"android": "https://dc.lft.to/lastmile_qr_scan", "ios": "https://dc.lft.to/lastmile_qr_scan"}, "bike_id": "64307f334a92e122e0660989c6b73228", "lon": -77.02698216666667}, {"is_reserved": 0, "fusion_lon": 0.0, "fusion_lat": 0.0, "name": "543a421546faf6c9754eb809dcdf4a7d", "type": "electric_scooter", "is_disabled": 0, "lat": 38.9053135, "rental_uris": {"android": "https://dc.lft.to/lastmile_qr_scan", "ios": "https://dc.lft.to/lastmile_qr_scan"}, "bike_id": "543a421546faf6c9754eb809dcdf4a7d", "lon": -77.04178483333334}, {"is_reserved": 0, "fusion_lon": 0.0, "fusion_lat": 0.0, "name": "a2440827de646e689ec3ad82095d74e9", "type": "electric_scooter", "is_disabled": 0, "lat": 38.952013666666666, "rental_uris": {"android": "https://dc.lft.to/lastmile_qr_scan", "ios": "https://dc.lft.to/lastmile_qr_scan"}, "bike_id": "a2440827de646e689ec3ad82095d74e9", "lon": -77.02737583333334}, {"is_reserved": 0, "fusion_lon": 0.0, "fusion_lat": 0.0, "name": "37ec2dd29a68395b4ed6b86a986ebf7d", "type": "electric_scooter", "is_disabled": 0, "lat": 38.90353316666667, "rental_uris": {"android": "https://dc.lft.to/lastmile_qr_scan", "ios": "https://dc.lft.to/lastmile_qr_scan"}, "bike_id": "37ec2dd29a68395b4ed6b86a986ebf7d", "lon": -77.00570466666667}, {"is_reserved": 0, "fusion_lon": 0.0, "fusion_lat": 0.0, "name": "1f396ba610b0d3f55a83bf7be570ca0f", "type": "electric_scooter", "is_disabled": 0, "lat": 38.875408166666666, "rental_uris": {"android": "https://dc.lft.to/lastmile_qr_scan", "ios": "https://dc.lft.to/lastmile_qr_scan"}, "bike_id": "1f396ba610b0d3f55a83bf7be570ca0f", "lon": -77.00593583333334}, {"is_reserved": 0, "fusion_lon": 0.0, "fusion_lat": 0.0, "name": "ce16348aa79f8748e648822d593b1663", "type": "electric_scooter", "is_disabled": 0, "lat": 38.907197833333335, "rental_uris": {"android": "https://dc.lft.to/lastmile_qr_scan", "ios": "https://dc.lft.to/lastmile_qr_scan"}, "bike_id": "ce16348aa79f8748e648822d593b1663", "lon": -77.048117}, {"is_reserved": 0, "fusion_lon": 0.0, "fusion_lat": 0.0, "name": "6c49cd64a27ac15627e6c59ab47e834a", "type": "electric_scooter", "is_disabled": 0, "lat": 38.917972166666665, "rental_uris": {"android": "https://dc.lft.to/lastmile_qr_scan", "ios": "https://dc.lft.to/lastmile_qr_scan"}, "bike_id": "6c49cd64a27ac15627e6c59ab47e834a", "lon": -77.03207266666666}, {"is_reserved": 0, "fusion_lon": 0.0, "fusion_lat": 0.0, "name": "b1b939e995628a2714a8f77e430e9134", "type": "electric_scooter", "is_disabled": 0, "lat": 38.908175666666665, "rental_uris": {"android": "https://dc.lft.to/lastmile_qr_scan", "ios": "https://dc.lft.to/lastmile_qr_scan"}, "bike_id": "b1b939e995628a2714a8f77e430e9134", "lon": -77.03847066666667}, {"is_reserved": 0, "fusion_lon": 0.0, "fusion_lat": 0.0, "name": "125046d9050c0bad19009deb304d13dc", "type": "electric_scooter", "is_disabled": 0, "lat": 38.9011395, "rental_uris": {"android": "https://dc.lft.to/lastmile_qr_scan", "ios": "https://dc.lft.to/lastmile_qr_scan"}, "bike_id": "125046d9050c0bad19009deb304d13dc", "lon": -77.04007783333333}, {"is_reserved": 0, "fusion_lon": 0.0, "fusion_lat": 0.0, "name": "69f9078ab63b4c1cc4feb3e855c0e114", "type": "electric_scooter", "is_disabled": 0, "lat": 38.90975783333333, "rental_uris": {"android": "https://dc.lft.to/lastmile_qr_scan", "ios": "https://dc.lft.to/lastmile_qr_scan"}, "bike_id": "69f9078ab63b4c1cc4feb3e855c0e114", "lon": -77.038596}, {"is_reserved": 0, "fusion_lon": 0.0, "fusion_lat": 0.0, "name": "59d2e0ada5efe78c974e91442d840f86", "type": "electric_scooter", "is_disabled": 0, "lat": 38.922669166666665, "rental_uris": {"android": "https://dc.lft.to/lastmile_qr_scan", "ios": "https://dc.lft.to/lastmile_qr_scan"}, "bike_id": "59d2e0ada5efe78c974e91442d840f86", "lon": -77.04253983333334}, {"is_reserved": 0, "fusion_lon": 0.0, "fusion_lat": 0.0, "name": "98115478103ff8bd3817b61ad3a03f6e", "type": "electric_scooter", "is_disabled": 0, "lat": 38.89016433333333, "rental_uris": {"android": "https://dc.lft.to/lastmile_qr_scan", "ios": "https://dc.lft.to/lastmile_qr_scan"}, "bike_id": "98115478103ff8bd3817b61ad3a03f6e", "lon": -76.93733766666666}, {"is_reserved": 0, "fusion_lon": 0.0, "fusion_lat": 0.0, "name": "ac99f6fe7b402967ace965ee977ec9fb", "type": "electric_scooter", "is_disabled": 0, "lat": 38.898010166666666, "rental_uris": {"android": "https://dc.lft.to/lastmile_qr_scan", "ios": "https://dc.lft.to/lastmile_qr_scan"}, "bike_id": "ac99f6fe7b402967ace965ee977ec9fb", "lon": -77.040094}, {"is_reserved": 0, "fusion_lon": 0.0, "fusion_lat": 0.0, "name": "8550765ac19d7564423d8ba76bc07710", "type": "electric_scooter", "is_disabled": 0, "lat": 38.934821, "rental_uris": {"android": "https://dc.lft.to/lastmile_qr_scan", "ios": "https://dc.lft.to/lastmile_qr_scan"}, "bike_id": "8550765ac19d7564423d8ba76bc07710", "lon": -77.064802}, {"is_reserved": 0, "fusion_lon": 0.0, "fusion_lat": 0.0, "name": "81060a885be7053e17dc4c0e7d00bcac", "type": "electric_scooter", "is_disabled": 0, "lat": 38.89757083333333, "rental_uris": {"android": "https://dc.lft.to/lastmile_qr_scan", "ios": "https://dc.lft.to/lastmile_qr_scan"}, "bike_id": "81060a885be7053e17dc4c0e7d00bcac", "lon": -77.02696733333333}, {"is_reserved": 0, "fusion_lon": 0.0, "fusion_lat": 0.0, "name": "39d8c3111291d57bc976bda3f9eec8ee", "type": "electric_scooter", "is_disabled": 0, "lat": 38.9053805, "rental_uris": {"android": "https://dc.lft.to/lastmile_qr_scan", "ios": "https://dc.lft.to/lastmile_qr_scan"}, "bike_id": "39d8c3111291d57bc976bda3f9eec8ee", "lon": -77.02973916666667}, {"is_reserved": 0, "fusion_lon": 0.0, "fusion_lat": 0.0, "name": "8a9c4d4dda38942a7e15bc7e6f705f73", "type": "electric_scooter", "is_disabled": 0, "lat": 38.9171125, "rental_uris": {"android": "https://dc.lft.to/lastmile_qr_scan", "ios": "https://dc.lft.to/lastmile_qr_scan"}, "bike_id": "8a9c4d4dda38942a7e15bc7e6f705f73", "lon": -77.0386605}, {"is_reserved": 0, "fusion_lon": 0.0, "fusion_lat": 0.0, "name": "55bb916134f51bcda7824873b1b13bae", "type": "electric_scooter", "is_disabled": 0, "lat": 38.916852, "rental_uris": {"android": "https://dc.lft.to/lastmile_qr_scan", "ios": "https://dc.lft.to/lastmile_qr_scan"}, "bike_id": "55bb916134f51bcda7824873b1b13bae", "lon": -77.029715}, {"is_reserved": 0, "fusion_lon": 0.0, "fusion_lat": 0.0, "name": "ad2db925e363654c83d4fd7d12940d84", "type": "electric_scooter", "is_disabled": 0, "lat": 38.897442833333336, "rental_uris": {"android": "https://dc.lft.to/lastmile_qr_scan", "ios": "https://dc.lft.to/lastmile_qr_scan"}, "bike_id": "ad2db925e363654c83d4fd7d12940d84", "lon": -77.02010716666666}, {"is_reserved": 0, "fusion_lon": 0.0, "fusion_lat": 0.0, "name": "18ca0856e7934db70a7f487306524238", "type": "electric_scooter", "is_disabled": 0, "lat": 38.899961, "rental_uris": {"android": "https://dc.lft.to/lastmile_qr_scan", "ios": "https://dc.lft.to/lastmile_qr_scan"}, "bike_id": "18ca0856e7934db70a7f487306524238", "lon": -77.03369266666667}, {"is_reserved": 0, "fusion_lon": 0.0, "fusion_lat": 0.0, "name": "456c0507c2b0f76f48624f30330bf432", "type": "electric_scooter", "is_disabled": 0, "lat": 38.892221166666666, "rental_uris": {"android": "https://dc.lft.to/lastmile_qr_scan", "ios": "https://dc.lft.to/lastmile_qr_scan"}, "bike_id": "456c0507c2b0f76f48624f30330bf432", "lon": -77.02225983333334}, {"is_reserved": 0, "fusion_lon": 0.0, "fusion_lat": 0.0, "name": "4a8ac85c9a3a1699b7c6cb204371f0d1", "type": "electric_scooter", "is_disabled": 0, "lat": 38.896264333333335, "rental_uris": {"android": "https://dc.lft.to/lastmile_qr_scan", "ios": "https://dc.lft.to/lastmile_qr_scan"}, "bike_id": "4a8ac85c9a3a1699b7c6cb204371f0d1", "lon": -77.02155866666666}, {"is_reserved": 0, "fusion_lon": 0.0, "fusion_lat": 0.0, "name": "8637a0094021eb97d3aa0e0e9f1f446c", "type": "electric_scooter", "is_disabled": 0, "lat": 38.9055875, "rental_uris": {"android": "https://dc.lft.to/lastmile_qr_scan", "ios": "https://dc.lft.to/lastmile_qr_scan"}, "bike_id": "8637a0094021eb97d3aa0e0e9f1f446c", "lon": -77.0070945}, {"is_reserved": 0, "fusion_lon": 0.0, "fusion_lat": 0.0, "name": "711ba653ceb8f203b1230e70618afd7a", "type": "electric_bike", "is_disabled": 0, "lat": 38.94922866666667, "rental_uris": {"android": "https://dc.lft.to/lastmile_qr_scan", "ios": "https://dc.lft.to/lastmile_qr_scan"}, "bike_id": "711ba653ceb8f203b1230e70618afd7a", "lon": -77.0080075}, {"is_reserved": 0, "fusion_lon": 0.0, "fusion_lat": 0.0, "name": "af25e99962274e49b38af93bb3eed38a", "type": "electric_scooter", "is_disabled": 0, "lat": 38.880671, "rental_uris": {"android": "https://dc.lft.to/lastmile_qr_scan", "ios": "https://dc.lft.to/lastmile_qr_scan"}, "bike_id": "af25e99962274e49b38af93bb3eed38a", "lon": -76.932169}, {"is_reserved": 0, "fusion_lon": 0.0, "fusion_lat": 0.0, "name": "a0e3c15d1c34a7ca9fb430b41a5dfd38", "type": "electric_scooter", "is_disabled": 0, "lat": 38.906498, "rental_uris": {"android": "https://dc.lft.to/lastmile_qr_scan", "ios": "https://dc.lft.to/lastmile_qr_scan"}, "bike_id": "a0e3c15d1c34a7ca9fb430b41a5dfd38", "lon": -77.02701783333333}, {"is_reserved": 0, "fusion_lon": 0.0, "fusion_lat": 0.0, "name": "e85a293b6f740397a276c11c78bbb999", "type": "electric_scooter", "is_disabled": 0, "lat": 38.90131683333333, "rental_uris": {"android": "https://dc.lft.to/lastmile_qr_scan", "ios": "https://dc.lft.to/lastmile_qr_scan"}, "bike_id": "e85a293b6f740397a276c11c78bbb999", "lon": -77.043523}, {"is_reserved": 0, "fusion_lon": 0.0, "fusion_lat": 0.0, "name": "548f8ab5c7321e76c30a652a215c86c6", "type": "electric_scooter", "is_disabled": 0, "lat": 38.89222216666667, "rental_uris": {"android": "https://dc.lft.to/lastmile_qr_scan", "ios": "https://dc.lft.to/lastmile_qr_scan"}, "bike_id": "548f8ab5c7321e76c30a652a215c86c6", "lon": -77.02228766666667}, {"is_reserved": 0, "fusion_lon": 0.0, "fusion_lat": 0.0, "name": "47f0f8abc349c610e56ff135c5965ef4", "type": "electric_scooter", "is_disabled": 0, "lat": 38.903597833333336, "rental_uris": {"android": "https://dc.lft.to/lastmile_qr_scan", "ios": "https://dc.lft.to/lastmile_qr_scan"}, "bike_id": "47f0f8abc349c610e56ff135c5965ef4", "lon": -77.04551533333333}, {"is_reserved": 0, "fusion_lon": 0.0, "fusion_lat": 0.0, "name": "e90054500a3321fb42a6945bca8602f1", "type": "electric_scooter", "is_disabled": 0, "lat": 38.908594, "rental_uris": {"android": "https://dc.lft.to/lastmile_qr_scan", "ios": "https://dc.lft.to/lastmile_qr_scan"}, "bike_id": "e90054500a3321fb42a6945bca8602f1", "lon": -77.070925}, {"is_reserved": 0, "fusion_lon": 0.0, "fusion_lat": 0.0, "name": "9c13a221c0660da790a94b79c578fdc2", "type": "electric_scooter", "is_disabled": 0, "lat": 38.91108333333333, "rental_uris": {"android": "https://dc.lft.to/lastmile_qr_scan", "ios": "https://dc.lft.to/lastmile_qr_scan"}, "bike_id": "9c13a221c0660da790a94b79c578fdc2", "lon": -77.043231}, {"is_reserved": 0, "fusion_lon": 0.0, "fusion_lat": 0.0, "name": "d643865c26000af99ec05b30f9ef89be", "type": "electric_scooter", "is_disabled": 0, "lat": 38.9086905, "rental_uris": {"android": "https://dc.lft.to/lastmile_qr_scan", "ios": "https://dc.lft.to/lastmile_qr_scan"}, "bike_id": "d643865c26000af99ec05b30f9ef89be", "lon": -77.0426605}, {"is_reserved": 0, "fusion_lon": 0.0, "fusion_lat": 0.0, "name": "c35e42578a0666e2b5bde7157aed5eb0", "type": "electric_scooter", "is_disabled": 0, "lat": 38.89752883333333, "rental_uris": {"android": "https://dc.lft.to/lastmile_qr_scan", "ios": "https://dc.lft.to/lastmile_qr_scan"}, "bike_id": "c35e42578a0666e2b5bde7157aed5eb0", "lon": -77.02707066666666}, {"is_reserved": 0, "fusion_lon": 0.0, "fusion_lat": 0.0, "name": "29eba8f21698152f64d4dece0c3408dd", "type": "electric_scooter", "is_disabled": 0, "lat": 38.879929, "rental_uris": {"android": "https://dc.lft.to/lastmile_qr_scan", "ios": "https://dc.lft.to/lastmile_qr_scan"}, "bike_id": "29eba8f21698152f64d4dece0c3408dd", "lon": -77.02405466666667}, {"is_reserved": 0, "fusion_lon": 0.0, "fusion_lat": 0.0, "name": "65cb5d45bc233134cbec050c4471a5e7", "type": "electric_scooter", "is_disabled": 0, "lat": 38.93000033333333, "rental_uris": {"android": "https://dc.lft.to/lastmile_qr_scan", "ios": "https://dc.lft.to/lastmile_qr_scan"}, "bike_id": "65cb5d45bc233134cbec050c4471a5e7", "lon": -77.0130255}, {"is_reserved": 0, "fusion_lon": 0.0, "fusion_lat": 0.0, "name": "a2642b41eac13bb3696ccbc812934220", "type": "electric_scooter", "is_disabled": 0, "lat": 38.908816333333334, "rental_uris": {"android": "https://dc.lft.to/lastmile_qr_scan", "ios": "https://dc.lft.to/lastmile_qr_scan"}, "bike_id": "a2642b41eac13bb3696ccbc812934220", "lon": -77.03750266666667}, {"is_reserved": 0, "fusion_lon": 0.0, "fusion_lat": 0.0, "name": "c6e5bf949694598e7388b743ea511d75", "type": "electric_scooter", "is_disabled": 0, "lat": 38.90376216666667, "rental_uris": {"android": "https://dc.lft.to/lastmile_qr_scan", "ios": "https://dc.lft.to/lastmile_qr_scan"}, "bike_id": "c6e5bf949694598e7388b743ea511d75", "lon": -77.040092}, {"is_reserved": 0, "fusion_lon": 0.0, "fusion_lat": 0.0, "name": "06c05fc0b13eb327b49fe63225663d3b", "type": "electric_scooter", "is_disabled": 0, "lat": 38.9012885, "rental_uris": {"android": "https://dc.lft.to/lastmile_qr_scan", "ios": "https://dc.lft.to/lastmile_qr_scan"}, "bike_id": "06c05fc0b13eb327b49fe63225663d3b", "lon": -77.039594}, {"is_reserved": 0, "fusion_lon": 0.0, "fusion_lat": 0.0, "name": "8818fefa8e54fcdcc71c2325106b1f03", "type": "electric_scooter", "is_disabled": 0, "lat": 38.86656083333333, "rental_uris": {"android": "https://dc.lft.to/lastmile_qr_scan", "ios": "https://dc.lft.to/lastmile_qr_scan"}, "bike_id": "8818fefa8e54fcdcc71c2325106b1f03", "lon": -76.9851625}, {"is_reserved": 0, "fusion_lon": 0.0, "fusion_lat": 0.0, "name": "cb172d502093c87cd1a7a00426c2de1d", "type": "electric_scooter", "is_disabled": 0, "lat": 38.895241, "rental_uris": {"android": "https://dc.lft.to/lastmile_qr_scan", "ios": "https://dc.lft.to/lastmile_qr_scan"}, "bike_id": "cb172d502093c87cd1a7a00426c2de1d", "lon": -77.003368}, {"is_reserved": 0, "fusion_lon": 0.0, "fusion_lat": 0.0, "name": "90d0b4d020db480051a7dc7c7c3d968b", "type": "electric_scooter", "is_disabled": 0, "lat": 38.899157, "rental_uris": {"android": "https://dc.lft.to/lastmile_qr_scan", "ios": "https://dc.lft.to/lastmile_qr_scan"}, "bike_id": "90d0b4d020db480051a7dc7c7c3d968b", "lon": -77.040734}, {"is_reserved": 0, "fusion_lon": 0.0, "fusion_lat": 0.0, "name": "e5fda510921b23352bce41a322af92b3", "type": "electric_scooter", "is_disabled": 0, "lat": 38.92105333333333, "rental_uris": {"android": "https://dc.lft.to/lastmile_qr_scan", "ios": "https://dc.lft.to/lastmile_qr_scan"}, "bike_id": "e5fda510921b23352bce41a322af92b3", "lon": -77.03334366666667}, {"is_reserved": 0, "fusion_lon": 0.0, "fusion_lat": 0.0, "name": "99f658843eba800f0abd7b5c95183e63", "type": "electric_scooter", "is_disabled": 0, "lat": 38.89225533333333, "rental_uris": {"android": "https://dc.lft.to/lastmile_qr_scan", "ios": "https://dc.lft.to/lastmile_qr_scan"}, "bike_id": "99f658843eba800f0abd7b5c95183e63", "lon": -77.0437355}, {"is_reserved": 0, "fusion_lon": 0.0, "fusion_lat": 0.0, "name": "076941bfb8808c6fef3e348acfbfc958", "type": "electric_scooter", "is_disabled": 0, "lat": 38.923328833333336, "rental_uris": {"android": "https://dc.lft.to/lastmile_qr_scan", "ios": "https://dc.lft.to/lastmile_qr_scan"}, "bike_id": "076941bfb8808c6fef3e348acfbfc958", "lon": -77.04319216666667}, {"is_reserved": 0, "fusion_lon": 0.0, "fusion_lat": 0.0, "name": "e5efb9a3d544f62e0c5172dceed72675", "type": "electric_scooter", "is_disabled": 0, "lat": 38.907748166666664, "rental_uris": {"android": "https://dc.lft.to/lastmile_qr_scan", "ios": "https://dc.lft.to/lastmile_qr_scan"}, "bike_id": "e5efb9a3d544f62e0c5172dceed72675", "lon": -77.03828633333333}, {"is_reserved": 0, "fusion_lon": 0.0, "fusion_lat": 0.0, "name": "1dc7d047d33adecdb15012bb3ca0d661", "type": "electric_scooter", "is_disabled": 0, "lat": 38.86656166666667, "rental_uris": {"android": "https://dc.lft.to/lastmile_qr_scan", "ios": "https://dc.lft.to/lastmile_qr_scan"}, "bike_id": "1dc7d047d33adecdb15012bb3ca0d661", "lon": -76.9888495}, {"is_reserved": 0, "fusion_lon": 0.0, "fusion_lat": 0.0, "name": "1ced1a5996600227c30ab0947b7ebaa8", "type": "electric_scooter", "is_disabled": 0, "lat": 38.91664083333333, "rental_uris": {"android": "https://dc.lft.to/lastmile_qr_scan", "ios": "https://dc.lft.to/lastmile_qr_scan"}, "bike_id": "1ced1a5996600227c30ab0947b7ebaa8", "lon": -77.01918616666667}, {"is_reserved": 0, "fusion_lon": 0.0, "fusion_lat": 0.0, "name": "3b923962a1d1f6820d47f2ce2b979c89", "type": "electric_scooter", "is_disabled": 0, "lat": 38.87458266666667, "rental_uris": {"android": "https://dc.lft.to/lastmile_qr_scan", "ios": "https://dc.lft.to/lastmile_qr_scan"}, "bike_id": "3b923962a1d1f6820d47f2ce2b979c89", "lon": -77.00543816666666}, {"is_reserved": 0, "fusion_lon": 0.0, "fusion_lat": 0.0, "name": "3db5c3ab3f74d8040326fed008ad5611", "type": "electric_scooter", "is_disabled": 0, "lat": 38.91784883333333, "rental_uris": {"android": "https://dc.lft.to/lastmile_qr_scan", "ios": "https://dc.lft.to/lastmile_qr_scan"}, "bike_id": "3db5c3ab3f74d8040326fed008ad5611", "lon": -77.03218783333334}, {"is_reserved": 0, "fusion_lon": 0.0, "fusion_lat": 0.0, "name": "b4c35a87c23a25d01badf48c6303c08c", "type": "electric_scooter", "is_disabled": 0, "lat": 38.920718666666666, "rental_uris": {"android": "https://dc.lft.to/lastmile_qr_scan", "ios": "https://dc.lft.to/lastmile_qr_scan"}, "bike_id": "b4c35a87c23a25d01badf48c6303c08c", "lon": -77.014473}, {"is_reserved": 0, "fusion_lon": 0.0, "fusion_lat": 0.0, "name": "8a6408315f3e5f8f6151b08fd70534ef", "type": "electric_scooter", "is_disabled": 0, "lat": 38.9323725, "rental_uris": {"android": "https://dc.lft.to/lastmile_qr_scan", "ios": "https://dc.lft.to/lastmile_qr_scan"}, "bike_id": "8a6408315f3e5f8f6151b08fd70534ef", "lon": -77.034163}, {"is_reserved": 0, "fusion_lon": 0.0, "fusion_lat": 0.0, "name": "a2b1a9e7e80edb4d82114a12c674ba0f", "type": "electric_scooter", "is_disabled": 0, "lat": 38.89792966666667, "rental_uris": {"android": "https://dc.lft.to/lastmile_qr_scan", "ios": "https://dc.lft.to/lastmile_qr_scan"}, "bike_id": "a2b1a9e7e80edb4d82114a12c674ba0f", "lon": -77.0449395}, {"is_reserved": 0, "fusion_lon": 0.0, "fusion_lat": 0.0, "name": "bf5a46da417d7a77f40d13f547f159ed", "type": "electric_scooter", "is_disabled": 0, "lat": 38.9562485, "rental_uris": {"android": "https://dc.lft.to/lastmile_qr_scan", "ios": "https://dc.lft.to/lastmile_qr_scan"}, "bike_id": "bf5a46da417d7a77f40d13f547f159ed", "lon": -77.02459316666666}, {"is_reserved": 0, "fusion_lon": 0.0, "fusion_lat": 0.0, "name": "2aba74aec5b9d748cf96a5e5b665da1f", "type": "electric_scooter", "is_disabled": 0, "lat": 38.91400766666667, "rental_uris": {"android": "https://dc.lft.to/lastmile_qr_scan", "ios": "https://dc.lft.to/lastmile_qr_scan"}, "bike_id": "2aba74aec5b9d748cf96a5e5b665da1f", "lon": -77.0218675}, {"is_reserved": 0, "fusion_lon": 0.0, "fusion_lat": 0.0, "name": "1f815abe148f2bacc4018343b8b54c91", "type": "electric_bike", "is_disabled": 0, "lat": 38.94668266666667, "rental_uris": {"android": "https://dc.lft.to/lastmile_qr_scan", "ios": "https://dc.lft.to/lastmile_qr_scan"}, "bike_id": "1f815abe148f2bacc4018343b8b54c91", "lon": -76.983047}, {"is_reserved": 0, "fusion_lon": 0.0, "fusion_lat": 0.0, "name": "51a759dc859838ce8361f23a22fd527f", "type": "electric_scooter", "is_disabled": 0, "lat": 38.9173435, "rental_uris": {"android": "https://dc.lft.to/lastmile_qr_scan", "ios": "https://dc.lft.to/lastmile_qr_scan"}, "bike_id": "51a759dc859838ce8361f23a22fd527f", "lon": -77.0364455}, {"is_reserved": 0, "fusion_lon": 0.0, "fusion_lat": 0.0, "name": "c952d885efc37dc1a03016dfe513c5eb", "type": "electric_scooter", "is_disabled": 0, "lat": 38.90974416666667, "rental_uris": {"android": "https://dc.lft.to/lastmile_qr_scan", "ios": "https://dc.lft.to/lastmile_qr_scan"}, "bike_id": "c952d885efc37dc1a03016dfe513c5eb", "lon": -77.0341815}, {"is_reserved": 0, "fusion_lon": 0.0, "fusion_lat": 0.0, "name": "973f08f5a5688d9a627dde2578471cc1", "type": "electric_bike", "is_disabled": 0, "lat": 38.852089, "rental_uris": {"android": "https://dc.lft.to/lastmile_qr_scan", "ios": "https://dc.lft.to/lastmile_qr_scan"}, "bike_id": "973f08f5a5688d9a627dde2578471cc1", "lon": -77.10128633333333}, {"is_reserved": 0, "fusion_lon": 0.0, "fusion_lat": 0.0, "name": "bef07373a3d3908d95da2c7d88ea786b", "type": "electric_scooter", "is_disabled": 0, "lat": 38.89918216666667, "rental_uris": {"android": "https://dc.lft.to/lastmile_qr_scan", "ios": "https://dc.lft.to/lastmile_qr_scan"}, "bike_id": "bef07373a3d3908d95da2c7d88ea786b", "lon": -76.933594}, {"is_reserved": 0, "fusion_lon": 0.0, "fusion_lat": 0.0, "name": "1950209a6888e4a6a9b79c8bf00ba3a3", "type": "electric_scooter", "is_disabled": 0, "lat": 38.907179, "rental_uris": {"android": "https://dc.lft.to/lastmile_qr_scan", "ios": "https://dc.lft.to/lastmile_qr_scan"}, "bike_id": "1950209a6888e4a6a9b79c8bf00ba3a3", "lon": -77.0497095}, {"is_reserved": 0, "fusion_lon": 0.0, "fusion_lat": 0.0, "name": "68816f4fe2009119845aefc0ac0da25e", "type": "electric_scooter", "is_disabled": 0, "lat": 38.91983483333333, "rental_uris": {"android": "https://dc.lft.to/lastmile_qr_scan", "ios": "https://dc.lft.to/lastmile_qr_scan"}, "bike_id": "68816f4fe2009119845aefc0ac0da25e", "lon": -77.0218275}, {"is_reserved": 0, "fusion_lon": 0.0, "fusion_lat": 0.0, "name": "42e4c33f16ba218e8048969e5d9b5407", "type": "electric_scooter", "is_disabled": 0, "lat": 38.93765, "rental_uris": {"android": "https://dc.lft.to/lastmile_qr_scan", "ios": "https://dc.lft.to/lastmile_qr_scan"}, "bike_id": "42e4c33f16ba218e8048969e5d9b5407", "lon": -77.019692}, {"is_reserved": 0, "fusion_lon": 0.0, "fusion_lat": 0.0, "name": "fd7dada554233172bb9ae2a1f376a42e", "type": "electric_scooter", "is_disabled": 0, "lat": 38.91487883333333, "rental_uris": {"android": "https://dc.lft.to/lastmile_qr_scan", "ios": "https://dc.lft.to/lastmile_qr_scan"}, "bike_id": "fd7dada554233172bb9ae2a1f376a42e", "lon": -77.02177383333333}, {"is_reserved": 0, "fusion_lon": 0.0, "fusion_lat": 0.0, "name": "95ef5b436e964ede051707ea5acdabd5", "type": "electric_bike", "is_disabled": 0, "lat": 38.854405, "rental_uris": {"android": "https://dc.lft.to/lastmile_qr_scan", "ios": "https://dc.lft.to/lastmile_qr_scan"}, "bike_id": "95ef5b436e964ede051707ea5acdabd5", "lon": -77.08326183333334}, {"is_reserved": 0, "fusion_lon": 0.0, "fusion_lat": 0.0, "name": "7645652c1ef0fce78773b1630c8f6cbd", "type": "electric_scooter", "is_disabled": 0, "lat": 38.90147533333333, "rental_uris": {"android": "https://dc.lft.to/lastmile_qr_scan", "ios": "https://dc.lft.to/lastmile_qr_scan"}, "bike_id": "7645652c1ef0fce78773b1630c8f6cbd", "lon": -77.01905116666667}, {"is_reserved": 0, "fusion_lon": 0.0, "fusion_lat": 0.0, "name": "9f3f40bd1300b1aa98c3d37d52956c42", "type": "electric_scooter", "is_disabled": 0, "lat": 38.917105666666664, "rental_uris": {"android": "https://dc.lft.to/lastmile_qr_scan", "ios": "https://dc.lft.to/lastmile_qr_scan"}, "bike_id": "9f3f40bd1300b1aa98c3d37d52956c42", "lon": -77.030957}, {"is_reserved": 0, "fusion_lon": 0.0, "fusion_lat": 0.0, "name": "e607cd8aacf09d96fbb15918af2eb5b1", "type": "electric_scooter", "is_disabled": 0, "lat": 38.88295733333333, "rental_uris": {"android": "https://dc.lft.to/lastmile_qr_scan", "ios": "https://dc.lft.to/lastmile_qr_scan"}, "bike_id": "e607cd8aacf09d96fbb15918af2eb5b1", "lon": -76.99352866666666}, {"is_reserved": 0, "fusion_lon": 0.0, "fusion_lat": 0.0, "name": "e28e0ace1b3687857487792a218dd654", "type": "electric_scooter", "is_disabled": 0, "lat": 38.930627333333334, "rental_uris": {"android": "https://dc.lft.to/lastmile_qr_scan", "ios": "https://dc.lft.to/lastmile_qr_scan"}, "bike_id": "e28e0ace1b3687857487792a218dd654", "lon": -77.03939766666667}, {"is_reserved": 0, "fusion_lon": 0.0, "fusion_lat": 0.0, "name": "1c05dda5e9ba2f66a48fc610a0726f3a", "type": "electric_scooter", "is_disabled": 0, "lat": 38.88741533333334, "rental_uris": {"android": "https://dc.lft.to/lastmile_qr_scan", "ios": "https://dc.lft.to/lastmile_qr_scan"}, "bike_id": "1c05dda5e9ba2f66a48fc610a0726f3a", "lon": -77.0237825}, {"is_reserved": 0, "fusion_lon": 0.0, "fusion_lat": 0.0, "name": "4fa6d518d6778966eb76015679c88436", "type": "electric_scooter", "is_disabled": 0, "lat": 38.906014, "rental_uris": {"android": "https://dc.lft.to/lastmile_qr_scan", "ios": "https://dc.lft.to/lastmile_qr_scan"}, "bike_id": "4fa6d518d6778966eb76015679c88436", "lon": -77.0397895}, {"is_reserved": 0, "fusion_lon": 0.0, "fusion_lat": 0.0, "name": "a149be3813de4d7175f58000a75ed38d", "type": "electric_scooter", "is_disabled": 0, "lat": 38.86638766666667, "rental_uris": {"android": "https://dc.lft.to/lastmile_qr_scan", "ios": "https://dc.lft.to/lastmile_qr_scan"}, "bike_id": "a149be3813de4d7175f58000a75ed38d", "lon": -76.982652}, {"is_reserved": 0, "fusion_lon": 0.0, "fusion_lat": 0.0, "name": "1027b79f503342e1c9cfadf477cb99bd", "type": "electric_scooter", "is_disabled": 0, "lat": 38.90980583333333, "rental_uris": {"android": "https://dc.lft.to/lastmile_qr_scan", "ios": "https://dc.lft.to/lastmile_qr_scan"}, "bike_id": "1027b79f503342e1c9cfadf477cb99bd", "lon": -77.03186266666667}, {"is_reserved": 0, "fusion_lon": 0.0, "fusion_lat": 0.0, "name": "41498f2cd8e20ed3a42e303ac3ea3f8b", "type": "electric_scooter", "is_disabled": 0, "lat": 38.8754625, "rental_uris": {"android": "https://dc.lft.to/lastmile_qr_scan", "ios": "https://dc.lft.to/lastmile_qr_scan"}, "bike_id": "41498f2cd8e20ed3a42e303ac3ea3f8b", "lon": -77.00537066666666}, {"is_reserved": 0, "fusion_lon": 0.0, "fusion_lat": 0.0, "name": "df11df8ee3a0b62efa739c9936460d26", "type": "electric_scooter", "is_disabled": 0, "lat": 38.884873166666665, "rental_uris": {"android": "https://dc.lft.to/lastmile_qr_scan", "ios": "https://dc.lft.to/lastmile_qr_scan"}, "bike_id": "df11df8ee3a0b62efa739c9936460d26", "lon": -77.01995666666667}, {"is_reserved": 0, "fusion_lon": 0.0, "fusion_lat": 0.0, "name": "c83860a4a24675fbd3f40bde296a3f8f", "type": "electric_scooter", "is_disabled": 0, "lat": 38.8999085, "rental_uris": {"android": "https://dc.lft.to/lastmile_qr_scan", "ios": "https://dc.lft.to/lastmile_qr_scan"}, "bike_id": "c83860a4a24675fbd3f40bde296a3f8f", "lon": -77.04117616666667}, {"is_reserved": 0, "fusion_lon": 0.0, "fusion_lat": 0.0, "name": "74991a083162b7d4aff63c9d2ad4c898", "type": "electric_scooter", "is_disabled": 0, "lat": 38.904266, "rental_uris": {"android": "https://dc.lft.to/lastmile_qr_scan", "ios": "https://dc.lft.to/lastmile_qr_scan"}, "bike_id": "74991a083162b7d4aff63c9d2ad4c898", "lon": -77.04353116666667}, {"is_reserved": 0, "fusion_lon": 0.0, "fusion_lat": 0.0, "name": "b42615bf9b8e958900b888a908954597", "type": "electric_scooter", "is_disabled": 0, "lat": 38.92255383333333, "rental_uris": {"android": "https://dc.lft.to/lastmile_qr_scan", "ios": "https://dc.lft.to/lastmile_qr_scan"}, "bike_id": "b42615bf9b8e958900b888a908954597", "lon": -77.018484}, {"is_reserved": 0, "fusion_lon": 0.0, "fusion_lat": 0.0, "name": "1a95ac38b17ae2cb393365a0efe1552b", "type": "electric_scooter", "is_disabled": 0, "lat": 38.942048666666665, "rental_uris": {"android": "https://dc.lft.to/lastmile_qr_scan", "ios": "https://dc.lft.to/lastmile_qr_scan"}, "bike_id": "1a95ac38b17ae2cb393365a0efe1552b", "lon": -77.02516666666666}, {"is_reserved": 0, "fusion_lon": 0.0, "fusion_lat": 0.0, "name": "88b0a0c3aecb98b16737a10636ddc0de", "type": "electric_scooter", "is_disabled": 0, "lat": 38.9175495, "rental_uris": {"android": "https://dc.lft.to/lastmile_qr_scan", "ios": "https://dc.lft.to/lastmile_qr_scan"}, "bike_id": "88b0a0c3aecb98b16737a10636ddc0de", "lon": -77.0122935}, {"is_reserved": 0, "fusion_lon": 0.0, "fusion_lat": 0.0, "name": "ab2fdd83fe3ce02296490f793df9c29e", "type": "electric_scooter", "is_disabled": 0, "lat": 38.9118135, "rental_uris": {"android": "https://dc.lft.to/lastmile_qr_scan", "ios": "https://dc.lft.to/lastmile_qr_scan"}, "bike_id": "ab2fdd83fe3ce02296490f793df9c29e", "lon": -77.04352}, {"is_reserved": 0, "fusion_lon": 0.0, "fusion_lat": 0.0, "name": "c0fd923a628b1834bd1ffe7e4a2f8df8", "type": "electric_scooter", "is_disabled": 0, "lat": 38.892401, "rental_uris": {"android": "https://dc.lft.to/lastmile_qr_scan", "ios": "https://dc.lft.to/lastmile_qr_scan"}, "bike_id": "c0fd923a628b1834bd1ffe7e4a2f8df8", "lon": -77.03184}, {"is_reserved": 0, "fusion_lon": 0.0, "fusion_lat": 0.0, "name": "03f1eeb3866a4a05eadf2a1d1f8f8d4d", "type": "electric_scooter", "is_disabled": 0, "lat": 38.89770633333333, "rental_uris": {"android": "https://dc.lft.to/lastmile_qr_scan", "ios": "https://dc.lft.to/lastmile_qr_scan"}, "bike_id": "03f1eeb3866a4a05eadf2a1d1f8f8d4d", "lon": -77.00910083333333}, {"is_reserved": 0, "fusion_lon": 0.0, "fusion_lat": 0.0, "name": "45c1dfae94785ed816912c912502a16f", "type": "electric_scooter", "is_disabled": 0, "lat": 38.92039966666667, "rental_uris": {"android": "https://dc.lft.to/lastmile_qr_scan", "ios": "https://dc.lft.to/lastmile_qr_scan"}, "bike_id": "45c1dfae94785ed816912c912502a16f", "lon": -77.0220125}, {"is_reserved": 0, "fusion_lon": 0.0, "fusion_lat": 0.0, "name": "38fe30a20a53a657bdb8b51caa820299", "type": "electric_scooter", "is_disabled": 0, "lat": 38.96782683333333, "rental_uris": {"android": "https://dc.lft.to/lastmile_qr_scan", "ios": "https://dc.lft.to/lastmile_qr_scan"}, "bike_id": "38fe30a20a53a657bdb8b51caa820299", "lon": -77.01514066666667}, {"is_reserved": 0, "fusion_lon": 0.0, "fusion_lat": 0.0, "name": "46ed2bae7e9b04fae4077c9abd2dbd58", "type": "electric_scooter", "is_disabled": 0, "lat": 38.89996216666667, "rental_uris": {"android": "https://dc.lft.to/lastmile_qr_scan", "ios": "https://dc.lft.to/lastmile_qr_scan"}, "bike_id": "46ed2bae7e9b04fae4077c9abd2dbd58", "lon": -76.99949833333334}, {"is_reserved": 0, "fusion_lon": 0.0, "fusion_lat": 0.0, "name": "8ec025d32c92ee56f9410f6e656108cc", "type": "electric_scooter", "is_disabled": 0, "lat": 38.895035166666666, "rental_uris": {"android": "https://dc.lft.to/lastmile_qr_scan", "ios": "https://dc.lft.to/lastmile_qr_scan"}, "bike_id": "8ec025d32c92ee56f9410f6e656108cc", "lon": -77.02743933333333}, {"is_reserved": 0, "fusion_lon": 0.0, "fusion_lat": 0.0, "name": "96824a0013252a7095d6217caca9cf48", "type": "electric_scooter", "is_disabled": 0, "lat": 38.892342, "rental_uris": {"android": "https://dc.lft.to/lastmile_qr_scan", "ios": "https://dc.lft.to/lastmile_qr_scan"}, "bike_id": "96824a0013252a7095d6217caca9cf48", "lon": -77.03209583333333}, {"is_reserved": 0, "fusion_lon": 0.0, "fusion_lat": 0.0, "name": "086f6a1a5de7c57780cf9db04b99aa32", "type": "electric_scooter", "is_disabled": 0, "lat": 38.918889666666665, "rental_uris": {"android": "https://dc.lft.to/lastmile_qr_scan", "ios": "https://dc.lft.to/lastmile_qr_scan"}, "bike_id": "086f6a1a5de7c57780cf9db04b99aa32", "lon": -77.0482775}, {"is_reserved": 0, "fusion_lon": 0.0, "fusion_lat": 0.0, "name": "9732bf3c2069c22ced7a1244174bf0ea", "type": "electric_scooter", "is_disabled": 0, "lat": 38.8988225, "rental_uris": {"android": "https://dc.lft.to/lastmile_qr_scan", "ios": "https://dc.lft.to/lastmile_qr_scan"}, "bike_id": "9732bf3c2069c22ced7a1244174bf0ea", "lon": -76.977238}, {"is_reserved": 0, "fusion_lon": 0.0, "fusion_lat": 0.0, "name": "e64741b2219db99124ea82c4366776ce", "type": "electric_scooter", "is_disabled": 0, "lat": 38.86668183333333, "rental_uris": {"android": "https://dc.lft.to/lastmile_qr_scan", "ios": "https://dc.lft.to/lastmile_qr_scan"}, "bike_id": "e64741b2219db99124ea82c4366776ce", "lon": -76.98506766666667}, {"is_reserved": 0, "fusion_lon": 0.0, "fusion_lat": 0.0, "name": "9fd3af99e03c80b86a736e77aec76b6a", "type": "electric_bike", "is_disabled": 0, "lat": 38.85765966666666, "rental_uris": {"android": "https://dc.lft.to/lastmile_qr_scan", "ios": "https://dc.lft.to/lastmile_qr_scan"}, "bike_id": "9fd3af99e03c80b86a736e77aec76b6a", "lon": -76.98765}, {"is_reserved": 0, "fusion_lon": 0.0, "fusion_lat": 0.0, "name": "c664db84c9e64f7fe71de2994a443c84", "type": "electric_scooter", "is_disabled": 0, "lat": 38.95532133333333, "rental_uris": {"android": "https://dc.lft.to/lastmile_qr_scan", "ios": "https://dc.lft.to/lastmile_qr_scan"}, "bike_id": "c664db84c9e64f7fe71de2994a443c84", "lon": -77.02781333333333}, {"is_reserved": 0, "fusion_lon": 0.0, "fusion_lat": 0.0, "name": "39f4145ded92182188a8a4457c867303", "type": "electric_scooter", "is_disabled": 0, "lat": 38.89220866666667, "rental_uris": {"android": "https://dc.lft.to/lastmile_qr_scan", "ios": "https://dc.lft.to/lastmile_qr_scan"}, "bike_id": "39f4145ded92182188a8a4457c867303", "lon": -77.0222865}, {"is_reserved": 0, "fusion_lon": 0.0, "fusion_lat": 0.0, "name": "b2495c7c2aedb65081f7ebf737067cc0", "type": "electric_scooter", "is_disabled": 0, "lat": 38.949864833333336, "rental_uris": {"android": "https://dc.lft.to/lastmile_qr_scan", "ios": "https://dc.lft.to/lastmile_qr_scan"}, "bike_id": "b2495c7c2aedb65081f7ebf737067cc0", "lon": -77.02707783333334}, {"is_reserved": 0, "fusion_lon": 0.0, "fusion_lat": 0.0, "name": "f24beae70baad87651f7a4f9d175f239", "type": "electric_scooter", "is_disabled": 0, "lat": 38.9210895, "rental_uris": {"android": "https://dc.lft.to/lastmile_qr_scan", "ios": "https://dc.lft.to/lastmile_qr_scan"}, "bike_id": "f24beae70baad87651f7a4f9d175f239", "lon": -77.04211433333333}, {"is_reserved": 0, "fusion_lon": 0.0, "fusion_lat": 0.0, "name": "e5618ac6ba6933a5320bce458e684b4e", "type": "electric_scooter", "is_disabled": 0, "lat": 38.971236166666664, "rental_uris": {"android": "https://dc.lft.to/lastmile_qr_scan", "ios": "https://dc.lft.to/lastmile_qr_scan"}, "bike_id": "e5618ac6ba6933a5320bce458e684b4e", "lon": -77.01683316666667}, {"is_reserved": 0, "fusion_lon": 0.0, "fusion_lat": 0.0, "name": "1f71b0523930c0faf04b6b77f9ce3003", "type": "electric_scooter", "is_disabled": 0, "lat": 38.93017916666667, "rental_uris": {"android": "https://dc.lft.to/lastmile_qr_scan", "ios": "https://dc.lft.to/lastmile_qr_scan"}, "bike_id": "1f71b0523930c0faf04b6b77f9ce3003", "lon": -77.0608915}, {"is_reserved": 0, "fusion_lon": 0.0, "fusion_lat": 0.0, "name": "7f434c6b66c258923c0ebef3f61467f0", "type": "electric_bike", "is_disabled": 0, "lat": 38.838111166666664, "rental_uris": {"android": "https://dc.lft.to/lastmile_qr_scan", "ios": "https://dc.lft.to/lastmile_qr_scan"}, "bike_id": "7f434c6b66c258923c0ebef3f61467f0", "lon": -77.09521716666667}, {"is_reserved": 0, "fusion_lon": 0.0, "fusion_lat": 0.0, "name": "de42992ba8e1c99b7b845f0e86c58397", "type": "electric_scooter", "is_disabled": 0, "lat": 38.950708, "rental_uris": {"android": "https://dc.lft.to/lastmile_qr_scan", "ios": "https://dc.lft.to/lastmile_qr_scan"}, "bike_id": "de42992ba8e1c99b7b845f0e86c58397", "lon": -77.06536133333333}, {"is_reserved": 0, "fusion_lon": 0.0, "fusion_lat": 0.0, "name": "6a2ea408daea359db694155b6034c2fe", "type": "electric_scooter", "is_disabled": 0, "lat": 38.92202066666667, "rental_uris": {"android": "https://dc.lft.to/lastmile_qr_scan", "ios": "https://dc.lft.to/lastmile_qr_scan"}, "bike_id": "6a2ea408daea359db694155b6034c2fe", "lon": -77.0295875}, {"is_reserved": 0, "fusion_lon": 0.0, "fusion_lat": 0.0, "name": "ed91f9e73a8abbc800e103277c3257f0", "type": "electric_scooter", "is_disabled": 0, "lat": 38.917311, "rental_uris": {"android": "https://dc.lft.to/lastmile_qr_scan", "ios": "https://dc.lft.to/lastmile_qr_scan"}, "bike_id": "ed91f9e73a8abbc800e103277c3257f0", "lon": -77.04079216666666}, {"is_reserved": 0, "fusion_lon": 0.0, "fusion_lat": 0.0, "name": "8094508699c7f179f14fa70c1ca02954", "type": "electric_scooter", "is_disabled": 0, "lat": 38.8506645, "rental_uris": {"android": "https://dc.lft.to/lastmile_qr_scan", "ios": "https://dc.lft.to/lastmile_qr_scan"}, "bike_id": "8094508699c7f179f14fa70c1ca02954", "lon": -76.97011233333333}, {"is_reserved": 0, "fusion_lon": 0.0, "fusion_lat": 0.0, "name": "7970ce474f23c228c02cc916fdefaa42", "type": "electric_scooter", "is_disabled": 0, "lat": 38.906426833333335, "rental_uris": {"android": "https://dc.lft.to/lastmile_qr_scan", "ios": "https://dc.lft.to/lastmile_qr_scan"}, "bike_id": "7970ce474f23c228c02cc916fdefaa42", "lon": -77.03462966666666}, {"is_reserved": 0, "fusion_lon": 0.0, "fusion_lat": 0.0, "name": "4c445155bbbbaa65c2b0319cad7d9c3e", "type": "electric_scooter", "is_disabled": 0, "lat": 38.899832333333336, "rental_uris": {"android": "https://dc.lft.to/lastmile_qr_scan", "ios": "https://dc.lft.to/lastmile_qr_scan"}, "bike_id": "4c445155bbbbaa65c2b0319cad7d9c3e", "lon": -77.00925966666667}, {"is_reserved": 0, "fusion_lon": 0.0, "fusion_lat": 0.0, "name": "cd782c4452e762905e01692d3819acf7", "type": "electric_scooter", "is_disabled": 0, "lat": 38.92246516666667, "rental_uris": {"android": "https://dc.lft.to/lastmile_qr_scan", "ios": "https://dc.lft.to/lastmile_qr_scan"}, "bike_id": "cd782c4452e762905e01692d3819acf7", "lon": -77.03067483333334}, {"is_reserved": 0, "fusion_lon": 0.0, "fusion_lat": 0.0, "name": "76bd434a06cc89272130673ff971e6d5", "type": "electric_scooter", "is_disabled": 0, "lat": 38.909229833333335, "rental_uris": {"android": "https://dc.lft.to/lastmile_qr_scan", "ios": "https://dc.lft.to/lastmile_qr_scan"}, "bike_id": "76bd434a06cc89272130673ff971e6d5", "lon": -77.07272283333333}, {"is_reserved": 0, "fusion_lon": 0.0, "fusion_lat": 0.0, "name": "bae861bc1474bac042eb2c1fa47c9ab4", "type": "electric_scooter", "is_disabled": 0, "lat": 38.91998666666667, "rental_uris": {"android": "https://dc.lft.to/lastmile_qr_scan", "ios": "https://dc.lft.to/lastmile_qr_scan"}, "bike_id": "bae861bc1474bac042eb2c1fa47c9ab4", "lon": -77.02139433333333}, {"is_reserved": 0, "fusion_lon": 0.0, "fusion_lat": 0.0, "name": "10600cc1b4aecefc5b2a8e98a1bbbbca", "type": "electric_scooter", "is_disabled": 0, "lat": 38.893037, "rental_uris": {"android": "https://dc.lft.to/lastmile_qr_scan", "ios": "https://dc.lft.to/lastmile_qr_scan"}, "bike_id": "10600cc1b4aecefc5b2a8e98a1bbbbca", "lon": -76.93983916666667}, {"is_reserved": 0, "fusion_lon": 0.0, "fusion_lat": 0.0, "name": "cc938b26869d0cfd4d49daa5ec9dde5c", "type": "electric_scooter", "is_disabled": 0, "lat": 38.928523, "rental_uris": {"android": "https://dc.lft.to/lastmile_qr_scan", "ios": "https://dc.lft.to/lastmile_qr_scan"}, "bike_id": "cc938b26869d0cfd4d49daa5ec9dde5c", "lon": -77.02733216666667}, {"is_reserved": 0, "fusion_lon": 0.0, "fusion_lat": 0.0, "name": "57be4546050543e2b5fe0b4749668f9a", "type": "electric_scooter", "is_disabled": 0, "lat": 38.90138233333333, "rental_uris": {"android": "https://dc.lft.to/lastmile_qr_scan", "ios": "https://dc.lft.to/lastmile_qr_scan"}, "bike_id": "57be4546050543e2b5fe0b4749668f9a", "lon": -77.0131745}, {"is_reserved": 0, "fusion_lon": 0.0, "fusion_lat": 0.0, "name": "e8792c1b0d56441b49a88f79a9fc22a4", "type": "electric_scooter", "is_disabled": 0, "lat": 38.926505666666664, "rental_uris": {"android": "https://dc.lft.to/lastmile_qr_scan", "ios": "https://dc.lft.to/lastmile_qr_scan"}, "bike_id": "e8792c1b0d56441b49a88f79a9fc22a4", "lon": -77.03733333333334}, {"is_reserved": 0, "fusion_lon": 0.0, "fusion_lat": 0.0, "name": "0028f7a95ea86293e30ea0f8603728cb", "type": "electric_scooter", "is_disabled": 0, "lat": 38.89794116666667, "rental_uris": {"android": "https://dc.lft.to/lastmile_qr_scan", "ios": "https://dc.lft.to/lastmile_qr_scan"}, "bike_id": "0028f7a95ea86293e30ea0f8603728cb", "lon": -77.02796033333334}, {"is_reserved": 0, "fusion_lon": 0.0, "fusion_lat": 0.0, "name": "fd09695e4fd6b55adad1651c865c4646", "type": "electric_scooter", "is_disabled": 0, "lat": 38.92869966666667, "rental_uris": {"android": "https://dc.lft.to/lastmile_qr_scan", "ios": "https://dc.lft.to/lastmile_qr_scan"}, "bike_id": "fd09695e4fd6b55adad1651c865c4646", "lon": -77.03311216666667}, {"is_reserved": 0, "fusion_lon": 0.0, "fusion_lat": 0.0, "name": "4aacc4b36ee43df1e0b6d7d86b3163fd", "type": "electric_scooter", "is_disabled": 0, "lat": 38.884414, "rental_uris": {"android": "https://dc.lft.to/lastmile_qr_scan", "ios": "https://dc.lft.to/lastmile_qr_scan"}, "bike_id": "4aacc4b36ee43df1e0b6d7d86b3163fd", "lon": -77.029607}, {"is_reserved": 0, "fusion_lon": 0.0, "fusion_lat": 0.0, "name": "5c395af0d7b0605edd66afe48378a13d", "type": "electric_bike", "is_disabled": 0, "lat": 38.98364866666667, "rental_uris": {"android": "https://dc.lft.to/lastmile_qr_scan", "ios": "https://dc.lft.to/lastmile_qr_scan"}, "bike_id": "5c395af0d7b0605edd66afe48378a13d", "lon": -76.9721435}, {"is_reserved": 0, "fusion_lon": 0.0, "fusion_lat": 0.0, "name": "c2cdac13d33c5c3c919675d1dea7e70c", "type": "electric_scooter", "is_disabled": 0, "lat": 38.922077333333334, "rental_uris": {"android": "https://dc.lft.to/lastmile_qr_scan", "ios": "https://dc.lft.to/lastmile_qr_scan"}, "bike_id": "c2cdac13d33c5c3c919675d1dea7e70c", "lon": -77.02028766666666}, {"is_reserved": 0, "fusion_lon": 0.0, "fusion_lat": 0.0, "name": "3e2864294853d58129c6b95ff9ae5b65", "type": "electric_scooter", "is_disabled": 0, "lat": 38.925764666666666, "rental_uris": {"android": "https://dc.lft.to/lastmile_qr_scan", "ios": "https://dc.lft.to/lastmile_qr_scan"}, "bike_id": "3e2864294853d58129c6b95ff9ae5b65", "lon": -77.03920766666667}, {"is_reserved": 0, "fusion_lon": 0.0, "fusion_lat": 0.0, "name": "be253df8615c5aafc4473277c5d81384", "type": "electric_scooter", "is_disabled": 0, "lat": 38.88528266666667, "rental_uris": {"android": "https://dc.lft.to/lastmile_qr_scan", "ios": "https://dc.lft.to/lastmile_qr_scan"}, "bike_id": "be253df8615c5aafc4473277c5d81384", "lon": -76.99822216666666}, {"is_reserved": 0, "fusion_lon": 0.0, "fusion_lat": 0.0, "name": "2bf22b82868eb9ac2f958b44aba0f7a0", "type": "electric_scooter", "is_disabled": 0, "lat": 38.903946, "rental_uris": {"android": "https://dc.lft.to/lastmile_qr_scan", "ios": "https://dc.lft.to/lastmile_qr_scan"}, "bike_id": "2bf22b82868eb9ac2f958b44aba0f7a0", "lon": -77.03841233333333}, {"is_reserved": 0, "fusion_lon": 0.0, "fusion_lat": 0.0, "name": "bbac8bb5923877fb83bf2ff76d6ec4e0", "type": "electric_bike", "is_disabled": 0, "lat": 38.922131, "rental_uris": {"android": "https://dc.lft.to/lastmile_qr_scan", "ios": "https://dc.lft.to/lastmile_qr_scan"}, "bike_id": "bbac8bb5923877fb83bf2ff76d6ec4e0", "lon": -76.98796516666667}, {"is_reserved": 0, "fusion_lon": 0.0, "fusion_lat": 0.0, "name": "1b8c984da10d0c5f3db4f1897e66ef1f", "type": "electric_scooter", "is_disabled": 0, "lat": 38.95745683333333, "rental_uris": {"android": "https://dc.lft.to/lastmile_qr_scan", "ios": "https://dc.lft.to/lastmile_qr_scan"}, "bike_id": "1b8c984da10d0c5f3db4f1897e66ef1f", "lon": -77.02064633333333}, {"is_reserved": 0, "fusion_lon": 0.0, "fusion_lat": 0.0, "name": "a2b90603c7fc468c27e1d4299c098425", "type": "electric_scooter", "is_disabled": 0, "lat": 38.879167833333334, "rental_uris": {"android": "https://dc.lft.to/lastmile_qr_scan", "ios": "https://dc.lft.to/lastmile_qr_scan"}, "bike_id": "a2b90603c7fc468c27e1d4299c098425", "lon": -76.99508533333334}, {"is_reserved": 0, "fusion_lon": 0.0, "fusion_lat": 0.0, "name": "72a4f483810a0076b762262f48adddef", "type": "electric_scooter", "is_disabled": 0, "lat": 38.874971, "rental_uris": {"android": "https://dc.lft.to/lastmile_qr_scan", "ios": "https://dc.lft.to/lastmile_qr_scan"}, "bike_id": "72a4f483810a0076b762262f48adddef", "lon": -77.00032216666666}, {"is_reserved": 0, "fusion_lon": 0.0, "fusion_lat": 0.0, "name": "781e044de6f6c69edad5c8c5be0b3f25", "type": "electric_scooter", "is_disabled": 0, "lat": 38.897188166666666, "rental_uris": {"android": "https://dc.lft.to/lastmile_qr_scan", "ios": "https://dc.lft.to/lastmile_qr_scan"}, "bike_id": "781e044de6f6c69edad5c8c5be0b3f25", "lon": -76.97343733333334}, {"is_reserved": 0, "fusion_lon": 0.0, "fusion_lat": 0.0, "name": "626e7d3e902500427aa0216c63e57821", "type": "electric_scooter", "is_disabled": 0, "lat": 38.90464166666667, "rental_uris": {"android": "https://dc.lft.to/lastmile_qr_scan", "ios": "https://dc.lft.to/lastmile_qr_scan"}, "bike_id": "626e7d3e902500427aa0216c63e57821", "lon": -77.047998}, {"is_reserved": 0, "fusion_lon": 0.0, "fusion_lat": 0.0, "name": "f0f562c210f7ca94d7214e86013b47d3", "type": "electric_bike", "is_disabled": 0, "lat": 38.9934565, "rental_uris": {"android": "https://dc.lft.to/lastmile_qr_scan", "ios": "https://dc.lft.to/lastmile_qr_scan"}, "bike_id": "f0f562c210f7ca94d7214e86013b47d3", "lon": -77.11579}, {"is_reserved": 0, "fusion_lon": 0.0, "fusion_lat": 0.0, "name": "a2ba87a7ee2147b1cc3b5be205ee3355", "type": "electric_scooter", "is_disabled": 0, "lat": 38.90276033333333, "rental_uris": {"android": "https://dc.lft.to/lastmile_qr_scan", "ios": "https://dc.lft.to/lastmile_qr_scan"}, "bike_id": "a2ba87a7ee2147b1cc3b5be205ee3355", "lon": -77.03372883333333}, {"is_reserved": 0, "fusion_lon": 0.0, "fusion_lat": 0.0, "name": "9236074afdca0b7fbe315503e50beef0", "type": "electric_scooter", "is_disabled": 0, "lat": 38.930162, "rental_uris": {"android": "https://dc.lft.to/lastmile_qr_scan", "ios": "https://dc.lft.to/lastmile_qr_scan"}, "bike_id": "9236074afdca0b7fbe315503e50beef0", "lon": -77.055281}, {"is_reserved": 0, "fusion_lon": 0.0, "fusion_lat": 0.0, "name": "48cec58fc20805ec492d80ab81f2df2f", "type": "electric_scooter", "is_disabled": 0, "lat": 38.92445883333333, "rental_uris": {"android": "https://dc.lft.to/lastmile_qr_scan", "ios": "https://dc.lft.to/lastmile_qr_scan"}, "bike_id": "48cec58fc20805ec492d80ab81f2df2f", "lon": -77.02165066666667}, {"is_reserved": 0, "fusion_lon": 0.0, "fusion_lat": 0.0, "name": "d81e91521a9a9444b1add5acc1f2541a", "type": "electric_scooter", "is_disabled": 0, "lat": 38.866537666666666, "rental_uris": {"android": "https://dc.lft.to/lastmile_qr_scan", "ios": "https://dc.lft.to/lastmile_qr_scan"}, "bike_id": "d81e91521a9a9444b1add5acc1f2541a", "lon": -76.98876833333334}, {"is_reserved": 0, "fusion_lon": 0.0, "fusion_lat": 0.0, "name": "7fe4aa0ecae3f8eba4796dfad7b3c1cb", "type": "electric_bike", "is_disabled": 0, "lat": 38.84559483333334, "rental_uris": {"android": "https://dc.lft.to/lastmile_qr_scan", "ios": "https://dc.lft.to/lastmile_qr_scan"}, "bike_id": "7fe4aa0ecae3f8eba4796dfad7b3c1cb", "lon": -77.0669405}, {"is_reserved": 0, "fusion_lon": 0.0, "fusion_lat": 0.0, "name": "898b66627d11a896a9efb370895b4c2d", "type": "electric_scooter", "is_disabled": 0, "lat": 38.938531, "rental_uris": {"android": "https://dc.lft.to/lastmile_qr_scan", "ios": "https://dc.lft.to/lastmile_qr_scan"}, "bike_id": "898b66627d11a896a9efb370895b4c2d", "lon": -77.02518283333333}, {"is_reserved": 0, "fusion_lon": 0.0, "fusion_lat": 0.0, "name": "77bb61afd22431ef102cb73c615af06a", "type": "electric_scooter", "is_disabled": 0, "lat": 38.94186466666667, "rental_uris": {"android": "https://dc.lft.to/lastmile_qr_scan", "ios": "https://dc.lft.to/lastmile_qr_scan"}, "bike_id": "77bb61afd22431ef102cb73c615af06a", "lon": -77.02493483333333}, {"is_reserved": 0, "fusion_lon": 0.0, "fusion_lat": 0.0, "name": "d61290cd36fca7bee3a66718c3bf89fa", "type": "electric_bike", "is_disabled": 0, "lat": 39.01476233333333, "rental_uris": {"android": "https://dc.lft.to/lastmile_qr_scan", "ios": "https://dc.lft.to/lastmile_qr_scan"}, "bike_id": "d61290cd36fca7bee3a66718c3bf89fa", "lon": -77.05497183333334}, {"is_reserved": 0, "fusion_lon": 0.0, "fusion_lat": 0.0, "name": "56ffd849b7b5493da0138dbd482dfd1c", "type": "electric_scooter", "is_disabled": 0, "lat": 38.90635783333333, "rental_uris": {"android": "https://dc.lft.to/lastmile_qr_scan", "ios": "https://dc.lft.to/lastmile_qr_scan"}, "bike_id": "56ffd849b7b5493da0138dbd482dfd1c", "lon": -77.0240025}, {"is_reserved": 0, "fusion_lon": 0.0, "fusion_lat": 0.0, "name": "7ac02b2e2afb32569f2447a2b01098a1", "type": "electric_scooter", "is_disabled": 0, "lat": 38.91563133333333, "rental_uris": {"android": "https://dc.lft.to/lastmile_qr_scan", "ios": "https://dc.lft.to/lastmile_qr_scan"}, "bike_id": "7ac02b2e2afb32569f2447a2b01098a1", "lon": -77.04100416666667}, {"is_reserved": 0, "fusion_lon": 0.0, "fusion_lat": 0.0, "name": "3aa7990b1bf18453527596680ec5360a", "type": "electric_scooter", "is_disabled": 0, "lat": 38.922516333333334, "rental_uris": {"android": "https://dc.lft.to/lastmile_qr_scan", "ios": "https://dc.lft.to/lastmile_qr_scan"}, "bike_id": "3aa7990b1bf18453527596680ec5360a", "lon": -77.01938783333334}, {"is_reserved": 0, "fusion_lon": 0.0, "fusion_lat": 0.0, "name": "0496d8934f39e7d6bfb11d34a430b2d4", "type": "electric_scooter", "is_disabled": 0, "lat": 38.9023935, "rental_uris": {"android": "https://dc.lft.to/lastmile_qr_scan", "ios": "https://dc.lft.to/lastmile_qr_scan"}, "bike_id": "0496d8934f39e7d6bfb11d34a430b2d4", "lon": -77.00202283333333}, {"is_reserved": 0, "fusion_lon": 0.0, "fusion_lat": 0.0, "name": "3496407ecdeba6cc305708aa8f976daf", "type": "electric_bike", "is_disabled": 0, "lat": 38.967422666666664, "rental_uris": {"android": "https://dc.lft.to/lastmile_qr_scan", "ios": "https://dc.lft.to/lastmile_qr_scan"}, "bike_id": "3496407ecdeba6cc305708aa8f976daf", "lon": -76.98193366666666}, {"is_reserved": 0, "fusion_lon": 0.0, "fusion_lat": 0.0, "name": "a6dee74c417164c010879d61196e2321", "type": "electric_scooter", "is_disabled": 0, "lat": 38.907094, "rental_uris": {"android": "https://dc.lft.to/lastmile_qr_scan", "ios": "https://dc.lft.to/lastmile_qr_scan"}, "bike_id": "a6dee74c417164c010879d61196e2321", "lon": -77.02378916666666}, {"is_reserved": 0, "fusion_lon": 0.0, "fusion_lat": 0.0, "name": "bc2a8fe6a41de44a6c4f655d3c1d70dd", "type": "electric_scooter", "is_disabled": 0, "lat": 38.903882, "rental_uris": {"android": "https://dc.lft.to/lastmile_qr_scan", "ios": "https://dc.lft.to/lastmile_qr_scan"}, "bike_id": "bc2a8fe6a41de44a6c4f655d3c1d70dd", "lon": -77.04299733333333}, {"is_reserved": 0, "fusion_lon": 0.0, "fusion_lat": 0.0, "name": "cc07864aa0db7fb5c90e66c1859295b8", "type": "electric_scooter", "is_disabled": 0, "lat": 38.91030033333333, "rental_uris": {"android": "https://dc.lft.to/lastmile_qr_scan", "ios": "https://dc.lft.to/lastmile_qr_scan"}, "bike_id": "cc07864aa0db7fb5c90e66c1859295b8", "lon": -77.0449735}, {"is_reserved": 0, "fusion_lon": 0.0, "fusion_lat": 0.0, "name": "07c2263801d6990f45c8dc92e1f98be9", "type": "electric_scooter", "is_disabled": 0, "lat": 38.9132945, "rental_uris": {"android": "https://dc.lft.to/lastmile_qr_scan", "ios": "https://dc.lft.to/lastmile_qr_scan"}, "bike_id": "07c2263801d6990f45c8dc92e1f98be9", "lon": -77.04582883333333}, {"is_reserved": 0, "fusion_lon": 0.0, "fusion_lat": 0.0, "name": "eed8fe36b706f57fa7deb4f9617e5d5d", "type": "electric_scooter", "is_disabled": 0, "lat": 38.902526, "rental_uris": {"android": "https://dc.lft.to/lastmile_qr_scan", "ios": "https://dc.lft.to/lastmile_qr_scan"}, "bike_id": "eed8fe36b706f57fa7deb4f9617e5d5d", "lon": -77.0396345}, {"is_reserved": 0, "fusion_lon": 0.0, "fusion_lat": 0.0, "name": "3664bae59a110d3a2b17675e790ec201", "type": "electric_scooter", "is_disabled": 0, "lat": 38.91264233333333, "rental_uris": {"android": "https://dc.lft.to/lastmile_qr_scan", "ios": "https://dc.lft.to/lastmile_qr_scan"}, "bike_id": "3664bae59a110d3a2b17675e790ec201", "lon": -77.0286745}, {"is_reserved": 0, "fusion_lon": 0.0, "fusion_lat": 0.0, "name": "fd5cc78e4eed7ea091053e0176a263f9", "type": "electric_scooter", "is_disabled": 0, "lat": 38.909518, "rental_uris": {"android": "https://dc.lft.to/lastmile_qr_scan", "ios": "https://dc.lft.to/lastmile_qr_scan"}, "bike_id": "fd5cc78e4eed7ea091053e0176a263f9", "lon": -77.03205333333334}, {"is_reserved": 0, "fusion_lon": 0.0, "fusion_lat": 0.0, "name": "a645ef69210e99fa2c1c78a19d88eddf", "type": "electric_scooter", "is_disabled": 0, "lat": 38.93180383333333, "rental_uris": {"android": "https://dc.lft.to/lastmile_qr_scan", "ios": "https://dc.lft.to/lastmile_qr_scan"}, "bike_id": "a645ef69210e99fa2c1c78a19d88eddf", "lon": -77.03852266666667}, {"is_reserved": 0, "fusion_lon": 0.0, "fusion_lat": 0.0, "name": "a4c318f09a55fd43861a5ac1cc80500a", "type": "electric_bike", "is_disabled": 0, "lat": 38.88755066666667, "rental_uris": {"android": "https://dc.lft.to/lastmile_qr_scan", "ios": "https://dc.lft.to/lastmile_qr_scan"}, "bike_id": "a4c318f09a55fd43861a5ac1cc80500a", "lon": -76.947764}, {"is_reserved": 0, "fusion_lon": 0.0, "fusion_lat": 0.0, "name": "87f924fc311e8d743d09a57bb49bfbea", "type": "electric_scooter", "is_disabled": 0, "lat": 38.92614966666667, "rental_uris": {"android": "https://dc.lft.to/lastmile_qr_scan", "ios": "https://dc.lft.to/lastmile_qr_scan"}, "bike_id": "87f924fc311e8d743d09a57bb49bfbea", "lon": -77.02159533333334}, {"is_reserved": 0, "fusion_lon": 0.0, "fusion_lat": 0.0, "name": "37187fd0f0e4ee53ff9b905ac38689f6", "type": "electric_scooter", "is_disabled": 0, "lat": 38.90589333333333, "rental_uris": {"android": "https://dc.lft.to/lastmile_qr_scan", "ios": "https://dc.lft.to/lastmile_qr_scan"}, "bike_id": "37187fd0f0e4ee53ff9b905ac38689f6", "lon": -77.03845633333333}, {"is_reserved": 0, "fusion_lon": 0.0, "fusion_lat": 0.0, "name": "8a3f5c87d8893f1e23d566e39f5cf409", "type": "electric_scooter", "is_disabled": 0, "lat": 38.909628833333336, "rental_uris": {"android": "https://dc.lft.to/lastmile_qr_scan", "ios": "https://dc.lft.to/lastmile_qr_scan"}, "bike_id": "8a3f5c87d8893f1e23d566e39f5cf409", "lon": -77.03868366666667}, {"is_reserved": 0, "fusion_lon": 0.0, "fusion_lat": 0.0, "name": "dccdf65142d8a10fff511f9aa7e8aea8", "type": "electric_scooter", "is_disabled": 0, "lat": 38.888139833333334, "rental_uris": {"android": "https://dc.lft.to/lastmile_qr_scan", "ios": "https://dc.lft.to/lastmile_qr_scan"}, "bike_id": "dccdf65142d8a10fff511f9aa7e8aea8", "lon": -76.93346366666667}, {"is_reserved": 0, "fusion_lon": 0.0, "fusion_lat": 0.0, "name": "7d85b4425a5623ea20b33c11ff0fd0fe", "type": "electric_scooter", "is_disabled": 0, "lat": 38.9209415, "rental_uris": {"android": "https://dc.lft.to/lastmile_qr_scan", "ios": "https://dc.lft.to/lastmile_qr_scan"}, "bike_id": "7d85b4425a5623ea20b33c11ff0fd0fe", "lon": -77.00434366666667}, {"is_reserved": 0, "fusion_lon": 0.0, "fusion_lat": 0.0, "name": "9f3e770312bc1d377442cf0aac4215f8", "type": "electric_scooter", "is_disabled": 0, "lat": 38.9165725, "rental_uris": {"android": "https://dc.lft.to/lastmile_qr_scan", "ios": "https://dc.lft.to/lastmile_qr_scan"}, "bike_id": "9f3e770312bc1d377442cf0aac4215f8", "lon": -77.02973283333333}, {"is_reserved": 0, "fusion_lon": 0.0, "fusion_lat": 0.0, "name": "7aa00fe42a8c6c7b13d038326dfa5e08", "type": "electric_scooter", "is_disabled": 0, "lat": 38.887297833333335, "rental_uris": {"android": "https://dc.lft.to/lastmile_qr_scan", "ios": "https://dc.lft.to/lastmile_qr_scan"}, "bike_id": "7aa00fe42a8c6c7b13d038326dfa5e08", "lon": -77.0282615}, {"is_reserved": 0, "fusion_lon": 0.0, "fusion_lat": 0.0, "name": "b1f0aaab178a7420159254f2cd47da3a", "type": "electric_scooter", "is_disabled": 0, "lat": 38.9118355, "rental_uris": {"android": "https://dc.lft.to/lastmile_qr_scan", "ios": "https://dc.lft.to/lastmile_qr_scan"}, "bike_id": "b1f0aaab178a7420159254f2cd47da3a", "lon": -77.00969433333333}, {"is_reserved": 0, "fusion_lon": 0.0, "fusion_lat": 0.0, "name": "2462f28cefb234593e4b1bc3bc1b92e0", "type": "electric_scooter", "is_disabled": 0, "lat": 38.90679566666667, "rental_uris": {"android": "https://dc.lft.to/lastmile_qr_scan", "ios": "https://dc.lft.to/lastmile_qr_scan"}, "bike_id": "2462f28cefb234593e4b1bc3bc1b92e0", "lon": -77.038421}, {"is_reserved": 0, "fusion_lon": 0.0, "fusion_lat": 0.0, "name": "a19c04e634d91ffa0a4eaf48d86ee96a", "type": "electric_scooter", "is_disabled": 0, "lat": 38.9223205, "rental_uris": {"android": "https://dc.lft.to/lastmile_qr_scan", "ios": "https://dc.lft.to/lastmile_qr_scan"}, "bike_id": "a19c04e634d91ffa0a4eaf48d86ee96a", "lon": -77.0233345}, {"is_reserved": 0, "fusion_lon": 0.0, "fusion_lat": 0.0, "name": "1b1afadb43735bb6af92b126b1351a4d", "type": "electric_scooter", "is_disabled": 0, "lat": 38.90633533333333, "rental_uris": {"android": "https://dc.lft.to/lastmile_qr_scan", "ios": "https://dc.lft.to/lastmile_qr_scan"}, "bike_id": "1b1afadb43735bb6af92b126b1351a4d", "lon": -77.04780866666667}, {"is_reserved": 0, "fusion_lon": 0.0, "fusion_lat": 0.0, "name": "71c89ac4c05a4df527c6938997e12f9d", "type": "electric_scooter", "is_disabled": 0, "lat": 38.89726866666667, "rental_uris": {"android": "https://dc.lft.to/lastmile_qr_scan", "ios": "https://dc.lft.to/lastmile_qr_scan"}, "bike_id": "71c89ac4c05a4df527c6938997e12f9d", "lon": -77.02934816666667}, {"is_reserved": 0, "fusion_lon": 0.0, "fusion_lat": 0.0, "name": "0a54e0f9918b7f193b0d662d72233b51", "type": "electric_scooter", "is_disabled": 0, "lat": 38.90800333333333, "rental_uris": {"android": "https://dc.lft.to/lastmile_qr_scan", "ios": "https://dc.lft.to/lastmile_qr_scan"}, "bike_id": "0a54e0f9918b7f193b0d662d72233b51", "lon": -77.0238175}, {"is_reserved": 0, "fusion_lon": 0.0, "fusion_lat": 0.0, "name": "92ae53bdcbf92483c732768278106b25", "type": "electric_bike", "is_disabled": 0, "lat": 38.947871, "rental_uris": {"android": "https://dc.lft.to/lastmile_qr_scan", "ios": "https://dc.lft.to/lastmile_qr_scan"}, "bike_id": "92ae53bdcbf92483c732768278106b25", "lon": -76.9721005}, {"is_reserved": 0, "fusion_lon": 0.0, "fusion_lat": 0.0, "name": "cffd25dc52f0dc525193ea66e9fdd273", "type": "electric_scooter", "is_disabled": 0, "lat": 38.88743633333333, "rental_uris": {"android": "https://dc.lft.to/lastmile_qr_scan", "ios": "https://dc.lft.to/lastmile_qr_scan"}, "bike_id": "cffd25dc52f0dc525193ea66e9fdd273", "lon": -77.01541066666667}, {"is_reserved": 0, "fusion_lon": 0.0, "fusion_lat": 0.0, "name": "150c19e2e5c6ba8b8549f25f45b128e5", "type": "electric_scooter", "is_disabled": 0, "lat": 38.90775933333333, "rental_uris": {"android": "https://dc.lft.to/lastmile_qr_scan", "ios": "https://dc.lft.to/lastmile_qr_scan"}, "bike_id": "150c19e2e5c6ba8b8549f25f45b128e5", "lon": -77.04008666666667}, {"is_reserved": 0, "fusion_lon": 0.0, "fusion_lat": 0.0, "name": "9c55f09a37ae17ae1d8919ffb8b0b18e", "type": "electric_scooter", "is_disabled": 0, "lat": 38.905701666666666, "rental_uris": {"android": "https://dc.lft.to/lastmile_qr_scan", "ios": "https://dc.lft.to/lastmile_qr_scan"}, "bike_id": "9c55f09a37ae17ae1d8919ffb8b0b18e", "lon": -77.04473716666666}, {"is_reserved": 0, "fusion_lon": 0.0, "fusion_lat": 0.0, "name": "e69f40c787e13a7c37d493144fa89504", "type": "electric_scooter", "is_disabled": 0, "lat": 38.86071366666667, "rental_uris": {"android": "https://dc.lft.to/lastmile_qr_scan", "ios": "https://dc.lft.to/lastmile_qr_scan"}, "bike_id": "e69f40c787e13a7c37d493144fa89504", "lon": -76.968963}, {"is_reserved": 0, "fusion_lon": 0.0, "fusion_lat": 0.0, "name": "b8b57054a27b4e800fa848c2d172ecbc", "type": "electric_scooter", "is_disabled": 0, "lat": 38.926544666666665, "rental_uris": {"android": "https://dc.lft.to/lastmile_qr_scan", "ios": "https://dc.lft.to/lastmile_qr_scan"}, "bike_id": "b8b57054a27b4e800fa848c2d172ecbc", "lon": -77.0373005}, {"is_reserved": 0, "fusion_lon": 0.0, "fusion_lat": 0.0, "name": "87eeac1c00aa2b948c0a8ef8616e0f02", "type": "electric_scooter", "is_disabled": 0, "lat": 38.905548, "rental_uris": {"android": "https://dc.lft.to/lastmile_qr_scan", "ios": "https://dc.lft.to/lastmile_qr_scan"}, "bike_id": "87eeac1c00aa2b948c0a8ef8616e0f02", "lon": -77.04657133333333}, {"is_reserved": 0, "fusion_lon": 0.0, "fusion_lat": 0.0, "name": "2fc356aae298c64818bb8c55f1cb8942", "type": "electric_scooter", "is_disabled": 0, "lat": 38.88777816666666, "rental_uris": {"android": "https://dc.lft.to/lastmile_qr_scan", "ios": "https://dc.lft.to/lastmile_qr_scan"}, "bike_id": "2fc356aae298c64818bb8c55f1cb8942", "lon": -76.955297}, {"is_reserved": 0, "fusion_lon": 0.0, "fusion_lat": 0.0, "name": "1341a717de64616010bdd591abc832be", "type": "electric_scooter", "is_disabled": 0, "lat": 38.89224883333333, "rental_uris": {"android": "https://dc.lft.to/lastmile_qr_scan", "ios": "https://dc.lft.to/lastmile_qr_scan"}, "bike_id": "1341a717de64616010bdd591abc832be", "lon": -77.04501616666667}, {"is_reserved": 0, "fusion_lon": 0.0, "fusion_lat": 0.0, "name": "5881cbdd6ff04ab93157ac34760de7e9", "type": "electric_bike", "is_disabled": 0, "lat": 39.02433283333333, "rental_uris": {"android": "https://dc.lft.to/lastmile_qr_scan", "ios": "https://dc.lft.to/lastmile_qr_scan"}, "bike_id": "5881cbdd6ff04ab93157ac34760de7e9", "lon": -77.130983}, {"is_reserved": 0, "fusion_lon": 0.0, "fusion_lat": 0.0, "name": "56ff064c0ed265acd5df3d4c2f30bf61", "type": "electric_scooter", "is_disabled": 0, "lat": 38.86416066666666, "rental_uris": {"android": "https://dc.lft.to/lastmile_qr_scan", "ios": "https://dc.lft.to/lastmile_qr_scan"}, "bike_id": "56ff064c0ed265acd5df3d4c2f30bf61", "lon": -76.97438083333333}, {"is_reserved": 0, "fusion_lon": 0.0, "fusion_lat": 0.0, "name": "3f5a32566b5f73d63aa723d6c9903dfe", "type": "electric_scooter", "is_disabled": 0, "lat": 38.91710916666667, "rental_uris": {"android": "https://dc.lft.to/lastmile_qr_scan", "ios": "https://dc.lft.to/lastmile_qr_scan"}, "bike_id": "3f5a32566b5f73d63aa723d6c9903dfe", "lon": -77.03862883333333}, {"is_reserved": 0, "fusion_lon": 0.0, "fusion_lat": 0.0, "name": "8ae3ad98baa50560ca7d882dbbd216d7", "type": "electric_scooter", "is_disabled": 0, "lat": 38.90034, "rental_uris": {"android": "https://dc.lft.to/lastmile_qr_scan", "ios": "https://dc.lft.to/lastmile_qr_scan"}, "bike_id": "8ae3ad98baa50560ca7d882dbbd216d7", "lon": -77.02408666666666}, {"is_reserved": 0, "fusion_lon": 0.0, "fusion_lat": 0.0, "name": "bbd2861c7a7140bc5e64d67993e4bc45", "type": "electric_scooter", "is_disabled": 0, "lat": 38.942922333333335, "rental_uris": {"android": "https://dc.lft.to/lastmile_qr_scan", "ios": "https://dc.lft.to/lastmile_qr_scan"}, "bike_id": "bbd2861c7a7140bc5e64d67993e4bc45", "lon": -77.02173183333333}, {"is_reserved": 0, "fusion_lon": 0.0, "fusion_lat": 0.0, "name": "edff02cbcb0526def3493426d0c4ed6a", "type": "electric_scooter", "is_disabled": 0, "lat": 38.898869166666664, "rental_uris": {"android": "https://dc.lft.to/lastmile_qr_scan", "ios": "https://dc.lft.to/lastmile_qr_scan"}, "bike_id": "edff02cbcb0526def3493426d0c4ed6a", "lon": -77.03198683333333}, {"is_reserved": 0, "fusion_lon": 0.0, "fusion_lat": 0.0, "name": "b64a2b6d09660a8ae22c67f6c97e9e84", "type": "electric_scooter", "is_disabled": 0, "lat": 38.95934483333333, "rental_uris": {"android": "https://dc.lft.to/lastmile_qr_scan", "ios": "https://dc.lft.to/lastmile_qr_scan"}, "bike_id": "b64a2b6d09660a8ae22c67f6c97e9e84", "lon": -77.031236}, {"is_reserved": 0, "fusion_lon": 0.0, "fusion_lat": 0.0, "name": "1feab90daed941cc1b49ada9796f9fbf", "type": "electric_scooter", "is_disabled": 0, "lat": 38.907808333333335, "rental_uris": {"android": "https://dc.lft.to/lastmile_qr_scan", "ios": "https://dc.lft.to/lastmile_qr_scan"}, "bike_id": "1feab90daed941cc1b49ada9796f9fbf", "lon": -77.038259}, {"is_reserved": 0, "fusion_lon": 0.0, "fusion_lat": 0.0, "name": "2da174a9efd6fa7cbdfbe4e11a854356", "type": "electric_scooter", "is_disabled": 0, "lat": 38.873693833333334, "rental_uris": {"android": "https://dc.lft.to/lastmile_qr_scan", "ios": "https://dc.lft.to/lastmile_qr_scan"}, "bike_id": "2da174a9efd6fa7cbdfbe4e11a854356", "lon": -76.970175}, {"is_reserved": 0, "fusion_lon": 0.0, "fusion_lat": 0.0, "name": "322542e4899562d41b0d3dacbd0e90b0", "type": "electric_scooter", "is_disabled": 0, "lat": 38.90939916666667, "rental_uris": {"android": "https://dc.lft.to/lastmile_qr_scan", "ios": "https://dc.lft.to/lastmile_qr_scan"}, "bike_id": "322542e4899562d41b0d3dacbd0e90b0", "lon": -77.03069983333333}, {"is_reserved": 0, "fusion_lon": 0.0, "fusion_lat": 0.0, "name": "f993d49f90aa596a1e0d1bf03b4d0390", "type": "electric_scooter", "is_disabled": 0, "lat": 38.923983166666666, "rental_uris": {"android": "https://dc.lft.to/lastmile_qr_scan", "ios": "https://dc.lft.to/lastmile_qr_scan"}, "bike_id": "f993d49f90aa596a1e0d1bf03b4d0390", "lon": -77.024561}, {"is_reserved": 0, "fusion_lon": 0.0, "fusion_lat": 0.0, "name": "3c6b2b0f20b735a6ca61dd02cb0b03fe", "type": "electric_scooter", "is_disabled": 0, "lat": 38.89554416666667, "rental_uris": {"android": "https://dc.lft.to/lastmile_qr_scan", "ios": "https://dc.lft.to/lastmile_qr_scan"}, "bike_id": "3c6b2b0f20b735a6ca61dd02cb0b03fe", "lon": -76.998455}, {"is_reserved": 0, "fusion_lon": 0.0, "fusion_lat": 0.0, "name": "09e2fb7f71de07c62f2d7faa166565f6", "type": "electric_scooter", "is_disabled": 0, "lat": 38.9074765, "rental_uris": {"android": "https://dc.lft.to/lastmile_qr_scan", "ios": "https://dc.lft.to/lastmile_qr_scan"}, "bike_id": "09e2fb7f71de07c62f2d7faa166565f6", "lon": -77.04152733333333}, {"is_reserved": 0, "fusion_lon": 0.0, "fusion_lat": 0.0, "name": "d7bcdf0ef39c05c5016165590eaee621", "type": "electric_scooter", "is_disabled": 0, "lat": 38.904366833333334, "rental_uris": {"android": "https://dc.lft.to/lastmile_qr_scan", "ios": "https://dc.lft.to/lastmile_qr_scan"}, "bike_id": "d7bcdf0ef39c05c5016165590eaee621", "lon": -77.043574}, {"is_reserved": 0, "fusion_lon": 0.0, "fusion_lat": 0.0, "name": "26b4e5fc59ff62a2f5fa5cd016f9c393", "type": "electric_scooter", "is_disabled": 0, "lat": 38.90519483333333, "rental_uris": {"android": "https://dc.lft.to/lastmile_qr_scan", "ios": "https://dc.lft.to/lastmile_qr_scan"}, "bike_id": "26b4e5fc59ff62a2f5fa5cd016f9c393", "lon": -77.041601}, {"is_reserved": 0, "fusion_lon": 0.0, "fusion_lat": 0.0, "name": "88efe0d5cd9cb2b658277104f50df020", "type": "electric_scooter", "is_disabled": 0, "lat": 38.936231, "rental_uris": {"android": "https://dc.lft.to/lastmile_qr_scan", "ios": "https://dc.lft.to/lastmile_qr_scan"}, "bike_id": "88efe0d5cd9cb2b658277104f50df020", "lon": -77.05898283333333}, {"is_reserved": 0, "fusion_lon": 0.0, "fusion_lat": 0.0, "name": "91ec8d364ab2f555bf4c66f8b8188e8d", "type": "electric_bike", "is_disabled": 0, "lat": 38.905968666666666, "rental_uris": {"android": "https://dc.lft.to/lastmile_qr_scan", "ios": "https://dc.lft.to/lastmile_qr_scan"}, "bike_id": "91ec8d364ab2f555bf4c66f8b8188e8d", "lon": -77.04163683333333}, {"is_reserved": 0, "fusion_lon": 0.0, "fusion_lat": 0.0, "name": "979f456bb611d1d1aefd1624f8ede0ca", "type": "electric_scooter", "is_disabled": 0, "lat": 38.9225085, "rental_uris": {"android": "https://dc.lft.to/lastmile_qr_scan", "ios": "https://dc.lft.to/lastmile_qr_scan"}, "bike_id": "979f456bb611d1d1aefd1624f8ede0ca", "lon": -77.02954866666667}, {"is_reserved": 0, "fusion_lon": 0.0, "fusion_lat": 0.0, "name": "83027265199bfcc2bbfb39184f35c03d", "type": "electric_scooter", "is_disabled": 0, "lat": 38.9098425, "rental_uris": {"android": "https://dc.lft.to/lastmile_qr_scan", "ios": "https://dc.lft.to/lastmile_qr_scan"}, "bike_id": "83027265199bfcc2bbfb39184f35c03d", "lon": -77.0487585}, {"is_reserved": 0, "fusion_lon": 0.0, "fusion_lat": 0.0, "name": "65c304bc6c3753cf4faf07675ba48e0b", "type": "electric_scooter", "is_disabled": 0, "lat": 38.89223233333333, "rental_uris": {"android": "https://dc.lft.to/lastmile_qr_scan", "ios": "https://dc.lft.to/lastmile_qr_scan"}, "bike_id": "65c304bc6c3753cf4faf07675ba48e0b", "lon": -77.02226216666666}, {"is_reserved": 0, "fusion_lon": 0.0, "fusion_lat": 0.0, "name": "ce77e14fdb1b46ab3f80ffc8af49c123", "type": "electric_scooter", "is_disabled": 0, "lat": 38.903700666666666, "rental_uris": {"android": "https://dc.lft.to/lastmile_qr_scan", "ios": "https://dc.lft.to/lastmile_qr_scan"}, "bike_id": "ce77e14fdb1b46ab3f80ffc8af49c123", "lon": -77.03199416666666}, {"is_reserved": 0, "fusion_lon": 0.0, "fusion_lat": 0.0, "name": "1a49b87f9a649082df789b9284b7c370", "type": "electric_scooter", "is_disabled": 0, "lat": 38.902695, "rental_uris": {"android": "https://dc.lft.to/lastmile_qr_scan", "ios": "https://dc.lft.to/lastmile_qr_scan"}, "bike_id": "1a49b87f9a649082df789b9284b7c370", "lon": -77.03143716666666}, {"is_reserved": 0, "fusion_lon": 0.0, "fusion_lat": 0.0, "name": "68ebd5164cd9526642b48d04ba75f5d1", "type": "electric_scooter", "is_disabled": 0, "lat": 38.8993185, "rental_uris": {"android": "https://dc.lft.to/lastmile_qr_scan", "ios": "https://dc.lft.to/lastmile_qr_scan"}, "bike_id": "68ebd5164cd9526642b48d04ba75f5d1", "lon": -77.0036045}, {"is_reserved": 0, "fusion_lon": 0.0, "fusion_lat": 0.0, "name": "5d0a1562a4ff4f33363807e661e466a5", "type": "electric_scooter", "is_disabled": 0, "lat": 38.8663285, "rental_uris": {"android": "https://dc.lft.to/lastmile_qr_scan", "ios": "https://dc.lft.to/lastmile_qr_scan"}, "bike_id": "5d0a1562a4ff4f33363807e661e466a5", "lon": -76.98905566666667}, {"is_reserved": 0, "fusion_lon": 0.0, "fusion_lat": 0.0, "name": "16775c755fe7825c9d21e84d2cf2092f", "type": "electric_scooter", "is_disabled": 0, "lat": 38.90266733333333, "rental_uris": {"android": "https://dc.lft.to/lastmile_qr_scan", "ios": "https://dc.lft.to/lastmile_qr_scan"}, "bike_id": "16775c755fe7825c9d21e84d2cf2092f", "lon": -77.04602166666666}, {"is_reserved": 0, "fusion_lon": 0.0, "fusion_lat": 0.0, "name": "7373b52f060b91832ca79d870375afc8", "type": "electric_scooter", "is_disabled": 0, "lat": 38.89019283333333, "rental_uris": {"android": "https://dc.lft.to/lastmile_qr_scan", "ios": "https://dc.lft.to/lastmile_qr_scan"}, "bike_id": "7373b52f060b91832ca79d870375afc8", "lon": -76.93735883333333}, {"is_reserved": 0, "fusion_lon": 0.0, "fusion_lat": 0.0, "name": "4fbf3b373fd24fad018cad03446cf993", "type": "electric_scooter", "is_disabled": 0, "lat": 38.934557, "rental_uris": {"android": "https://dc.lft.to/lastmile_qr_scan", "ios": "https://dc.lft.to/lastmile_qr_scan"}, "bike_id": "4fbf3b373fd24fad018cad03446cf993", "lon": -77.03753716666667}, {"is_reserved": 0, "fusion_lon": 0.0, "fusion_lat": 0.0, "name": "358ae7415ad1b2f3c7503a9a6cb9afd0", "type": "electric_scooter", "is_disabled": 0, "lat": 38.863894333333334, "rental_uris": {"android": "https://dc.lft.to/lastmile_qr_scan", "ios": "https://dc.lft.to/lastmile_qr_scan"}, "bike_id": "358ae7415ad1b2f3c7503a9a6cb9afd0", "lon": -76.989083}, {"is_reserved": 0, "fusion_lon": 0.0, "fusion_lat": 0.0, "name": "76b69396e8895cdfc3a7502c80342e12", "type": "electric_bike", "is_disabled": 0, "lat": 38.86581916666667, "rental_uris": {"android": "https://dc.lft.to/lastmile_qr_scan", "ios": "https://dc.lft.to/lastmile_qr_scan"}, "bike_id": "76b69396e8895cdfc3a7502c80342e12", "lon": -77.04762683333334}, {"is_reserved": 0, "fusion_lon": 0.0, "fusion_lat": 0.0, "name": "78a7c1609ce01982f6b8924a3a443f3b", "type": "electric_scooter", "is_disabled": 0, "lat": 38.9353405, "rental_uris": {"android": "https://dc.lft.to/lastmile_qr_scan", "ios": "https://dc.lft.to/lastmile_qr_scan"}, "bike_id": "78a7c1609ce01982f6b8924a3a443f3b", "lon": -77.02354466666667}, {"is_reserved": 0, "fusion_lon": 0.0, "fusion_lat": 0.0, "name": "73fca23c5195f8f83cf4c77cd945f448", "type": "electric_scooter", "is_disabled": 0, "lat": 38.887435333333336, "rental_uris": {"android": "https://dc.lft.to/lastmile_qr_scan", "ios": "https://dc.lft.to/lastmile_qr_scan"}, "bike_id": "73fca23c5195f8f83cf4c77cd945f448", "lon": -77.027357}, {"is_reserved": 0, "fusion_lon": 0.0, "fusion_lat": 0.0, "name": "4020a501ae3877887798fc869dd0be86", "type": "electric_scooter", "is_disabled": 0, "lat": 38.907679333333334, "rental_uris": {"android": "https://dc.lft.to/lastmile_qr_scan", "ios": "https://dc.lft.to/lastmile_qr_scan"}, "bike_id": "4020a501ae3877887798fc869dd0be86", "lon": -77.02405083333333}, {"is_reserved": 0, "fusion_lon": 0.0, "fusion_lat": 0.0, "name": "d720a6d7a4e9c6fb6e66893c96153d06", "type": "electric_bike", "is_disabled": 0, "lat": 38.865190166666665, "rental_uris": {"android": "https://dc.lft.to/lastmile_qr_scan", "ios": "https://dc.lft.to/lastmile_qr_scan"}, "bike_id": "d720a6d7a4e9c6fb6e66893c96153d06", "lon": -76.97339316666667}, {"is_reserved": 0, "fusion_lon": 0.0, "fusion_lat": 0.0, "name": "2c4084576337f7bb756f4e51721bf6dc", "type": "electric_scooter", "is_disabled": 0, "lat": 38.90982666666667, "rental_uris": {"android": "https://dc.lft.to/lastmile_qr_scan", "ios": "https://dc.lft.to/lastmile_qr_scan"}, "bike_id": "2c4084576337f7bb756f4e51721bf6dc", "lon": -77.04264283333333}, {"is_reserved": 0, "fusion_lon": 0.0, "fusion_lat": 0.0, "name": "6ceb60729e5c1ba79a3aac9aa93fe319", "type": "electric_scooter", "is_disabled": 0, "lat": 38.926632166666664, "rental_uris": {"android": "https://dc.lft.to/lastmile_qr_scan", "ios": "https://dc.lft.to/lastmile_qr_scan"}, "bike_id": "6ceb60729e5c1ba79a3aac9aa93fe319", "lon": -76.995386}, {"is_reserved": 0, "fusion_lon": 0.0, "fusion_lat": 0.0, "name": "7edda7e7d80b0659c21cf92c21d0bd07", "type": "electric_scooter", "is_disabled": 0, "lat": 38.90964866666667, "rental_uris": {"android": "https://dc.lft.to/lastmile_qr_scan", "ios": "https://dc.lft.to/lastmile_qr_scan"}, "bike_id": "7edda7e7d80b0659c21cf92c21d0bd07", "lon": -77.04008366666666}, {"is_reserved": 0, "fusion_lon": 0.0, "fusion_lat": 0.0, "name": "cc8191be4beb67ebae78e976def8a37d", "type": "electric_scooter", "is_disabled": 0, "lat": 38.90031533333333, "rental_uris": {"android": "https://dc.lft.to/lastmile_qr_scan", "ios": "https://dc.lft.to/lastmile_qr_scan"}, "bike_id": "cc8191be4beb67ebae78e976def8a37d", "lon": -77.011742}, {"is_reserved": 0, "fusion_lon": 0.0, "fusion_lat": 0.0, "name": "d1add3430ed9c9a02ddd7551ce7d3e59", "type": "electric_scooter", "is_disabled": 0, "lat": 38.89916083333333, "rental_uris": {"android": "https://dc.lft.to/lastmile_qr_scan", "ios": "https://dc.lft.to/lastmile_qr_scan"}, "bike_id": "d1add3430ed9c9a02ddd7551ce7d3e59", "lon": -77.0403775}, {"is_reserved": 0, "fusion_lon": 0.0, "fusion_lat": 0.0, "name": "556e1d769a13962b711f93c566c13524", "type": "electric_scooter", "is_disabled": 0, "lat": 38.900391, "rental_uris": {"android": "https://dc.lft.to/lastmile_qr_scan", "ios": "https://dc.lft.to/lastmile_qr_scan"}, "bike_id": "556e1d769a13962b711f93c566c13524", "lon": -77.01185283333334}, {"is_reserved": 0, "fusion_lon": 0.0, "fusion_lat": 0.0, "name": "1a1547ec0ba8713ff5d099812e2acd0c", "type": "electric_scooter", "is_disabled": 0, "lat": 38.91694183333333, "rental_uris": {"android": "https://dc.lft.to/lastmile_qr_scan", "ios": "https://dc.lft.to/lastmile_qr_scan"}, "bike_id": "1a1547ec0ba8713ff5d099812e2acd0c", "lon": -77.03125033333333}, {"is_reserved": 0, "fusion_lon": 0.0, "fusion_lat": 0.0, "name": "e23d5297fdfde4bdfd02257c6c5acc69", "type": "electric_scooter", "is_disabled": 0, "lat": 38.9420275, "rental_uris": {"android": "https://dc.lft.to/lastmile_qr_scan", "ios": "https://dc.lft.to/lastmile_qr_scan"}, "bike_id": "e23d5297fdfde4bdfd02257c6c5acc69", "lon": -77.02509016666667}, {"is_reserved": 0, "fusion_lon": 0.0, "fusion_lat": 0.0, "name": "4d4e08cadbc4f73b68ad3682f14b82ff", "type": "electric_scooter", "is_disabled": 0, "lat": 38.9176135, "rental_uris": {"android": "https://dc.lft.to/lastmile_qr_scan", "ios": "https://dc.lft.to/lastmile_qr_scan"}, "bike_id": "4d4e08cadbc4f73b68ad3682f14b82ff", "lon": -77.0477275}, {"is_reserved": 0, "fusion_lon": 0.0, "fusion_lat": 0.0, "name": "05813c3dc729b97816d9a85d0df0550d", "type": "electric_scooter", "is_disabled": 0, "lat": 38.9305925, "rental_uris": {"android": "https://dc.lft.to/lastmile_qr_scan", "ios": "https://dc.lft.to/lastmile_qr_scan"}, "bike_id": "05813c3dc729b97816d9a85d0df0550d", "lon": -77.032793}, {"is_reserved": 0, "fusion_lon": 0.0, "fusion_lat": 0.0, "name": "678ee203660ef874540bebe476019fa1", "type": "electric_scooter", "is_disabled": 0, "lat": 38.9096795, "rental_uris": {"android": "https://dc.lft.to/lastmile_qr_scan", "ios": "https://dc.lft.to/lastmile_qr_scan"}, "bike_id": "678ee203660ef874540bebe476019fa1", "lon": -77.045182}, {"is_reserved": 0, "fusion_lon": 0.0, "fusion_lat": 0.0, "name": "19e1cd5138f725d7d868984239c24596", "type": "electric_scooter", "is_disabled": 0, "lat": 38.900533833333334, "rental_uris": {"android": "https://dc.lft.to/lastmile_qr_scan", "ios": "https://dc.lft.to/lastmile_qr_scan"}, "bike_id": "19e1cd5138f725d7d868984239c24596", "lon": -77.01782666666666}, {"is_reserved": 0, "fusion_lon": 0.0, "fusion_lat": 0.0, "name": "2cc74962c0def27e58e4e318661da3fd", "type": "electric_bike", "is_disabled": 0, "lat": 38.913863666666664, "rental_uris": {"android": "https://dc.lft.to/lastmile_qr_scan", "ios": "https://dc.lft.to/lastmile_qr_scan"}, "bike_id": "2cc74962c0def27e58e4e318661da3fd", "lon": -77.08929316666666}, {"is_reserved": 0, "fusion_lon": 0.0, "fusion_lat": 0.0, "name": "09fe742a994a6ca5335e9430d3050158", "type": "electric_scooter", "is_disabled": 0, "lat": 38.913576666666664, "rental_uris": {"android": "https://dc.lft.to/lastmile_qr_scan", "ios": "https://dc.lft.to/lastmile_qr_scan"}, "bike_id": "09fe742a994a6ca5335e9430d3050158", "lon": -77.02951}, {"is_reserved": 0, "fusion_lon": 0.0, "fusion_lat": 0.0, "name": "1a4761a78cb0c2a797d7582d279ce152", "type": "electric_scooter", "is_disabled": 0, "lat": 38.94839233333333, "rental_uris": {"android": "https://dc.lft.to/lastmile_qr_scan", "ios": "https://dc.lft.to/lastmile_qr_scan"}, "bike_id": "1a4761a78cb0c2a797d7582d279ce152", "lon": -77.02543716666666}, {"is_reserved": 0, "fusion_lon": 0.0, "fusion_lat": 0.0, "name": "6e250fd4e60d681a211abce946146cb4", "type": "electric_scooter", "is_disabled": 0, "lat": 38.94957016666667, "rental_uris": {"android": "https://dc.lft.to/lastmile_qr_scan", "ios": "https://dc.lft.to/lastmile_qr_scan"}, "bike_id": "6e250fd4e60d681a211abce946146cb4", "lon": -77.0272245}, {"is_reserved": 0, "fusion_lon": 0.0, "fusion_lat": 0.0, "name": "6f150db2b4e477cefd92cd8ea40be55b", "type": "electric_scooter", "is_disabled": 0, "lat": 38.844323833333334, "rental_uris": {"android": "https://dc.lft.to/lastmile_qr_scan", "ios": "https://dc.lft.to/lastmile_qr_scan"}, "bike_id": "6f150db2b4e477cefd92cd8ea40be55b", "lon": -76.99813633333333}, {"is_reserved": 0, "fusion_lon": 0.0, "fusion_lat": 0.0, "name": "453bdcca347e3e9e4ad20b2e93942da6", "type": "electric_scooter", "is_disabled": 0, "lat": 38.93890833333333, "rental_uris": {"android": "https://dc.lft.to/lastmile_qr_scan", "ios": "https://dc.lft.to/lastmile_qr_scan"}, "bike_id": "453bdcca347e3e9e4ad20b2e93942da6", "lon": -77.03316566666666}, {"is_reserved": 0, "fusion_lon": 0.0, "fusion_lat": 0.0, "name": "5f6deb55b4dfe63cee13fe2c62502e5d", "type": "electric_scooter", "is_disabled": 0, "lat": 38.9080625, "rental_uris": {"android": "https://dc.lft.to/lastmile_qr_scan", "ios": "https://dc.lft.to/lastmile_qr_scan"}, "bike_id": "5f6deb55b4dfe63cee13fe2c62502e5d", "lon": -77.04329433333334}, {"is_reserved": 0, "fusion_lon": 0.0, "fusion_lat": 0.0, "name": "72354fbb716fd8dbc563e2502a3a5db8", "type": "electric_scooter", "is_disabled": 0, "lat": 38.900951666666664, "rental_uris": {"android": "https://dc.lft.to/lastmile_qr_scan", "ios": "https://dc.lft.to/lastmile_qr_scan"}, "bike_id": "72354fbb716fd8dbc563e2502a3a5db8", "lon": -77.04759416666667}, {"is_reserved": 0, "fusion_lon": 0.0, "fusion_lat": 0.0, "name": "bea544c8969fe652a9156b43cb7d9294", "type": "electric_scooter", "is_disabled": 0, "lat": 38.928603, "rental_uris": {"android": "https://dc.lft.to/lastmile_qr_scan", "ios": "https://dc.lft.to/lastmile_qr_scan"}, "bike_id": "bea544c8969fe652a9156b43cb7d9294", "lon": -77.0140215}, {"is_reserved": 0, "fusion_lon": 0.0, "fusion_lat": 0.0, "name": "f6f29522a3c9b86d4c1d44008385168a", "type": "electric_bike", "is_disabled": 0, "lat": 38.834296333333334, "rental_uris": {"android": "https://dc.lft.to/lastmile_qr_scan", "ios": "https://dc.lft.to/lastmile_qr_scan"}, "bike_id": "f6f29522a3c9b86d4c1d44008385168a", "lon": -77.1035735}, {"is_reserved": 0, "fusion_lon": 0.0, "fusion_lat": 0.0, "name": "863b14ebf8213d4def79bdd9ea858e45", "type": "electric_scooter", "is_disabled": 0, "lat": 38.9087865, "rental_uris": {"android": "https://dc.lft.to/lastmile_qr_scan", "ios": "https://dc.lft.to/lastmile_qr_scan"}, "bike_id": "863b14ebf8213d4def79bdd9ea858e45", "lon": -77.07169883333333}, {"is_reserved": 0, "fusion_lon": 0.0, "fusion_lat": 0.0, "name": "8d4eb234a89cdb19556034aa7da7a16b", "type": "electric_scooter", "is_disabled": 0, "lat": 38.95664766666667, "rental_uris": {"android": "https://dc.lft.to/lastmile_qr_scan", "ios": "https://dc.lft.to/lastmile_qr_scan"}, "bike_id": "8d4eb234a89cdb19556034aa7da7a16b", "lon": -77.0103615}, {"is_reserved": 0, "fusion_lon": 0.0, "fusion_lat": 0.0, "name": "bca44d73ea8fbd03010bab7715172b79", "type": "electric_scooter", "is_disabled": 0, "lat": 38.92371466666667, "rental_uris": {"android": "https://dc.lft.to/lastmile_qr_scan", "ios": "https://dc.lft.to/lastmile_qr_scan"}, "bike_id": "bca44d73ea8fbd03010bab7715172b79", "lon": -77.03138666666666}, {"is_reserved": 0, "fusion_lon": 0.0, "fusion_lat": 0.0, "name": "b54878a42f3e090dd41771e05094ae14", "type": "electric_scooter", "is_disabled": 0, "lat": 38.913298, "rental_uris": {"android": "https://dc.lft.to/lastmile_qr_scan", "ios": "https://dc.lft.to/lastmile_qr_scan"}, "bike_id": "b54878a42f3e090dd41771e05094ae14", "lon": -77.04822966666667}, {"is_reserved": 0, "fusion_lon": 0.0, "fusion_lat": 0.0, "name": "76260868accb58c6ad804c8b6d5c3452", "type": "electric_scooter", "is_disabled": 0, "lat": 38.902007833333336, "rental_uris": {"android": "https://dc.lft.to/lastmile_qr_scan", "ios": "https://dc.lft.to/lastmile_qr_scan"}, "bike_id": "76260868accb58c6ad804c8b6d5c3452", "lon": -77.02176383333334}, {"is_reserved": 0, "fusion_lon": 0.0, "fusion_lat": 0.0, "name": "fdd272fc06225420e7e6385da14a966b", "type": "electric_scooter", "is_disabled": 0, "lat": 38.90177466666667, "rental_uris": {"android": "https://dc.lft.to/lastmile_qr_scan", "ios": "https://dc.lft.to/lastmile_qr_scan"}, "bike_id": "fdd272fc06225420e7e6385da14a966b", "lon": -77.050973}, {"is_reserved": 0, "fusion_lon": 0.0, "fusion_lat": 0.0, "name": "b84707e20024928c0250b9e68f99bc94", "type": "electric_scooter", "is_disabled": 0, "lat": 38.889912833333334, "rental_uris": {"android": "https://dc.lft.to/lastmile_qr_scan", "ios": "https://dc.lft.to/lastmile_qr_scan"}, "bike_id": "b84707e20024928c0250b9e68f99bc94", "lon": -76.9311195}, {"is_reserved": 0, "fusion_lon": 0.0, "fusion_lat": 0.0, "name": "31fc7227a7903a606ccadffe97d3019e", "type": "electric_scooter", "is_disabled": 0, "lat": 38.908946666666665, "rental_uris": {"android": "https://dc.lft.to/lastmile_qr_scan", "ios": "https://dc.lft.to/lastmile_qr_scan"}, "bike_id": "31fc7227a7903a606ccadffe97d3019e", "lon": -77.07317816666666}, {"is_reserved": 0, "fusion_lon": 0.0, "fusion_lat": 0.0, "name": "eabab15e2c1537bb375214ba7d50b455", "type": "electric_scooter", "is_disabled": 0, "lat": 38.91694966666667, "rental_uris": {"android": "https://dc.lft.to/lastmile_qr_scan", "ios": "https://dc.lft.to/lastmile_qr_scan"}, "bike_id": "eabab15e2c1537bb375214ba7d50b455", "lon": -77.03215466666667}, {"is_reserved": 0, "fusion_lon": 0.0, "fusion_lat": 0.0, "name": "ceb175b3358c5c91e6d6c6a1acdcfb26", "type": "electric_scooter", "is_disabled": 0, "lat": 38.892239833333335, "rental_uris": {"android": "https://dc.lft.to/lastmile_qr_scan", "ios": "https://dc.lft.to/lastmile_qr_scan"}, "bike_id": "ceb175b3358c5c91e6d6c6a1acdcfb26", "lon": -77.04374616666666}, {"is_reserved": 0, "fusion_lon": 0.0, "fusion_lat": 0.0, "name": "1f9535ea36db4c69ca90cc087eeecb02", "type": "electric_scooter", "is_disabled": 0, "lat": 38.9030935, "rental_uris": {"android": "https://dc.lft.to/lastmile_qr_scan", "ios": "https://dc.lft.to/lastmile_qr_scan"}, "bike_id": "1f9535ea36db4c69ca90cc087eeecb02", "lon": -77.0504725}, {"is_reserved": 0, "fusion_lon": 0.0, "fusion_lat": 0.0, "name": "83a58d80dbc8bde2bfa8866cf69f88bd", "type": "electric_scooter", "is_disabled": 0, "lat": 38.94528483333333, "rental_uris": {"android": "https://dc.lft.to/lastmile_qr_scan", "ios": "https://dc.lft.to/lastmile_qr_scan"}, "bike_id": "83a58d80dbc8bde2bfa8866cf69f88bd", "lon": -77.0209375}, {"is_reserved": 0, "fusion_lon": 0.0, "fusion_lat": 0.0, "name": "d0be3d263780c4978f7b9f07834297f1", "type": "electric_scooter", "is_disabled": 0, "lat": 38.906038, "rental_uris": {"android": "https://dc.lft.to/lastmile_qr_scan", "ios": "https://dc.lft.to/lastmile_qr_scan"}, "bike_id": "d0be3d263780c4978f7b9f07834297f1", "lon": -76.98518733333333}, {"is_reserved": 0, "fusion_lon": 0.0, "fusion_lat": 0.0, "name": "d5c07880b0f278641fb17b0528ee5366", "type": "electric_scooter", "is_disabled": 0, "lat": 38.915751, "rental_uris": {"android": "https://dc.lft.to/lastmile_qr_scan", "ios": "https://dc.lft.to/lastmile_qr_scan"}, "bike_id": "d5c07880b0f278641fb17b0528ee5366", "lon": -77.03189266666666}, {"is_reserved": 0, "fusion_lon": 0.0, "fusion_lat": 0.0, "name": "5dc2053af290b7c0988c28021acfa9e8", "type": "electric_scooter", "is_disabled": 0, "lat": 38.91802116666667, "rental_uris": {"android": "https://dc.lft.to/lastmile_qr_scan", "ios": "https://dc.lft.to/lastmile_qr_scan"},