{"data": {"bikes": [{"is_reserved": 0, "fusion_lon": 0.0, "fusion_lat": 0.0, "name": "960837345a81a218bbc7709192bf094d", "type": "electric_scooter", "is_disabled": 0, "lat": 38.904857666666665, "rental_uris": {"android": "https://dc.lft.to/lastmile_qr_scan", "ios": "https://dc.lft.to/lastmile_qr_scan"}, "bike_id": "960837345a81a218bbc7709192bf094d", "lon": -76.98228483333334}, {"is_reserved": 0, "fusion_lon": 0.0, "fusion_lat": 0.0, "name": "1c8ba10b2af23a49d8d60989bfbdfbdc", "type": "electric_scooter", "is_disabled": 0, "lat": 38.928608833333335, "rental_uris": {"android": "https://dc.lft.to/lastmile_qr_scan", "ios": "https://dc.lft.to/lastmile_qr_scan"}, "bike_id": "1c8ba10b2af23a49d8d60989bfbdfbdc", "lon": -77.0332535}, {"is_reserved": 0, "fusion_lon": 0.0, "fusion_lat": 0.0, "name": "c42c041732a2371ebdb88723916d8e2b", "type": "electric_scooter", "is_disabled": 0, "lat": 38.922278166666665, "rental_uris": {"android": "https://dc.lft.to/lastmile_qr_scan", "ios": "https://dc.lft.to/lastmile_qr_scan"}, "bike_id": "c42c041732a2371ebdb88723916d8e2b", "lon": -77.04486466666667}, {"is_reserved": 0, "fusion_lon": 0.0, "fusion_lat": 0.0, "name": "791724c5f090a179045d72d0e244f619", "type": "electric_scooter", "is_disabled": 0, "lat": 38.919217333333336, "rental_uris": {"android": "https://dc.lft.to/lastmile_qr_scan", "ios": "https://dc.lft.to/lastmile_qr_scan"}, "bike_id": "791724c5f090a179045d72d0e244f619", "lon": -77.078931}, {"is_reserved": 0, "fusion_lon": 0.0, "fusion_lat": 0.0, "name": "7e7459533a10d95626792d632384cb46", "type": "electric_bike", "is_disabled": 0, "lat": 38.87425733333333, "rental_uris": {"android": "https://dc.lft.to/lastmile_qr_scan", "ios": "https://dc.lft.to/lastmile_qr_scan"}, "bike_id": "7e7459533a10d95626792d632384cb46", "lon": -77.108245}, {"is_reserved": 0, "fusion_lon": 0.0, "fusion_lat": 0.0, "name": "ae74748ec38a7ad717cbd7371b131816", "type": "electric_scooter", "is_disabled": 0, "lat": 38.91791083333333, "rental_uris": {"android": "https://dc.lft.to/lastmile_qr_scan", "ios": "https://dc.lft.to/lastmile_qr_scan"}, "bike_id": "ae74748ec38a7ad717cbd7371b131816", "lon": -77.034388}, {"is_reserved": 0, "fusion_lon": 0.0, "fusion_lat": 0.0, "name": "649a5c2de409065525918bcce0d02cbc", "type": "electric_scooter", "is_disabled": 0, "lat": 38.900155833333336, "rental_uris": {"android": "https://dc.lft.to/lastmile_qr_scan", "ios": "https://dc.lft.to/lastmile_qr_scan"}, "bike_id": "649a5c2de409065525918bcce0d02cbc", "lon": -77.03295433333334}, {"is_reserved": 0, "fusion_lon": 0.0, "fusion_lat": 0.0, "name": "afa902a18e2f077a482bf8834d6baf43", "type": "electric_scooter", "is_disabled": 0, "lat": 38.883629, "rental_uris": {"android": "https://dc.lft.to/lastmile_qr_scan", "ios": "https://dc.lft.to/lastmile_qr_scan"}, "bike_id": "afa902a18e2f077a482bf8834d6baf43", "lon": -76.94156283333334}, {"is_reserved": 0, "fusion_lon": 0.0, "fusion_lat": 0.0, "name": "d67c6a2e691266f299f056bc7ed150d8", "type": "electric_scooter", "is_disabled": 0, "lat": 38.91269533333333, "rental_uris": {"android": "https://dc.lft.to/lastmile_qr_scan", "ios": "https://dc.lft.to/lastmile_qr_scan"}, "bike_id": "d67c6a2e691266f299f056bc7ed150d8", "lon": -77.0225255}, {"is_reserved": 0, "fusion_lon": 0.0, "fusion_lat": 0.0, "name": "fb94a4ec3c0137671079819435720a04", "type": "electric_bike", "is_disabled": 0, "lat": 38.911317333333336, "rental_uris": {"android": "https://dc.lft.to/lastmile_qr_scan", "ios": "https://dc.lft.to/lastmile_qr_scan"}, "bike_id": "fb94a4ec3c0137671079819435720a04", "lon": -77.0861505}, {"is_reserved": 0, "fusion_lon": 0.0, "fusion_lat": 0.0, "name": "a999623450bcde8182676a519dbd8f38", "type": "electric_scooter", "is_disabled": 0, "lat": 38.89221783333333, "rental_uris": {"android": "https://dc.lft.to/lastmile_qr_scan", "ios": "https://dc.lft.to/lastmile_qr_scan"}, "bike_id": "a999623450bcde8182676a519dbd8f38", "lon": -76.99256316666667}, {"is_reserved": 0, "fusion_lon": 0.0, "fusion_lat": 0.0, "name": "d2f9f06fd80b1d33357970f5ec17899f", "type": "electric_scooter", "is_disabled": 0, "lat": 38.9036875, "rental_uris": {"android": "https://dc.lft.to/lastmile_qr_scan", "ios": "https://dc.lft.to/lastmile_qr_scan"}, "bike_id": "d2f9f06fd80b1d33357970f5ec17899f", "lon": -77.00989816666667}, {"is_reserved": 0, "fusion_lon": 0.0, "fusion_lat": 0.0, "name": "0796d01c0d941a18aa04a32d7c8f0690", "type": "electric_scooter", "is_disabled": 0, "lat": 38.92072116666667, "rental_uris": {"android": "https://dc.lft.to/lastmile_qr_scan", "ios": "https://dc.lft.to/lastmile_qr_scan"}, "bike_id": "0796d01c0d941a18aa04a32d7c8f0690", "lon": -77.04104916666667}, {"is_reserved": 0, "fusion_lon": 0.0, "fusion_lat": 0.0, "name": "21189709f9507c255582b8532d1587c4", "type": "electric_scooter", "is_disabled": 0, "lat": 38.90122866666667, "rental_uris": {"android": "https://dc.lft.to/lastmile_qr_scan", "ios": "https://dc.lft.to/lastmile_qr_scan"}, "bike_id": "21189709f9507c255582b8532d1587c4", "lon": -77.04990516666666}, {"is_reserved": 0, "fusion_lon": 0.0, "fusion_lat": 0.0, "name": "77df6715ce2e647a8a56d0ff2f20826b", "type": "electric_scooter", "is_disabled": 0, "lat": 38.90034966666666, "rental_uris": {"android": "https://dc.lft.to/lastmile_qr_scan", "ios": "https://dc.lft.to/lastmile_qr_scan"}, "bike_id": "77df6715ce2e647a8a56d0ff2f20826b", "lon": -76.9963465}, {"is_reserved": 0, "fusion_lon": 0.0, "fusion_lat": 0.0, "name": "5dab2d0ee829208633c44175da9028a2", "type": "electric_scooter", "is_disabled": 0, "lat": 38.87985483333333, "rental_uris": {"android": "https://dc.lft.to/lastmile_qr_scan", "ios": "https://dc.lft.to/lastmile_qr_scan"}, "bike_id": "5dab2d0ee829208633c44175da9028a2", "lon": -77.01536383333334}, {"is_reserved": 0, "fusion_lon": 0.0, "fusion_lat": 0.0, "name": "34c974550f1683abb227bf2ae9117984", "type": "electric_scooter", "is_disabled": 0, "lat": 38.909474, "rental_uris": {"android": "https://dc.lft.to/lastmile_qr_scan", "ios": "https://dc.lft.to/lastmile_qr_scan"}, "bike_id": "34c974550f1683abb227bf2ae9117984", "lon": -77.04576266666666}, {"is_reserved": 0, "fusion_lon": 0.0, "fusion_lat": 0.0, "name": "bd522850f754140e783865c7c2418c33", "type": "electric_bike", "is_disabled": 0, "lat": 38.82788733333334, "rental_uris": {"android": "https://dc.lft.to/lastmile_qr_scan", "ios": "https://dc.lft.to/lastmile_qr_scan"}, "bike_id": "bd522850f754140e783865c7c2418c33", "lon": -77.0091865}, {"is_reserved": 0, "fusion_lon": 0.0, "fusion_lat": 0.0, "name": "3bdaa5343ad6ebf424adf984592b40fc", "type": "electric_scooter", "is_disabled": 0, "lat": 38.90565333333333, "rental_uris": {"android": "https://dc.lft.to/lastmile_qr_scan", "ios": "https://dc.lft.to/lastmile_qr_scan"}, "bike_id": "3bdaa5343ad6ebf424adf984592b40fc", "lon": -77.00576966666667}, {"is_reserved": 0, "fusion_lon": 0.0, "fusion_lat": 0.0, "name": "e339e5b5960c5a59eb384dd019a53c96", "type": "electric_scooter", "is_disabled": 0, "lat": 38.90506033333333, "rental_uris": {"android": "https://dc.lft.to/lastmile_qr_scan", "ios": "https://dc.lft.to/lastmile_qr_scan"}, "bike_id": "e339e5b5960c5a59eb384dd019a53c96", "lon": -76.98484666666667}, {"is_reserved": 0, "fusion_lon": 0.0, "fusion_lat": 0.0, "name": "e03560b8411a7a0b80b54bf086137cff", "type": "electric_scooter", "is_disabled": 0, "lat": 38.90272016666667, "rental_uris": {"android": "https://dc.lft.to/lastmile_qr_scan", "ios": "https://dc.lft.to/lastmile_qr_scan"}, "bike_id": "e03560b8411a7a0b80b54bf086137cff", "lon": -76.98991066666666}, {"is_reserved": 0, "fusion_lon": 0.0, "fusion_lat": 0.0, "name": "8d7558f8f808d7bc5fd16db22cbf936f", "type": "electric_scooter", "is_disabled": 0, "lat": 38.918744833333335, "rental_uris": {"android": "https://dc.lft.to/lastmile_qr_scan", "ios": "https://dc.lft.to/lastmile_qr_scan"}, "bike_id": "8d7558f8f808d7bc5fd16db22cbf936f", "lon": -77.03508216666667}, {"is_reserved": 0, "fusion_lon": 0.0, "fusion_lat": 0.0, "name": "2966045bbf112ae1d6cdd725437e0c3b", "type": "electric_scooter", "is_disabled": 0, "lat": 38.90741083333333, "rental_uris": {"android": "https://dc.lft.to/lastmile_qr_scan", "ios": "https://dc.lft.to/lastmile_qr_scan"}, "bike_id": "2966045bbf112ae1d6cdd725437e0c3b", "lon": -77.04195633333333}, {"is_reserved": 0, "fusion_lon": 0.0, "fusion_lat": 0.0, "name": "e5e7643a87a2fd33ec7061427ef127be", "type": "electric_scooter", "is_disabled": 0, "lat": 38.911894833333335, "rental_uris": {"android": "https://dc.lft.to/lastmile_qr_scan", "ios": "https://dc.lft.to/lastmile_qr_scan"}, "bike_id": "e5e7643a87a2fd33ec7061427ef127be", "lon": -77.0383585}, {"is_reserved": 0, "fusion_lon": 0.0, "fusion_lat": 0.0, "name": "6141156cabb82ec7073427a6b9319f90", "type": "electric_scooter", "is_disabled": 0, "lat": 38.91343, "rental_uris": {"android": "https://dc.lft.to/lastmile_qr_scan", "ios": "https://dc.lft.to/lastmile_qr_scan"}, "bike_id": "6141156cabb82ec7073427a6b9319f90", "lon": -77.03965216666667}, {"is_reserved": 0, "fusion_lon": 0.0, "fusion_lat": 0.0, "name": "f5b6d7e4c1a012ae6b8c813c64e741dc", "type": "electric_scooter", "is_disabled": 0, "lat": 38.9126665, "rental_uris": {"android": "https://dc.lft.to/lastmile_qr_scan", "ios": "https://dc.lft.to/lastmile_qr_scan"}, "bike_id": "f5b6d7e4c1a012ae6b8c813c64e741dc", "lon": -77.028705}, {"is_reserved": 0, "fusion_lon": 0.0, "fusion_lat": 0.0, "name": "89ceca5982c112552fe9b343f5736aa5", "type": "electric_bike", "is_disabled": 0, "lat": 38.96741466666667, "rental_uris": {"android": "https://dc.lft.to/lastmile_qr_scan", "ios": "https://dc.lft.to/lastmile_qr_scan"}, "bike_id": "89ceca5982c112552fe9b343f5736aa5", "lon": -76.981924}, {"is_reserved": 0, "fusion_lon": 0.0, "fusion_lat": 0.0, "name": "c657993062fe58c1b4f2e78309814417", "type": "electric_scooter", "is_disabled": 0, "lat": 38.9155905, "rental_uris": {"android": "https://dc.lft.to/lastmile_qr_scan", "ios": "https://dc.lft.to/lastmile_qr_scan"}, "bike_id": "c657993062fe58c1b4f2e78309814417", "lon": -77.04102416666667}, {"is_reserved": 0, "fusion_lon": 0.0, "fusion_lat": 0.0, "name": "b532ba77ef7454ff2dd5043f80ad6851", "type": "electric_scooter", "is_disabled": 0, "lat": 38.91797783333333, "rental_uris": {"android": "https://dc.lft.to/lastmile_qr_scan", "ios": "https://dc.lft.to/lastmile_qr_scan"}, "bike_id": "b532ba77ef7454ff2dd5043f80ad6851", "lon": -77.04020083333333}, {"is_reserved": 0, "fusion_lon": 0.0, "fusion_lat": 0.0, "name": "295768c134b72d26802fba1dafdb6952", "type": "electric_scooter", "is_disabled": 0, "lat": 38.911905833333336, "rental_uris": {"android": "https://dc.lft.to/lastmile_qr_scan", "ios": "https://dc.lft.to/lastmile_qr_scan"}, "bike_id": "295768c134b72d26802fba1dafdb6952", "lon": -77.03837216666666}, {"is_reserved": 0, "fusion_lon": 0.0, "fusion_lat": 0.0, "name": "132b03256d4923eb46e63055eeea1645", "type": "electric_scooter", "is_disabled": 0, "lat": 38.927437166666664, "rental_uris": {"android": "https://dc.lft.to/lastmile_qr_scan", "ios": "https://dc.lft.to/lastmile_qr_scan"}, "bike_id": "132b03256d4923eb46e63055eeea1645", "lon": -77.032684}, {"is_reserved": 0, "fusion_lon": 0.0, "fusion_lat": 0.0, "name": "ad59aa0ecebca5647edd3a6d8bf9c9fa", "type": "electric_bike", "is_disabled": 0, "lat": 39.014765, "rental_uris": {"android": "https://dc.lft.to/lastmile_qr_scan", "ios": "https://dc.lft.to/lastmile_qr_scan"}, "bike_id": "ad59aa0ecebca5647edd3a6d8bf9c9fa", "lon": -77.054967}, {"is_reserved": 0, "fusion_lon": 0.0, "fusion_lat": 0.0, "name": "3b0376e95f3902fb3e3cd1cbb0b5cb3f", "type": "electric_scooter", "is_disabled": 0, "lat": 38.902655833333334, "rental_uris": {"android": "https://dc.lft.to/lastmile_qr_scan", "ios": "https://dc.lft.to/lastmile_qr_scan"}, "bike_id": "3b0376e95f3902fb3e3cd1cbb0b5cb3f", "lon": -77.01777066666666}, {"is_reserved": 0, "fusion_lon": 0.0, "fusion_lat": 0.0, "name": "10587bef1f8f3e918835ea185c9c7364", "type": "electric_scooter", "is_disabled": 0, "lat": 38.881217666666664, "rental_uris": {"android": "https://dc.lft.to/lastmile_qr_scan", "ios": "https://dc.lft.to/lastmile_qr_scan"}, "bike_id": "10587bef1f8f3e918835ea185c9c7364", "lon": -77.0007715}, {"is_reserved": 0, "fusion_lon": 0.0, "fusion_lat": 0.0, "name": "c36265ab654bb6d59e6db673da588d97", "type": "electric_scooter", "is_disabled": 0, "lat": 38.92664583333333, "rental_uris": {"android": "https://dc.lft.to/lastmile_qr_scan", "ios": "https://dc.lft.to/lastmile_qr_scan"}, "bike_id": "c36265ab654bb6d59e6db673da588d97", "lon": -77.00871633333334}, {"is_reserved": 0, "fusion_lon": 0.0, "fusion_lat": 0.0, "name": "64a6547ae9370c445376eb54053a10cf", "type": "electric_bike", "is_disabled": 0, "lat": 39.0343125, "rental_uris": {"android": "https://dc.lft.to/lastmile_qr_scan", "ios": "https://dc.lft.to/lastmile_qr_scan"}, "bike_id": "64a6547ae9370c445376eb54053a10cf", "lon": -77.0409005}, {"is_reserved": 0, "fusion_lon": 0.0, "fusion_lat": 0.0, "name": "374604443f0376180cb4a20c95dbe130", "type": "electric_scooter", "is_disabled": 0, "lat": 38.929698333333334, "rental_uris": {"android": "https://dc.lft.to/lastmile_qr_scan", "ios": "https://dc.lft.to/lastmile_qr_scan"}, "bike_id": "374604443f0376180cb4a20c95dbe130", "lon": -77.02759166666667}, {"is_reserved": 0, "fusion_lon": 0.0, "fusion_lat": 0.0, "name": "726e8d316cca53584ca7d850fe241d06", "type": "electric_bike", "is_disabled": 0, "lat": 38.88335083333333, "rental_uris": {"android": "https://dc.lft.to/lastmile_qr_scan", "ios": "https://dc.lft.to/lastmile_qr_scan"}, "bike_id": "726e8d316cca53584ca7d850fe241d06", "lon": -77.06569416666666}, {"is_reserved": 0, "fusion_lon": 0.0, "fusion_lat": 0.0, "name": "7d01f8791130163a227034c9423f3bd9", "type": "electric_scooter", "is_disabled": 0, "lat": 38.909523, "rental_uris": {"android": "https://dc.lft.to/lastmile_qr_scan", "ios": "https://dc.lft.to/lastmile_qr_scan"}, "bike_id": "7d01f8791130163a227034c9423f3bd9", "lon": -77.03424733333334}, {"is_reserved": 0, "fusion_lon": 0.0, "fusion_lat": 0.0, "name": "5187e3b1311058099d4fbd8658c5eab0", "type": "electric_bike", "is_disabled": 0, "lat": 39.0549845, "rental_uris": {"android": "https://dc.lft.to/lastmile_qr_scan", "ios": "https://dc.lft.to/lastmile_qr_scan"}, "bike_id": "5187e3b1311058099d4fbd8658c5eab0", "lon": -77.1178525}, {"is_reserved": 0, "fusion_lon": 0.0, "fusion_lat": 0.0, "name": "e3618a7fd51020f6664219437156269d", "type": "electric_scooter", "is_disabled": 0, "lat": 38.914507, "rental_uris": {"android": "https://dc.lft.to/lastmile_qr_scan", "ios": "https://dc.lft.to/lastmile_qr_scan"}, "bike_id": "e3618a7fd51020f6664219437156269d", "lon": -77.04536666666667}, {"is_reserved": 0, "fusion_lon": 0.0, "fusion_lat": 0.0, "name": "494ace87808a0fe2385c48c3779cfe75", "type": "electric_scooter", "is_disabled": 0, "lat": 38.92935216666667, "rental_uris": {"android": "https://dc.lft.to/lastmile_qr_scan", "ios": "https://dc.lft.to/lastmile_qr_scan"}, "bike_id": "494ace87808a0fe2385c48c3779cfe75", "lon": -77.03657716666666}, {"is_reserved": 0, "fusion_lon": 0.0, "fusion_lat": 0.0, "name": "8b16f1d2ef93f2eb935a30510ba4b964", "type": "electric_scooter", "is_disabled": 0, "lat": 38.892221166666666, "rental_uris": {"android": "https://dc.lft.to/lastmile_qr_scan", "ios": "https://dc.lft.to/lastmile_qr_scan"}, "bike_id": "8b16f1d2ef93f2eb935a30510ba4b964", "lon": -77.04308983333334}, {"is_reserved": 0, "fusion_lon": 0.0, "fusion_lat": 0.0, "name": "eae8df9c6c80718ada6b2e69e02fd846", "type": "electric_scooter", "is_disabled": 0, "lat": 38.9326895, "rental_uris": {"android": "https://dc.lft.to/lastmile_qr_scan", "ios": "https://dc.lft.to/lastmile_qr_scan"}, "bike_id": "eae8df9c6c80718ada6b2e69e02fd846", "lon": -77.0210175}, {"is_reserved": 0, "fusion_lon": 0.0, "fusion_lat": 0.0, "name": "b2514829aaa855a9a63af5d29f9e618b", "type": "electric_scooter", "is_disabled": 0, "lat": 38.95835316666667, "rental_uris": {"android": "https://dc.lft.to/lastmile_qr_scan", "ios": "https://dc.lft.to/lastmile_qr_scan"}, "bike_id": "b2514829aaa855a9a63af5d29f9e618b", "lon": -77.01513366666667}, {"is_reserved": 0, "fusion_lon": 0.0, "fusion_lat": 0.0, "name": "9544bc051fb88d985c61b0c5e620ac2a", "type": "electric_scooter", "is_disabled": 0, "lat": 38.92518, "rental_uris": {"android": "https://dc.lft.to/lastmile_qr_scan", "ios": "https://dc.lft.to/lastmile_qr_scan"}, "bike_id": "9544bc051fb88d985c61b0c5e620ac2a", "lon": -77.03836733333333}, {"is_reserved": 0, "fusion_lon": 0.0, "fusion_lat": 0.0, "name": "b9243a5fface90daaf0afb0807f640d3", "type": "electric_scooter", "is_disabled": 0, "lat": 38.876478166666665, "rental_uris": {"android": "https://dc.lft.to/lastmile_qr_scan", "ios": "https://dc.lft.to/lastmile_qr_scan"}, "bike_id": "b9243a5fface90daaf0afb0807f640d3", "lon": -76.965059}, {"is_reserved": 0, "fusion_lon": 0.0, "fusion_lat": 0.0, "name": "8fcff6ba23e1f5a6f91ddf3bce7ed7e0", "type": "electric_scooter", "is_disabled": 0, "lat": 38.91436366666667, "rental_uris": {"android": "https://dc.lft.to/lastmile_qr_scan", "ios": "https://dc.lft.to/lastmile_qr_scan"}, "bike_id": "8fcff6ba23e1f5a6f91ddf3bce7ed7e0", "lon": -77.0204205}, {"is_reserved": 0, "fusion_lon": 0.0, "fusion_lat": 0.0, "name": "285e3645add7531a26b2c3ec7f48e871", "type": "electric_scooter", "is_disabled": 0, "lat": 38.9199565, "rental_uris": {"android": "https://dc.lft.to/lastmile_qr_scan", "ios": "https://dc.lft.to/lastmile_qr_scan"}, "bike_id": "285e3645add7531a26b2c3ec7f48e871", "lon": -77.02872316666667}, {"is_reserved": 0, "fusion_lon": 0.0, "fusion_lat": 0.0, "name": "cc17c268446dc5005c8aefe8de299043", "type": "electric_bike", "is_disabled": 0, "lat": 38.95506016666667, "rental_uris": {"android": "https://dc.lft.to/lastmile_qr_scan", "ios": "https://dc.lft.to/lastmile_qr_scan"}, "bike_id": "cc17c268446dc5005c8aefe8de299043", "lon": -76.99360733333333}, {"is_reserved": 0, "fusion_lon": 0.0, "fusion_lat": 0.0, "name": "42ee69062d5fda7853fa83915258c6ac", "type": "electric_scooter", "is_disabled": 0, "lat": 38.913646666666665, "rental_uris": {"android": "https://dc.lft.to/lastmile_qr_scan", "ios": "https://dc.lft.to/lastmile_qr_scan"}, "bike_id": "42ee69062d5fda7853fa83915258c6ac", "lon": -77.02049383333333}, {"is_reserved": 0, "fusion_lon": 0.0, "fusion_lat": 0.0, "name": "176ccd2a32e5dfe25a33f1072b1d4639", "type": "electric_bike", "is_disabled": 0, "lat": 38.932356666666664, "rental_uris": {"android": "https://dc.lft.to/lastmile_qr_scan", "ios": "https://dc.lft.to/lastmile_qr_scan"}, "bike_id": "176ccd2a32e5dfe25a33f1072b1d4639", "lon": -76.9741935}, {"is_reserved": 0, "fusion_lon": 0.0, "fusion_lat": 0.0, "name": "e018fa2f349575429b55183ebdb58df9", "type": "electric_scooter", "is_disabled": 0, "lat": 38.869779, "rental_uris": {"android": "https://dc.lft.to/lastmile_qr_scan", "ios": "https://dc.lft.to/lastmile_qr_scan"}, "bike_id": "e018fa2f349575429b55183ebdb58df9", "lon": -77.01228566666667}, {"is_reserved": 0, "fusion_lon": 0.0, "fusion_lat": 0.0, "name": "3d980f77d32d7377a87a26a966b60b96", "type": "electric_bike", "is_disabled": 0, "lat": 39.04230316666667, "rental_uris": {"android": "https://dc.lft.to/lastmile_qr_scan", "ios": "https://dc.lft.to/lastmile_qr_scan"}, "bike_id": "3d980f77d32d7377a87a26a966b60b96", "lon": -77.03075616666666}, {"is_reserved": 0, "fusion_lon": 0.0, "fusion_lat": 0.0, "name": "7bb5e65bb7a7223d651b12213fb563fa", "type": "electric_scooter", "is_disabled": 0, "lat": 38.9309635, "rental_uris": {"android": "https://dc.lft.to/lastmile_qr_scan", "ios": "https://dc.lft.to/lastmile_qr_scan"}, "bike_id": "7bb5e65bb7a7223d651b12213fb563fa", "lon": -77.0279865}, {"is_reserved": 0, "fusion_lon": 0.0, "fusion_lat": 0.0, "name": "a7f3fb54e30a6688e8814d671a1692bc", "type": "electric_scooter", "is_disabled": 0, "lat": 38.94204833333333, "rental_uris": {"android": "https://dc.lft.to/lastmile_qr_scan", "ios": "https://dc.lft.to/lastmile_qr_scan"}, "bike_id": "a7f3fb54e30a6688e8814d671a1692bc", "lon": -77.02510083333334}, {"is_reserved": 0, "fusion_lon": 0.0, "fusion_lat": 0.0, "name": "3be217430d396c07a5b979d1c419039f", "type": "electric_scooter", "is_disabled": 0, "lat": 38.90814816666666, "rental_uris": {"android": "https://dc.lft.to/lastmile_qr_scan", "ios": "https://dc.lft.to/lastmile_qr_scan"}, "bike_id": "3be217430d396c07a5b979d1c419039f", "lon": -77.04348516666667}, {"is_reserved": 0, "fusion_lon": 0.0, "fusion_lat": 0.0, "name": "2825bbe9d97a4b63ec6c2796ca66422e", "type": "electric_scooter", "is_disabled": 0, "lat": 38.906286, "rental_uris": {"android": "https://dc.lft.to/lastmile_qr_scan", "ios": "https://dc.lft.to/lastmile_qr_scan"}, "bike_id": "2825bbe9d97a4b63ec6c2796ca66422e", "lon": -77.04771566666666}, {"is_reserved": 0, "fusion_lon": 0.0, "fusion_lat": 0.0, "name": "2f3f77b326f0c399c43ca250ff0d3b84", "type": "electric_scooter", "is_disabled": 0, "lat": 38.92231116666667, "rental_uris": {"android": "https://dc.lft.to/lastmile_qr_scan", "ios": "https://dc.lft.to/lastmile_qr_scan"}, "bike_id": "2f3f77b326f0c399c43ca250ff0d3b84", "lon": -77.02332683333333}, {"is_reserved": 0, "fusion_lon": 0.0, "fusion_lat": 0.0, "name": "6d2cdf46db29b86bc82f3dcc563b1f47", "type": "electric_scooter", "is_disabled": 0, "lat": 38.864151166666666, "rental_uris": {"android": "https://dc.lft.to/lastmile_qr_scan", "ios": "https://dc.lft.to/lastmile_qr_scan"}, "bike_id": "6d2cdf46db29b86bc82f3dcc563b1f47", "lon": -76.9743975}, {"is_reserved": 0, "fusion_lon": 0.0, "fusion_lat": 0.0, "name": "4ce0b411f11f6993c005e402e0f55a46", "type": "electric_scooter", "is_disabled": 0, "lat": 38.860677, "rental_uris": {"android": "https://dc.lft.to/lastmile_qr_scan", "ios": "https://dc.lft.to/lastmile_qr_scan"}, "bike_id": "4ce0b411f11f6993c005e402e0f55a46", "lon": -76.96889816666666}, {"is_reserved": 0, "fusion_lon": 0.0, "fusion_lat": 0.0, "name": "66c19922290302a2d27961c6f4cd1997", "type": "electric_scooter", "is_disabled": 0, "lat": 38.906694333333334, "rental_uris": {"android": "https://dc.lft.to/lastmile_qr_scan", "ios": "https://dc.lft.to/lastmile_qr_scan"}, "bike_id": "66c19922290302a2d27961c6f4cd1997", "lon": -77.038421}, {"is_reserved": 0, "fusion_lon": 0.0, "fusion_lat": 0.0, "name": "b4f82328e47cf3804ec0cf233e3e99e3", "type": "electric_scooter", "is_disabled": 0, "lat": 38.88779816666667, "rental_uris": {"android": "https://dc.lft.to/lastmile_qr_scan", "ios": "https://dc.lft.to/lastmile_qr_scan"}, "bike_id": "b4f82328e47cf3804ec0cf233e3e99e3", "lon": -76.9553135}, {"is_reserved": 0, "fusion_lon": 0.0, "fusion_lat": 0.0, "name": "9faa230993824e4fe0b6583dd39d7fd8", "type": "electric_scooter", "is_disabled": 0, "lat": 38.88752566666667, "rental_uris": {"android": "https://dc.lft.to/lastmile_qr_scan", "ios": "https://dc.lft.to/lastmile_qr_scan"}, "bike_id": "9faa230993824e4fe0b6583dd39d7fd8", "lon": -77.01541266666666}, {"is_reserved": 0, "fusion_lon": 0.0, "fusion_lat": 0.0, "name": "c65d502f01e0b40c27849ed5d4a9069f", "type": "electric_bike", "is_disabled": 0, "lat": 38.94783016666667, "rental_uris": {"android": "https://dc.lft.to/lastmile_qr_scan", "ios": "https://dc.lft.to/lastmile_qr_scan"}, "bike_id": "c65d502f01e0b40c27849ed5d4a9069f", "lon": -76.97217266666667}, {"is_reserved": 0, "fusion_lon": 0.0, "fusion_lat": 0.0, "name": "139ac67f2d8b284091bfe1a6fb62dd10", "type": "electric_scooter", "is_disabled": 0, "lat": 38.92996683333333, "rental_uris": {"android": "https://dc.lft.to/lastmile_qr_scan", "ios": "https://dc.lft.to/lastmile_qr_scan"}, "bike_id": "139ac67f2d8b284091bfe1a6fb62dd10", "lon": -77.04427666666666}, {"is_reserved": 0, "fusion_lon": 0.0, "fusion_lat": 0.0, "name": "65f605f81b7f120f7008bfbfddbc0fc2", "type": "electric_scooter", "is_disabled": 0, "lat": 38.90566066666667, "rental_uris": {"android": "https://dc.lft.to/lastmile_qr_scan", "ios": "https://dc.lft.to/lastmile_qr_scan"}, "bike_id": "65f605f81b7f120f7008bfbfddbc0fc2", "lon": -77.04474866666666}, {"is_reserved": 0, "fusion_lon": 0.0, "fusion_lat": 0.0, "name": "259f0b2823f53b1939377a8e8f07c9c2", "type": "electric_scooter", "is_disabled": 0, "lat": 38.883293333333334, "rental_uris": {"android": "https://dc.lft.to/lastmile_qr_scan", "ios": "https://dc.lft.to/lastmile_qr_scan"}, "bike_id": "259f0b2823f53b1939377a8e8f07c9c2", "lon": -77.02017283333333}, {"is_reserved": 0, "fusion_lon": 0.0, "fusion_lat": 0.0, "name": "562b1b7a4804090874e0444bd827ce94", "type": "electric_scooter", "is_disabled": 0, "lat": 38.92657166666667, "rental_uris": {"android": "https://dc.lft.to/lastmile_qr_scan", "ios": "https://dc.lft.to/lastmile_qr_scan"}, "bike_id": "562b1b7a4804090874e0444bd827ce94", "lon": -77.03727066666667}, {"is_reserved": 0, "fusion_lon": 0.0, "fusion_lat": 0.0, "name": "29e96a890a2b1a707e60ec0d5c933936", "type": "electric_bike", "is_disabled": 0, "lat": 39.024384, "rental_uris": {"android": "https://dc.lft.to/lastmile_qr_scan", "ios": "https://dc.lft.to/lastmile_qr_scan"}, "bike_id": "29e96a890a2b1a707e60ec0d5c933936", "lon": -77.13103366666667}, {"is_reserved": 0, "fusion_lon": 0.0, "fusion_lat": 0.0, "name": "45b1acc0e3dc1afbb776a6ce84b76f6b", "type": "electric_scooter", "is_disabled": 0, "lat": 38.892246, "rental_uris": {"android": "https://dc.lft.to/lastmile_qr_scan", "ios": "https://dc.lft.to/lastmile_qr_scan"}, "bike_id": "45b1acc0e3dc1afbb776a6ce84b76f6b", "lon": -77.04503216666667}, {"is_reserved": 0, "fusion_lon": 0.0, "fusion_lat": 0.0, "name": "edf5566014227a70e185166ed6d0c186", "type": "electric_scooter", "is_disabled": 0, "lat": 38.90138316666667, "rental_uris": {"android": "https://dc.lft.to/lastmile_qr_scan", "ios": "https://dc.lft.to/lastmile_qr_scan"}, "bike_id": "edf5566014227a70e185166ed6d0c186", "lon": -76.92982183333334}, {"is_reserved": 0, "fusion_lon": 0.0, "fusion_lat": 0.0, "name": "512432fd4f21892d2f9bb5fce6866c98", "type": "electric_scooter", "is_disabled": 0, "lat": 38.90803666666667, "rental_uris": {"android": "https://dc.lft.to/lastmile_qr_scan", "ios": "https://dc.lft.to/lastmile_qr_scan"}, "bike_id": "512432fd4f21892d2f9bb5fce6866c98", "lon": -76.98741633333333}, {"is_reserved": 0, "fusion_lon": 0.0, "fusion_lat": 0.0, "name": "238a7b1e8ce11ee57209f73ee7848109", "type": "electric_scooter", "is_disabled": 0, "lat": 38.903427, "rental_uris": {"android": "https://dc.lft.to/lastmile_qr_scan", "ios": "https://dc.lft.to/lastmile_qr_scan"}, "bike_id": "238a7b1e8ce11ee57209f73ee7848109", "lon": -77.04638933333334}, {"is_reserved": 0, "fusion_lon": 0.0, "fusion_lat": 0.0, "name": "d683a118298cbcb67c5c9a13a02bf9c6", "type": "electric_scooter", "is_disabled": 0, "lat": 38.915518166666665, "rental_uris": {"android": "https://dc.lft.to/lastmile_qr_scan", "ios": "https://dc.lft.to/lastmile_qr_scan"}, "bike_id": "d683a118298cbcb67c5c9a13a02bf9c6", "lon": -77.05319616666667}, {"is_reserved": 0, "fusion_lon": 0.0, "fusion_lat": 0.0, "name": "7c46b0f7c604c5b1f513027aed4f0260", "type": "electric_scooter", "is_disabled": 0, "lat": 38.927429833333335, "rental_uris": {"android": "https://dc.lft.to/lastmile_qr_scan", "ios": "https://dc.lft.to/lastmile_qr_scan"}, "bike_id": "7c46b0f7c604c5b1f513027aed4f0260", "lon": -77.032672}, {"is_reserved": 0, "fusion_lon": 0.0, "fusion_lat": 0.0, "name": "56a5af8e60cf1e467f30016a6d50d0fb", "type": "electric_scooter", "is_disabled": 0, "lat": 38.92340033333333, "rental_uris": {"android": "https://dc.lft.to/lastmile_qr_scan", "ios": "https://dc.lft.to/lastmile_qr_scan"}, "bike_id": "56a5af8e60cf1e467f30016a6d50d0fb", "lon": -77.050893}, {"is_reserved": 0, "fusion_lon": 0.0, "fusion_lat": 0.0, "name": "804e7f7e5f029e6fb253a5e6bd13e3ba", "type": "electric_bike", "is_disabled": 0, "lat": 38.9739115, "rental_uris": {"android": "https://dc.lft.to/lastmile_qr_scan", "ios": "https://dc.lft.to/lastmile_qr_scan"}, "bike_id": "804e7f7e5f029e6fb253a5e6bd13e3ba", "lon": -77.064558}, {"is_reserved": 0, "fusion_lon": 0.0, "fusion_lat": 0.0, "name": "fa9da06777793675221b49ed5216379d", "type": "electric_scooter", "is_disabled": 0, "lat": 38.936719833333335, "rental_uris": {"android": "https://dc.lft.to/lastmile_qr_scan", "ios": "https://dc.lft.to/lastmile_qr_scan"}, "bike_id": "fa9da06777793675221b49ed5216379d", "lon": -77.03635483333333}, {"is_reserved": 0, "fusion_lon": 0.0, "fusion_lat": 0.0, "name": "95f530a6da6daf0bd279b45a39f15216", "type": "electric_scooter", "is_disabled": 0, "lat": 38.8955035, "rental_uris": {"android": "https://dc.lft.to/lastmile_qr_scan", "ios": "https://dc.lft.to/lastmile_qr_scan"}, "bike_id": "95f530a6da6daf0bd279b45a39f15216", "lon": -76.94876416666666}, {"is_reserved": 0, "fusion_lon": 0.0, "fusion_lat": 0.0, "name": "21b7f10835fb4a15273ad76089563615", "type": "electric_scooter", "is_disabled": 0, "lat": 38.886008833333335, "rental_uris": {"android": "https://dc.lft.to/lastmile_qr_scan", "ios": "https://dc.lft.to/lastmile_qr_scan"}, "bike_id": "21b7f10835fb4a15273ad76089563615", "lon": -77.04512333333334}, {"is_reserved": 0, "fusion_lon": 0.0, "fusion_lat": 0.0, "name": "872ca3e5fa545972ac765ad7816d9b03", "type": "electric_scooter", "is_disabled": 0, "lat": 38.87779316666666, "rental_uris": {"android": "https://dc.lft.to/lastmile_qr_scan", "ios": "https://dc.lft.to/lastmile_qr_scan"}, "bike_id": "872ca3e5fa545972ac765ad7816d9b03", "lon": -77.00346433333333}, {"is_reserved": 0, "fusion_lon": 0.0, "fusion_lat": 0.0, "name": "0ff8bf25548a7e75cc4df5a5e53b0239", "type": "electric_scooter", "is_disabled": 0, "lat": 38.89222566666667, "rental_uris": {"android": "https://dc.lft.to/lastmile_qr_scan", "ios": "https://dc.lft.to/lastmile_qr_scan"}, "bike_id": "0ff8bf25548a7e75cc4df5a5e53b0239", "lon": -77.04332066666667}, {"is_reserved": 0, "fusion_lon": 0.0, "fusion_lat": 0.0, "name": "20844117c40feba5075702562bff49d9", "type": "electric_scooter", "is_disabled": 0, "lat": 38.90563916666667, "rental_uris": {"android": "https://dc.lft.to/lastmile_qr_scan", "ios": "https://dc.lft.to/lastmile_qr_scan"}, "bike_id": "20844117c40feba5075702562bff49d9", "lon": -77.00706983333333}, {"is_reserved": 0, "fusion_lon": 0.0, "fusion_lat": 0.0, "name": "48581d27a6cfd59a4ebea25db2491dbe", "type": "electric_scooter", "is_disabled": 0, "lat": 38.919925166666665, "rental_uris": {"android": "https://dc.lft.to/lastmile_qr_scan", "ios": "https://dc.lft.to/lastmile_qr_scan"}, "bike_id": "48581d27a6cfd59a4ebea25db2491dbe", "lon": -77.03242}, {"is_reserved": 0, "fusion_lon": 0.0, "fusion_lat": 0.0, "name": "813288d526fbe68a790e7c2c29d13ba2", "type": "electric_bike", "is_disabled": 0, "lat": 38.94927, "rental_uris": {"android": "https://dc.lft.to/lastmile_qr_scan", "ios": "https://dc.lft.to/lastmile_qr_scan"}, "bike_id": "813288d526fbe68a790e7c2c29d13ba2", "lon": -77.0079845}, {"is_reserved": 0, "fusion_lon": 0.0, "fusion_lat": 0.0, "name": "62585eb05eeb090cdce7559dfc28c56e", "type": "electric_scooter", "is_disabled": 0, "lat": 38.901089666666664, "rental_uris": {"android": "https://dc.lft.to/lastmile_qr_scan", "ios": "https://dc.lft.to/lastmile_qr_scan"}, "bike_id": "62585eb05eeb090cdce7559dfc28c56e", "lon": -77.04355683333333}, {"is_reserved": 0, "fusion_lon": 0.0, "fusion_lat": 0.0, "name": "f7f8a12c64e837669e52cb71f67cbba8", "type": "electric_scooter", "is_disabled": 0, "lat": 38.90645466666667, "rental_uris": {"android": "https://dc.lft.to/lastmile_qr_scan", "ios": "https://dc.lft.to/lastmile_qr_scan"}, "bike_id": "f7f8a12c64e837669e52cb71f67cbba8", "lon": -77.02695183333333}, {"is_reserved": 0, "fusion_lon": 0.0, "fusion_lat": 0.0, "name": "9ed60ef3a3f20cf001d9b38fe40e76e9", "type": "electric_scooter", "is_disabled": 0, "lat": 38.91065716666667, "rental_uris": {"android": "https://dc.lft.to/lastmile_qr_scan", "ios": "https://dc.lft.to/lastmile_qr_scan"}, "bike_id": "9ed60ef3a3f20cf001d9b38fe40e76e9", "lon": -77.042547}, {"is_reserved": 0, "fusion_lon": 0.0, "fusion_lat": 0.0, "name": "8558aaae2379f3f3332842c649f7acf9", "type": "electric_scooter", "is_disabled": 0, "lat": 38.9088805, "rental_uris": {"android": "https://dc.lft.to/lastmile_qr_scan", "ios": "https://dc.lft.to/lastmile_qr_scan"}, "bike_id": "8558aaae2379f3f3332842c649f7acf9", "lon": -77.04567983333334}, {"is_reserved": 0, "fusion_lon": 0.0, "fusion_lat": 0.0, "name": "2b2063f237d809a51da3a19e7f1e3960", "type": "electric_scooter", "is_disabled": 0, "lat": 38.908593333333336, "rental_uris": {"android": "https://dc.lft.to/lastmile_qr_scan", "ios": "https://dc.lft.to/lastmile_qr_scan"}, "bike_id": "2b2063f237d809a51da3a19e7f1e3960", "lon": -77.04284083333333}, {"is_reserved": 0, "fusion_lon": 0.0, "fusion_lat": 0.0, "name": "f8aa2b0757dcd48fd0a985b224833f1b", "type": "electric_scooter", "is_disabled": 0, "lat": 38.911122166666665, "rental_uris": {"android": "https://dc.lft.to/lastmile_qr_scan", "ios": "https://dc.lft.to/lastmile_qr_scan"}, "bike_id": "f8aa2b0757dcd48fd0a985b224833f1b", "lon": -77.04323316666667}, {"is_reserved": 0, "fusion_lon": 0.0, "fusion_lat": 0.0, "name": "f0bb840380d46a154e5f53d6cc3d3d72", "type": "electric_scooter", "is_disabled": 0, "lat": 38.908657833333336, "rental_uris": {"android": "https://dc.lft.to/lastmile_qr_scan", "ios": "https://dc.lft.to/lastmile_qr_scan"}, "bike_id": "f0bb840380d46a154e5f53d6cc3d3d72", "lon": -77.07100966666667}, {"is_reserved": 0, "fusion_lon": 0.0, "fusion_lat": 0.0, "name": "d1517badccf429078c757c04769d1b82", "type": "electric_scooter", "is_disabled": 0, "lat": 38.87685966666667, "rental_uris": {"android": "https://dc.lft.to/lastmile_qr_scan", "ios": "https://dc.lft.to/lastmile_qr_scan"}, "bike_id": "d1517badccf429078c757c04769d1b82", "lon": -77.01791883333334}, {"is_reserved": 0, "fusion_lon": 0.0, "fusion_lat": 0.0, "name": "fe966041854c33655618f044a57e9a84", "type": "electric_scooter", "is_disabled": 0, "lat": 38.880531166666664, "rental_uris": {"android": "https://dc.lft.to/lastmile_qr_scan", "ios": "https://dc.lft.to/lastmile_qr_scan"}, "bike_id": "fe966041854c33655618f044a57e9a84", "lon": -76.93221116666666}, {"is_reserved": 0, "fusion_lon": 0.0, "fusion_lat": 0.0, "name": "1831ec6aaf8c5c0969adcff6a847f3e9", "type": "electric_scooter", "is_disabled": 0, "lat": 38.90794416666667, "rental_uris": {"android": "https://dc.lft.to/lastmile_qr_scan", "ios": "https://dc.lft.to/lastmile_qr_scan"}, "bike_id": "1831ec6aaf8c5c0969adcff6a847f3e9", "lon": -77.0382055}, {"is_reserved": 0, "fusion_lon": 0.0, "fusion_lat": 0.0, "name": "04800042bbd08e44c0f334608cf7bb69", "type": "electric_scooter", "is_disabled": 0, "lat": 38.952026000000004, "rental_uris": {"android": "https://dc.lft.to/lastmile_qr_scan", "ios": "https://dc.lft.to/lastmile_qr_scan"}, "bike_id": "04800042bbd08e44c0f334608cf7bb69", "lon": -77.02738583333333}, {"is_reserved": 0, "fusion_lon": 0.0, "fusion_lat": 0.0, "name": "af668c28cb4c03e8c42b24462b0aac3b", "type": "electric_scooter", "is_disabled": 0, "lat": 38.875492, "rental_uris": {"android": "https://dc.lft.to/lastmile_qr_scan", "ios": "https://dc.lft.to/lastmile_qr_scan"}, "bike_id": "af668c28cb4c03e8c42b24462b0aac3b", "lon": -77.0061905}, {"is_reserved": 0, "fusion_lon": 0.0, "fusion_lat": 0.0, "name": "6172a4ed2170c5911acc6287ddebd396", "type": "electric_scooter", "is_disabled": 0, "lat": 38.907302333333334, "rental_uris": {"android": "https://dc.lft.to/lastmile_qr_scan", "ios": "https://dc.lft.to/lastmile_qr_scan"}, "bike_id": "6172a4ed2170c5911acc6287ddebd396", "lon": -77.048173}, {"is_reserved": 0, "fusion_lon": 0.0, "fusion_lat": 0.0, "name": "607a46f5f726168c8bcb77830c1bd6d2", "type": "electric_scooter", "is_disabled": 0, "lat": 38.9178465, "rental_uris": {"android": "https://dc.lft.to/lastmile_qr_scan", "ios": "https://dc.lft.to/lastmile_qr_scan"}, "bike_id": "607a46f5f726168c8bcb77830c1bd6d2", "lon": -77.03179316666667}, {"is_reserved": 0, "fusion_lon": 0.0, "fusion_lat": 0.0, "name": "0d621152c932112a64eff638ff666937", "type": "electric_scooter", "is_disabled": 0, "lat": 38.90128216666667, "rental_uris": {"android": "https://dc.lft.to/lastmile_qr_scan", "ios": "https://dc.lft.to/lastmile_qr_scan"}, "bike_id": "0d621152c932112a64eff638ff666937", "lon": -77.04044216666667}, {"is_reserved": 0, "fusion_lon": 0.0, "fusion_lat": 0.0, "name": "d0aa2e876985873c91bdf45c607e2a63", "type": "electric_scooter", "is_disabled": 0, "lat": 38.90346566666667, "rental_uris": {"android": "https://dc.lft.to/lastmile_qr_scan", "ios": "https://dc.lft.to/lastmile_qr_scan"}, "bike_id": "d0aa2e876985873c91bdf45c607e2a63", "lon": -77.0056945}, {"is_reserved": 0, "fusion_lon": 0.0, "fusion_lat": 0.0, "name": "397708b83acfef5f5fd85cdfc3a54073", "type": "electric_scooter", "is_disabled": 0, "lat": 38.9138535, "rental_uris": {"android": "https://dc.lft.to/lastmile_qr_scan", "ios": "https://dc.lft.to/lastmile_qr_scan"}, "bike_id": "397708b83acfef5f5fd85cdfc3a54073", "lon": -77.01703233333333}, {"is_reserved": 0, "fusion_lon": 0.0, "fusion_lat": 0.0, "name": "5391ed0062ba07f9c8af2ef9538a58dc", "type": "electric_scooter", "is_disabled": 0, "lat": 38.89012816666666, "rental_uris": {"android": "https://dc.lft.to/lastmile_qr_scan", "ios": "https://dc.lft.to/lastmile_qr_scan"}, "bike_id": "5391ed0062ba07f9c8af2ef9538a58dc", "lon": -76.93732366666667}, {"is_reserved": 0, "fusion_lon": 0.0, "fusion_lat": 0.0, "name": "1f73c57d71b1644c296fd421f5ba91ef", "type": "electric_scooter", "is_disabled": 0, "lat": 38.90976233333333, "rental_uris": {"android": "https://dc.lft.to/lastmile_qr_scan", "ios": "https://dc.lft.to/lastmile_qr_scan"}, "bike_id": "1f73c57d71b1644c296fd421f5ba91ef", "lon": -77.03858916666667}, {"is_reserved": 0, "fusion_lon": 0.0, "fusion_lat": 0.0, "name": "782fcd2b1e3f7d9feb0fe4c9bd824473", "type": "electric_scooter", "is_disabled": 0, "lat": 38.918531333333334, "rental_uris": {"android": "https://dc.lft.to/lastmile_qr_scan", "ios": "https://dc.lft.to/lastmile_qr_scan"}, "bike_id": "782fcd2b1e3f7d9feb0fe4c9bd824473", "lon": -77.0445675}, {"is_reserved": 0, "fusion_lon": 0.0, "fusion_lat": 0.0, "name": "484793102840e4f51681077db5d7b7b0", "type": "electric_scooter", "is_disabled": 0, "lat": 38.898015666666666, "rental_uris": {"android": "https://dc.lft.to/lastmile_qr_scan", "ios": "https://dc.lft.to/lastmile_qr_scan"}, "bike_id": "484793102840e4f51681077db5d7b7b0", "lon": -77.0400415}, {"is_reserved": 0, "fusion_lon": 0.0, "fusion_lat": 0.0, "name": "ea3e18b1b0fccb307a1277984e65c357", "type": "electric_scooter", "is_disabled": 0, "lat": 38.93480816666667, "rental_uris": {"android": "https://dc.lft.to/lastmile_qr_scan", "ios": "https://dc.lft.to/lastmile_qr_scan"}, "bike_id": "ea3e18b1b0fccb307a1277984e65c357", "lon": -77.06479533333334}, {"is_reserved": 0, "fusion_lon": 0.0, "fusion_lat": 0.0, "name": "636f7c22d259f53a7769314d3331abbe", "type": "electric_scooter", "is_disabled": 0, "lat": 38.8960155, "rental_uris": {"android": "https://dc.lft.to/lastmile_qr_scan", "ios": "https://dc.lft.to/lastmile_qr_scan"}, "bike_id": "636f7c22d259f53a7769314d3331abbe", "lon": -77.01125566666667}, {"is_reserved": 0, "fusion_lon": 0.0, "fusion_lat": 0.0, "name": "e2de2b7020e69d95eacb5122a3224c83", "type": "electric_scooter", "is_disabled": 0, "lat": 38.915201, "rental_uris": {"android": "https://dc.lft.to/lastmile_qr_scan", "ios": "https://dc.lft.to/lastmile_qr_scan"}, "bike_id": "e2de2b7020e69d95eacb5122a3224c83", "lon": -76.97045816666666}, {"is_reserved": 0, "fusion_lon": 0.0, "fusion_lat": 0.0, "name": "501c016eab41448bfb08736e1865a631", "type": "electric_scooter", "is_disabled": 0, "lat": 38.86062716666667, "rental_uris": {"android": "https://dc.lft.to/lastmile_qr_scan", "ios": "https://dc.lft.to/lastmile_qr_scan"}, "bike_id": "501c016eab41448bfb08736e1865a631", "lon": -76.98504416666667}, {"is_reserved": 0, "fusion_lon": 0.0, "fusion_lat": 0.0, "name": "c5c8bc8c3b3e60efa1f2bf9a06894f3d", "type": "electric_scooter", "is_disabled": 0, "lat": 38.907325, "rental_uris": {"android": "https://dc.lft.to/lastmile_qr_scan", "ios": "https://dc.lft.to/lastmile_qr_scan"}, "bike_id": "c5c8bc8c3b3e60efa1f2bf9a06894f3d", "lon": -76.98697516666667}, {"is_reserved": 0, "fusion_lon": 0.0, "fusion_lat": 0.0, "name": "9f62e5c0dc505bd4cceddc87b817e74c", "type": "electric_scooter", "is_disabled": 0, "lat": 38.91693733333334, "rental_uris": {"android": "https://dc.lft.to/lastmile_qr_scan", "ios": "https://dc.lft.to/lastmile_qr_scan"}, "bike_id": "9f62e5c0dc505bd4cceddc87b817e74c", "lon": -77.02895866666667}, {"is_reserved": 0, "fusion_lon": 0.0, "fusion_lat": 0.0, "name": "022668dd77e16c4441d681b4bed709d4", "type": "electric_scooter", "is_disabled": 0, "lat": 38.923604833333336, "rental_uris": {"android": "https://dc.lft.to/lastmile_qr_scan", "ios": "https://dc.lft.to/lastmile_qr_scan"}, "bike_id": "022668dd77e16c4441d681b4bed709d4", "lon": -77.01922533333334}, {"is_reserved": 0, "fusion_lon": 0.0, "fusion_lat": 0.0, "name": "7d103124a604f3ac3acd9c4e074956b6", "type": "electric_scooter", "is_disabled": 0, "lat": 38.903743666666664, "rental_uris": {"android": "https://dc.lft.to/lastmile_qr_scan", "ios": "https://dc.lft.to/lastmile_qr_scan"}, "bike_id": "7d103124a604f3ac3acd9c4e074956b6", "lon": -76.99710916666666}, {"is_reserved": 0, "fusion_lon": 0.0, "fusion_lat": 0.0, "name": "13b775aad74567146edadb07aefdcd01", "type": "electric_scooter", "is_disabled": 0, "lat": 38.92343, "rental_uris": {"android": "https://dc.lft.to/lastmile_qr_scan", "ios": "https://dc.lft.to/lastmile_qr_scan"}, "bike_id": "13b775aad74567146edadb07aefdcd01", "lon": -77.05119333333333}, {"is_reserved": 0, "fusion_lon": 0.0, "fusion_lat": 0.0, "name": "63a663bd8d7524ba23f0c438e96ad1d1", "type": "electric_scooter", "is_disabled": 0, "lat": 38.9371065, "rental_uris": {"android": "https://dc.lft.to/lastmile_qr_scan", "ios": "https://dc.lft.to/lastmile_qr_scan"}, "bike_id": "63a663bd8d7524ba23f0c438e96ad1d1", "lon": -77.02937583333333}, {"is_reserved": 0, "fusion_lon": 0.0, "fusion_lat": 0.0, "name": "01d627abff5cbc5841777cf4c66cd070", "type": "electric_scooter", "is_disabled": 0, "lat": 38.92750616666667, "rental_uris": {"android": "https://dc.lft.to/lastmile_qr_scan", "ios": "https://dc.lft.to/lastmile_qr_scan"}, "bike_id": "01d627abff5cbc5841777cf4c66cd070", "lon": -77.02422733333333}, {"is_reserved": 0, "fusion_lon": 0.0, "fusion_lat": 0.0, "name": "e50e9faf02ad3cd66b2a88ca97c4bda7", "type": "electric_scooter", "is_disabled": 0, "lat": 38.90722616666667, "rental_uris": {"android": "https://dc.lft.to/lastmile_qr_scan", "ios": "https://dc.lft.to/lastmile_qr_scan"}, "bike_id": "e50e9faf02ad3cd66b2a88ca97c4bda7", "lon": -77.01070116666666}, {"is_reserved": 0, "fusion_lon": 0.0, "fusion_lat": 0.0, "name": "2b75331beda3ffd5bde5df509b355441", "type": "electric_scooter", "is_disabled": 0, "lat": 38.921084, "rental_uris": {"android": "https://dc.lft.to/lastmile_qr_scan", "ios": "https://dc.lft.to/lastmile_qr_scan"}, "bike_id": "2b75331beda3ffd5bde5df509b355441", "lon": -77.039162}, {"is_reserved": 0, "fusion_lon": 0.0, "fusion_lat": 0.0, "name": "19adc5bc788ad1d14d8f3b8fed03d48a", "type": "electric_bike", "is_disabled": 0, "lat": 39.043062166666665, "rental_uris": {"android": "https://dc.lft.to/lastmile_qr_scan", "ios": "https://dc.lft.to/lastmile_qr_scan"}, "bike_id": "19adc5bc788ad1d14d8f3b8fed03d48a", "lon": -77.05162566666667}, {"is_reserved": 0, "fusion_lon": 0.0, "fusion_lat": 0.0, "name": "914cc5460dd773f481fba746c5bdbad9", "type": "electric_scooter", "is_disabled": 0, "lat": 38.8960735, "rental_uris": {"android": "https://dc.lft.to/lastmile_qr_scan", "ios": "https://dc.lft.to/lastmile_qr_scan"}, "bike_id": "914cc5460dd773f481fba746c5bdbad9", "lon": -76.99970183333333}, {"is_reserved": 0, "fusion_lon": 0.0, "fusion_lat": 0.0, "name": "ca1e0dd170cf6f032b5520dc0bcc3bf6", "type": "electric_scooter", "is_disabled": 0, "lat": 38.900068166666664, "rental_uris": {"android": "https://dc.lft.to/lastmile_qr_scan", "ios": "https://dc.lft.to/lastmile_qr_scan"}, "bike_id": "ca1e0dd170cf6f032b5520dc0bcc3bf6", "lon": -76.9961675}, {"is_reserved": 0, "fusion_lon": 0.0, "fusion_lat": 0.0, "name": "b9e094c672711539ec2b078a533e994d", "type": "electric_scooter", "is_disabled": 0, "lat": 38.898603, "rental_uris": {"android": "https://dc.lft.to/lastmile_qr_scan", "ios": "https://dc.lft.to/lastmile_qr_scan"}, "bike_id": "b9e094c672711539ec2b078a533e994d", "lon": -77.032744}, {"is_reserved": 0, "fusion_lon": 0.0, "fusion_lat": 0.0, "name": "fe881e6c48d21baa217dc364a98d79b0", "type": "electric_scooter", "is_disabled": 0, "lat": 38.887174333333334, "rental_uris": {"android": "https://dc.lft.to/lastmile_qr_scan", "ios": "https://dc.lft.to/lastmile_qr_scan"}, "bike_id": "fe881e6c48d21baa217dc364a98d79b0", "lon": -77.0319425}, {"is_reserved": 0, "fusion_lon": 0.0, "fusion_lat": 0.0, "name": "2c6a44a2368738c32a2e7830999a908d", "type": "electric_scooter", "is_disabled": 0, "lat": 38.905940333333334, "rental_uris": {"android": "https://dc.lft.to/lastmile_qr_scan", "ios": "https://dc.lft.to/lastmile_qr_scan"}, "bike_id": "2c6a44a2368738c32a2e7830999a908d", "lon": -77.0641695}, {"is_reserved": 0, "fusion_lon": 0.0, "fusion_lat": 0.0, "name": "a34165588be3a8439d7645ccc714692b", "type": "electric_scooter", "is_disabled": 0, "lat": 38.92219733333334, "rental_uris": {"android": "https://dc.lft.to/lastmile_qr_scan", "ios": "https://dc.lft.to/lastmile_qr_scan"}, "bike_id": "a34165588be3a8439d7645ccc714692b", "lon": -77.04336316666667}, {"is_reserved": 0, "fusion_lon": 0.0, "fusion_lat": 0.0, "name": "39ac6fe30540f87b5f52db1155a92327", "type": "electric_scooter", "is_disabled": 0, "lat": 38.9323185, "rental_uris": {"android": "https://dc.lft.to/lastmile_qr_scan", "ios": "https://dc.lft.to/lastmile_qr_scan"}, "bike_id": "39ac6fe30540f87b5f52db1155a92327", "lon": -77.0386245}, {"is_reserved": 0, "fusion_lon": 0.0, "fusion_lat": 0.0, "name": "4d48b44a38be611ab8e314de8dfa9609", "type": "electric_scooter", "is_disabled": 0, "lat": 38.921116833333336, "rental_uris": {"android": "https://dc.lft.to/lastmile_qr_scan", "ios": "https://dc.lft.to/lastmile_qr_scan"}, "bike_id": "4d48b44a38be611ab8e314de8dfa9609", "lon": -77.04096016666666}, {"is_reserved": 0, "fusion_lon": 0.0, "fusion_lat": 0.0, "name": "9eb7681a72f98dffee8d4030eed957e8", "type": "electric_scooter", "is_disabled": 0, "lat": 38.88723916666667, "rental_uris": {"android": "https://dc.lft.to/lastmile_qr_scan", "ios": "https://dc.lft.to/lastmile_qr_scan"}, "bike_id": "9eb7681a72f98dffee8d4030eed957e8", "lon": -77.028253}, {"is_reserved": 0, "fusion_lon": 0.0, "fusion_lat": 0.0, "name": "15d246268fe74fb8e34defc42f0a7836", "type": "electric_scooter", "is_disabled": 0, "lat": 38.878306, "rental_uris": {"android": "https://dc.lft.to/lastmile_qr_scan", "ios": "https://dc.lft.to/lastmile_qr_scan"}, "bike_id": "15d246268fe74fb8e34defc42f0a7836", "lon": -76.963059}, {"is_reserved": 0, "fusion_lon": 0.0, "fusion_lat": 0.0, "name": "a84e8967cc096f5ed9429cb339b7810c", "type": "electric_bike", "is_disabled": 0, "lat": 39.052836, "rental_uris": {"android": "https://dc.lft.to/lastmile_qr_scan", "ios": "https://dc.lft.to/lastmile_qr_scan"}, "bike_id": "a84e8967cc096f5ed9429cb339b7810c", "lon": -77.08070983333333}, {"is_reserved": 0, "fusion_lon": 0.0, "fusion_lat": 0.0, "name": "3b37bf371884c9821cf0a08f0df78e30", "type": "electric_scooter", "is_disabled": 0, "lat": 38.9111845, "rental_uris": {"android": "https://dc.lft.to/lastmile_qr_scan", "ios": "https://dc.lft.to/lastmile_qr_scan"}, "bike_id": "3b37bf371884c9821cf0a08f0df78e30", "lon": -77.03832083333333}, {"is_reserved": 0, "fusion_lon": 0.0, "fusion_lat": 0.0, "name": "42b15299c7b60bfa51bcabd0ed8ce4b5", "type": "electric_scooter", "is_disabled": 0, "lat": 38.916294666666666, "rental_uris": {"android": "https://dc.lft.to/lastmile_qr_scan", "ios": "https://dc.lft.to/lastmile_qr_scan"}, "bike_id": "42b15299c7b60bfa51bcabd0ed8ce4b5", "lon": -77.03166333333333}, {"is_reserved": 0, "fusion_lon": 0.0, "fusion_lat": 0.0, "name": "ae63ca503bd165be1c29cd8cc51b7864", "type": "electric_scooter", "is_disabled": 0, "lat": 38.86660333333333, "rental_uris": {"android": "https://dc.lft.to/lastmile_qr_scan", "ios": "https://dc.lft.to/lastmile_qr_scan"}, "bike_id": "ae63ca503bd165be1c29cd8cc51b7864", "lon": -76.988871}, {"is_reserved": 0, "fusion_lon": 0.0, "fusion_lat": 0.0, "name": "ccbf90fbaeaa8ae142b9854e5f7a4cbd", "type": "electric_scooter", "is_disabled": 0, "lat": 38.90252566666667, "rental_uris": {"android": "https://dc.lft.to/lastmile_qr_scan", "ios": "https://dc.lft.to/lastmile_qr_scan"}, "bike_id": "ccbf90fbaeaa8ae142b9854e5f7a4cbd", "lon": -76.995585}, {"is_reserved": 0, "fusion_lon": 0.0, "fusion_lat": 0.0, "name": "a9069501c6d3c02eba002f98d362f140", "type": "electric_scooter", "is_disabled": 0, "lat": 38.869947, "rental_uris": {"android": "https://dc.lft.to/lastmile_qr_scan", "ios": "https://dc.lft.to/lastmile_qr_scan"}, "bike_id": "a9069501c6d3c02eba002f98d362f140", "lon": -76.97585183333334}, {"is_reserved": 0, "fusion_lon": 0.0, "fusion_lat": 0.0, "name": "7907ebe415aae6bc966139580ec4f1e6", "type": "electric_scooter", "is_disabled": 0, "lat": 38.905475333333335, "rental_uris": {"android": "https://dc.lft.to/lastmile_qr_scan", "ios": "https://dc.lft.to/lastmile_qr_scan"}, "bike_id": "7907ebe415aae6bc966139580ec4f1e6", "lon": -77.00590116666666}, {"is_reserved": 0, "fusion_lon": 0.0, "fusion_lat": 0.0, "name": "11289540a4d569202093864b7a2beeb3", "type": "electric_scooter", "is_disabled": 0, "lat": 38.98457333333333, "rental_uris": {"android": "https://dc.lft.to/lastmile_qr_scan", "ios": "https://dc.lft.to/lastmile_qr_scan"}, "bike_id": "11289540a4d569202093864b7a2beeb3", "lon": -77.026439}, {"is_reserved": 0, "fusion_lon": 0.0, "fusion_lat": 0.0, "name": "cceefb961b3d7c30e0127af3ee43f3b6", "type": "electric_scooter", "is_disabled": 0, "lat": 38.917574, "rental_uris": {"android": "https://dc.lft.to/lastmile_qr_scan", "ios": "https://dc.lft.to/lastmile_qr_scan"}, "bike_id": "cceefb961b3d7c30e0127af3ee43f3b6", "lon": -77.04549116666666}, {"is_reserved": 0, "fusion_lon": 0.0, "fusion_lat": 0.0, "name": "1354686aab15b397a46ddb89b37a1541", "type": "electric_scooter", "is_disabled": 0, "lat": 38.906461, "rental_uris": {"android": "https://dc.lft.to/lastmile_qr_scan", "ios": "https://dc.lft.to/lastmile_qr_scan"}, "bike_id": "1354686aab15b397a46ddb89b37a1541", "lon": -77.04864}, {"is_reserved": 0, "fusion_lon": 0.0, "fusion_lat": 0.0, "name": "d1845c2d863babdf112d47f07a48ca54", "type": "electric_bike", "is_disabled": 0, "lat": 38.91438083333333, "rental_uris": {"android": "https://dc.lft.to/lastmile_qr_scan", "ios": "https://dc.lft.to/lastmile_qr_scan"}, "bike_id": "d1845c2d863babdf112d47f07a48ca54", "lon": -77.01704066666667}, {"is_reserved": 0, "fusion_lon": 0.0, "fusion_lat": 0.0, "name": "9acd5e247b15e8c3898cbd4557fdc7bd", "type": "electric_scooter", "is_disabled": 0, "lat": 38.915643833333334, "rental_uris": {"android": "https://dc.lft.to/lastmile_qr_scan", "ios": "https://dc.lft.to/lastmile_qr_scan"}, "bike_id": "9acd5e247b15e8c3898cbd4557fdc7bd", "lon": -77.01993133333333}, {"is_reserved": 0, "fusion_lon": 0.0, "fusion_lat": 0.0, "name": "773fc188626dad56e1e19a114f004b73", "type": "electric_scooter", "is_disabled": 0, "lat": 38.91793716666667, "rental_uris": {"android": "https://dc.lft.to/lastmile_qr_scan", "ios": "https://dc.lft.to/lastmile_qr_scan"}, "bike_id": "773fc188626dad56e1e19a114f004b73", "lon": -77.04018166666667}, {"is_reserved": 0, "fusion_lon": 0.0, "fusion_lat": 0.0, "name": "1433c3e8f0279378d83f1f9104c40c11", "type": "electric_bike", "is_disabled": 0, "lat": 39.062963333333336, "rental_uris": {"android": "https://dc.lft.to/lastmile_qr_scan", "ios": "https://dc.lft.to/lastmile_qr_scan"}, "bike_id": "1433c3e8f0279378d83f1f9104c40c11", "lon": -77.0498075}, {"is_reserved": 0, "fusion_lon": 0.0, "fusion_lat": 0.0, "name": "cd75315f810a0e42ce77691950f28914", "type": "electric_scooter", "is_disabled": 0, "lat": 38.89218983333333, "rental_uris": {"android": "https://dc.lft.to/lastmile_qr_scan", "ios": "https://dc.lft.to/lastmile_qr_scan"}, "bike_id": "cd75315f810a0e42ce77691950f28914", "lon": -77.023487}, {"is_reserved": 0, "fusion_lon": 0.0, "fusion_lat": 0.0, "name": "af1acf7951292bc90482141a16d78123", "type": "electric_scooter", "is_disabled": 0, "lat": 38.906329666666664, "rental_uris": {"android": "https://dc.lft.to/lastmile_qr_scan", "ios": "https://dc.lft.to/lastmile_qr_scan"}, "bike_id": "af1acf7951292bc90482141a16d78123", "lon": -77.048015}, {"is_reserved": 0, "fusion_lon": 0.0, "fusion_lat": 0.0, "name": "ab11400dbd011112f207441e44bd0072", "type": "electric_scooter", "is_disabled": 0, "lat": 38.8830145, "rental_uris": {"android": "https://dc.lft.to/lastmile_qr_scan", "ios": "https://dc.lft.to/lastmile_qr_scan"}, "bike_id": "ab11400dbd011112f207441e44bd0072", "lon": -76.97866766666667}, {"is_reserved": 0, "fusion_lon": 0.0, "fusion_lat": 0.0, "name": "86ef828423b364405e8ac650de830488", "type": "electric_scooter", "is_disabled": 0, "lat": 38.89908066666667, "rental_uris": {"android": "https://dc.lft.to/lastmile_qr_scan", "ios": "https://dc.lft.to/lastmile_qr_scan"}, "bike_id": "86ef828423b364405e8ac650de830488", "lon": -76.933801}, {"is_reserved": 0, "fusion_lon": 0.0, "fusion_lat": 0.0, "name": "b1871be5ea3a3331fc3c5b9219ae47ad", "type": "electric_scooter", "is_disabled": 0, "lat": 38.8931865, "rental_uris": {"android": "https://dc.lft.to/lastmile_qr_scan", "ios": "https://dc.lft.to/lastmile_qr_scan"}, "bike_id": "b1871be5ea3a3331fc3c5b9219ae47ad", "lon": -76.94312733333334}, {"is_reserved": 0, "fusion_lon": 0.0, "fusion_lat": 0.0, "name": "7e8bb5b9471f82c83442875c051812dc", "type": "electric_scooter", "is_disabled": 0, "lat": 38.90733866666667, "rental_uris": {"android": "https://dc.lft.to/lastmile_qr_scan", "ios": "https://dc.lft.to/lastmile_qr_scan"}, "bike_id": "7e8bb5b9471f82c83442875c051812dc", "lon": -77.02694616666666}, {"is_reserved": 0, "fusion_lon": 0.0, "fusion_lat": 0.0, "name": "15fd22cd2ef5ce743a6cc9f95dd19dab", "type": "electric_scooter", "is_disabled": 0, "lat": 38.926799833333334, "rental_uris": {"android": "https://dc.lft.to/lastmile_qr_scan", "ios": "https://dc.lft.to/lastmile_qr_scan"}, "bike_id": "15fd22cd2ef5ce743a6cc9f95dd19dab", "lon": -77.02990333333334}, {"is_reserved": 0, "fusion_lon": 0.0, "fusion_lat": 0.0, "name": "07e66221672f95df5913f23ec045767c", "type": "electric_scooter", "is_disabled": 0, "lat": 38.9234595, "rental_uris": {"android": "https://dc.lft.to/lastmile_qr_scan", "ios": "https://dc.lft.to/lastmile_qr_scan"}, "bike_id": "07e66221672f95df5913f23ec045767c", "lon": -77.05092716666667}, {"is_reserved": 0, "fusion_lon": 0.0, "fusion_lat": 0.0, "name": "bee39a711a9136db1642faefc81878cf", "type": "electric_scooter", "is_disabled": 0, "lat": 38.87183516666666, "rental_uris": {"android": "https://dc.lft.to/lastmile_qr_scan", "ios": "https://dc.lft.to/lastmile_qr_scan"}, "bike_id": "bee39a711a9136db1642faefc81878cf", "lon": -77.00595333333334}, {"is_reserved": 0, "fusion_lon": 0.0, "fusion_lat": 0.0, "name": "cff83fce6cbbc302f1c0ffb3176c9a19", "type": "electric_scooter", "is_disabled": 0, "lat": 38.90036966666667, "rental_uris": {"android": "https://dc.lft.to/lastmile_qr_scan", "ios": "https://dc.lft.to/lastmile_qr_scan"}, "bike_id": "cff83fce6cbbc302f1c0ffb3176c9a19", "lon": -76.99630183333333}, {"is_reserved": 0, "fusion_lon": 0.0, "fusion_lat": 0.0, "name": "a889cd5e39a708ab064ed9165bc406e8", "type": "electric_scooter", "is_disabled": 0, "lat": 38.91557866666667, "rental_uris": {"android": "https://dc.lft.to/lastmile_qr_scan", "ios": "https://dc.lft.to/lastmile_qr_scan"}, "bike_id": "a889cd5e39a708ab064ed9165bc406e8", "lon": -77.02213883333333}, {"is_reserved": 0, "fusion_lon": 0.0, "fusion_lat": 0.0, "name": "1e582dd15e9405d9cdbedb74b4d8a588", "type": "electric_bike", "is_disabled": 0, "lat": 38.88874166666667, "rental_uris": {"android": "https://dc.lft.to/lastmile_qr_scan", "ios": "https://dc.lft.to/lastmile_qr_scan"}, "bike_id": "1e582dd15e9405d9cdbedb74b4d8a588", "lon": -76.9784525}, {"is_reserved": 0, "fusion_lon": 0.0, "fusion_lat": 0.0, "name": "53fa679e1ef858496c04fe8380d3a2fe", "type": "electric_scooter", "is_disabled": 0, "lat": 38.92372266666667, "rental_uris": {"android": "https://dc.lft.to/lastmile_qr_scan", "ios": "https://dc.lft.to/lastmile_qr_scan"}, "bike_id": "53fa679e1ef858496c04fe8380d3a2fe", "lon": -77.03021133333333}, {"is_reserved": 0, "fusion_lon": 0.0, "fusion_lat": 0.0, "name": "52c0bb00b953b81c54d5829b8e3f6718", "type": "electric_scooter", "is_disabled": 0, "lat": 38.9171855, "rental_uris": {"android": "https://dc.lft.to/lastmile_qr_scan", "ios": "https://dc.lft.to/lastmile_qr_scan"}, "bike_id": "52c0bb00b953b81c54d5829b8e3f6718", "lon": -77.03862416666666}, {"is_reserved": 0, "fusion_lon": 0.0, "fusion_lat": 0.0, "name": "30de3921332d56aeedffe104905f6127", "type": "electric_scooter", "is_disabled": 0, "lat": 38.93144483333333, "rental_uris": {"android": "https://dc.lft.to/lastmile_qr_scan", "ios": "https://dc.lft.to/lastmile_qr_scan"}, "bike_id": "30de3921332d56aeedffe104905f6127", "lon": -77.0785245}, {"is_reserved": 0, "fusion_lon": 0.0, "fusion_lat": 0.0, "name": "e7a976907153b12687a18276dec3c514", "type": "electric_bike", "is_disabled": 0, "lat": 38.94509333333333, "rental_uris": {"android": "https://dc.lft.to/lastmile_qr_scan", "ios": "https://dc.lft.to/lastmile_qr_scan"}, "bike_id": "e7a976907153b12687a18276dec3c514", "lon": -77.00671383333334}, {"is_reserved": 0, "fusion_lon": 0.0, "fusion_lat": 0.0, "name": "17aadb4537cddaecfcb3b9717d659989", "type": "electric_scooter", "is_disabled": 0, "lat": 38.933151, "rental_uris": {"android": "https://dc.lft.to/lastmile_qr_scan", "ios": "https://dc.lft.to/lastmile_qr_scan"}, "bike_id": "17aadb4537cddaecfcb3b9717d659989", "lon": -77.02964833333333}, {"is_reserved": 0, "fusion_lon": 0.0, "fusion_lat": 0.0, "name": "ca1698a07bb377792c547b63adb601ca", "type": "electric_scooter", "is_disabled": 0, "lat": 38.904415666666665, "rental_uris": {"android": "https://dc.lft.to/lastmile_qr_scan", "ios": "https://dc.lft.to/lastmile_qr_scan"}, "bike_id": "ca1698a07bb377792c547b63adb601ca", "lon": -76.98493883333333}, {"is_reserved": 0, "fusion_lon": 0.0, "fusion_lat": 0.0, "name": "a85eb41e1ca450e0d96cd0d7df02a76e", "type": "electric_scooter", "is_disabled": 0, "lat": 38.89618466666667, "rental_uris": {"android": "https://dc.lft.to/lastmile_qr_scan", "ios": "https://dc.lft.to/lastmile_qr_scan"}, "bike_id": "a85eb41e1ca450e0d96cd0d7df02a76e", "lon": -77.02983433333333}, {"is_reserved": 0, "fusion_lon": 0.0, "fusion_lat": 0.0, "name": "600ca39dfa4c6a4ccca7a970b6f30223", "type": "electric_scooter", "is_disabled": 0, "lat": 38.89838733333333, "rental_uris": {"android": "https://dc.lft.to/lastmile_qr_scan", "ios": "https://dc.lft.to/lastmile_qr_scan"}, "bike_id": "600ca39dfa4c6a4ccca7a970b6f30223", "lon": -77.02427233333333}, {"is_reserved": 0, "fusion_lon": 0.0, "fusion_lat": 0.0, "name": "044a253d40a47cc2f57045fdc139290a", "type": "electric_bike", "is_disabled": 0, "lat": 38.968154, "rental_uris": {"android": "https://dc.lft.to/lastmile_qr_scan", "ios": "https://dc.lft.to/lastmile_qr_scan"}, "bike_id": "044a253d40a47cc2f57045fdc139290a", "lon": -77.072249}, {"is_reserved": 0, "fusion_lon": 0.0, "fusion_lat": 0.0, "name": "bb0ae175902f4d644f328ebb4229ce99", "type": "electric_scooter", "is_disabled": 0, "lat": 38.95177533333333, "rental_uris": {"android": "https://dc.lft.to/lastmile_qr_scan", "ios": "https://dc.lft.to/lastmile_qr_scan"}, "bike_id": "bb0ae175902f4d644f328ebb4229ce99", "lon": -77.027344}, {"is_reserved": 0, "fusion_lon": 0.0, "fusion_lat": 0.0, "name": "50a563c579bec723b24c0d6b002a179b", "type": "electric_bike", "is_disabled": 0, "lat": 38.9535585, "rental_uris": {"android": "https://dc.lft.to/lastmile_qr_scan", "ios": "https://dc.lft.to/lastmile_qr_scan"}, "bike_id": "50a563c579bec723b24c0d6b002a179b", "lon": -76.98089766666666}, {"is_reserved": 0, "fusion_lon": 0.0, "fusion_lat": 0.0, "name": "71b4114eeded528b13686c31c561f88e", "type": "electric_scooter", "is_disabled": 0, "lat": 38.892356666666664, "rental_uris": {"android": "https://dc.lft.to/lastmile_qr_scan", "ios": "https://dc.lft.to/lastmile_qr_scan"}, "bike_id": "71b4114eeded528b13686c31c561f88e", "lon": -77.0320765}, {"is_reserved": 0, "fusion_lon": 0.0, "fusion_lat": 0.0, "name": "a280838a17497272a0f19b6778f28fe7", "type": "electric_bike", "is_disabled": 0, "lat": 38.9223445, "rental_uris": {"android": "https://dc.lft.to/lastmile_qr_scan", "ios": "https://dc.lft.to/lastmile_qr_scan"}, "bike_id": "a280838a17497272a0f19b6778f28fe7", "lon": -77.04244733333333}, {"is_reserved": 0, "fusion_lon": 0.0, "fusion_lat": 0.0, "name": "a52e7f4f958980a9b36ce05a2f814c6c", "type": "electric_scooter", "is_disabled": 0, "lat": 38.9204235, "rental_uris": {"android": "https://dc.lft.to/lastmile_qr_scan", "ios": "https://dc.lft.to/lastmile_qr_scan"}, "bike_id": "a52e7f4f958980a9b36ce05a2f814c6c", "lon": -77.02199533333334}, {"is_reserved": 0, "fusion_lon": 0.0, "fusion_lat": 0.0, "name": "75f5715cb5155b9bbeebb254708b334a", "type": "electric_scooter", "is_disabled": 0, "lat": 38.900713, "rental_uris": {"android": "https://dc.lft.to/lastmile_qr_scan", "ios": "https://dc.lft.to/lastmile_qr_scan"}, "bike_id": "75f5715cb5155b9bbeebb254708b334a", "lon": -77.00208433333333}, {"is_reserved": 0, "fusion_lon": 0.0, "fusion_lat": 0.0, "name": "47df394574eb4b65130c16da438ca9c0", "type": "electric_scooter", "is_disabled": 0, "lat": 38.90021483333334, "rental_uris": {"android": "https://dc.lft.to/lastmile_qr_scan", "ios": "https://dc.lft.to/lastmile_qr_scan"}, "bike_id": "47df394574eb4b65130c16da438ca9c0", "lon": -76.98861783333334}, {"is_reserved": 0, "fusion_lon": 0.0, "fusion_lat": 0.0, "name": "eecd7f7b1662a3630652a5e84a6375e7", "type": "electric_scooter", "is_disabled": 0, "lat": 38.9677915, "rental_uris": {"android": "https://dc.lft.to/lastmile_qr_scan", "ios": "https://dc.lft.to/lastmile_qr_scan"}, "bike_id": "eecd7f7b1662a3630652a5e84a6375e7", "lon": -77.01503733333334}, {"is_reserved": 0, "fusion_lon": 0.0, "fusion_lat": 0.0, "name": "ee20ddfa0e022890a8be18d434839d87", "type": "electric_scooter", "is_disabled": 0, "lat": 38.894960166666664, "rental_uris": {"android": "https://dc.lft.to/lastmile_qr_scan", "ios": "https://dc.lft.to/lastmile_qr_scan"}, "bike_id": "ee20ddfa0e022890a8be18d434839d87", "lon": -77.02742716666667}, {"is_reserved": 0, "fusion_lon": 0.0, "fusion_lat": 0.0, "name": "ae2efd9e3de4d92c3822a5b55b052fa2", "type": "electric_scooter", "is_disabled": 0, "lat": 38.91886233333334, "rental_uris": {"android": "https://dc.lft.to/lastmile_qr_scan", "ios": "https://dc.lft.to/lastmile_qr_scan"}, "bike_id": "ae2efd9e3de4d92c3822a5b55b052fa2", "lon": -77.04825966666667}, {"is_reserved": 0, "fusion_lon": 0.0, "fusion_lat": 0.0, "name": "dcecf0805fed2db8c2df863059cc7355", "type": "electric_scooter", "is_disabled": 0, "lat": 38.921171, "rental_uris": {"android": "https://dc.lft.to/lastmile_qr_scan", "ios": "https://dc.lft.to/lastmile_qr_scan"}, "bike_id": "dcecf0805fed2db8c2df863059cc7355", "lon": -77.01212866666667}, {"is_reserved": 0, "fusion_lon": 0.0, "fusion_lat": 0.0, "name": "70d6cd47419bbbca0eb967994ec9bc88", "type": "electric_scooter", "is_disabled": 0, "lat": 38.908136166666665, "rental_uris": {"android": "https://dc.lft.to/lastmile_qr_scan", "ios": "https://dc.lft.to/lastmile_qr_scan"}, "bike_id": "70d6cd47419bbbca0eb967994ec9bc88", "lon": -77.04329383333334}, {"is_reserved": 0, "fusion_lon": 0.0, "fusion_lat": 0.0, "name": "ffdf263b89c3a7a7b8c04222a5775ba1", "type": "electric_scooter", "is_disabled": 0, "lat": 38.911020666666666, "rental_uris": {"android": "https://dc.lft.to/lastmile_qr_scan", "ios": "https://dc.lft.to/lastmile_qr_scan"}, "bike_id": "ffdf263b89c3a7a7b8c04222a5775ba1", "lon": -77.04462883333333}, {"is_reserved": 0, "fusion_lon": 0.0, "fusion_lat": 0.0, "name": "9cbdf38bef6b7fd3fbe1102c484d5842", "type": "electric_scooter", "is_disabled": 0, "lat": 38.90009533333333, "rental_uris": {"android": "https://dc.lft.to/lastmile_qr_scan", "ios": "https://dc.lft.to/lastmile_qr_scan"}, "bike_id": "9cbdf38bef6b7fd3fbe1102c484d5842", "lon": -77.0120595}, {"is_reserved": 0, "fusion_lon": 0.0, "fusion_lat": 0.0, "name": "cb9abae1f6724f0517e7f63dd9f5735d", "type": "electric_scooter", "is_disabled": 0, "lat": 38.88609183333333, "rental_uris": {"android": "https://dc.lft.to/lastmile_qr_scan", "ios": "https://dc.lft.to/lastmile_qr_scan"}, "bike_id": "cb9abae1f6724f0517e7f63dd9f5735d", "lon": -76.99513666666667}, {"is_reserved": 0, "fusion_lon": 0.0, "fusion_lat": 0.0, "name": "07d60241c990f2f150018f5b17575c06", "type": "electric_bike", "is_disabled": 0, "lat": 38.811997, "rental_uris": {"android": "https://dc.lft.to/lastmile_qr_scan", "ios": "https://dc.lft.to/lastmile_qr_scan"}, "bike_id": "07d60241c990f2f150018f5b17575c06", "lon": -77.10836066666667}, {"is_reserved": 0, "fusion_lon": 0.0, "fusion_lat": 0.0, "name": "4f797365eff88ee53fe419a98a73a4b6", "type": "electric_scooter", "is_disabled": 0, "lat": 38.914574333333334, "rental_uris": {"android": "https://dc.lft.to/lastmile_qr_scan", "ios": "https://dc.lft.to/lastmile_qr_scan"}, "bike_id": "4f797365eff88ee53fe419a98a73a4b6", "lon": -77.022856}, {"is_reserved": 0, "fusion_lon": 0.0, "fusion_lat": 0.0, "name": "a26188097f6bdc7e62b2efb01ecd472c", "type": "electric_bike", "is_disabled": 0, "lat": 38.93867433333333, "rental_uris": {"android": "https://dc.lft.to/lastmile_qr_scan", "ios": "https://dc.lft.to/lastmile_qr_scan"}, "bike_id": "a26188097f6bdc7e62b2efb01ecd472c", "lon": -76.9429375}, {"is_reserved": 0, "fusion_lon": 0.0, "fusion_lat": 0.0, "name": "05d90f7268a0282cbe042d1f96dd7106", "type": "electric_scooter", "is_disabled": 0, "lat": 38.917995833333336, "rental_uris": {"android": "https://dc.lft.to/lastmile_qr_scan", "ios": "https://dc.lft.to/lastmile_qr_scan"}, "bike_id": "05d90f7268a0282cbe042d1f96dd7106", "lon": -77.04018733333334}, {"is_reserved": 0, "fusion_lon": 0.0, "fusion_lat": 0.0, "name": "a226041df2d59754114a90069d88507e", "type": "electric_scooter", "is_disabled": 0, "lat": 38.8852795, "rental_uris": {"android": "https://dc.lft.to/lastmile_qr_scan", "ios": "https://dc.lft.to/lastmile_qr_scan"}, "bike_id": "a226041df2d59754114a90069d88507e", "lon": -76.99618433333333}, {"is_reserved": 0, "fusion_lon": 0.0, "fusion_lat": 0.0, "name": "4f309c4acdb26a08770662cfc141595a", "type": "electric_scooter", "is_disabled": 0, "lat": 38.872869, "rental_uris": {"android": "https://dc.lft.to/lastmile_qr_scan", "ios": "https://dc.lft.to/lastmile_qr_scan"}, "bike_id": "4f309c4acdb26a08770662cfc141595a", "lon": -77.00989633333333}, {"is_reserved": 0, "fusion_lon": 0.0, "fusion_lat": 0.0, "name": "ed796ff1872f309d8d4a07c81f2002e1", "type": "electric_scooter", "is_disabled": 0, "lat": 38.9233825, "rental_uris": {"android": "https://dc.lft.to/lastmile_qr_scan", "ios": "https://dc.lft.to/lastmile_qr_scan"}, "bike_id": "ed796ff1872f309d8d4a07c81f2002e1", "lon": -77.035037}, {"is_reserved": 0, "fusion_lon": 0.0, "fusion_lat": 0.0, "name": "6ebc17e23ba4a96aff4aaed1c6e0a9fb", "type": "electric_scooter", "is_disabled": 0, "lat": 38.8845845, "rental_uris": {"android": "https://dc.lft.to/lastmile_qr_scan", "ios": "https://dc.lft.to/lastmile_qr_scan"}, "bike_id": "6ebc17e23ba4a96aff4aaed1c6e0a9fb", "lon": -76.92622466666667}, {"is_reserved": 0, "fusion_lon": 0.0, "fusion_lat": 0.0, "name": "227cfabcb66a6e1a24c024a2a95109f0", "type": "electric_scooter", "is_disabled": 0, "lat": 38.93045583333333, "rental_uris": {"android": "https://dc.lft.to/lastmile_qr_scan", "ios": "https://dc.lft.to/lastmile_qr_scan"}, "bike_id": "227cfabcb66a6e1a24c024a2a95109f0", "lon": -77.03294383333333}, {"is_reserved": 0, "fusion_lon": 0.0, "fusion_lat": 0.0, "name": "98db0b8832321351b2f8d8d64b18dd46", "type": "electric_scooter", "is_disabled": 0, "lat": 38.916776, "rental_uris": {"android": "https://dc.lft.to/lastmile_qr_scan", "ios": "https://dc.lft.to/lastmile_qr_scan"}, "bike_id": "98db0b8832321351b2f8d8d64b18dd46", "lon": -77.03040766666666}, {"is_reserved": 0, "fusion_lon": 0.0, "fusion_lat": 0.0, "name": "98521f8eb73ad1c92dfc229cc517d778", "type": "electric_bike", "is_disabled": 0, "lat": 38.962299333333334, "rental_uris": {"android": "https://dc.lft.to/lastmile_qr_scan", "ios": "https://dc.lft.to/lastmile_qr_scan"}, "bike_id": "98521f8eb73ad1c92dfc229cc517d778", "lon": -77.026299}, {"is_reserved": 0, "fusion_lon": 0.0, "fusion_lat": 0.0, "name": "fb2a9957ac4036d29aa8fb244475fb50", "type": "electric_scooter", "is_disabled": 0, "lat": 38.92750633333333, "rental_uris": {"android": "https://dc.lft.to/lastmile_qr_scan", "ios": "https://dc.lft.to/lastmile_qr_scan"}, "bike_id": "fb2a9957ac4036d29aa8fb244475fb50", "lon": -77.02963416666667}, {"is_reserved": 0, "fusion_lon": 0.0, "fusion_lat": 0.0, "name": "7d03eaf429b3e4789aed14c4fd99cf5b", "type": "electric_scooter", "is_disabled": 0, "lat": 38.905193, "rental_uris": {"android": "https://dc.lft.to/lastmile_qr_scan", "ios": "https://dc.lft.to/lastmile_qr_scan"}, "bike_id": "7d03eaf429b3e4789aed14c4fd99cf5b", "lon": -77.0509115}, {"is_reserved": 0, "fusion_lon": 0.0, "fusion_lat": 0.0, "name": "ddd56a9d0cccef5a1d6d1fd640cde879", "type": "electric_scooter", "is_disabled": 0, "lat": 38.87626783333333, "rental_uris": {"android": "https://dc.lft.to/lastmile_qr_scan", "ios": "https://dc.lft.to/lastmile_qr_scan"}, "bike_id": "ddd56a9d0cccef5a1d6d1fd640cde879", "lon": -77.0161345}, {"is_reserved": 0, "fusion_lon": 0.0, "fusion_lat": 0.0, "name": "8f045a9774a30f970aa404a6599c71a9", "type": "electric_scooter", "is_disabled": 0, "lat": 38.900241333333334, "rental_uris": {"android": "https://dc.lft.to/lastmile_qr_scan", "ios": "https://dc.lft.to/lastmile_qr_scan"}, "bike_id": "8f045a9774a30f970aa404a6599c71a9", "lon": -76.9885915}, {"is_reserved": 0, "fusion_lon": 0.0, "fusion_lat": 0.0, "name": "dc1ac7cde36b66085aed90b75281a371", "type": "electric_scooter", "is_disabled": 0, "lat": 38.92710316666667, "rental_uris": {"android": "https://dc.lft.to/lastmile_qr_scan", "ios": "https://dc.lft.to/lastmile_qr_scan"}, "bike_id": "dc1ac7cde36b66085aed90b75281a371", "lon": -77.03994783333333}, {"is_reserved": 0, "fusion_lon": 0.0, "fusion_lat": 0.0, "name": "c72ba4a82ba004b98d76ccb9a18dc2fa", "type": "electric_scooter", "is_disabled": 0, "lat": 38.906448833333336, "rental_uris": {"android": "https://dc.lft.to/lastmile_qr_scan", "ios": "https://dc.lft.to/lastmile_qr_scan"}, "bike_id": "c72ba4a82ba004b98d76ccb9a18dc2fa", "lon": -77.06916966666667}, {"is_reserved": 0, "fusion_lon": 0.0, "fusion_lat": 0.0, "name": "3e39b8c77ad0476afa24cde5adfd8f6a", "type": "electric_bike", "is_disabled": 0, "lat": 38.872754, "rental_uris": {"android": "https://dc.lft.to/lastmile_qr_scan", "ios": "https://dc.lft.to/lastmile_qr_scan"}, "bike_id": "3e39b8c77ad0476afa24cde5adfd8f6a", "lon": -77.233243}, {"is_reserved": 0, "fusion_lon": 0.0, "fusion_lat": 0.0, "name": "79b52dd946874e348924a8665d578e34", "type": "electric_scooter", "is_disabled": 0, "lat": 38.90135216666667, "rental_uris": {"android": "https://dc.lft.to/lastmile_qr_scan", "ios": "https://dc.lft.to/lastmile_qr_scan"}, "bike_id": "79b52dd946874e348924a8665d578e34", "lon": -77.04044766666667}, {"is_reserved": 0, "fusion_lon": 0.0, "fusion_lat": 0.0, "name": "b30eba9c7d616d62aeb21ee488871582", "type": "electric_scooter", "is_disabled": 0, "lat": 38.90825183333333, "rental_uris": {"android": "https://dc.lft.to/lastmile_qr_scan", "ios": "https://dc.lft.to/lastmile_qr_scan"}, "bike_id": "b30eba9c7d616d62aeb21ee488871582", "lon": -76.9415725}, {"is_reserved": 0, "fusion_lon": 0.0, "fusion_lat": 0.0, "name": "099c750a034c600521ee255886b7eb7c", "type": "electric_scooter", "is_disabled": 0, "lat": 38.90588566666667, "rental_uris": {"android": "https://dc.lft.to/lastmile_qr_scan", "ios": "https://dc.lft.to/lastmile_qr_scan"}, "bike_id": "099c750a034c600521ee255886b7eb7c", "lon": -76.99300833333334}, {"is_reserved": 0, "fusion_lon": 0.0, "fusion_lat": 0.0, "name": "741a52076f97cbeb6b85d701ce252ce1", "type": "electric_scooter", "is_disabled": 0, "lat": 38.905579333333336, "rental_uris": {"android": "https://dc.lft.to/lastmile_qr_scan", "ios": "https://dc.lft.to/lastmile_qr_scan"}, "bike_id": "741a52076f97cbeb6b85d701ce252ce1", "lon": -77.0030785}, {"is_reserved": 0, "fusion_lon": 0.0, "fusion_lat": 0.0, "name": "cf8ffce4522f705a0b8f5e07bd27d0e9", "type": "electric_scooter", "is_disabled": 0, "lat": 38.9250465, "rental_uris": {"android": "https://dc.lft.to/lastmile_qr_scan", "ios": "https://dc.lft.to/lastmile_qr_scan"}, "bike_id": "cf8ffce4522f705a0b8f5e07bd27d0e9", "lon": -77.02356}, {"is_reserved": 0, "fusion_lon": 0.0, "fusion_lat": 0.0, "name": "17ceafad6fabd882bf105d31aa1a3758", "type": "electric_scooter", "is_disabled": 0, "lat": 38.907779166666664, "rental_uris": {"android": "https://dc.lft.to/lastmile_qr_scan", "ios": "https://dc.lft.to/lastmile_qr_scan"}, "bike_id": "17ceafad6fabd882bf105d31aa1a3758", "lon": -77.072608}, {"is_reserved": 0, "fusion_lon": 0.0, "fusion_lat": 0.0, "name": "e58b08be7d2071d36df6f0948b057112", "type": "electric_scooter", "is_disabled": 0, "lat": 38.90974516666667, "rental_uris": {"android": "https://dc.lft.to/lastmile_qr_scan", "ios": "https://dc.lft.to/lastmile_qr_scan"}, "bike_id": "e58b08be7d2071d36df6f0948b057112", "lon": -77.03857016666667}, {"is_reserved": 0, "fusion_lon": 0.0, "fusion_lat": 0.0, "name": "d8fe094ff732dc84dde51fd31ca2afbd", "type": "electric_scooter", "is_disabled": 0, "lat": 38.901549, "rental_uris": {"android": "https://dc.lft.to/lastmile_qr_scan", "ios": "https://dc.lft.to/lastmile_qr_scan"}, "bike_id": "d8fe094ff732dc84dde51fd31ca2afbd", "lon": -77.0600985}, {"is_reserved": 0, "fusion_lon": 0.0, "fusion_lat": 0.0, "name": "098f54e73430beca2933b2a29bf2724f", "type": "electric_scooter", "is_disabled": 0, "lat": 38.9053265, "rental_uris": {"android": "https://dc.lft.to/lastmile_qr_scan", "ios": "https://dc.lft.to/lastmile_qr_scan"}, "bike_id": "098f54e73430beca2933b2a29bf2724f", "lon": -77.04863383333333}, {"is_reserved": 0, "fusion_lon": 0.0, "fusion_lat": 0.0, "name": "501ff7e062cbc9702ad3bb2d6109bf48", "type": "electric_scooter", "is_disabled": 0, "lat": 38.89549566666667, "rental_uris": {"android": "https://dc.lft.to/lastmile_qr_scan", "ios": "https://dc.lft.to/lastmile_qr_scan"}, "bike_id": "501ff7e062cbc9702ad3bb2d6109bf48", "lon": -76.9487445}, {"is_reserved": 0, "fusion_lon": 0.0, "fusion_lat": 0.0, "name": "84a371edbe82fd1f5c541fc6e43647a7", "type": "electric_scooter", "is_disabled": 0, "lat": 38.91385866666667, "rental_uris": {"android": "https://dc.lft.to/lastmile_qr_scan", "ios": "https://dc.lft.to/lastmile_qr_scan"}, "bike_id": "84a371edbe82fd1f5c541fc6e43647a7", "lon": -77.04143316666666}, {"is_reserved": 0, "fusion_lon": 0.0, "fusion_lat": 0.0, "name": "ae9e91cffb735ae229954718194c2a5e", "type": "electric_scooter", "is_disabled": 0, "lat": 38.90722433333333, "rental_uris": {"android": "https://dc.lft.to/lastmile_qr_scan", "ios": "https://dc.lft.to/lastmile_qr_scan"}, "bike_id": "ae9e91cffb735ae229954718194c2a5e", "lon": -77.08210783333334}, {"is_reserved": 0, "fusion_lon": 0.0, "fusion_lat": 0.0, "name": "b7ff1f31178ad791a9d724cd966e4991", "type": "electric_scooter", "is_disabled": 0, "lat": 38.929435166666664, "rental_uris": {"android": "https://dc.lft.to/lastmile_qr_scan", "ios": "https://dc.lft.to/lastmile_qr_scan"}, "bike_id": "b7ff1f31178ad791a9d724cd966e4991", "lon": -77.02776216666666}, {"is_reserved": 0, "fusion_lon": 0.0, "fusion_lat": 0.0, "name": "bea329d820d52c67ad454830ecf26354", "type": "electric_scooter", "is_disabled": 0, "lat": 38.9179725, "rental_uris": {"android": "https://dc.lft.to/lastmile_qr_scan", "ios": "https://dc.lft.to/lastmile_qr_scan"}, "bike_id": "bea329d820d52c67ad454830ecf26354", "lon": -77.03220616666667}, {"is_reserved": 0, "fusion_lon": 0.0, "fusion_lat": 0.0, "name": "e80f427d2770de2183e7b9699beae5c9", "type": "electric_scooter", "is_disabled": 0, "lat": 38.9169275, "rental_uris": {"android": "https://dc.lft.to/lastmile_qr_scan", "ios": "https://dc.lft.to/lastmile_qr_scan"}, "bike_id": "e80f427d2770de2183e7b9699beae5c9", "lon": -77.02593}, {"is_reserved": 0, "fusion_lon": 0.0, "fusion_lat": 0.0, "name": "d07cdf4aa306fd40c197f5d49b908127", "type": "electric_scooter", "is_disabled": 0, "lat": 38.86463033333333, "rental_uris": {"android": "https://dc.lft.to/lastmile_qr_scan", "ios": "https://dc.lft.to/lastmile_qr_scan"}, "bike_id": "d07cdf4aa306fd40c197f5d49b908127", "lon": -76.97731216666666}, {"is_reserved": 0, "fusion_lon": 0.0, "fusion_lat": 0.0, "name": "0ead441737d45c388be7eab102332ab6", "type": "electric_scooter", "is_disabled": 0, "lat": 38.93709283333333, "rental_uris": {"android": "https://dc.lft.to/lastmile_qr_scan", "ios": "https://dc.lft.to/lastmile_qr_scan"}, "bike_id": "0ead441737d45c388be7eab102332ab6", "lon": -77.0246915}, {"is_reserved": 0, "fusion_lon": 0.0, "fusion_lat": 0.0, "name": "5c29de279106d3457e87a1f482dcde1e", "type": "electric_scooter", "is_disabled": 0, "lat": 38.924366666666664, "rental_uris": {"android": "https://dc.lft.to/lastmile_qr_scan", "ios": "https://dc.lft.to/lastmile_qr_scan"}, "bike_id": "5c29de279106d3457e87a1f482dcde1e", "lon": -77.000673}, {"is_reserved": 0, "fusion_lon": 0.0, "fusion_lat": 0.0, "name": "33c74f36c09ebd4276f90d46eb012ac5", "type": "electric_scooter", "is_disabled": 0, "lat": 38.88411383333333, "rental_uris": {"android": "https://dc.lft.to/lastmile_qr_scan", "ios": "https://dc.lft.to/lastmile_qr_scan"}, "bike_id": "33c74f36c09ebd4276f90d46eb012ac5", "lon": -76.95382483333333}, {"is_reserved": 0, "fusion_lon": 0.0, "fusion_lat": 0.0, "name": "3802620b57a9122ca8273d9fe4057ba1", "type": "electric_bike", "is_disabled": 0, "lat": 38.908350666666664, "rental_uris": {"android": "https://dc.lft.to/lastmile_qr_scan", "ios": "https://dc.lft.to/lastmile_qr_scan"}, "bike_id": "3802620b57a9122ca8273d9fe4057ba1", "lon": -76.93313416666666}, {"is_reserved": 0, "fusion_lon": 0.0, "fusion_lat": 0.0, "name": "d7e05a9666246d3f997a41db5380d0ac", "type": "electric_scooter", "is_disabled": 0, "lat": 38.922817333333334, "rental_uris": {"android": "https://dc.lft.to/lastmile_qr_scan", "ios": "https://dc.lft.to/lastmile_qr_scan"}, "bike_id": "d7e05a9666246d3f997a41db5380d0ac", "lon": -77.04024966666667}, {"is_reserved": 0, "fusion_lon": 0.0, "fusion_lat": 0.0, "name": "702b929f03790f6674ab9bf2f5fa2d4f", "type": "electric_scooter", "is_disabled": 0, "lat": 38.885085333333336, "rental_uris": {"android": "https://dc.lft.to/lastmile_qr_scan", "ios": "https://dc.lft.to/lastmile_qr_scan"}, "bike_id": "702b929f03790f6674ab9bf2f5fa2d4f", "lon": -76.99753366666667}, {"is_reserved": 0, "fusion_lon": 0.0, "fusion_lat": 0.0, "name": "99e6a0c6099fdf3005b98c1e36852e61", "type": "electric_scooter", "is_disabled": 0, "lat": 38.86250716666667, "rental_uris": {"android": "https://dc.lft.to/lastmile_qr_scan", "ios": "https://dc.lft.to/lastmile_qr_scan"}, "bike_id": "99e6a0c6099fdf3005b98c1e36852e61", "lon": -76.9953135}, {"is_reserved": 0, "fusion_lon": 0.0, "fusion_lat": 0.0, "name": "031801e277c985d7d3a633f42f61701f", "type": "electric_bike", "is_disabled": 0, "lat": 38.839335, "rental_uris": {"android": "https://dc.lft.to/lastmile_qr_scan", "ios": "https://dc.lft.to/lastmile_qr_scan"}, "bike_id": "031801e277c985d7d3a633f42f61701f", "lon": -77.0789785}, {"is_reserved": 0, "fusion_lon": 0.0, "fusion_lat": 0.0, "name": "0232d25478d2dc79d199d16d7463990d", "type": "electric_scooter", "is_disabled": 0, "lat": 38.9108365, "rental_uris": {"android": "https://dc.lft.to/lastmile_qr_scan", "ios": "https://dc.lft.to/lastmile_qr_scan"}, "bike_id": "0232d25478d2dc79d199d16d7463990d", "lon": -77.04257166666666}, {"is_reserved": 0, "fusion_lon": 0.0, "fusion_lat": 0.0, "name": "20193a156a3d6d6b316a3695bb2cc8e5", "type": "electric_scooter", "is_disabled": 0, "lat": 38.93141883333333, "rental_uris": {"android": "https://dc.lft.to/lastmile_qr_scan", "ios": "https://dc.lft.to/lastmile_qr_scan"}, "bike_id": "20193a156a3d6d6b316a3695bb2cc8e5", "lon": -77.043993}, {"is_reserved": 0, "fusion_lon": 0.0, "fusion_lat": 0.0, "name": "2d5ee5bcd6a8c3c88e691094dfc72342", "type": "electric_scooter", "is_disabled": 0, "lat": 38.90061583333333, "rental_uris": {"android": "https://dc.lft.to/lastmile_qr_scan", "ios": "https://dc.lft.to/lastmile_qr_scan"}, "bike_id": "2d5ee5bcd6a8c3c88e691094dfc72342", "lon": -77.00200566666666}, {"is_reserved": 0, "fusion_lon": 0.0, "fusion_lat": 0.0, "name": "ce0aedf25978efdebcba7a2b442afb49", "type": "electric_scooter", "is_disabled": 0, "lat": 38.911975, "rental_uris": {"android": "https://dc.lft.to/lastmile_qr_scan", "ios": "https://dc.lft.to/lastmile_qr_scan"}, "bike_id": "ce0aedf25978efdebcba7a2b442afb49", "lon": -77.06092733333334}, {"is_reserved": 0, "fusion_lon": 0.0, "fusion_lat": 0.0, "name": "a4664474555df212c0abc2d8f45fc98f", "type": "electric_scooter", "is_disabled": 0, "lat": 38.940349833333336, "rental_uris": {"android": "https://dc.lft.to/lastmile_qr_scan", "ios": "https://dc.lft.to/lastmile_qr_scan"}, "bike_id": "a4664474555df212c0abc2d8f45fc98f", "lon": -77.0290675}, {"is_reserved": 0, "fusion_lon": 0.0, "fusion_lat": 0.0, "name": "1e5d43cb6205797c696f02a0dfad952d", "type": "electric_bike", "is_disabled": 0, "lat": 38.90317733333333, "rental_uris": {"android": "https://dc.lft.to/lastmile_qr_scan", "ios": "https://dc.lft.to/lastmile_qr_scan"}, "bike_id": "1e5d43cb6205797c696f02a0dfad952d", "lon": -76.91215416666667}, {"is_reserved": 0, "fusion_lon": 0.0, "fusion_lat": 0.0, "name": "ddef7239fc4d0c3059392cf2044ef9b9", "type": "electric_scooter", "is_disabled": 0, "lat": 38.900702, "rental_uris": {"android": "https://dc.lft.to/lastmile_qr_scan", "ios": "https://dc.lft.to/lastmile_qr_scan"}, "bike_id": "ddef7239fc4d0c3059392cf2044ef9b9", "lon": -77.0019245}, {"is_reserved": 0, "fusion_lon": 0.0, "fusion_lat": 0.0, "name": "ccd620caa01bfacb73ce155433654533", "type": "electric_scooter", "is_disabled": 0, "lat": 38.935328166666665, "rental_uris": {"android": "https://dc.lft.to/lastmile_qr_scan", "ios": "https://dc.lft.to/lastmile_qr_scan"}, "bike_id": "ccd620caa01bfacb73ce155433654533", "lon": -77.0347085}, {"is_reserved": 0, "fusion_lon": 0.0, "fusion_lat": 0.0, "name": "765294919d0f51a65998d477044294bd", "type": "electric_scooter", "is_disabled": 0, "lat": 38.927675666666666, "rental_uris": {"android": "https://dc.lft.to/lastmile_qr_scan", "ios": "https://dc.lft.to/lastmile_qr_scan"}, "bike_id": "765294919d0f51a65998d477044294bd", "lon": -77.0206625}, {"is_reserved": 0, "fusion_lon": 0.0, "fusion_lat": 0.0, "name": "da35ee230a7a323d8016df9b3d90b6b6", "type": "electric_scooter", "is_disabled": 0, "lat": 38.916922, "rental_uris": {"android": "https://dc.lft.to/lastmile_qr_scan", "ios": "https://dc.lft.to/lastmile_qr_scan"}, "bike_id": "da35ee230a7a323d8016df9b3d90b6b6", "lon": -77.023058}, {"is_reserved": 0, "fusion_lon": 0.0, "fusion_lat": 0.0, "name": "90f08339745051c2ed89d9fa4e9447f2", "type": "electric_bike", "is_disabled": 0, "lat": 38.89790433333334, "rental_uris": {"android": "https://dc.lft.to/lastmile_qr_scan", "ios": "https://dc.lft.to/lastmile_qr_scan"}, "bike_id": "90f08339745051c2ed89d9fa4e9447f2", "lon": -77.00726983333334}, {"is_reserved": 0, "fusion_lon": 0.0, "fusion_lat": 0.0, "name": "c126473e05c1395ffc40c61e0849e645", "type": "electric_scooter", "is_disabled": 0, "lat": 38.91109083333333, "rental_uris": {"android": "https://dc.lft.to/lastmile_qr_scan", "ios": "https://dc.lft.to/lastmile_qr_scan"}, "bike_id": "c126473e05c1395ffc40c61e0849e645", "lon": -77.02420733333334}, {"is_reserved": 0, "fusion_lon": 0.0, "fusion_lat": 0.0, "name": "53e58cfc1a51f2617793e4d568097a9e", "type": "electric_scooter", "is_disabled": 0, "lat": 38.907251333333335, "rental_uris": {"android": "https://dc.lft.to/lastmile_qr_scan", "ios": "https://dc.lft.to/lastmile_qr_scan"}, "bike_id": "53e58cfc1a51f2617793e4d568097a9e", "lon": -76.99814316666667}, {"is_reserved": 0, "fusion_lon": 0.0, "fusion_lat": 0.0, "name": "e24c09ed8c4c519aadc375fcc1385b0d", "type": "electric_scooter", "is_disabled": 0, "lat": 38.89018133333333, "rental_uris": {"android": "https://dc.lft.to/lastmile_qr_scan", "ios": "https://dc.lft.to/lastmile_qr_scan"}, "bike_id": "e24c09ed8c4c519aadc375fcc1385b0d", "lon": -76.93732466666667}, {"is_reserved": 0, "fusion_lon": 0.0, "fusion_lat": 0.0, "name": "5e2ed437459d1f54b80fda818750ef07", "type": "electric_scooter", "is_disabled": 0, "lat": 38.9002775, "rental_uris": {"android": "https://dc.lft.to/lastmile_qr_scan", "ios": "https://dc.lft.to/lastmile_qr_scan"}, "bike_id": "5e2ed437459d1f54b80fda818750ef07", "lon": -77.0019685}, {"is_reserved": 0, "fusion_lon": 0.0, "fusion_lat": 0.0, "name": "b33bcdd677e844c297b2e38e2fbe1b3a", "type": "electric_scooter", "is_disabled": 0, "lat": 38.93169666666667, "rental_uris": {"android": "https://dc.lft.to/lastmile_qr_scan", "ios": "https://dc.lft.to/lastmile_qr_scan"}, "bike_id": "b33bcdd677e844c297b2e38e2fbe1b3a", "lon": -77.0281345}, {"is_reserved": 0, "fusion_lon": 0.0, "fusion_lat": 0.0, "name": "f3e65cf06e065908f5feb564f857b7c8", "type": "electric_scooter", "is_disabled": 0, "lat": 38.915780833333336, "rental_uris": {"android": "https://dc.lft.to/lastmile_qr_scan", "ios": "https://dc.lft.to/lastmile_qr_scan"}, "bike_id": "f3e65cf06e065908f5feb564f857b7c8", "lon": -77.03189116666667}, {"is_reserved": 0, "fusion_lon": 0.0, "fusion_lat": 0.0, "name": "4712148dd79f1463e951612577f247d9", "type": "electric_scooter", "is_disabled": 0, "lat": 38.931282833333334, "rental_uris": {"android": "https://dc.lft.to/lastmile_qr_scan", "ios": "https://dc.lft.to/lastmile_qr_scan"}, "bike_id": "4712148dd79f1463e951612577f247d9", "lon": -77.03822783333334}, {"is_reserved": 0, "fusion_lon": 0.0, "fusion_lat": 0.0, "name": "4f73af266cef063edc4be8e4c48f52b8", "type": "electric_scooter", "is_disabled": 0, "lat": 38.88866433333333, "rental_uris": {"android": "https://dc.lft.to/lastmile_qr_scan", "ios": "https://dc.lft.to/lastmile_qr_scan"}, "bike_id": "4f73af266cef063edc4be8e4c48f52b8", "lon": -77.031009}, {"is_reserved": 0, "fusion_lon": 0.0, "fusion_lat": 0.0, "name": "caccb5041248c377b899c2f314b266fb", "type": "electric_scooter", "is_disabled": 0, "lat": 38.89181683333334, "rental_uris": {"android": "https://dc.lft.to/lastmile_qr_scan", "ios": "https://dc.lft.to/lastmile_qr_scan"}, "bike_id": "caccb5041248c377b899c2f314b266fb", "lon": -77.03634016666666}, {"is_reserved": 0, "fusion_lon": 0.0, "fusion_lat": 0.0, "name": "4efd6fe05905534ab4ed117b6272e662", "type": "electric_scooter", "is_disabled": 0, "lat": 38.89827733333333, "rental_uris": {"android": "https://dc.lft.to/lastmile_qr_scan", "ios": "https://dc.lft.to/lastmile_qr_scan"}, "bike_id": "4efd6fe05905534ab4ed117b6272e662", "lon": -76.94652883333333}, {"is_reserved": 0, "fusion_lon": 0.0, "fusion_lat": 0.0, "name": "bf827a66956d96668c8dca61777f571b", "type": "electric_scooter", "is_disabled": 0, "lat": 38.90507933333333, "rental_uris": {"android": "https://dc.lft.to/lastmile_qr_scan", "ios": "https://dc.lft.to/lastmile_qr_scan"}, "bike_id": "bf827a66956d96668c8dca61777f571b", "lon": -77.0464105}, {"is_reserved": 0, "fusion_lon": 0.0, "fusion_lat": 0.0, "name": "cbb57041b368ec38d99a76366a633976", "type": "electric_scooter", "is_disabled": 0, "lat": 38.907746333333336, "rental_uris": {"android": "https://dc.lft.to/lastmile_qr_scan", "ios": "https://dc.lft.to/lastmile_qr_scan"}, "bike_id": "cbb57041b368ec38d99a76366a633976", "lon": -76.97829033333333}, {"is_reserved": 0, "fusion_lon": 0.0, "fusion_lat": 0.0, "name": "8e1db6b5d4864434a36a6141247d6eef", "type": "electric_scooter", "is_disabled": 0, "lat": 38.9189965, "rental_uris": {"android": "https://dc.lft.to/lastmile_qr_scan", "ios": "https://dc.lft.to/lastmile_qr_scan"}, "bike_id": "8e1db6b5d4864434a36a6141247d6eef", "lon": -76.98743816666666}, {"is_reserved": 0, "fusion_lon": 0.0, "fusion_lat": 0.0, "name": "00a59fd4869bd3c3d7e394e755deca04", "type": "electric_scooter", "is_disabled": 0, "lat": 38.91923766666667, "rental_uris": {"android": "https://dc.lft.to/lastmile_qr_scan", "ios": "https://dc.lft.to/lastmile_qr_scan"}, "bike_id": "00a59fd4869bd3c3d7e394e755deca04", "lon": -77.03186916666667}, {"is_reserved": 0, "fusion_lon": 0.0, "fusion_lat": 0.0, "name": "3b93abb90725b124d760190e2cdc4023", "type": "electric_scooter", "is_disabled": 0, "lat": 38.9518275, "rental_uris": {"android": "https://dc.lft.to/lastmile_qr_scan", "ios": "https://dc.lft.to/lastmile_qr_scan"}, "bike_id": "3b93abb90725b124d760190e2cdc4023", "lon": -77.027325}, {"is_reserved": 0, "fusion_lon": 0.0, "fusion_lat": 0.0, "name": "2d7123a39a54befdb96a28e5d9c4f729", "type": "electric_scooter", "is_disabled": 0, "lat": 38.915880666666666, "rental_uris": {"android": "https://dc.lft.to/lastmile_qr_scan", "ios": "https://dc.lft.to/lastmile_qr_scan"}, "bike_id": "2d7123a39a54befdb96a28e5d9c4f729", "lon": -77.0229875}, {"is_reserved": 0, "fusion_lon": 0.0, "fusion_lat": 0.0, "name": "d62ed08650b839e0159395c35b0d1176", "type": "electric_scooter", "is_disabled": 0, "lat": 38.92448616666667, "rental_uris": {"android": "https://dc.lft.to/lastmile_qr_scan", "ios": "https://dc.lft.to/lastmile_qr_scan"}, "bike_id": "d62ed08650b839e0159395c35b0d1176", "lon": -76.97914383333334}, {"is_reserved": 0, "fusion_lon": 0.0, "fusion_lat": 0.0, "name": "963ef21068ad17ceba93ac289a4dbf8f", "type": "electric_scooter", "is_disabled": 0, "lat": 38.91019933333333, "rental_uris": {"android": "https://dc.lft.to/lastmile_qr_scan", "ios": "https://dc.lft.to/lastmile_qr_scan"}, "bike_id": "963ef21068ad17ceba93ac289a4dbf8f", "lon": -77.03432283333333}, {"is_reserved": 0, "fusion_lon": 0.0, "fusion_lat": 0.0, "name": "74484f555585cbb7b76c386d33d21ebb", "type": "electric_scooter", "is_disabled": 0, "lat": 38.905031666666666, "rental_uris": {"android": "https://dc.lft.to/lastmile_qr_scan", "ios": "https://dc.lft.to/lastmile_qr_scan"}, "bike_id": "74484f555585cbb7b76c386d33d21ebb", "lon": -77.02940383333333}, {"is_reserved": 0, "fusion_lon": 0.0, "fusion_lat": 0.0, "name": "5bf7f41aea3e841b0655279621a06b07", "type": "electric_scooter", "is_disabled": 0, "lat": 38.909925, "rental_uris": {"android": "https://dc.lft.to/lastmile_qr_scan", "ios": "https://dc.lft.to/lastmile_qr_scan"}, "bike_id": "5bf7f41aea3e841b0655279621a06b07", "lon": -77.028131}, {"is_reserved": 0, "fusion_lon": 0.0, "fusion_lat": 0.0, "name": "03250579c82bb74bba22635b43d0e302", "type": "electric_scooter", "is_disabled": 0, "lat": 38.918882833333335, "rental_uris": {"android": "https://dc.lft.to/lastmile_qr_scan", "ios": "https://dc.lft.to/lastmile_qr_scan"}, "bike_id": "03250579c82bb74bba22635b43d0e302", "lon": -77.02970666666667}, {"is_reserved": 0, "fusion_lon": 0.0, "fusion_lat": 0.0, "name": "96e72488beda69f22abaf9f68b9e20a8", "type": "electric_scooter", "is_disabled": 0, "lat": 38.919365666666664, "rental_uris": {"android": "https://dc.lft.to/lastmile_qr_scan", "ios": "https://dc.lft.to/lastmile_qr_scan"}, "bike_id": "96e72488beda69f22abaf9f68b9e20a8", "lon": -77.02184283333334}, {"is_reserved": 0, "fusion_lon": 0.0, "fusion_lat": 0.0, "name": "61d4b3000d2e8253205da8d3aae623bd", "type": "electric_scooter", "is_disabled": 0, "lat": 38.922909, "rental_uris": {"android": "https://dc.lft.to/lastmile_qr_scan", "ios": "https://dc.lft.to/lastmile_qr_scan"}, "bike_id": "61d4b3000d2e8253205da8d3aae623bd", "lon": -77.0428115}, {"is_reserved": 0, "fusion_lon": 0.0, "fusion_lat": 0.0, "name": "fa365ca72d6f1187f6be1106d31629db", "type": "electric_scooter", "is_disabled": 0, "lat": 38.9157045, "rental_uris": {"android": "https://dc.lft.to/lastmile_qr_scan", "ios": "https://dc.lft.to/lastmile_qr_scan"}, "bike_id": "fa365ca72d6f1187f6be1106d31629db", "lon": -77.02406316666666}, {"is_reserved": 0, "fusion_lon": 0.0, "fusion_lat": 0.0, "name": "c67f19ad2f56911ba04200cf7a2bb699", "type": "electric_scooter", "is_disabled": 0, "lat": 38.89503783333333, "rental_uris": {"android": "https://dc.lft.to/lastmile_qr_scan", "ios": "https://dc.lft.to/lastmile_qr_scan"}, "bike_id": "c67f19ad2f56911ba04200cf7a2bb699", "lon": -76.93476883333334}, {"is_reserved": 0, "fusion_lon": 0.0, "fusion_lat": 0.0, "name": "f6b4da24684ebd79a8318a6516fbc58b", "type": "electric_scooter", "is_disabled": 0, "lat": 38.862521, "rental_uris": {"android": "https://dc.lft.to/lastmile_qr_scan", "ios": "https://dc.lft.to/lastmile_qr_scan"}, "bike_id": "f6b4da24684ebd79a8318a6516fbc58b", "lon": -76.99515483333333}, {"is_reserved": 0, "fusion_lon": 0.0, "fusion_lat": 0.0, "name": "6ff47f87ee2ddb61c9b9fdacc44510d1", "type": "electric_scooter", "is_disabled": 0, "lat": 38.887626833333336, "rental_uris": {"android": "https://dc.lft.to/lastmile_qr_scan", "ios": "https://dc.lft.to/lastmile_qr_scan"}, "bike_id": "6ff47f87ee2ddb61c9b9fdacc44510d1", "lon": -76.9868255}, {"is_reserved": 0, "fusion_lon": 0.0, "fusion_lat": 0.0, "name": "4c51d21e1092d305cf4690f36a96ff42", "type": "electric_scooter", "is_disabled": 0, "lat": 38.91692416666667, "rental_uris": {"android": "https://dc.lft.to/lastmile_qr_scan", "ios": "https://dc.lft.to/lastmile_qr_scan"}, "bike_id": "4c51d21e1092d305cf4690f36a96ff42", "lon": -77.03205566666666}, {"is_reserved": 0, "fusion_lon": 0.0, "fusion_lat": 0.0, "name": "fa515d8f9b3eb67dc196fc583b8fcd0b", "type": "electric_scooter", "is_disabled": 0, "lat": 38.90380416666667, "rental_uris": {"android": "https://dc.lft.to/lastmile_qr_scan", "ios": "https://dc.lft.to/lastmile_qr_scan"}, "bike_id": "fa515d8f9b3eb67dc196fc583b8fcd0b", "lon": -77.03814616666666}, {"is_reserved": 0, "fusion_lon": 0.0, "fusion_lat": 0.0, "name": "a5587a4a55c06e99e2cd4d9b49890a9f", "type": "electric_scooter", "is_disabled": 0, "lat": 38.89735316666667, "rental_uris": {"android": "https://dc.lft.to/lastmile_qr_scan", "ios": "https://dc.lft.to/lastmile_qr_scan"}, "bike_id": "a5587a4a55c06e99e2cd4d9b49890a9f", "lon": -77.03357283333334}, {"is_reserved": 0, "fusion_lon": 0.0, "fusion_lat": 0.0, "name": "5367385915cd88cad32622e06ac0d66a", "type": "electric_scooter", "is_disabled": 0, "lat": 38.94505983333333, "rental_uris": {"android": "https://dc.lft.to/lastmile_qr_scan", "ios": "https://dc.lft.to/lastmile_qr_scan"}, "bike_id": "5367385915cd88cad32622e06ac0d66a", "lon": -77.074514}, {"is_reserved": 0, "fusion_lon": 0.0, "fusion_lat": 0.0, "name": "84c092c89ef1a0ac13fea6cdc9274cde", "type": "electric_bike", "is_disabled": 0, "lat": 39.05633366666667, "rental_uris": {"android": "https://dc.lft.to/lastmile_qr_scan", "ios": "https://dc.lft.to/lastmile_qr_scan"}, "bike_id": "84c092c89ef1a0ac13fea6cdc9274cde", "lon": -77.12526883333334}, {"is_reserved": 0, "fusion_lon": 0.0, "fusion_lat": 0.0, "name": "49f34d4d1d490384a6152124d3624b1c", "type": "electric_scooter", "is_disabled": 0, "lat": 38.92256233333333, "rental_uris": {"android": "https://dc.lft.to/lastmile_qr_scan", "ios": "https://dc.lft.to/lastmile_qr_scan"}, "bike_id": "49f34d4d1d490384a6152124d3624b1c", "lon": -77.04288683333333}, {"is_reserved": 0, "fusion_lon": 0.0, "fusion_lat": 0.0, "name": "12b083c2781290a12ad1b44fc6064b45", "type": "electric_scooter", "is_disabled": 0, "lat": 38.950668666666665, "rental_uris": {"android": "https://dc.lft.to/lastmile_qr_scan", "ios": "https://dc.lft.to/lastmile_qr_scan"}, "bike_id": "12b083c2781290a12ad1b44fc6064b45", "lon": -77.0653425}, {"is_reserved": 0, "fusion_lon": 0.0, "fusion_lat": 0.0, "name": "45a2a02dde64dae6d35f8d841349450e", "type": "electric_scooter", "is_disabled": 0, "lat": 38.92203533333333, "rental_uris": {"android": "https://dc.lft.to/lastmile_qr_scan", "ios": "https://dc.lft.to/lastmile_qr_scan"}, "bike_id": "45a2a02dde64dae6d35f8d841349450e", "lon": -77.0296095}, {"is_reserved": 0, "fusion_lon": 0.0, "fusion_lat": 0.0, "name": "841a7b6b24ba583b9a9b194dc6317694", "type": "electric_scooter", "is_disabled": 0, "lat": 38.85065616666667, "rental_uris": {"android": "https://dc.lft.to/lastmile_qr_scan", "ios": "https://dc.lft.to/lastmile_qr_scan"}, "bike_id": "841a7b6b24ba583b9a9b194dc6317694", "lon": -76.970095}, {"is_reserved": 0, "fusion_lon": 0.0, "fusion_lat": 0.0, "name": "e96ec8387bed983bbf30b2cdf168f8e9", "type": "electric_scooter", "is_disabled": 0, "lat": 38.90723216666667, "rental_uris": {"android": "https://dc.lft.to/lastmile_qr_scan", "ios": "https://dc.lft.to/lastmile_qr_scan"}, "bike_id": "e96ec8387bed983bbf30b2cdf168f8e9", "lon": -77.029824}, {"is_reserved": 0, "fusion_lon": 0.0, "fusion_lat": 0.0, "name": "8c33c13c6bf74d42b2e4f5fb499167d3", "type": "electric_scooter", "is_disabled": 0, "lat": 38.909246, "rental_uris": {"android": "https://dc.lft.to/lastmile_qr_scan", "ios": "https://dc.lft.to/lastmile_qr_scan"}, "bike_id": "8c33c13c6bf74d42b2e4f5fb499167d3", "lon": -77.07268166666667}, {"is_reserved": 0, "fusion_lon": 0.0, "fusion_lat": 0.0, "name": "3ddb2b35b2b99fdbeb97a6dc2abcf1a2", "type": "electric_scooter", "is_disabled": 0, "lat": 38.928700166666665, "rental_uris": {"android": "https://dc.lft.to/lastmile_qr_scan", "ios": "https://dc.lft.to/lastmile_qr_scan"}, "bike_id": "3ddb2b35b2b99fdbeb97a6dc2abcf1a2", "lon": -77.03323933333333}, {"is_reserved": 0, "fusion_lon": 0.0, "fusion_lat": 0.0, "name": "46cf7d7be2ffb28570bd198028249b0c", "type": "electric_scooter", "is_disabled": 0, "lat": 38.928531166666666, "rental_uris": {"android": "https://dc.lft.to/lastmile_qr_scan", "ios": "https://dc.lft.to/lastmile_qr_scan"}, "bike_id": "46cf7d7be2ffb28570bd198028249b0c", "lon": -77.0273485}, {"is_reserved": 0, "fusion_lon": 0.0, "fusion_lat": 0.0, "name": "7137ff83c91c20f2cf35c0e713471192", "type": "electric_scooter", "is_disabled": 0, "lat": 38.91992116666667, "rental_uris": {"android": "https://dc.lft.to/lastmile_qr_scan", "ios": "https://dc.lft.to/lastmile_qr_scan"}, "bike_id": "7137ff83c91c20f2cf35c0e713471192", "lon": -77.0214845}, {"is_reserved": 0, "fusion_lon": 0.0, "fusion_lat": 0.0, "name": "e09051df5852e7f7aa79120fd9ce034a", "type": "electric_scooter", "is_disabled": 0, "lat": 38.89317916666667, "rental_uris": {"android": "https://dc.lft.to/lastmile_qr_scan", "ios": "https://dc.lft.to/lastmile_qr_scan"}, "bike_id": "e09051df5852e7f7aa79120fd9ce034a", "lon": -76.939735}, {"is_reserved": 0, "fusion_lon": 0.0, "fusion_lat": 0.0, "name": "0dbbb4c46eee22c0b3413033917719f5", "type": "electric_scooter", "is_disabled": 0, "lat": 38.90136233333333, "rental_uris": {"android": "https://dc.lft.to/lastmile_qr_scan", "ios": "https://dc.lft.to/lastmile_qr_scan"}, "bike_id": "0dbbb4c46eee22c0b3413033917719f5", "lon": -77.01326716666667}, {"is_reserved": 0, "fusion_lon": 0.0, "fusion_lat": 0.0, "name": "f97fd874b0f24278e832bd3265328170", "type": "electric_scooter", "is_disabled": 0, "lat": 38.904565, "rental_uris": {"android": "https://dc.lft.to/lastmile_qr_scan", "ios": "https://dc.lft.to/lastmile_qr_scan"}, "bike_id": "f97fd874b0f24278e832bd3265328170", "lon": -77.05151333333333}, {"is_reserved": 0, "fusion_lon": 0.0, "fusion_lat": 0.0, "name": "e0bbabb4025686ce0256a151419f625f", "type": "electric_scooter", "is_disabled": 0, "lat": 38.9273235, "rental_uris": {"android": "https://dc.lft.to/lastmile_qr_scan", "ios": "https://dc.lft.to/lastmile_qr_scan"}, "bike_id": "e0bbabb4025686ce0256a151419f625f", "lon": -77.03523133333333}, {"is_reserved": 0, "fusion_lon": 0.0, "fusion_lat": 0.0, "name": "576b6ec277e5a805ea242208d541e34b", "type": "electric_scooter", "is_disabled": 0, "lat": 38.926580333333334, "rental_uris": {"android": "https://dc.lft.to/lastmile_qr_scan", "ios": "https://dc.lft.to/lastmile_qr_scan"}, "bike_id": "576b6ec277e5a805ea242208d541e34b", "lon": -77.03726033333334}, {"is_reserved": 0, "fusion_lon": 0.0, "fusion_lat": 0.0, "name": "2061408d558231a87b50757210442b96", "type": "electric_scooter", "is_disabled": 0, "lat": 38.90232733333333, "rental_uris": {"android": "https://dc.lft.to/lastmile_qr_scan", "ios": "https://dc.lft.to/lastmile_qr_scan"}, "bike_id": "2061408d558231a87b50757210442b96", "lon": -77.04528016666667}, {"is_reserved": 0, "fusion_lon": 0.0, "fusion_lat": 0.0, "name": "0542a9faa8026340c5290ee0fe14ff89", "type": "electric_bike", "is_disabled": 0, "lat": 38.90122016666667, "rental_uris": {"android": "https://dc.lft.to/lastmile_qr_scan", "ios": "https://dc.lft.to/lastmile_qr_scan"}, "bike_id": "0542a9faa8026340c5290ee0fe14ff89", "lon": -77.01766216666667},