{"data": {"bikes": [{"fusion_lat": 0.0, "bike_id": "134e72dda14263c169f062ea4564255a", "fusion_lon": 0.0, "lon": -77.05042816666666, "lat": 38.923835, "is_reserved": 0, "is_disabled": 0, "rental_uris": {"android": "https://dc.lft.to/lastmile_qr_scan", "ios": "https://dc.lft.to/lastmile_qr_scan"}, "name": "134e72dda14263c169f062ea4564255a", "type": "electric_scooter"}, {"fusion_lat": 0.0, "bike_id": "eeb86b7f5f9040d3eb465d83f3cbf38c", "fusion_lon": 0.0, "lon": -77.0552885, "lat": 38.926645666666666, "is_reserved": 0, "is_disabled": 0, "rental_uris": {"android": "https://dc.lft.to/lastmile_qr_scan", "ios": "https://dc.lft.to/lastmile_qr_scan"}, "name": "eeb86b7f5f9040d3eb465d83f3cbf38c", "type": "electric_scooter"}, {"fusion_lat": 0.0, "bike_id": "5da54bb328bd157cf27d0f4d40ecf904", "fusion_lon": 0.0, "lon": -77.03826066666667, "lat": 38.91265833333333, "is_reserved": 0, "is_disabled": 0, "rental_uris": {"android": "https://dc.lft.to/lastmile_qr_scan", "ios": "https://dc.lft.to/lastmile_qr_scan"}, "name": "5da54bb328bd157cf27d0f4d40ecf904", "type": "electric_scooter"}, {"fusion_lat": 0.0, "bike_id": "16823b43ffe647064140ae504de7f8c5", "fusion_lon": 0.0, "lon": -77.0415805, "lat": 38.91250816666667, "is_reserved": 0, "is_disabled": 0, "rental_uris": {"android": "https://dc.lft.to/lastmile_qr_scan", "ios": "https://dc.lft.to/lastmile_qr_scan"}, "name": "16823b43ffe647064140ae504de7f8c5", "type": "electric_scooter"}, {"fusion_lat": 0.0, "bike_id": "fd894b222621e5f42b57932eca59f0c3", "fusion_lon": 0.0, "lon": -77.01780466666666, "lat": 38.885945166666666, "is_reserved": 0, "is_disabled": 0, "rental_uris": {"android": "https://dc.lft.to/lastmile_qr_scan", "ios": "https://dc.lft.to/lastmile_qr_scan"}, "name": "fd894b222621e5f42b57932eca59f0c3", "type": "electric_scooter"}, {"fusion_lat": 0.0, "bike_id": "c7f40a8956d7d9d1ae69016927b05b32", "fusion_lon": 0.0, "lon": -76.98233883333333, "lat": 38.88863666666666, "is_reserved": 0, "is_disabled": 0, "rental_uris": {"android": "https://dc.lft.to/lastmile_qr_scan", "ios": "https://dc.lft.to/lastmile_qr_scan"}, "name": "c7f40a8956d7d9d1ae69016927b05b32", "type": "electric_scooter"}, {"fusion_lat": 0.0, "bike_id": "bbc1eec3761034051f9c21fdace104fa", "fusion_lon": 0.0, "lon": -77.048027, "lat": 38.914111166666665, "is_reserved": 0, "is_disabled": 0, "rental_uris": {"android": "https://dc.lft.to/lastmile_qr_scan", "ios": "https://dc.lft.to/lastmile_qr_scan"}, "name": "bbc1eec3761034051f9c21fdace104fa", "type": "electric_scooter"}, {"fusion_lat": 0.0, "bike_id": "9cb82bcc3a6f2f9c1716587746ee4a53", "fusion_lon": 0.0, "lon": -77.0418305, "lat": 38.8922595, "is_reserved": 0, "is_disabled": 0, "rental_uris": {"android": "https://dc.lft.to/lastmile_qr_scan", "ios": "https://dc.lft.to/lastmile_qr_scan"}, "name": "9cb82bcc3a6f2f9c1716587746ee4a53", "type": "electric_scooter"}, {"fusion_lat": 0.0, "bike_id": "ef2db205d1169a7a73be682dc3a87fc1", "fusion_lon": 0.0, "lon": -77.04996916666667, "lat": 38.892322166666666, "is_reserved": 0, "is_disabled": 0, "rental_uris": {"android": "https://dc.lft.to/lastmile_qr_scan", "ios": "https://dc.lft.to/lastmile_qr_scan"}, "name": "ef2db205d1169a7a73be682dc3a87fc1", "type": "electric_scooter"}, {"fusion_lat": 0.0, "bike_id": "8d2f10c90ddbf71ec1e29d592592a64f", "fusion_lon": 0.0, "lon": -77.01451633333333, "lat": 38.92982133333334, "is_reserved": 0, "is_disabled": 0, "rental_uris": {"android": "https://dc.lft.to/lastmile_qr_scan", "ios": "https://dc.lft.to/lastmile_qr_scan"}, "name": "8d2f10c90ddbf71ec1e29d592592a64f", "type": "electric_scooter"}, {"fusion_lat": 0.0, "bike_id": "41766f79ffdc104b29bdbd5dca7c4b96", "fusion_lon": 0.0, "lon": -77.033754, "lat": 38.9010815, "is_reserved": 0, "is_disabled": 0, "rental_uris": {"android": "https://dc.lft.to/lastmile_qr_scan", "ios": "https://dc.lft.to/lastmile_qr_scan"}, "name": "41766f79ffdc104b29bdbd5dca7c4b96", "type": "electric_scooter"}, {"fusion_lat": 0.0, "bike_id": "4c0285f981933613f41df6ba01f5b997", "fusion_lon": 0.0, "lon": -77.02790883333333, "lat": 38.91691133333333, "is_reserved": 0, "is_disabled": 0, "rental_uris": {"android": "https://dc.lft.to/lastmile_qr_scan", "ios": "https://dc.lft.to/lastmile_qr_scan"}, "name": "4c0285f981933613f41df6ba01f5b997", "type": "electric_scooter"}, {"fusion_lat": 0.0, "bike_id": "bbfe28b55f1b797837cedf40b9cf4251", "fusion_lon": 0.0, "lon": -76.93356816666666, "lat": 38.887953333333336, "is_reserved": 0, "is_disabled": 0, "rental_uris": {"android": "https://dc.lft.to/lastmile_qr_scan", "ios": "https://dc.lft.to/lastmile_qr_scan"}, "name": "bbfe28b55f1b797837cedf40b9cf4251", "type": "electric_scooter"}, {"fusion_lat": 0.0, "bike_id": "b19bf89a43c4445193de35902cb12bcd", "fusion_lon": 0.0, "lon": -76.99491233333333, "lat": 38.8355725, "is_reserved": 0, "is_disabled": 0, "rental_uris": {"android": "https://dc.lft.to/lastmile_qr_scan", "ios": "https://dc.lft.to/lastmile_qr_scan"}, "name": "b19bf89a43c4445193de35902cb12bcd", "type": "electric_scooter"}, {"fusion_lat": 0.0, "bike_id": "66b88761a418ad799b095c7f8edcf5be", "fusion_lon": 0.0, "lon": -77.05323183333333, "lat": 38.906404, "is_reserved": 0, "is_disabled": 0, "rental_uris": {"android": "https://dc.lft.to/lastmile_qr_scan", "ios": "https://dc.lft.to/lastmile_qr_scan"}, "name": "66b88761a418ad799b095c7f8edcf5be", "type": "electric_scooter"}, {"fusion_lat": 0.0, "bike_id": "3e871668a8dad881596acf9fab27b8f6", "fusion_lon": 0.0, "lon": -77.02043266666666, "lat": 38.899749166666666, "is_reserved": 0, "is_disabled": 0, "rental_uris": {"android": "https://dc.lft.to/lastmile_qr_scan", "ios": "https://dc.lft.to/lastmile_qr_scan"}, "name": "3e871668a8dad881596acf9fab27b8f6", "type": "electric_scooter"}, {"fusion_lat": 0.0, "bike_id": "308e41ba3545f707a31dfffb063a4f37", "fusion_lon": 0.0, "lon": -77.024559, "lat": 38.90261, "is_reserved": 0, "is_disabled": 0, "rental_uris": {"android": "https://dc.lft.to/lastmile_qr_scan", "ios": "https://dc.lft.to/lastmile_qr_scan"}, "name": "308e41ba3545f707a31dfffb063a4f37", "type": "electric_scooter"}, {"fusion_lat": 0.0, "bike_id": "a2b8fb12e2fb19e19be4dd67bff559d3", "fusion_lon": 0.0, "lon": -77.042644, "lat": 38.922344833333334, "is_reserved": 0, "is_disabled": 0, "rental_uris": {"android": "https://dc.lft.to/lastmile_qr_scan", "ios": "https://dc.lft.to/lastmile_qr_scan"}, "name": "a2b8fb12e2fb19e19be4dd67bff559d3", "type": "electric_scooter"}, {"fusion_lat": 0.0, "bike_id": "d8202be34f120c45478166fdd6e0a32d", "fusion_lon": 0.0, "lon": -77.046103, "lat": 38.9025215, "is_reserved": 0, "is_disabled": 0, "rental_uris": {"android": "https://dc.lft.to/lastmile_qr_scan", "ios": "https://dc.lft.to/lastmile_qr_scan"}, "name": "d8202be34f120c45478166fdd6e0a32d", "type": "electric_scooter"}, {"fusion_lat": 0.0, "bike_id": "bb27cecb6fd7b6246579a8463f85616c", "fusion_lon": 0.0, "lon": -77.0321615, "lat": 38.892225, "is_reserved": 0, "is_disabled": 0, "rental_uris": {"android": "https://dc.lft.to/lastmile_qr_scan", "ios": "https://dc.lft.to/lastmile_qr_scan"}, "name": "bb27cecb6fd7b6246579a8463f85616c", "type": "electric_scooter"}, {"fusion_lat": 0.0, "bike_id": "662c0aa7e4a7837e171110154e15dee0", "fusion_lon": 0.0, "lon": -77.1158945, "lat": 39.0749455, "is_reserved": 0, "is_disabled": 0, "rental_uris": {"android": "https://dc.lft.to/lastmile_qr_scan", "ios": "https://dc.lft.to/lastmile_qr_scan"}, "name": "662c0aa7e4a7837e171110154e15dee0", "type": "electric_bike"}, {"fusion_lat": 0.0, "bike_id": "1ac7c01776277216b5f6c396b2e10719", "fusion_lon": 0.0, "lon": -77.0173285, "lat": 38.887460833333336, "is_reserved": 0, "is_disabled": 0, "rental_uris": {"android": "https://dc.lft.to/lastmile_qr_scan", "ios": "https://dc.lft.to/lastmile_qr_scan"}, "name": "1ac7c01776277216b5f6c396b2e10719", "type": "electric_scooter"}, {"fusion_lat": 0.0, "bike_id": "ab3de1fef6c035d21e6a8d61b0a69de3", "fusion_lon": 0.0, "lon": -77.00064283333333, "lat": 38.90149266666667, "is_reserved": 0, "is_disabled": 0, "rental_uris": {"android": "https://dc.lft.to/lastmile_qr_scan", "ios": "https://dc.lft.to/lastmile_qr_scan"}, "name": "ab3de1fef6c035d21e6a8d61b0a69de3", "type": "electric_bike"}, {"fusion_lat": 0.0, "bike_id": "76d5645f0431da76b0542d7f496d1af3", "fusion_lon": 0.0, "lon": -77.02705566666667, "lat": 38.920308666666664, "is_reserved": 0, "is_disabled": 0, "rental_uris": {"android": "https://dc.lft.to/lastmile_qr_scan", "ios": "https://dc.lft.to/lastmile_qr_scan"}, "name": "76d5645f0431da76b0542d7f496d1af3", "type": "electric_scooter"}, {"fusion_lat": 0.0, "bike_id": "b86f224278083dbb9975b8da2b24770f", "fusion_lon": 0.0, "lon": -77.041411, "lat": 38.934696833333334, "is_reserved": 0, "is_disabled": 0, "rental_uris": {"android": "https://dc.lft.to/lastmile_qr_scan", "ios": "https://dc.lft.to/lastmile_qr_scan"}, "name": "b86f224278083dbb9975b8da2b24770f", "type": "electric_bike"}, {"fusion_lat": 0.0, "bike_id": "166c02d750983d4eda9f24e817c35abd", "fusion_lon": 0.0, "lon": -77.0397805, "lat": 38.90032016666667, "is_reserved": 0, "is_disabled": 0, "rental_uris": {"android": "https://dc.lft.to/lastmile_qr_scan", "ios": "https://dc.lft.to/lastmile_qr_scan"}, "name": "166c02d750983d4eda9f24e817c35abd", "type": "electric_scooter"}, {"fusion_lat": 0.0, "bike_id": "4e162477d97bbaf3685073a73bd02ef8", "fusion_lon": 0.0, "lon": -76.99127116666666, "lat": 38.864135833333336, "is_reserved": 0, "is_disabled": 0, "rental_uris": {"android": "https://dc.lft.to/lastmile_qr_scan", "ios": "https://dc.lft.to/lastmile_qr_scan"}, "name": "4e162477d97bbaf3685073a73bd02ef8", "type": "electric_scooter"}, {"fusion_lat": 0.0, "bike_id": "01cf06a0b98ce0c244a1d6bee7e03c73", "fusion_lon": 0.0, "lon": -77.03116833333333, "lat": 38.9127245, "is_reserved": 0, "is_disabled": 0, "rental_uris": {"android": "https://dc.lft.to/lastmile_qr_scan", "ios": "https://dc.lft.to/lastmile_qr_scan"}, "name": "01cf06a0b98ce0c244a1d6bee7e03c73", "type": "electric_scooter"}, {"fusion_lat": 0.0, "bike_id": "2b6224fb31950975255587e7f6682e37", "fusion_lon": 0.0, "lon": -77.0418025, "lat": 38.9052545, "is_reserved": 0, "is_disabled": 0, "rental_uris": {"android": "https://dc.lft.to/lastmile_qr_scan", "ios": "https://dc.lft.to/lastmile_qr_scan"}, "name": "2b6224fb31950975255587e7f6682e37", "type": "electric_scooter"}, {"fusion_lat": 0.0, "bike_id": "08bc74736a38e7ea5bcfc29fe1b467c0", "fusion_lon": 0.0, "lon": -76.969079, "lat": 38.846118833333335, "is_reserved": 0, "is_disabled": 0, "rental_uris": {"android": "https://dc.lft.to/lastmile_qr_scan", "ios": "https://dc.lft.to/lastmile_qr_scan"}, "name": "08bc74736a38e7ea5bcfc29fe1b467c0", "type": "electric_bike"}, {"fusion_lat": 0.0, "bike_id": "88be9de086e251d37deef0dd2d02accc", "fusion_lon": 0.0, "lon": -77.001264, "lat": 38.873699333333334, "is_reserved": 0, "is_disabled": 0, "rental_uris": {"android": "https://dc.lft.to/lastmile_qr_scan", "ios": "https://dc.lft.to/lastmile_qr_scan"}, "name": "88be9de086e251d37deef0dd2d02accc", "type": "electric_scooter"}, {"fusion_lat": 0.0, "bike_id": "9748b587355f4c6baa336b954d859ca5", "fusion_lon": 0.0, "lon": -76.99352733333333, "lat": 38.845056, "is_reserved": 0, "is_disabled": 0, "rental_uris": {"android": "https://dc.lft.to/lastmile_qr_scan", "ios": "https://dc.lft.to/lastmile_qr_scan"}, "name": "9748b587355f4c6baa336b954d859ca5", "type": "electric_bike"}, {"fusion_lat": 0.0, "bike_id": "2c603a57fb5c740fe8ad673b6fc749a8", "fusion_lon": 0.0, "lon": -77.058992, "lat": 38.90308916666667, "is_reserved": 0, "is_disabled": 0, "rental_uris": {"android": "https://dc.lft.to/lastmile_qr_scan", "ios": "https://dc.lft.to/lastmile_qr_scan"}, "name": "2c603a57fb5c740fe8ad673b6fc749a8", "type": "electric_scooter"}, {"fusion_lat": 0.0, "bike_id": "942d67a0a0c9bf4baf894b564b80e566", "fusion_lon": 0.0, "lon": -77.031086, "lat": 38.915636666666664, "is_reserved": 0, "is_disabled": 0, "rental_uris": {"android": "https://dc.lft.to/lastmile_qr_scan", "ios": "https://dc.lft.to/lastmile_qr_scan"}, "name": "942d67a0a0c9bf4baf894b564b80e566", "type": "electric_scooter"}, {"fusion_lat": 0.0, "bike_id": "d2cee99240b61f614445f99d1784d670", "fusion_lon": 0.0, "lon": -76.9835765, "lat": 38.915457833333335, "is_reserved": 0, "is_disabled": 0, "rental_uris": {"android": "https://dc.lft.to/lastmile_qr_scan", "ios": "https://dc.lft.to/lastmile_qr_scan"}, "name": "d2cee99240b61f614445f99d1784d670", "type": "electric_scooter"}, {"fusion_lat": 0.0, "bike_id": "8de99020a85d3317922255bd2ac97fbf", "fusion_lon": 0.0, "lon": -77.03239766666667, "lat": 38.92885116666667, "is_reserved": 0, "is_disabled": 0, "rental_uris": {"android": "https://dc.lft.to/lastmile_qr_scan", "ios": "https://dc.lft.to/lastmile_qr_scan"}, "name": "8de99020a85d3317922255bd2ac97fbf", "type": "electric_scooter"}, {"fusion_lat": 0.0, "bike_id": "c80faf8b560da703d786b69c9ceb32b1", "fusion_lon": 0.0, "lon": -77.02650166666666, "lat": 38.938641, "is_reserved": 0, "is_disabled": 0, "rental_uris": {"android": "https://dc.lft.to/lastmile_qr_scan", "ios": "https://dc.lft.to/lastmile_qr_scan"}, "name": "c80faf8b560da703d786b69c9ceb32b1", "type": "electric_scooter"}, {"fusion_lat": 0.0, "bike_id": "d1089dff318d69fd29725e521e2e6ceb", "fusion_lon": 0.0, "lon": -77.0816855, "lat": 38.8556965, "is_reserved": 0, "is_disabled": 0, "rental_uris": {"android": "https://dc.lft.to/lastmile_qr_scan", "ios": "https://dc.lft.to/lastmile_qr_scan"}, "name": "d1089dff318d69fd29725e521e2e6ceb", "type": "electric_bike"}, {"fusion_lat": 0.0, "bike_id": "43e332380d4c6e2cfba3308e2dc88105", "fusion_lon": 0.0, "lon": -77.03462266666666, "lat": 38.9066485, "is_reserved": 0, "is_disabled": 0, "rental_uris": {"android": "https://dc.lft.to/lastmile_qr_scan", "ios": "https://dc.lft.to/lastmile_qr_scan"}, "name": "43e332380d4c6e2cfba3308e2dc88105", "type": "electric_scooter"}, {"fusion_lat": 0.0, "bike_id": "7c521c9c5f0d2ce34f88491be0225580", "fusion_lon": 0.0, "lon": -77.03441933333333, "lat": 38.91803683333333, "is_reserved": 0, "is_disabled": 0, "rental_uris": {"android": "https://dc.lft.to/lastmile_qr_scan", "ios": "https://dc.lft.to/lastmile_qr_scan"}, "name": "7c521c9c5f0d2ce34f88491be0225580", "type": "electric_scooter"}, {"fusion_lat": 0.0, "bike_id": "a461d8b58495c998b5f744b7c8b40668", "fusion_lon": 0.0, "lon": -77.03208183333334, "lat": 38.9037915, "is_reserved": 0, "is_disabled": 0, "rental_uris": {"android": "https://dc.lft.to/lastmile_qr_scan", "ios": "https://dc.lft.to/lastmile_qr_scan"}, "name": "a461d8b58495c998b5f744b7c8b40668", "type": "electric_scooter"}, {"fusion_lat": 0.0, "bike_id": "da4975507f965289c00322ba256b1460", "fusion_lon": 0.0, "lon": -77.04648983333334, "lat": 38.90014433333333, "is_reserved": 0, "is_disabled": 0, "rental_uris": {"android": "https://dc.lft.to/lastmile_qr_scan", "ios": "https://dc.lft.to/lastmile_qr_scan"}, "name": "da4975507f965289c00322ba256b1460", "type": "electric_scooter"}, {"fusion_lat": 0.0, "bike_id": "24bd9e44eb89323b7bede67ee1a77699", "fusion_lon": 0.0, "lon": -77.00279416666666, "lat": 38.957094166666664, "is_reserved": 0, "is_disabled": 0, "rental_uris": {"android": "https://dc.lft.to/lastmile_qr_scan", "ios": "https://dc.lft.to/lastmile_qr_scan"}, "name": "24bd9e44eb89323b7bede67ee1a77699", "type": "electric_bike"}, {"fusion_lat": 0.0, "bike_id": "899a96df49d93de789404835926c92a5", "fusion_lon": 0.0, "lon": -77.02981016666666, "lat": 38.930651833333336, "is_reserved": 0, "is_disabled": 0, "rental_uris": {"android": "https://dc.lft.to/lastmile_qr_scan", "ios": "https://dc.lft.to/lastmile_qr_scan"}, "name": "899a96df49d93de789404835926c92a5", "type": "electric_scooter"}, {"fusion_lat": 0.0, "bike_id": "812895c181b31445145265f7fae24ef6", "fusion_lon": 0.0, "lon": -76.987382, "lat": 38.90031, "is_reserved": 0, "is_disabled": 0, "rental_uris": {"android": "https://dc.lft.to/lastmile_qr_scan", "ios": "https://dc.lft.to/lastmile_qr_scan"}, "name": "812895c181b31445145265f7fae24ef6", "type": "electric_scooter"}, {"fusion_lat": 0.0, "bike_id": "059abc65a8a089e6a89b0cc502c4477f", "fusion_lon": 0.0, "lon": -77.00542883333334, "lat": 38.90560933333333, "is_reserved": 0, "is_disabled": 0, "rental_uris": {"android": "https://dc.lft.to/lastmile_qr_scan", "ios": "https://dc.lft.to/lastmile_qr_scan"}, "name": "059abc65a8a089e6a89b0cc502c4477f", "type": "electric_scooter"}, {"fusion_lat": 0.0, "bike_id": "b66d6882c950cf7f4aee16ee0646cef8", "fusion_lon": 0.0, "lon": -77.03302733333334, "lat": 38.898035166666666, "is_reserved": 0, "is_disabled": 0, "rental_uris": {"android": "https://dc.lft.to/lastmile_qr_scan", "ios": "https://dc.lft.to/lastmile_qr_scan"}, "name": "b66d6882c950cf7f4aee16ee0646cef8", "type": "electric_scooter"}, {"fusion_lat": 0.0, "bike_id": "38c1f5c2c30e1f45e1a5b7aa0c1721e1", "fusion_lon": 0.0, "lon": -77.07594783333333, "lat": 38.912156833333334, "is_reserved": 0, "is_disabled": 0, "rental_uris": {"android": "https://dc.lft.to/lastmile_qr_scan", "ios": "https://dc.lft.to/lastmile_qr_scan"}, "name": "38c1f5c2c30e1f45e1a5b7aa0c1721e1", "type": "electric_scooter"}, {"fusion_lat": 0.0, "bike_id": "65568c01fd5569efde52b847d62e431a", "fusion_lon": 0.0, "lon": -77.027133, "lat": 38.92465133333334, "is_reserved": 0, "is_disabled": 0, "rental_uris": {"android": "https://dc.lft.to/lastmile_qr_scan", "ios": "https://dc.lft.to/lastmile_qr_scan"}, "name": "65568c01fd5569efde52b847d62e431a", "type": "electric_scooter"}, {"fusion_lat": 0.0, "bike_id": "f7d52592800cbd84fd5c83ac2b75cdcc", "fusion_lon": 0.0, "lon": -76.99847483333333, "lat": 38.841650333333334, "is_reserved": 0, "is_disabled": 0, "rental_uris": {"android": "https://dc.lft.to/lastmile_qr_scan", "ios": "https://dc.lft.to/lastmile_qr_scan"}, "name": "f7d52592800cbd84fd5c83ac2b75cdcc", "type": "electric_scooter"}, {"fusion_lat": 0.0, "bike_id": "4e10c9db45010ab9b333c55951fcdbf2", "fusion_lon": 0.0, "lon": -77.0337775, "lat": 38.92471316666666, "is_reserved": 0, "is_disabled": 0, "rental_uris": {"android": "https://dc.lft.to/lastmile_qr_scan", "ios": "https://dc.lft.to/lastmile_qr_scan"}, "name": "4e10c9db45010ab9b333c55951fcdbf2", "type": "electric_scooter"}, {"fusion_lat": 0.0, "bike_id": "5de639d1ab19de99e9e227eba803b352", "fusion_lon": 0.0, "lon": -77.10599916666666, "lat": 38.93568716666667, "is_reserved": 0, "is_disabled": 0, "rental_uris": {"android": "https://dc.lft.to/lastmile_qr_scan", "ios": "https://dc.lft.to/lastmile_qr_scan"}, "name": "5de639d1ab19de99e9e227eba803b352", "type": "electric_bike"}, {"fusion_lat": 0.0, "bike_id": "deb426fab9bb07575e9722c9b96f7fd8", "fusion_lon": 0.0, "lon": -77.02721683333333, "lat": 38.934735833333335, "is_reserved": 0, "is_disabled": 0, "rental_uris": {"android": "https://dc.lft.to/lastmile_qr_scan", "ios": "https://dc.lft.to/lastmile_qr_scan"}, "name": "deb426fab9bb07575e9722c9b96f7fd8", "type": "electric_scooter"}, {"fusion_lat": 0.0, "bike_id": "5f6f989df8dc177021ef5d50cc294a80", "fusion_lon": 0.0, "lon": -77.04056183333333, "lat": 38.90114916666667, "is_reserved": 0, "is_disabled": 0, "rental_uris": {"android": "https://dc.lft.to/lastmile_qr_scan", "ios": "https://dc.lft.to/lastmile_qr_scan"}, "name": "5f6f989df8dc177021ef5d50cc294a80", "type": "electric_scooter"}, {"fusion_lat": 0.0, "bike_id": "13524304016440c8a99dcbdd364d7b1e", "fusion_lon": 0.0, "lon": -77.1249475, "lat": 38.827950333333334, "is_reserved": 0, "is_disabled": 0, "rental_uris": {"android": "https://dc.lft.to/lastmile_qr_scan", "ios": "https://dc.lft.to/lastmile_qr_scan"}, "name": "13524304016440c8a99dcbdd364d7b1e", "type": "electric_bike"}, {"fusion_lat": 0.0, "bike_id": "5fea9b8f1d1148a7af30d8659c651555", "fusion_lon": 0.0, "lon": -76.937339, "lat": 38.890162333333336, "is_reserved": 0, "is_disabled": 0, "rental_uris": {"android": "https://dc.lft.to/lastmile_qr_scan", "ios": "https://dc.lft.to/lastmile_qr_scan"}, "name": "5fea9b8f1d1148a7af30d8659c651555", "type": "electric_scooter"}, {"fusion_lat": 0.0, "bike_id": "eb66f581d836fe5de3e1f2fe634fff45", "fusion_lon": 0.0, "lon": -76.94882183333333, "lat": 38.895087833333335, "is_reserved": 0, "is_disabled": 0, "rental_uris": {"android": "https://dc.lft.to/lastmile_qr_scan", "ios": "https://dc.lft.to/lastmile_qr_scan"}, "name": "eb66f581d836fe5de3e1f2fe634fff45", "type": "electric_scooter"}, {"fusion_lat": 0.0, "bike_id": "62e1d9794dd018e38e8ed750fe940e0b", "fusion_lon": 0.0, "lon": -77.00295116666666, "lat": 38.892011333333336, "is_reserved": 0, "is_disabled": 0, "rental_uris": {"android": "https://dc.lft.to/lastmile_qr_scan", "ios": "https://dc.lft.to/lastmile_qr_scan"}, "name": "62e1d9794dd018e38e8ed750fe940e0b", "type": "electric_scooter"}, {"fusion_lat": 0.0, "bike_id": "d60afb28480df7244aeddbbd648888d5", "fusion_lon": 0.0, "lon": -77.00738216666667, "lat": 38.898310333333335, "is_reserved": 0, "is_disabled": 0, "rental_uris": {"android": "https://dc.lft.to/lastmile_qr_scan", "ios": "https://dc.lft.to/lastmile_qr_scan"}, "name": "d60afb28480df7244aeddbbd648888d5", "type": "electric_scooter"}, {"fusion_lat": 0.0, "bike_id": "d9ae8bc5d905a0a992b9247e92e5c386", "fusion_lon": 0.0, "lon": -77.03504283333334, "lat": 38.923405333333335, "is_reserved": 0, "is_disabled": 0, "rental_uris": {"android": "https://dc.lft.to/lastmile_qr_scan", "ios": "https://dc.lft.to/lastmile_qr_scan"}, "name": "d9ae8bc5d905a0a992b9247e92e5c386", "type": "electric_scooter"}, {"fusion_lat": 0.0, "bike_id": "aaa91ac415bf57972f59645151e8a4d6", "fusion_lon": 0.0, "lon": -76.98018616666667, "lat": 38.85324416666667, "is_reserved": 0, "is_disabled": 0, "rental_uris": {"android": "https://dc.lft.to/lastmile_qr_scan", "ios": "https://dc.lft.to/lastmile_qr_scan"}, "name": "aaa91ac415bf57972f59645151e8a4d6", "type": "electric_bike"}, {"fusion_lat": 0.0, "bike_id": "18f50c8e2a5289dea9e210e87c0da321", "fusion_lon": 0.0, "lon": -77.02265883333334, "lat": 38.924183666666664, "is_reserved": 0, "is_disabled": 0, "rental_uris": {"android": "https://dc.lft.to/lastmile_qr_scan", "ios": "https://dc.lft.to/lastmile_qr_scan"}, "name": "18f50c8e2a5289dea9e210e87c0da321", "type": "electric_scooter"}, {"fusion_lat": 0.0, "bike_id": "111504bf26e716e5abaffe861afc4453", "fusion_lon": 0.0, "lon": -77.032206, "lat": 38.897443333333335, "is_reserved": 0, "is_disabled": 0, "rental_uris": {"android": "https://dc.lft.to/lastmile_qr_scan", "ios": "https://dc.lft.to/lastmile_qr_scan"}, "name": "111504bf26e716e5abaffe861afc4453", "type": "electric_scooter"}, {"fusion_lat": 0.0, "bike_id": "694832c0c2094626180299c07cb01e01", "fusion_lon": 0.0, "lon": -77.0200505, "lat": 38.92415316666667, "is_reserved": 0, "is_disabled": 0, "rental_uris": {"android": "https://dc.lft.to/lastmile_qr_scan", "ios": "https://dc.lft.to/lastmile_qr_scan"}, "name": "694832c0c2094626180299c07cb01e01", "type": "electric_scooter"}, {"fusion_lat": 0.0, "bike_id": "30fd912243df8571bad0f9e7417d8c7a", "fusion_lon": 0.0, "lon": -77.03172066666667, "lat": 38.89743933333333, "is_reserved": 0, "is_disabled": 0, "rental_uris": {"android": "https://dc.lft.to/lastmile_qr_scan", "ios": "https://dc.lft.to/lastmile_qr_scan"}, "name": "30fd912243df8571bad0f9e7417d8c7a", "type": "electric_scooter"}, {"fusion_lat": 0.0, "bike_id": "f54abaf2c63aa4d4938913e8c65b09a8", "fusion_lon": 0.0, "lon": -77.03184866666666, "lat": 38.91745566666667, "is_reserved": 0, "is_disabled": 0, "rental_uris": {"android": "https://dc.lft.to/lastmile_qr_scan", "ios": "https://dc.lft.to/lastmile_qr_scan"}, "name": "f54abaf2c63aa4d4938913e8c65b09a8", "type": "electric_scooter"}, {"fusion_lat": 0.0, "bike_id": "c19df3fee4d50e77fa53fb139ba5d580", "fusion_lon": 0.0, "lon": -77.0574455, "lat": 38.93348233333333, "is_reserved": 0, "is_disabled": 0, "rental_uris": {"android": "https://dc.lft.to/lastmile_qr_scan", "ios": "https://dc.lft.to/lastmile_qr_scan"}, "name": "c19df3fee4d50e77fa53fb139ba5d580", "type": "electric_scooter"}, {"fusion_lat": 0.0, "bike_id": "09dba9527d7892474217f46a29e18a66", "fusion_lon": 0.0, "lon": -76.96918116666667, "lat": 38.93031383333334, "is_reserved": 0, "is_disabled": 0, "rental_uris": {"android": "https://dc.lft.to/lastmile_qr_scan", "ios": "https://dc.lft.to/lastmile_qr_scan"}, "name": "09dba9527d7892474217f46a29e18a66", "type": "electric_scooter"}, {"fusion_lat": 0.0, "bike_id": "127cfa6b00a2b3b1ab95e347cdce2d08", "fusion_lon": 0.0, "lon": -77.03528683333333, "lat": 38.9248435, "is_reserved": 0, "is_disabled": 0, "rental_uris": {"android": "https://dc.lft.to/lastmile_qr_scan", "ios": "https://dc.lft.to/lastmile_qr_scan"}, "name": "127cfa6b00a2b3b1ab95e347cdce2d08", "type": "electric_scooter"}, {"fusion_lat": 0.0, "bike_id": "6958e795d4d4ef94d93f150002cf67dd", "fusion_lon": 0.0, "lon": -76.99072466666667, "lat": 38.89812916666666, "is_reserved": 0, "is_disabled": 0, "rental_uris": {"android": "https://dc.lft.to/lastmile_qr_scan", "ios": "https://dc.lft.to/lastmile_qr_scan"}, "name": "6958e795d4d4ef94d93f150002cf67dd", "type": "electric_bike"}, {"fusion_lat": 0.0, "bike_id": "5e4f3705e706c3a468782632235ff915", "fusion_lon": 0.0, "lon": -77.02736483333334, "lat": 38.91690083333334, "is_reserved": 0, "is_disabled": 0, "rental_uris": {"android": "https://dc.lft.to/lastmile_qr_scan", "ios": "https://dc.lft.to/lastmile_qr_scan"}, "name": "5e4f3705e706c3a468782632235ff915", "type": "electric_scooter"}, {"fusion_lat": 0.0, "bike_id": "4c42a3f69ddec59f8cadbd0c04d76f9e", "fusion_lon": 0.0, "lon": -77.00381416666667, "lat": 38.876355, "is_reserved": 0, "is_disabled": 0, "rental_uris": {"android": "https://dc.lft.to/lastmile_qr_scan", "ios": "https://dc.lft.to/lastmile_qr_scan"}, "name": "4c42a3f69ddec59f8cadbd0c04d76f9e", "type": "electric_scooter"}, {"fusion_lat": 0.0, "bike_id": "84db55d0b4261feb5885e1fcd9760b75", "fusion_lon": 0.0, "lon": -77.03505116666666, "lat": 38.92148533333334, "is_reserved": 0, "is_disabled": 0, "rental_uris": {"android": "https://dc.lft.to/lastmile_qr_scan", "ios": "https://dc.lft.to/lastmile_qr_scan"}, "name": "84db55d0b4261feb5885e1fcd9760b75", "type": "electric_scooter"}, {"fusion_lat": 0.0, "bike_id": "42e11f045df372d334cac96f25b64286", "fusion_lon": 0.0, "lon": -77.0447025, "lat": 38.90535966666667, "is_reserved": 0, "is_disabled": 0, "rental_uris": {"android": "https://dc.lft.to/lastmile_qr_scan", "ios": "https://dc.lft.to/lastmile_qr_scan"}, "name": "42e11f045df372d334cac96f25b64286", "type": "electric_scooter"}, {"fusion_lat": 0.0, "bike_id": "873ebb19c726127c75aa8073f1beafb0", "fusion_lon": 0.0, "lon": -77.02419633333334, "lat": 38.9182495, "is_reserved": 0, "is_disabled": 0, "rental_uris": {"android": "https://dc.lft.to/lastmile_qr_scan", "ios": "https://dc.lft.to/lastmile_qr_scan"}, "name": "873ebb19c726127c75aa8073f1beafb0", "type": "electric_scooter"}, {"fusion_lat": 0.0, "bike_id": "6140f1f60447d215c78676aefed649e2", "fusion_lon": 0.0, "lon": -77.0126835, "lat": 38.90006233333333, "is_reserved": 0, "is_disabled": 0, "rental_uris": {"android": "https://dc.lft.to/lastmile_qr_scan", "ios": "https://dc.lft.to/lastmile_qr_scan"}, "name": "6140f1f60447d215c78676aefed649e2", "type": "electric_scooter"}, {"fusion_lat": 0.0, "bike_id": "a3e7d2930a3ecfa4ce3cce22ffb51911", "fusion_lon": 0.0, "lon": -77.04101916666667, "lat": 38.910348166666665, "is_reserved": 0, "is_disabled": 0, "rental_uris": {"android": "https://dc.lft.to/lastmile_qr_scan", "ios": "https://dc.lft.to/lastmile_qr_scan"}, "name": "a3e7d2930a3ecfa4ce3cce22ffb51911", "type": "electric_scooter"}, {"fusion_lat": 0.0, "bike_id": "787811c95a7526da55844c0f555a152c", "fusion_lon": 0.0, "lon": -77.03505066666666, "lat": 38.921429333333336, "is_reserved": 0, "is_disabled": 0, "rental_uris": {"android": "https://dc.lft.to/lastmile_qr_scan", "ios": "https://dc.lft.to/lastmile_qr_scan"}, "name": "787811c95a7526da55844c0f555a152c", "type": "electric_scooter"}, {"fusion_lat": 0.0, "bike_id": "e0a4fd546db85f523e0456e34ffa53b7", "fusion_lon": 0.0, "lon": -77.04335283333333, "lat": 38.921863333333334, "is_reserved": 0, "is_disabled": 0, "rental_uris": {"android": "https://dc.lft.to/lastmile_qr_scan", "ios": "https://dc.lft.to/lastmile_qr_scan"}, "name": "e0a4fd546db85f523e0456e34ffa53b7", "type": "electric_scooter"}, {"fusion_lat": 0.0, "bike_id": "13af1a7bef0a6a4f93fd7336f695f176", "fusion_lon": 0.0, "lon": -77.01494783333334, "lat": 38.89220683333333, "is_reserved": 0, "is_disabled": 0, "rental_uris": {"android": "https://dc.lft.to/lastmile_qr_scan", "ios": "https://dc.lft.to/lastmile_qr_scan"}, "name": "13af1a7bef0a6a4f93fd7336f695f176", "type": "electric_scooter"}, {"fusion_lat": 0.0, "bike_id": "fb56eaa3465e7ce8fae46765d9b0304a", "fusion_lon": 0.0, "lon": -77.027125, "lat": 38.8993815, "is_reserved": 0, "is_disabled": 0, "rental_uris": {"android": "https://dc.lft.to/lastmile_qr_scan", "ios": "https://dc.lft.to/lastmile_qr_scan"}, "name": "fb56eaa3465e7ce8fae46765d9b0304a", "type": "electric_scooter"}, {"fusion_lat": 0.0, "bike_id": "4bae959a2712e86bc4b27ab0b70fd9ca", "fusion_lon": 0.0, "lon": -77.0209685, "lat": 38.92190316666667, "is_reserved": 0, "is_disabled": 0, "rental_uris": {"android": "https://dc.lft.to/lastmile_qr_scan", "ios": "https://dc.lft.to/lastmile_qr_scan"}, "name": "4bae959a2712e86bc4b27ab0b70fd9ca", "type": "electric_scooter"}, {"fusion_lat": 0.0, "bike_id": "5afa659b0af7ad90697a928c6a373d2d", "fusion_lon": 0.0, "lon": -77.03220133333333, "lat": 38.892255666666664, "is_reserved": 0, "is_disabled": 0, "rental_uris": {"android": "https://dc.lft.to/lastmile_qr_scan", "ios": "https://dc.lft.to/lastmile_qr_scan"}, "name": "5afa659b0af7ad90697a928c6a373d2d", "type": "electric_scooter"}, {"fusion_lat": 0.0, "bike_id": "ceedeeafae6a938be5a15c9000f4465e", "fusion_lon": 0.0, "lon": -77.06937533333333, "lat": 38.95207416666667, "is_reserved": 0, "is_disabled": 0, "rental_uris": {"android": "https://dc.lft.to/lastmile_qr_scan", "ios": "https://dc.lft.to/lastmile_qr_scan"}, "name": "ceedeeafae6a938be5a15c9000f4465e", "type": "electric_scooter"}, {"fusion_lat": 0.0, "bike_id": "9d3aaa420787e09bb6d900683ffd3406", "fusion_lon": 0.0, "lon": -76.93026033333334, "lat": 38.90014683333333, "is_reserved": 0, "is_disabled": 0, "rental_uris": {"android": "https://dc.lft.to/lastmile_qr_scan", "ios": "https://dc.lft.to/lastmile_qr_scan"}, "name": "9d3aaa420787e09bb6d900683ffd3406", "type": "electric_scooter"}, {"fusion_lat": 0.0, "bike_id": "741249004bbde9035d4971fc7586aed0", "fusion_lon": 0.0, "lon": -77.02816433333334, "lat": 38.931741833333334, "is_reserved": 0, "is_disabled": 0, "rental_uris": {"android": "https://dc.lft.to/lastmile_qr_scan", "ios": "https://dc.lft.to/lastmile_qr_scan"}, "name": "741249004bbde9035d4971fc7586aed0", "type": "electric_scooter"}, {"fusion_lat": 0.0, "bike_id": "a7713ad8811c6b497193c5de12407207", "fusion_lon": 0.0, "lon": -76.9936945, "lat": 38.87971, "is_reserved": 0, "is_disabled": 0, "rental_uris": {"android": "https://dc.lft.to/lastmile_qr_scan", "ios": "https://dc.lft.to/lastmile_qr_scan"}, "name": "a7713ad8811c6b497193c5de12407207", "type": "electric_scooter"}, {"fusion_lat": 0.0, "bike_id": "9c8911bb5a4b86c8493e264b1842c8cf", "fusion_lon": 0.0, "lon": -76.990069, "lat": 38.86507666666667, "is_reserved": 0, "is_disabled": 0, "rental_uris": {"android": "https://dc.lft.to/lastmile_qr_scan", "ios": "https://dc.lft.to/lastmile_qr_scan"}, "name": "9c8911bb5a4b86c8493e264b1842c8cf", "type": "electric_scooter"}, {"fusion_lat": 0.0, "bike_id": "01107962f3ab14ed1e8e7eedb6c98a10", "fusion_lon": 0.0, "lon": -77.02203816666666, "lat": 38.878936833333334, "is_reserved": 0, "is_disabled": 0, "rental_uris": {"android": "https://dc.lft.to/lastmile_qr_scan", "ios": "https://dc.lft.to/lastmile_qr_scan"}, "name": "01107962f3ab14ed1e8e7eedb6c98a10", "type": "electric_scooter"}, {"fusion_lat": 0.0, "bike_id": "206372d05386a6aff68a3482739661d9", "fusion_lon": 0.0, "lon": -77.027244, "lat": 38.89699433333333, "is_reserved": 0, "is_disabled": 0, "rental_uris": {"android": "https://dc.lft.to/lastmile_qr_scan", "ios": "https://dc.lft.to/lastmile_qr_scan"}, "name": "206372d05386a6aff68a3482739661d9", "type": "electric_scooter"}, {"fusion_lat": 0.0, "bike_id": "48ce5cb5ba18ca3e445a80c8b4ce8925", "fusion_lon": 0.0, "lon": -77.03221783333333, "lat": 38.892232166666666, "is_reserved": 0, "is_disabled": 0, "rental_uris": {"android": "https://dc.lft.to/lastmile_qr_scan", "ios": "https://dc.lft.to/lastmile_qr_scan"}, "name": "48ce5cb5ba18ca3e445a80c8b4ce8925", "type": "electric_scooter"}, {"fusion_lat": 0.0, "bike_id": "299cc8d51c08ae0c29f07c6d752a0e7e", "fusion_lon": 0.0, "lon": -77.033448, "lat": 38.8974225, "is_reserved": 0, "is_disabled": 0, "rental_uris": {"android": "https://dc.lft.to/lastmile_qr_scan", "ios": "https://dc.lft.to/lastmile_qr_scan"}, "name": "299cc8d51c08ae0c29f07c6d752a0e7e", "type": "electric_scooter"}, {"fusion_lat": 0.0, "bike_id": "f06005d16c26426f5fee9035b05341b2", "fusion_lon": 0.0, "lon": -77.03183166666666, "lat": 38.91747216666667, "is_reserved": 0, "is_disabled": 0, "rental_uris": {"android": "https://dc.lft.to/lastmile_qr_scan", "ios": "https://dc.lft.to/lastmile_qr_scan"}, "name": "f06005d16c26426f5fee9035b05341b2", "type": "electric_scooter"}, {"fusion_lat": 0.0, "bike_id": "fdbe483b6532ddc60ab7aa612c832fc5", "fusion_lon": 0.0, "lon": -77.0254845, "lat": 38.903745, "is_reserved": 0, "is_disabled": 0, "rental_uris": {"android": "https://dc.lft.to/lastmile_qr_scan", "ios": "https://dc.lft.to/lastmile_qr_scan"}, "name": "fdbe483b6532ddc60ab7aa612c832fc5", "type": "electric_scooter"}, {"fusion_lat": 0.0, "bike_id": "ed50a6b72714db91a61acebb80f92ad0", "fusion_lon": 0.0, "lon": -77.0330165, "lat": 38.898107333333336, "is_reserved": 0, "is_disabled": 0, "rental_uris": {"android": "https://dc.lft.to/lastmile_qr_scan", "ios": "https://dc.lft.to/lastmile_qr_scan"}, "name": "ed50a6b72714db91a61acebb80f92ad0", "type": "electric_scooter"}, {"fusion_lat": 0.0, "bike_id": "f9e2ee2b01e0d458aefba728ec32225d", "fusion_lon": 0.0, "lon": -77.03796316666667, "lat": 38.906530333333336, "is_reserved": 0, "is_disabled": 0, "rental_uris": {"android": "https://dc.lft.to/lastmile_qr_scan", "ios": "https://dc.lft.to/lastmile_qr_scan"}, "name": "f9e2ee2b01e0d458aefba728ec32225d", "type": "electric_scooter"}, {"fusion_lat": 0.0, "bike_id": "2081454b4ac8c96c24d9b5aebc661e8c", "fusion_lon": 0.0, "lon": -77.03740783333333, "lat": 38.9180925, "is_reserved": 0, "is_disabled": 0, "rental_uris": {"android": "https://dc.lft.to/lastmile_qr_scan", "ios": "https://dc.lft.to/lastmile_qr_scan"}, "name": "2081454b4ac8c96c24d9b5aebc661e8c", "type": "electric_scooter"}, {"fusion_lat": 0.0, "bike_id": "1998b33c7eb6fc67efbe6d4c58956c97", "fusion_lon": 0.0, "lon": -77.01738516666667, "lat": 38.887467, "is_reserved": 0, "is_disabled": 0, "rental_uris": {"android": "https://dc.lft.to/lastmile_qr_scan", "ios": "https://dc.lft.to/lastmile_qr_scan"}, "name": "1998b33c7eb6fc67efbe6d4c58956c97", "type": "electric_scooter"}, {"fusion_lat": 0.0, "bike_id": "8443357c2c567077cbc892a7231abd8f", "fusion_lon": 0.0, "lon": -76.98851883333333, "lat": 38.8673265, "is_reserved": 0, "is_disabled": 0, "rental_uris": {"android": "https://dc.lft.to/lastmile_qr_scan", "ios": "https://dc.lft.to/lastmile_qr_scan"}, "name": "8443357c2c567077cbc892a7231abd8f", "type": "electric_scooter"}, {"fusion_lat": 0.0, "bike_id": "0e42836c1d0f0ee5d2350713a16eb410", "fusion_lon": 0.0, "lon": -77.04077216666667, "lat": 38.905464333333335, "is_reserved": 0, "is_disabled": 0, "rental_uris": {"android": "https://dc.lft.to/lastmile_qr_scan", "ios": "https://dc.lft.to/lastmile_qr_scan"}, "name": "0e42836c1d0f0ee5d2350713a16eb410", "type": "electric_scooter"}, {"fusion_lat": 0.0, "bike_id": "b48167ac71c647efc1406957372cf850", "fusion_lon": 0.0, "lon": -77.0709635, "lat": 38.91969683333333, "is_reserved": 0, "is_disabled": 0, "rental_uris": {"android": "https://dc.lft.to/lastmile_qr_scan", "ios": "https://dc.lft.to/lastmile_qr_scan"}, "name": "b48167ac71c647efc1406957372cf850", "type": "electric_scooter"}, {"fusion_lat": 0.0, "bike_id": "53f844f3bf4a983a70d9e97ad19ddd46", "fusion_lon": 0.0, "lon": -77.03286783333333, "lat": 38.92865066666667, "is_reserved": 0, "is_disabled": 0, "rental_uris": {"android": "https://dc.lft.to/lastmile_qr_scan", "ios": "https://dc.lft.to/lastmile_qr_scan"}, "name": "53f844f3bf4a983a70d9e97ad19ddd46", "type": "electric_scooter"}, {"fusion_lat": 0.0, "bike_id": "b406b7a2187d0c7f52a73b0d22c4250b", "fusion_lon": 0.0, "lon": -77.03323366666666, "lat": 38.94713866666667, "is_reserved": 0, "is_disabled": 0, "rental_uris": {"android": "https://dc.lft.to/lastmile_qr_scan", "ios": "https://dc.lft.to/lastmile_qr_scan"}, "name": "b406b7a2187d0c7f52a73b0d22c4250b", "type": "electric_scooter"}, {"fusion_lat": 0.0, "bike_id": "d89fb39daf4224e2643d728ca408f980", "fusion_lon": 0.0, "lon": -76.98615716666667, "lat": 38.938275833333336, "is_reserved": 0, "is_disabled": 0, "rental_uris": {"android": "https://dc.lft.to/lastmile_qr_scan", "ios": "https://dc.lft.to/lastmile_qr_scan"}, "name": "d89fb39daf4224e2643d728ca408f980", "type": "electric_scooter"}, {"fusion_lat": 0.0, "bike_id": "c048f7f60b064a7934f2665d8ae64978", "fusion_lon": 0.0, "lon": -77.03250183333333, "lat": 38.931119333333335, "is_reserved": 0, "is_disabled": 0, "rental_uris": {"android": "https://dc.lft.to/lastmile_qr_scan", "ios": "https://dc.lft.to/lastmile_qr_scan"}, "name": "c048f7f60b064a7934f2665d8ae64978", "type": "electric_scooter"}, {"fusion_lat": 0.0, "bike_id": "8bc4038fd7f4f3751ed83558dafe5fdb", "fusion_lon": 0.0, "lon": -77.01988566666667, "lat": 38.9040485, "is_reserved": 0, "is_disabled": 0, "rental_uris": {"android": "https://dc.lft.to/lastmile_qr_scan", "ios": "https://dc.lft.to/lastmile_qr_scan"}, "name": "8bc4038fd7f4f3751ed83558dafe5fdb", "type": "electric_scooter"}, {"fusion_lat": 0.0, "bike_id": "e50fb5a8f2d1f2a5f24b052d080ca4bd", "fusion_lon": 0.0, "lon": -77.04789733333334, "lat": 38.905035833333336, "is_reserved": 0, "is_disabled": 0, "rental_uris": {"android": "https://dc.lft.to/lastmile_qr_scan", "ios": "https://dc.lft.to/lastmile_qr_scan"}, "name": "e50fb5a8f2d1f2a5f24b052d080ca4bd", "type": "electric_scooter"}, {"fusion_lat": 0.0, "bike_id": "05562ba94ec0408d278a3da2b7c8ed1b", "fusion_lon": 0.0, "lon": -77.031977, "lat": 38.915798833333334, "is_reserved": 0, "is_disabled": 0, "rental_uris": {"android": "https://dc.lft.to/lastmile_qr_scan", "ios": "https://dc.lft.to/lastmile_qr_scan"}, "name": "05562ba94ec0408d278a3da2b7c8ed1b", "type": "electric_scooter"}, {"fusion_lat": 0.0, "bike_id": "7d5e7aa9b40c7c9498298af7aa9fa1e8", "fusion_lon": 0.0, "lon": -77.04504183333333, "lat": 38.892264, "is_reserved": 0, "is_disabled": 0, "rental_uris": {"android": "https://dc.lft.to/lastmile_qr_scan", "ios": "https://dc.lft.to/lastmile_qr_scan"}, "name": "7d5e7aa9b40c7c9498298af7aa9fa1e8", "type": "electric_scooter"}, {"fusion_lat": 0.0, "bike_id": "c1ddc2f9ea89bd62a1b6e08171e8d18b", "fusion_lon": 0.0, "lon": -77.0185535, "lat": 38.914929666666666, "is_reserved": 0, "is_disabled": 0, "rental_uris": {"android": "https://dc.lft.to/lastmile_qr_scan", "ios": "https://dc.lft.to/lastmile_qr_scan"}, "name": "c1ddc2f9ea89bd62a1b6e08171e8d18b", "type": "electric_scooter"}, {"fusion_lat": 0.0, "bike_id": "f40529a2895a7c3d48907ed59f95c40d", "fusion_lon": 0.0, "lon": -77.03576233333334, "lat": 38.923191833333334, "is_reserved": 0, "is_disabled": 0, "rental_uris": {"android": "https://dc.lft.to/lastmile_qr_scan", "ios": "https://dc.lft.to/lastmile_qr_scan"}, "name": "f40529a2895a7c3d48907ed59f95c40d", "type": "electric_scooter"}, {"fusion_lat": 0.0, "bike_id": "174a7fd13b0b9af7e4bc50141fb32c3a", "fusion_lon": 0.0, "lon": -77.07432066666667, "lat": 38.907196, "is_reserved": 0, "is_disabled": 0, "rental_uris": {"android": "https://dc.lft.to/lastmile_qr_scan", "ios": "https://dc.lft.to/lastmile_qr_scan"}, "name": "174a7fd13b0b9af7e4bc50141fb32c3a", "type": "electric_scooter"}, {"fusion_lat": 0.0, "bike_id": "91356cd5edddd36c84aa2a44522aa85b", "fusion_lon": 0.0, "lon": -76.99481433333334, "lat": 38.886105666666666, "is_reserved": 0, "is_disabled": 0, "rental_uris": {"android": "https://dc.lft.to/lastmile_qr_scan", "ios": "https://dc.lft.to/lastmile_qr_scan"}, "name": "91356cd5edddd36c84aa2a44522aa85b", "type": "electric_scooter"}, {"fusion_lat": 0.0, "bike_id": "20997cf587ee098d404d418c07b72ef5", "fusion_lon": 0.0, "lon": -77.0175695, "lat": 38.88395233333333, "is_reserved": 0, "is_disabled": 0, "rental_uris": {"android": "https://dc.lft.to/lastmile_qr_scan", "ios": "https://dc.lft.to/lastmile_qr_scan"}, "name": "20997cf587ee098d404d418c07b72ef5", "type": "electric_scooter"}, {"fusion_lat": 0.0, "bike_id": "205e9843e01984e5485313aed493c2f7", "fusion_lon": 0.0, "lon": -77.04134266666667, "lat": 38.9233875, "is_reserved": 0, "is_disabled": 0, "rental_uris": {"android": "https://dc.lft.to/lastmile_qr_scan", "ios": "https://dc.lft.to/lastmile_qr_scan"}, "name": "205e9843e01984e5485313aed493c2f7", "type": "electric_scooter"}, {"fusion_lat": 0.0, "bike_id": "e09bdd2155aa4e90682a4a55afb1e331", "fusion_lon": 0.0, "lon": -77.02066683333334, "lat": 38.927018833333335, "is_reserved": 0, "is_disabled": 0, "rental_uris": {"android": "https://dc.lft.to/lastmile_qr_scan", "ios": "https://dc.lft.to/lastmile_qr_scan"}, "name": "e09bdd2155aa4e90682a4a55afb1e331", "type": "electric_scooter"}, {"fusion_lat": 0.0, "bike_id": "bdb1254ac80c9a4184f46ad34c84dc0d", "fusion_lon": 0.0, "lon": -77.0566035, "lat": 38.89549866666667, "is_reserved": 0, "is_disabled": 0, "rental_uris": {"android": "https://dc.lft.to/lastmile_qr_scan", "ios": "https://dc.lft.to/lastmile_qr_scan"}, "name": "bdb1254ac80c9a4184f46ad34c84dc0d", "type": "electric_scooter"}, {"fusion_lat": 0.0, "bike_id": "195fded96fa076ecae6cd7921bd2cfda", "fusion_lon": 0.0, "lon": -77.051291, "lat": 38.90613, "is_reserved": 0, "is_disabled": 0, "rental_uris": {"android": "https://dc.lft.to/lastmile_qr_scan", "ios": "https://dc.lft.to/lastmile_qr_scan"}, "name": "195fded96fa076ecae6cd7921bd2cfda", "type": "electric_scooter"}, {"fusion_lat": 0.0, "bike_id": "93e7c925b8883b7ba4a139de34bfcfc3", "fusion_lon": 0.0, "lon": -77.04870666666666, "lat": 38.892361666666666, "is_reserved": 0, "is_disabled": 0, "rental_uris": {"android": "https://dc.lft.to/lastmile_qr_scan", "ios": "https://dc.lft.to/lastmile_qr_scan"}, "name": "93e7c925b8883b7ba4a139de34bfcfc3", "type": "electric_scooter"}, {"fusion_lat": 0.0, "bike_id": "9c0c18847410f359b82c650fe9a160c0", "fusion_lon": 0.0, "lon": -77.01394883333333, "lat": 38.89222566666667, "is_reserved": 0, "is_disabled": 0, "rental_uris": {"android": "https://dc.lft.to/lastmile_qr_scan", "ios": "https://dc.lft.to/lastmile_qr_scan"}, "name": "9c0c18847410f359b82c650fe9a160c0", "type": "electric_scooter"}, {"fusion_lat": 0.0, "bike_id": "89435f3ba05db4c838d688e5a8b27556", "fusion_lon": 0.0, "lon": -77.01749116666667, "lat": 38.88321283333333, "is_reserved": 0, "is_disabled": 0, "rental_uris": {"android": "https://dc.lft.to/lastmile_qr_scan", "ios": "https://dc.lft.to/lastmile_qr_scan"}, "name": "89435f3ba05db4c838d688e5a8b27556", "type": "electric_scooter"}, {"fusion_lat": 0.0, "bike_id": "a3d9e1836850a536224cdc6ce4695bcf", "fusion_lon": 0.0, "lon": -77.002254, "lat": 38.9250955, "is_reserved": 0, "is_disabled": 0, "rental_uris": {"android": "https://dc.lft.to/lastmile_qr_scan", "ios": "https://dc.lft.to/lastmile_qr_scan"}, "name": "a3d9e1836850a536224cdc6ce4695bcf", "type": "electric_scooter"}, {"fusion_lat": 0.0, "bike_id": "7da85be435e54933870eea95162a7118", "fusion_lon": 0.0, "lon": -77.0236425, "lat": 38.9206735, "is_reserved": 0, "is_disabled": 0, "rental_uris": {"android": "https://dc.lft.to/lastmile_qr_scan", "ios": "https://dc.lft.to/lastmile_qr_scan"}, "name": "7da85be435e54933870eea95162a7118", "type": "electric_scooter"}, {"fusion_lat": 0.0, "bike_id": "26c3d809a471f632f436f582371d5ab7", "fusion_lon": 0.0, "lon": -76.99367766666667, "lat": 38.893812, "is_reserved": 0, "is_disabled": 0, "rental_uris": {"android": "https://dc.lft.to/lastmile_qr_scan", "ios": "https://dc.lft.to/lastmile_qr_scan"}, "name": "26c3d809a471f632f436f582371d5ab7", "type": "electric_scooter"}, {"fusion_lat": 0.0, "bike_id": "bc19f5488db362d1d013ec0db17cbce1", "fusion_lon": 0.0, "lon": -77.02064133333333, "lat": 38.908514833333335, "is_reserved": 0, "is_disabled": 0, "rental_uris": {"android": "https://dc.lft.to/lastmile_qr_scan", "ios": "https://dc.lft.to/lastmile_qr_scan"}, "name": "bc19f5488db362d1d013ec0db17cbce1", "type": "electric_scooter"}, {"fusion_lat": 0.0, "bike_id": "7eb800a3714a9a4e69d2de209bebd0e0", "fusion_lon": 0.0, "lon": -77.04546216666667, "lat": 38.913231333333336, "is_reserved": 0, "is_disabled": 0, "rental_uris": {"android": "https://dc.lft.to/lastmile_qr_scan", "ios": "https://dc.lft.to/lastmile_qr_scan"}, "name": "7eb800a3714a9a4e69d2de209bebd0e0", "type": "electric_scooter"}, {"fusion_lat": 0.0, "bike_id": "bb7cff9e2b3dde7d804cc2e116a591a2", "fusion_lon": 0.0, "lon": -77.03085483333334, "lat": 38.900788666666664, "is_reserved": 0, "is_disabled": 0, "rental_uris": {"android": "https://dc.lft.to/lastmile_qr_scan", "ios": "https://dc.lft.to/lastmile_qr_scan"}, "name": "bb7cff9e2b3dde7d804cc2e116a591a2", "type": "electric_scooter"}, {"fusion_lat": 0.0, "bike_id": "4dcaecad21f968ec153d2900f69707ca", "fusion_lon": 0.0, "lon": -77.03798666666667, "lat": 38.930207, "is_reserved": 0, "is_disabled": 0, "rental_uris": {"android": "https://dc.lft.to/lastmile_qr_scan", "ios": "https://dc.lft.to/lastmile_qr_scan"}, "name": "4dcaecad21f968ec153d2900f69707ca", "type": "electric_scooter"}, {"fusion_lat": 0.0, "bike_id": "c28f2c4facd38f6783ac528902bf09fa", "fusion_lon": 0.0, "lon": -77.0464995, "lat": 38.91424466666667, "is_reserved": 0, "is_disabled": 0, "rental_uris": {"android": "https://dc.lft.to/lastmile_qr_scan", "ios": "https://dc.lft.to/lastmile_qr_scan"}, "name": "c28f2c4facd38f6783ac528902bf09fa", "type": "electric_scooter"}, {"fusion_lat": 0.0, "bike_id": "982a572ab498cd750c323496808ad4e6", "fusion_lon": 0.0, "lon": -77.04653266666666, "lat": 38.904563333333336, "is_reserved": 0, "is_disabled": 0, "rental_uris": {"android": "https://dc.lft.to/lastmile_qr_scan", "ios": "https://dc.lft.to/lastmile_qr_scan"}, "name": "982a572ab498cd750c323496808ad4e6", "type": "electric_scooter"}, {"fusion_lat": 0.0, "bike_id": "d942e125113b23b8601389f0ad8c986a", "fusion_lon": 0.0, "lon": -76.94876033333334, "lat": 38.8943205, "is_reserved": 0, "is_disabled": 0, "rental_uris": {"android": "https://dc.lft.to/lastmile_qr_scan", "ios": "https://dc.lft.to/lastmile_qr_scan"}, "name": "d942e125113b23b8601389f0ad8c986a", "type": "electric_scooter"}, {"fusion_lat": 0.0, "bike_id": "5dcbae4b13d802d88ebe47fe29ff7c42", "fusion_lon": 0.0, "lon": -77.0276635, "lat": 38.892210166666665, "is_reserved": 0, "is_disabled": 0, "rental_uris": {"android": "https://dc.lft.to/lastmile_qr_scan", "ios": "https://dc.lft.to/lastmile_qr_scan"}, "name": "5dcbae4b13d802d88ebe47fe29ff7c42", "type": "electric_scooter"}, {"fusion_lat": 0.0, "bike_id": "7409e9901b0fa9f2765e0bbb1007b2b8", "fusion_lon": 0.0, "lon": -77.04347483333333, "lat": 38.901405, "is_reserved": 0, "is_disabled": 0, "rental_uris": {"android": "https://dc.lft.to/lastmile_qr_scan", "ios": "https://dc.lft.to/lastmile_qr_scan"}, "name": "7409e9901b0fa9f2765e0bbb1007b2b8", "type": "electric_scooter"}, {"fusion_lat": 0.0, "bike_id": "551e972a1ccefebba17aaf14c3ee9945", "fusion_lon": 0.0, "lon": -77.01982683333334, "lat": 38.925499333333335, "is_reserved": 0, "is_disabled": 0, "rental_uris": {"android": "https://dc.lft.to/lastmile_qr_scan", "ios": "https://dc.lft.to/lastmile_qr_scan"}, "name": "551e972a1ccefebba17aaf14c3ee9945", "type": "electric_bike"}, {"fusion_lat": 0.0, "bike_id": "e73002f229bd2a1f13b3018eaa0bd0af", "fusion_lon": 0.0, "lon": -77.03259033333333, "lat": 38.92166483333333, "is_reserved": 0, "is_disabled": 0, "rental_uris": {"android": "https://dc.lft.to/lastmile_qr_scan", "ios": "https://dc.lft.to/lastmile_qr_scan"}, "name": "e73002f229bd2a1f13b3018eaa0bd0af", "type": "electric_scooter"}, {"fusion_lat": 0.0, "bike_id": "18f0e5c82854170a3e81b4577d32e83a", "fusion_lon": 0.0, "lon": -77.00062833333334, "lat": 38.90086016666667, "is_reserved": 0, "is_disabled": 0, "rental_uris": {"android": "https://dc.lft.to/lastmile_qr_scan", "ios": "https://dc.lft.to/lastmile_qr_scan"}, "name": "18f0e5c82854170a3e81b4577d32e83a", "type": "electric_scooter"}, {"fusion_lat": 0.0, "bike_id": "29d6501f7caba93d5003330097ace3e2", "fusion_lon": 0.0, "lon": -77.00070016666666, "lat": 38.923997666666665, "is_reserved": 0, "is_disabled": 0, "rental_uris": {"android": "https://dc.lft.to/lastmile_qr_scan", "ios": "https://dc.lft.to/lastmile_qr_scan"}, "name": "29d6501f7caba93d5003330097ace3e2", "type": "electric_scooter"}, {"fusion_lat": 0.0, "bike_id": "f2ff8f287ca803a1de92df5b63b0a4b3", "fusion_lon": 0.0, "lon": -76.990539, "lat": 38.86378766666667, "is_reserved": 0, "is_disabled": 0, "rental_uris": {"android": "https://dc.lft.to/lastmile_qr_scan", "ios": "https://dc.lft.to/lastmile_qr_scan"}, "name": "f2ff8f287ca803a1de92df5b63b0a4b3", "type": "electric_scooter"}, {"fusion_lat": 0.0, "bike_id": "0b299d2c50acaaff952f11b7fb378ebf", "fusion_lon": 0.0, "lon": -77.04620083333333, "lat": 38.91564483333333, "is_reserved": 0, "is_disabled": 0, "rental_uris": {"android": "https://dc.lft.to/lastmile_qr_scan", "ios": "https://dc.lft.to/lastmile_qr_scan"}, "name": "0b299d2c50acaaff952f11b7fb378ebf", "type": "electric_scooter"}, {"fusion_lat": 0.0, "bike_id": "b73cefb393efdadf1f3d82c863d91872", "fusion_lon": 0.0, "lon": -77.02587816666667, "lat": 38.942054166666665, "is_reserved": 0, "is_disabled": 0, "rental_uris": {"android": "https://dc.lft.to/lastmile_qr_scan", "ios": "https://dc.lft.to/lastmile_qr_scan"}, "name": "b73cefb393efdadf1f3d82c863d91872", "type": "electric_scooter"}, {"fusion_lat": 0.0, "bike_id": "6baf1141d6e192aa6b584e5bfb7fa146", "fusion_lon": 0.0, "lon": -77.03263316666667, "lat": 38.930788666666665, "is_reserved": 0, "is_disabled": 0, "rental_uris": {"android": "https://dc.lft.to/lastmile_qr_scan", "ios": "https://dc.lft.to/lastmile_qr_scan"}, "name": "6baf1141d6e192aa6b584e5bfb7fa146", "type": "electric_scooter"}, {"fusion_lat": 0.0, "bike_id": "f39a52046066a050ab124dd98291c740", "fusion_lon": 0.0, "lon": -77.02825566666667, "lat": 38.887310666666664, "is_reserved": 0, "is_disabled": 0, "rental_uris": {"android": "https://dc.lft.to/lastmile_qr_scan", "ios": "https://dc.lft.to/lastmile_qr_scan"}, "name": "f39a52046066a050ab124dd98291c740", "type": "electric_scooter"}, {"fusion_lat": 0.0, "bike_id": "e088868bd08a447f9db4ef3c270a68e4", "fusion_lon": 0.0, "lon": -77.02183766666667, "lat": 38.8947175, "is_reserved": 0, "is_disabled": 0, "rental_uris": {"android": "https://dc.lft.to/lastmile_qr_scan", "ios": "https://dc.lft.to/lastmile_qr_scan"}, "name": "e088868bd08a447f9db4ef3c270a68e4", "type": "electric_scooter"}, {"fusion_lat": 0.0, "bike_id": "8299300022f969c8fb686ce088e973f4", "fusion_lon": 0.0, "lon": -77.0320035, "lat": 38.91346683333333, "is_reserved": 0, "is_disabled": 0, "rental_uris": {"android": "https://dc.lft.to/lastmile_qr_scan", "ios": "https://dc.lft.to/lastmile_qr_scan"}, "name": "8299300022f969c8fb686ce088e973f4", "type": "electric_scooter"}, {"fusion_lat": 0.0, "bike_id": "1cb946dd0108c09c11b83d447940c7a2", "fusion_lon": 0.0, "lon": -77.03222516666666, "lat": 38.914043166666666, "is_reserved": 0, "is_disabled": 0, "rental_uris": {"android": "https://dc.lft.to/lastmile_qr_scan", "ios": "https://dc.lft.to/lastmile_qr_scan"}, "name": "1cb946dd0108c09c11b83d447940c7a2", "type": "electric_scooter"}, {"fusion_lat": 0.0, "bike_id": "5f07eb4aad321161041fe1ad0e5320b6", "fusion_lon": 0.0, "lon": -77.02659666666666, "lat": 38.91700483333334, "is_reserved": 0, "is_disabled": 0, "rental_uris": {"android": "https://dc.lft.to/lastmile_qr_scan", "ios": "https://dc.lft.to/lastmile_qr_scan"}, "name": "5f07eb4aad321161041fe1ad0e5320b6", "type": "electric_scooter"}, {"fusion_lat": 0.0, "bike_id": "fd7a9ee90fa6e9601ecd3f67a31ce75e", "fusion_lon": 0.0, "lon": -76.93321666666667, "lat": 38.900498666666664, "is_reserved": 0, "is_disabled": 0, "rental_uris": {"android": "https://dc.lft.to/lastmile_qr_scan", "ios": "https://dc.lft.to/lastmile_qr_scan"}, "name": "fd7a9ee90fa6e9601ecd3f67a31ce75e", "type": "electric_scooter"}, {"fusion_lat": 0.0, "bike_id": "f39e57452f41ee2e68ef8f3743252ae1", "fusion_lon": 0.0, "lon": -77.04641016666666, "lat": 38.9142075, "is_reserved": 0, "is_disabled": 0, "rental_uris": {"android": "https://dc.lft.to/lastmile_qr_scan", "ios": "https://dc.lft.to/lastmile_qr_scan"}, "name": "f39e57452f41ee2e68ef8f3743252ae1", "type": "electric_scooter"}, {"fusion_lat": 0.0, "bike_id": "32d52aae97b6a2cdce52792106e12d6d", "fusion_lon": 0.0, "lon": -76.99388116666667, "lat": 38.892059333333336, "is_reserved": 0, "is_disabled": 0, "rental_uris": {"android": "https://dc.lft.to/lastmile_qr_scan", "ios": "https://dc.lft.to/lastmile_qr_scan"}, "name": "32d52aae97b6a2cdce52792106e12d6d", "type": "electric_scooter"}, {"fusion_lat": 0.0, "bike_id": "3526cdd142d10e61fc218b6b3d0c8bed", "fusion_lon": 0.0, "lon": -77.0207125, "lat": 38.92406116666667, "is_reserved": 0, "is_disabled": 0, "rental_uris": {"android": "https://dc.lft.to/lastmile_qr_scan", "ios": "https://dc.lft.to/lastmile_qr_scan"}, "name": "3526cdd142d10e61fc218b6b3d0c8bed", "type": "electric_scooter"}, {"fusion_lat": 0.0, "bike_id": "287541ba9330328edd15f1993c8e6fb0", "fusion_lon": 0.0, "lon": -77.02571616666667, "lat": 38.890442, "is_reserved": 0, "is_disabled": 0, "rental_uris": {"android": "https://dc.lft.to/lastmile_qr_scan", "ios": "https://dc.lft.to/lastmile_qr_scan"}, "name": "287541ba9330328edd15f1993c8e6fb0", "type": "electric_scooter"}, {"fusion_lat": 0.0, "bike_id": "ba84778f8b525bf89086557853a2b243", "fusion_lon": 0.0, "lon": -77.02778033333334, "lat": 38.88744716666667, "is_reserved": 0, "is_disabled": 0, "rental_uris": {"android": "https://dc.lft.to/lastmile_qr_scan", "ios": "https://dc.lft.to/lastmile_qr_scan"}, "name": "ba84778f8b525bf89086557853a2b243", "type": "electric_scooter"}, {"fusion_lat": 0.0, "bike_id": "89ded46023a9b4d677c17230f24418e8", "fusion_lon": 0.0, "lon": -77.02185366666667, "lat": 38.89635616666666, "is_reserved": 0, "is_disabled": 0, "rental_uris": {"android": "https://dc.lft.to/lastmile_qr_scan", "ios": "https://dc.lft.to/lastmile_qr_scan"}, "name": "89ded46023a9b4d677c17230f24418e8", "type": "electric_scooter"}, {"fusion_lat": 0.0, "bike_id": "bc3766246c7a5740d8d6d19bbfec31b4", "fusion_lon": 0.0, "lon": -77.00876866666667, "lat": 38.9612305, "is_reserved": 0, "is_disabled": 0, "rental_uris": {"android": "https://dc.lft.to/lastmile_qr_scan", "ios": "https://dc.lft.to/lastmile_qr_scan"}, "name": "bc3766246c7a5740d8d6d19bbfec31b4", "type": "electric_scooter"}, {"fusion_lat": 0.0, "bike_id": "b78ab00a436b8ab194f35e235b97d498", "fusion_lon": 0.0, "lon": -77.03278483333334, "lat": 38.898378, "is_reserved": 0, "is_disabled": 0, "rental_uris": {"android": "https://dc.lft.to/lastmile_qr_scan", "ios": "https://dc.lft.to/lastmile_qr_scan"}, "name": "b78ab00a436b8ab194f35e235b97d498", "type": "electric_scooter"}, {"fusion_lat": 0.0, "bike_id": "5705d7d086ace261354168f01a1385cc", "fusion_lon": 0.0, "lon": -77.0471835, "lat": 38.9032545, "is_reserved": 0, "is_disabled": 0, "rental_uris": {"android": "https://dc.lft.to/lastmile_qr_scan", "ios": "https://dc.lft.to/lastmile_qr_scan"}, "name": "5705d7d086ace261354168f01a1385cc", "type": "electric_scooter"}, {"fusion_lat": 0.0, "bike_id": "e3fc819fcd7087d185903a245a8609cb", "fusion_lon": 0.0, "lon": -77.03322016666667, "lat": 38.901114166666666, "is_reserved": 0, "is_disabled": 0, "rental_uris": {"android": "https://dc.lft.to/lastmile_qr_scan", "ios": "https://dc.lft.to/lastmile_qr_scan"}, "name": "e3fc819fcd7087d185903a245a8609cb", "type": "electric_scooter"}, {"fusion_lat": 0.0, "bike_id": "5e0f5f40268c636fd68983d20d890c28", "fusion_lon": 0.0, "lon": -77.03187233333334, "lat": 38.9158505, "is_reserved": 0, "is_disabled": 0, "rental_uris": {"android": "https://dc.lft.to/lastmile_qr_scan", "ios": "https://dc.lft.to/lastmile_qr_scan"}, "name": "5e0f5f40268c636fd68983d20d890c28", "type": "electric_scooter"}, {"fusion_lat": 0.0, "bike_id": "5f9c27f8f6fb70c318a83da7f0a123c6", "fusion_lon": 0.0, "lon": -77.03382633333334, "lat": 38.902661333333334, "is_reserved": 0, "is_disabled": 0, "rental_uris": {"android": "https://dc.lft.to/lastmile_qr_scan", "ios": "https://dc.lft.to/lastmile_qr_scan"}, "name": "5f9c27f8f6fb70c318a83da7f0a123c6", "type": "electric_scooter"}, {"fusion_lat": 0.0, "bike_id": "723141a72f2ec0b90ee917704d71f667", "fusion_lon": 0.0, "lon": -77.04173816666666, "lat": 38.917699999999996, "is_reserved": 0, "is_disabled": 0, "rental_uris": {"android": "https://dc.lft.to/lastmile_qr_scan", "ios": "https://dc.lft.to/lastmile_qr_scan"}, "name": "723141a72f2ec0b90ee917704d71f667", "type": "electric_scooter"}, {"fusion_lat": 0.0, "bike_id": "64e8dbe99ae61936e2a94e1759447c0d", "fusion_lon": 0.0, "lon": -77.0216815, "lat": 38.942939333333335, "is_reserved": 0, "is_disabled": 0, "rental_uris": {"android": "https://dc.lft.to/lastmile_qr_scan", "ios": "https://dc.lft.to/lastmile_qr_scan"}, "name": "64e8dbe99ae61936e2a94e1759447c0d", "type": "electric_scooter"}, {"fusion_lat": 0.0, "bike_id": "a157d65879b061b9533f5ec0e79e1e17", "fusion_lon": 0.0, "lon": -76.98892083333334, "lat": 38.913425, "is_reserved": 0, "is_disabled": 0, "rental_uris": {"android": "https://dc.lft.to/lastmile_qr_scan", "ios": "https://dc.lft.to/lastmile_qr_scan"}, "name": "a157d65879b061b9533f5ec0e79e1e17", "type": "electric_scooter"}, {"fusion_lat": 0.0, "bike_id": "c348a531343157120fb032c195ac80fc", "fusion_lon": 0.0, "lon": -77.04088566666667, "lat": 38.915639666666664, "is_reserved": 0, "is_disabled": 0, "rental_uris": {"android": "https://dc.lft.to/lastmile_qr_scan", "ios": "https://dc.lft.to/lastmile_qr_scan"}, "name": "c348a531343157120fb032c195ac80fc", "type": "electric_scooter"}, {"fusion_lat": 0.0, "bike_id": "fae571917cccc6f371559082ed03fe9b", "fusion_lon": 0.0, "lon": -77.03186283333334, "lat": 38.91815283333333, "is_reserved": 0, "is_disabled": 0, "rental_uris": {"android": "https://dc.lft.to/lastmile_qr_scan", "ios": "https://dc.lft.to/lastmile_qr_scan"}, "name": "fae571917cccc6f371559082ed03fe9b", "type": "electric_scooter"}, {"fusion_lat": 0.0, "bike_id": "3d915800c2516ddc69da1ff0b0c1b3e1", "fusion_lon": 0.0, "lon": -77.02604633333333, "lat": 38.97572516666666, "is_reserved": 0, "is_disabled": 0, "rental_uris": {"android": "https://dc.lft.to/lastmile_qr_scan", "ios": "https://dc.lft.to/lastmile_qr_scan"}, "name": "3d915800c2516ddc69da1ff0b0c1b3e1", "type": "electric_scooter"}, {"fusion_lat": 0.0, "bike_id": "d4585ab6b85778a84a1be2e8673c0965", "fusion_lon": 0.0, "lon": -77.0235205, "lat": 38.935355, "is_reserved": 0, "is_disabled": 0, "rental_uris": {"android": "https://dc.lft.to/lastmile_qr_scan", "ios": "https://dc.lft.to/lastmile_qr_scan"}, "name": "d4585ab6b85778a84a1be2e8673c0965", "type": "electric_scooter"}, {"fusion_lat": 0.0, "bike_id": "8773b8a3f672da28e9a07ccdb9138b7c", "fusion_lon": 0.0, "lon": -77.07915533333333, "lat": 38.94637933333333, "is_reserved": 0, "is_disabled": 0, "rental_uris": {"android": "https://dc.lft.to/lastmile_qr_scan", "ios": "https://dc.lft.to/lastmile_qr_scan"}, "name": "8773b8a3f672da28e9a07ccdb9138b7c", "type": "electric_scooter"}, {"fusion_lat": 0.0, "bike_id": "37846180ed4baf640fd150d939195ace", "fusion_lon": 0.0, "lon": -77.03319316666666, "lat": 38.90104, "is_reserved": 0, "is_disabled": 0, "rental_uris": {"android": "https://dc.lft.to/lastmile_qr_scan", "ios": "https://dc.lft.to/lastmile_qr_scan"}, "name": "37846180ed4baf640fd150d939195ace", "type": "electric_scooter"}, {"fusion_lat": 0.0, "bike_id": "eef2c6c5d81e574061e98921cdda3dee", "fusion_lon": 0.0, "lon": -77.02499883333333, "lat": 38.91923716666667, "is_reserved": 0, "is_disabled": 0, "rental_uris": {"android": "https://dc.lft.to/lastmile_qr_scan", "ios": "https://dc.lft.to/lastmile_qr_scan"}, "name": "eef2c6c5d81e574061e98921cdda3dee", "type": "electric_scooter"}, {"fusion_lat": 0.0, "bike_id": "488a8fa28ac95b4799754234221ba9cc", "fusion_lon": 0.0, "lon": -77.0426275, "lat": 38.92234883333333, "is_reserved": 0, "is_disabled": 0, "rental_uris": {"android": "https://dc.lft.to/lastmile_qr_scan", "ios": "https://dc.lft.to/lastmile_qr_scan"}, "name": "488a8fa28ac95b4799754234221ba9cc", "type": "electric_scooter"}, {"fusion_lat": 0.0, "bike_id": "092aa1d2835ab7503b12bec492b0bdb9", "fusion_lon": 0.0, "lon": -77.03105183333334, "lat": 38.8923075, "is_reserved": 0, "is_disabled": 0, "rental_uris": {"android": "https://dc.lft.to/lastmile_qr_scan", "ios": "https://dc.lft.to/lastmile_qr_scan"}, "name": "092aa1d2835ab7503b12bec492b0bdb9", "type": "electric_scooter"}, {"fusion_lat": 0.0, "bike_id": "d1dcc9d7f6518600bfa39710cdaa0aac", "fusion_lon": 0.0, "lon": -77.0325155, "lat": 38.9045945, "is_reserved": 0, "is_disabled": 0, "rental_uris": {"android": "https://dc.lft.to/lastmile_qr_scan", "ios": "https://dc.lft.to/lastmile_qr_scan"}, "name": "d1dcc9d7f6518600bfa39710cdaa0aac", "type": "electric_scooter"}, {"fusion_lat": 0.0, "bike_id": "a314f2248918877e59a41e0ee32e9bc8", "fusion_lon": 0.0, "lon": -77.04386916666667, "lat": 39.047196166666666, "is_reserved": 0, "is_disabled": 0, "rental_uris": {"android": "https://dc.lft.to/lastmile_qr_scan", "ios": "https://dc.lft.to/lastmile_qr_scan"}, "name": "a314f2248918877e59a41e0ee32e9bc8", "type": "electric_bike"}, {"fusion_lat": 0.0, "bike_id": "1e5e93ed3b85538c05bf60b333728508", "fusion_lon": 0.0, "lon": -77.05395083333333, "lat": 38.92792133333333, "is_reserved": 0, "is_disabled": 0, "rental_uris": {"android": "https://dc.lft.to/lastmile_qr_scan", "ios": "https://dc.lft.to/lastmile_qr_scan"}, "name": "1e5e93ed3b85538c05bf60b333728508", "type": "electric_scooter"}, {"fusion_lat": 0.0, "bike_id": "bd5b4d84a826285b6d0f0e144db48cd4", "fusion_lon": 0.0, "lon": -77.0431925, "lat": 38.909517666666666, "is_reserved": 0, "is_disabled": 0, "rental_uris": {"android": "https://dc.lft.to/lastmile_qr_scan", "ios": "https://dc.lft.to/lastmile_qr_scan"}, "name": "bd5b4d84a826285b6d0f0e144db48cd4", "type": "electric_scooter"}, {"fusion_lat": 0.0, "bike_id": "3aaf185a8cbbc228dc955c1dc21376ae", "fusion_lon": 0.0, "lon": -77.02281216666667, "lat": 38.92581666666667, "is_reserved": 0, "is_disabled": 0, "rental_uris": {"android": "https://dc.lft.to/lastmile_qr_scan", "ios": "https://dc.lft.to/lastmile_qr_scan"}, "name": "3aaf185a8cbbc228dc955c1dc21376ae", "type": "electric_scooter"}, {"fusion_lat": 0.0, "bike_id": "beb172f400ebde3995efddf24ff29802", "fusion_lon": 0.0, "lon": -76.98543866666667, "lat": 38.92017833333333, "is_reserved": 0, "is_disabled": 0, "rental_uris": {"android": "https://dc.lft.to/lastmile_qr_scan", "ios": "https://dc.lft.to/lastmile_qr_scan"}, "name": "beb172f400ebde3995efddf24ff29802", "type": "electric_scooter"}, {"fusion_lat": 0.0, "bike_id": "9c654de98e3257cfe1c68e83f5bb41e5", "fusion_lon": 0.0, "lon": -77.022328, "lat": 38.926099, "is_reserved": 0, "is_disabled": 0, "rental_uris": {"android": "https://dc.lft.to/lastmile_qr_scan", "ios": "https://dc.lft.to/lastmile_qr_scan"}, "name": "9c654de98e3257cfe1c68e83f5bb41e5", "type": "electric_scooter"}, {"fusion_lat": 0.0, "bike_id": "b2add06b21f3481394d1f1a8a0ed704e", "fusion_lon": 0.0, "lon": -77.03503883333333, "lat": 38.918782666666665, "is_reserved": 0, "is_disabled": 0, "rental_uris": {"android": "https://dc.lft.to/lastmile_qr_scan", "ios": "https://dc.lft.to/lastmile_qr_scan"}, "name": "b2add06b21f3481394d1f1a8a0ed704e", "type": "electric_scooter"}, {"fusion_lat": 0.0, "bike_id": "a3f2f0cc1225ece1376611d8b4fe5a2c", "fusion_lon": 0.0, "lon": -76.95573616666667, "lat": 38.887668, "is_reserved": 0, "is_disabled": 0, "rental_uris": {"android": "https://dc.lft.to/lastmile_qr_scan", "ios": "https://dc.lft.to/lastmile_qr_scan"}, "name": "a3f2f0cc1225ece1376611d8b4fe5a2c", "type": "electric_scooter"}, {"fusion_lat": 0.0, "bike_id": "5093637b69d9ffc25a404f5c525c1fd1", "fusion_lon": 0.0, "lon": -77.07344566666667, "lat": 38.909944833333334, "is_reserved": 0, "is_disabled": 0, "rental_uris": {"android": "https://dc.lft.to/lastmile_qr_scan", "ios": "https://dc.lft.to/lastmile_qr_scan"}, "name": "5093637b69d9ffc25a404f5c525c1fd1", "type": "electric_scooter"}, {"fusion_lat": 0.0, "bike_id": "25d911a44a3bfc737ee6952dd87026b8", "fusion_lon": 0.0, "lon": -77.03973216666667, "lat": 38.902584166666664, "is_reserved": 0, "is_disabled": 0, "rental_uris": {"android": "https://dc.lft.to/lastmile_qr_scan", "ios": "https://dc.lft.to/lastmile_qr_scan"}, "name": "25d911a44a3bfc737ee6952dd87026b8", "type": "electric_scooter"}, {"fusion_lat": 0.0, "bike_id": "274da4c4a9e5023cf31a799dcaa5d2f7", "fusion_lon": 0.0, "lon": -77.02842116666666, "lat": 38.9257355, "is_reserved": 0, "is_disabled": 0, "rental_uris": {"android": "https://dc.lft.to/lastmile_qr_scan", "ios": "https://dc.lft.to/lastmile_qr_scan"}, "name": "274da4c4a9e5023cf31a799dcaa5d2f7", "type": "electric_scooter"}, {"fusion_lat": 0.0, "bike_id": "cf0b65a64ff468ef7ce82ccdf1e2a215", "fusion_lon": 0.0, "lon": -77.0432095, "lat": 38.91877866666667, "is_reserved": 0, "is_disabled": 0, "rental_uris": {"android": "https://dc.lft.to/lastmile_qr_scan", "ios": "https://dc.lft.to/lastmile_qr_scan"}, "name": "cf0b65a64ff468ef7ce82ccdf1e2a215", "type": "electric_scooter"}, {"fusion_lat": 0.0, "bike_id": "f84ab5592c0b50a078539e9fd7508747", "fusion_lon": 0.0, "lon": -77.03514016666666, "lat": 38.921983166666664, "is_reserved": 0, "is_disabled": 0, "rental_uris": {"android": "https://dc.lft.to/lastmile_qr_scan", "ios": "https://dc.lft.to/lastmile_qr_scan"}, "name": "f84ab5592c0b50a078539e9fd7508747", "type": "electric_scooter"}, {"fusion_lat": 0.0, "bike_id": "c8ef29f619a61a1ed87eda5ee0dcfdf3", "fusion_lon": 0.0, "lon": -77.03209166666667, "lat": 38.914222333333335, "is_reserved": 0, "is_disabled": 0, "rental_uris": {"android": "https://dc.lft.to/lastmile_qr_scan", "ios": "https://dc.lft.to/lastmile_qr_scan"}, "name": "c8ef29f619a61a1ed87eda5ee0dcfdf3", "type": "electric_scooter"}, {"fusion_lat": 0.0, "bike_id": "2ad4115ca5510f4fd1840876810abdae", "fusion_lon": 0.0, "lon": -77.03906016666667, "lat": 38.9257405, "is_reserved": 0, "is_disabled": 0, "rental_uris": {"android": "https://dc.lft.to/lastmile_qr_scan", "ios": "https://dc.lft.to/lastmile_qr_scan"}, "name": "2ad4115ca5510f4fd1840876810abdae", "type": "electric_scooter"}, {"fusion_lat": 0.0, "bike_id": "08a2a1472a8286b213b6c8dc2b0a3287", "fusion_lon": 0.0, "lon": -77.031979, "lat": 38.90426216666667, "is_reserved": 0, "is_disabled": 0, "rental_uris": {"android": "https://dc.lft.to/lastmile_qr_scan", "ios": "https://dc.lft.to/lastmile_qr_scan"}, "name": "08a2a1472a8286b213b6c8dc2b0a3287", "type": "electric_scooter"}, {"fusion_lat": 0.0, "bike_id": "a03288ad330278645e6a2bd36588a1e5", "fusion_lon": 0.0, "lon": -77.08943566666666, "lat": 38.841088166666665, "is_reserved": 0, "is_disabled": 0, "rental_uris": {"android": "https://dc.lft.to/lastmile_qr_scan", "ios": "https://dc.lft.to/lastmile_qr_scan"}, "name": "a03288ad330278645e6a2bd36588a1e5", "type": "electric_bike"}, {"fusion_lat": 0.0, "bike_id": "6d7c4a950126ac4384ce562bdc51b239", "fusion_lon": 0.0, "lon": -77.02765, "lat": 38.93459, "is_reserved": 0, "is_disabled": 0, "rental_uris": {"android": "https://dc.lft.to/lastmile_qr_scan", "ios": "https://dc.lft.to/lastmile_qr_scan"}, "name": "6d7c4a950126ac4384ce562bdc51b239", "type": "electric_scooter"}, {"fusion_lat": 0.0, "bike_id": "25d4bc4d9dbd12ee4c8a67724ef5db5d", "fusion_lon": 0.0, "lon": -77.04890066666667, "lat": 38.905361, "is_reserved": 0, "is_disabled": 0, "rental_uris": {"android": "https://dc.lft.to/lastmile_qr_scan", "ios": "https://dc.lft.to/lastmile_qr_scan"}, "name": "25d4bc4d9dbd12ee4c8a67724ef5db5d", "type": "electric_scooter"}, {"fusion_lat": 0.0, "bike_id": "d170a7de66658e26b7637c5f88346ba6", "fusion_lon": 0.0, "lon": -77.02717066666666, "lat": 38.9167815, "is_reserved": 0, "is_disabled": 0, "rental_uris": {"android": "https://dc.lft.to/lastmile_qr_scan", "ios": "https://dc.lft.to/lastmile_qr_scan"}, "name": "d170a7de66658e26b7637c5f88346ba6", "type": "electric_scooter"}, {"fusion_lat": 0.0, "bike_id": "cc86af143b6abce1af345befb4752ab4", "fusion_lon": 0.0, "lon": -76.98526966666667, "lat": 38.8668675, "is_reserved": 0, "is_disabled": 0, "rental_uris": {"android": "https://dc.lft.to/lastmile_qr_scan", "ios": "https://dc.lft.to/lastmile_qr_scan"}, "name": "cc86af143b6abce1af345befb4752ab4", "type": "electric_scooter"}, {"fusion_lat": 0.0, "bike_id": "924dbb81816132b2bf52d504613de863", "fusion_lon": 0.0, "lon": -77.02177433333334, "lat": 38.88725433333333, "is_reserved": 0, "is_disabled": 0, "rental_uris": {"android": "https://dc.lft.to/lastmile_qr_scan", "ios": "https://dc.lft.to/lastmile_qr_scan"}, "name": "924dbb81816132b2bf52d504613de863", "type": "electric_scooter"}, {"fusion_lat": 0.0, "bike_id": "2d25ee401fb3319aa0cdce9246cb98d4", "fusion_lon": 0.0, "lon": -77.0059545, "lat": 38.903973, "is_reserved": 0, "is_disabled": 0, "rental_uris": {"android": "https://dc.lft.to/lastmile_qr_scan", "ios": "https://dc.lft.to/lastmile_qr_scan"}, "name": "2d25ee401fb3319aa0cdce9246cb98d4", "type": "electric_scooter"}, {"fusion_lat": 0.0, "bike_id": "d552404f6d38b7c5ba7cc8ea085ba748", "fusion_lon": 0.0, "lon": -77.02774933333333, "lat": 38.9268285, "is_reserved": 0, "is_disabled": 0, "rental_uris": {"android": "https://dc.lft.to/lastmile_qr_scan", "ios": "https://dc.lft.to/lastmile_qr_scan"}, "name": "d552404f6d38b7c5ba7cc8ea085ba748", "type": "electric_scooter"}, {"fusion_lat": 0.0, "bike_id": "7ab287656f9ecb1e8c72775dbf70d5b0", "fusion_lon": 0.0, "lon": -76.99914833333334, "lat": 38.90734616666667, "is_reserved": 0, "is_disabled": 0, "rental_uris": {"android": "https://dc.lft.to/lastmile_qr_scan", "ios": "https://dc.lft.to/lastmile_qr_scan"}, "name": "7ab287656f9ecb1e8c72775dbf70d5b0", "type": "electric_scooter"}, {"fusion_lat": 0.0, "bike_id": "bc1a3654c6b85a3c1c05b07d6c7b59ad", "fusion_lon": 0.0, "lon": -77.0457925, "lat": 38.90955066666667, "is_reserved": 0, "is_disabled": 0, "rental_uris": {"android": "https://dc.lft.to/lastmile_qr_scan", "ios": "https://dc.lft.to/lastmile_qr_scan"}, "name": "bc1a3654c6b85a3c1c05b07d6c7b59ad", "type": "electric_scooter"}, {"fusion_lat": 0.0, "bike_id": "d23efaeaf047dcea8b279ebd5688fd00", "fusion_lon": 0.0, "lon": -76.94289166666667, "lat": 38.93870066666667, "is_reserved": 0, "is_disabled": 0, "rental_uris": {"android": "https://dc.lft.to/lastmile_qr_scan", "ios": "https://dc.lft.to/lastmile_qr_scan"}, "name": "d23efaeaf047dcea8b279ebd5688fd00", "type": "electric_bike"}, {"fusion_lat": 0.0, "bike_id": "d010b122f0439632be002b7063f2d7b7", "fusion_lon": 0.0, "lon": -77.03531583333333, "lat": 38.92627933333333, "is_reserved": 0, "is_disabled": 0, "rental_uris": {"android": "https://dc.lft.to/lastmile_qr_scan", "ios": "https://dc.lft.to/lastmile_qr_scan"}, "name": "d010b122f0439632be002b7063f2d7b7", "type": "electric_scooter"}, {"fusion_lat": 0.0, "bike_id": "24350b592720d9300968daaab5842e46", "fusion_lon": 0.0, "lon": -76.9552165, "lat": 38.88467683333333, "is_reserved": 0, "is_disabled": 0, "rental_uris": {"android": "https://dc.lft.to/lastmile_qr_scan", "ios": "https://dc.lft.to/lastmile_qr_scan"}, "name": "24350b592720d9300968daaab5842e46", "type": "electric_scooter"}, {"fusion_lat": 0.0, "bike_id": "45bcf736df0f2485848b19357004967d", "fusion_lon": 0.0, "lon": -76.936239, "lat": 38.89683616666667, "is_reserved": 0, "is_disabled": 0, "rental_uris": {"android": "https://dc.lft.to/lastmile_qr_scan", "ios": "https://dc.lft.to/lastmile_qr_scan"}, "name": "45bcf736df0f2485848b19357004967d", "type": "electric_scooter"}, {"fusion_lat": 0.0, "bike_id": "ec3b2c2bd989f4252604ed13813f3491", "fusion_lon": 0.0, "lon": -77.02620616666667, "lat": 38.962257, "is_reserved": 0, "is_disabled": 0, "rental_uris": {"android": "https://dc.lft.to/lastmile_qr_scan", "ios": "https://dc.lft.to/lastmile_qr_scan"}, "name": "ec3b2c2bd989f4252604ed13813f3491", "type": "electric_bike"}, {"fusion_lat": 0.0, "bike_id": "46cb2b5d8681ef52f451a0862fc84ffb", "fusion_lon": 0.0, "lon": -76.99029316666666, "lat": 38.891718166666664, "is_reserved": 0, "is_disabled": 0, "rental_uris": {"android": "https://dc.lft.to/lastmile_qr_scan", "ios": "https://dc.lft.to/lastmile_qr_scan"}, "name": "46cb2b5d8681ef52f451a0862fc84ffb", "type": "electric_scooter"}, {"fusion_lat": 0.0, "bike_id": "a28c8c4a04f8bde13e767f3895c99533", "fusion_lon": 0.0, "lon": -77.03659016666667, "lat": 38.923411333333334, "is_reserved": 0, "is_disabled": 0, "rental_uris": {"android": "https://dc.lft.to/lastmile_qr_scan", "ios": "https://dc.lft.to/lastmile_qr_scan"}, "name": "a28c8c4a04f8bde13e767f3895c99533", "type": "electric_scooter"}, {"fusion_lat": 0.0, "bike_id": "4b40cbee67e8e299858cebabcfb7ca02", "fusion_lon": 0.0, "lon": -77.06251916666666, "lat": 38.944166833333334, "is_reserved": 0, "is_disabled": 0, "rental_uris": {"android": "https://dc.lft.to/lastmile_qr_scan", "ios": "https://dc.lft.to/lastmile_qr_scan"}, "name": "4b40cbee67e8e299858cebabcfb7ca02", "type": "electric_scooter"}, {"fusion_lat": 0.0, "bike_id": "df1a541e19e6ecd930a43dc9b78299da", "fusion_lon": 0.0, "lon": -77.01347183333333, "lat": 38.956163333333336, "is_reserved": 0, "is_disabled": 0, "rental_uris": {"android": "https://dc.lft.to/lastmile_qr_scan", "ios": "https://dc.lft.to/lastmile_qr_scan"}, "name": "df1a541e19e6ecd930a43dc9b78299da", "type": "electric_scooter"}, {"fusion_lat": 0.0, "bike_id": "e3965f8a62b7673dbd590ad30c62bff6", "fusion_lon": 0.0, "lon": -77.03442783333334, "lat": 38.90636133333334, "is_reserved": 0, "is_disabled": 0, "rental_uris": {"android": "https://dc.lft.to/lastmile_qr_scan", "ios": "https://dc.lft.to/lastmile_qr_scan"}, "name": "e3965f8a62b7673dbd590ad30c62bff6", "type": "electric_scooter"}, {"fusion_lat": 0.0, "bike_id": "12294d54db010e8e625c97b52d7980cf", "fusion_lon": 0.0, "lon": -77.108315, "lat": 38.812019666666664, "is_reserved": 0, "is_disabled": 0, "rental_uris": {"android": "https://dc.lft.to/lastmile_qr_scan", "ios": "https://dc.lft.to/lastmile_qr_scan"}, "name": "12294d54db010e8e625c97b52d7980cf", "type": "electric_bike"}, {"fusion_lat": 0.0, "bike_id": "917781198bba32090fe9941299e86700", "fusion_lon": 0.0, "lon": -77.100874, "lat": 38.959579833333336, "is_reserved": 0, "is_disabled": 0, "rental_uris": {"android": "https://dc.lft.to/lastmile_qr_scan", "ios": "https://dc.lft.to/lastmile_qr_scan"}, "name": "917781198bba32090fe9941299e86700", "type": "electric_bike"}, {"fusion_lat": 0.0, "bike_id": "9d7b4ce9aa520740b956a1403d40a1a0", "fusion_lon": 0.0, "lon": -76.98915066666666, "lat": 38.865602333333335, "is_reserved": 0, "is_disabled": 0, "rental_uris": {"android": "https://dc.lft.to/lastmile_qr_scan", "ios": "https://dc.lft.to/lastmile_qr_scan"}, "name": "9d7b4ce9aa520740b956a1403d40a1a0", "type": "electric_scooter"}, {"fusion_lat": 0.0, "bike_id": "ccef16741f7af92bba2ab8a26f5e1d2f", "fusion_lon": 0.0, "lon": -77.05179833333334, "lat": 38.924308, "is_reserved": 0, "is_disabled": 0, "rental_uris": {"android": "https://dc.lft.to/lastmile_qr_scan", "ios": "https://dc.lft.to/lastmile_qr_scan"}, "name": "ccef16741f7af92bba2ab8a26f5e1d2f", "type": "electric_scooter"}, {"fusion_lat": 0.0, "bike_id": "09c7bd3a88f940176c6ec3e85b214bd2", "fusion_lon": 0.0, "lon": -77.06117983333333, "lat": 38.94363833333333, "is_reserved": 0, "is_disabled": 0, "rental_uris": {"android": "https://dc.lft.to/lastmile_qr_scan", "ios": "https://dc.lft.to/lastmile_qr_scan"}, "name": "09c7bd3a88f940176c6ec3e85b214bd2", "type": "electric_scooter"}, {"fusion_lat": 0.0, "bike_id": "8d0ab185b38a7b1fd8e6fdd2eefe3fce", "fusion_lon": 0.0, "lon": -77.02972566666666, "lat": 38.917243166666665, "is_reserved": 0, "is_disabled": 0, "rental_uris": {"android": "https://dc.lft.to/lastmile_qr_scan", "ios": "https://dc.lft.to/lastmile_qr_scan"}, "name": "8d0ab185b38a7b1fd8e6fdd2eefe3fce", "type": "electric_scooter"}, {"fusion_lat": 0.0, "bike_id": "14247b96b0707a0e9979196088e37719", "fusion_lon": 0.0, "lon": -76.98367983333333, "lat": 38.889634666666666, "is_reserved": 0, "is_disabled": 0, "rental_uris": {"android": "https://dc.lft.to/lastmile_qr_scan", "ios": "https://dc.lft.to/lastmile_qr_scan"}, "name": "14247b96b0707a0e9979196088e37719", "type": "electric_scooter"}, {"fusion_lat": 0.0, "bike_id": "47c0597d87af2a670c363f3c450ee06b", "fusion_lon": 0.0, "lon": -77.0319785, "lat": 38.91638966666667, "is_reserved": 0, "is_disabled": 0, "rental_uris": {"android": "https://dc.lft.to/lastmile_qr_scan", "ios": "https://dc.lft.to/lastmile_qr_scan"}, "name": "47c0597d87af2a670c363f3c450ee06b", "type": "electric_scooter"}, {"fusion_lat": 0.0, "bike_id": "ef30a21d2a40ca06cbc609022a920bd3", "fusion_lon": 0.0, "lon": -76.99471833333334, "lat": 38.862186, "is_reserved": 0, "is_disabled": 0, "rental_uris": {"android": "https://dc.lft.to/lastmile_qr_scan", "ios": "https://dc.lft.to/lastmile_qr_scan"}, "name": "ef30a21d2a40ca06cbc609022a920bd3", "type": "electric_scooter"}, {"fusion_lat": 0.0, "bike_id": "704a04cfc6a0e2dea33ea076160f0883", "fusion_lon": 0.0, "lon": -77.03160016666666, "lat": 38.90347783333333, "is_reserved": 0, "is_disabled": 0, "rental_uris": {"android": "https://dc.lft.to/lastmile_qr_scan", "ios": "https://dc.lft.to/lastmile_qr_scan"}, "name": "704a04cfc6a0e2dea33ea076160f0883", "type": "electric_scooter"}, {"fusion_lat": 0.0, "bike_id": "0e896c5fb933d8ee489a3e4571f66203", "fusion_lon": 0.0, "lon": -77.04726566666666, "lat": 38.89725633333333, "is_reserved": 0, "is_disabled": 0, "rental_uris": {"android": "https://dc.lft.to/lastmile_qr_scan", "ios": "https://dc.lft.to/lastmile_qr_scan"}, "name": "0e896c5fb933d8ee489a3e4571f66203", "type": "electric_scooter"}, {"fusion_lat": 0.0, "bike_id": "578221d9a9160c772d1028457251f063", "fusion_lon": 0.0, "lon": -77.056088, "lat": 38.931622, "is_reserved": 0, "is_disabled": 0, "rental_uris": {"android": "https://dc.lft.to/lastmile_qr_scan", "ios": "https://dc.lft.to/lastmile_qr_scan"}, "name": "578221d9a9160c772d1028457251f063", "type": "electric_scooter"}, {"fusion_lat": 0.0, "bike_id": "9fe310fa0b29a289c5d6ee339025a221", "fusion_lon": 0.0, "lon": -77.02569716666666, "lat": 38.92544383333333, "is_reserved": 0, "is_disabled": 0, "rental_uris": {"android": "https://dc.lft.to/lastmile_qr_scan", "ios": "https://dc.lft.to/lastmile_qr_scan"}, "name": "9fe310fa0b29a289c5d6ee339025a221", "type": "electric_scooter"}, {"fusion_lat": 0.0, "bike_id": "3c9802fba784bef39c8412890cecd510", "fusion_lon": 0.0, "lon": -77.06107683333333, "lat": 38.939437833333336, "is_reserved": 0, "is_disabled": 0, "rental_uris": {"android": "https://dc.lft.to/lastmile_qr_scan", "ios": "https://dc.lft.to/lastmile_qr_scan"}, "name": "3c9802fba784bef39c8412890cecd510", "type": "electric_scooter"}, {"fusion_lat": 0.0, "bike_id": "0c068c29dcc36677731c5f9e5701de07", "fusion_lon": 0.0, "lon": -77.033762, "lat": 38.921563666666664, "is_reserved": 0, "is_disabled": 0, "rental_uris": {"android": "https://dc.lft.to/lastmile_qr_scan", "ios": "https://dc.lft.to/lastmile_qr_scan"}, "name": "0c068c29dcc36677731c5f9e5701de07", "type": "electric_scooter"}, {"fusion_lat": 0.0, "bike_id": "973fc09b20461fe74471ec49033959ca", "fusion_lon": 0.0, "lon": -76.98837733333333, "lat": 38.9008275, "is_reserved": 0, "is_disabled": 0, "rental_uris": {"android": "https://dc.lft.to/lastmile_qr_scan", "ios": "https://dc.lft.to/lastmile_qr_scan"}, "name": "973fc09b20461fe74471ec49033959ca", "type": "electric_scooter"}, {"fusion_lat": 0.0, "bike_id": "f91c8ce2d7e122082029889561c3edd1", "fusion_lon": 0.0, "lon": -77.02733583333334, "lat": 38.932083, "is_reserved": 0, "is_disabled": 0, "rental_uris": {"android": "https://dc.lft.to/lastmile_qr_scan", "ios": "https://dc.lft.to/lastmile_qr_scan"}, "name": "f91c8ce2d7e122082029889561c3edd1", "type": "electric_scooter"}, {"fusion_lat": 0.0, "bike_id": "599e56d363199048fe634346197f858f", "fusion_lon": 0.0, "lon": -77.030719, "lat": 38.9330535, "is_reserved": 0, "is_disabled": 0, "rental_uris": {"android": "https://dc.lft.to/lastmile_qr_scan", "ios": "https://dc.lft.to/lastmile_qr_scan"}, "name": "599e56d363199048fe634346197f858f", "type": "electric_scooter"}, {"fusion_lat": 0.0, "bike_id": "743f2480ddd2b07a097d6bbc9d533469", "fusion_lon": 0.0, "lon": -77.02158066666667, "lat": 38.92684333333333, "is_reserved": 0, "is_disabled": 0, "rental_uris": {"android": "https://dc.lft.to/lastmile_qr_scan", "ios": "https://dc.lft.to/lastmile_qr_scan"}, "name": "743f2480ddd2b07a097d6bbc9d533469", "type": "electric_scooter"}, {"fusion_lat": 0.0, "bike_id": "31d8031374f756c3c1d4d39ec2d0cc33", "fusion_lon": 0.0, "lon": -77.039979, "lat": 38.89534883333334, "is_reserved": 0, "is_disabled": 0, "rental_uris": {"android": "https://dc.lft.to/lastmile_qr_scan", "ios": "https://dc.lft.to/lastmile_qr_scan"}, "name": "31d8031374f756c3c1d4d39ec2d0cc33", "type": "electric_scooter"}, {"fusion_lat": 0.0, "bike_id": "f1228adece2b5ac51743bf18cd887c90", "fusion_lon": 0.0, "lon": -77.02576966666666, "lat": 38.9319365, "is_reserved": 0, "is_disabled": 0, "rental_uris": {"android": "https://dc.lft.to/lastmile_qr_scan", "ios": "https://dc.lft.to/lastmile_qr_scan"}, "name": "f1228adece2b5ac51743bf18cd887c90", "type": "electric_scooter"}, {"fusion_lat": 0.0, "bike_id": "c52a3bd8b7004384df8fbe0abc3c9c99", "fusion_lon": 0.0, "lon": -77.02713816666666, "lat": 38.924682, "is_reserved": 0, "is_disabled": 0, "rental_uris": {"android": "https://dc.lft.to/lastmile_qr_scan", "ios": "https://dc.lft.to/lastmile_qr_scan"}, "name": "c52a3bd8b7004384df8fbe0abc3c9c99", "type": "electric_scooter"}, {"fusion_lat": 0.0, "bike_id": "23620fb5e93d8c3e85665eb110906392", "fusion_lon": 0.0, "lon": -77.00644483333333, "lat": 38.871628, "is_reserved": 0, "is_disabled": 0, "rental_uris": {"android": "https://dc.lft.to/lastmile_qr_scan", "ios": "https://dc.lft.to/lastmile_qr_scan"}, "name": "23620fb5e93d8c3e85665eb110906392", "type": "electric_scooter"}, {"fusion_lat": 0.0, "bike_id": "2fa19e42de711a321837f54efa4fd068", "fusion_lon": 0.0, "lon": -77.06043316666667, "lat": 38.9391395, "is_reserved": 0, "is_disabled": 0, "rental_uris": {"android": "https://dc.lft.to/lastmile_qr_scan", "ios": "https://dc.lft.to/lastmile_qr_scan"}, "name": "2fa19e42de711a321837f54efa4fd068", "type": "electric_scooter"}, {"fusion_lat": 0.0, "bike_id": "3f2869fb2ee9294f93af6fa08fbf8dda", "fusion_lon": 0.0, "lon": -77.03467233333333, "lat": 38.90578983333333, "is_reserved": 0, "is_disabled": 0, "rental_uris": {"android": "https://dc.lft.to/lastmile_qr_scan", "ios": "https://dc.lft.to/lastmile_qr_scan"}, "name": "3f2869fb2ee9294f93af6fa08fbf8dda", "type": "electric_scooter"}, {"fusion_lat": 0.0, "bike_id": "e5d62a0e586e378534b491e061669f20", "fusion_lon": 0.0, "lon": -77.033289, "lat": 38.90966933333333, "is_reserved": 0, "is_disabled": 0, "rental_uris": {"android": "https://dc.lft.to/lastmile_qr_scan", "ios": "https://dc.lft.to/lastmile_qr_scan"}, "name": "e5d62a0e586e378534b491e061669f20", "type": "electric_scooter"}, {"fusion_lat": 0.0, "bike_id": "ebbb25afaaa7656f884ae039f9c8d478", "fusion_lon": 0.0, "lon": -77.03956483333333, "lat": 38.898442, "is_reserved": 0, "is_disabled": 0, "rental_uris": {"android": "https://dc.lft.to/lastmile_qr_scan", "ios": "https://dc.lft.to/lastmile_qr_scan"}, "name": "ebbb25afaaa7656f884ae039f9c8d478", "type": "electric_scooter"}, {"fusion_lat": 0.0, "bike_id": "708936a2ec7b6b6b00666bf21f0dfe46", "fusion_lon": 0.0, "lon": -77.02530216666666, "lat": 38.9206, "is_reserved": 0, "is_disabled": 0, "rental_uris": {"android": "https://dc.lft.to/lastmile_qr_scan", "ios": "https://dc.lft.to/lastmile_qr_scan"}, "name": "708936a2ec7b6b6b00666bf21f0dfe46", "type": "electric_scooter"}, {"fusion_lat": 0.0, "bike_id": "82e8d2439a04be2e31029315af11f920", "fusion_lon": 0.0, "lon": -77.01918733333333, "lat": 38.922557833333336, "is_reserved": 0, "is_disabled": 0, "rental_uris": {"android": "https://dc.lft.to/lastmile_qr_scan", "ios": "https://dc.lft.to/lastmile_qr_scan"}, "name": "82e8d2439a04be2e31029315af11f920", "type": "electric_scooter"}, {"fusion_lat": 0.0, "bike_id": "1053d3b48bde50817d8a0a6988cb7889", "fusion_lon": 0.0, "lon": -77.02638066666667, "lat": 38.91694483333333, "is_reserved": 0, "is_disabled": 0, "rental_uris": {"android": "https://dc.lft.to/lastmile_qr_scan", "ios": "https://dc.lft.to/lastmile_qr_scan"}, "name": "1053d3b48bde50817d8a0a6988cb7889", "type": "electric_scooter"}, {"fusion_lat": 0.0, "bike_id": "04f257d25406881e43d0a69369c0c519", "fusion_lon": 0.0, "lon": -77.032213, "lat": 38.8921965, "is_reserved": 0, "is_disabled": 0, "rental_uris": {"android": "https://dc.lft.to/lastmile_qr_scan", "ios": "https://dc.lft.to/lastmile_qr_scan"}, "name": "04f257d25406881e43d0a69369c0c519", "type": "electric_scooter"}, {"fusion_lat": 0.0, "bike_id": "84ed5b759e2664d69703912e901f1f8a", "fusion_lon": 0.0, "lon": -76.99006666666666, "lat": 38.88265466666667, "is_reserved": 0, "is_disabled": 0, "rental_uris": {"android": "https://dc.lft.to/lastmile_qr_scan", "ios": "https://dc.lft.to/lastmile_qr_scan"}, "name": "84ed5b759e2664d69703912e901f1f8a", "type": "electric_scooter"}, {"fusion_lat": 0.0, "bike_id": "a644f49377409d95b598d8c51c5e6bd4", "fusion_lon": 0.0, "lon": -77.04373466666667, "lat": 38.892235666666664, "is_reserved": 0, "is_disabled": 0, "rental_uris": {"android": "https://dc.lft.to/lastmile_qr_scan", "ios": "https://dc.lft.to/lastmile_qr_scan"}, "name": "a644f49377409d95b598d8c51c5e6bd4", "type": "electric_scooter"}, {"fusion_lat": 0.0, "bike_id": "2609e2d6190d8d30d4c5f275c11d2277", "fusion_lon": 0.0, "lon": -77.033229, "lat": 38.90325833333333, "is_reserved": 0, "is_disabled": 0, "rental_uris": {"android": "https://dc.lft.to/lastmile_qr_scan", "ios": "https://dc.lft.to/lastmile_qr_scan"}, "name": "2609e2d6190d8d30d4c5f275c11d2277", "type": "electric_scooter"}, {"fusion_lat": 0.0, "bike_id": "c2c840f9b2b5e99fe533d5e1ddee128e", "fusion_lon": 0.0, "lon": -77.025945, "lat": 38.89914566666667, "is_reserved": 0, "is_disabled": 0, "rental_uris": {"android": "https://dc.lft.to/lastmile_qr_scan", "ios": "https://dc.lft.to/lastmile_qr_scan"}, "name": "c2c840f9b2b5e99fe533d5e1ddee128e", "type": "electric_scooter"}, {"fusion_lat": 0.0, "bike_id": "82a5c2c995abf60c05c002678cadd543", "fusion_lon": 0.0, "lon": -77.1252435, "lat": 39.05634233333333, "is_reserved": 0, "is_disabled": 0, "rental_uris": {"android": "https://dc.lft.to/lastmile_qr_scan", "ios": "https://dc.lft.to/lastmile_qr_scan"}, "name": "82a5c2c995abf60c05c002678cadd543", "type": "electric_bike"}, {"fusion_lat": 0.0, "bike_id": "f8b8fc7f3690e2e49c764dbc5d522199", "fusion_lon": 0.0, "lon": -77.02477283333333, "lat": 38.91694533333333, "is_reserved": 0, "is_disabled": 0, "rental_uris": {"android": "https://dc.lft.to/lastmile_qr_scan", "ios": "https://dc.lft.to/lastmile_qr_scan"}, "name": "f8b8fc7f3690e2e49c764dbc5d522199", "type": "electric_scooter"}, {"fusion_lat": 0.0, "bike_id": "477f1672da3ed9d1e6f5ec858d6d4b36", "fusion_lon": 0.0, "lon": -76.99930966666666, "lat": 38.84313366666667, "is_reserved": 0, "is_disabled": 0, "rental_uris": {"android": "https://dc.lft.to/lastmile_qr_scan", "ios": "https://dc.lft.to/lastmile_qr_scan"}, "name": "477f1672da3ed9d1e6f5ec858d6d4b36", "type": "electric_scooter"}, {"fusion_lat": 0.0, "bike_id": "05b804a8518840f27a3b5496414b3deb", "fusion_lon": 0.0, "lon": -77.02847366666667, "lat": 38.93419383333333, "is_reserved": 0, "is_disabled": 0, "rental_uris": {"android": "https://dc.lft.to/lastmile_qr_scan", "ios": "https://dc.lft.to/lastmile_qr_scan"}, "name": "05b804a8518840f27a3b5496414b3deb", "type": "electric_scooter"}, {"fusion_lat": 0.0, "bike_id": "6f499118695cd444ae415f5219aeba58", "fusion_lon": 0.0, "lon": -77.0347025, "lat": 38.902779, "is_reserved": 0, "is_disabled": 0, "rental_uris": {"android": "https://dc.lft.to/lastmile_qr_scan", "ios": "https://dc.lft.to/lastmile_qr_scan"}, "name": "6f499118695cd444ae415f5219aeba58", "type": "electric_scooter"}, {"fusion_lat": 0.0, "bike_id": "fedcac4714c0a46c4b6e70ad3f4d882d", "fusion_lon": 0.0, "lon": -77.03205166666666, "lat": 38.9038075, "is_reserved": 0, "is_disabled": 0, "rental_uris": {"android": "https://dc.lft.to/lastmile_qr_scan", "ios": "https://dc.lft.to/lastmile_qr_scan"}, "name": "fedcac4714c0a46c4b6e70ad3f4d882d", "type": "electric_scooter"}, {"fusion_lat": 0.0, "bike_id": "831ce43ab50512118ff743d1d4a9cc2c", "fusion_lon": 0.0, "lon": -77.07451733333333, "lat": 38.945116, "is_reserved": 0, "is_disabled": 0, "rental_uris": {"android": "https://dc.lft.to/lastmile_qr_scan", "ios": "https://dc.lft.to/lastmile_qr_scan"}, "name": "831ce43ab50512118ff743d1d4a9cc2c", "type": "electric_scooter"}, {"fusion_lat": 0.0, "bike_id": "0e652ac5735bf2431afbf736a1249170", "fusion_lon": 0.0, "lon": -77.03163383333333, "lat": 38.892155833333334, "is_reserved": 0, "is_disabled": 0, "rental_uris": {"android": "https://dc.lft.to/lastmile_qr_scan", "ios": "https://dc.lft.to/lastmile_qr_scan"}, "name": "0e652ac5735bf2431afbf736a1249170", "type": "electric_scooter"}, {"fusion_lat": 0.0, "bike_id": "530d5b58a7472b03892d8e28234654af", "fusion_lon": 0.0, "lon": -76.93475016666666, "lat": 38.8950425, "is_reserved": 0, "is_disabled": 0, "rental_uris": {"android": "https://dc.lft.to/lastmile_qr_scan", "ios": "https://dc.lft.to/lastmile_qr_scan"}, "name": "530d5b58a7472b03892d8e28234654af", "type": "electric_scooter"}, {"fusion_lat": 0.0, "bike_id": "90f972c330a8ed70f268c5344b505856", "fusion_lon": 0.0, "lon": -77.03206966666667, "lat": 38.91385283333334, "is_reserved": 0, "is_disabled": 0, "rental_uris": {"android": "https://dc.lft.to/lastmile_qr_scan", "ios": "https://dc.lft.to/lastmile_qr_scan"}, "name": "90f972c330a8ed70f268c5344b505856", "type": "electric_scooter"}, {"fusion_lat": 0.0, "bike_id": "944c7c92f13833be6034dc34b6c20027", "fusion_lon": 0.0, "lon": -77.02554983333333, "lat": 38.903602166666666, "is_reserved": 0, "is_disabled": 0, "rental_uris": {"android": "https://dc.lft.to/lastmile_qr_scan", "ios": "https://dc.lft.to/lastmile_qr_scan"}, "name": "944c7c92f13833be6034dc34b6c20027", "type": "electric_scooter"}, {"fusion_lat": 0.0, "bike_id": "10ff6640c6bcc04e1dfc209bb2b23113", "fusion_lon": 0.0, "lon": -77.029362, "lat": 38.899134833333335, "is_reserved": 0, "is_disabled": 0, "rental_uris": {"android": "https://dc.lft.to/lastmile_qr_scan", "ios": "https://dc.lft.to/lastmile_qr_scan"}, "name": "10ff6640c6bcc04e1dfc209bb2b23113", "type": "electric_scooter"}, {"fusion_lat": 0.0, "bike_id": "0fd3021f6d47a1237eda5f44904bf8e3", "fusion_lon": 0.0, "lon": -77.01944133333333, "lat": 38.92371083333333, "is_reserved": 0, "is_disabled": 0, "rental_uris": {"android": "https://dc.lft.to/lastmile_qr_scan", "ios": "https://dc.lft.to/lastmile_qr_scan"}, "name": "0fd3021f6d47a1237eda5f44904bf8e3", "type": "electric_scooter"}, {"fusion_lat": 0.0, "bike_id": "7ec162c7031545d12f918534d5704bb6", "fusion_lon": 0.0, "lon": -77.03544033333333, "lat": 38.925849, "is_reserved": 0, "is_disabled": 0, "rental_uris": {"android": "https://dc.lft.to/lastmile_qr_scan", "ios": "https://dc.lft.to/lastmile_qr_scan"}, "name": "7ec162c7031545d12f918534d5704bb6", "type": "electric_scooter"}, {"fusion_lat": 0.0, "bike_id": "09ac93a42ba47ee7b448fa9d6a0f5aea", "fusion_lon": 0.0, "lon": -76.97744916666667, "lat": 38.86487433333333, "is_reserved": 0, "is_disabled": 0, "rental_uris": {"android": "https://dc.lft.to/lastmile_qr_scan", "ios": "https://dc.lft.to/lastmile_qr_scan"}, "name": "09ac93a42ba47ee7b448fa9d6a0f5aea", "type": "electric_bike"}, {"fusion_lat": 0.0, "bike_id": "95ca0ff50701af16e1c12327a3d92958", "fusion_lon": 0.0, "lon": -76.99930883333333, "lat": 38.84318, "is_reserved": 0, "is_disabled": 0, "rental_uris": {"android": "https://dc.lft.to/lastmile_qr_scan", "ios": "https://dc.lft.to/lastmile_qr_scan"}, "name": "95ca0ff50701af16e1c12327a3d92958", "type": "electric_scooter"}, {"fusion_lat": 0.0, "bike_id": "12fbebf0cae71f4f19c5225d321a4b20", "fusion_lon": 0.0, "lon": -77.05704616666667, "lat": 38.92605833333333, "is_reserved": 0, "is_disabled": 0, "rental_uris": {"android": "https://dc.lft.to/lastmile_qr_scan", "ios": "https://dc.lft.to/lastmile_qr_scan"}, "name": "12fbebf0cae71f4f19c5225d321a4b20", "type": "electric_bike"}, {"fusion_lat": 0.0, "bike_id": "8d19323844450a983953768c1758d3b6", "fusion_lon": 0.0, "lon": -76.9786095, "lat": 38.87194933333333, "is_reserved": 0, "is_disabled": 0, "rental_uris": {"android": "https://dc.lft.to/lastmile_qr_scan", "ios": "https://dc.lft.to/lastmile_qr_scan"}, "name": "8d19323844450a983953768c1758d3b6", "type": "electric_scooter"}, {"fusion_lat": 0.0, "bike_id": "83ca9e131c42a95308034f4348a2520f", "fusion_lon": 0.0, "lon": -77.01530866666667, "lat": 38.887384833333336, "is_reserved": 0, "is_disabled": 0, "rental_uris": {"android": "https://dc.lft.to/lastmile_qr_scan", "ios": "https://dc.lft.to/lastmile_qr_scan"}, "name": "83ca9e131c42a95308034f4348a2520f", "type": "electric_scooter"}, {"fusion_lat": 0.0, "bike_id": "c5ade8b2ae7a868e6fca7034ef4a9f15", "fusion_lon": 0.0, "lon": -77.04582866666667, "lat": 38.921287666666665, "is_reserved": 0, "is_disabled": 0, "rental_uris": {"android": "https://dc.lft.to/lastmile_qr_scan", "ios": "https://dc.lft.to/lastmile_qr_scan"}, "name": "c5ade8b2ae7a868e6fca7034ef4a9f15", "type": "electric_scooter"}, {"fusion_lat": 0.0, "bike_id": "61493eb61f8675a2c655da20bfcb434b", "fusion_lon": 0.0, "lon": -77.04434516666667, "lat": 38.921625, "is_reserved": 0, "is_disabled": 0, "rental_uris": {"android": "https://dc.lft.to/lastmile_qr_scan", "ios": "https://dc.lft.to/lastmile_qr_scan"}, "name": "61493eb61f8675a2c655da20bfcb434b", "type": "electric_scooter"}, {"fusion_lat": 0.0, "bike_id": "fcd8404c0433bb965eed8d6141865d8e", "fusion_lon": 0.0, "lon": -77.04893, "lat": 38.892257, "is_reserved": 0, "is_disabled": 0, "rental_uris": {"android": "https://dc.lft.to/lastmile_qr_scan", "ios": "https://dc.lft.to/lastmile_qr_scan"}, "name": "fcd8404c0433bb965eed8d6141865d8e", "type": "electric_scooter"}, {"fusion_lat": 0.0, "bike_id": "35732ea204fb6aef36aff04e85b8a969", "fusion_lon": 0.0, "lon": -77.03503866666667, "lat": 38.9214065, "is_reserved": 0, "is_disabled": 0, "rental_uris": {"android": "https://dc.lft.to/lastmile_qr_scan", "ios": "https://dc.lft.to/lastmile_qr_scan"}, "name": "35732ea204fb6aef36aff04e85b8a969", "type": "electric_scooter"}, {"fusion_lat": 0.0, "bike_id": "87c887aae1cc711d0334fc415242cb3e", "fusion_lon": 0.0, "lon": -77.01134066666667, "lat": 38.893609, "is_reserved": 0, "is_disabled": 0, "rental_uris": {"android": "https://dc.lft.to/lastmile_qr_scan", "ios": "https://dc.lft.to/lastmile_qr_scan"}, "name": "87c887aae1cc711d0334fc415242cb3e", "type": "electric_scooter"}, {"fusion_lat": 0.0, "bike_id": "5474101f0e5714ff1cebe7c0bb272ed1", "fusion_lon": 0.0, "lon": -77.05041933333334, "lat": 38.90530566666666, "is_reserved": 0, "is_disabled": 0, "rental_uris": {"android": "https://dc.lft.to/lastmile_qr_scan", "ios": "https://dc.lft.to/lastmile_qr_scan"}, "name": "5474101f0e5714ff1cebe7c0bb272ed1", "type": "electric_scooter"}, {"fusion_lat": 0.0, "bike_id": "50bc4d326f283f53fc5e868bc53b4f41", "fusion_lon": 0.0, "lon": -77.03205633333333, "lat": 38.9164265, "is_reserved": 0, "is_disabled": 0, "rental_uris": {"android": "https://dc.lft.to/lastmile_qr_scan", "ios": "https://dc.lft.to/lastmile_qr_scan"}, "name": "50bc4d326f283f53fc5e868bc53b4f41", "type": "electric_scooter"}, {"fusion_lat": 0.0, "bike_id": "7e013f0a82e011b38c363b723940332b", "fusion_lon": 0.0, "lon": -76.93192033333334, "lat": 38.89883183333333, "is_reserved": 0, "is_disabled": 0, "rental_uris": {"android": "https://dc.lft.to/lastmile_qr_scan", "ios": "https://dc.lft.to/lastmile_qr_scan"}, "name": "7e013f0a82e011b38c363b723940332b", "type": "electric_scooter"}, {"fusion_lat": 0.0, "bike_id": "45529306b10f13332b572fb69eea9575", "fusion_lon": 0.0, "lon": -77.0060985, "lat": 38.905842166666666, "is_reserved": 0, "is_disabled": 0, "rental_uris": {"android": "https://dc.lft.to/lastmile_qr_scan", "ios": "https://dc.lft.to/lastmile_qr_scan"}, "name": "45529306b10f13332b572fb69eea9575", "type": "electric_scooter"}, {"fusion_lat": 0.0, "bike_id": "38e751310281aad244668f678cc76b7d", "fusion_lon": 0.0, "lon": -77.03179383333334, "lat": 38.896313666666664, "is_reserved": 0, "is_disabled": 0, "rental_uris": {"android": "https://dc.lft.to/lastmile_qr_scan", "ios": "https://dc.lft.to/lastmile_qr_scan"}, "name": "38e751310281aad244668f678cc76b7d", "type": "electric_scooter"}, {"fusion_lat": 0.0, "bike_id": "89a30cc6a5d6009ebeaabd7969eb75bd", "fusion_lon": 0.0, "lon": -76.99711166666667, "lat": 38.84547533333333, "is_reserved": 0, "is_disabled": 0, "rental_uris": {"android": "https://dc.lft.to/lastmile_qr_scan", "ios": "https://dc.lft.to/lastmile_qr_scan"}, "name": "89a30cc6a5d6009ebeaabd7969eb75bd", "type": "electric_scooter"}, {"fusion_lat": 0.0, "bike_id": "d3a3745d2645e89297d3decd77878315", "fusion_lon": 0.0, "lon": -77.02450916666666, "lat": 38.902506833333334, "is_reserved": 0, "is_disabled": 0, "rental_uris": {"android": "https://dc.lft.to/lastmile_qr_scan", "ios": "https://dc.lft.to/lastmile_qr_scan"}, "name": "d3a3745d2645e89297d3decd77878315", "type": "electric_scooter"}, {"fusion_lat": 0.0, "bike_id": "7a8898e61118050d980cb560fca4e50a", "fusion_lon": 0.0, "lon": -77.03266816666667, "lat": 38.916187, "is_reserved": 0, "is_disabled": 0, "rental_uris": {"android": "https://dc.lft.to/lastmile_qr_scan", "ios": "https://dc.lft.to/lastmile_qr_scan"}, "name": "7a8898e61118050d980cb560fca4e50a", "type": "electric_scooter"}, {"fusion_lat": 0.0, "bike_id": "854849eabbde711482c7abd04503fc87", "fusion_lon": 0.0, "lon": -77.03442916666667, "lat": 38.90735466666667, "is_reserved": 0, "is_disabled": 0, "rental_uris": {"android": "https://dc.lft.to/lastmile_qr_scan", "ios": "https://dc.lft.to/lastmile_qr_scan"}, "name": "854849eabbde711482c7abd04503fc87", "type": "electric_scooter"}, {"fusion_lat": 0.0, "bike_id": "b7206324d5efd52a1320a03d850f9c60", "fusion_lon": 0.0, "lon": -77.02426466666667, "lat": 38.92065316666667, "is_reserved": 0, "is_disabled": 0, "rental_uris": {"android": "https://dc.lft.to/lastmile_qr_scan", "ios": "https://dc.lft.to/lastmile_qr_scan"}, "name": "b7206324d5efd52a1320a03d850f9c60", "type": "electric_scooter"}, {"fusion_lat": 0.0, "bike_id": "10352d0b6ce0c5f434982cca7b3c324e", "fusion_lon": 0.0, "lon": -76.988938, "lat": 38.86545066666667, "is_reserved": 0, "is_disabled": 0, "rental_uris": {"android": "https://dc.lft.to/lastmile_qr_scan", "ios": "https://dc.lft.to/lastmile_qr_scan"}, "name": "10352d0b6ce0c5f434982cca7b3c324e", "type": "electric_bike"}, {"fusion_lat": 0.0, "bike_id": "62327d4607bedc50b44796d7f5712825", "fusion_lon": 0.0, "lon": -77.0461295, "lat": 38.920495833333334, "is_reserved": 0, "is_disabled": 0, "rental_uris": {"android": "https://dc.lft.to/lastmile_qr_scan", "ios": "https://dc.lft.to/lastmile_qr_scan"}, "name": "62327d4607bedc50b44796d7f5712825", "type": "electric_scooter"}, {"fusion_lat": 0.0, "bike_id": "d315110ff7a58324c26bb6af6640e39c", "fusion_lon": 0.0, "lon": -76.998306, "lat": 38.9049225, "is_reserved": 0, "is_disabled": 0, "rental_uris": {"android": "https://dc.lft.to/lastmile_qr_scan", "ios": "https://dc.lft.to/lastmile_qr_scan"}, "name": "d315110ff7a58324c26bb6af6640e39c", "type": "electric_scooter"}, {"fusion_lat": 0.0, "bike_id": "2f59ba3e15084aafea1d6dcf806508f0", "fusion_lon": 0.0, "lon": -76.98612533333333, "lat": 38.882856333333336, "is_reserved": 0, "is_disabled": 0, "rental_uris": {"android": "https://dc.lft.to/lastmile_qr_scan", "ios": "https://dc.lft.to/lastmile_qr_scan"}, "name": "2f59ba3e15084aafea1d6dcf806508f0", "type": "electric_scooter"}, {"fusion_lat": 0.0, "bike_id": "8add715f94b7c9a51a56d41abd1d490e", "fusion_lon": 0.0, "lon": -77.02843533333333, "lat": 38.887466333333336, "is_reserved": 0, "is_disabled": 0, "rental_uris": {"android": "https://dc.lft.to/lastmile_qr_scan", "ios": "https://dc.lft.to/lastmile_qr_scan"}, "name": "8add715f94b7c9a51a56d41abd1d490e", "type": "electric_scooter"},