{"data": {"bikes": [{"bike_id": "85caccd0df4f0333f3d625e84e197918", "type": "electric_scooter", "is_disabled": 0, "lat": 38.9171445, "rental_uris": {"ios": "https://dc.lft.to/lastmile_qr_scan", "android": "https://dc.lft.to/lastmile_qr_scan"}, "is_reserved": 0, "fusion_lon": 0.0, "fusion_lat": 0.0, "lon": -77.0304005, "name": "85caccd0df4f0333f3d625e84e197918"}, {"bike_id": "8b029bb6c10f11e74619ddd1dae82a9b", "type": "electric_scooter", "is_disabled": 0, "lat": 38.916950166666666, "rental_uris": {"ios": "https://dc.lft.to/lastmile_qr_scan", "android": "https://dc.lft.to/lastmile_qr_scan"}, "is_reserved": 0, "fusion_lon": 0.0, "fusion_lat": 0.0, "lon": -77.03215416666667, "name": "8b029bb6c10f11e74619ddd1dae82a9b"}, {"bike_id": "257c6e4ea057c48002a98107ccba746b", "type": "electric_bike", "is_disabled": 0, "lat": 38.869382333333334, "rental_uris": {"ios": "https://dc.lft.to/lastmile_qr_scan", "android": "https://dc.lft.to/lastmile_qr_scan"}, "is_reserved": 0, "fusion_lon": 0.0, "fusion_lat": 0.0, "lon": -77.09464633333333, "name": "257c6e4ea057c48002a98107ccba746b"}, {"bike_id": "811cc15f04b90b1578f84abe5c83f46c", "type": "electric_scooter", "is_disabled": 0, "lat": 38.914389166666666, "rental_uris": {"ios": "https://dc.lft.to/lastmile_qr_scan", "android": "https://dc.lft.to/lastmile_qr_scan"}, "is_reserved": 0, "fusion_lon": 0.0, "fusion_lat": 0.0, "lon": -77.02285283333333, "name": "811cc15f04b90b1578f84abe5c83f46c"}, {"bike_id": "b5826a51157bfe7957b0b20a1e0c15c9", "type": "electric_scooter", "is_disabled": 0, "lat": 38.93096666666667, "rental_uris": {"ios": "https://dc.lft.to/lastmile_qr_scan", "android": "https://dc.lft.to/lastmile_qr_scan"}, "is_reserved": 0, "fusion_lon": 0.0, "fusion_lat": 0.0, "lon": -77.02477716666667, "name": "b5826a51157bfe7957b0b20a1e0c15c9"}, {"bike_id": "8d2589ec51e38fb4333d53a8f8160f64", "type": "electric_scooter", "is_disabled": 0, "lat": 38.9168695, "rental_uris": {"ios": "https://dc.lft.to/lastmile_qr_scan", "android": "https://dc.lft.to/lastmile_qr_scan"}, "is_reserved": 0, "fusion_lon": 0.0, "fusion_lat": 0.0, "lon": -77.03212066666667, "name": "8d2589ec51e38fb4333d53a8f8160f64"}, {"bike_id": "bc30ca5806c6fc83ac28424ce715f0d6", "type": "electric_scooter", "is_disabled": 0, "lat": 38.9175105, "rental_uris": {"ios": "https://dc.lft.to/lastmile_qr_scan", "android": "https://dc.lft.to/lastmile_qr_scan"}, "is_reserved": 0, "fusion_lon": 0.0, "fusion_lat": 0.0, "lon": -77.03186616666666, "name": "bc30ca5806c6fc83ac28424ce715f0d6"}, {"bike_id": "d6180b37c654ee5a371e58d361f16156", "type": "electric_scooter", "is_disabled": 0, "lat": 38.89731716666667, "rental_uris": {"ios": "https://dc.lft.to/lastmile_qr_scan", "android": "https://dc.lft.to/lastmile_qr_scan"}, "is_reserved": 0, "fusion_lon": 0.0, "fusion_lat": 0.0, "lon": -77.0498905, "name": "d6180b37c654ee5a371e58d361f16156"}, {"bike_id": "8859cdb4c5accc156fb1d5f01c15a381", "type": "electric_scooter", "is_disabled": 0, "lat": 38.8836665, "rental_uris": {"ios": "https://dc.lft.to/lastmile_qr_scan", "android": "https://dc.lft.to/lastmile_qr_scan"}, "is_reserved": 0, "fusion_lon": 0.0, "fusion_lat": 0.0, "lon": -76.99518, "name": "8859cdb4c5accc156fb1d5f01c15a381"}, {"bike_id": "f5a5ca1b230b1962fad583ff3c1a41c1", "type": "electric_scooter", "is_disabled": 0, "lat": 38.884315666666666, "rental_uris": {"ios": "https://dc.lft.to/lastmile_qr_scan", "android": "https://dc.lft.to/lastmile_qr_scan"}, "is_reserved": 0, "fusion_lon": 0.0, "fusion_lat": 0.0, "lon": -76.95744966666666, "name": "f5a5ca1b230b1962fad583ff3c1a41c1"}, {"bike_id": "c5b31472c54d065e868a71189d84dbb6", "type": "electric_scooter", "is_disabled": 0, "lat": 38.919706833333336, "rental_uris": {"ios": "https://dc.lft.to/lastmile_qr_scan", "android": "https://dc.lft.to/lastmile_qr_scan"}, "is_reserved": 0, "fusion_lon": 0.0, "fusion_lat": 0.0, "lon": -77.01907966666667, "name": "c5b31472c54d065e868a71189d84dbb6"}, {"bike_id": "8bba7573e5ab71b753a064f24f866e52", "type": "electric_scooter", "is_disabled": 0, "lat": 38.9151225, "rental_uris": {"ios": "https://dc.lft.to/lastmile_qr_scan", "android": "https://dc.lft.to/lastmile_qr_scan"}, "is_reserved": 0, "fusion_lon": 0.0, "fusion_lat": 0.0, "lon": -77.06852433333333, "name": "8bba7573e5ab71b753a064f24f866e52"}, {"bike_id": "64e368078c556e813045b3d152c272b8", "type": "electric_scooter", "is_disabled": 0, "lat": 38.914133666666665, "rental_uris": {"ios": "https://dc.lft.to/lastmile_qr_scan", "android": "https://dc.lft.to/lastmile_qr_scan"}, "is_reserved": 0, "fusion_lon": 0.0, "fusion_lat": 0.0, "lon": -77.04469533333334, "name": "64e368078c556e813045b3d152c272b8"}, {"bike_id": "065c716d262a21948dc6808cb7907a77", "type": "electric_scooter", "is_disabled": 0, "lat": 38.908165333333336, "rental_uris": {"ios": "https://dc.lft.to/lastmile_qr_scan", "android": "https://dc.lft.to/lastmile_qr_scan"}, "is_reserved": 0, "fusion_lon": 0.0, "fusion_lat": 0.0, "lon": -77.03455683333334, "name": "065c716d262a21948dc6808cb7907a77"}, {"bike_id": "6feb936e97eca7ed61a54be22864c630", "type": "electric_scooter", "is_disabled": 0, "lat": 38.936506333333334, "rental_uris": {"ios": "https://dc.lft.to/lastmile_qr_scan", "android": "https://dc.lft.to/lastmile_qr_scan"}, "is_reserved": 0, "fusion_lon": 0.0, "fusion_lat": 0.0, "lon": -77.02636266666667, "name": "6feb936e97eca7ed61a54be22864c630"}, {"bike_id": "9674d5a749070030613e94221b25a54b", "type": "electric_scooter", "is_disabled": 0, "lat": 38.888481666666664, "rental_uris": {"ios": "https://dc.lft.to/lastmile_qr_scan", "android": "https://dc.lft.to/lastmile_qr_scan"}, "is_reserved": 0, "fusion_lon": 0.0, "fusion_lat": 0.0, "lon": -76.92679516666666, "name": "9674d5a749070030613e94221b25a54b"}, {"bike_id": "6ac08e84bcd985fd6316ff8ef5e51b18", "type": "electric_scooter", "is_disabled": 0, "lat": 38.9306795, "rental_uris": {"ios": "https://dc.lft.to/lastmile_qr_scan", "android": "https://dc.lft.to/lastmile_qr_scan"}, "is_reserved": 0, "fusion_lon": 0.0, "fusion_lat": 0.0, "lon": -77.02982716666666, "name": "6ac08e84bcd985fd6316ff8ef5e51b18"}, {"bike_id": "e9c1eacaa002f0ce2af5cc75aa63fb0b", "type": "electric_scooter", "is_disabled": 0, "lat": 38.91423666666667, "rental_uris": {"ios": "https://dc.lft.to/lastmile_qr_scan", "android": "https://dc.lft.to/lastmile_qr_scan"}, "is_reserved": 0, "fusion_lon": 0.0, "fusion_lat": 0.0, "lon": -77.03200366666667, "name": "e9c1eacaa002f0ce2af5cc75aa63fb0b"}, {"bike_id": "a4c632c82afc60a2f18ac4d8fd82be8c", "type": "electric_scooter", "is_disabled": 0, "lat": 38.925657666666666, "rental_uris": {"ios": "https://dc.lft.to/lastmile_qr_scan", "android": "https://dc.lft.to/lastmile_qr_scan"}, "is_reserved": 0, "fusion_lon": 0.0, "fusion_lat": 0.0, "lon": -77.0437935, "name": "a4c632c82afc60a2f18ac4d8fd82be8c"}, {"bike_id": "d108254e84be937182a0a09148947668", "type": "electric_scooter", "is_disabled": 0, "lat": 38.944623, "rental_uris": {"ios": "https://dc.lft.to/lastmile_qr_scan", "android": "https://dc.lft.to/lastmile_qr_scan"}, "is_reserved": 0, "fusion_lon": 0.0, "fusion_lat": 0.0, "lon": -77.006568, "name": "d108254e84be937182a0a09148947668"}, {"bike_id": "9f71398b85099986b24b1cec87f8bdb2", "type": "electric_scooter", "is_disabled": 0, "lat": 38.92793833333333, "rental_uris": {"ios": "https://dc.lft.to/lastmile_qr_scan", "android": "https://dc.lft.to/lastmile_qr_scan"}, "is_reserved": 0, "fusion_lon": 0.0, "fusion_lat": 0.0, "lon": -77.0259755, "name": "9f71398b85099986b24b1cec87f8bdb2"}, {"bike_id": "26fafb10e8f445dbb9c1390f00e67c64", "type": "electric_scooter", "is_disabled": 0, "lat": 38.936075333333335, "rental_uris": {"ios": "https://dc.lft.to/lastmile_qr_scan", "android": "https://dc.lft.to/lastmile_qr_scan"}, "is_reserved": 0, "fusion_lon": 0.0, "fusion_lat": 0.0, "lon": -77.05859466666666, "name": "26fafb10e8f445dbb9c1390f00e67c64"}, {"bike_id": "afa00bd2587864744dddc95cf0f2d859", "type": "electric_scooter", "is_disabled": 0, "lat": 38.9240455, "rental_uris": {"ios": "https://dc.lft.to/lastmile_qr_scan", "android": "https://dc.lft.to/lastmile_qr_scan"}, "is_reserved": 0, "fusion_lon": 0.0, "fusion_lat": 0.0, "lon": -77.02018383333333, "name": "afa00bd2587864744dddc95cf0f2d859"}, {"bike_id": "396f0c84bba55809fde8ca808fed2d26", "type": "electric_scooter", "is_disabled": 0, "lat": 38.926041833333336, "rental_uris": {"ios": "https://dc.lft.to/lastmile_qr_scan", "android": "https://dc.lft.to/lastmile_qr_scan"}, "is_reserved": 0, "fusion_lon": 0.0, "fusion_lat": 0.0, "lon": -77.02412, "name": "396f0c84bba55809fde8ca808fed2d26"}, {"bike_id": "cef6a98ba23d5d3dfc18d521d3ca9a83", "type": "electric_scooter", "is_disabled": 0, "lat": 38.892197833333334, "rental_uris": {"ios": "https://dc.lft.to/lastmile_qr_scan", "android": "https://dc.lft.to/lastmile_qr_scan"}, "is_reserved": 0, "fusion_lon": 0.0, "fusion_lat": 0.0, "lon": -77.02581333333333, "name": "cef6a98ba23d5d3dfc18d521d3ca9a83"}, {"bike_id": "4cfd7cb5c56c0fb5d81ecddf4b89a15a", "type": "electric_scooter", "is_disabled": 0, "lat": 38.91327583333333, "rental_uris": {"ios": "https://dc.lft.to/lastmile_qr_scan", "android": "https://dc.lft.to/lastmile_qr_scan"}, "is_reserved": 0, "fusion_lon": 0.0, "fusion_lat": 0.0, "lon": -77.04725333333333, "name": "4cfd7cb5c56c0fb5d81ecddf4b89a15a"}, {"bike_id": "3a8ac95a6c58971442d9de8bbd296a0b", "type": "electric_scooter", "is_disabled": 0, "lat": 38.90180266666667, "rental_uris": {"ios": "https://dc.lft.to/lastmile_qr_scan", "android": "https://dc.lft.to/lastmile_qr_scan"}, "is_reserved": 0, "fusion_lon": 0.0, "fusion_lat": 0.0, "lon": -76.98215116666667, "name": "3a8ac95a6c58971442d9de8bbd296a0b"}, {"bike_id": "49097a81c22ef9384767e0c080a93a73", "type": "electric_scooter", "is_disabled": 0, "lat": 38.88096816666667, "rental_uris": {"ios": "https://dc.lft.to/lastmile_qr_scan", "android": "https://dc.lft.to/lastmile_qr_scan"}, "is_reserved": 0, "fusion_lon": 0.0, "fusion_lat": 0.0, "lon": -76.99851883333334, "name": "49097a81c22ef9384767e0c080a93a73"}, {"bike_id": "fb2ec8a5bf4e50888a9e7c0ccdc1f7cf", "type": "electric_scooter", "is_disabled": 0, "lat": 38.93307183333334, "rental_uris": {"ios": "https://dc.lft.to/lastmile_qr_scan", "android": "https://dc.lft.to/lastmile_qr_scan"}, "is_reserved": 0, "fusion_lon": 0.0, "fusion_lat": 0.0, "lon": -77.021546, "name": "fb2ec8a5bf4e50888a9e7c0ccdc1f7cf"}, {"bike_id": "3fb1d4e0fff7bbb329942110a4daa683", "type": "electric_scooter", "is_disabled": 0, "lat": 38.92719616666667, "rental_uris": {"ios": "https://dc.lft.to/lastmile_qr_scan", "android": "https://dc.lft.to/lastmile_qr_scan"}, "is_reserved": 0, "fusion_lon": 0.0, "fusion_lat": 0.0, "lon": -77.03995466666667, "name": "3fb1d4e0fff7bbb329942110a4daa683"}, {"bike_id": "fed5f6c9a959b095d19663b1b0f13eb2", "type": "electric_scooter", "is_disabled": 0, "lat": 38.908278, "rental_uris": {"ios": "https://dc.lft.to/lastmile_qr_scan", "android": "https://dc.lft.to/lastmile_qr_scan"}, "is_reserved": 0, "fusion_lon": 0.0, "fusion_lat": 0.0, "lon": -76.9415795, "name": "fed5f6c9a959b095d19663b1b0f13eb2"}, {"bike_id": "16fcc5ef7cd040cdfa752dd2360867cd", "type": "electric_bike", "is_disabled": 0, "lat": 38.896786666666664, "rental_uris": {"ios": "https://dc.lft.to/lastmile_qr_scan", "android": "https://dc.lft.to/lastmile_qr_scan"}, "is_reserved": 0, "fusion_lon": 0.0, "fusion_lat": 0.0, "lon": -77.02416916666667, "name": "16fcc5ef7cd040cdfa752dd2360867cd"}, {"bike_id": "f08702dd5ae2fcbe36ea0557f0e6ffcc", "type": "electric_scooter", "is_disabled": 0, "lat": 38.9156575, "rental_uris": {"ios": "https://dc.lft.to/lastmile_qr_scan", "android": "https://dc.lft.to/lastmile_qr_scan"}, "is_reserved": 0, "fusion_lon": 0.0, "fusion_lat": 0.0, "lon": -77.0411055, "name": "f08702dd5ae2fcbe36ea0557f0e6ffcc"}, {"bike_id": "750f4eab955f0999778a802e711afb30", "type": "electric_scooter", "is_disabled": 0, "lat": 38.88561983333334, "rental_uris": {"ios": "https://dc.lft.to/lastmile_qr_scan", "android": "https://dc.lft.to/lastmile_qr_scan"}, "is_reserved": 0, "fusion_lon": 0.0, "fusion_lat": 0.0, "lon": -77.0021155, "name": "750f4eab955f0999778a802e711afb30"}, {"bike_id": "b96f65695300437cca75f6e976f71bea", "type": "electric_bike", "is_disabled": 0, "lat": 38.87272383333333, "rental_uris": {"ios": "https://dc.lft.to/lastmile_qr_scan", "android": "https://dc.lft.to/lastmile_qr_scan"}, "is_reserved": 0, "fusion_lon": 0.0, "fusion_lat": 0.0, "lon": -77.23326883333333, "name": "b96f65695300437cca75f6e976f71bea"}, {"bike_id": "11db6ad5ef7613d0ef80c3c4ca35d97e", "type": "electric_bike", "is_disabled": 0, "lat": 38.96466566666667, "rental_uris": {"ios": "https://dc.lft.to/lastmile_qr_scan", "android": "https://dc.lft.to/lastmile_qr_scan"}, "is_reserved": 0, "fusion_lon": 0.0, "fusion_lat": 0.0, "lon": -77.035646, "name": "11db6ad5ef7613d0ef80c3c4ca35d97e"}, {"bike_id": "c65d42588c4ea4989eb7c9b8b72b4c4f", "type": "electric_scooter", "is_disabled": 0, "lat": 38.90481483333333, "rental_uris": {"ios": "https://dc.lft.to/lastmile_qr_scan", "android": "https://dc.lft.to/lastmile_qr_scan"}, "is_reserved": 0, "fusion_lon": 0.0, "fusion_lat": 0.0, "lon": -77.00731683333333, "name": "c65d42588c4ea4989eb7c9b8b72b4c4f"}, {"bike_id": "ef888b8f4944842ff5f0723b59b1431a", "type": "electric_scooter", "is_disabled": 0, "lat": 38.942889, "rental_uris": {"ios": "https://dc.lft.to/lastmile_qr_scan", "android": "https://dc.lft.to/lastmile_qr_scan"}, "is_reserved": 0, "fusion_lon": 0.0, "fusion_lat": 0.0, "lon": -77.0216515, "name": "ef888b8f4944842ff5f0723b59b1431a"}, {"bike_id": "7186b72e35af3f7f1108f6ee22016417", "type": "electric_scooter", "is_disabled": 0, "lat": 38.9008605, "rental_uris": {"ios": "https://dc.lft.to/lastmile_qr_scan", "android": "https://dc.lft.to/lastmile_qr_scan"}, "is_reserved": 0, "fusion_lon": 0.0, "fusion_lat": 0.0, "lon": -77.04766133333334, "name": "7186b72e35af3f7f1108f6ee22016417"}, {"bike_id": "7a142dc07db946adcb870df651923b6d", "type": "electric_scooter", "is_disabled": 0, "lat": 38.928902, "rental_uris": {"ios": "https://dc.lft.to/lastmile_qr_scan", "android": "https://dc.lft.to/lastmile_qr_scan"}, "is_reserved": 0, "fusion_lon": 0.0, "fusion_lat": 0.0, "lon": -77.016494, "name": "7a142dc07db946adcb870df651923b6d"}, {"bike_id": "a98878d55b2c83cca17e7be53e3fa7d0", "type": "electric_scooter", "is_disabled": 0, "lat": 38.913779, "rental_uris": {"ios": "https://dc.lft.to/lastmile_qr_scan", "android": "https://dc.lft.to/lastmile_qr_scan"}, "is_reserved": 0, "fusion_lon": 0.0, "fusion_lat": 0.0, "lon": -77.04128833333333, "name": "a98878d55b2c83cca17e7be53e3fa7d0"}, {"bike_id": "4efca49a6f8da9fd8e6c5e684d1a7bdc", "type": "electric_scooter", "is_disabled": 0, "lat": 38.91619633333333, "rental_uris": {"ios": "https://dc.lft.to/lastmile_qr_scan", "android": "https://dc.lft.to/lastmile_qr_scan"}, "is_reserved": 0, "fusion_lon": 0.0, "fusion_lat": 0.0, "lon": -77.048662, "name": "4efca49a6f8da9fd8e6c5e684d1a7bdc"}, {"bike_id": "b746ceaf9ee7b19e84c545f9cb98ab6f", "type": "electric_scooter", "is_disabled": 0, "lat": 38.918632833333334, "rental_uris": {"ios": "https://dc.lft.to/lastmile_qr_scan", "android": "https://dc.lft.to/lastmile_qr_scan"}, "is_reserved": 0, "fusion_lon": 0.0, "fusion_lat": 0.0, "lon": -77.02809066666667, "name": "b746ceaf9ee7b19e84c545f9cb98ab6f"}, {"bike_id": "a00891bd236d7b27cbfb391ececcf59a", "type": "electric_scooter", "is_disabled": 0, "lat": 38.90153983333333, "rental_uris": {"ios": "https://dc.lft.to/lastmile_qr_scan", "android": "https://dc.lft.to/lastmile_qr_scan"}, "is_reserved": 0, "fusion_lon": 0.0, "fusion_lat": 0.0, "lon": -77.0237155, "name": "a00891bd236d7b27cbfb391ececcf59a"}, {"bike_id": "78c0c01dd96b7a503dd4a57e21171857", "type": "electric_scooter", "is_disabled": 0, "lat": 38.915698, "rental_uris": {"ios": "https://dc.lft.to/lastmile_qr_scan", "android": "https://dc.lft.to/lastmile_qr_scan"}, "is_reserved": 0, "fusion_lon": 0.0, "fusion_lat": 0.0, "lon": -77.02385183333334, "name": "78c0c01dd96b7a503dd4a57e21171857"}, {"bike_id": "3b5edf2941795f300958774da6b1cf03", "type": "electric_scooter", "is_disabled": 0, "lat": 38.8961265, "rental_uris": {"ios": "https://dc.lft.to/lastmile_qr_scan", "android": "https://dc.lft.to/lastmile_qr_scan"}, "is_reserved": 0, "fusion_lon": 0.0, "fusion_lat": 0.0, "lon": -77.0002025, "name": "3b5edf2941795f300958774da6b1cf03"}, {"bike_id": "623cff43875c5f0c716f4598e8802656", "type": "electric_scooter", "is_disabled": 0, "lat": 38.892538, "rental_uris": {"ios": "https://dc.lft.to/lastmile_qr_scan", "android": "https://dc.lft.to/lastmile_qr_scan"}, "is_reserved": 0, "fusion_lon": 0.0, "fusion_lat": 0.0, "lon": -77.03349783333333, "name": "623cff43875c5f0c716f4598e8802656"}, {"bike_id": "4ec167b523703d136de380b680097fc4", "type": "electric_bike", "is_disabled": 0, "lat": 38.836057333333336, "rental_uris": {"ios": "https://dc.lft.to/lastmile_qr_scan", "android": "https://dc.lft.to/lastmile_qr_scan"}, "is_reserved": 0, "fusion_lon": 0.0, "fusion_lat": 0.0, "lon": -77.00380083333333, "name": "4ec167b523703d136de380b680097fc4"}, {"bike_id": "aababf2b181bdb8aff82c3390d4798de", "type": "electric_bike", "is_disabled": 0, "lat": 38.871312333333336, "rental_uris": {"ios": "https://dc.lft.to/lastmile_qr_scan", "android": "https://dc.lft.to/lastmile_qr_scan"}, "is_reserved": 0, "fusion_lon": 0.0, "fusion_lat": 0.0, "lon": -77.10026216666667, "name": "aababf2b181bdb8aff82c3390d4798de"}, {"bike_id": "6d1139f6d2d7a27631c5ac576db117c4", "type": "electric_scooter", "is_disabled": 0, "lat": 38.94291883333333, "rental_uris": {"ios": "https://dc.lft.to/lastmile_qr_scan", "android": "https://dc.lft.to/lastmile_qr_scan"}, "is_reserved": 0, "fusion_lon": 0.0, "fusion_lat": 0.0, "lon": -77.021675, "name": "6d1139f6d2d7a27631c5ac576db117c4"}, {"bike_id": "539b125d3bd21f7209dd648f3f747859", "type": "electric_scooter", "is_disabled": 0, "lat": 38.901477, "rental_uris": {"ios": "https://dc.lft.to/lastmile_qr_scan", "android": "https://dc.lft.to/lastmile_qr_scan"}, "is_reserved": 0, "fusion_lon": 0.0, "fusion_lat": 0.0, "lon": -77.03860883333333, "name": "539b125d3bd21f7209dd648f3f747859"}, {"bike_id": "98e3cf1fa8f6a4cf2d9a19780fbff305", "type": "electric_scooter", "is_disabled": 0, "lat": 38.9275435, "rental_uris": {"ios": "https://dc.lft.to/lastmile_qr_scan", "android": "https://dc.lft.to/lastmile_qr_scan"}, "is_reserved": 0, "fusion_lon": 0.0, "fusion_lat": 0.0, "lon": -77.0254135, "name": "98e3cf1fa8f6a4cf2d9a19780fbff305"}, {"bike_id": "9e46d6e99aef5efa446f4ce3abd57e15", "type": "electric_scooter", "is_disabled": 0, "lat": 38.9227315, "rental_uris": {"ios": "https://dc.lft.to/lastmile_qr_scan", "android": "https://dc.lft.to/lastmile_qr_scan"}, "is_reserved": 0, "fusion_lon": 0.0, "fusion_lat": 0.0, "lon": -76.99460416666666, "name": "9e46d6e99aef5efa446f4ce3abd57e15"}, {"bike_id": "f3062d20a6ef8e1776b7ca4b0043633a", "type": "electric_scooter", "is_disabled": 0, "lat": 38.92378716666666, "rental_uris": {"ios": "https://dc.lft.to/lastmile_qr_scan", "android": "https://dc.lft.to/lastmile_qr_scan"}, "is_reserved": 0, "fusion_lon": 0.0, "fusion_lat": 0.0, "lon": -77.03659633333334, "name": "f3062d20a6ef8e1776b7ca4b0043633a"}, {"bike_id": "a1bfdf2b0902095e66fb3214778a2632", "type": "electric_scooter", "is_disabled": 0, "lat": 38.9026195, "rental_uris": {"ios": "https://dc.lft.to/lastmile_qr_scan", "android": "https://dc.lft.to/lastmile_qr_scan"}, "is_reserved": 0, "fusion_lon": 0.0, "fusion_lat": 0.0, "lon": -77.00322816666667, "name": "a1bfdf2b0902095e66fb3214778a2632"}, {"bike_id": "9d486f3388d9ce7bd1d80c264abe97b1", "type": "electric_scooter", "is_disabled": 0, "lat": 38.919676833333334, "rental_uris": {"ios": "https://dc.lft.to/lastmile_qr_scan", "android": "https://dc.lft.to/lastmile_qr_scan"}, "is_reserved": 0, "fusion_lon": 0.0, "fusion_lat": 0.0, "lon": -77.04171716666667, "name": "9d486f3388d9ce7bd1d80c264abe97b1"}, {"bike_id": "a223382bb4393246fab13972f5b8c413", "type": "electric_scooter", "is_disabled": 0, "lat": 38.92149533333333, "rental_uris": {"ios": "https://dc.lft.to/lastmile_qr_scan", "android": "https://dc.lft.to/lastmile_qr_scan"}, "is_reserved": 0, "fusion_lon": 0.0, "fusion_lat": 0.0, "lon": -77.03532683333333, "name": "a223382bb4393246fab13972f5b8c413"}, {"bike_id": "af61a36ae93a25025f555f986c8728ba", "type": "electric_scooter", "is_disabled": 0, "lat": 38.90674883333333, "rental_uris": {"ios": "https://dc.lft.to/lastmile_qr_scan", "android": "https://dc.lft.to/lastmile_qr_scan"}, "is_reserved": 0, "fusion_lon": 0.0, "fusion_lat": 0.0, "lon": -77.0296355, "name": "af61a36ae93a25025f555f986c8728ba"}, {"bike_id": "1d26da0409642d6be1bd8c4db4cf7629", "type": "electric_bike", "is_disabled": 0, "lat": 38.85352483333333, "rental_uris": {"ios": "https://dc.lft.to/lastmile_qr_scan", "android": "https://dc.lft.to/lastmile_qr_scan"}, "is_reserved": 0, "fusion_lon": 0.0, "fusion_lat": 0.0, "lon": -77.13461733333334, "name": "1d26da0409642d6be1bd8c4db4cf7629"}, {"bike_id": "56eb344d96d1e6adc9d2efaea6186ea9", "type": "electric_scooter", "is_disabled": 0, "lat": 38.917191833333334, "rental_uris": {"ios": "https://dc.lft.to/lastmile_qr_scan", "android": "https://dc.lft.to/lastmile_qr_scan"}, "is_reserved": 0, "fusion_lon": 0.0, "fusion_lat": 0.0, "lon": -77.02969883333333, "name": "56eb344d96d1e6adc9d2efaea6186ea9"}, {"bike_id": "801de278745dfe076c1e2292b52f711c", "type": "electric_scooter", "is_disabled": 0, "lat": 38.888109, "rental_uris": {"ios": "https://dc.lft.to/lastmile_qr_scan", "android": "https://dc.lft.to/lastmile_qr_scan"}, "is_reserved": 0, "fusion_lon": 0.0, "fusion_lat": 0.0, "lon": -76.93342733333333, "name": "801de278745dfe076c1e2292b52f711c"}, {"bike_id": "92a450c0b519c362d12ea8c9f2d81a63", "type": "electric_scooter", "is_disabled": 0, "lat": 38.8783945, "rental_uris": {"ios": "https://dc.lft.to/lastmile_qr_scan", "android": "https://dc.lft.to/lastmile_qr_scan"}, "is_reserved": 0, "fusion_lon": 0.0, "fusion_lat": 0.0, "lon": -77.01966683333333, "name": "92a450c0b519c362d12ea8c9f2d81a63"}, {"bike_id": "b0cce0cead49039b34b3dfee3aa39faa", "type": "electric_scooter", "is_disabled": 0, "lat": 38.90598766666667, "rental_uris": {"ios": "https://dc.lft.to/lastmile_qr_scan", "android": "https://dc.lft.to/lastmile_qr_scan"}, "is_reserved": 0, "fusion_lon": 0.0, "fusion_lat": 0.0, "lon": -77.00395666666667, "name": "b0cce0cead49039b34b3dfee3aa39faa"}, {"bike_id": "362925074de51ef8ac1f9224be553051", "type": "electric_scooter", "is_disabled": 0, "lat": 38.925301166666664, "rental_uris": {"ios": "https://dc.lft.to/lastmile_qr_scan", "android": "https://dc.lft.to/lastmile_qr_scan"}, "is_reserved": 0, "fusion_lon": 0.0, "fusion_lat": 0.0, "lon": -77.022518, "name": "362925074de51ef8ac1f9224be553051"}, {"bike_id": "a47f7095921c6171dd5076059f79b930", "type": "electric_scooter", "is_disabled": 0, "lat": 38.906446833333334, "rental_uris": {"ios": "https://dc.lft.to/lastmile_qr_scan", "android": "https://dc.lft.to/lastmile_qr_scan"}, "is_reserved": 0, "fusion_lon": 0.0, "fusion_lat": 0.0, "lon": -77.05326866666667, "name": "a47f7095921c6171dd5076059f79b930"}, {"bike_id": "98f4b9c84947faafb55a6971bcfe4fa4", "type": "electric_scooter", "is_disabled": 0, "lat": 38.8792625, "rental_uris": {"ios": "https://dc.lft.to/lastmile_qr_scan", "android": "https://dc.lft.to/lastmile_qr_scan"}, "is_reserved": 0, "fusion_lon": 0.0, "fusion_lat": 0.0, "lon": -77.0043135, "name": "98f4b9c84947faafb55a6971bcfe4fa4"}, {"bike_id": "a851bc4c5ace145edd119e199f88a4da", "type": "electric_scooter", "is_disabled": 0, "lat": 38.919341833333334, "rental_uris": {"ios": "https://dc.lft.to/lastmile_qr_scan", "android": "https://dc.lft.to/lastmile_qr_scan"}, "is_reserved": 0, "fusion_lon": 0.0, "fusion_lat": 0.0, "lon": -77.04549566666667, "name": "a851bc4c5ace145edd119e199f88a4da"}, {"bike_id": "ab54840e6c48f20ec4c590a0e2755ba1", "type": "electric_scooter", "is_disabled": 0, "lat": 38.917631666666665, "rental_uris": {"ios": "https://dc.lft.to/lastmile_qr_scan", "android": "https://dc.lft.to/lastmile_qr_scan"}, "is_reserved": 0, "fusion_lon": 0.0, "fusion_lat": 0.0, "lon": -77.0343725, "name": "ab54840e6c48f20ec4c590a0e2755ba1"}, {"bike_id": "72ac7aec45a708cac19c8a891aa7a617", "type": "electric_scooter", "is_disabled": 0, "lat": 38.897474, "rental_uris": {"ios": "https://dc.lft.to/lastmile_qr_scan", "android": "https://dc.lft.to/lastmile_qr_scan"}, "is_reserved": 0, "fusion_lon": 0.0, "fusion_lat": 0.0, "lon": -77.02102766666667, "name": "72ac7aec45a708cac19c8a891aa7a617"}, {"bike_id": "8bfb15527b2e9e9665df86d4a560c959", "type": "electric_scooter", "is_disabled": 0, "lat": 38.9206485, "rental_uris": {"ios": "https://dc.lft.to/lastmile_qr_scan", "android": "https://dc.lft.to/lastmile_qr_scan"}, "is_reserved": 0, "fusion_lon": 0.0, "fusion_lat": 0.0, "lon": -77.02600483333333, "name": "8bfb15527b2e9e9665df86d4a560c959"}, {"bike_id": "8f6cb336547b3c2db455652320633b13", "type": "electric_scooter", "is_disabled": 0, "lat": 38.944406, "rental_uris": {"ios": "https://dc.lft.to/lastmile_qr_scan", "android": "https://dc.lft.to/lastmile_qr_scan"}, "is_reserved": 0, "fusion_lon": 0.0, "fusion_lat": 0.0, "lon": -77.063491, "name": "8f6cb336547b3c2db455652320633b13"}, {"bike_id": "4f09feb4c3c2ffda6f190ffe531f2a8f", "type": "electric_scooter", "is_disabled": 0, "lat": 38.9212405, "rental_uris": {"ios": "https://dc.lft.to/lastmile_qr_scan", "android": "https://dc.lft.to/lastmile_qr_scan"}, "is_reserved": 0, "fusion_lon": 0.0, "fusion_lat": 0.0, "lon": -76.992446, "name": "4f09feb4c3c2ffda6f190ffe531f2a8f"}, {"bike_id": "797252bf6f290b9ca8feee7743e6f3a5", "type": "electric_bike", "is_disabled": 0, "lat": 38.8755605, "rental_uris": {"ios": "https://dc.lft.to/lastmile_qr_scan", "android": "https://dc.lft.to/lastmile_qr_scan"}, "is_reserved": 0, "fusion_lon": 0.0, "fusion_lat": 0.0, "lon": -76.96503216666666, "name": "797252bf6f290b9ca8feee7743e6f3a5"}, {"bike_id": "4703f436e2d30fccce8362efc2ce45c2", "type": "electric_scooter", "is_disabled": 0, "lat": 38.9072995, "rental_uris": {"ios": "https://dc.lft.to/lastmile_qr_scan", "android": "https://dc.lft.to/lastmile_qr_scan"}, "is_reserved": 0, "fusion_lon": 0.0, "fusion_lat": 0.0, "lon": -77.011353, "name": "4703f436e2d30fccce8362efc2ce45c2"}, {"bike_id": "606b28e4e56556fe599a524cfd170f03", "type": "electric_scooter", "is_disabled": 0, "lat": 38.93215283333333, "rental_uris": {"ios": "https://dc.lft.to/lastmile_qr_scan", "android": "https://dc.lft.to/lastmile_qr_scan"}, "is_reserved": 0, "fusion_lon": 0.0, "fusion_lat": 0.0, "lon": -77.0335805, "name": "606b28e4e56556fe599a524cfd170f03"}, {"bike_id": "ad1620d7bce42d509871747c10184122", "type": "electric_scooter", "is_disabled": 0, "lat": 38.87800033333333, "rental_uris": {"ios": "https://dc.lft.to/lastmile_qr_scan", "android": "https://dc.lft.to/lastmile_qr_scan"}, "is_reserved": 0, "fusion_lon": 0.0, "fusion_lat": 0.0, "lon": -76.93096116666666, "name": "ad1620d7bce42d509871747c10184122"}, {"bike_id": "16ddd5c71d89919116273c683ed45b6d", "type": "electric_scooter", "is_disabled": 0, "lat": 38.97237416666667, "rental_uris": {"ios": "https://dc.lft.to/lastmile_qr_scan", "android": "https://dc.lft.to/lastmile_qr_scan"}, "is_reserved": 0, "fusion_lon": 0.0, "fusion_lat": 0.0, "lon": -77.02715266666667, "name": "16ddd5c71d89919116273c683ed45b6d"}, {"bike_id": "113565d2f21f8964c35ea3a5f82fe2ba", "type": "electric_scooter", "is_disabled": 0, "lat": 38.92627483333333, "rental_uris": {"ios": "https://dc.lft.to/lastmile_qr_scan", "android": "https://dc.lft.to/lastmile_qr_scan"}, "is_reserved": 0, "fusion_lon": 0.0, "fusion_lat": 0.0, "lon": -77.02171833333334, "name": "113565d2f21f8964c35ea3a5f82fe2ba"}, {"bike_id": "cdc4fca5ad48a8070de06702ce402d7d", "type": "electric_bike", "is_disabled": 0, "lat": 38.89292733333333, "rental_uris": {"ios": "https://dc.lft.to/lastmile_qr_scan", "android": "https://dc.lft.to/lastmile_qr_scan"}, "is_reserved": 0, "fusion_lon": 0.0, "fusion_lat": 0.0, "lon": -76.9762045, "name": "cdc4fca5ad48a8070de06702ce402d7d"}, {"bike_id": "56f72163abf01c48202b587252b50556", "type": "electric_scooter", "is_disabled": 0, "lat": 38.9072485, "rental_uris": {"ios": "https://dc.lft.to/lastmile_qr_scan", "android": "https://dc.lft.to/lastmile_qr_scan"}, "is_reserved": 0, "fusion_lon": 0.0, "fusion_lat": 0.0, "lon": -77.00966283333334, "name": "56f72163abf01c48202b587252b50556"}, {"bike_id": "764e31bc46d971dbb876a125a36efaff", "type": "electric_scooter", "is_disabled": 0, "lat": 38.92782733333333, "rental_uris": {"ios": "https://dc.lft.to/lastmile_qr_scan", "android": "https://dc.lft.to/lastmile_qr_scan"}, "is_reserved": 0, "fusion_lon": 0.0, "fusion_lat": 0.0, "lon": -77.05264133333333, "name": "764e31bc46d971dbb876a125a36efaff"}, {"bike_id": "17cfc46bb24cf188272c3c3cd0201130", "type": "electric_scooter", "is_disabled": 0, "lat": 38.88259016666667, "rental_uris": {"ios": "https://dc.lft.to/lastmile_qr_scan", "android": "https://dc.lft.to/lastmile_qr_scan"}, "is_reserved": 0, "fusion_lon": 0.0, "fusion_lat": 0.0, "lon": -76.99501866666667, "name": "17cfc46bb24cf188272c3c3cd0201130"}, {"bike_id": "a876c440e8894913e242c1fa615ac239", "type": "electric_scooter", "is_disabled": 0, "lat": 38.907957, "rental_uris": {"ios": "https://dc.lft.to/lastmile_qr_scan", "android": "https://dc.lft.to/lastmile_qr_scan"}, "is_reserved": 0, "fusion_lon": 0.0, "fusion_lat": 0.0, "lon": -77.0347395, "name": "a876c440e8894913e242c1fa615ac239"}, {"bike_id": "174de0f23136de747ba14a05bebd63ce", "type": "electric_scooter", "is_disabled": 0, "lat": 38.89755383333333, "rental_uris": {"ios": "https://dc.lft.to/lastmile_qr_scan", "android": "https://dc.lft.to/lastmile_qr_scan"}, "is_reserved": 0, "fusion_lon": 0.0, "fusion_lat": 0.0, "lon": -77.02991816666666, "name": "174de0f23136de747ba14a05bebd63ce"}, {"bike_id": "0e711e1b73814672e41aa9fca551f609", "type": "electric_scooter", "is_disabled": 0, "lat": 38.918305333333336, "rental_uris": {"ios": "https://dc.lft.to/lastmile_qr_scan", "android": "https://dc.lft.to/lastmile_qr_scan"}, "is_reserved": 0, "fusion_lon": 0.0, "fusion_lat": 0.0, "lon": -77.0456305, "name": "0e711e1b73814672e41aa9fca551f609"}, {"bike_id": "0a46bbf58153257bd6b4fd5b4ce43ffe", "type": "electric_scooter", "is_disabled": 0, "lat": 38.866699, "rental_uris": {"ios": "https://dc.lft.to/lastmile_qr_scan", "android": "https://dc.lft.to/lastmile_qr_scan"}, "is_reserved": 0, "fusion_lon": 0.0, "fusion_lat": 0.0, "lon": -76.98531516666667, "name": "0a46bbf58153257bd6b4fd5b4ce43ffe"}, {"bike_id": "f868c41a0f58cf2c9735230f4ae9ae0a", "type": "electric_scooter", "is_disabled": 0, "lat": 38.927787333333335, "rental_uris": {"ios": "https://dc.lft.to/lastmile_qr_scan", "android": "https://dc.lft.to/lastmile_qr_scan"}, "is_reserved": 0, "fusion_lon": 0.0, "fusion_lat": 0.0, "lon": -77.0540725, "name": "f868c41a0f58cf2c9735230f4ae9ae0a"}, {"bike_id": "230136aa13efb669a77760d288089ef1", "type": "electric_bike", "is_disabled": 0, "lat": 38.829420999999996, "rental_uris": {"ios": "https://dc.lft.to/lastmile_qr_scan", "android": "https://dc.lft.to/lastmile_qr_scan"}, "is_reserved": 0, "fusion_lon": 0.0, "fusion_lat": 0.0, "lon": -77.12356966666667, "name": "230136aa13efb669a77760d288089ef1"}, {"bike_id": "ed403592f573971c2314234854b05dd0", "type": "electric_scooter", "is_disabled": 0, "lat": 38.9471405, "rental_uris": {"ios": "https://dc.lft.to/lastmile_qr_scan", "android": "https://dc.lft.to/lastmile_qr_scan"}, "is_reserved": 0, "fusion_lon": 0.0, "fusion_lat": 0.0, "lon": -77.0277995, "name": "ed403592f573971c2314234854b05dd0"}, {"bike_id": "b2e6caf884e51343e3ff941a239afc08", "type": "electric_scooter", "is_disabled": 0, "lat": 38.8620475, "rental_uris": {"ios": "https://dc.lft.to/lastmile_qr_scan", "android": "https://dc.lft.to/lastmile_qr_scan"}, "is_reserved": 0, "fusion_lon": 0.0, "fusion_lat": 0.0, "lon": -76.99462483333333, "name": "b2e6caf884e51343e3ff941a239afc08"}, {"bike_id": "730141c695b6ff3a253afd40badc561c", "type": "electric_scooter", "is_disabled": 0, "lat": 38.917046, "rental_uris": {"ios": "https://dc.lft.to/lastmile_qr_scan", "android": "https://dc.lft.to/lastmile_qr_scan"}, "is_reserved": 0, "fusion_lon": 0.0, "fusion_lat": 0.0, "lon": -77.03858233333334, "name": "730141c695b6ff3a253afd40badc561c"}, {"bike_id": "2aa79f0405091c81625215b3f3055beb", "type": "electric_scooter", "is_disabled": 0, "lat": 38.918176833333334, "rental_uris": {"ios": "https://dc.lft.to/lastmile_qr_scan", "android": "https://dc.lft.to/lastmile_qr_scan"}, "is_reserved": 0, "fusion_lon": 0.0, "fusion_lat": 0.0, "lon": -77.03263883333334, "name": "2aa79f0405091c81625215b3f3055beb"}, {"bike_id": "d831e3bfaf9de33c88d6b8bcfb79de8d", "type": "electric_scooter", "is_disabled": 0, "lat": 38.916864833333335, "rental_uris": {"ios": "https://dc.lft.to/lastmile_qr_scan", "android": "https://dc.lft.to/lastmile_qr_scan"}, "is_reserved": 0, "fusion_lon": 0.0, "fusion_lat": 0.0, "lon": -77.01577383333333, "name": "d831e3bfaf9de33c88d6b8bcfb79de8d"}, {"bike_id": "ff69e0b1e27831d9672f33f34d6d6586", "type": "electric_scooter", "is_disabled": 0, "lat": 38.91141016666667, "rental_uris": {"ios": "https://dc.lft.to/lastmile_qr_scan", "android": "https://dc.lft.to/lastmile_qr_scan"}, "is_reserved": 0, "fusion_lon": 0.0, "fusion_lat": 0.0, "lon": -77.0280265, "name": "ff69e0b1e27831d9672f33f34d6d6586"}, {"bike_id": "18a8f16ec04e9c7dac53bc896796ed9b", "type": "electric_scooter", "is_disabled": 0, "lat": 38.914188, "rental_uris": {"ios": "https://dc.lft.to/lastmile_qr_scan", "android": "https://dc.lft.to/lastmile_qr_scan"}, "is_reserved": 0, "fusion_lon": 0.0, "fusion_lat": 0.0, "lon": -77.02284116666667, "name": "18a8f16ec04e9c7dac53bc896796ed9b"}, {"bike_id": "cad7d0f729932c4187c1692f21f7aa05", "type": "electric_scooter", "is_disabled": 0, "lat": 38.913286666666664, "rental_uris": {"ios": "https://dc.lft.to/lastmile_qr_scan", "android": "https://dc.lft.to/lastmile_qr_scan"}, "is_reserved": 0, "fusion_lon": 0.0, "fusion_lat": 0.0, "lon": -77.01978716666666, "name": "cad7d0f729932c4187c1692f21f7aa05"}, {"bike_id": "82772bcef378f76767a1a194e9cffad2", "type": "electric_scooter", "is_disabled": 0, "lat": 38.91011, "rental_uris": {"ios": "https://dc.lft.to/lastmile_qr_scan", "android": "https://dc.lft.to/lastmile_qr_scan"}, "is_reserved": 0, "fusion_lon": 0.0, "fusion_lat": 0.0, "lon": -77.01622783333333, "name": "82772bcef378f76767a1a194e9cffad2"}, {"bike_id": "193ae2e7526b55e665244ccb3aa1b303", "type": "electric_scooter", "is_disabled": 0, "lat": 38.9353325, "rental_uris": {"ios": "https://dc.lft.to/lastmile_qr_scan", "android": "https://dc.lft.to/lastmile_qr_scan"}, "is_reserved": 0, "fusion_lon": 0.0, "fusion_lat": 0.0, "lon": -77.0388685, "name": "193ae2e7526b55e665244ccb3aa1b303"}, {"bike_id": "a10b7d82ac0e320493d99a5bcf2415f5", "type": "electric_scooter", "is_disabled": 0, "lat": 38.907934166666664, "rental_uris": {"ios": "https://dc.lft.to/lastmile_qr_scan", "android": "https://dc.lft.to/lastmile_qr_scan"}, "is_reserved": 0, "fusion_lon": 0.0, "fusion_lat": 0.0, "lon": -77.03137283333334, "name": "a10b7d82ac0e320493d99a5bcf2415f5"}, {"bike_id": "79fdc3e73dbfc1b80b52481416fb7f99", "type": "electric_scooter", "is_disabled": 0, "lat": 38.931073833333336, "rental_uris": {"ios": "https://dc.lft.to/lastmile_qr_scan", "android": "https://dc.lft.to/lastmile_qr_scan"}, "is_reserved": 0, "fusion_lon": 0.0, "fusion_lat": 0.0, "lon": -77.034939, "name": "79fdc3e73dbfc1b80b52481416fb7f99"}, {"bike_id": "f21e6573867e35e5321c2863bbd2ad75", "type": "electric_scooter", "is_disabled": 0, "lat": 38.904311666666665, "rental_uris": {"ios": "https://dc.lft.to/lastmile_qr_scan", "android": "https://dc.lft.to/lastmile_qr_scan"}, "is_reserved": 0, "fusion_lon": 0.0, "fusion_lat": 0.0, "lon": -77.02835933333333, "name": "f21e6573867e35e5321c2863bbd2ad75"}, {"bike_id": "c2c7ca3fa98d5364f7668017968d9e3f", "type": "electric_bike", "is_disabled": 0, "lat": 38.85768133333333, "rental_uris": {"ios": "https://dc.lft.to/lastmile_qr_scan", "android": "https://dc.lft.to/lastmile_qr_scan"}, "is_reserved": 0, "fusion_lon": 0.0, "fusion_lat": 0.0, "lon": -76.98766783333333, "name": "c2c7ca3fa98d5364f7668017968d9e3f"}, {"bike_id": "dc911d5d12de7b606ca2c87f1b6dfeee", "type": "electric_scooter", "is_disabled": 0, "lat": 38.92246, "rental_uris": {"ios": "https://dc.lft.to/lastmile_qr_scan", "android": "https://dc.lft.to/lastmile_qr_scan"}, "is_reserved": 0, "fusion_lon": 0.0, "fusion_lat": 0.0, "lon": -77.03908566666667, "name": "dc911d5d12de7b606ca2c87f1b6dfeee"}, {"bike_id": "d5cfdbb253abb31b55bf13bed0c34d06", "type": "electric_bike", "is_disabled": 0, "lat": 38.93861, "rental_uris": {"ios": "https://dc.lft.to/lastmile_qr_scan", "android": "https://dc.lft.to/lastmile_qr_scan"}, "is_reserved": 0, "fusion_lon": 0.0, "fusion_lat": 0.0, "lon": -77.02692116666667, "name": "d5cfdbb253abb31b55bf13bed0c34d06"}, {"bike_id": "5a8c015e7bee3884898b680b72123b8b", "type": "electric_scooter", "is_disabled": 0, "lat": 38.91471816666667, "rental_uris": {"ios": "https://dc.lft.to/lastmile_qr_scan", "android": "https://dc.lft.to/lastmile_qr_scan"}, "is_reserved": 0, "fusion_lon": 0.0, "fusion_lat": 0.0, "lon": -77.03225966666666, "name": "5a8c015e7bee3884898b680b72123b8b"}, {"bike_id": "ecd981278f56091d4f71e3e503ad1558", "type": "electric_scooter", "is_disabled": 0, "lat": 38.919116333333335, "rental_uris": {"ios": "https://dc.lft.to/lastmile_qr_scan", "android": "https://dc.lft.to/lastmile_qr_scan"}, "is_reserved": 0, "fusion_lon": 0.0, "fusion_lat": 0.0, "lon": -77.03419416666667, "name": "ecd981278f56091d4f71e3e503ad1558"}, {"bike_id": "7a69574acbc2cd9de868914a32de5225", "type": "electric_scooter", "is_disabled": 0, "lat": 38.9110815, "rental_uris": {"ios": "https://dc.lft.to/lastmile_qr_scan", "android": "https://dc.lft.to/lastmile_qr_scan"}, "is_reserved": 0, "fusion_lon": 0.0, "fusion_lat": 0.0, "lon": -77.03360383333333, "name": "7a69574acbc2cd9de868914a32de5225"}, {"bike_id": "df72794ce4a6703de4f04763107c51dd", "type": "electric_scooter", "is_disabled": 0, "lat": 38.926569, "rental_uris": {"ios": "https://dc.lft.to/lastmile_qr_scan", "android": "https://dc.lft.to/lastmile_qr_scan"}, "is_reserved": 0, "fusion_lon": 0.0, "fusion_lat": 0.0, "lon": -77.037268, "name": "df72794ce4a6703de4f04763107c51dd"}, {"bike_id": "5f27d4d7ecd36a46224f968f875a477a", "type": "electric_scooter", "is_disabled": 0, "lat": 38.92353883333333, "rental_uris": {"ios": "https://dc.lft.to/lastmile_qr_scan", "android": "https://dc.lft.to/lastmile_qr_scan"}, "is_reserved": 0, "fusion_lon": 0.0, "fusion_lat": 0.0, "lon": -77.04148066666667, "name": "5f27d4d7ecd36a46224f968f875a477a"}, {"bike_id": "002d5a2462106f40a8a526a2b5574ad9", "type": "electric_scooter", "is_disabled": 0, "lat": 38.920435166666664, "rental_uris": {"ios": "https://dc.lft.to/lastmile_qr_scan", "android": "https://dc.lft.to/lastmile_qr_scan"}, "is_reserved": 0, "fusion_lon": 0.0, "fusion_lat": 0.0, "lon": -77.01732583333333, "name": "002d5a2462106f40a8a526a2b5574ad9"}, {"bike_id": "3e7464672bfeec4c939d444959764cca", "type": "electric_scooter", "is_disabled": 0, "lat": 38.8771525, "rental_uris": {"ios": "https://dc.lft.to/lastmile_qr_scan", "android": "https://dc.lft.to/lastmile_qr_scan"}, "is_reserved": 0, "fusion_lon": 0.0, "fusion_lat": 0.0, "lon": -77.01754866666667, "name": "3e7464672bfeec4c939d444959764cca"}, {"bike_id": "cc2d512d5669a66114dc4257d0e0526c", "type": "electric_scooter", "is_disabled": 0, "lat": 38.90028566666667, "rental_uris": {"ios": "https://dc.lft.to/lastmile_qr_scan", "android": "https://dc.lft.to/lastmile_qr_scan"}, "is_reserved": 0, "fusion_lon": 0.0, "fusion_lat": 0.0, "lon": -76.9901195, "name": "cc2d512d5669a66114dc4257d0e0526c"}, {"bike_id": "10ef603085217ba7e60f057b74b96f86", "type": "electric_scooter", "is_disabled": 0, "lat": 38.916373666666665, "rental_uris": {"ios": "https://dc.lft.to/lastmile_qr_scan", "android": "https://dc.lft.to/lastmile_qr_scan"}, "is_reserved": 0, "fusion_lon": 0.0, "fusion_lat": 0.0, "lon": -77.047987, "name": "10ef603085217ba7e60f057b74b96f86"}, {"bike_id": "3453294406d70480e7450636da918874", "type": "electric_scooter", "is_disabled": 0, "lat": 38.92482283333333, "rental_uris": {"ios": "https://dc.lft.to/lastmile_qr_scan", "android": "https://dc.lft.to/lastmile_qr_scan"}, "is_reserved": 0, "fusion_lon": 0.0, "fusion_lat": 0.0, "lon": -77.057526, "name": "3453294406d70480e7450636da918874"}, {"bike_id": "5d652488a9248c937d7f2e40c40ab20f", "type": "electric_scooter", "is_disabled": 0, "lat": 38.93320966666667, "rental_uris": {"ios": "https://dc.lft.to/lastmile_qr_scan", "android": "https://dc.lft.to/lastmile_qr_scan"}, "is_reserved": 0, "fusion_lon": 0.0, "fusion_lat": 0.0, "lon": -77.03263216666667, "name": "5d652488a9248c937d7f2e40c40ab20f"}, {"bike_id": "9d39d8f22e24e66d8353bd3a1706d582", "type": "electric_scooter", "is_disabled": 0, "lat": 38.893142833333336, "rental_uris": {"ios": "https://dc.lft.to/lastmile_qr_scan", "android": "https://dc.lft.to/lastmile_qr_scan"}, "is_reserved": 0, "fusion_lon": 0.0, "fusion_lat": 0.0, "lon": -76.93968916666667, "name": "9d39d8f22e24e66d8353bd3a1706d582"}, {"bike_id": "9b58fb99392e45feffdf15ab57d02b49", "type": "electric_scooter", "is_disabled": 0, "lat": 38.8796285, "rental_uris": {"ios": "https://dc.lft.to/lastmile_qr_scan", "android": "https://dc.lft.to/lastmile_qr_scan"}, "is_reserved": 0, "fusion_lon": 0.0, "fusion_lat": 0.0, "lon": -76.98537783333333, "name": "9b58fb99392e45feffdf15ab57d02b49"}, {"bike_id": "98565f2dd77cda14ffa9236a43457b12", "type": "electric_scooter", "is_disabled": 0, "lat": 38.916022166666664, "rental_uris": {"ios": "https://dc.lft.to/lastmile_qr_scan", "android": "https://dc.lft.to/lastmile_qr_scan"}, "is_reserved": 0, "fusion_lon": 0.0, "fusion_lat": 0.0, "lon": -77.04538716666667, "name": "98565f2dd77cda14ffa9236a43457b12"}, {"bike_id": "b4a6845b6934f1c64e8dad43a753d305", "type": "electric_scooter", "is_disabled": 0, "lat": 38.903925666666666, "rental_uris": {"ios": "https://dc.lft.to/lastmile_qr_scan", "android": "https://dc.lft.to/lastmile_qr_scan"}, "is_reserved": 0, "fusion_lon": 0.0, "fusion_lat": 0.0, "lon": -77.0333, "name": "b4a6845b6934f1c64e8dad43a753d305"}, {"bike_id": "c5504030fbbc06484e4ff18de26ca553", "type": "electric_scooter", "is_disabled": 0, "lat": 38.9115225, "rental_uris": {"ios": "https://dc.lft.to/lastmile_qr_scan", "android": "https://dc.lft.to/lastmile_qr_scan"}, "is_reserved": 0, "fusion_lon": 0.0, "fusion_lat": 0.0, "lon": -77.0228515, "name": "c5504030fbbc06484e4ff18de26ca553"}, {"bike_id": "915cc306cca6f4ea50c18b1d5ba74c90", "type": "electric_scooter", "is_disabled": 0, "lat": 38.90064533333333, "rental_uris": {"ios": "https://dc.lft.to/lastmile_qr_scan", "android": "https://dc.lft.to/lastmile_qr_scan"}, "is_reserved": 0, "fusion_lon": 0.0, "fusion_lat": 0.0, "lon": -76.927448, "name": "915cc306cca6f4ea50c18b1d5ba74c90"}, {"bike_id": "1a658fc7cc324e835b920ca27d2eaf7d", "type": "electric_bike", "is_disabled": 0, "lat": 38.966196833333335, "rental_uris": {"ios": "https://dc.lft.to/lastmile_qr_scan", "android": "https://dc.lft.to/lastmile_qr_scan"}, "is_reserved": 0, "fusion_lon": 0.0, "fusion_lat": 0.0, "lon": -77.0342555, "name": "1a658fc7cc324e835b920ca27d2eaf7d"}, {"bike_id": "bc122a39c6de1c2fe3eb2d55b3e4f2f7", "type": "electric_scooter", "is_disabled": 0, "lat": 38.89997433333333, "rental_uris": {"ios": "https://dc.lft.to/lastmile_qr_scan", "android": "https://dc.lft.to/lastmile_qr_scan"}, "is_reserved": 0, "fusion_lon": 0.0, "fusion_lat": 0.0, "lon": -76.99837066666667, "name": "bc122a39c6de1c2fe3eb2d55b3e4f2f7"}, {"bike_id": "bc5c7cbf928efcd19e79b33d5cfef651", "type": "electric_scooter", "is_disabled": 0, "lat": 38.9640595, "rental_uris": {"ios": "https://dc.lft.to/lastmile_qr_scan", "android": "https://dc.lft.to/lastmile_qr_scan"}, "is_reserved": 0, "fusion_lon": 0.0, "fusion_lat": 0.0, "lon": -77.02764283333333, "name": "bc5c7cbf928efcd19e79b33d5cfef651"}, {"bike_id": "4f4b686d836613cfcbf4ecc7ad05e339", "type": "electric_scooter", "is_disabled": 0, "lat": 38.866887166666665, "rental_uris": {"ios": "https://dc.lft.to/lastmile_qr_scan", "android": "https://dc.lft.to/lastmile_qr_scan"}, "is_reserved": 0, "fusion_lon": 0.0, "fusion_lat": 0.0, "lon": -76.98587366666666, "name": "4f4b686d836613cfcbf4ecc7ad05e339"}, {"bike_id": "5fd08e166968ea63e28af555d30c55cd", "type": "electric_scooter", "is_disabled": 0, "lat": 38.9350045, "rental_uris": {"ios": "https://dc.lft.to/lastmile_qr_scan", "android": "https://dc.lft.to/lastmile_qr_scan"}, "is_reserved": 0, "fusion_lon": 0.0, "fusion_lat": 0.0, "lon": -77.0739435, "name": "5fd08e166968ea63e28af555d30c55cd"}, {"bike_id": "18f2e344305d4b2e366294b397884fce", "type": "electric_scooter", "is_disabled": 0, "lat": 38.91263433333334, "rental_uris": {"ios": "https://dc.lft.to/lastmile_qr_scan", "android": "https://dc.lft.to/lastmile_qr_scan"}, "is_reserved": 0, "fusion_lon": 0.0, "fusion_lat": 0.0, "lon": -77.0049265, "name": "18f2e344305d4b2e366294b397884fce"}, {"bike_id": "b187659504dc9f740fceabe41c5ff807", "type": "electric_scooter", "is_disabled": 0, "lat": 38.93875416666667, "rental_uris": {"ios": "https://dc.lft.to/lastmile_qr_scan", "android": "https://dc.lft.to/lastmile_qr_scan"}, "is_reserved": 0, "fusion_lon": 0.0, "fusion_lat": 0.0, "lon": -77.0265695, "name": "b187659504dc9f740fceabe41c5ff807"}, {"bike_id": "907e55c5ecc4cbd5c01929f455cf789c", "type": "electric_scooter", "is_disabled": 0, "lat": 38.8766415, "rental_uris": {"ios": "https://dc.lft.to/lastmile_qr_scan", "android": "https://dc.lft.to/lastmile_qr_scan"}, "is_reserved": 0, "fusion_lon": 0.0, "fusion_lat": 0.0, "lon": -77.00327966666667, "name": "907e55c5ecc4cbd5c01929f455cf789c"}, {"bike_id": "bae9ec319855ea803dd637fc19e99b2f", "type": "electric_scooter", "is_disabled": 0, "lat": 38.930907833333336, "rental_uris": {"ios": "https://dc.lft.to/lastmile_qr_scan", "android": "https://dc.lft.to/lastmile_qr_scan"}, "is_reserved": 0, "fusion_lon": 0.0, "fusion_lat": 0.0, "lon": -77.02568616666667, "name": "bae9ec319855ea803dd637fc19e99b2f"}, {"bike_id": "b35ed17f5801d73ab64381beb83db2ef", "type": "electric_scooter", "is_disabled": 0, "lat": 38.9222335, "rental_uris": {"ios": "https://dc.lft.to/lastmile_qr_scan", "android": "https://dc.lft.to/lastmile_qr_scan"}, "is_reserved": 0, "fusion_lon": 0.0, "fusion_lat": 0.0, "lon": -77.023233, "name": "b35ed17f5801d73ab64381beb83db2ef"}, {"bike_id": "9af18d91a5e50298fb00b249438e6e82", "type": "electric_scooter", "is_disabled": 0, "lat": 38.918435, "rental_uris": {"ios": "https://dc.lft.to/lastmile_qr_scan", "android": "https://dc.lft.to/lastmile_qr_scan"}, "is_reserved": 0, "fusion_lon": 0.0, "fusion_lat": 0.0, "lon": -77.0482935, "name": "9af18d91a5e50298fb00b249438e6e82"}, {"bike_id": "23b1ab05add510825fee56f0274a1019", "type": "electric_scooter", "is_disabled": 0, "lat": 38.90733083333333, "rental_uris": {"ios": "https://dc.lft.to/lastmile_qr_scan", "android": "https://dc.lft.to/lastmile_qr_scan"}, "is_reserved": 0, "fusion_lon": 0.0, "fusion_lat": 0.0, "lon": -77.01307833333334, "name": "23b1ab05add510825fee56f0274a1019"}, {"bike_id": "7d95c844fc6490e2417cf02246c9704c", "type": "electric_scooter", "is_disabled": 0, "lat": 38.866861166666666, "rental_uris": {"ios": "https://dc.lft.to/lastmile_qr_scan", "android": "https://dc.lft.to/lastmile_qr_scan"}, "is_reserved": 0, "fusion_lon": 0.0, "fusion_lat": 0.0, "lon": -76.98585833333334, "name": "7d95c844fc6490e2417cf02246c9704c"}, {"bike_id": "d73309e717dcd70ded8140f71f0f1890", "type": "electric_bike", "is_disabled": 0, "lat": 38.87079816666667, "rental_uris": {"ios": "https://dc.lft.to/lastmile_qr_scan", "android": "https://dc.lft.to/lastmile_qr_scan"}, "is_reserved": 0, "fusion_lon": 0.0, "fusion_lat": 0.0, "lon": -77.0121415, "name": "d73309e717dcd70ded8140f71f0f1890"}, {"bike_id": "fef804976cd9839106129e340959b098", "type": "electric_bike", "is_disabled": 0, "lat": 38.80750166666667, "rental_uris": {"ios": "https://dc.lft.to/lastmile_qr_scan", "android": "https://dc.lft.to/lastmile_qr_scan"}, "is_reserved": 0, "fusion_lon": 0.0, "fusion_lat": 0.0, "lon": -77.0945025, "name": "fef804976cd9839106129e340959b098"}, {"bike_id": "dd7a75466746fa92d384fdd0c19f2904", "type": "electric_scooter", "is_disabled": 0, "lat": 38.895249666666665, "rental_uris": {"ios": "https://dc.lft.to/lastmile_qr_scan", "android": "https://dc.lft.to/lastmile_qr_scan"}, "is_reserved": 0, "fusion_lon": 0.0, "fusion_lat": 0.0, "lon": -77.010769, "name": "dd7a75466746fa92d384fdd0c19f2904"}, {"bike_id": "160d8b6d9e7eaf35f845787f3f908975", "type": "electric_scooter", "is_disabled": 0, "lat": 38.90366066666667, "rental_uris": {"ios": "https://dc.lft.to/lastmile_qr_scan", "android": "https://dc.lft.to/lastmile_qr_scan"}, "is_reserved": 0, "fusion_lon": 0.0, "fusion_lat": 0.0, "lon": -77.02944266666667, "name": "160d8b6d9e7eaf35f845787f3f908975"}, {"bike_id": "ee45cd25dc1ae000693c5d3863c754bf", "type": "electric_bike", "is_disabled": 0, "lat": 38.95238783333333, "rental_uris": {"ios": "https://dc.lft.to/lastmile_qr_scan", "android": "https://dc.lft.to/lastmile_qr_scan"}, "is_reserved": 0, "fusion_lon": 0.0, "fusion_lat": 0.0, "lon": -77.0075915, "name": "ee45cd25dc1ae000693c5d3863c754bf"}, {"bike_id": "6b7625bea825958a1b92cddf953f59b2", "type": "electric_scooter", "is_disabled": 0, "lat": 38.88933683333333, "rental_uris": {"ios": "https://dc.lft.to/lastmile_qr_scan", "android": "https://dc.lft.to/lastmile_qr_scan"}, "is_reserved": 0, "fusion_lon": 0.0, "fusion_lat": 0.0, "lon": -77.01506433333333, "name": "6b7625bea825958a1b92cddf953f59b2"}, {"bike_id": "65eb2641d5ed9f799916d4cf7f45aa2e", "type": "electric_scooter", "is_disabled": 0, "lat": 38.90493683333333, "rental_uris": {"ios": "https://dc.lft.to/lastmile_qr_scan", "android": "https://dc.lft.to/lastmile_qr_scan"}, "is_reserved": 0, "fusion_lon": 0.0, "fusion_lat": 0.0, "lon": -77.01988566666667, "name": "65eb2641d5ed9f799916d4cf7f45aa2e"}, {"bike_id": "b125f359dd8209c72ba0cb0c62b41aa5", "type": "electric_scooter", "is_disabled": 0, "lat": 38.92339466666667, "rental_uris": {"ios": "https://dc.lft.to/lastmile_qr_scan", "android": "https://dc.lft.to/lastmile_qr_scan"}, "is_reserved": 0, "fusion_lon": 0.0, "fusion_lat": 0.0, "lon": -77.00190233333333, "name": "b125f359dd8209c72ba0cb0c62b41aa5"}, {"bike_id": "4cb31c241154ea54eb6431c1646b8579", "type": "electric_scooter", "is_disabled": 0, "lat": 38.9363485, "rental_uris": {"ios": "https://dc.lft.to/lastmile_qr_scan", "android": "https://dc.lft.to/lastmile_qr_scan"}, "is_reserved": 0, "fusion_lon": 0.0, "fusion_lat": 0.0, "lon": -77.05881266666667, "name": "4cb31c241154ea54eb6431c1646b8579"}, {"bike_id": "d7818989c135ee1e0f093eae493bdbd1", "type": "electric_scooter", "is_disabled": 0, "lat": 38.87105666666667, "rental_uris": {"ios": "https://dc.lft.to/lastmile_qr_scan", "android": "https://dc.lft.to/lastmile_qr_scan"}, "is_reserved": 0, "fusion_lon": 0.0, "fusion_lat": 0.0, "lon": -76.96575266666666, "name": "d7818989c135ee1e0f093eae493bdbd1"}, {"bike_id": "827b2145e59d360d786f7065004d5ba7", "type": "electric_scooter", "is_disabled": 0, "lat": 38.922903833333336, "rental_uris": {"ios": "https://dc.lft.to/lastmile_qr_scan", "android": "https://dc.lft.to/lastmile_qr_scan"}, "is_reserved": 0, "fusion_lon": 0.0, "fusion_lat": 0.0, "lon": -76.99465566666667, "name": "827b2145e59d360d786f7065004d5ba7"}, {"bike_id": "7f8c79f6a555c2177cef371f499e8751", "type": "electric_scooter", "is_disabled": 0, "lat": 38.916746833333335, "rental_uris": {"ios": "https://dc.lft.to/lastmile_qr_scan", "android": "https://dc.lft.to/lastmile_qr_scan"}, "is_reserved": 0, "fusion_lon": 0.0, "fusion_lat": 0.0, "lon": -77.027188, "name": "7f8c79f6a555c2177cef371f499e8751"}, {"bike_id": "ebcdebfcfa2c640a9f23c284b54bfa61", "type": "electric_bike", "is_disabled": 0, "lat": 38.951732666666665, "rental_uris": {"ios": "https://dc.lft.to/lastmile_qr_scan", "android": "https://dc.lft.to/lastmile_qr_scan"}, "is_reserved": 0, "fusion_lon": 0.0, "fusion_lat": 0.0, "lon": -76.9638665, "name": "ebcdebfcfa2c640a9f23c284b54bfa61"}, {"bike_id": "f0795a1872685915c23cd4f4cfaf9393", "type": "electric_scooter", "is_disabled": 0, "lat": 38.905538666666665, "rental_uris": {"ios": "https://dc.lft.to/lastmile_qr_scan", "android": "https://dc.lft.to/lastmile_qr_scan"}, "is_reserved": 0, "fusion_lon": 0.0, "fusion_lat": 0.0, "lon": -76.99620566666667, "name": "f0795a1872685915c23cd4f4cfaf9393"}, {"bike_id": "2fd83e2d8db042d88fa0ce8f104901c5", "type": "electric_scooter", "is_disabled": 0, "lat": 38.9225835, "rental_uris": {"ios": "https://dc.lft.to/lastmile_qr_scan", "android": "https://dc.lft.to/lastmile_qr_scan"}, "is_reserved": 0, "fusion_lon": 0.0, "fusion_lat": 0.0, "lon": -77.0388715, "name": "2fd83e2d8db042d88fa0ce8f104901c5"}, {"bike_id": "4b4201e3a16347971107aa01b8120296", "type": "electric_bike", "is_disabled": 0, "lat": 38.804111, "rental_uris": {"ios": "https://dc.lft.to/lastmile_qr_scan", "android": "https://dc.lft.to/lastmile_qr_scan"}, "is_reserved": 0, "fusion_lon": 0.0, "fusion_lat": 0.0, "lon": -77.05554716666667, "name": "4b4201e3a16347971107aa01b8120296"}, {"bike_id": "74aadd1881bad9cf079b8868aaa6420c", "type": "electric_scooter", "is_disabled": 0, "lat": 38.90959383333333, "rental_uris": {"ios": "https://dc.lft.to/lastmile_qr_scan", "android": "https://dc.lft.to/lastmile_qr_scan"}, "is_reserved": 0, "fusion_lon": 0.0, "fusion_lat": 0.0, "lon": -77.0486075, "name": "74aadd1881bad9cf079b8868aaa6420c"}, {"bike_id": "c909bc1c0bedae7827ec7aeb48e4eefc", "type": "electric_scooter", "is_disabled": 0, "lat": 38.895127333333335, "rental_uris": {"ios": "https://dc.lft.to/lastmile_qr_scan", "android": "https://dc.lft.to/lastmile_qr_scan"}, "is_reserved": 0, "fusion_lon": 0.0, "fusion_lat": 0.0, "lon": -77.01088483333334, "name": "c909bc1c0bedae7827ec7aeb48e4eefc"}, {"bike_id": "49c69201811d246063c96e326585afb5", "type": "electric_scooter", "is_disabled": 0, "lat": 38.90011333333333, "rental_uris": {"ios": "https://dc.lft.to/lastmile_qr_scan", "android": "https://dc.lft.to/lastmile_qr_scan"}, "is_reserved": 0, "fusion_lon": 0.0, "fusion_lat": 0.0, "lon": -76.99427133333333, "name": "49c69201811d246063c96e326585afb5"}, {"bike_id": "a5d0e4ccf7cfe02cf472a53f74437b41", "type": "electric_bike", "is_disabled": 0, "lat": 38.80897, "rental_uris": {"ios": "https://dc.lft.to/lastmile_qr_scan", "android": "https://dc.lft.to/lastmile_qr_scan"}, "is_reserved": 0, "fusion_lon": 0.0, "fusion_lat": 0.0, "lon": -77.08643183333334, "name": "a5d0e4ccf7cfe02cf472a53f74437b41"}, {"bike_id": "66e92a7e982e9dd26fd9c0426856e059", "type": "electric_scooter", "is_disabled": 0, "lat": 38.929655, "rental_uris": {"ios": "https://dc.lft.to/lastmile_qr_scan", "android": "https://dc.lft.to/lastmile_qr_scan"}, "is_reserved": 0, "fusion_lon": 0.0, "fusion_lat": 0.0, "lon": -77.02825016666667, "name": "66e92a7e982e9dd26fd9c0426856e059"}, {"bike_id": "d1d8c0ea186dffe2713e0471ed88d38c", "type": "electric_scooter", "is_disabled": 0, "lat": 38.88744366666667, "rental_uris": {"ios": "https://dc.lft.to/lastmile_qr_scan", "android": "https://dc.lft.to/lastmile_qr_scan"}, "is_reserved": 0, "fusion_lon": 0.0, "fusion_lat": 0.0, "lon": -77.02728, "name": "d1d8c0ea186dffe2713e0471ed88d38c"}, {"bike_id": "171e38e478ead225b2908b5ebc28136c", "type": "electric_scooter", "is_disabled": 0, "lat": 38.90027766666667, "rental_uris": {"ios": "https://dc.lft.to/lastmile_qr_scan", "android": "https://dc.lft.to/lastmile_qr_scan"}, "is_reserved": 0, "fusion_lon": 0.0, "fusion_lat": 0.0, "lon": -76.99856, "name": "171e38e478ead225b2908b5ebc28136c"}, {"bike_id": "bfb468757bfa34c2678a8ea04ae51c82", "type": "electric_scooter", "is_disabled": 0, "lat": 38.93420783333333, "rental_uris": {"ios": "https://dc.lft.to/lastmile_qr_scan", "android": "https://dc.lft.to/lastmile_qr_scan"}, "is_reserved": 0, "fusion_lon": 0.0, "fusion_lat": 0.0, "lon": -77.039936, "name": "bfb468757bfa34c2678a8ea04ae51c82"}, {"bike_id": "87ec681ec27522a215adf155a8c9cc66", "type": "electric_scooter", "is_disabled": 0, "lat": 38.9418025, "rental_uris": {"ios": "https://dc.lft.to/lastmile_qr_scan", "android": "https://dc.lft.to/lastmile_qr_scan"}, "is_reserved": 0, "fusion_lon": 0.0, "fusion_lat": 0.0, "lon": -77.02484366666667, "name": "87ec681ec27522a215adf155a8c9cc66"}, {"bike_id": "732471b289ae4d4146b8629c0c3f445b", "type": "electric_scooter", "is_disabled": 0, "lat": 38.899566, "rental_uris": {"ios": "https://dc.lft.to/lastmile_qr_scan", "android": "https://dc.lft.to/lastmile_qr_scan"}, "is_reserved": 0, "fusion_lon": 0.0, "fusion_lat": 0.0, "lon": -77.04769133333333, "name": "732471b289ae4d4146b8629c0c3f445b"}, {"bike_id": "a23ac95e5de211760bf44a893577ae19", "type": "electric_bike", "is_disabled": 0, "lat": 38.93335716666667, "rental_uris": {"ios": "https://dc.lft.to/lastmile_qr_scan", "android": "https://dc.lft.to/lastmile_qr_scan"}, "is_reserved": 0, "fusion_lon": 0.0, "fusion_lat": 0.0, "lon": -77.039666, "name": "a23ac95e5de211760bf44a893577ae19"}, {"bike_id": "712c3f8a7d17884d9af722f17c351912", "type": "electric_bike", "is_disabled": 0, "lat": 38.86482866666667, "rental_uris": {"ios": "https://dc.lft.to/lastmile_qr_scan", "android": "https://dc.lft.to/lastmile_qr_scan"}, "is_reserved": 0, "fusion_lon": 0.0, "fusion_lat": 0.0, "lon": -76.97753783333333, "name": "712c3f8a7d17884d9af722f17c351912"}, {"bike_id": "b8dd8ce6fb86adba5bfdd81f1c22aa5d", "type": "electric_scooter", "is_disabled": 0, "lat": 38.92219733333334, "rental_uris": {"ios": "https://dc.lft.to/lastmile_qr_scan", "android": "https://dc.lft.to/lastmile_qr_scan"}, "is_reserved": 0, "fusion_lon": 0.0, "fusion_lat": 0.0, "lon": -77.03462, "name": "b8dd8ce6fb86adba5bfdd81f1c22aa5d"}, {"bike_id": "c0f29d07ba91752816f7b443737ad32e", "type": "electric_scooter", "is_disabled": 0, "lat": 38.9032255, "rental_uris": {"ios": "https://dc.lft.to/lastmile_qr_scan", "android": "https://dc.lft.to/lastmile_qr_scan"}, "is_reserved": 0, "fusion_lon": 0.0, "fusion_lat": 0.0, "lon": -76.975463, "name": "c0f29d07ba91752816f7b443737ad32e"}, {"bike_id": "e5353bc626237683930d40c703107445", "type": "electric_bike", "is_disabled": 0, "lat": 38.80393083333333, "rental_uris": {"ios": "https://dc.lft.to/lastmile_qr_scan", "android": "https://dc.lft.to/lastmile_qr_scan"}, "is_reserved": 0, "fusion_lon": 0.0, "fusion_lat": 0.0, "lon": -77.05559616666666, "name": "e5353bc626237683930d40c703107445"}, {"bike_id": "72b156bde25f9965ee66b9f079380fbc", "type": "electric_scooter", "is_disabled": 0, "lat": 38.870698166666664, "rental_uris": {"ios": "https://dc.lft.to/lastmile_qr_scan", "android": "https://dc.lft.to/lastmile_qr_scan"}, "is_reserved": 0, "fusion_lon": 0.0, "fusion_lat": 0.0, "lon": -76.98124533333333, "name": "72b156bde25f9965ee66b9f079380fbc"}, {"bike_id": "960101cde6755bd997aa4a21b28af2c9", "type": "electric_scooter", "is_disabled": 0, "lat": 38.918138, "rental_uris": {"ios": "https://dc.lft.to/lastmile_qr_scan", "android": "https://dc.lft.to/lastmile_qr_scan"}, "is_reserved": 0, "fusion_lon": 0.0, "fusion_lat": 0.0, "lon": -77.03163133333334, "name": "960101cde6755bd997aa4a21b28af2c9"}, {"bike_id": "7ad39bd559f1943706f13a272f9d990c", "type": "electric_scooter", "is_disabled": 0, "lat": 38.898453, "rental_uris": {"ios": "https://dc.lft.to/lastmile_qr_scan", "android": "https://dc.lft.to/lastmile_qr_scan"}, "is_reserved": 0, "fusion_lon": 0.0, "fusion_lat": 0.0, "lon": -76.98169016666667, "name": "7ad39bd559f1943706f13a272f9d990c"}, {"bike_id": "7a0fe4efeb3f1cf2549ceddae38616f6", "type": "electric_scooter", "is_disabled": 0, "lat": 38.926215166666665, "rental_uris": {"ios": "https://dc.lft.to/lastmile_qr_scan", "android": "https://dc.lft.to/lastmile_qr_scan"}, "is_reserved": 0, "fusion_lon": 0.0, "fusion_lat": 0.0, "lon": -77.041958, "name": "7a0fe4efeb3f1cf2549ceddae38616f6"}, {"bike_id": "4b39f745da8d25c51b27283b4227cc0e", "type": "electric_scooter", "is_disabled": 0, "lat": 38.92932066666667, "rental_uris": {"ios": "https://dc.lft.to/lastmile_qr_scan", "android": "https://dc.lft.to/lastmile_qr_scan"}, "is_reserved": 0, "fusion_lon": 0.0, "fusion_lat": 0.0, "lon": -77.03755933333333, "name": "4b39f745da8d25c51b27283b4227cc0e"}, {"bike_id": "fbd011d768824e0f40e843d5aa616e77", "type": "electric_scooter", "is_disabled": 0, "lat": 38.928135833333336, "rental_uris": {"ios": "https://dc.lft.to/lastmile_qr_scan", "android": "https://dc.lft.to/lastmile_qr_scan"}, "is_reserved": 0, "fusion_lon": 0.0, "fusion_lat": 0.0, "lon": -77.01415666666666, "name": "fbd011d768824e0f40e843d5aa616e77"}, {"bike_id": "ac3497a50dfbfdd8c3ed091f3c770740", "type": "electric_scooter", "is_disabled": 0, "lat": 38.858081, "rental_uris": {"ios": "https://dc.lft.to/lastmile_qr_scan", "android": "https://dc.lft.to/lastmile_qr_scan"}, "is_reserved": 0, "fusion_lon": 0.0, "fusion_lat": 0.0, "lon": -76.9892255, "name": "ac3497a50dfbfdd8c3ed091f3c770740"}, {"bike_id": "46ba6e749bee6311d1bdda38f6f2eeb5", "type": "electric_scooter", "is_disabled": 0, "lat": 38.880327, "rental_uris": {"ios": "https://dc.lft.to/lastmile_qr_scan", "android": "https://dc.lft.to/lastmile_qr_scan"}, "is_reserved": 0, "fusion_lon": 0.0, "fusion_lat": 0.0, "lon": -77.02485933333334, "name": "46ba6e749bee6311d1bdda38f6f2eeb5"}, {"bike_id": "546ddd26a1441d52741c125f34cf3681", "type": "electric_scooter", "is_disabled": 0, "lat": 38.93252916666667, "rental_uris": {"ios": "https://dc.lft.to/lastmile_qr_scan", "android": "https://dc.lft.to/lastmile_qr_scan"}, "is_reserved": 0, "fusion_lon": 0.0, "fusion_lat": 0.0, "lon": -77.0328195, "name": "546ddd26a1441d52741c125f34cf3681"}, {"bike_id": "5697b4f4dc393fe1013a48f772d0af2b", "type": "electric_bike", "is_disabled": 0, "lat": 38.87301133333333, "rental_uris": {"ios": "https://dc.lft.to/lastmile_qr_scan", "android": "https://dc.lft.to/lastmile_qr_scan"}, "is_reserved": 0, "fusion_lon": 0.0, "fusion_lat": 0.0, "lon": -77.13929766666666, "name": "5697b4f4dc393fe1013a48f772d0af2b"}, {"bike_id": "257727755a60319d0e487486ac12af92", "type": "electric_scooter", "is_disabled": 0, "lat": 38.892218666666665, "rental_uris": {"ios": "https://dc.lft.to/lastmile_qr_scan", "android": "https://dc.lft.to/lastmile_qr_scan"}, "is_reserved": 0, "fusion_lon": 0.0, "fusion_lat": 0.0, "lon": -77.04861583333333, "name": "257727755a60319d0e487486ac12af92"}, {"bike_id": "8945d09f14ce958219b4ef36adb2845e", "type": "electric_scooter", "is_disabled": 0, "lat": 38.93269933333333, "rental_uris": {"ios": "https://dc.lft.to/lastmile_qr_scan", "android": "https://dc.lft.to/lastmile_qr_scan"}, "is_reserved": 0, "fusion_lon": 0.0, "fusion_lat": 0.0, "lon": -77.04537733333333, "name": "8945d09f14ce958219b4ef36adb2845e"}, {"bike_id": "4301cbc0ef5d8e9bd4b526c259ce22a9", "type": "electric_scooter", "is_disabled": 0, "lat": 38.916368166666665, "rental_uris": {"ios": "https://dc.lft.to/lastmile_qr_scan", "android": "https://dc.lft.to/lastmile_qr_scan"}, "is_reserved": 0, "fusion_lon": 0.0, "fusion_lat": 0.0, "lon": -77.02553483333334, "name": "4301cbc0ef5d8e9bd4b526c259ce22a9"}, {"bike_id": "b859e15c336d0789056bbc05ce910b55", "type": "electric_scooter", "is_disabled": 0, "lat": 38.87783733333333, "rental_uris": {"ios": "https://dc.lft.to/lastmile_qr_scan", "android": "https://dc.lft.to/lastmile_qr_scan"}, "is_reserved": 0, "fusion_lon": 0.0, "fusion_lat": 0.0, "lon": -77.01737066666666, "name": "b859e15c336d0789056bbc05ce910b55"}, {"bike_id": "cc7235f9a6fa7ec3fc923ac196750af3", "type": "electric_scooter", "is_disabled": 0, "lat": 38.919836333333336, "rental_uris": {"ios": "https://dc.lft.to/lastmile_qr_scan", "android": "https://dc.lft.to/lastmile_qr_scan"}, "is_reserved": 0, "fusion_lon": 0.0, "fusion_lat": 0.0, "lon": -77.03267266666667, "name": "cc7235f9a6fa7ec3fc923ac196750af3"}, {"bike_id": "48c685f759c9bcc53d1bb69da7fcc34c", "type": "electric_scooter", "is_disabled": 0, "lat": 38.9008265, "rental_uris": {"ios": "https://dc.lft.to/lastmile_qr_scan", "android": "https://dc.lft.to/lastmile_qr_scan"}, "is_reserved": 0, "fusion_lon": 0.0, "fusion_lat": 0.0, "lon": -77.00921266666667, "name": "48c685f759c9bcc53d1bb69da7fcc34c"}, {"bike_id": "b43e468b54d983af79880b834f61a75d", "type": "electric_scooter", "is_disabled": 0, "lat": 38.914862666666664, "rental_uris": {"ios": "https://dc.lft.to/lastmile_qr_scan", "android": "https://dc.lft.to/lastmile_qr_scan"}, "is_reserved": 0, "fusion_lon": 0.0, "fusion_lat": 0.0, "lon": -76.98384716666666, "name": "b43e468b54d983af79880b834f61a75d"}, {"bike_id": "1e1f59d26ffaf32dbe9472931abb01d6", "type": "electric_scooter", "is_disabled": 0, "lat": 38.92252383333334, "rental_uris": {"ios": "https://dc.lft.to/lastmile_qr_scan", "android": "https://dc.lft.to/lastmile_qr_scan"}, "is_reserved": 0, "fusion_lon": 0.0, "fusion_lat": 0.0, "lon": -77.039013, "name": "1e1f59d26ffaf32dbe9472931abb01d6"}, {"bike_id": "4461753469d766e67ddf8f0c7ee15cef", "type": "electric_scooter", "is_disabled": 0, "lat": 38.91021633333333, "rental_uris": {"ios": "https://dc.lft.to/lastmile_qr_scan", "android": "https://dc.lft.to/lastmile_qr_scan"}, "is_reserved": 0, "fusion_lon": 0.0, "fusion_lat": 0.0, "lon": -77.0366195, "name": "4461753469d766e67ddf8f0c7ee15cef"}, {"bike_id": "18ae422d4b0b05ffce7162c320cc96a3", "type": "electric_scooter", "is_disabled": 0, "lat": 38.91556033333333, "rental_uris": {"ios": "https://dc.lft.to/lastmile_qr_scan", "android": "https://dc.lft.to/lastmile_qr_scan"}, "is_reserved": 0, "fusion_lon": 0.0, "fusion_lat": 0.0, "lon": -77.02278883333334, "name": "18ae422d4b0b05ffce7162c320cc96a3"}, {"bike_id": "3a061d5e35c561f7239be572edd5b8ce", "type": "electric_scooter", "is_disabled": 0, "lat": 38.903862, "rental_uris": {"ios": "https://dc.lft.to/lastmile_qr_scan", "android": "https://dc.lft.to/lastmile_qr_scan"}, "is_reserved": 0, "fusion_lon": 0.0, "fusion_lat": 0.0, "lon": -76.98195766666667, "name": "3a061d5e35c561f7239be572edd5b8ce"}, {"bike_id": "85601d94815f1031ebb6faadb37d0de1", "type": "electric_scooter", "is_disabled": 0, "lat": 38.905644833333334, "rental_uris": {"ios": "https://dc.lft.to/lastmile_qr_scan", "android": "https://dc.lft.to/lastmile_qr_scan"}, "is_reserved": 0, "fusion_lon": 0.0, "fusion_lat": 0.0, "lon": -77.00596916666667, "name": "85601d94815f1031ebb6faadb37d0de1"}, {"bike_id": "751f6d6dc2a47ecf6c0d11ce1f502ddc", "type": "electric_scooter", "is_disabled": 0, "lat": 38.909707, "rental_uris": {"ios": "https://dc.lft.to/lastmile_qr_scan", "android": "https://dc.lft.to/lastmile_qr_scan"}, "is_reserved": 0, "fusion_lon": 0.0, "fusion_lat": 0.0, "lon": -77.039525, "name": "751f6d6dc2a47ecf6c0d11ce1f502ddc"}, {"bike_id": "7df0244fc8034715aee574d9d4cc175d", "type": "electric_scooter", "is_disabled": 0, "lat": 38.9325535, "rental_uris": {"ios": "https://dc.lft.to/lastmile_qr_scan", "android": "https://dc.lft.to/lastmile_qr_scan"}, "is_reserved": 0, "fusion_lon": 0.0, "fusion_lat": 0.0, "lon": -77.03258683333334, "name": "7df0244fc8034715aee574d9d4cc175d"}, {"bike_id": "6a83423b4def3044020dbc3df571c19e", "type": "electric_scooter", "is_disabled": 0, "lat": 38.919470833333335, "rental_uris": {"ios": "https://dc.lft.to/lastmile_qr_scan", "android": "https://dc.lft.to/lastmile_qr_scan"}, "is_reserved": 0, "fusion_lon": 0.0, "fusion_lat": 0.0, "lon": -77.0140905, "name": "6a83423b4def3044020dbc3df571c19e"}, {"bike_id": "3dda129f61e8ae77ad11002a3c43c818", "type": "electric_bike", "is_disabled": 0, "lat": 38.85785533333333, "rental_uris": {"ios": "https://dc.lft.to/lastmile_qr_scan", "android": "https://dc.lft.to/lastmile_qr_scan"}, "is_reserved": 0, "fusion_lon": 0.0, "fusion_lat": 0.0, "lon": -77.09957283333334, "name": "3dda129f61e8ae77ad11002a3c43c818"}, {"bike_id": "7f7849ccb693961b869717e972550024", "type": "electric_scooter", "is_disabled": 0, "lat": 38.922468333333335, "rental_uris": {"ios": "https://dc.lft.to/lastmile_qr_scan", "android": "https://dc.lft.to/lastmile_qr_scan"}, "is_reserved": 0, "fusion_lon": 0.0, "fusion_lat": 0.0, "lon": -77.02175083333333, "name": "7f7849ccb693961b869717e972550024"}, {"bike_id": "52049463345924c462eb98b471963cf2", "type": "electric_scooter", "is_disabled": 0, "lat": 38.90335616666667, "rental_uris": {"ios": "https://dc.lft.to/lastmile_qr_scan", "android": "https://dc.lft.to/lastmile_qr_scan"}, "is_reserved": 0, "fusion_lon": 0.0, "fusion_lat": 0.0, "lon": -76.97580316666667, "name": "52049463345924c462eb98b471963cf2"}, {"bike_id": "7996bb483bf9b75776f74323f11f5a35", "type": "electric_scooter", "is_disabled": 0, "lat": 38.880719, "rental_uris": {"ios": "https://dc.lft.to/lastmile_qr_scan", "android": "https://dc.lft.to/lastmile_qr_scan"}, "is_reserved": 0, "fusion_lon": 0.0, "fusion_lat": 0.0, "lon": -76.99509533333334, "name": "7996bb483bf9b75776f74323f11f5a35"}, {"bike_id": "9f9a837e3ec9c932614244b1cc0a15bb", "type": "electric_scooter", "is_disabled": 0, "lat": 38.87451866666667, "rental_uris": {"ios": "https://dc.lft.to/lastmile_qr_scan", "android": "https://dc.lft.to/lastmile_qr_scan"}, "is_reserved": 0, "fusion_lon": 0.0, "fusion_lat": 0.0, "lon": -77.00308616666666, "name": "9f9a837e3ec9c932614244b1cc0a15bb"}, {"bike_id": "b2ed715ad5b4b8625105d76169ba3fe4", "type": "electric_scooter", "is_disabled": 0, "lat": 38.8624455, "rental_uris": {"ios": "https://dc.lft.to/lastmile_qr_scan", "android": "https://dc.lft.to/lastmile_qr_scan"}, "is_reserved": 0, "fusion_lon": 0.0, "fusion_lat": 0.0, "lon": -76.99500683333333, "name": "b2ed715ad5b4b8625105d76169ba3fe4"}, {"bike_id": "72ad0bd6b39f25a165f202967fe12e17", "type": "electric_bike", "is_disabled": 0, "lat": 38.8542605, "rental_uris": {"ios": "https://dc.lft.to/lastmile_qr_scan", "android": "https://dc.lft.to/lastmile_qr_scan"}, "is_reserved": 0, "fusion_lon": 0.0, "fusion_lat": 0.0, "lon": -77.12074283333334, "name": "72ad0bd6b39f25a165f202967fe12e17"}, {"bike_id": "9e6b621ade676a347f56a9f73558d972", "type": "electric_scooter", "is_disabled": 0, "lat": 38.948366, "rental_uris": {"ios": "https://dc.lft.to/lastmile_qr_scan", "android": "https://dc.lft.to/lastmile_qr_scan"}, "is_reserved": 0, "fusion_lon": 0.0, "fusion_lat": 0.0, "lon": -77.025397, "name": "9e6b621ade676a347f56a9f73558d972"}, {"bike_id": "cb91c5b76e3ed8096a928c28bccb70ff", "type": "electric_scooter", "is_disabled": 0, "lat": 38.93322383333334, "rental_uris": {"ios": "https://dc.lft.to/lastmile_qr_scan", "android": "https://dc.lft.to/lastmile_qr_scan"}, "is_reserved": 0, "fusion_lon": 0.0, "fusion_lat": 0.0, "lon": -77.02925466666667, "name": "cb91c5b76e3ed8096a928c28bccb70ff"}, {"bike_id": "7fbf465075584ee0e68e98e14f233a55", "type": "electric_scooter", "is_disabled": 0, "lat": 38.854436, "rental_uris": {"ios": "https://dc.lft.to/lastmile_qr_scan", "android": "https://dc.lft.to/lastmile_qr_scan"}, "is_reserved": 0, "fusion_lon": 0.0, "fusion_lat": 0.0, "lon": -76.98606716666667, "name": "7fbf465075584ee0e68e98e14f233a55"}, {"bike_id": "d6e3c59fd46561f33f5aa7380556d47d", "type": "electric_scooter", "is_disabled": 0, "lat": 38.935015666666665, "rental_uris": {"ios": "https://dc.lft.to/lastmile_qr_scan", "android": "https://dc.lft.to/lastmile_qr_scan"}, "is_reserved": 0, "fusion_lon": 0.0, "fusion_lat": 0.0, "lon": -77.0241245, "name": "d6e3c59fd46561f33f5aa7380556d47d"}, {"bike_id": "30a4f67321609c5453bf519500ad9134", "type": "electric_scooter", "is_disabled": 0, "lat": 38.918169166666665, "rental_uris": {"ios": "https://dc.lft.to/lastmile_qr_scan", "android": "https://dc.lft.to/lastmile_qr_scan"}, "is_reserved": 0, "fusion_lon": 0.0, "fusion_lat": 0.0, "lon": -77.0366905, "name": "30a4f67321609c5453bf519500ad9134"}, {"bike_id": "cb9f7dd2a6d8babd532846983e4be79a", "type": "electric_scooter", "is_disabled": 0, "lat": 38.94289633333333, "rental_uris": {"ios": "https://dc.lft.to/lastmile_qr_scan", "android": "https://dc.lft.to/lastmile_qr_scan"}, "is_reserved": 0, "fusion_lon": 0.0, "fusion_lat": 0.0, "lon": -77.0217115, "name": "cb9f7dd2a6d8babd532846983e4be79a"}, {"bike_id": "cb57f299ea0b8136cd506c403eec082d", "type": "electric_scooter", "is_disabled": 0, "lat": 38.90722933333333, "rental_uris": {"ios": "https://dc.lft.to/lastmile_qr_scan", "android": "https://dc.lft.to/lastmile_qr_scan"}, "is_reserved": 0, "fusion_lon": 0.0, "fusion_lat": 0.0, "lon": -77.04476416666667, "name": "cb57f299ea0b8136cd506c403eec082d"}, {"bike_id": "d3152c187851b4a3deef8a361e84d5ff", "type": "electric_scooter", "is_disabled": 0, "lat": 38.934207, "rental_uris": {"ios": "https://dc.lft.to/lastmile_qr_scan", "android": "https://dc.lft.to/lastmile_qr_scan"}, "is_reserved": 0, "fusion_lon": 0.0, "fusion_lat": 0.0, "lon": -77.03911783333334, "name": "d3152c187851b4a3deef8a361e84d5ff"}, {"bike_id": "453f60e710a7aa0271f953b6cd24cb13", "type": "electric_scooter", "is_disabled": 0, "lat": 38.911621833333335, "rental_uris": {"ios": "https://dc.lft.to/lastmile_qr_scan", "android": "https://dc.lft.to/lastmile_qr_scan"}, "is_reserved": 0, "fusion_lon": 0.0, "fusion_lat": 0.0, "lon": -77.01623783333334, "name": "453f60e710a7aa0271f953b6cd24cb13"}, {"bike_id": "96a3c6c0c135e3eeb4da81e30a489a96", "type": "electric_scooter", "is_disabled": 0, "lat": 38.900313833333335, "rental_uris": {"ios": "https://dc.lft.to/lastmile_qr_scan", "android": "https://dc.lft.to/lastmile_qr_scan"}, "is_reserved": 0, "fusion_lon": 0.0, "fusion_lat": 0.0, "lon": -76.98838716666667, "name": "96a3c6c0c135e3eeb4da81e30a489a96"}, {"bike_id": "c4ef2c99185d642a776df35b62f3dcc5", "type": "electric_scooter", "is_disabled": 0, "lat": 38.92330066666667, "rental_uris": {"ios": "https://dc.lft.to/lastmile_qr_scan", "android": "https://dc.lft.to/lastmile_qr_scan"}, "is_reserved": 0, "fusion_lon": 0.0, "fusion_lat": 0.0, "lon": -77.053653, "name": "c4ef2c99185d642a776df35b62f3dcc5"}, {"bike_id": "4833f8d5ad3940ecd8c5bd5f85555f54", "type": "electric_scooter", "is_disabled": 0, "lat": 38.94511283333333, "rental_uris": {"ios": "https://dc.lft.to/lastmile_qr_scan", "android": "https://dc.lft.to/lastmile_qr_scan"}, "is_reserved": 0, "fusion_lon": 0.0, "fusion_lat": 0.0, "lon": -77.03369466666666, "name": "4833f8d5ad3940ecd8c5bd5f85555f54"}, {"bike_id": "b4785861d3a1fa0d41274f97e61716df", "type": "electric_scooter", "is_disabled": 0, "lat": 38.94558116666666, "rental_uris": {"ios": "https://dc.lft.to/lastmile_qr_scan", "android": "https://dc.lft.to/lastmile_qr_scan"}, "is_reserved": 0, "fusion_lon": 0.0, "fusion_lat": 0.0, "lon": -77.0712155, "name": "b4785861d3a1fa0d41274f97e61716df"}, {"bike_id": "7a0f03043de5f34349f4467c4695d892", "type": "electric_scooter", "is_disabled": 0, "lat": 38.90857116666667, "rental_uris": {"ios": "https://dc.lft.to/lastmile_qr_scan", "android": "https://dc.lft.to/lastmile_qr_scan"}, "is_reserved": 0, "fusion_lon": 0.0, "fusion_lat": 0.0, "lon": -77.04764466666667, "name": "7a0f03043de5f34349f4467c4695d892"}, {"bike_id": "4e7c1f5b43af60f216e08f024b676f55", "type": "electric_scooter", "is_disabled": 0, "lat": 38.90397033333333, "rental_uris": {"ios": "https://dc.lft.to/lastmile_qr_scan", "android": "https://dc.lft.to/lastmile_qr_scan"}, "is_reserved": 0, "fusion_lon": 0.0, "fusion_lat": 0.0, "lon": -77.03887716666667, "name": "4e7c1f5b43af60f216e08f024b676f55"}, {"bike_id": "687195a56c1d81d7f15723158374838f", "type": "electric_scooter", "is_disabled": 0, "lat": 38.8845145, "rental_uris": {"ios": "https://dc.lft.to/lastmile_qr_scan", "android": "https://dc.lft.to/lastmile_qr_scan"}, "is_reserved": 0, "fusion_lon": 0.0, "fusion_lat": 0.0, "lon": -76.950988, "name": "687195a56c1d81d7f15723158374838f"}, {"bike_id": "3aefbc0060b5ea3b26bba0873c021d8f", "type": "electric_bike", "is_disabled": 0, "lat": 38.85891083333333, "rental_uris": {"ios": "https://dc.lft.to/lastmile_qr_scan", "android": "https://dc.lft.to/lastmile_qr_scan"}, "is_reserved": 0, "fusion_lon": 0.0, "fusion_lat": 0.0, "lon": -77.11861583333334, "name": "3aefbc0060b5ea3b26bba0873c021d8f"}, {"bike_id": "264f54c8869938dd8dca47f93b8fff2e", "type": "electric_scooter", "is_disabled": 0, "lat": 38.906298, "rental_uris": {"ios": "https://dc.lft.to/lastmile_qr_scan", "android": "https://dc.lft.to/lastmile_qr_scan"}, "is_reserved": 0, "fusion_lon": 0.0, "fusion_lat": 0.0, "lon": -77.02461966666667, "name": "264f54c8869938dd8dca47f93b8fff2e"}, {"bike_id": "27cb7c26398395de6ee1c816dc7c7fec", "type": "electric_scooter", "is_disabled": 0, "lat": 38.929589, "rental_uris": {"ios": "https://dc.lft.to/lastmile_qr_scan", "android": "https://dc.lft.to/lastmile_qr_scan"}, "is_reserved": 0, "fusion_lon": 0.0, "fusion_lat": 0.0, "lon": -77.03777583333333, "name": "27cb7c26398395de6ee1c816dc7c7fec"}, {"bike_id": "7c673b2160bed2e1669816c9b352f9a9", "type": "electric_scooter", "is_disabled": 0, "lat": 38.91056533333333, "rental_uris": {"ios": "https://dc.lft.to/lastmile_qr_scan", "android": "https://dc.lft.to/lastmile_qr_scan"}, "is_reserved": 0, "fusion_lon": 0.0, "fusion_lat": 0.0, "lon": -77.03085266666666, "name": "7c673b2160bed2e1669816c9b352f9a9"}, {"bike_id": "ad1ae8bdecfda0c52cf2f04d81ee4d38", "type": "electric_scooter", "is_disabled": 0, "lat": 38.906115166666666, "rental_uris": {"ios": "https://dc.lft.to/lastmile_qr_scan", "android": "https://dc.lft.to/lastmile_qr_scan"}, "is_reserved": 0, "fusion_lon": 0.0, "fusion_lat": 0.0, "lon": -76.99290016666667, "name": "ad1ae8bdecfda0c52cf2f04d81ee4d38"}, {"bike_id": "6c9de594d5c6aa112d4f53a76f72e3f5", "type": "electric_scooter", "is_disabled": 0, "lat": 38.90309716666667, "rental_uris": {"ios": "https://dc.lft.to/lastmile_qr_scan", "android": "https://dc.lft.to/lastmile_qr_scan"}, "is_reserved": 0, "fusion_lon": 0.0, "fusion_lat": 0.0, "lon": -76.97799816666667, "name": "6c9de594d5c6aa112d4f53a76f72e3f5"}, {"bike_id": "f6f2d7cc5f6d43b088a3fdd58447a607", "type": "electric_scooter", "is_disabled": 0, "lat": 38.908613333333335, "rental_uris": {"ios": "https://dc.lft.to/lastmile_qr_scan", "android": "https://dc.lft.to/lastmile_qr_scan"}, "is_reserved": 0, "fusion_lon": 0.0, "fusion_lat": 0.0, "lon": -77.02419233333333, "name": "f6f2d7cc5f6d43b088a3fdd58447a607"}, {"bike_id": "440cdc4cc9f75a1a713e9ecc75bb9787", "type": "electric_scooter", "is_disabled": 0, "lat": 38.91455666666667, "rental_uris": {"ios": "https://dc.lft.to/lastmile_qr_scan", "android": "https://dc.lft.to/lastmile_qr_scan"}, "is_reserved": 0, "fusion_lon": 0.0, "fusion_lat": 0.0, "lon": -77.00209183333334, "name": "440cdc4cc9f75a1a713e9ecc75bb9787"}, {"bike_id": "c7a531453a8215f4e7d54e5fbb3ee0ee", "type": "electric_scooter", "is_disabled": 0, "lat": 38.89111616666667, "rental_uris": {"ios": "https://dc.lft.to/lastmile_qr_scan", "android": "https://dc.lft.to/lastmile_qr_scan"}, "is_reserved": 0, "fusion_lon": 0.0, "fusion_lat": 0.0, "lon": -76.99157266666667, "name": "c7a531453a8215f4e7d54e5fbb3ee0ee"}, {"bike_id": "1ebf916f41c25add4703acdd5c53065a", "type": "electric_scooter", "is_disabled": 0, "lat": 38.899231666666665, "rental_uris": {"ios": "https://dc.lft.to/lastmile_qr_scan", "android": "https://dc.lft.to/lastmile_qr_scan"}, "is_reserved": 0, "fusion_lon": 0.0, "fusion_lat": 0.0, "lon": -77.0536705, "name": "1ebf916f41c25add4703acdd5c53065a"}, {"bike_id": "895afd21e537e58b7e0b657d9b175380", "type": "electric_scooter", "is_disabled": 0, "lat": 38.90098366666667, "rental_uris": {"ios": "https://dc.lft.to/lastmile_qr_scan", "android": "https://dc.lft.to/lastmile_qr_scan"}, "is_reserved": 0, "fusion_lon": 0.0, "fusion_lat": 0.0, "lon": -77.03819983333334, "name": "895afd21e537e58b7e0b657d9b175380"}, {"bike_id": "2cfe2c3fd0d16a829c71961470a85ce1", "type": "electric_scooter", "is_disabled": 0, "lat": 38.9394485, "rental_uris": {"ios": "https://dc.lft.to/lastmile_qr_scan", "android": "https://dc.lft.to/lastmile_qr_scan"}, "is_reserved": 0, "fusion_lon": 0.0, "fusion_lat": 0.0, "lon": -77.07247616666666, "name": "2cfe2c3fd0d16a829c71961470a85ce1"}, {"bike_id": "d4ca2238a842812c5e8a6130c143ec56", "type": "electric_scooter", "is_disabled": 0, "lat": 38.91478983333333, "rental_uris": {"ios": "https://dc.lft.to/lastmile_qr_scan", "android": "https://dc.lft.to/lastmile_qr_scan"}, "is_reserved": 0, "fusion_lon": 0.0, "fusion_lat": 0.0, "lon": -77.00285783333334, "name": "d4ca2238a842812c5e8a6130c143ec56"}, {"bike_id": "5ae8782a011691ad9ab140c12bda4b4b", "type": "electric_scooter", "is_disabled": 0, "lat": 38.88713966666667, "rental_uris": {"ios": "https://dc.lft.to/lastmile_qr_scan", "android": "https://dc.lft.to/lastmile_qr_scan"}, "is_reserved": 0, "fusion_lon": 0.0, "fusion_lat": 0.0, "lon": -77.02205166666667, "name": "5ae8782a011691ad9ab140c12bda4b4b"}, {"bike_id": "cd3487a37aa6421520fecc1a9add6f14", "type": "electric_scooter", "is_disabled": 0, "lat": 38.90378183333333, "rental_uris": {"ios": "https://dc.lft.to/lastmile_qr_scan", "android": "https://dc.lft.to/lastmile_qr_scan"}, "is_reserved": 0, "fusion_lon": 0.0, "fusion_lat": 0.0, "lon": -77.01637416666667, "name": "cd3487a37aa6421520fecc1a9add6f14"}, {"bike_id": "ad7b4c6b01278e4acb8dbfd20c5db20c", "type": "electric_scooter", "is_disabled": 0, "lat": 38.9188565, "rental_uris": {"ios": "https://dc.lft.to/lastmile_qr_scan", "android": "https://dc.lft.to/lastmile_qr_scan"}, "is_reserved": 0, "fusion_lon": 0.0, "fusion_lat": 0.0, "lon": -77.04622066666667, "name": "ad7b4c6b01278e4acb8dbfd20c5db20c"}, {"bike_id": "064cff25258cf6ef9b43b44df2eabbdb", "type": "electric_scooter", "is_disabled": 0, "lat": 38.90719566666667, "rental_uris": {"ios": "https://dc.lft.to/lastmile_qr_scan", "android": "https://dc.lft.to/lastmile_qr_scan"}, "is_reserved": 0, "fusion_lon": 0.0, "fusion_lat": 0.0, "lon": -77.00034366666667, "name": "064cff25258cf6ef9b43b44df2eabbdb"}, {"bike_id": "a2e8ccfd6e6332dff9cdafeddeae232d", "type": "electric_bike", "is_disabled": 0, "lat": 38.92024833333333, "rental_uris": {"ios": "https://dc.lft.to/lastmile_qr_scan", "android": "https://dc.lft.to/lastmile_qr_scan"}, "is_reserved": 0, "fusion_lon": 0.0, "fusion_lat": 0.0, "lon": -77.01804016666667, "name": "a2e8ccfd6e6332dff9cdafeddeae232d"}, {"bike_id": "662423b07592634b43bbf2e7ebdb6204", "type": "electric_scooter", "is_disabled": 0, "lat": 38.922761666666666, "rental_uris": {"ios": "https://dc.lft.to/lastmile_qr_scan", "android": "https://dc.lft.to/lastmile_qr_scan"}, "is_reserved": 0, "fusion_lon": 0.0, "fusion_lat": 0.0, "lon": -77.04463783333334, "name": "662423b07592634b43bbf2e7ebdb6204"}, {"bike_id": "f8fc82fed1f9bb81620e0da5ce1b1e3f", "type": "electric_scooter", "is_disabled": 0, "lat": 38.92463033333333, "rental_uris": {"ios": "https://dc.lft.to/lastmile_qr_scan", "android": "https://dc.lft.to/lastmile_qr_scan"}, "is_reserved": 0, "fusion_lon": 0.0, "fusion_lat": 0.0, "lon": -77.0377975, "name": "f8fc82fed1f9bb81620e0da5ce1b1e3f"}, {"bike_id": "de3df4eb4a11c086131bdb86d05b0806", "type": "electric_bike", "is_disabled": 0, "lat": 38.88241083333333, "rental_uris": {"ios": "https://dc.lft.to/lastmile_qr_scan", "android": "https://dc.lft.to/lastmile_qr_scan"}, "is_reserved": 0, "fusion_lon": 0.0, "fusion_lat": 0.0, "lon": -76.9625915, "name": "de3df4eb4a11c086131bdb86d05b0806"}, {"bike_id": "8445306aa6b84110be2e58bf4973572b", "type": "electric_scooter", "is_disabled": 0, "lat": 38.931935333333335, "rental_uris": {"ios": "https://dc.lft.to/lastmile_qr_scan", "android": "https://dc.lft.to/lastmile_qr_scan"}, "is_reserved": 0, "fusion_lon": 0.0, "fusion_lat": 0.0, "lon": -77.02390716666666, "name": "8445306aa6b84110be2e58bf4973572b"}, {"bike_id": "8a7f165e5c4d20d5b21ae35f83821e8b", "type": "electric_scooter", "is_disabled": 0, "lat": 38.93219116666667, "rental_uris": {"ios": "https://dc.lft.to/lastmile_qr_scan", "android": "https://dc.lft.to/lastmile_qr_scan"}, "is_reserved": 0, "fusion_lon": 0.0, "fusion_lat": 0.0, "lon": -77.03361633333333, "name": "8a7f165e5c4d20d5b21ae35f83821e8b"}, {"bike_id": "15cfa61beed7af0431090c8b197282af", "type": "electric_scooter", "is_disabled": 0, "lat": 38.935484333333335, "rental_uris": {"ios": "https://dc.lft.to/lastmile_qr_scan", "android": "https://dc.lft.to/lastmile_qr_scan"}, "is_reserved": 0, "fusion_lon": 0.0, "fusion_lat": 0.0, "lon": -77.03689333333334, "name": "15cfa61beed7af0431090c8b197282af"}, {"bike_id": "54c2deb1f1b3782e1510677d317233f3", "type": "electric_scooter", "is_disabled": 0, "lat": 38.934592, "rental_uris": {"ios": "https://dc.lft.to/lastmile_qr_scan", "android": "https://dc.lft.to/lastmile_qr_scan"}, "is_reserved": 0, "fusion_lon": 0.0, "fusion_lat": 0.0, "lon": -77.02796266666667, "name": "54c2deb1f1b3782e1510677d317233f3"}, {"bike_id": "0fe974b8c245916475893bbad462b9a0", "type": "electric_scooter", "is_disabled": 0, "lat": 38.90025966666666, "rental_uris": {"ios": "https://dc.lft.to/lastmile_qr_scan", "android": "https://dc.lft.to/lastmile_qr_scan"}, "is_reserved": 0, "fusion_lon": 0.0, "fusion_lat": 0.0, "lon": -76.99855866666667, "name": "0fe974b8c245916475893bbad462b9a0"}, {"bike_id": "7224b006101fe6bed08f63381af4fcdb", "type": "electric_scooter", "is_disabled": 0, "lat": 38.9132415, "rental_uris": {"ios": "https://dc.lft.to/lastmile_qr_scan", "android": "https://dc.lft.to/lastmile_qr_scan"}, "is_reserved": 0, "fusion_lon": 0.0, "fusion_lat": 0.0, "lon": -77.03261583333334, "name": "7224b006101fe6bed08f63381af4fcdb"}, {"bike_id": "3106e1e3003340bac44bdeb24a265f2a", "type": "electric_scooter", "is_disabled": 0, "lat": 38.936789833333336, "rental_uris": {"ios": "https://dc.lft.to/lastmile_qr_scan", "android": "https://dc.lft.to/lastmile_qr_scan"}, "is_reserved": 0, "fusion_lon": 0.0, "fusion_lat": 0.0, "lon": -77.03625183333334, "name": "3106e1e3003340bac44bdeb24a265f2a"}, {"bike_id": "2c9ced105b9f1a04fa35fdc024cf746c", "type": "electric_bike", "is_disabled": 0, "lat": 38.93447233333333, "rental_uris": {"ios": "https://dc.lft.to/lastmile_qr_scan", "android": "https://dc.lft.to/lastmile_qr_scan"}, "is_reserved": 0, "fusion_lon": 0.0, "fusion_lat": 0.0, "lon": -77.041251, "name": "2c9ced105b9f1a04fa35fdc024cf746c"}, {"bike_id": "11655f3d37ab4c90a43b7cfbc1e8bd32", "type": "electric_bike", "is_disabled": 0, "lat": 38.93225533333333, "rental_uris": {"ios": "https://dc.lft.to/lastmile_qr_scan", "android": "https://dc.lft.to/lastmile_qr_scan"}, "is_reserved": 0, "fusion_lon": 0.0, "fusion_lat": 0.0, "lon": -77.18119933333334, "name": "11655f3d37ab4c90a43b7cfbc1e8bd32"}, {"bike_id": "f4583bf4768556ae32722d70817fe2a5", "type": "electric_scooter", "is_disabled": 0, "lat": 38.934135166666664, "rental_uris": {"ios": "https://dc.lft.to/lastmile_qr_scan", "android": "https://dc.lft.to/lastmile_qr_scan"}, "is_reserved": 0, "fusion_lon": 0.0, "fusion_lat": 0.0, "lon": -77.04150933333334, "name": "f4583bf4768556ae32722d70817fe2a5"}, {"bike_id": "64512a33ead1e83bb17bd99b5110dea7", "type": "electric_scooter", "is_disabled": 0, "lat": 38.90676783333333, "rental_uris": {"ios": "https://dc.lft.to/lastmile_qr_scan", "android": "https://dc.lft.to/lastmile_qr_scan"}, "is_reserved": 0, "fusion_lon": 0.0, "fusion_lat": 0.0, "lon": -77.06263516666667, "name": "64512a33ead1e83bb17bd99b5110dea7"}, {"bike_id": "47d2071fced3e4748da8f518b0c6c8a5", "type": "electric_scooter", "is_disabled": 0, "lat": 38.904667833333335, "rental_uris": {"ios": "https://dc.lft.to/lastmile_qr_scan", "android": "https://dc.lft.to/lastmile_qr_scan"}, "is_reserved": 0, "fusion_lon": 0.0, "fusion_lat": 0.0, "lon": -76.97606683333333, "name": "47d2071fced3e4748da8f518b0c6c8a5"}, {"bike_id": "2712d6e866fd4dbfb0156446d4436b39", "type": "electric_scooter", "is_disabled": 0, "lat": 38.9225395, "rental_uris": {"ios": "https://dc.lft.to/lastmile_qr_scan", "android": "https://dc.lft.to/lastmile_qr_scan"}, "is_reserved": 0, "fusion_lon": 0.0, "fusion_lat": 0.0, "lon": -77.04205383333333, "name": "2712d6e866fd4dbfb0156446d4436b39"}, {"bike_id": "12f33a9b57c2910a170ef1c84f0126db", "type": "electric_scooter", "is_disabled": 0, "lat": 38.913649666666664, "rental_uris": {"ios": "https://dc.lft.to/lastmile_qr_scan", "android": "https://dc.lft.to/lastmile_qr_scan"}, "is_reserved": 0, "fusion_lon": 0.0, "fusion_lat": 0.0, "lon": -77.07031733333334, "name": "12f33a9b57c2910a170ef1c84f0126db"}, {"bike_id": "52016f60403111750804456069b09d03", "type": "electric_bike", "is_disabled": 0, "lat": 39.0373975, "rental_uris": {"ios": "https://dc.lft.to/lastmile_qr_scan", "android": "https://dc.lft.to/lastmile_qr_scan"}, "is_reserved": 0, "fusion_lon": 0.0, "fusion_lat": 0.0, "lon": -77.05481183333333, "name": "52016f60403111750804456069b09d03"}, {"bike_id": "81bae833fb1d4aa7802ee168507ad0f4", "type": "electric_scooter", "is_disabled": 0, "lat": 38.941189666666666, "rental_uris": {"ios": "https://dc.lft.to/lastmile_qr_scan", "android": "https://dc.lft.to/lastmile_qr_scan"}, "is_reserved": 0, "fusion_lon": 0.0, "fusion_lat": 0.0, "lon": -77.01531966666667, "name": "81bae833fb1d4aa7802ee168507ad0f4"}, {"bike_id": "ae5412236d646173b61b2bf7200f9a86", "type": "electric_scooter", "is_disabled": 0, "lat": 38.9138485, "rental_uris": {"ios": "https://dc.lft.to/lastmile_qr_scan", "android": "https://dc.lft.to/lastmile_qr_scan"}, "is_reserved": 0, "fusion_lon": 0.0, "fusion_lat": 0.0, "lon": -77.04601516666666, "name": "ae5412236d646173b61b2bf7200f9a86"}, {"bike_id": "72bd99d357b96407960bf8fa0f1144bb", "type": "electric_scooter", "is_disabled": 0, "lat": 38.903984333333334, "rental_uris": {"ios": "https://dc.lft.to/lastmile_qr_scan", "android": "https://dc.lft.to/lastmile_qr_scan"}, "is_reserved": 0, "fusion_lon": 0.0, "fusion_lat": 0.0, "lon": -77.0057665, "name": "72bd99d357b96407960bf8fa0f1144bb"}, {"bike_id": "9948a953ccc67d9f4a2567b2cfe19b5b", "type": "electric_scooter", "is_disabled": 0, "lat": 38.92874466666667, "rental_uris": {"ios": "https://dc.lft.to/lastmile_qr_scan", "android": "https://dc.lft.to/lastmile_qr_scan"}, "is_reserved": 0, "fusion_lon": 0.0, "fusion_lat": 0.0, "lon": -77.01368133333334, "name": "9948a953ccc67d9f4a2567b2cfe19b5b"}, {"bike_id": "cacb5baadf433435f734ffd22503be41", "type": "electric_bike", "is_disabled": 0, "lat": 39.054946666666666, "rental_uris": {"ios": "https://dc.lft.to/lastmile_qr_scan", "android": "https://dc.lft.to/lastmile_qr_scan"}, "is_reserved": 0, "fusion_lon": 0.0, "fusion_lat": 0.0, "lon": -77.11786216666667, "name": "cacb5baadf433435f734ffd22503be41"}, {"bike_id": "a5768a43add2f7dfc95ea2861ee09cf3", "type": "electric_bike", "is_disabled": 0, "lat": 38.908281, "rental_uris": {"ios": "https://dc.lft.to/lastmile_qr_scan", "android": "https://dc.lft.to/lastmile_qr_scan"}, "is_reserved": 0, "fusion_lon": 0.0, "fusion_lat": 0.0, "lon": -76.94156083333333, "name": "a5768a43add2f7dfc95ea2861ee09cf3"}, {"bike_id": "00ff687aa8a66126987c20b09e67c9fa", "type": "electric_scooter", "is_disabled": 0, "lat": 38.919955, "rental_uris": {"ios": "https://dc.lft.to/lastmile_qr_scan", "android": "https://dc.lft.to/lastmile_qr_scan"}, "is_reserved": 0, "fusion_lon": 0.0, "fusion_lat": 0.0, "lon": -77.04172816666667, "name": "00ff687aa8a66126987c20b09e67c9fa"}, {"bike_id": "fddb663c236396fb7c6e7883e1545a81", "type": "electric_scooter", "is_disabled": 0, "lat": 38.90660733333333, "rental_uris": {"ios": "https://dc.lft.to/lastmile_qr_scan", "android": "https://dc.lft.to/lastmile_qr_scan"}, "is_reserved": 0, "fusion_lon": 0.0, "fusion_lat": 0.0, "lon": -77.00898666666667, "name": "fddb663c236396fb7c6e7883e1545a81"}, {"bike_id": "fe2b1b4f0bd2f38ee27293662da28610", "type": "electric_scooter", "is_disabled": 0, "lat": 38.90111866666667, "rental_uris": {"ios": "https://dc.lft.to/lastmile_qr_scan", "android": "https://dc.lft.to/lastmile_qr_scan"}, "is_reserved": 0, "fusion_lon": 0.0, "fusion_lat": 0.0, "lon": -77.04984466666667, "name": "fe2b1b4f0bd2f38ee27293662da28610"}, {"bike_id": "2bead328ee099cda957766855df85ce2", "type": "electric_scooter", "is_disabled": 0, "lat": 38.862367666666664, "rental_uris": {"ios": "https://dc.lft.to/lastmile_qr_scan", "android": "https://dc.lft.to/lastmile_qr_scan"}, "is_reserved": 0, "fusion_lon": 0.0, "fusion_lat": 0.0, "lon": -76.99515666666667, "name": "2bead328ee099cda957766855df85ce2"}, {"bike_id": "9f3b46cf4806df8c0e662f892b7078a2", "type": "electric_bike", "is_disabled": 0, "lat": 38.92468433333333, "rental_uris": {"ios": "https://dc.lft.to/lastmile_qr_scan", "android": "https://dc.lft.to/lastmile_qr_scan"}, "is_reserved": 0, "fusion_lon": 0.0, "fusion_lat": 0.0, "lon": -77.03760316666667, "name": "9f3b46cf4806df8c0e662f892b7078a2"}, {"bike_id": "bfe9cd60c22b83c4790a442dcfa3534a", "type": "electric_scooter", "is_disabled": 0, "lat": 38.9048195, "rental_uris": {"ios": "https://dc.lft.to/lastmile_qr_scan", "android": "https://dc.lft.to/lastmile_qr_scan"}, "is_reserved": 0, "fusion_lon": 0.0, "fusion_lat": 0.0, "lon": -77.03562183333334, "name": "bfe9cd60c22b83c4790a442dcfa3534a"}, {"bike_id": "b710919540866a9ca4da490a5d9ebcd6", "type": "electric_scooter", "is_disabled": 0, "lat": 38.893207, "rental_uris": {"ios": "https://dc.lft.to/lastmile_qr_scan", "android": "https://dc.lft.to/lastmile_qr_scan"}, "is_reserved": 0, "fusion_lon": 0.0, "fusion_lat": 0.0, "lon": -77.048705, "name": "b710919540866a9ca4da490a5d9ebcd6"}, {"bike_id": "cc38fa8bf7a644fe0ff5e7c22c5d6baa", "type": "electric_scooter", "is_disabled": 0, "lat": 38.898578, "rental_uris": {"ios": "https://dc.lft.to/lastmile_qr_scan", "android": "https://dc.lft.to/lastmile_qr_scan"}, "is_reserved": 0, "fusion_lon": 0.0, "fusion_lat": 0.0, "lon": -77.04046966666667, "name": "cc38fa8bf7a644fe0ff5e7c22c5d6baa"}, {"bike_id": "56d34fedeb7d017ee2a0ee8f71c43a4e", "type": "electric_bike", "is_disabled": 0, "lat": 38.799816, "rental_uris": {"ios": "https://dc.lft.to/lastmile_qr_scan", "android": "https://dc.lft.to/lastmile_qr_scan"}, "is_reserved": 0, "fusion_lon": 0.0, "fusion_lat": 0.0, "lon": -77.12973216666667, "name": "56d34fedeb7d017ee2a0ee8f71c43a4e"}, {"bike_id": "40f2fc23a786c551492d3cd66ddcd944", "type": "electric_scooter", "is_disabled": 0, "lat": 38.91704333333333, "rental_uris": {"ios": "https://dc.lft.to/lastmile_qr_scan", "android": "https://dc.lft.to/lastmile_qr_scan"}, "is_reserved": 0, "fusion_lon": 0.0, "fusion_lat": 0.0, "lon": -77.02464683333334, "name": "40f2fc23a786c551492d3cd66ddcd944"}, {"bike_id": "fda0194b0b8592e5a0e5b943b331e0b3", "type": "electric_scooter", "is_disabled": 0, "lat": 38.91673566666667, "rental_uris": {"ios": "https://dc.lft.to/lastmile_qr_scan", "android": "https://dc.lft.to/lastmile_qr_scan"}, "is_reserved": 0, "fusion_lon": 0.0, "fusion_lat": 0.0, "lon": -77.03458166666667, "name": "fda0194b0b8592e5a0e5b943b331e0b3"}, {"bike_id": "c333b4c4957172a5c6128b31af327563", "type": "electric_scooter", "is_disabled": 0, "lat": 38.880272833333336, "rental_uris": {"ios": "https://dc.lft.to/lastmile_qr_scan", "android": "https://dc.lft.to/lastmile_qr_scan"}, "is_reserved": 0, "fusion_lon": 0.0, "fusion_lat": 0.0, "lon": -77.02511433333333, "name": "c333b4c4957172a5c6128b31af327563"}, {"bike_id": "339858442fb01f5073f28111b1eaf85c", "type": "electric_scooter", "is_disabled": 0, "lat": 38.86374966666666, "rental_uris": {"ios": "https://dc.lft.to/lastmile_qr_scan", "android": "https://dc.lft.to/lastmile_qr_scan"}, "is_reserved": 0, "fusion_lon": 0.0, "fusion_lat": 0.0, "lon": -76.9906055, "name": "339858442fb01f5073f28111b1eaf85c"}, {"bike_id": "d04ebe6d7a73f5eb724c9fbc6874bced", "type": "electric_scooter", "is_disabled": 0, "lat": 38.9116905, "rental_uris": {"ios": "https://dc.lft.to/lastmile_qr_scan", "android": "https://dc.lft.to/lastmile_qr_scan"}, "is_reserved": 0, "fusion_lon": 0.0, "fusion_lat": 0.0, "lon": -77.0684875, "name": "d04ebe6d7a73f5eb724c9fbc6874bced"}, {"bike_id": "880a686b3b88c8fa61008fb25a76a6b4", "type": "electric_scooter", "is_disabled": 0, "lat": 38.90847816666667, "rental_uris": {"ios": "https://dc.lft.to/lastmile_qr_scan", "android": "https://dc.lft.to/lastmile_qr_scan"}, "is_reserved": 0, "fusion_lon": 0.0, "fusion_lat": 0.0, "lon": -76.99796066666667, "name": "880a686b3b88c8fa61008fb25a76a6b4"}, {"bike_id": "3fe20d3b3c35bc148d6aebe9d7b5ff4d", "type": "electric_scooter", "is_disabled": 0, "lat": 38.883753, "rental_uris": {"ios": "https://dc.lft.to/lastmile_qr_scan", "android": "https://dc.lft.to/lastmile_qr_scan"}, "is_reserved": 0, "fusion_lon": 0.0, "fusion_lat": 0.0, "lon": -77.02623183333333, "name": "3fe20d3b3c35bc148d6aebe9d7b5ff4d"}, {"bike_id": "91f21be7788a05ea7fdfa620be10e2ca", "type": "electric_scooter", "is_disabled": 0, "lat": 38.86678933333334, "rental_uris": {"ios": "https://dc.lft.to/lastmile_qr_scan", "android": "https://dc.lft.to/lastmile_qr_scan"}, "is_reserved": 0, "fusion_lon": 0.0, "fusion_lat": 0.0, "lon": -76.9855195, "name": "91f21be7788a05ea7fdfa620be10e2ca"}, {"bike_id": "a4c870bbc3cf497171e4475635e5ad1a", "type": "electric_scooter", "is_disabled": 0, "lat": 38.920195, "rental_uris": {"ios": "https://dc.lft.to/lastmile_qr_scan", "android": "https://dc.lft.to/lastmile_qr_scan"}, "is_reserved": 0, "fusion_lon": 0.0, "fusion_lat": 0.0, "lon": -77.03121366666667, "name": "a4c870bbc3cf497171e4475635e5ad1a"}, {"bike_id": "5faf96cf443f0a2cb82be74dadf3b7b0", "type": "electric_scooter", "is_disabled": 0, "lat": 38.91917316666667, "rental_uris": {"ios": "https://dc.lft.to/lastmile_qr_scan", "android": "https://dc.lft.to/lastmile_qr_scan"}, "is_reserved": 0, "fusion_lon": 0.0, "fusion_lat": 0.0, "lon": -77.04243616666666, "name": "5faf96cf443f0a2cb82be74dadf3b7b0"}, {"bike_id": "6982af4d9700527110ec34c0f9f9e0b5", "type": "electric_scooter", "is_disabled": 0, "lat": 38.9167945, "rental_uris": {"ios": "https://dc.lft.to/lastmile_qr_scan", "android": "https://dc.lft.to/lastmile_qr_scan"}, "is_reserved": 0, "fusion_lon": 0.0, "fusion_lat": 0.0, "lon": -77.02800616666667, "name": "6982af4d9700527110ec34c0f9f9e0b5"}, {"bike_id": "226a9668451066a0f3a9c2b444748c5d", "type": "electric_scooter", "is_disabled": 0, "lat": 38.8641755, "rental_uris": {"ios": "https://dc.lft.to/lastmile_qr_scan", "android": "https://dc.lft.to/lastmile_qr_scan"}, "is_reserved": 0, "fusion_lon": 0.0, "fusion_lat": 0.0, "lon": -76.98050366666666, "name": "226a9668451066a0f3a9c2b444748c5d"}, {"bike_id": "0f3da75d8ccfe3eab889409d887479c7", "type": "electric_scooter", "is_disabled": 0, "lat": 38.902785, "rental_uris": {"ios": "https://dc.lft.to/lastmile_qr_scan", "android": "https://dc.lft.to/lastmile_qr_scan"}, "is_reserved": 0, "fusion_lon": 0.0, "fusion_lat": 0.0, "lon": -77.03922866666667, "name": "0f3da75d8ccfe3eab889409d887479c7"}, {"bike_id": "8a298632fd49f6cbb5a251ce317d3fe5", "type": "electric_scooter", "is_disabled": 0, "lat": 38.9001335, "rental_uris": {"ios": "https://dc.lft.to/lastmile_qr_scan", "android": "https://dc.lft.to/lastmile_qr_scan"}, "is_reserved": 0, "fusion_lon": 0.0, "fusion_lat": 0.0, "lon": -77.006858, "name": "8a298632fd49f6cbb5a251ce317d3fe5"}, {"bike_id": "3faeb37924a6df7a29e34087b5da7f9e", "type": "electric_scooter", "is_disabled": 0, "lat": 38.942912, "rental_uris": {"ios": "https://dc.lft.to/lastmile_qr_scan", "android": "https://dc.lft.to/lastmile_qr_scan"}, "is_reserved": 0, "fusion_lon": 0.0, "fusion_lat": 0.0, "lon": -77.0048915, "name": "3faeb37924a6df7a29e34087b5da7f9e"}, {"bike_id": "5f886b881c6f4ad4229c25de9b5df7e9", "type": "electric_scooter", "is_disabled": 0, "lat": 38.873365166666666, "rental_uris": {"ios": "https://dc.lft.to/lastmile_qr_scan", "android": "https://dc.lft.to/lastmile_qr_scan"}, "is_reserved": 0, "fusion_lon": 0.0, "fusion_lat": 0.0, "lon": -77.000622, "name": "5f886b881c6f4ad4229c25de9b5df7e9"}, {"bike_id": "9043ab92e7a6b4c206b98520443d9dad", "type": "electric_scooter", "is_disabled": 0, "lat": 38.910101, "rental_uris": {"ios": "https://dc.lft.to/lastmile_qr_scan", "android": "https://dc.lft.to/lastmile_qr_scan"}, "is_reserved": 0, "fusion_lon": 0.0, "fusion_lat": 0.0, "lon": -77.05270433333334, "name": "9043ab92e7a6b4c206b98520443d9dad"}, {"bike_id": "ba90fd442d293ce4dc64e74f9cd6da03", "type": "electric_scooter", "is_disabled": 0, "lat": 38.89321866666667, "rental_uris": {"ios": "https://dc.lft.to/lastmile_qr_scan", "android": "https://dc.lft.to/lastmile_qr_scan"}, "is_reserved": 0, "fusion_lon": 0.0, "fusion_lat": 0.0, "lon": -77.04877133333333, "name": "ba90fd442d293ce4dc64e74f9cd6da03"},