{"data": {"bikes": [{"type": "electric_scooter", "fusion_lon": 0.0, "bike_id": "80407f6ea13a2d98b64122a5e4c62a37", "is_disabled": 0, "lat": 38.8778575, "rental_uris": {"ios": "https://dc.lft.to/lastmile_qr_scan", "android": "https://dc.lft.to/lastmile_qr_scan"}, "is_reserved": 0, "lon": -76.99410716666667, "fusion_lat": 0.0, "name": "80407f6ea13a2d98b64122a5e4c62a37"}, {"type": "electric_scooter", "fusion_lon": 0.0, "bike_id": "f3eb34a649279183021e57e12ef3a890", "is_disabled": 0, "lat": 38.912681166666665, "rental_uris": {"ios": "https://dc.lft.to/lastmile_qr_scan", "android": "https://dc.lft.to/lastmile_qr_scan"}, "is_reserved": 0, "lon": -77.037966, "fusion_lat": 0.0, "name": "f3eb34a649279183021e57e12ef3a890"}, {"type": "electric_bike", "fusion_lon": 0.0, "bike_id": "2947be86e3b34d8c3003fad1d156fc07", "is_disabled": 0, "lat": 38.85616666666667, "rental_uris": {"ios": "https://dc.lft.to/lastmile_qr_scan", "android": "https://dc.lft.to/lastmile_qr_scan"}, "is_reserved": 0, "lon": -77.11172433333333, "fusion_lat": 0.0, "name": "2947be86e3b34d8c3003fad1d156fc07"}, {"type": "electric_scooter", "fusion_lon": 0.0, "bike_id": "fbd900b12d83a9f2ab5e391ef86fd141", "is_disabled": 0, "lat": 38.908500833333335, "rental_uris": {"ios": "https://dc.lft.to/lastmile_qr_scan", "android": "https://dc.lft.to/lastmile_qr_scan"}, "is_reserved": 0, "lon": -76.99687266666666, "fusion_lat": 0.0, "name": "fbd900b12d83a9f2ab5e391ef86fd141"}, {"type": "electric_scooter", "fusion_lon": 0.0, "bike_id": "d4df8ce0f50272e66d575a11dd95bb13", "is_disabled": 0, "lat": 38.905231, "rental_uris": {"ios": "https://dc.lft.to/lastmile_qr_scan", "android": "https://dc.lft.to/lastmile_qr_scan"}, "is_reserved": 0, "lon": -77.029353, "fusion_lat": 0.0, "name": "d4df8ce0f50272e66d575a11dd95bb13"}, {"type": "electric_bike", "fusion_lon": 0.0, "bike_id": "c30c172f02c71b588639a4f7b2b8b0fc", "is_disabled": 0, "lat": 38.86231883333333, "rental_uris": {"ios": "https://dc.lft.to/lastmile_qr_scan", "android": "https://dc.lft.to/lastmile_qr_scan"}, "is_reserved": 0, "lon": -76.99586933333333, "fusion_lat": 0.0, "name": "c30c172f02c71b588639a4f7b2b8b0fc"}, {"type": "electric_scooter", "fusion_lon": 0.0, "bike_id": "c55f136a51fd08d4c748068c7f9ef17f", "is_disabled": 0, "lat": 38.91707066666667, "rental_uris": {"ios": "https://dc.lft.to/lastmile_qr_scan", "android": "https://dc.lft.to/lastmile_qr_scan"}, "is_reserved": 0, "lon": -77.034737, "fusion_lat": 0.0, "name": "c55f136a51fd08d4c748068c7f9ef17f"}, {"type": "electric_scooter", "fusion_lon": 0.0, "bike_id": "b4176a23317be23cabce5a0a8801aef8", "is_disabled": 0, "lat": 38.9002955, "rental_uris": {"ios": "https://dc.lft.to/lastmile_qr_scan", "android": "https://dc.lft.to/lastmile_qr_scan"}, "is_reserved": 0, "lon": -77.0240035, "fusion_lat": 0.0, "name": "b4176a23317be23cabce5a0a8801aef8"}, {"type": "electric_scooter", "fusion_lon": 0.0, "bike_id": "baaf2d870467b2fa5df755c9d9470ac0", "is_disabled": 0, "lat": 38.91768166666667, "rental_uris": {"ios": "https://dc.lft.to/lastmile_qr_scan", "android": "https://dc.lft.to/lastmile_qr_scan"}, "is_reserved": 0, "lon": -77.023422, "fusion_lat": 0.0, "name": "baaf2d870467b2fa5df755c9d9470ac0"}, {"type": "electric_scooter", "fusion_lon": 0.0, "bike_id": "21dd138be0cfdce4538ec498823bbd32", "is_disabled": 0, "lat": 38.922485333333334, "rental_uris": {"ios": "https://dc.lft.to/lastmile_qr_scan", "android": "https://dc.lft.to/lastmile_qr_scan"}, "is_reserved": 0, "lon": -77.07346316666667, "fusion_lat": 0.0, "name": "21dd138be0cfdce4538ec498823bbd32"}, {"type": "electric_scooter", "fusion_lon": 0.0, "bike_id": "697716d3aaa2b327ff8322611bbbf2ee", "is_disabled": 0, "lat": 38.87671783333333, "rental_uris": {"ios": "https://dc.lft.to/lastmile_qr_scan", "android": "https://dc.lft.to/lastmile_qr_scan"}, "is_reserved": 0, "lon": -77.00936116666666, "fusion_lat": 0.0, "name": "697716d3aaa2b327ff8322611bbbf2ee"}, {"type": "electric_scooter", "fusion_lon": 0.0, "bike_id": "de13dfa0efe487cfd2299e6a61695ebd", "is_disabled": 0, "lat": 38.9171955, "rental_uris": {"ios": "https://dc.lft.to/lastmile_qr_scan", "android": "https://dc.lft.to/lastmile_qr_scan"}, "is_reserved": 0, "lon": -77.02403933333333, "fusion_lat": 0.0, "name": "de13dfa0efe487cfd2299e6a61695ebd"}, {"type": "electric_scooter", "fusion_lon": 0.0, "bike_id": "b69382d1e77de2e50178b12ba55874ba", "is_disabled": 0, "lat": 38.919601666666665, "rental_uris": {"ios": "https://dc.lft.to/lastmile_qr_scan", "android": "https://dc.lft.to/lastmile_qr_scan"}, "is_reserved": 0, "lon": -77.02378416666667, "fusion_lat": 0.0, "name": "b69382d1e77de2e50178b12ba55874ba"}, {"type": "electric_bike", "fusion_lon": 0.0, "bike_id": "9936411e88767228e991abc7464a3965", "is_disabled": 0, "lat": 38.922119333333335, "rental_uris": {"ios": "https://dc.lft.to/lastmile_qr_scan", "android": "https://dc.lft.to/lastmile_qr_scan"}, "is_reserved": 0, "lon": -77.081943, "fusion_lat": 0.0, "name": "9936411e88767228e991abc7464a3965"}, {"type": "electric_scooter", "fusion_lon": 0.0, "bike_id": "f24900a8d2ff649d805b4f6e400467c6", "is_disabled": 0, "lat": 38.89224133333333, "rental_uris": {"ios": "https://dc.lft.to/lastmile_qr_scan", "android": "https://dc.lft.to/lastmile_qr_scan"}, "is_reserved": 0, "lon": -77.04470733333333, "fusion_lat": 0.0, "name": "f24900a8d2ff649d805b4f6e400467c6"}, {"type": "electric_scooter", "fusion_lon": 0.0, "bike_id": "28eaefbca632716b09e8d371d7c8de86", "is_disabled": 0, "lat": 38.9206595, "rental_uris": {"ios": "https://dc.lft.to/lastmile_qr_scan", "android": "https://dc.lft.to/lastmile_qr_scan"}, "is_reserved": 0, "lon": -77.04251683333334, "fusion_lat": 0.0, "name": "28eaefbca632716b09e8d371d7c8de86"}, {"type": "electric_scooter", "fusion_lon": 0.0, "bike_id": "3873880759526d2f1a10baa2b2a1160c", "is_disabled": 0, "lat": 38.899804, "rental_uris": {"ios": "https://dc.lft.to/lastmile_qr_scan", "android": "https://dc.lft.to/lastmile_qr_scan"}, "is_reserved": 0, "lon": -77.01590133333333, "fusion_lat": 0.0, "name": "3873880759526d2f1a10baa2b2a1160c"}, {"type": "electric_scooter", "fusion_lon": 0.0, "bike_id": "ce96a099207bfb773e9fd8021ada5c79", "is_disabled": 0, "lat": 38.9238495, "rental_uris": {"ios": "https://dc.lft.to/lastmile_qr_scan", "android": "https://dc.lft.to/lastmile_qr_scan"}, "is_reserved": 0, "lon": -77.0366175, "fusion_lat": 0.0, "name": "ce96a099207bfb773e9fd8021ada5c79"}, {"type": "electric_bike", "fusion_lon": 0.0, "bike_id": "1b20929444dbcfac35655c3479cbad38", "is_disabled": 0, "lat": 38.96690133333333, "rental_uris": {"ios": "https://dc.lft.to/lastmile_qr_scan", "android": "https://dc.lft.to/lastmile_qr_scan"}, "is_reserved": 0, "lon": -77.02280883333333, "fusion_lat": 0.0, "name": "1b20929444dbcfac35655c3479cbad38"}, {"type": "electric_bike", "fusion_lon": 0.0, "bike_id": "089d59e95128fce912655c34e8e89227", "is_disabled": 0, "lat": 38.94037466666666, "rental_uris": {"ios": "https://dc.lft.to/lastmile_qr_scan", "android": "https://dc.lft.to/lastmile_qr_scan"}, "is_reserved": 0, "lon": -76.99474933333333, "fusion_lat": 0.0, "name": "089d59e95128fce912655c34e8e89227"}, {"type": "electric_scooter", "fusion_lon": 0.0, "bike_id": "255ef0240a24eeab326d5f9e91c8d06b", "is_disabled": 0, "lat": 38.91939716666667, "rental_uris": {"ios": "https://dc.lft.to/lastmile_qr_scan", "android": "https://dc.lft.to/lastmile_qr_scan"}, "is_reserved": 0, "lon": -77.04890666666667, "fusion_lat": 0.0, "name": "255ef0240a24eeab326d5f9e91c8d06b"}, {"type": "electric_scooter", "fusion_lon": 0.0, "bike_id": "ec6e51aeed1a512ca52eaf9a997b8cb9", "is_disabled": 0, "lat": 38.925693, "rental_uris": {"ios": "https://dc.lft.to/lastmile_qr_scan", "android": "https://dc.lft.to/lastmile_qr_scan"}, "is_reserved": 0, "lon": -77.07885733333333, "fusion_lat": 0.0, "name": "ec6e51aeed1a512ca52eaf9a997b8cb9"}, {"type": "electric_scooter", "fusion_lon": 0.0, "bike_id": "7c0233bb53e449dd61f265c52c4ab55f", "is_disabled": 0, "lat": 38.91938366666667, "rental_uris": {"ios": "https://dc.lft.to/lastmile_qr_scan", "android": "https://dc.lft.to/lastmile_qr_scan"}, "is_reserved": 0, "lon": -77.02473033333334, "fusion_lat": 0.0, "name": "7c0233bb53e449dd61f265c52c4ab55f"}, {"type": "electric_scooter", "fusion_lon": 0.0, "bike_id": "50429fb34627bff6dccf8af8db3b3149", "is_disabled": 0, "lat": 38.932992166666665, "rental_uris": {"ios": "https://dc.lft.to/lastmile_qr_scan", "android": "https://dc.lft.to/lastmile_qr_scan"}, "is_reserved": 0, "lon": -77.07240716666666, "fusion_lat": 0.0, "name": "50429fb34627bff6dccf8af8db3b3149"}, {"type": "electric_scooter", "fusion_lon": 0.0, "bike_id": "d42fc08055a44769761f3ceb726e325f", "is_disabled": 0, "lat": 38.92037766666667, "rental_uris": {"ios": "https://dc.lft.to/lastmile_qr_scan", "android": "https://dc.lft.to/lastmile_qr_scan"}, "is_reserved": 0, "lon": -77.043912, "fusion_lat": 0.0, "name": "d42fc08055a44769761f3ceb726e325f"}, {"type": "electric_scooter", "fusion_lon": 0.0, "bike_id": "190d54c13ac290e0f85089f34ede0f6e", "is_disabled": 0, "lat": 38.89224016666667, "rental_uris": {"ios": "https://dc.lft.to/lastmile_qr_scan", "android": "https://dc.lft.to/lastmile_qr_scan"}, "is_reserved": 0, "lon": -77.04807066666666, "fusion_lat": 0.0, "name": "190d54c13ac290e0f85089f34ede0f6e"}, {"type": "electric_scooter", "fusion_lon": 0.0, "bike_id": "a02e7a4ccc619679d5717311b3d8879b", "is_disabled": 0, "lat": 38.923965833333334, "rental_uris": {"ios": "https://dc.lft.to/lastmile_qr_scan", "android": "https://dc.lft.to/lastmile_qr_scan"}, "is_reserved": 0, "lon": -77.02484833333334, "fusion_lat": 0.0, "name": "a02e7a4ccc619679d5717311b3d8879b"}, {"type": "electric_bike", "fusion_lon": 0.0, "bike_id": "ba46ff9b3559fedd2e7838eead7c8503", "is_disabled": 0, "lat": 38.82298016666667, "rental_uris": {"ios": "https://dc.lft.to/lastmile_qr_scan", "android": "https://dc.lft.to/lastmile_qr_scan"}, "is_reserved": 0, "lon": -77.0814355, "fusion_lat": 0.0, "name": "ba46ff9b3559fedd2e7838eead7c8503"}, {"type": "electric_scooter", "fusion_lon": 0.0, "bike_id": "d278cf5077bc0259ad4faca0ed07c095", "is_disabled": 0, "lat": 38.89947216666667, "rental_uris": {"ios": "https://dc.lft.to/lastmile_qr_scan", "android": "https://dc.lft.to/lastmile_qr_scan"}, "is_reserved": 0, "lon": -77.0449775, "fusion_lat": 0.0, "name": "d278cf5077bc0259ad4faca0ed07c095"}, {"type": "electric_scooter", "fusion_lon": 0.0, "bike_id": "99f1e555edf6313a82b63d473606dc98", "is_disabled": 0, "lat": 38.90411616666667, "rental_uris": {"ios": "https://dc.lft.to/lastmile_qr_scan", "android": "https://dc.lft.to/lastmile_qr_scan"}, "is_reserved": 0, "lon": -76.97329833333333, "fusion_lat": 0.0, "name": "99f1e555edf6313a82b63d473606dc98"}, {"type": "electric_scooter", "fusion_lon": 0.0, "bike_id": "3f5cd23522a26f6ca0e25b9ebdd238c6", "is_disabled": 0, "lat": 38.9042705, "rental_uris": {"ios": "https://dc.lft.to/lastmile_qr_scan", "android": "https://dc.lft.to/lastmile_qr_scan"}, "is_reserved": 0, "lon": -77.0343835, "fusion_lat": 0.0, "name": "3f5cd23522a26f6ca0e25b9ebdd238c6"}, {"type": "electric_scooter", "fusion_lon": 0.0, "bike_id": "7cabae4e2a3d5ffc7aef73ae37fd7378", "is_disabled": 0, "lat": 38.883429, "rental_uris": {"ios": "https://dc.lft.to/lastmile_qr_scan", "android": "https://dc.lft.to/lastmile_qr_scan"}, "is_reserved": 0, "lon": -76.9350605, "fusion_lat": 0.0, "name": "7cabae4e2a3d5ffc7aef73ae37fd7378"}, {"type": "electric_scooter", "fusion_lon": 0.0, "bike_id": "ed99735dff409e3046e9f9b11bb9cb06", "is_disabled": 0, "lat": 38.9013445, "rental_uris": {"ios": "https://dc.lft.to/lastmile_qr_scan", "android": "https://dc.lft.to/lastmile_qr_scan"}, "is_reserved": 0, "lon": -77.04423933333334, "fusion_lat": 0.0, "name": "ed99735dff409e3046e9f9b11bb9cb06"}, {"type": "electric_scooter", "fusion_lon": 0.0, "bike_id": "ba3c71e29f6d5b6a084303f6c8cb92a9", "is_disabled": 0, "lat": 38.918934166666666, "rental_uris": {"ios": "https://dc.lft.to/lastmile_qr_scan", "android": "https://dc.lft.to/lastmile_qr_scan"}, "is_reserved": 0, "lon": -77.0382285, "fusion_lat": 0.0, "name": "ba3c71e29f6d5b6a084303f6c8cb92a9"}, {"type": "electric_scooter", "fusion_lon": 0.0, "bike_id": "ae8aa483467ac2a3822f976e8d861e88", "is_disabled": 0, "lat": 38.88408, "rental_uris": {"ios": "https://dc.lft.to/lastmile_qr_scan", "android": "https://dc.lft.to/lastmile_qr_scan"}, "is_reserved": 0, "lon": -77.00446183333334, "fusion_lat": 0.0, "name": "ae8aa483467ac2a3822f976e8d861e88"}, {"type": "electric_scooter", "fusion_lon": 0.0, "bike_id": "e19ce0ed2c6e14cc6d8a6f4b28e793a8", "is_disabled": 0, "lat": 38.92083733333333, "rental_uris": {"ios": "https://dc.lft.to/lastmile_qr_scan", "android": "https://dc.lft.to/lastmile_qr_scan"}, "is_reserved": 0, "lon": -77.0252165, "fusion_lat": 0.0, "name": "e19ce0ed2c6e14cc6d8a6f4b28e793a8"}, {"type": "electric_scooter", "fusion_lon": 0.0, "bike_id": "44b86a45787dc9c26bd6c32ca9709a5e", "is_disabled": 0, "lat": 38.89230383333334, "rental_uris": {"ios": "https://dc.lft.to/lastmile_qr_scan", "android": "https://dc.lft.to/lastmile_qr_scan"}, "is_reserved": 0, "lon": -77.05003033333334, "fusion_lat": 0.0, "name": "44b86a45787dc9c26bd6c32ca9709a5e"}, {"type": "electric_scooter", "fusion_lon": 0.0, "bike_id": "c6d5cc93ecf8980bbc6d062fb1b58387", "is_disabled": 0, "lat": 38.922871, "rental_uris": {"ios": "https://dc.lft.to/lastmile_qr_scan", "android": "https://dc.lft.to/lastmile_qr_scan"}, "is_reserved": 0, "lon": -77.03660233333333, "fusion_lat": 0.0, "name": "c6d5cc93ecf8980bbc6d062fb1b58387"}, {"type": "electric_scooter", "fusion_lon": 0.0, "bike_id": "a771e9195a699a904a5554bd19954531", "is_disabled": 0, "lat": 38.90559533333333, "rental_uris": {"ios": "https://dc.lft.to/lastmile_qr_scan", "android": "https://dc.lft.to/lastmile_qr_scan"}, "is_reserved": 0, "lon": -77.02211383333334, "fusion_lat": 0.0, "name": "a771e9195a699a904a5554bd19954531"}, {"type": "electric_scooter", "fusion_lon": 0.0, "bike_id": "666782e5b90b09c59ef2bb46c9247056", "is_disabled": 0, "lat": 38.927516, "rental_uris": {"ios": "https://dc.lft.to/lastmile_qr_scan", "android": "https://dc.lft.to/lastmile_qr_scan"}, "is_reserved": 0, "lon": -77.0253785, "fusion_lat": 0.0, "name": "666782e5b90b09c59ef2bb46c9247056"}, {"type": "electric_scooter", "fusion_lon": 0.0, "bike_id": "3cb47f439a5ce317e8dfdbe5e45da6c0", "is_disabled": 0, "lat": 38.91484333333333, "rental_uris": {"ios": "https://dc.lft.to/lastmile_qr_scan", "android": "https://dc.lft.to/lastmile_qr_scan"}, "is_reserved": 0, "lon": -77.02193816666667, "fusion_lat": 0.0, "name": "3cb47f439a5ce317e8dfdbe5e45da6c0"}, {"type": "electric_scooter", "fusion_lon": 0.0, "bike_id": "4791fce1155e1dabe4a1fb24bb58130d", "is_disabled": 0, "lat": 38.917502999999996, "rental_uris": {"ios": "https://dc.lft.to/lastmile_qr_scan", "android": "https://dc.lft.to/lastmile_qr_scan"}, "is_reserved": 0, "lon": -77.040542, "fusion_lat": 0.0, "name": "4791fce1155e1dabe4a1fb24bb58130d"}, {"type": "electric_scooter", "fusion_lon": 0.0, "bike_id": "b135bca83160c9aed0ab6285b2efe124", "is_disabled": 0, "lat": 38.9178475, "rental_uris": {"ios": "https://dc.lft.to/lastmile_qr_scan", "android": "https://dc.lft.to/lastmile_qr_scan"}, "is_reserved": 0, "lon": -77.03181083333334, "fusion_lat": 0.0, "name": "b135bca83160c9aed0ab6285b2efe124"}, {"type": "electric_scooter", "fusion_lon": 0.0, "bike_id": "ddd4111f715b130beab30c2f61e53565", "is_disabled": 0, "lat": 38.90173033333333, "rental_uris": {"ios": "https://dc.lft.to/lastmile_qr_scan", "android": "https://dc.lft.to/lastmile_qr_scan"}, "is_reserved": 0, "lon": -76.980815, "fusion_lat": 0.0, "name": "ddd4111f715b130beab30c2f61e53565"}, {"type": "electric_scooter", "fusion_lon": 0.0, "bike_id": "318c761d989c53fb7c62e1aef8e20ffd", "is_disabled": 0, "lat": 38.903566166666664, "rental_uris": {"ios": "https://dc.lft.to/lastmile_qr_scan", "android": "https://dc.lft.to/lastmile_qr_scan"}, "is_reserved": 0, "lon": -76.987291, "fusion_lat": 0.0, "name": "318c761d989c53fb7c62e1aef8e20ffd"}, {"type": "electric_scooter", "fusion_lon": 0.0, "bike_id": "3c2550ff6ae824e76277fadd77f291b9", "is_disabled": 0, "lat": 38.945042, "rental_uris": {"ios": "https://dc.lft.to/lastmile_qr_scan", "android": "https://dc.lft.to/lastmile_qr_scan"}, "is_reserved": 0, "lon": -77.03834433333333, "fusion_lat": 0.0, "name": "3c2550ff6ae824e76277fadd77f291b9"}, {"type": "electric_scooter", "fusion_lon": 0.0, "bike_id": "84e5894876237c850f096a517239a093", "is_disabled": 0, "lat": 38.911144666666665, "rental_uris": {"ios": "https://dc.lft.to/lastmile_qr_scan", "android": "https://dc.lft.to/lastmile_qr_scan"}, "is_reserved": 0, "lon": -77.00752433333334, "fusion_lat": 0.0, "name": "84e5894876237c850f096a517239a093"}, {"type": "electric_scooter", "fusion_lon": 0.0, "bike_id": "65d80d0fddb5b53c880c7680598649c9", "is_disabled": 0, "lat": 38.9096045, "rental_uris": {"ios": "https://dc.lft.to/lastmile_qr_scan", "android": "https://dc.lft.to/lastmile_qr_scan"}, "is_reserved": 0, "lon": -77.01859416666667, "fusion_lat": 0.0, "name": "65d80d0fddb5b53c880c7680598649c9"}, {"type": "electric_scooter", "fusion_lon": 0.0, "bike_id": "9a2349a7b795da232cfd79f2e517a913", "is_disabled": 0, "lat": 38.88726316666666, "rental_uris": {"ios": "https://dc.lft.to/lastmile_qr_scan", "android": "https://dc.lft.to/lastmile_qr_scan"}, "is_reserved": 0, "lon": -77.02837733333334, "fusion_lat": 0.0, "name": "9a2349a7b795da232cfd79f2e517a913"}, {"type": "electric_scooter", "fusion_lon": 0.0, "bike_id": "5ccef1aa5cdb85aa8cdd6faeb4f3ed38", "is_disabled": 0, "lat": 38.9054355, "rental_uris": {"ios": "https://dc.lft.to/lastmile_qr_scan", "android": "https://dc.lft.to/lastmile_qr_scan"}, "is_reserved": 0, "lon": -77.00243566666667, "fusion_lat": 0.0, "name": "5ccef1aa5cdb85aa8cdd6faeb4f3ed38"}, {"type": "electric_scooter", "fusion_lon": 0.0, "bike_id": "c85fe6d8e9fe8843ad7f42d3315bd9eb", "is_disabled": 0, "lat": 38.93357316666667, "rental_uris": {"ios": "https://dc.lft.to/lastmile_qr_scan", "android": "https://dc.lft.to/lastmile_qr_scan"}, "is_reserved": 0, "lon": -77.03658466666667, "fusion_lat": 0.0, "name": "c85fe6d8e9fe8843ad7f42d3315bd9eb"}, {"type": "electric_scooter", "fusion_lon": 0.0, "bike_id": "ea0465f66f18efad3ea92f96d6159cf1", "is_disabled": 0, "lat": 38.91908766666667, "rental_uris": {"ios": "https://dc.lft.to/lastmile_qr_scan", "android": "https://dc.lft.to/lastmile_qr_scan"}, "is_reserved": 0, "lon": -77.01961383333334, "fusion_lat": 0.0, "name": "ea0465f66f18efad3ea92f96d6159cf1"}, {"type": "electric_scooter", "fusion_lon": 0.0, "bike_id": "9e02007f062ab8cf3d303034f8deff95", "is_disabled": 0, "lat": 38.973511, "rental_uris": {"ios": "https://dc.lft.to/lastmile_qr_scan", "android": "https://dc.lft.to/lastmile_qr_scan"}, "is_reserved": 0, "lon": -77.0278765, "fusion_lat": 0.0, "name": "9e02007f062ab8cf3d303034f8deff95"}, {"type": "electric_scooter", "fusion_lon": 0.0, "bike_id": "8aa79d7dd1ff36d29ed49e4581437d75", "is_disabled": 0, "lat": 38.90410716666667, "rental_uris": {"ios": "https://dc.lft.to/lastmile_qr_scan", "android": "https://dc.lft.to/lastmile_qr_scan"}, "is_reserved": 0, "lon": -76.99957783333333, "fusion_lat": 0.0, "name": "8aa79d7dd1ff36d29ed49e4581437d75"}, {"type": "electric_scooter", "fusion_lon": 0.0, "bike_id": "4b16546b0205e65561d8c63e748e3193", "is_disabled": 0, "lat": 38.90619516666667, "rental_uris": {"ios": "https://dc.lft.to/lastmile_qr_scan", "android": "https://dc.lft.to/lastmile_qr_scan"}, "is_reserved": 0, "lon": -77.050337, "fusion_lat": 0.0, "name": "4b16546b0205e65561d8c63e748e3193"}, {"type": "electric_scooter", "fusion_lon": 0.0, "bike_id": "84cf9bb11e70ee0c3a284efc501218a4", "is_disabled": 0, "lat": 38.911475, "rental_uris": {"ios": "https://dc.lft.to/lastmile_qr_scan", "android": "https://dc.lft.to/lastmile_qr_scan"}, "is_reserved": 0, "lon": -77.0046265, "fusion_lat": 0.0, "name": "84cf9bb11e70ee0c3a284efc501218a4"}, {"type": "electric_scooter", "fusion_lon": 0.0, "bike_id": "aafeac6425e09cb54bc8a3f06dc02902", "is_disabled": 0, "lat": 38.88659116666667, "rental_uris": {"ios": "https://dc.lft.to/lastmile_qr_scan", "android": "https://dc.lft.to/lastmile_qr_scan"}, "is_reserved": 0, "lon": -77.02822916666666, "fusion_lat": 0.0, "name": "aafeac6425e09cb54bc8a3f06dc02902"}, {"type": "electric_scooter", "fusion_lon": 0.0, "bike_id": "7c9c5a6399f7a1e7cfb6e7c1466f64a1", "is_disabled": 0, "lat": 38.90400966666667, "rental_uris": {"ios": "https://dc.lft.to/lastmile_qr_scan", "android": "https://dc.lft.to/lastmile_qr_scan"}, "is_reserved": 0, "lon": -77.01779816666667, "fusion_lat": 0.0, "name": "7c9c5a6399f7a1e7cfb6e7c1466f64a1"}, {"type": "electric_scooter", "fusion_lon": 0.0, "bike_id": "c12b6dd2ef8c1af8669db45d8639c4d9", "is_disabled": 0, "lat": 38.9265585, "rental_uris": {"ios": "https://dc.lft.to/lastmile_qr_scan", "android": "https://dc.lft.to/lastmile_qr_scan"}, "is_reserved": 0, "lon": -77.02432133333333, "fusion_lat": 0.0, "name": "c12b6dd2ef8c1af8669db45d8639c4d9"}, {"type": "electric_scooter", "fusion_lon": 0.0, "bike_id": "fbfa4a86978bdfbdf6daff10503b07d4", "is_disabled": 0, "lat": 38.89232416666667, "rental_uris": {"ios": "https://dc.lft.to/lastmile_qr_scan", "android": "https://dc.lft.to/lastmile_qr_scan"}, "is_reserved": 0, "lon": -77.0466715, "fusion_lat": 0.0, "name": "fbfa4a86978bdfbdf6daff10503b07d4"}, {"type": "electric_scooter", "fusion_lon": 0.0, "bike_id": "5aafb9a5111c45ceae9f2dc2d28a4793", "is_disabled": 0, "lat": 38.91409566666667, "rental_uris": {"ios": "https://dc.lft.to/lastmile_qr_scan", "android": "https://dc.lft.to/lastmile_qr_scan"}, "is_reserved": 0, "lon": -77.01075033333333, "fusion_lat": 0.0, "name": "5aafb9a5111c45ceae9f2dc2d28a4793"}, {"type": "electric_bike", "fusion_lon": 0.0, "bike_id": "a3caf3deca86a3b5a57a31884736c025", "is_disabled": 0, "lat": 38.83585866666667, "rental_uris": {"ios": "https://dc.lft.to/lastmile_qr_scan", "android": "https://dc.lft.to/lastmile_qr_scan"}, "is_reserved": 0, "lon": -77.00133266666667, "fusion_lat": 0.0, "name": "a3caf3deca86a3b5a57a31884736c025"}, {"type": "electric_scooter", "fusion_lon": 0.0, "bike_id": "2b61ba006e4cfef93c9c53a861ad10e8", "is_disabled": 0, "lat": 38.90482016666667, "rental_uris": {"ios": "https://dc.lft.to/lastmile_qr_scan", "android": "https://dc.lft.to/lastmile_qr_scan"}, "is_reserved": 0, "lon": -77.0270085, "fusion_lat": 0.0, "name": "2b61ba006e4cfef93c9c53a861ad10e8"}, {"type": "electric_scooter", "fusion_lon": 0.0, "bike_id": "8f5826513f2776219fd7e09e4b354126", "is_disabled": 0, "lat": 38.919530333333334, "rental_uris": {"ios": "https://dc.lft.to/lastmile_qr_scan", "android": "https://dc.lft.to/lastmile_qr_scan"}, "is_reserved": 0, "lon": -77.0260595, "fusion_lat": 0.0, "name": "8f5826513f2776219fd7e09e4b354126"}, {"type": "electric_scooter", "fusion_lon": 0.0, "bike_id": "42d02cc253ea49e3f6660767bc9716a6", "is_disabled": 0, "lat": 38.90905733333334, "rental_uris": {"ios": "https://dc.lft.to/lastmile_qr_scan", "android": "https://dc.lft.to/lastmile_qr_scan"}, "is_reserved": 0, "lon": -77.04485516666666, "fusion_lat": 0.0, "name": "42d02cc253ea49e3f6660767bc9716a6"}, {"type": "electric_scooter", "fusion_lon": 0.0, "bike_id": "62995a7a2216cabd767ab06cf629cb90", "is_disabled": 0, "lat": 38.8829375, "rental_uris": {"ios": "https://dc.lft.to/lastmile_qr_scan", "android": "https://dc.lft.to/lastmile_qr_scan"}, "is_reserved": 0, "lon": -77.022068, "fusion_lat": 0.0, "name": "62995a7a2216cabd767ab06cf629cb90"}, {"type": "electric_scooter", "fusion_lon": 0.0, "bike_id": "911f339f65f254e537d444de57f151e4", "is_disabled": 0, "lat": 38.892223666666666, "rental_uris": {"ios": "https://dc.lft.to/lastmile_qr_scan", "android": "https://dc.lft.to/lastmile_qr_scan"}, "is_reserved": 0, "lon": -77.03212283333333, "fusion_lat": 0.0, "name": "911f339f65f254e537d444de57f151e4"}, {"type": "electric_scooter", "fusion_lon": 0.0, "bike_id": "16bbc70789fc8aa8241d7d99e3dac8fe", "is_disabled": 0, "lat": 38.923297, "rental_uris": {"ios": "https://dc.lft.to/lastmile_qr_scan", "android": "https://dc.lft.to/lastmile_qr_scan"}, "is_reserved": 0, "lon": -77.000498, "fusion_lat": 0.0, "name": "16bbc70789fc8aa8241d7d99e3dac8fe"}, {"type": "electric_scooter", "fusion_lon": 0.0, "bike_id": "2ca40b577f17a997606a9930cde187a4", "is_disabled": 0, "lat": 38.93061383333333, "rental_uris": {"ios": "https://dc.lft.to/lastmile_qr_scan", "android": "https://dc.lft.to/lastmile_qr_scan"}, "is_reserved": 0, "lon": -77.0321535, "fusion_lat": 0.0, "name": "2ca40b577f17a997606a9930cde187a4"}, {"type": "electric_scooter", "fusion_lon": 0.0, "bike_id": "bfb1d98bf7815633ac24b8dffde354e3", "is_disabled": 0, "lat": 38.89730633333333, "rental_uris": {"ios": "https://dc.lft.to/lastmile_qr_scan", "android": "https://dc.lft.to/lastmile_qr_scan"}, "is_reserved": 0, "lon": -77.03171783333333, "fusion_lat": 0.0, "name": "bfb1d98bf7815633ac24b8dffde354e3"}, {"type": "electric_scooter", "fusion_lon": 0.0, "bike_id": "8c5600818fa104e6f93dc1336900e36b", "is_disabled": 0, "lat": 38.917092833333335, "rental_uris": {"ios": "https://dc.lft.to/lastmile_qr_scan", "android": "https://dc.lft.to/lastmile_qr_scan"}, "is_reserved": 0, "lon": -77.03467983333333, "fusion_lat": 0.0, "name": "8c5600818fa104e6f93dc1336900e36b"}, {"type": "electric_scooter", "fusion_lon": 0.0, "bike_id": "24b30fc4a2b3937057ac10d3f2cd7fd4", "is_disabled": 0, "lat": 38.900118666666664, "rental_uris": {"ios": "https://dc.lft.to/lastmile_qr_scan", "android": "https://dc.lft.to/lastmile_qr_scan"}, "is_reserved": 0, "lon": -77.04852916666667, "fusion_lat": 0.0, "name": "24b30fc4a2b3937057ac10d3f2cd7fd4"}, {"type": "electric_scooter", "fusion_lon": 0.0, "bike_id": "f11830a1841be53b259d668ad7ff518a", "is_disabled": 0, "lat": 38.89636433333333, "rental_uris": {"ios": "https://dc.lft.to/lastmile_qr_scan", "android": "https://dc.lft.to/lastmile_qr_scan"}, "is_reserved": 0, "lon": -77.0514565, "fusion_lat": 0.0, "name": "f11830a1841be53b259d668ad7ff518a"}, {"type": "electric_scooter", "fusion_lon": 0.0, "bike_id": "ebc5a26cee98fc6dd5829eafeb29cc2b", "is_disabled": 0, "lat": 38.91955033333333, "rental_uris": {"ios": "https://dc.lft.to/lastmile_qr_scan", "android": "https://dc.lft.to/lastmile_qr_scan"}, "is_reserved": 0, "lon": -77.04178133333333, "fusion_lat": 0.0, "name": "ebc5a26cee98fc6dd5829eafeb29cc2b"}, {"type": "electric_scooter", "fusion_lon": 0.0, "bike_id": "95da544786d9f080c500ef8bf36b4fc3", "is_disabled": 0, "lat": 38.90728266666667, "rental_uris": {"ios": "https://dc.lft.to/lastmile_qr_scan", "android": "https://dc.lft.to/lastmile_qr_scan"}, "is_reserved": 0, "lon": -77.04156583333334, "fusion_lat": 0.0, "name": "95da544786d9f080c500ef8bf36b4fc3"}, {"type": "electric_scooter", "fusion_lon": 0.0, "bike_id": "37c38172b3ee2f2cc8001700432833ee", "is_disabled": 0, "lat": 38.89963, "rental_uris": {"ios": "https://dc.lft.to/lastmile_qr_scan", "android": "https://dc.lft.to/lastmile_qr_scan"}, "is_reserved": 0, "lon": -77.01610666666667, "fusion_lat": 0.0, "name": "37c38172b3ee2f2cc8001700432833ee"}, {"type": "electric_scooter", "fusion_lon": 0.0, "bike_id": "c8d06f592f71a5a05a9a151eb52952e0", "is_disabled": 0, "lat": 38.79613466666667, "rental_uris": {"ios": "https://dc.lft.to/lastmile_qr_scan", "android": "https://dc.lft.to/lastmile_qr_scan"}, "is_reserved": 0, "lon": -77.0749165, "fusion_lat": 0.0, "name": "c8d06f592f71a5a05a9a151eb52952e0"}, {"type": "electric_scooter", "fusion_lon": 0.0, "bike_id": "d53342922955f9c39fc9f6c0d046f5d5", "is_disabled": 0, "lat": 38.92287133333333, "rental_uris": {"ios": "https://dc.lft.to/lastmile_qr_scan", "android": "https://dc.lft.to/lastmile_qr_scan"}, "is_reserved": 0, "lon": -77.03196533333333, "fusion_lat": 0.0, "name": "d53342922955f9c39fc9f6c0d046f5d5"}, {"type": "electric_scooter", "fusion_lon": 0.0, "bike_id": "51551563b1f6bc0e430cc275a00d0c87", "is_disabled": 0, "lat": 38.87695766666667, "rental_uris": {"ios": "https://dc.lft.to/lastmile_qr_scan", "android": "https://dc.lft.to/lastmile_qr_scan"}, "is_reserved": 0, "lon": -77.0065995, "fusion_lat": 0.0, "name": "51551563b1f6bc0e430cc275a00d0c87"}, {"type": "electric_scooter", "fusion_lon": 0.0, "bike_id": "711136a586eb333ba3ada21c81a466c8", "is_disabled": 0, "lat": 38.89972133333333, "rental_uris": {"ios": "https://dc.lft.to/lastmile_qr_scan", "android": "https://dc.lft.to/lastmile_qr_scan"}, "is_reserved": 0, "lon": -77.0216315, "fusion_lat": 0.0, "name": "711136a586eb333ba3ada21c81a466c8"}, {"type": "electric_scooter", "fusion_lon": 0.0, "bike_id": "185dad06f07a8b810bb196419ec1cc5d", "is_disabled": 0, "lat": 38.90240983333333, "rental_uris": {"ios": "https://dc.lft.to/lastmile_qr_scan", "android": "https://dc.lft.to/lastmile_qr_scan"}, "is_reserved": 0, "lon": -77.03740933333333, "fusion_lat": 0.0, "name": "185dad06f07a8b810bb196419ec1cc5d"}, {"type": "electric_bike", "fusion_lon": 0.0, "bike_id": "9af5037a631405bb3934889784dd4c6e", "is_disabled": 0, "lat": 38.8576785, "rental_uris": {"ios": "https://dc.lft.to/lastmile_qr_scan", "android": "https://dc.lft.to/lastmile_qr_scan"}, "is_reserved": 0, "lon": -76.9876245, "fusion_lat": 0.0, "name": "9af5037a631405bb3934889784dd4c6e"}, {"type": "electric_scooter", "fusion_lon": 0.0, "bike_id": "32e5cc433cd576224a0f6066bbbbf063", "is_disabled": 0, "lat": 38.918843833333334, "rental_uris": {"ios": "https://dc.lft.to/lastmile_qr_scan", "android": "https://dc.lft.to/lastmile_qr_scan"}, "is_reserved": 0, "lon": -77.024483, "fusion_lat": 0.0, "name": "32e5cc433cd576224a0f6066bbbbf063"}, {"type": "electric_bike", "fusion_lon": 0.0, "bike_id": "2988d5852405f5182e64ada27bf736cd", "is_disabled": 0, "lat": 38.884903, "rental_uris": {"ios": "https://dc.lft.to/lastmile_qr_scan", "android": "https://dc.lft.to/lastmile_qr_scan"}, "is_reserved": 0, "lon": -76.95755716666666, "fusion_lat": 0.0, "name": "2988d5852405f5182e64ada27bf736cd"}, {"type": "electric_scooter", "fusion_lon": 0.0, "bike_id": "1195e05bef3772a0bee80e2d203431d3", "is_disabled": 0, "lat": 38.91348166666667, "rental_uris": {"ios": "https://dc.lft.to/lastmile_qr_scan", "android": "https://dc.lft.to/lastmile_qr_scan"}, "is_reserved": 0, "lon": -77.03200416666667, "fusion_lat": 0.0, "name": "1195e05bef3772a0bee80e2d203431d3"}, {"type": "electric_scooter", "fusion_lon": 0.0, "bike_id": "cc87c0bc1b141885fb26d550670fabf5", "is_disabled": 0, "lat": 38.92395233333333, "rental_uris": {"ios": "https://dc.lft.to/lastmile_qr_scan", "android": "https://dc.lft.to/lastmile_qr_scan"}, "is_reserved": 0, "lon": -77.03402516666667, "fusion_lat": 0.0, "name": "cc87c0bc1b141885fb26d550670fabf5"}, {"type": "electric_bike", "fusion_lon": 0.0, "bike_id": "bcc0391b3ac86081992548dbd94dc0d9", "is_disabled": 0, "lat": 38.93485533333333, "rental_uris": {"ios": "https://dc.lft.to/lastmile_qr_scan", "android": "https://dc.lft.to/lastmile_qr_scan"}, "is_reserved": 0, "lon": -77.03023983333334, "fusion_lat": 0.0, "name": "bcc0391b3ac86081992548dbd94dc0d9"}, {"type": "electric_scooter", "fusion_lon": 0.0, "bike_id": "e983f70e1016c2c9c4c7509a24a50203", "is_disabled": 0, "lat": 38.887154833333334, "rental_uris": {"ios": "https://dc.lft.to/lastmile_qr_scan", "android": "https://dc.lft.to/lastmile_qr_scan"}, "is_reserved": 0, "lon": -77.02203216666666, "fusion_lat": 0.0, "name": "e983f70e1016c2c9c4c7509a24a50203"}, {"type": "electric_scooter", "fusion_lon": 0.0, "bike_id": "84fb7e04f7f2d451defbbecb82dbfead", "is_disabled": 0, "lat": 38.905561, "rental_uris": {"ios": "https://dc.lft.to/lastmile_qr_scan", "android": "https://dc.lft.to/lastmile_qr_scan"}, "is_reserved": 0, "lon": -77.03492083333333, "fusion_lat": 0.0, "name": "84fb7e04f7f2d451defbbecb82dbfead"}, {"type": "electric_bike", "fusion_lon": 0.0, "bike_id": "acd33aaa183a0f77802d00ced22064c0", "is_disabled": 0, "lat": 38.99997366666667, "rental_uris": {"ios": "https://dc.lft.to/lastmile_qr_scan", "android": "https://dc.lft.to/lastmile_qr_scan"}, "is_reserved": 0, "lon": -76.9180115, "fusion_lat": 0.0, "name": "acd33aaa183a0f77802d00ced22064c0"}, {"type": "electric_scooter", "fusion_lon": 0.0, "bike_id": "27a9a59b1a1556575c33bfdef14f1900", "is_disabled": 0, "lat": 38.91818766666667, "rental_uris": {"ios": "https://dc.lft.to/lastmile_qr_scan", "android": "https://dc.lft.to/lastmile_qr_scan"}, "is_reserved": 0, "lon": -77.0026025, "fusion_lat": 0.0, "name": "27a9a59b1a1556575c33bfdef14f1900"}, {"type": "electric_scooter", "fusion_lon": 0.0, "bike_id": "001d731ee9d49d9320b90db23371d75a", "is_disabled": 0, "lat": 38.901350666666666, "rental_uris": {"ios": "https://dc.lft.to/lastmile_qr_scan", "android": "https://dc.lft.to/lastmile_qr_scan"}, "is_reserved": 0, "lon": -77.04449483333333, "fusion_lat": 0.0, "name": "001d731ee9d49d9320b90db23371d75a"}, {"type": "electric_scooter", "fusion_lon": 0.0, "bike_id": "0b05dec82d138045347df82a4249ccb8", "is_disabled": 0, "lat": 38.926731333333336, "rental_uris": {"ios": "https://dc.lft.to/lastmile_qr_scan", "android": "https://dc.lft.to/lastmile_qr_scan"}, "is_reserved": 0, "lon": -77.03602, "fusion_lat": 0.0, "name": "0b05dec82d138045347df82a4249ccb8"}, {"type": "electric_scooter", "fusion_lon": 0.0, "bike_id": "9cffac77a345ea4fbc3f0689b5e13ded", "is_disabled": 0, "lat": 38.921617166666664, "rental_uris": {"ios": "https://dc.lft.to/lastmile_qr_scan", "android": "https://dc.lft.to/lastmile_qr_scan"}, "is_reserved": 0, "lon": -77.0469195, "fusion_lat": 0.0, "name": "9cffac77a345ea4fbc3f0689b5e13ded"}, {"type": "electric_scooter", "fusion_lon": 0.0, "bike_id": "d003577cf24dc90c8fc3857e40855a9d", "is_disabled": 0, "lat": 38.94230916666667, "rental_uris": {"ios": "https://dc.lft.to/lastmile_qr_scan", "android": "https://dc.lft.to/lastmile_qr_scan"}, "is_reserved": 0, "lon": -77.03871666666667, "fusion_lat": 0.0, "name": "d003577cf24dc90c8fc3857e40855a9d"}, {"type": "electric_scooter", "fusion_lon": 0.0, "bike_id": "0879cee7f70b94f3324c78a27689e2cd", "is_disabled": 0, "lat": 38.911158, "rental_uris": {"ios": "https://dc.lft.to/lastmile_qr_scan", "android": "https://dc.lft.to/lastmile_qr_scan"}, "is_reserved": 0, "lon": -77.00457733333333, "fusion_lat": 0.0, "name": "0879cee7f70b94f3324c78a27689e2cd"}, {"type": "electric_scooter", "fusion_lon": 0.0, "bike_id": "66d656cc55470e6ce78736280dec8214", "is_disabled": 0, "lat": 38.8924815, "rental_uris": {"ios": "https://dc.lft.to/lastmile_qr_scan", "android": "https://dc.lft.to/lastmile_qr_scan"}, "is_reserved": 0, "lon": -77.04506, "fusion_lat": 0.0, "name": "66d656cc55470e6ce78736280dec8214"}, {"type": "electric_bike", "fusion_lon": 0.0, "bike_id": "7c7dcd1b57b69d128bdd9978192ad537", "is_disabled": 0, "lat": 38.914823, "rental_uris": {"ios": "https://dc.lft.to/lastmile_qr_scan", "android": "https://dc.lft.to/lastmile_qr_scan"}, "is_reserved": 0, "lon": -76.98574933333333, "fusion_lat": 0.0, "name": "7c7dcd1b57b69d128bdd9978192ad537"}, {"type": "electric_scooter", "fusion_lon": 0.0, "bike_id": "e9591e50a19046c278912507a1bd92b0", "is_disabled": 0, "lat": 38.93700833333333, "rental_uris": {"ios": "https://dc.lft.to/lastmile_qr_scan", "android": "https://dc.lft.to/lastmile_qr_scan"}, "is_reserved": 0, "lon": -77.05598316666666, "fusion_lat": 0.0, "name": "e9591e50a19046c278912507a1bd92b0"}, {"type": "electric_scooter", "fusion_lon": 0.0, "bike_id": "92deb6274add0ea7206337cb59e59df0", "is_disabled": 0, "lat": 38.916386, "rental_uris": {"ios": "https://dc.lft.to/lastmile_qr_scan", "android": "https://dc.lft.to/lastmile_qr_scan"}, "is_reserved": 0, "lon": -77.02259616666667, "fusion_lat": 0.0, "name": "92deb6274add0ea7206337cb59e59df0"}, {"type": "electric_scooter", "fusion_lon": 0.0, "bike_id": "83cddeb18cdc088907f1c682b88b1ab5", "is_disabled": 0, "lat": 38.887758166666664, "rental_uris": {"ios": "https://dc.lft.to/lastmile_qr_scan", "android": "https://dc.lft.to/lastmile_qr_scan"}, "is_reserved": 0, "lon": -77.0332675, "fusion_lat": 0.0, "name": "83cddeb18cdc088907f1c682b88b1ab5"}, {"type": "electric_scooter", "fusion_lon": 0.0, "bike_id": "16cbe2a77bb444452bbde42f34a4bf98", "is_disabled": 0, "lat": 38.90030383333333, "rental_uris": {"ios": "https://dc.lft.to/lastmile_qr_scan", "android": "https://dc.lft.to/lastmile_qr_scan"}, "is_reserved": 0, "lon": -76.99865766666667, "fusion_lat": 0.0, "name": "16cbe2a77bb444452bbde42f34a4bf98"}, {"type": "electric_scooter", "fusion_lon": 0.0, "bike_id": "5e50190522a6eb2c6d4a6d1c3971e779", "is_disabled": 0, "lat": 38.90559833333333, "rental_uris": {"ios": "https://dc.lft.to/lastmile_qr_scan", "android": "https://dc.lft.to/lastmile_qr_scan"}, "is_reserved": 0, "lon": -77.022091, "fusion_lat": 0.0, "name": "5e50190522a6eb2c6d4a6d1c3971e779"}, {"type": "electric_bike", "fusion_lon": 0.0, "bike_id": "b580a723c00179943f598ae1acd6f59d", "is_disabled": 0, "lat": 38.95646266666667, "rental_uris": {"ios": "https://dc.lft.to/lastmile_qr_scan", "android": "https://dc.lft.to/lastmile_qr_scan"}, "is_reserved": 0, "lon": -76.997484, "fusion_lat": 0.0, "name": "b580a723c00179943f598ae1acd6f59d"}, {"type": "electric_scooter", "fusion_lon": 0.0, "bike_id": "ec0401ed02494219488b2847900f6f31", "is_disabled": 0, "lat": 38.9056265, "rental_uris": {"ios": "https://dc.lft.to/lastmile_qr_scan", "android": "https://dc.lft.to/lastmile_qr_scan"}, "is_reserved": 0, "lon": -77.02211816666667, "fusion_lat": 0.0, "name": "ec0401ed02494219488b2847900f6f31"}, {"type": "electric_scooter", "fusion_lon": 0.0, "bike_id": "341a7f132d61064a361e89fa022be5dc", "is_disabled": 0, "lat": 38.91001883333333, "rental_uris": {"ios": "https://dc.lft.to/lastmile_qr_scan", "android": "https://dc.lft.to/lastmile_qr_scan"}, "is_reserved": 0, "lon": -77.04008183333333, "fusion_lat": 0.0, "name": "341a7f132d61064a361e89fa022be5dc"}, {"type": "electric_scooter", "fusion_lon": 0.0, "bike_id": "ca2084bdf2e2ff57839c8a04db0666b0", "is_disabled": 0, "lat": 38.9315315, "rental_uris": {"ios": "https://dc.lft.to/lastmile_qr_scan", "android": "https://dc.lft.to/lastmile_qr_scan"}, "is_reserved": 0, "lon": -77.0560455, "fusion_lat": 0.0, "name": "ca2084bdf2e2ff57839c8a04db0666b0"}, {"type": "electric_scooter", "fusion_lon": 0.0, "bike_id": "85d3d3fd0ceb531a4d3f124353d24d40", "is_disabled": 0, "lat": 38.9576215, "rental_uris": {"ios": "https://dc.lft.to/lastmile_qr_scan", "android": "https://dc.lft.to/lastmile_qr_scan"}, "is_reserved": 0, "lon": -77.01494133333334, "fusion_lat": 0.0, "name": "85d3d3fd0ceb531a4d3f124353d24d40"}, {"type": "electric_scooter", "fusion_lon": 0.0, "bike_id": "d84022634fc152a7e9b444dbd30f158e", "is_disabled": 0, "lat": 38.921301666666665, "rental_uris": {"ios": "https://dc.lft.to/lastmile_qr_scan", "android": "https://dc.lft.to/lastmile_qr_scan"}, "is_reserved": 0, "lon": -77.04385866666667, "fusion_lat": 0.0, "name": "d84022634fc152a7e9b444dbd30f158e"}, {"type": "electric_bike", "fusion_lon": 0.0, "bike_id": "dcee0e1caf8feee3454e5a57cda95e3d", "is_disabled": 0, "lat": 38.88122966666667, "rental_uris": {"ios": "https://dc.lft.to/lastmile_qr_scan", "android": "https://dc.lft.to/lastmile_qr_scan"}, "is_reserved": 0, "lon": -76.997971, "fusion_lat": 0.0, "name": "dcee0e1caf8feee3454e5a57cda95e3d"}, {"type": "electric_scooter", "fusion_lon": 0.0, "bike_id": "6848965115a82e60adc1c60a3197ef36", "is_disabled": 0, "lat": 38.9103965, "rental_uris": {"ios": "https://dc.lft.to/lastmile_qr_scan", "android": "https://dc.lft.to/lastmile_qr_scan"}, "is_reserved": 0, "lon": -76.9856835, "fusion_lat": 0.0, "name": "6848965115a82e60adc1c60a3197ef36"}, {"type": "electric_scooter", "fusion_lon": 0.0, "bike_id": "053d4e4b3153cca08376ad14ab4f01cc", "is_disabled": 0, "lat": 38.94915266666667, "rental_uris": {"ios": "https://dc.lft.to/lastmile_qr_scan", "android": "https://dc.lft.to/lastmile_qr_scan"}, "is_reserved": 0, "lon": -77.02319633333333, "fusion_lat": 0.0, "name": "053d4e4b3153cca08376ad14ab4f01cc"}, {"type": "electric_scooter", "fusion_lon": 0.0, "bike_id": "ad53f3e25f9962f8b76286319432190e", "is_disabled": 0, "lat": 38.90025633333333, "rental_uris": {"ios": "https://dc.lft.to/lastmile_qr_scan", "android": "https://dc.lft.to/lastmile_qr_scan"}, "is_reserved": 0, "lon": -76.99860566666666, "fusion_lat": 0.0, "name": "ad53f3e25f9962f8b76286319432190e"}, {"type": "electric_scooter", "fusion_lon": 0.0, "bike_id": "15ab79f4c04e7a161cfb3855004dc13f", "is_disabled": 0, "lat": 38.898001666666666, "rental_uris": {"ios": "https://dc.lft.to/lastmile_qr_scan", "android": "https://dc.lft.to/lastmile_qr_scan"}, "is_reserved": 0, "lon": -77.04167566666666, "fusion_lat": 0.0, "name": "15ab79f4c04e7a161cfb3855004dc13f"}, {"type": "electric_scooter", "fusion_lon": 0.0, "bike_id": "4cbac3573bdd37dfe95d000faddaffc8", "is_disabled": 0, "lat": 38.92635833333333, "rental_uris": {"ios": "https://dc.lft.to/lastmile_qr_scan", "android": "https://dc.lft.to/lastmile_qr_scan"}, "is_reserved": 0, "lon": -77.0346265, "fusion_lat": 0.0, "name": "4cbac3573bdd37dfe95d000faddaffc8"}, {"type": "electric_scooter", "fusion_lon": 0.0, "bike_id": "37be6122cecbcc87f8d426ba02582bb0", "is_disabled": 0, "lat": 38.90825933333333, "rental_uris": {"ios": "https://dc.lft.to/lastmile_qr_scan", "android": "https://dc.lft.to/lastmile_qr_scan"}, "is_reserved": 0, "lon": -77.04345183333334, "fusion_lat": 0.0, "name": "37be6122cecbcc87f8d426ba02582bb0"}, {"type": "electric_scooter", "fusion_lon": 0.0, "bike_id": "5e4e2babeebd93d90e4a03df60e41de9", "is_disabled": 0, "lat": 38.907169, "rental_uris": {"ios": "https://dc.lft.to/lastmile_qr_scan", "android": "https://dc.lft.to/lastmile_qr_scan"}, "is_reserved": 0, "lon": -77.03605783333333, "fusion_lat": 0.0, "name": "5e4e2babeebd93d90e4a03df60e41de9"}, {"type": "electric_scooter", "fusion_lon": 0.0, "bike_id": "24e3895807003f1a1b0ea3cee239066e", "is_disabled": 0, "lat": 38.90122816666667, "rental_uris": {"ios": "https://dc.lft.to/lastmile_qr_scan", "android": "https://dc.lft.to/lastmile_qr_scan"}, "is_reserved": 0, "lon": -77.04979416666667, "fusion_lat": 0.0, "name": "24e3895807003f1a1b0ea3cee239066e"}, {"type": "electric_scooter", "fusion_lon": 0.0, "bike_id": "1e2ab0c38d5315db6c170b24e5944734", "is_disabled": 0, "lat": 38.90782816666667, "rental_uris": {"ios": "https://dc.lft.to/lastmile_qr_scan", "android": "https://dc.lft.to/lastmile_qr_scan"}, "is_reserved": 0, "lon": -77.0450735, "fusion_lat": 0.0, "name": "1e2ab0c38d5315db6c170b24e5944734"}, {"type": "electric_scooter", "fusion_lon": 0.0, "bike_id": "6059306767b85148b557813ae8001c92", "is_disabled": 0, "lat": 38.92795616666667, "rental_uris": {"ios": "https://dc.lft.to/lastmile_qr_scan", "android": "https://dc.lft.to/lastmile_qr_scan"}, "is_reserved": 0, "lon": -77.0370155, "fusion_lat": 0.0, "name": "6059306767b85148b557813ae8001c92"}, {"type": "electric_scooter", "fusion_lon": 0.0, "bike_id": "8eb584b5cbbd5edc5421fd0ef4e7ac93", "is_disabled": 0, "lat": 38.920881666666666, "rental_uris": {"ios": "https://dc.lft.to/lastmile_qr_scan", "android": "https://dc.lft.to/lastmile_qr_scan"}, "is_reserved": 0, "lon": -77.07556783333334, "fusion_lat": 0.0, "name": "8eb584b5cbbd5edc5421fd0ef4e7ac93"}, {"type": "electric_scooter", "fusion_lon": 0.0, "bike_id": "e8e0854d8b6f041db3cc3711cd54b5fe", "is_disabled": 0, "lat": 38.8760465, "rental_uris": {"ios": "https://dc.lft.to/lastmile_qr_scan", "android": "https://dc.lft.to/lastmile_qr_scan"}, "is_reserved": 0, "lon": -77.0007305, "fusion_lat": 0.0, "name": "e8e0854d8b6f041db3cc3711cd54b5fe"}, {"type": "electric_scooter", "fusion_lon": 0.0, "bike_id": "0593b7dd02e7a9fbbacbee890562e018", "is_disabled": 0, "lat": 38.90227483333334, "rental_uris": {"ios": "https://dc.lft.to/lastmile_qr_scan", "android": "https://dc.lft.to/lastmile_qr_scan"}, "is_reserved": 0, "lon": -76.94199683333333, "fusion_lat": 0.0, "name": "0593b7dd02e7a9fbbacbee890562e018"}, {"type": "electric_scooter", "fusion_lon": 0.0, "bike_id": "6d99f444072ff15d10f8120174ed913c", "is_disabled": 0, "lat": 38.9080235, "rental_uris": {"ios": "https://dc.lft.to/lastmile_qr_scan", "android": "https://dc.lft.to/lastmile_qr_scan"}, "is_reserved": 0, "lon": -77.043343, "fusion_lat": 0.0, "name": "6d99f444072ff15d10f8120174ed913c"}, {"type": "electric_scooter", "fusion_lon": 0.0, "bike_id": "c5ce03ce977c808b803c77e0e48f517c", "is_disabled": 0, "lat": 38.88725816666667, "rental_uris": {"ios": "https://dc.lft.to/lastmile_qr_scan", "android": "https://dc.lft.to/lastmile_qr_scan"}, "is_reserved": 0, "lon": -76.98356416666667, "fusion_lat": 0.0, "name": "c5ce03ce977c808b803c77e0e48f517c"}, {"type": "electric_scooter", "fusion_lon": 0.0, "bike_id": "659c699fec9d9dee53ab8f00b4813c5d", "is_disabled": 0, "lat": 38.905516666666664, "rental_uris": {"ios": "https://dc.lft.to/lastmile_qr_scan", "android": "https://dc.lft.to/lastmile_qr_scan"}, "is_reserved": 0, "lon": -76.994657, "fusion_lat": 0.0, "name": "659c699fec9d9dee53ab8f00b4813c5d"}, {"type": "electric_scooter", "fusion_lon": 0.0, "bike_id": "1f5a495bce47261f41c36c09a6a77da5", "is_disabled": 0, "lat": 38.915539833333334, "rental_uris": {"ios": "https://dc.lft.to/lastmile_qr_scan", "android": "https://dc.lft.to/lastmile_qr_scan"}, "is_reserved": 0, "lon": -77.03834883333333, "fusion_lat": 0.0, "name": "1f5a495bce47261f41c36c09a6a77da5"}, {"type": "electric_scooter", "fusion_lon": 0.0, "bike_id": "17a52464748507e0304dde7f1fa8030e", "is_disabled": 0, "lat": 38.91439033333333, "rental_uris": {"ios": "https://dc.lft.to/lastmile_qr_scan", "android": "https://dc.lft.to/lastmile_qr_scan"}, "is_reserved": 0, "lon": -77.04178883333333, "fusion_lat": 0.0, "name": "17a52464748507e0304dde7f1fa8030e"}, {"type": "electric_scooter", "fusion_lon": 0.0, "bike_id": "469f00f1e96c5edafa8cbe403c7ad202", "is_disabled": 0, "lat": 38.898803, "rental_uris": {"ios": "https://dc.lft.to/lastmile_qr_scan", "android": "https://dc.lft.to/lastmile_qr_scan"}, "is_reserved": 0, "lon": -77.04883933333333, "fusion_lat": 0.0, "name": "469f00f1e96c5edafa8cbe403c7ad202"}, {"type": "electric_scooter", "fusion_lon": 0.0, "bike_id": "da6b2c4eacf74d301a3c573735365163", "is_disabled": 0, "lat": 38.9290315, "rental_uris": {"ios": "https://dc.lft.to/lastmile_qr_scan", "android": "https://dc.lft.to/lastmile_qr_scan"}, "is_reserved": 0, "lon": -77.021579, "fusion_lat": 0.0, "name": "da6b2c4eacf74d301a3c573735365163"}, {"type": "electric_scooter", "fusion_lon": 0.0, "bike_id": "12ee50934993f65072524b5bb43fa253", "is_disabled": 0, "lat": 38.87646216666667, "rental_uris": {"ios": "https://dc.lft.to/lastmile_qr_scan", "android": "https://dc.lft.to/lastmile_qr_scan"}, "is_reserved": 0, "lon": -76.96505283333333, "fusion_lat": 0.0, "name": "12ee50934993f65072524b5bb43fa253"}, {"type": "electric_scooter", "fusion_lon": 0.0, "bike_id": "af18c22ccf2035b8162f142bc9127e37", "is_disabled": 0, "lat": 38.9155595, "rental_uris": {"ios": "https://dc.lft.to/lastmile_qr_scan", "android": "https://dc.lft.to/lastmile_qr_scan"}, "is_reserved": 0, "lon": -77.054176, "fusion_lat": 0.0, "name": "af18c22ccf2035b8162f142bc9127e37"}, {"type": "electric_scooter", "fusion_lon": 0.0, "bike_id": "5548b6096bfd116a671dad61ff8c4aed", "is_disabled": 0, "lat": 38.9236035, "rental_uris": {"ios": "https://dc.lft.to/lastmile_qr_scan", "android": "https://dc.lft.to/lastmile_qr_scan"}, "is_reserved": 0, "lon": -77.05241183333334, "fusion_lat": 0.0, "name": "5548b6096bfd116a671dad61ff8c4aed"}, {"type": "electric_scooter", "fusion_lon": 0.0, "bike_id": "ed6a5df9e9d816d229d4cab569867122", "is_disabled": 0, "lat": 38.89222266666667, "rental_uris": {"ios": "https://dc.lft.to/lastmile_qr_scan", "android": "https://dc.lft.to/lastmile_qr_scan"}, "is_reserved": 0, "lon": -77.04335483333334, "fusion_lat": 0.0, "name": "ed6a5df9e9d816d229d4cab569867122"}, {"type": "electric_bike", "fusion_lon": 0.0, "bike_id": "c0308cbb32b3a76153fcbbaddca00ccf", "is_disabled": 0, "lat": 38.84105666666667, "rental_uris": {"ios": "https://dc.lft.to/lastmile_qr_scan", "android": "https://dc.lft.to/lastmile_qr_scan"}, "is_reserved": 0, "lon": -77.07007466666667, "fusion_lat": 0.0, "name": "c0308cbb32b3a76153fcbbaddca00ccf"}, {"type": "electric_scooter", "fusion_lon": 0.0, "bike_id": "3901cbe9a515675c45a020193b773b30", "is_disabled": 0, "lat": 38.904104, "rental_uris": {"ios": "https://dc.lft.to/lastmile_qr_scan", "android": "https://dc.lft.to/lastmile_qr_scan"}, "is_reserved": 0, "lon": -76.97330666666667, "fusion_lat": 0.0, "name": "3901cbe9a515675c45a020193b773b30"}, {"type": "electric_scooter", "fusion_lon": 0.0, "bike_id": "a9b71698bdcb844c508a2fcb68395015", "is_disabled": 0, "lat": 38.873831333333335, "rental_uris": {"ios": "https://dc.lft.to/lastmile_qr_scan", "android": "https://dc.lft.to/lastmile_qr_scan"}, "is_reserved": 0, "lon": -76.96986683333333, "fusion_lat": 0.0, "name": "a9b71698bdcb844c508a2fcb68395015"}, {"type": "electric_scooter", "fusion_lon": 0.0, "bike_id": "2776ddf588f024e2a5f6ffa41110c91d", "is_disabled": 0, "lat": 38.93129666666667, "rental_uris": {"ios": "https://dc.lft.to/lastmile_qr_scan", "android": "https://dc.lft.to/lastmile_qr_scan"}, "is_reserved": 0, "lon": -77.022012, "fusion_lat": 0.0, "name": "2776ddf588f024e2a5f6ffa41110c91d"}, {"type": "electric_scooter", "fusion_lon": 0.0, "bike_id": "80b6ddfc75b43472811626e1c4846672", "is_disabled": 0, "lat": 38.957026666666664, "rental_uris": {"ios": "https://dc.lft.to/lastmile_qr_scan", "android": "https://dc.lft.to/lastmile_qr_scan"}, "is_reserved": 0, "lon": -77.02406116666667, "fusion_lat": 0.0, "name": "80b6ddfc75b43472811626e1c4846672"}, {"type": "electric_scooter", "fusion_lon": 0.0, "bike_id": "c0ab5306745331722360f074ca69e9d9", "is_disabled": 0, "lat": 38.93894233333333, "rental_uris": {"ios": "https://dc.lft.to/lastmile_qr_scan", "android": "https://dc.lft.to/lastmile_qr_scan"}, "is_reserved": 0, "lon": -77.01764616666667, "fusion_lat": 0.0, "name": "c0ab5306745331722360f074ca69e9d9"}, {"type": "electric_scooter", "fusion_lon": 0.0, "bike_id": "44d52fdda2b48dcb93b12237b1cd1221", "is_disabled": 0, "lat": 38.917479666666665, "rental_uris": {"ios": "https://dc.lft.to/lastmile_qr_scan", "android": "https://dc.lft.to/lastmile_qr_scan"}, "is_reserved": 0, "lon": -77.02288916666667, "fusion_lat": 0.0, "name": "44d52fdda2b48dcb93b12237b1cd1221"}, {"type": "electric_scooter", "fusion_lon": 0.0, "bike_id": "0e08e170eeb91f6b311b8db6a98fa7a5", "is_disabled": 0, "lat": 38.89191733333333, "rental_uris": {"ios": "https://dc.lft.to/lastmile_qr_scan", "android": "https://dc.lft.to/lastmile_qr_scan"}, "is_reserved": 0, "lon": -76.95279966666666, "fusion_lat": 0.0, "name": "0e08e170eeb91f6b311b8db6a98fa7a5"}, {"type": "electric_scooter", "fusion_lon": 0.0, "bike_id": "ca860480b9628e521af9b57b428ac782", "is_disabled": 0, "lat": 38.893426, "rental_uris": {"ios": "https://dc.lft.to/lastmile_qr_scan", "android": "https://dc.lft.to/lastmile_qr_scan"}, "is_reserved": 0, "lon": -76.93425416666666, "fusion_lat": 0.0, "name": "ca860480b9628e521af9b57b428ac782"}, {"type": "electric_bike", "fusion_lon": 0.0, "bike_id": "b98a01758ab3cc436fd7e7dd65a45d42", "is_disabled": 0, "lat": 38.953357833333335, "rental_uris": {"ios": "https://dc.lft.to/lastmile_qr_scan", "android": "https://dc.lft.to/lastmile_qr_scan"}, "is_reserved": 0, "lon": -76.98254783333333, "fusion_lat": 0.0, "name": "b98a01758ab3cc436fd7e7dd65a45d42"}, {"type": "electric_scooter", "fusion_lon": 0.0, "bike_id": "043a2a2bdcd7a9309f056d829cd60e8c", "is_disabled": 0, "lat": 38.905031666666666, "rental_uris": {"ios": "https://dc.lft.to/lastmile_qr_scan", "android": "https://dc.lft.to/lastmile_qr_scan"}, "is_reserved": 0, "lon": -77.00698466666667, "fusion_lat": 0.0, "name": "043a2a2bdcd7a9309f056d829cd60e8c"}, {"type": "electric_bike", "fusion_lon": 0.0, "bike_id": "01382d65cb75c4be0c0f7525d54cb3e7", "is_disabled": 0, "lat": 38.95071733333333, "rental_uris": {"ios": "https://dc.lft.to/lastmile_qr_scan", "android": "https://dc.lft.to/lastmile_qr_scan"}, "is_reserved": 0, "lon": -77.012237, "fusion_lat": 0.0, "name": "01382d65cb75c4be0c0f7525d54cb3e7"}, {"type": "electric_scooter", "fusion_lon": 0.0, "bike_id": "ee50963512ebc570aba38b6581b5db80", "is_disabled": 0, "lat": 38.930463, "rental_uris": {"ios": "https://dc.lft.to/lastmile_qr_scan", "android": "https://dc.lft.to/lastmile_qr_scan"}, "is_reserved": 0, "lon": -77.02484966666667, "fusion_lat": 0.0, "name": "ee50963512ebc570aba38b6581b5db80"}, {"type": "electric_scooter", "fusion_lon": 0.0, "bike_id": "4fe5dd06422cf0d85080c18889871b3d", "is_disabled": 0, "lat": 38.892236, "rental_uris": {"ios": "https://dc.lft.to/lastmile_qr_scan", "android": "https://dc.lft.to/lastmile_qr_scan"}, "is_reserved": 0, "lon": -77.04688, "fusion_lat": 0.0, "name": "4fe5dd06422cf0d85080c18889871b3d"}, {"type": "electric_scooter", "fusion_lon": 0.0, "bike_id": "09eb0af5c0560854f7547191ef34d863", "is_disabled": 0, "lat": 38.90596033333333, "rental_uris": {"ios": "https://dc.lft.to/lastmile_qr_scan", "android": "https://dc.lft.to/lastmile_qr_scan"}, "is_reserved": 0, "lon": -77.065605, "fusion_lat": 0.0, "name": "09eb0af5c0560854f7547191ef34d863"}, {"type": "electric_bike", "fusion_lon": 0.0, "bike_id": "a5ddcc786804df23e419f1f5f89c0ef0", "is_disabled": 0, "lat": 38.83835583333333, "rental_uris": {"ios": "https://dc.lft.to/lastmile_qr_scan", "android": "https://dc.lft.to/lastmile_qr_scan"}, "is_reserved": 0, "lon": -76.99660116666666, "fusion_lat": 0.0, "name": "a5ddcc786804df23e419f1f5f89c0ef0"}, {"type": "electric_scooter", "fusion_lon": 0.0, "bike_id": "030298646b7f9d4d388e912148b2bac5", "is_disabled": 0, "lat": 38.972161, "rental_uris": {"ios": "https://dc.lft.to/lastmile_qr_scan", "android": "https://dc.lft.to/lastmile_qr_scan"}, "is_reserved": 0, "lon": -77.02719166666667, "fusion_lat": 0.0, "name": "030298646b7f9d4d388e912148b2bac5"}, {"type": "electric_scooter", "fusion_lon": 0.0, "bike_id": "f5fdda63cb0431615a18b59e24a56282", "is_disabled": 0, "lat": 38.892214833333334, "rental_uris": {"ios": "https://dc.lft.to/lastmile_qr_scan", "android": "https://dc.lft.to/lastmile_qr_scan"}, "is_reserved": 0, "lon": -77.033396, "fusion_lat": 0.0, "name": "f5fdda63cb0431615a18b59e24a56282"}, {"type": "electric_scooter", "fusion_lon": 0.0, "bike_id": "9d98c2ed38e87cc918c9a2608464d72e", "is_disabled": 0, "lat": 38.91111883333333, "rental_uris": {"ios": "https://dc.lft.to/lastmile_qr_scan", "android": "https://dc.lft.to/lastmile_qr_scan"}, "is_reserved": 0, "lon": -77.02134816666667, "fusion_lat": 0.0, "name": "9d98c2ed38e87cc918c9a2608464d72e"}, {"type": "electric_bike", "fusion_lon": 0.0, "bike_id": "c627470021d964e2b023e2afc10d68c4", "is_disabled": 0, "lat": 38.90062733333333, "rental_uris": {"ios": "https://dc.lft.to/lastmile_qr_scan", "android": "https://dc.lft.to/lastmile_qr_scan"}, "is_reserved": 0, "lon": -77.050623, "fusion_lat": 0.0, "name": "c627470021d964e2b023e2afc10d68c4"}, {"type": "electric_scooter", "fusion_lon": 0.0, "bike_id": "527ebbccae9345669fa8aeb64660b453", "is_disabled": 0, "lat": 38.910573, "rental_uris": {"ios": "https://dc.lft.to/lastmile_qr_scan", "android": "https://dc.lft.to/lastmile_qr_scan"}, "is_reserved": 0, "lon": -77.026551, "fusion_lat": 0.0, "name": "527ebbccae9345669fa8aeb64660b453"}, {"type": "electric_scooter", "fusion_lon": 0.0, "bike_id": "9db2d9c1c7dfae1eb4b6da48f475e69c", "is_disabled": 0, "lat": 38.85949333333333, "rental_uris": {"ios": "https://dc.lft.to/lastmile_qr_scan", "android": "https://dc.lft.to/lastmile_qr_scan"}, "is_reserved": 0, "lon": -76.95880216666667, "fusion_lat": 0.0, "name": "9db2d9c1c7dfae1eb4b6da48f475e69c"}, {"type": "electric_scooter", "fusion_lon": 0.0, "bike_id": "9190d0c21c987d4bfdde5a688c2967fc", "is_disabled": 0, "lat": 38.921078, "rental_uris": {"ios": "https://dc.lft.to/lastmile_qr_scan", "android": "https://dc.lft.to/lastmile_qr_scan"}, "is_reserved": 0, "lon": -77.04831883333334, "fusion_lat": 0.0, "name": "9190d0c21c987d4bfdde5a688c2967fc"}, {"type": "electric_scooter", "fusion_lon": 0.0, "bike_id": "f3f0f55cd84d8979fdd12b3dba85a9b9", "is_disabled": 0, "lat": 38.920834666666664, "rental_uris": {"ios": "https://dc.lft.to/lastmile_qr_scan", "android": "https://dc.lft.to/lastmile_qr_scan"}, "is_reserved": 0, "lon": -77.02302183333333, "fusion_lat": 0.0, "name": "f3f0f55cd84d8979fdd12b3dba85a9b9"}, {"type": "electric_scooter", "fusion_lon": 0.0, "bike_id": "652f2f53a307059699526a029fe4f6f4", "is_disabled": 0, "lat": 38.932240166666666, "rental_uris": {"ios": "https://dc.lft.to/lastmile_qr_scan", "android": "https://dc.lft.to/lastmile_qr_scan"}, "is_reserved": 0, "lon": -77.02382166666666, "fusion_lat": 0.0, "name": "652f2f53a307059699526a029fe4f6f4"}, {"type": "electric_scooter", "fusion_lon": 0.0, "bike_id": "726cc8b9236c31db0b85bd5dd2c84da1", "is_disabled": 0, "lat": 38.925045833333336, "rental_uris": {"ios": "https://dc.lft.to/lastmile_qr_scan", "android": "https://dc.lft.to/lastmile_qr_scan"}, "is_reserved": 0, "lon": -77.02168166666667, "fusion_lat": 0.0, "name": "726cc8b9236c31db0b85bd5dd2c84da1"}, {"type": "electric_scooter", "fusion_lon": 0.0, "bike_id": "31fffbf19a01dc08cb27ad4159e2b8fa", "is_disabled": 0, "lat": 38.912611, "rental_uris": {"ios": "https://dc.lft.to/lastmile_qr_scan", "android": "https://dc.lft.to/lastmile_qr_scan"}, "is_reserved": 0, "lon": -77.0386195, "fusion_lat": 0.0, "name": "31fffbf19a01dc08cb27ad4159e2b8fa"}, {"type": "electric_scooter", "fusion_lon": 0.0, "bike_id": "d1365508aa8dbb5ac542647b46aa3d74", "is_disabled": 0, "lat": 38.906468, "rental_uris": {"ios": "https://dc.lft.to/lastmile_qr_scan", "android": "https://dc.lft.to/lastmile_qr_scan"}, "is_reserved": 0, "lon": -77.01139883333333, "fusion_lat": 0.0, "name": "d1365508aa8dbb5ac542647b46aa3d74"}, {"type": "electric_scooter", "fusion_lon": 0.0, "bike_id": "3ba583d8816b017e5c366bf24a48ecbc", "is_disabled": 0, "lat": 38.9441205, "rental_uris": {"ios": "https://dc.lft.to/lastmile_qr_scan", "android": "https://dc.lft.to/lastmile_qr_scan"}, "is_reserved": 0, "lon": -77.005038, "fusion_lat": 0.0, "name": "3ba583d8816b017e5c366bf24a48ecbc"}, {"type": "electric_scooter", "fusion_lon": 0.0, "bike_id": "a9bb31b1e22501d3ade0dc02f02e07bf", "is_disabled": 0, "lat": 38.914652833333335, "rental_uris": {"ios": "https://dc.lft.to/lastmile_qr_scan", "android": "https://dc.lft.to/lastmile_qr_scan"}, "is_reserved": 0, "lon": -77.01488733333333, "fusion_lat": 0.0, "name": "a9bb31b1e22501d3ade0dc02f02e07bf"}, {"type": "electric_scooter", "fusion_lon": 0.0, "bike_id": "28ed5148cf4c6252c8b9591191934545", "is_disabled": 0, "lat": 38.93663683333333, "rental_uris": {"ios": "https://dc.lft.to/lastmile_qr_scan", "android": "https://dc.lft.to/lastmile_qr_scan"}, "is_reserved": 0, "lon": -77.03399166666667, "fusion_lat": 0.0, "name": "28ed5148cf4c6252c8b9591191934545"}, {"type": "electric_scooter", "fusion_lon": 0.0, "bike_id": "4c81d977aa9b444e923e02ac18f440c9", "is_disabled": 0, "lat": 38.87750166666667, "rental_uris": {"ios": "https://dc.lft.to/lastmile_qr_scan", "android": "https://dc.lft.to/lastmile_qr_scan"}, "is_reserved": 0, "lon": -77.007589, "fusion_lat": 0.0, "name": "4c81d977aa9b444e923e02ac18f440c9"}, {"type": "electric_bike", "fusion_lon": 0.0, "bike_id": "6a0c67e0a82fa2d976286581b5b007ca", "is_disabled": 0, "lat": 38.882990666666664, "rental_uris": {"ios": "https://dc.lft.to/lastmile_qr_scan", "android": "https://dc.lft.to/lastmile_qr_scan"}, "is_reserved": 0, "lon": -76.94974083333334, "fusion_lat": 0.0, "name": "6a0c67e0a82fa2d976286581b5b007ca"}, {"type": "electric_scooter", "fusion_lon": 0.0, "bike_id": "a4bdab82c3781d3ea432377c9f449fc5", "is_disabled": 0, "lat": 38.90974383333333, "rental_uris": {"ios": "https://dc.lft.to/lastmile_qr_scan", "android": "https://dc.lft.to/lastmile_qr_scan"}, "is_reserved": 0, "lon": -77.03848233333333, "fusion_lat": 0.0, "name": "a4bdab82c3781d3ea432377c9f449fc5"}, {"type": "electric_scooter", "fusion_lon": 0.0, "bike_id": "f80e7e75e8d85c6eb20e93a7c699ee62", "is_disabled": 0, "lat": 38.893576333333336, "rental_uris": {"ios": "https://dc.lft.to/lastmile_qr_scan", "android": "https://dc.lft.to/lastmile_qr_scan"}, "is_reserved": 0, "lon": -76.98656433333333, "fusion_lat": 0.0, "name": "f80e7e75e8d85c6eb20e93a7c699ee62"}, {"type": "electric_scooter", "fusion_lon": 0.0, "bike_id": "1c2c9355c57880a35f519453c1d8e36e", "is_disabled": 0, "lat": 38.908436333333334, "rental_uris": {"ios": "https://dc.lft.to/lastmile_qr_scan", "android": "https://dc.lft.to/lastmile_qr_scan"}, "is_reserved": 0, "lon": -77.036506, "fusion_lat": 0.0, "name": "1c2c9355c57880a35f519453c1d8e36e"}, {"type": "electric_scooter", "fusion_lon": 0.0, "bike_id": "e582038d3ebffc9594a41630a2ec74bf", "is_disabled": 0, "lat": 38.892227, "rental_uris": {"ios": "https://dc.lft.to/lastmile_qr_scan", "android": "https://dc.lft.to/lastmile_qr_scan"}, "is_reserved": 0, "lon": -77.04864833333333, "fusion_lat": 0.0, "name": "e582038d3ebffc9594a41630a2ec74bf"}, {"type": "electric_scooter", "fusion_lon": 0.0, "bike_id": "59433120beab0d160e23db754343f4f5", "is_disabled": 0, "lat": 38.92040466666667, "rental_uris": {"ios": "https://dc.lft.to/lastmile_qr_scan", "android": "https://dc.lft.to/lastmile_qr_scan"}, "is_reserved": 0, "lon": -77.03148983333334, "fusion_lat": 0.0, "name": "59433120beab0d160e23db754343f4f5"}, {"type": "electric_scooter", "fusion_lon": 0.0, "bike_id": "89051dd8375fc08c14841aafc80de38e", "is_disabled": 0, "lat": 38.91947166666667, "rental_uris": {"ios": "https://dc.lft.to/lastmile_qr_scan", "android": "https://dc.lft.to/lastmile_qr_scan"}, "is_reserved": 0, "lon": -77.025041, "fusion_lat": 0.0, "name": "89051dd8375fc08c14841aafc80de38e"}, {"type": "electric_scooter", "fusion_lon": 0.0, "bike_id": "bd774cdc493791dab625f4d236d1b50f", "is_disabled": 0, "lat": 38.92456283333333, "rental_uris": {"ios": "https://dc.lft.to/lastmile_qr_scan", "android": "https://dc.lft.to/lastmile_qr_scan"}, "is_reserved": 0, "lon": -77.032892, "fusion_lat": 0.0, "name": "bd774cdc493791dab625f4d236d1b50f"}, {"type": "electric_scooter", "fusion_lon": 0.0, "bike_id": "76428e86118991126a8ff375361c7059", "is_disabled": 0, "lat": 38.88678433333333, "rental_uris": {"ios": "https://dc.lft.to/lastmile_qr_scan", "android": "https://dc.lft.to/lastmile_qr_scan"}, "is_reserved": 0, "lon": -77.0020555, "fusion_lat": 0.0, "name": "76428e86118991126a8ff375361c7059"}, {"type": "electric_scooter", "fusion_lon": 0.0, "bike_id": "9d12d0cba3d0ba80a08749c9875c889b", "is_disabled": 0, "lat": 38.92056183333333, "rental_uris": {"ios": "https://dc.lft.to/lastmile_qr_scan", "android": "https://dc.lft.to/lastmile_qr_scan"}, "is_reserved": 0, "lon": -77.0244935, "fusion_lat": 0.0, "name": "9d12d0cba3d0ba80a08749c9875c889b"}, {"type": "electric_scooter", "fusion_lon": 0.0, "bike_id": "6da742b23249c08c085e949dd422ea54", "is_disabled": 0, "lat": 38.8929525, "rental_uris": {"ios": "https://dc.lft.to/lastmile_qr_scan", "android": "https://dc.lft.to/lastmile_qr_scan"}, "is_reserved": 0, "lon": -76.95109416666666, "fusion_lat": 0.0, "name": "6da742b23249c08c085e949dd422ea54"}, {"type": "electric_scooter", "fusion_lon": 0.0, "bike_id": "05b2d2c944ff822ce238ca4f9aa160af", "is_disabled": 0, "lat": 38.95801516666667, "rental_uris": {"ios": "https://dc.lft.to/lastmile_qr_scan", "android": "https://dc.lft.to/lastmile_qr_scan"}, "is_reserved": 0, "lon": -77.01514266666666, "fusion_lat": 0.0, "name": "05b2d2c944ff822ce238ca4f9aa160af"}, {"type": "electric_scooter", "fusion_lon": 0.0, "bike_id": "e45a0e2db011ec9194c3df67de7c7efc", "is_disabled": 0, "lat": 38.884901666666664, "rental_uris": {"ios": "https://dc.lft.to/lastmile_qr_scan", "android": "https://dc.lft.to/lastmile_qr_scan"}, "is_reserved": 0, "lon": -77.020722, "fusion_lat": 0.0, "name": "e45a0e2db011ec9194c3df67de7c7efc"}, {"type": "electric_scooter", "fusion_lon": 0.0, "bike_id": "843aa27324f096fb97c84579df20efc9", "is_disabled": 0, "lat": 38.919952, "rental_uris": {"ios": "https://dc.lft.to/lastmile_qr_scan", "android": "https://dc.lft.to/lastmile_qr_scan"}, "is_reserved": 0, "lon": -77.03231183333334, "fusion_lat": 0.0, "name": "843aa27324f096fb97c84579df20efc9"}, {"type": "electric_scooter", "fusion_lon": 0.0, "bike_id": "14d3d9a8a6bfb8fc5dfce1af1a74b304", "is_disabled": 0, "lat": 38.9172715, "rental_uris": {"ios": "https://dc.lft.to/lastmile_qr_scan", "android": "https://dc.lft.to/lastmile_qr_scan"}, "is_reserved": 0, "lon": -77.046085, "fusion_lat": 0.0, "name": "14d3d9a8a6bfb8fc5dfce1af1a74b304"}, {"type": "electric_scooter", "fusion_lon": 0.0, "bike_id": "4fa2122c14b7a05dd4683cb18413f158", "is_disabled": 0, "lat": 38.928165666666665, "rental_uris": {"ios": "https://dc.lft.to/lastmile_qr_scan", "android": "https://dc.lft.to/lastmile_qr_scan"}, "is_reserved": 0, "lon": -77.02261816666666, "fusion_lat": 0.0, "name": "4fa2122c14b7a05dd4683cb18413f158"}, {"type": "electric_scooter", "fusion_lon": 0.0, "bike_id": "a8076942352ec75346b5f60dd3062d56", "is_disabled": 0, "lat": 38.92047483333333, "rental_uris": {"ios": "https://dc.lft.to/lastmile_qr_scan", "android": "https://dc.lft.to/lastmile_qr_scan"}, "is_reserved": 0, "lon": -77.04189666666667, "fusion_lat": 0.0, "name": "a8076942352ec75346b5f60dd3062d56"}, {"type": "electric_scooter", "fusion_lon": 0.0, "bike_id": "23b0519a815fdd34e0bb07920f46753d", "is_disabled": 0, "lat": 38.90983416666667, "rental_uris": {"ios": "https://dc.lft.to/lastmile_qr_scan", "android": "https://dc.lft.to/lastmile_qr_scan"}, "is_reserved": 0, "lon": -77.03436816666667, "fusion_lat": 0.0, "name": "23b0519a815fdd34e0bb07920f46753d"}, {"type": "electric_scooter", "fusion_lon": 0.0, "bike_id": "cdc7ccf5b37bb54231aa6d793ad7bd88", "is_disabled": 0, "lat": 38.9227135, "rental_uris": {"ios": "https://dc.lft.to/lastmile_qr_scan", "android": "https://dc.lft.to/lastmile_qr_scan"}, "is_reserved": 0, "lon": -77.0192065, "fusion_lat": 0.0, "name": "cdc7ccf5b37bb54231aa6d793ad7bd88"}, {"type": "electric_scooter", "fusion_lon": 0.0, "bike_id": "affd853dc43c7f790abd4deeb9c11ea5", "is_disabled": 0, "lat": 38.883547166666666, "rental_uris": {"ios": "https://dc.lft.to/lastmile_qr_scan", "android": "https://dc.lft.to/lastmile_qr_scan"}, "is_reserved": 0, "lon": -77.02471116666666, "fusion_lat": 0.0, "name": "affd853dc43c7f790abd4deeb9c11ea5"}, {"type": "electric_scooter", "fusion_lon": 0.0, "bike_id": "f159bf92b4e3da15e24919999313c4b5", "is_disabled": 0, "lat": 38.892678, "rental_uris": {"ios": "https://dc.lft.to/lastmile_qr_scan", "android": "https://dc.lft.to/lastmile_qr_scan"}, "is_reserved": 0, "lon": -77.042067, "fusion_lat": 0.0, "name": "f159bf92b4e3da15e24919999313c4b5"}, {"type": "electric_bike", "fusion_lon": 0.0, "bike_id": "1024b2aa3e7bdcdfec69490bc100366c", "is_disabled": 0, "lat": 39.015697, "rental_uris": {"ios": "https://dc.lft.to/lastmile_qr_scan", "android": "https://dc.lft.to/lastmile_qr_scan"}, "is_reserved": 0, "lon": -77.0442455, "fusion_lat": 0.0, "name": "1024b2aa3e7bdcdfec69490bc100366c"}, {"type": "electric_scooter", "fusion_lon": 0.0, "bike_id": "08379d8662f361a5249aa885058e0de8", "is_disabled": 0, "lat": 38.915673166666664, "rental_uris": {"ios": "https://dc.lft.to/lastmile_qr_scan", "android": "https://dc.lft.to/lastmile_qr_scan"}, "is_reserved": 0, "lon": -77.02008566666666, "fusion_lat": 0.0, "name": "08379d8662f361a5249aa885058e0de8"}, {"type": "electric_scooter", "fusion_lon": 0.0, "bike_id": "7e5f8d51b03f3b5f4b52915d012960bc", "is_disabled": 0, "lat": 38.9134615, "rental_uris": {"ios": "https://dc.lft.to/lastmile_qr_scan", "android": "https://dc.lft.to/lastmile_qr_scan"}, "is_reserved": 0, "lon": -77.031879, "fusion_lat": 0.0, "name": "7e5f8d51b03f3b5f4b52915d012960bc"}, {"type": "electric_scooter", "fusion_lon": 0.0, "bike_id": "67b16221f7727b91ea14bc6a736a180d", "is_disabled": 0, "lat": 38.883287833333334, "rental_uris": {"ios": "https://dc.lft.to/lastmile_qr_scan", "android": "https://dc.lft.to/lastmile_qr_scan"}, "is_reserved": 0, "lon": -77.01152716666667, "fusion_lat": 0.0, "name": "67b16221f7727b91ea14bc6a736a180d"}, {"type": "electric_scooter", "fusion_lon": 0.0, "bike_id": "b4332de1179d39d88af2ec3cff8cca20", "is_disabled": 0, "lat": 38.9243855, "rental_uris": {"ios": "https://dc.lft.to/lastmile_qr_scan", "android": "https://dc.lft.to/lastmile_qr_scan"}, "is_reserved": 0, "lon": -76.99063233333334, "fusion_lat": 0.0, "name": "b4332de1179d39d88af2ec3cff8cca20"}, {"type": "electric_scooter", "fusion_lon": 0.0, "bike_id": "f3ab3032caa159f365d09bd33e1acd59", "is_disabled": 0, "lat": 38.93781533333333, "rental_uris": {"ios": "https://dc.lft.to/lastmile_qr_scan", "android": "https://dc.lft.to/lastmile_qr_scan"}, "is_reserved": 0, "lon": -77.0246735, "fusion_lat": 0.0, "name": "f3ab3032caa159f365d09bd33e1acd59"}, {"type": "electric_scooter", "fusion_lon": 0.0, "bike_id": "1f6954f8b2bce864bfc68a6f7e27daef", "is_disabled": 0, "lat": 38.919966, "rental_uris": {"ios": "https://dc.lft.to/lastmile_qr_scan", "android": "https://dc.lft.to/lastmile_qr_scan"}, "is_reserved": 0, "lon": -77.032174, "fusion_lat": 0.0, "name": "1f6954f8b2bce864bfc68a6f7e27daef"}, {"type": "electric_scooter", "fusion_lon": 0.0, "bike_id": "c4d5f9b6e56b59f83ef988eebc7bca26", "is_disabled": 0, "lat": 38.914189666666665, "rental_uris": {"ios": "https://dc.lft.to/lastmile_qr_scan", "android": "https://dc.lft.to/lastmile_qr_scan"}, "is_reserved": 0, "lon": -77.03908633333333, "fusion_lat": 0.0, "name": "c4d5f9b6e56b59f83ef988eebc7bca26"}, {"type": "electric_scooter", "fusion_lon": 0.0, "bike_id": "9a7c0b1b2b7d07469591f2b1e33a091c", "is_disabled": 0, "lat": 38.9243705, "rental_uris": {"ios": "https://dc.lft.to/lastmile_qr_scan", "android": "https://dc.lft.to/lastmile_qr_scan"}, "is_reserved": 0, "lon": -77.042521, "fusion_lat": 0.0, "name": "9a7c0b1b2b7d07469591f2b1e33a091c"}, {"type": "electric_scooter", "fusion_lon": 0.0, "bike_id": "f112e7df20ab5ca61e352949776c473a", "is_disabled": 0, "lat": 38.923469, "rental_uris": {"ios": "https://dc.lft.to/lastmile_qr_scan", "android": "https://dc.lft.to/lastmile_qr_scan"}, "is_reserved": 0, "lon": -76.99251433333333, "fusion_lat": 0.0, "name": "f112e7df20ab5ca61e352949776c473a"}, {"type": "electric_bike", "fusion_lon": 0.0, "bike_id": "0d7488e730970b74e976c14d5d67b3f3", "is_disabled": 0, "lat": 38.9440615, "rental_uris": {"ios": "https://dc.lft.to/lastmile_qr_scan", "android": "https://dc.lft.to/lastmile_qr_scan"}, "is_reserved": 0, "lon": -77.05516183333333, "fusion_lat": 0.0, "name": "0d7488e730970b74e976c14d5d67b3f3"}, {"type": "electric_scooter", "fusion_lon": 0.0, "bike_id": "47bf1ff19ad525176a471e423d911435", "is_disabled": 0, "lat": 38.90773183333334, "rental_uris": {"ios": "https://dc.lft.to/lastmile_qr_scan", "android": "https://dc.lft.to/lastmile_qr_scan"}, "is_reserved": 0, "lon": -77.037721, "fusion_lat": 0.0, "name": "47bf1ff19ad525176a471e423d911435"}, {"type": "electric_scooter", "fusion_lon": 0.0, "bike_id": "a5e8ecd2e9825e8a8942324254cfa34c", "is_disabled": 0, "lat": 38.92238566666666, "rental_uris": {"ios": "https://dc.lft.to/lastmile_qr_scan", "android": "https://dc.lft.to/lastmile_qr_scan"}, "is_reserved": 0, "lon": -77.04488533333334, "fusion_lat": 0.0, "name": "a5e8ecd2e9825e8a8942324254cfa34c"}, {"type": "electric_scooter", "fusion_lon": 0.0, "bike_id": "7c0efad130bbe9a6be9c205344485fea", "is_disabled": 0, "lat": 38.90119766666667, "rental_uris": {"ios": "https://dc.lft.to/lastmile_qr_scan", "android": "https://dc.lft.to/lastmile_qr_scan"}, "is_reserved": 0, "lon": -77.02285866666666, "fusion_lat": 0.0, "name": "7c0efad130bbe9a6be9c205344485fea"}, {"type": "electric_scooter", "fusion_lon": 0.0, "bike_id": "0d56a8d18535561c95bcc5310021333a", "is_disabled": 0, "lat": 38.90974516666667, "rental_uris": {"ios": "https://dc.lft.to/lastmile_qr_scan", "android": "https://dc.lft.to/lastmile_qr_scan"}, "is_reserved": 0, "lon": -77.04876066666667, "fusion_lat": 0.0, "name": "0d56a8d18535561c95bcc5310021333a"}, {"type": "electric_scooter", "fusion_lon": 0.0, "bike_id": "9a236d08a0f00c58b0eebb354ee1cd15", "is_disabled": 0, "lat": 38.89283916666667, "rental_uris": {"ios": "https://dc.lft.to/lastmile_qr_scan", "android": "https://dc.lft.to/lastmile_qr_scan"}, "is_reserved": 0, "lon": -77.046672, "fusion_lat": 0.0, "name": "9a236d08a0f00c58b0eebb354ee1cd15"}, {"type": "electric_scooter", "fusion_lon": 0.0, "bike_id": "ebd2ae9c3c96a052f8d7b4c6bf1adbfd", "is_disabled": 0, "lat": 38.86215633333333, "rental_uris": {"ios": "https://dc.lft.to/lastmile_qr_scan", "android": "https://dc.lft.to/lastmile_qr_scan"}, "is_reserved": 0, "lon": -76.994786, "fusion_lat": 0.0, "name": "ebd2ae9c3c96a052f8d7b4c6bf1adbfd"}, {"type": "electric_scooter", "fusion_lon": 0.0, "bike_id": "ac5c589ae84088a7994bcdf90a2b5add", "is_disabled": 0, "lat": 38.91566733333333, "rental_uris": {"ios": "https://dc.lft.to/lastmile_qr_scan", "android": "https://dc.lft.to/lastmile_qr_scan"}, "is_reserved": 0, "lon": -77.04172116666666, "fusion_lat": 0.0, "name": "ac5c589ae84088a7994bcdf90a2b5add"}, {"type": "electric_scooter", "fusion_lon": 0.0, "bike_id": "14b0b571a1cff5730cfb9cc85d01bf38", "is_disabled": 0, "lat": 38.88489933333334, "rental_uris": {"ios": "https://dc.lft.to/lastmile_qr_scan", "android": "https://dc.lft.to/lastmile_qr_scan"}, "is_reserved": 0, "lon": -77.0347745, "fusion_lat": 0.0, "name": "14b0b571a1cff5730cfb9cc85d01bf38"}, {"type": "electric_scooter", "fusion_lon": 0.0, "bike_id": "79aa2805c75b2c886cc168a61553870f", "is_disabled": 0, "lat": 38.941792166666666, "rental_uris": {"ios": "https://dc.lft.to/lastmile_qr_scan", "android": "https://dc.lft.to/lastmile_qr_scan"}, "is_reserved": 0, "lon": -76.9943555, "fusion_lat": 0.0, "name": "79aa2805c75b2c886cc168a61553870f"}, {"type": "electric_scooter", "fusion_lon": 0.0, "bike_id": "e4b5209ddbe7b484ef38344f01789b0f", "is_disabled": 0, "lat": 38.89484233333334, "rental_uris": {"ios": "https://dc.lft.to/lastmile_qr_scan", "android": "https://dc.lft.to/lastmile_qr_scan"}, "is_reserved": 0, "lon": -77.02327783333334, "fusion_lat": 0.0, "name": "e4b5209ddbe7b484ef38344f01789b0f"}, {"type": "electric_scooter", "fusion_lon": 0.0, "bike_id": "33ce7caedfadd096c82bd200bdff9e68", "is_disabled": 0, "lat": 38.918534666666666, "rental_uris": {"ios": "https://dc.lft.to/lastmile_qr_scan", "android": "https://dc.lft.to/lastmile_qr_scan"}, "is_reserved": 0, "lon": -76.9656215, "fusion_lat": 0.0, "name": "33ce7caedfadd096c82bd200bdff9e68"}, {"type": "electric_scooter", "fusion_lon": 0.0, "bike_id": "73dbe28f8a62c79c6708f79824ad22c5", "is_disabled": 0, "lat": 38.91024766666666, "rental_uris": {"ios": "https://dc.lft.to/lastmile_qr_scan", "android": "https://dc.lft.to/lastmile_qr_scan"}, "is_reserved": 0, "lon": -77.04334766666666, "fusion_lat": 0.0, "name": "73dbe28f8a62c79c6708f79824ad22c5"}, {"type": "electric_scooter", "fusion_lon": 0.0, "bike_id": "1a01e1e6ea9533a0cb206257e9c4504c", "is_disabled": 0, "lat": 38.92486133333333, "rental_uris": {"ios": "https://dc.lft.to/lastmile_qr_scan", "android": "https://dc.lft.to/lastmile_qr_scan"}, "is_reserved": 0, "lon": -77.03178, "fusion_lat": 0.0, "name": "1a01e1e6ea9533a0cb206257e9c4504c"}, {"type": "electric_scooter", "fusion_lon": 0.0, "bike_id": "ec12b1c8c225e6acc2d285d433f53770", "is_disabled": 0, "lat": 38.872885833333335, "rental_uris": {"ios": "https://dc.lft.to/lastmile_qr_scan", "android": "https://dc.lft.to/lastmile_qr_scan"}, "is_reserved": 0, "lon": -77.00985966666667, "fusion_lat": 0.0, "name": "ec12b1c8c225e6acc2d285d433f53770"}, {"type": "electric_bike", "fusion_lon": 0.0, "bike_id": "e25be59dbed944851f5cd7cd8fa32d4b", "is_disabled": 0, "lat": 38.85619066666667, "rental_uris": {"ios": "https://dc.lft.to/lastmile_qr_scan", "android": "https://dc.lft.to/lastmile_qr_scan"}, "is_reserved": 0, "lon": -76.96160116666667, "fusion_lat": 0.0, "name": "e25be59dbed944851f5cd7cd8fa32d4b"}, {"type": "electric_scooter", "fusion_lon": 0.0, "bike_id": "5f7127ad80cc1aa9aba316b35872dd9e", "is_disabled": 0, "lat": 38.878718166666665, "rental_uris": {"ios": "https://dc.lft.to/lastmile_qr_scan", "android": "https://dc.lft.to/lastmile_qr_scan"}, "is_reserved": 0, "lon": -77.0061935, "fusion_lat": 0.0, "name": "5f7127ad80cc1aa9aba316b35872dd9e"}, {"type": "electric_scooter", "fusion_lon": 0.0, "bike_id": "ee440525b39ea5477a165b65088cd5b6", "is_disabled": 0, "lat": 38.920714333333336, "rental_uris": {"ios": "https://dc.lft.to/lastmile_qr_scan", "android": "https://dc.lft.to/lastmile_qr_scan"}, "is_reserved": 0, "lon": -77.02531733333333, "fusion_lat": 0.0, "name": "ee440525b39ea5477a165b65088cd5b6"}, {"type": "electric_scooter", "fusion_lon": 0.0, "bike_id": "82cd56252531b6fc5fcc638a680a0181", "is_disabled": 0, "lat": 38.9225965, "rental_uris": {"ios": "https://dc.lft.to/lastmile_qr_scan", "android": "https://dc.lft.to/lastmile_qr_scan"}, "is_reserved": 0, "lon": -77.0366855, "fusion_lat": 0.0, "name": "82cd56252531b6fc5fcc638a680a0181"}, {"type": "electric_scooter", "fusion_lon": 0.0, "bike_id": "13f049ba849fea127f7510c71538c7a2", "is_disabled": 0, "lat": 38.91978733333333, "rental_uris": {"ios": "https://dc.lft.to/lastmile_qr_scan", "android": "https://dc.lft.to/lastmile_qr_scan"}, "is_reserved": 0, "lon": -77.02181633333333, "fusion_lat": 0.0, "name": "13f049ba849fea127f7510c71538c7a2"}, {"type": "electric_scooter", "fusion_lon": 0.0, "bike_id": "80d58318e11abe07e07c6a1e0b8f6716", "is_disabled": 0, "lat": 38.931161833333334, "rental_uris": {"ios": "https://dc.lft.to/lastmile_qr_scan", "android": "https://dc.lft.to/lastmile_qr_scan"}, "is_reserved": 0, "lon": -77.02098983333333, "fusion_lat": 0.0, "name": "80d58318e11abe07e07c6a1e0b8f6716"}, {"type": "electric_scooter", "fusion_lon": 0.0, "bike_id": "91e838d5f2a47376ed57452dc2d1198a", "is_disabled": 0, "lat": 38.92360866666667, "rental_uris": {"ios": "https://dc.lft.to/lastmile_qr_scan", "android": "https://dc.lft.to/lastmile_qr_scan"}, "is_reserved": 0, "lon": -77.05189566666667, "fusion_lat": 0.0, "name": "91e838d5f2a47376ed57452dc2d1198a"}, {"type": "electric_scooter", "fusion_lon": 0.0, "bike_id": "e777955129542cd244be4212b7315d2c", "is_disabled": 0, "lat": 38.862686833333335, "rental_uris": {"ios": "https://dc.lft.to/lastmile_qr_scan", "android": "https://dc.lft.to/lastmile_qr_scan"}, "is_reserved": 0, "lon": -76.99573083333334, "fusion_lat": 0.0, "name": "e777955129542cd244be4212b7315d2c"}, {"type": "electric_scooter", "fusion_lon": 0.0, "bike_id": "7a990f9d1ce46fdc889db99810e1f098", "is_disabled": 0, "lat": 38.92721483333333, "rental_uris": {"ios": "https://dc.lft.to/lastmile_qr_scan", "android": "https://dc.lft.to/lastmile_qr_scan"}, "is_reserved": 0, "lon": -77.0207845, "fusion_lat": 0.0, "name": "7a990f9d1ce46fdc889db99810e1f098"}, {"type": "electric_bike", "fusion_lon": 0.0, "bike_id": "b7097f276c2cc0810b04dc41bef39064", "is_disabled": 0, "lat": 38.89559283333333, "rental_uris": {"ios": "https://dc.lft.to/lastmile_qr_scan", "android": "https://dc.lft.to/lastmile_qr_scan"}, "is_reserved": 0, "lon": -77.1273895, "fusion_lat": 0.0, "name": "b7097f276c2cc0810b04dc41bef39064"}, {"type": "electric_scooter", "fusion_lon": 0.0, "bike_id": "5cce916bbbd57f7143d9b725a12c9dbd", "is_disabled": 0, "lat": 38.944504, "rental_uris": {"ios": "https://dc.lft.to/lastmile_qr_scan", "android": "https://dc.lft.to/lastmile_qr_scan"}, "is_reserved": 0, "lon": -77.02803966666667, "fusion_lat": 0.0, "name": "5cce916bbbd57f7143d9b725a12c9dbd"}, {"type": "electric_scooter", "fusion_lon": 0.0, "bike_id": "1cd7374776be44fa54f5cd61d76feb3b", "is_disabled": 0, "lat": 38.899132333333334, "rental_uris": {"ios": "https://dc.lft.to/lastmile_qr_scan", "android": "https://dc.lft.to/lastmile_qr_scan"}, "is_reserved": 0, "lon": -76.93382433333333, "fusion_lat": 0.0, "name": "1cd7374776be44fa54f5cd61d76feb3b"}, {"type": "electric_scooter", "fusion_lon": 0.0, "bike_id": "49f8df232f3a49daabbf968cd4d1916c", "is_disabled": 0, "lat": 38.9036135, "rental_uris": {"ios": "https://dc.lft.to/lastmile_qr_scan", "android": "https://dc.lft.to/lastmile_qr_scan"}, "is_reserved": 0, "lon": -77.06679333333334, "fusion_lat": 0.0, "name": "49f8df232f3a49daabbf968cd4d1916c"}, {"type": "electric_scooter", "fusion_lon": 0.0, "bike_id": "09bdf91976d3e40d67804540f5125bfb", "is_disabled": 0, "lat": 38.92464966666667, "rental_uris": {"ios": "https://dc.lft.to/lastmile_qr_scan", "android": "https://dc.lft.to/lastmile_qr_scan"}, "is_reserved": 0, "lon": -77.030653, "fusion_lat": 0.0, "name": "09bdf91976d3e40d67804540f5125bfb"}, {"type": "electric_scooter", "fusion_lon": 0.0, "bike_id": "79ae31deca1ac25320a9a69cf2cf1505", "is_disabled": 0, "lat": 38.887410333333335, "rental_uris": {"ios": "https://dc.lft.to/lastmile_qr_scan", "android": "https://dc.lft.to/lastmile_qr_scan"}, "is_reserved": 0, "lon": -77.01528883333333, "fusion_lat": 0.0, "name": "79ae31deca1ac25320a9a69cf2cf1505"}, {"type": "electric_scooter", "fusion_lon": 0.0, "bike_id": "d5320532b8c0fca3d8acd95d700a2491", "is_disabled": 0, "lat": 38.895392, "rental_uris": {"ios": "https://dc.lft.to/lastmile_qr_scan", "android": "https://dc.lft.to/lastmile_qr_scan"}, "is_reserved": 0, "lon": -77.02808633333333, "fusion_lat": 0.0, "name": "d5320532b8c0fca3d8acd95d700a2491"}, {"type": "electric_scooter", "fusion_lon": 0.0, "bike_id": "d5ab26e7a6197c3f1ec46c061f26f63c", "is_disabled": 0, "lat": 38.91412566666666, "rental_uris": {"ios": "https://dc.lft.to/lastmile_qr_scan", "android": "https://dc.lft.to/lastmile_qr_scan"}, "is_reserved": 0, "lon": -77.04152316666666, "fusion_lat": 0.0, "name": "d5ab26e7a6197c3f1ec46c061f26f63c"}, {"type": "electric_scooter", "fusion_lon": 0.0, "bike_id": "f8f54a7e1848dc472cc5724be49e50c1", "is_disabled": 0, "lat": 38.864985, "rental_uris": {"ios": "https://dc.lft.to/lastmile_qr_scan", "android": "https://dc.lft.to/lastmile_qr_scan"}, "is_reserved": 0, "lon": -76.989859, "fusion_lat": 0.0, "name": "f8f54a7e1848dc472cc5724be49e50c1"}, {"type": "electric_scooter", "fusion_lon": 0.0, "bike_id": "a32c59ccc24dd9d7212d5e0ea9d719b3", "is_disabled": 0, "lat": 38.92012883333334, "rental_uris": {"ios": "https://dc.lft.to/lastmile_qr_scan", "android": "https://dc.lft.to/lastmile_qr_scan"}, "is_reserved": 0, "lon": -77.04408483333333, "fusion_lat": 0.0, "name": "a32c59ccc24dd9d7212d5e0ea9d719b3"}, {"type": "electric_scooter", "fusion_lon": 0.0, "bike_id": "cf5a9803bce3cfec3ad11c69caf02b2c", "is_disabled": 0, "lat": 38.90011833333333, "rental_uris": {"ios": "https://dc.lft.to/lastmile_qr_scan", "android": "https://dc.lft.to/lastmile_qr_scan"}, "is_reserved": 0, "lon": -76.98896116666667, "fusion_lat": 0.0, "name": "cf5a9803bce3cfec3ad11c69caf02b2c"}, {"type": "electric_scooter", "fusion_lon": 0.0, "bike_id": "63d4c4a413c9a4aabf040e98b22081ed", "is_disabled": 0, "lat": 38.8765665, "rental_uris": {"ios": "https://dc.lft.to/lastmile_qr_scan", "android": "https://dc.lft.to/lastmile_qr_scan"}, "is_reserved": 0, "lon": -77.00311266666667, "fusion_lat": 0.0, "name": "63d4c4a413c9a4aabf040e98b22081ed"}, {"type": "electric_scooter", "fusion_lon": 0.0, "bike_id": "7e0838c922228c23b327066b076b0bae", "is_disabled": 0, "lat": 38.93699066666667, "rental_uris": {"ios": "https://dc.lft.to/lastmile_qr_scan", "android": "https://dc.lft.to/lastmile_qr_scan"}, "is_reserved": 0, "lon": -77.024124, "fusion_lat": 0.0, "name": "7e0838c922228c23b327066b076b0bae"}, {"type": "electric_scooter", "fusion_lon": 0.0, "bike_id": "b039cf60e6c7280637d10cbad393093b", "is_disabled": 0, "lat": 38.9187245, "rental_uris": {"ios": "https://dc.lft.to/lastmile_qr_scan", "android": "https://dc.lft.to/lastmile_qr_scan"}, "is_reserved": 0, "lon": -77.02596633333333, "fusion_lat": 0.0, "name": "b039cf60e6c7280637d10cbad393093b"}, {"type": "electric_scooter", "fusion_lon": 0.0, "bike_id": "f91b8a4753ae585698caa141be089c05", "is_disabled": 0, "lat": 38.891980333333336, "rental_uris": {"ios": "https://dc.lft.to/lastmile_qr_scan", "android": "https://dc.lft.to/lastmile_qr_scan"}, "is_reserved": 0, "lon": -77.02379333333333, "fusion_lat": 0.0, "name": "f91b8a4753ae585698caa141be089c05"}, {"type": "electric_scooter", "fusion_lon": 0.0, "bike_id": "021988ebbd331096e108f7c6fa77c073", "is_disabled": 0, "lat": 38.9565425, "rental_uris": {"ios": "https://dc.lft.to/lastmile_qr_scan", "android": "https://dc.lft.to/lastmile_qr_scan"}, "is_reserved": 0, "lon": -77.01969116666666, "fusion_lat": 0.0, "name": "021988ebbd331096e108f7c6fa77c073"}, {"type": "electric_scooter", "fusion_lon": 0.0, "bike_id": "0ed1ac4e04dc57ff6f0afedbc469df3f", "is_disabled": 0, "lat": 38.9311875, "rental_uris": {"ios": "https://dc.lft.to/lastmile_qr_scan", "android": "https://dc.lft.to/lastmile_qr_scan"}, "is_reserved": 0, "lon": -77.02072166666666, "fusion_lat": 0.0, "name": "0ed1ac4e04dc57ff6f0afedbc469df3f"}, {"type": "electric_scooter", "fusion_lon": 0.0, "bike_id": "120d48a72ffba558c20acdc71df36102", "is_disabled": 0, "lat": 38.87924566666667, "rental_uris": {"ios": "https://dc.lft.to/lastmile_qr_scan", "android": "https://dc.lft.to/lastmile_qr_scan"}, "is_reserved": 0, "lon": -76.99546116666667, "fusion_lat": 0.0, "name": "120d48a72ffba558c20acdc71df36102"}, {"type": "electric_scooter", "fusion_lon": 0.0, "bike_id": "d00631d6b569da0ef4e30f94097b9332", "is_disabled": 0, "lat": 38.901187, "rental_uris": {"ios": "https://dc.lft.to/lastmile_qr_scan", "android": "https://dc.lft.to/lastmile_qr_scan"}, "is_reserved": 0, "lon": -77.03443083333333, "fusion_lat": 0.0, "name": "d00631d6b569da0ef4e30f94097b9332"}, {"type": "electric_scooter", "fusion_lon": 0.0, "bike_id": "29e390bd3525d4e3c5dfc1fc9d5b3355", "is_disabled": 0, "lat": 38.89220533333334, "rental_uris": {"ios": "https://dc.lft.to/lastmile_qr_scan", "android": "https://dc.lft.to/lastmile_qr_scan"}, "is_reserved": 0, "lon": -77.02624766666666, "fusion_lat": 0.0, "name": "29e390bd3525d4e3c5dfc1fc9d5b3355"}, {"type": "electric_scooter", "fusion_lon": 0.0, "bike_id": "de463fb59cf2b94ebdbfe61dc8a26073", "is_disabled": 0, "lat": 38.886066666666665, "rental_uris": {"ios": "https://dc.lft.to/lastmile_qr_scan", "android": "https://dc.lft.to/lastmile_qr_scan"}, "is_reserved": 0, "lon": -76.98557616666666, "fusion_lat": 0.0, "name": "de463fb59cf2b94ebdbfe61dc8a26073"}, {"type": "electric_scooter", "fusion_lon": 0.0, "bike_id": "2455eb3cd84aa519a5734ac52c3464d0", "is_disabled": 0, "lat": 38.87174533333334, "rental_uris": {"ios": "https://dc.lft.to/lastmile_qr_scan", "android": "https://dc.lft.to/lastmile_qr_scan"}, "is_reserved": 0, "lon": -77.006281, "fusion_lat": 0.0, "name": "2455eb3cd84aa519a5734ac52c3464d0"}, {"type": "electric_scooter", "fusion_lon": 0.0, "bike_id": "8d4a7521c5d0185d7c52b4ca859d8cb0", "is_disabled": 0, "lat": 38.9085115, "rental_uris": {"ios": "https://dc.lft.to/lastmile_qr_scan", "android": "https://dc.lft.to/lastmile_qr_scan"}, "is_reserved": 0, "lon": -76.9968895, "fusion_lat": 0.0, "name": "8d4a7521c5d0185d7c52b4ca859d8cb0"}, {"type": "electric_scooter", "fusion_lon": 0.0, "bike_id": "6cf3ca4c570f9f18eef6d0ca3f8b487f", "is_disabled": 0, "lat": 38.892208333333336, "rental_uris": {"ios": "https://dc.lft.to/lastmile_qr_scan", "android": "https://dc.lft.to/lastmile_qr_scan"}, "is_reserved": 0, "lon": -77.02220883333334, "fusion_lat": 0.0, "name": "6cf3ca4c570f9f18eef6d0ca3f8b487f"}, {"type": "electric_bike", "fusion_lon": 0.0, "bike_id": "564fc0c34d562e1b1084ebf7d8dc785a", "is_disabled": 0, "lat": 38.88886883333333, "rental_uris": {"ios": "https://dc.lft.to/lastmile_qr_scan", "android": "https://dc.lft.to/lastmile_qr_scan"}, "is_reserved": 0, "lon": -77.07948183333333, "fusion_lat": 0.0, "name": "564fc0c34d562e1b1084ebf7d8dc785a"}, {"type": "electric_scooter", "fusion_lon": 0.0, "bike_id": "250f6fc5356bfb787baaadfd17d7e6de", "is_disabled": 0, "lat": 38.907436833333335, "rental_uris": {"ios": "https://dc.lft.to/lastmile_qr_scan", "android": "https://dc.lft.to/lastmile_qr_scan"}, "is_reserved": 0, "lon": -77.00768116666667, "fusion_lat": 0.0, "name": "250f6fc5356bfb787baaadfd17d7e6de"}, {"type": "electric_scooter", "fusion_lon": 0.0, "bike_id": "e59fd4cf04942750754ad1772648680d", "is_disabled": 0, "lat": 38.9202305, "rental_uris": {"ios": "https://dc.lft.to/lastmile_qr_scan", "android": "https://dc.lft.to/lastmile_qr_scan"}, "is_reserved": 0, "lon": -76.99563633333334, "fusion_lat": 0.0, "name": "e59fd4cf04942750754ad1772648680d"}, {"type": "electric_scooter", "fusion_lon": 0.0, "bike_id": "73e5974ff5cb91af941fa4f938217408", "is_disabled": 0, "lat": 38.87554866666667, "rental_uris": {"ios": "https://dc.lft.to/lastmile_qr_scan", "android": "https://dc.lft.to/lastmile_qr_scan"}, "is_reserved": 0, "lon": -77.0006135, "fusion_lat": 0.0, "name": "73e5974ff5cb91af941fa4f938217408"}, {"type": "electric_scooter", "fusion_lon": 0.0, "bike_id": "1a49afa0517d50af5d8fe3ae52b6a461", "is_disabled": 0, "lat": 38.902660833333336, "rental_uris": {"ios": "https://dc.lft.to/lastmile_qr_scan", "android": "https://dc.lft.to/lastmile_qr_scan"}, "is_reserved": 0, "lon": -77.01802566666667, "fusion_lat": 0.0, "name": "1a49afa0517d50af5d8fe3ae52b6a461"}, {"type": "electric_scooter", "fusion_lon": 0.0, "bike_id": "819bbc0f7a031e8fc4734c1c188d1351", "is_disabled": 0, "lat": 38.89532083333334, "rental_uris": {"ios": "https://dc.lft.to/lastmile_qr_scan", "android": "https://dc.lft.to/lastmile_qr_scan"}, "is_reserved": 0, "lon": -76.949315, "fusion_lat": 0.0, "name": "819bbc0f7a031e8fc4734c1c188d1351"}, {"type": "electric_scooter", "fusion_lon": 0.0, "bike_id": "7ca5a4fd4368c4de50e1ba1b160d4335", "is_disabled": 0, "lat": 38.91418516666667, "rental_uris": {"ios": "https://dc.lft.to/lastmile_qr_scan", "android": "https://dc.lft.to/lastmile_qr_scan"}, "is_reserved": 0, "lon": -77.03823283333334, "fusion_lat": 0.0, "name": "7ca5a4fd4368c4de50e1ba1b160d4335"}, {"type": "electric_scooter", "fusion_lon": 0.0, "bike_id": "c447e6721a8cf57af0ad99430b28753d", "is_disabled": 0, "lat": 38.921252, "rental_uris": {"ios": "https://dc.lft.to/lastmile_qr_scan", "android": "https://dc.lft.to/lastmile_qr_scan"}, "is_reserved": 0, "lon": -77.04572066666667, "fusion_lat": 0.0, "name": "c447e6721a8cf57af0ad99430b28753d"}, {"type": "electric_scooter", "fusion_lon": 0.0, "bike_id": "dff2478cc0269ee4dfd75866f9976210", "is_disabled": 0, "lat": 38.95731383333333, "rental_uris": {"ios": "https://dc.lft.to/lastmile_qr_scan", "android": "https://dc.lft.to/lastmile_qr_scan"}, "is_reserved": 0, "lon": -77.02404366666667, "fusion_lat": 0.0, "name": "dff2478cc0269ee4dfd75866f9976210"}, {"type": "electric_scooter", "fusion_lon": 0.0, "bike_id": "6db560c4bebe2601878786099a0c85d4", "is_disabled": 0, "lat": 38.89223366666667, "rental_uris": {"ios": "https://dc.lft.to/lastmile_qr_scan", "android": "https://dc.lft.to/lastmile_qr_scan"}, "is_reserved": 0, "lon": -77.0221895, "fusion_lat": 0.0, "name": "6db560c4bebe2601878786099a0c85d4"}, {"type": "electric_scooter", "fusion_lon": 0.0, "bike_id": "bfcf12f6d041643237d169a61affc566", "is_disabled": 0, "lat": 38.90015183333333, "rental_uris": {"ios": "https://dc.lft.to/lastmile_qr_scan", "android": "https://dc.lft.to/lastmile_qr_scan"}, "is_reserved": 0, "lon": -77.00199166666667, "fusion_lat": 0.0, "name": "bfcf12f6d041643237d169a61affc566"}, {"type": "electric_scooter", "fusion_lon": 0.0, "bike_id": "28e3910b8ffb32b4fa20ad28d917f0e0", "is_disabled": 0, "lat": 38.915633, "rental_uris": {"ios": "https://dc.lft.to/lastmile_qr_scan", "android": "https://dc.lft.to/lastmile_qr_scan"}, "is_reserved": 0, "lon": -77.0315815, "fusion_lat": 0.0, "name": "28e3910b8ffb32b4fa20ad28d917f0e0"}, {"type": "electric_scooter", "fusion_lon": 0.0, "bike_id": "19c22992357aa4a2a75b8ad5b9c3fe8a", "is_disabled": 0, "lat": 38.899049, "rental_uris": {"ios": "https://dc.lft.to/lastmile_qr_scan", "android": "https://dc.lft.to/lastmile_qr_scan"}, "is_reserved": 0, "lon": -77.048529, "fusion_lat": 0.0, "name": "19c22992357aa4a2a75b8ad5b9c3fe8a"}, {"type": "electric_scooter", "fusion_lon": 0.0, "bike_id": "fe457ab2a191933c381c07e08a718f67", "is_disabled": 0, "lat": 38.93895233333333, "rental_uris": {"ios": "https://dc.lft.to/lastmile_qr_scan", "android": "https://dc.lft.to/lastmile_qr_scan"}, "is_reserved": 0, "lon": -76.98612666666666, "fusion_lat": 0.0, "name": "fe457ab2a191933c381c07e08a718f67"}, {"type": "electric_scooter", "fusion_lon": 0.0, "bike_id": "f4f4bc1aaf4268b28bcebaa893fe23ff", "is_disabled": 0, "lat": 38.923714333333336, "rental_uris": {"ios": "https://dc.lft.to/lastmile_qr_scan", "android": "https://dc.lft.to/lastmile_qr_scan"}, "is_reserved": 0, "lon": -77.02250066666667, "fusion_lat": 0.0, "name": "f4f4bc1aaf4268b28bcebaa893fe23ff"}, {"type": "electric_scooter", "fusion_lon": 0.0, "bike_id": "6b5e6facf29762842e0583e036b2286d", "is_disabled": 0, "lat": 38.9088115, "rental_uris": {"ios": "https://dc.lft.to/lastmile_qr_scan", "android": "https://dc.lft.to/lastmile_qr_scan"}, "is_reserved": 0, "lon": -77.023148, "fusion_lat": 0.0, "name": "6b5e6facf29762842e0583e036b2286d"}, {"type": "electric_scooter", "fusion_lon": 0.0, "bike_id": "3cd52afb55e2762fd702d1e6e62406ca", "is_disabled": 0, "lat": 38.90980483333333, "rental_uris": {"ios": "https://dc.lft.to/lastmile_qr_scan", "android": "https://dc.lft.to/lastmile_qr_scan"}, "is_reserved": 0, "lon": -77.04869916666667, "fusion_lat": 0.0, "name": "3cd52afb55e2762fd702d1e6e62406ca"}, {"type": "electric_scooter", "fusion_lon": 0.0, "bike_id": "081e464d10dd6eda9c29bf713535bbd2", "is_disabled": 0, "lat": 38.90833083333333, "rental_uris": {"ios": "https://dc.lft.to/lastmile_qr_scan", "android": "https://dc.lft.to/lastmile_qr_scan"}, "is_reserved": 0, "lon": -77.03382416666666, "fusion_lat": 0.0, "name": "081e464d10dd6eda9c29bf713535bbd2"}, {"type": "electric_scooter", "fusion_lon": 0.0, "bike_id": "21ef7980249dd8cfaf25564ec6108e5a", "is_disabled": 0, "lat": 38.913433833333336, "rental_uris": {"ios": "https://dc.lft.to/lastmile_qr_scan", "android": "https://dc.lft.to/lastmile_qr_scan"}, "is_reserved": 0, "lon": -77.03202533333334, "fusion_lat": 0.0, "name": "21ef7980249dd8cfaf25564ec6108e5a"}, {"type": "electric_bike", "fusion_lon": 0.0, "bike_id": "1856dbe6b474f9f0a6d8cd8a9165f48c", "is_disabled": 0, "lat": 38.93567316666667, "rental_uris": {"ios": "https://dc.lft.to/lastmile_qr_scan", "android": "https://dc.lft.to/lastmile_qr_scan"}, "is_reserved": 0, "lon": -77.1061525, "fusion_lat": 0.0, "name": "1856dbe6b474f9f0a6d8cd8a9165f48c"}, {"type": "electric_scooter", "fusion_lon": 0.0, "bike_id": "69e6a2cab7881b424ab3b2e2fa3c7659", "is_disabled": 0, "lat": 38.972145, "rental_uris": {"ios": "https://dc.lft.to/lastmile_qr_scan", "android": "https://dc.lft.to/lastmile_qr_scan"}, "is_reserved": 0, "lon": -77.03337283333333, "fusion_lat": 0.0, "name": "69e6a2cab7881b424ab3b2e2fa3c7659"}, {"type": "electric_scooter", "fusion_lon": 0.0, "bike_id": "c950791c275a2e77dff5e960dc199c1c", "is_disabled": 0, "lat": 38.87663233333333, "rental_uris": {"ios": "https://dc.lft.to/lastmile_qr_scan", "android": "https://dc.lft.to/lastmile_qr_scan"}, "is_reserved": 0, "lon": -76.99624133333333, "fusion_lat": 0.0, "name": "c950791c275a2e77dff5e960dc199c1c"}, {"type": "electric_scooter", "fusion_lon": 0.0, "bike_id": "95b9fa0bdd30e2174301f60d8c809696", "is_disabled": 0, "lat": 38.879888666666666, "rental_uris": {"ios": "https://dc.lft.to/lastmile_qr_scan", "android": "https://dc.lft.to/lastmile_qr_scan"}, "is_reserved": 0, "lon": -76.98678583333333, "fusion_lat": 0.0, "name": "95b9fa0bdd30e2174301f60d8c809696"}, {"type": "electric_scooter", "fusion_lon": 0.0, "bike_id": "e101e8d0f2b8190af2f72aa1191d86a3", "is_disabled": 0, "lat": 38.904421166666665, "rental_uris": {"ios": "https://dc.lft.to/lastmile_qr_scan", "android": "https://dc.lft.to/lastmile_qr_scan"}, "is_reserved": 0, "lon": -77.05799416666666, "fusion_lat": 0.0, "name": "e101e8d0f2b8190af2f72aa1191d86a3"}, {"type": "electric_bike", "fusion_lon": 0.0, "bike_id": "85467140f8e2127ac9e0527e01a1725f", "is_disabled": 0, "lat": 38.84688716666667, "rental_uris": {"ios": "https://dc.lft.to/lastmile_qr_scan", "android": "https://dc.lft.to/lastmile_qr_scan"}, "is_reserved": 0, "lon": -76.9828105, "fusion_lat": 0.0, "name": "85467140f8e2127ac9e0527e01a1725f"}, {"type": "electric_scooter", "fusion_lon": 0.0, "bike_id": "5affa918c89a39ab025a6455098ac272", "is_disabled": 0, "lat": 38.89981483333333, "rental_uris": {"ios": "https://dc.lft.to/lastmile_qr_scan", "android": "https://dc.lft.to/lastmile_qr_scan"}, "is_reserved": 0, "lon": -77.01918783333333, "fusion_lat": 0.0, "name": "5affa918c89a39ab025a6455098ac272"}, {"type": "electric_scooter", "fusion_lon": 0.0, "bike_id": "384ddab523a15748d74e2aa7331dc5e7", "is_disabled": 0, "lat": 38.89345016666667, "rental_uris": {"ios": "https://dc.lft.to/lastmile_qr_scan", "android": "https://dc.lft.to/lastmile_qr_scan"}, "is_reserved": 0, "lon": -76.95226633333333, "fusion_lat": 0.0, "name": "384ddab523a15748d74e2aa7331dc5e7"}, {"type": "electric_scooter", "fusion_lon": 0.0, "bike_id": "a4b384c38edb8b4d67090b43b7085dfb", "is_disabled": 0, "lat": 38.90030766666667, "rental_uris": {"ios": "https://dc.lft.to/lastmile_qr_scan", "android": "https://dc.lft.to/lastmile_qr_scan"}, "is_reserved": 0, "lon": -77.002206, "fusion_lat": 0.0, "name": "a4b384c38edb8b4d67090b43b7085dfb"}, {"type": "electric_scooter", "fusion_lon": 0.0, "bike_id": "16eb072c942db7f4475a6f0b0adcd253", "is_disabled": 0, "lat": 38.90409666666667, "rental_uris": {"ios": "https://dc.lft.to/lastmile_qr_scan", "android": "https://dc.lft.to/lastmile_qr_scan"}, "is_reserved": 0, "lon": -76.97333866666666, "fusion_lat": 0.0, "name": "16eb072c942db7f4475a6f0b0adcd253"}, {"type": "electric_scooter", "fusion_lon": 0.0, "bike_id": "b7376b078acf4a4680c570c4b67691f9", "is_disabled": 0, "lat": 38.9206625, "rental_uris": {"ios": "https://dc.lft.to/lastmile_qr_scan", "android": "https://dc.lft.to/lastmile_qr_scan"}, "is_reserved": 0, "lon": -77.02295466666666, "fusion_lat": 0.0, "name": "b7376b078acf4a4680c570c4b67691f9"}, {"type": "electric_scooter", "fusion_lon": 0.0, "bike_id": "d7d1dee1da669d97fb8905d0c70f637b", "is_disabled": 0, "lat": 38.8746855, "rental_uris": {"ios": "https://dc.lft.to/lastmile_qr_scan", "android": "https://dc.lft.to/lastmile_qr_scan"}, "is_reserved": 0, "lon": -77.00555716666666, "fusion_lat": 0.0, "name": "d7d1dee1da669d97fb8905d0c70f637b"}, {"type": "electric_scooter", "fusion_lon": 0.0, "bike_id": "7e00d72685e65fcb084d5a2a66a6cbb7", "is_disabled": 0, "lat": 38.898560833333335, "rental_uris": {"ios": "https://dc.lft.to/lastmile_qr_scan", "android": "https://dc.lft.to/lastmile_qr_scan"}, "is_reserved": 0, "lon": -77.02594383333333, "fusion_lat": 0.0, "name": "7e00d72685e65fcb084d5a2a66a6cbb7"}, {"type": "electric_scooter", "fusion_lon": 0.0, "bike_id": "87a1edf4b971d26de9667f31bd9fd3f3", "is_disabled": 0, "lat": 38.9271835, "rental_uris": {"ios": "https://dc.lft.to/lastmile_qr_scan", "android": "https://dc.lft.to/lastmile_qr_scan"}, "is_reserved": 0, "lon": -77.02078333333333, "fusion_lat": 0.0, "name": "87a1edf4b971d26de9667f31bd9fd3f3"}, {"type": "electric_bike", "fusion_lon": 0.0, "bike_id": "b464405c502f51e67485462349a93158", "is_disabled": 0, "lat": 38.92003416666667, "rental_uris": {"ios": "https://dc.lft.to/lastmile_qr_scan", "android": "https://dc.lft.to/lastmile_qr_scan"}, "is_reserved": 0, "lon": -76.95822466666667, "fusion_lat": 0.0, "name": "b464405c502f51e67485462349a93158"}, {"type": "electric_scooter", "fusion_lon": 0.0, "bike_id": "216119fa6f8063bf32a628bead0f327e", "is_disabled": 0, "lat": 38.924964, "rental_uris": {"ios": "https://dc.lft.to/lastmile_qr_scan", "android": "https://dc.lft.to/lastmile_qr_scan"}, "is_reserved": 0, "lon": -77.02404333333334, "fusion_lat": 0.0, "name": "216119fa6f8063bf32a628bead0f327e"}, {"type": "electric_scooter", "fusion_lon": 0.0, "bike_id": "743444c0ab98145f82a2852e73a77406", "is_disabled": 0, "lat": 38.9073225, "rental_uris": {"ios": "https://dc.lft.to/lastmile_qr_scan", "android": "https://dc.lft.to/lastmile_qr_scan"}, "is_reserved": 0, "lon": -76.97983633333334, "fusion_lat": 0.0, "name": "743444c0ab98145f82a2852e73a77406"}, {"type": "electric_scooter", "fusion_lon": 0.0, "bike_id": "69e3d0135eae1fefdc5cf6c438b53cec", "is_disabled": 0, "lat": 38.9350655, "rental_uris": {"ios": "https://dc.lft.to/lastmile_qr_scan", "android": "https://dc.lft.to/lastmile_qr_scan"}, "is_reserved": 0, "lon": -77.02421833333334, "fusion_lat": 0.0, "name": "69e3d0135eae1fefdc5cf6c438b53cec"},