{"data": {"bikes": [{"lat": 38.904736166666666, "is_disabled": 0, "type": "electric_scooter", "lon": -77.00720766666667, "bike_id": "27bc59c74c813f70923316552f0b9cb9", "fusion_lat": 0.0, "name": "27bc59c74c813f70923316552f0b9cb9", "is_reserved": 0, "rental_uris": {"android": "https://dc.lft.to/lastmile_qr_scan", "ios": "https://dc.lft.to/lastmile_qr_scan"}, "fusion_lon": 0.0}, {"lat": 38.871392, "is_disabled": 0, "type": "electric_bike", "lon": -76.937081, "bike_id": "35d08291e381c2da21fabaee2c76b6bd", "fusion_lat": 0.0, "name": "35d08291e381c2da21fabaee2c76b6bd", "is_reserved": 0, "rental_uris": {"android": "https://dc.lft.to/lastmile_qr_scan", "ios": "https://dc.lft.to/lastmile_qr_scan"}, "fusion_lon": 0.0}, {"lat": 38.884275333333335, "is_disabled": 0, "type": "electric_bike", "lon": -76.957569, "bike_id": "54c8145e55695d9ec85dba0c1107fbff", "fusion_lat": 0.0, "name": "54c8145e55695d9ec85dba0c1107fbff", "is_reserved": 0, "rental_uris": {"android": "https://dc.lft.to/lastmile_qr_scan", "ios": "https://dc.lft.to/lastmile_qr_scan"}, "fusion_lon": 0.0}, {"lat": 38.9001835, "is_disabled": 0, "type": "electric_scooter", "lon": -76.98796666666667, "bike_id": "ca80dd9bc2a3743cf39e1ce37039ad15", "fusion_lat": 0.0, "name": "ca80dd9bc2a3743cf39e1ce37039ad15", "is_reserved": 0, "rental_uris": {"android": "https://dc.lft.to/lastmile_qr_scan", "ios": "https://dc.lft.to/lastmile_qr_scan"}, "fusion_lon": 0.0}, {"lat": 38.911696666666664, "is_disabled": 0, "type": "electric_bike", "lon": -77.00287833333333, "bike_id": "821c7e3454dde57dba67b353aa926688", "fusion_lat": 0.0, "name": "821c7e3454dde57dba67b353aa926688", "is_reserved": 0, "rental_uris": {"android": "https://dc.lft.to/lastmile_qr_scan", "ios": "https://dc.lft.to/lastmile_qr_scan"}, "fusion_lon": 0.0}, {"lat": 38.91610933333333, "is_disabled": 0, "type": "electric_scooter", "lon": -77.032675, "bike_id": "e0252b5a95bbc069cc891d63ba7f1778", "fusion_lat": 0.0, "name": "e0252b5a95bbc069cc891d63ba7f1778", "is_reserved": 0, "rental_uris": {"android": "https://dc.lft.to/lastmile_qr_scan", "ios": "https://dc.lft.to/lastmile_qr_scan"}, "fusion_lon": 0.0}, {"lat": 38.93098616666666, "is_disabled": 0, "type": "electric_scooter", "lon": -77.03470233333333, "bike_id": "1d852f1cb1904547d77b527d3f917ddc", "fusion_lat": 0.0, "name": "1d852f1cb1904547d77b527d3f917ddc", "is_reserved": 0, "rental_uris": {"android": "https://dc.lft.to/lastmile_qr_scan", "ios": "https://dc.lft.to/lastmile_qr_scan"}, "fusion_lon": 0.0}, {"lat": 38.93095983333333, "is_disabled": 0, "type": "electric_scooter", "lon": -77.02508233333333, "bike_id": "75711d1ad8854c31b2dfb4916d7a2be2", "fusion_lat": 0.0, "name": "75711d1ad8854c31b2dfb4916d7a2be2", "is_reserved": 0, "rental_uris": {"android": "https://dc.lft.to/lastmile_qr_scan", "ios": "https://dc.lft.to/lastmile_qr_scan"}, "fusion_lon": 0.0}, {"lat": 38.9017545, "is_disabled": 0, "type": "electric_scooter", "lon": -76.9807465, "bike_id": "8e9d662ea7a65e1584c93e413cab353c", "fusion_lat": 0.0, "name": "8e9d662ea7a65e1584c93e413cab353c", "is_reserved": 0, "rental_uris": {"android": "https://dc.lft.to/lastmile_qr_scan", "ios": "https://dc.lft.to/lastmile_qr_scan"}, "fusion_lon": 0.0}, {"lat": 38.871495833333334, "is_disabled": 0, "type": "electric_scooter", "lon": -77.01319733333334, "bike_id": "683c3700779770f06bb00b538b757b20", "fusion_lat": 0.0, "name": "683c3700779770f06bb00b538b757b20", "is_reserved": 0, "rental_uris": {"android": "https://dc.lft.to/lastmile_qr_scan", "ios": "https://dc.lft.to/lastmile_qr_scan"}, "fusion_lon": 0.0}, {"lat": 38.845720166666666, "is_disabled": 0, "type": "electric_bike", "lon": -77.09620616666666, "bike_id": "1217266587ca9e41c2b9a006c606dc2e", "fusion_lat": 0.0, "name": "1217266587ca9e41c2b9a006c606dc2e", "is_reserved": 0, "rental_uris": {"android": "https://dc.lft.to/lastmile_qr_scan", "ios": "https://dc.lft.to/lastmile_qr_scan"}, "fusion_lon": 0.0}, {"lat": 38.934425166666664, "is_disabled": 0, "type": "electric_scooter", "lon": -77.03871483333333, "bike_id": "b1d092121261e788d897bee5d64edaf2", "fusion_lat": 0.0, "name": "b1d092121261e788d897bee5d64edaf2", "is_reserved": 0, "rental_uris": {"android": "https://dc.lft.to/lastmile_qr_scan", "ios": "https://dc.lft.to/lastmile_qr_scan"}, "fusion_lon": 0.0}, {"lat": 38.83683216666667, "is_disabled": 0, "type": "electric_scooter", "lon": -77.103114, "bike_id": "f6f7e6afbb3c1f55d0ff1ad8aac65d63", "fusion_lat": 0.0, "name": "f6f7e6afbb3c1f55d0ff1ad8aac65d63", "is_reserved": 0, "rental_uris": {"android": "https://dc.lft.to/lastmile_qr_scan", "ios": "https://dc.lft.to/lastmile_qr_scan"}, "fusion_lon": 0.0}, {"lat": 38.9023095, "is_disabled": 0, "type": "electric_scooter", "lon": -77.053394, "bike_id": "58a137a8f71ed76e2790e9e33b46eb8e", "fusion_lat": 0.0, "name": "58a137a8f71ed76e2790e9e33b46eb8e", "is_reserved": 0, "rental_uris": {"android": "https://dc.lft.to/lastmile_qr_scan", "ios": "https://dc.lft.to/lastmile_qr_scan"}, "fusion_lon": 0.0}, {"lat": 38.867152, "is_disabled": 0, "type": "electric_scooter", "lon": -76.98726033333334, "bike_id": "30a18d11eed96e59e7749d347288d788", "fusion_lat": 0.0, "name": "30a18d11eed96e59e7749d347288d788", "is_reserved": 0, "rental_uris": {"android": "https://dc.lft.to/lastmile_qr_scan", "ios": "https://dc.lft.to/lastmile_qr_scan"}, "fusion_lon": 0.0}, {"lat": 38.92071683333333, "is_disabled": 0, "type": "electric_scooter", "lon": -77.02423183333333, "bike_id": "366b72d5a2e5ce0d00db794a5c47c668", "fusion_lat": 0.0, "name": "366b72d5a2e5ce0d00db794a5c47c668", "is_reserved": 0, "rental_uris": {"android": "https://dc.lft.to/lastmile_qr_scan", "ios": "https://dc.lft.to/lastmile_qr_scan"}, "fusion_lon": 0.0}, {"lat": 38.973138, "is_disabled": 0, "type": "electric_scooter", "lon": -77.027083, "bike_id": "b5058012c8e7dcc2d827fb55f058a03f", "fusion_lat": 0.0, "name": "b5058012c8e7dcc2d827fb55f058a03f", "is_reserved": 0, "rental_uris": {"android": "https://dc.lft.to/lastmile_qr_scan", "ios": "https://dc.lft.to/lastmile_qr_scan"}, "fusion_lon": 0.0}, {"lat": 38.89521966666667, "is_disabled": 0, "type": "electric_scooter", "lon": -77.0111845, "bike_id": "54321ce05b6a4e96750cbf909bdead01", "fusion_lat": 0.0, "name": "54321ce05b6a4e96750cbf909bdead01", "is_reserved": 0, "rental_uris": {"android": "https://dc.lft.to/lastmile_qr_scan", "ios": "https://dc.lft.to/lastmile_qr_scan"}, "fusion_lon": 0.0}, {"lat": 38.86989233333333, "is_disabled": 0, "type": "electric_bike", "lon": -76.9598335, "bike_id": "3deb6c731f5416dfeed4a303f2dc7e45", "fusion_lat": 0.0, "name": "3deb6c731f5416dfeed4a303f2dc7e45", "is_reserved": 0, "rental_uris": {"android": "https://dc.lft.to/lastmile_qr_scan", "ios": "https://dc.lft.to/lastmile_qr_scan"}, "fusion_lon": 0.0}, {"lat": 38.89846466666667, "is_disabled": 0, "type": "electric_scooter", "lon": -77.03954983333334, "bike_id": "3d6e5ef6d1945b634b0aa46a83fa181d", "fusion_lat": 0.0, "name": "3d6e5ef6d1945b634b0aa46a83fa181d", "is_reserved": 0, "rental_uris": {"android": "https://dc.lft.to/lastmile_qr_scan", "ios": "https://dc.lft.to/lastmile_qr_scan"}, "fusion_lon": 0.0}, {"lat": 38.98507883333333, "is_disabled": 0, "type": "electric_bike", "lon": -76.982105, "bike_id": "88e2b803478fa9e7f253ee5564c9a806", "fusion_lat": 0.0, "name": "88e2b803478fa9e7f253ee5564c9a806", "is_reserved": 0, "rental_uris": {"android": "https://dc.lft.to/lastmile_qr_scan", "ios": "https://dc.lft.to/lastmile_qr_scan"}, "fusion_lon": 0.0}, {"lat": 38.93880633333333, "is_disabled": 0, "type": "electric_scooter", "lon": -77.0328485, "bike_id": "b59bbcf0cdef5ea07833e8e8a21ceb01", "fusion_lat": 0.0, "name": "b59bbcf0cdef5ea07833e8e8a21ceb01", "is_reserved": 0, "rental_uris": {"android": "https://dc.lft.to/lastmile_qr_scan", "ios": "https://dc.lft.to/lastmile_qr_scan"}, "fusion_lon": 0.0}, {"lat": 38.899780166666666, "is_disabled": 0, "type": "electric_scooter", "lon": -77.021003, "bike_id": "d39616c98b371ec582e18e43e6360cca", "fusion_lat": 0.0, "name": "d39616c98b371ec582e18e43e6360cca", "is_reserved": 0, "rental_uris": {"android": "https://dc.lft.to/lastmile_qr_scan", "ios": "https://dc.lft.to/lastmile_qr_scan"}, "fusion_lon": 0.0}, {"lat": 38.8589655, "is_disabled": 0, "type": "electric_scooter", "lon": -76.99436833333333, "bike_id": "eabb0c2eeb47d961a20d9b721c3acb35", "fusion_lat": 0.0, "name": "eabb0c2eeb47d961a20d9b721c3acb35", "is_reserved": 0, "rental_uris": {"android": "https://dc.lft.to/lastmile_qr_scan", "ios": "https://dc.lft.to/lastmile_qr_scan"}, "fusion_lon": 0.0}, {"lat": 38.82263783333333, "is_disabled": 0, "type": "electric_bike", "lon": -77.05817883333333, "bike_id": "7547cb585b33772a283023c6efb941cd", "fusion_lat": 0.0, "name": "7547cb585b33772a283023c6efb941cd", "is_reserved": 0, "rental_uris": {"android": "https://dc.lft.to/lastmile_qr_scan", "ios": "https://dc.lft.to/lastmile_qr_scan"}, "fusion_lon": 0.0}, {"lat": 38.902332, "is_disabled": 0, "type": "electric_scooter", "lon": -77.053357, "bike_id": "874682c05845abf89bcdf495eb905609", "fusion_lat": 0.0, "name": "874682c05845abf89bcdf495eb905609", "is_reserved": 0, "rental_uris": {"android": "https://dc.lft.to/lastmile_qr_scan", "ios": "https://dc.lft.to/lastmile_qr_scan"}, "fusion_lon": 0.0}, {"lat": 38.898180333333336, "is_disabled": 0, "type": "electric_scooter", "lon": -77.0316615, "bike_id": "f94b0a2d208df3f8f24c6f4cfa791a4e", "fusion_lat": 0.0, "name": "f94b0a2d208df3f8f24c6f4cfa791a4e", "is_reserved": 0, "rental_uris": {"android": "https://dc.lft.to/lastmile_qr_scan", "ios": "https://dc.lft.to/lastmile_qr_scan"}, "fusion_lon": 0.0}, {"lat": 38.92832383333333, "is_disabled": 0, "type": "electric_scooter", "lon": -77.02189983333334, "bike_id": "23e2393b512072eb4a9f047dff0c654c", "fusion_lat": 0.0, "name": "23e2393b512072eb4a9f047dff0c654c", "is_reserved": 0, "rental_uris": {"android": "https://dc.lft.to/lastmile_qr_scan", "ios": "https://dc.lft.to/lastmile_qr_scan"}, "fusion_lon": 0.0}, {"lat": 38.90792116666667, "is_disabled": 0, "type": "electric_scooter", "lon": -77.03641783333333, "bike_id": "0504306fea3fe8aaa8f0b2328722566e", "fusion_lat": 0.0, "name": "0504306fea3fe8aaa8f0b2328722566e", "is_reserved": 0, "rental_uris": {"android": "https://dc.lft.to/lastmile_qr_scan", "ios": "https://dc.lft.to/lastmile_qr_scan"}, "fusion_lon": 0.0}, {"lat": 38.93234266666666, "is_disabled": 0, "type": "electric_bike", "lon": -76.97426833333333, "bike_id": "fb60f0baf24cb218dd505e6e3a311170", "fusion_lat": 0.0, "name": "fb60f0baf24cb218dd505e6e3a311170", "is_reserved": 0, "rental_uris": {"android": "https://dc.lft.to/lastmile_qr_scan", "ios": "https://dc.lft.to/lastmile_qr_scan"}, "fusion_lon": 0.0}, {"lat": 38.922936666666665, "is_disabled": 0, "type": "electric_scooter", "lon": -77.03663416666667, "bike_id": "7f2bdac7c3e2432a053127e7a12745b1", "fusion_lat": 0.0, "name": "7f2bdac7c3e2432a053127e7a12745b1", "is_reserved": 0, "rental_uris": {"android": "https://dc.lft.to/lastmile_qr_scan", "ios": "https://dc.lft.to/lastmile_qr_scan"}, "fusion_lon": 0.0}, {"lat": 38.95079616666666, "is_disabled": 0, "type": "electric_bike", "lon": -77.01205233333333, "bike_id": "38fd5bd5fef5f2af9423b82e1bb15f88", "fusion_lat": 0.0, "name": "38fd5bd5fef5f2af9423b82e1bb15f88", "is_reserved": 0, "rental_uris": {"android": "https://dc.lft.to/lastmile_qr_scan", "ios": "https://dc.lft.to/lastmile_qr_scan"}, "fusion_lon": 0.0}, {"lat": 38.906930333333335, "is_disabled": 0, "type": "electric_scooter", "lon": -77.04353683333333, "bike_id": "e7de9133456b139db1beb1baa3f63c39", "fusion_lat": 0.0, "name": "e7de9133456b139db1beb1baa3f63c39", "is_reserved": 0, "rental_uris": {"android": "https://dc.lft.to/lastmile_qr_scan", "ios": "https://dc.lft.to/lastmile_qr_scan"}, "fusion_lon": 0.0}, {"lat": 38.905218833333336, "is_disabled": 0, "type": "electric_scooter", "lon": -77.06446016666666, "bike_id": "8091f0fa626b58de16f2b5e6eac5dd4e", "fusion_lat": 0.0, "name": "8091f0fa626b58de16f2b5e6eac5dd4e", "is_reserved": 0, "rental_uris": {"android": "https://dc.lft.to/lastmile_qr_scan", "ios": "https://dc.lft.to/lastmile_qr_scan"}, "fusion_lon": 0.0}, {"lat": 38.90242516666667, "is_disabled": 0, "type": "electric_scooter", "lon": -77.0203795, "bike_id": "c83885e5ef01f299a44c5b4985a141e8", "fusion_lat": 0.0, "name": "c83885e5ef01f299a44c5b4985a141e8", "is_reserved": 0, "rental_uris": {"android": "https://dc.lft.to/lastmile_qr_scan", "ios": "https://dc.lft.to/lastmile_qr_scan"}, "fusion_lon": 0.0}, {"lat": 38.9521045, "is_disabled": 0, "type": "electric_scooter", "lon": -77.06883866666666, "bike_id": "2e43d65489871dfb3335e997881dcc97", "fusion_lat": 0.0, "name": "2e43d65489871dfb3335e997881dcc97", "is_reserved": 0, "rental_uris": {"android": "https://dc.lft.to/lastmile_qr_scan", "ios": "https://dc.lft.to/lastmile_qr_scan"}, "fusion_lon": 0.0}, {"lat": 38.92356983333333, "is_disabled": 0, "type": "electric_scooter", "lon": -77.05098366666667, "bike_id": "f685c846088641a33bf9c0e7c953e974", "fusion_lat": 0.0, "name": "f685c846088641a33bf9c0e7c953e974", "is_reserved": 0, "rental_uris": {"android": "https://dc.lft.to/lastmile_qr_scan", "ios": "https://dc.lft.to/lastmile_qr_scan"}, "fusion_lon": 0.0}, {"lat": 38.93411366666667, "is_disabled": 0, "type": "electric_scooter", "lon": -77.020364, "bike_id": "960c32263e323d0f32df58c5eda4eb7e", "fusion_lat": 0.0, "name": "960c32263e323d0f32df58c5eda4eb7e", "is_reserved": 0, "rental_uris": {"android": "https://dc.lft.to/lastmile_qr_scan", "ios": "https://dc.lft.to/lastmile_qr_scan"}, "fusion_lon": 0.0}, {"lat": 38.93173516666667, "is_disabled": 0, "type": "electric_scooter", "lon": -77.02820533333333, "bike_id": "69fa91d274aa8bfbb7bc922050ae6de6", "fusion_lat": 0.0, "name": "69fa91d274aa8bfbb7bc922050ae6de6", "is_reserved": 0, "rental_uris": {"android": "https://dc.lft.to/lastmile_qr_scan", "ios": "https://dc.lft.to/lastmile_qr_scan"}, "fusion_lon": 0.0}, {"lat": 38.90814833333334, "is_disabled": 0, "type": "electric_scooter", "lon": -76.99711, "bike_id": "d2b5f15257a2160fe5e645dd26078727", "fusion_lat": 0.0, "name": "d2b5f15257a2160fe5e645dd26078727", "is_reserved": 0, "rental_uris": {"android": "https://dc.lft.to/lastmile_qr_scan", "ios": "https://dc.lft.to/lastmile_qr_scan"}, "fusion_lon": 0.0}, {"lat": 38.900675, "is_disabled": 0, "type": "electric_scooter", "lon": -77.00562183333334, "bike_id": "8d86f5dd1f4c2aef1a4d3338e8db0b08", "fusion_lat": 0.0, "name": "8d86f5dd1f4c2aef1a4d3338e8db0b08", "is_reserved": 0, "rental_uris": {"android": "https://dc.lft.to/lastmile_qr_scan", "ios": "https://dc.lft.to/lastmile_qr_scan"}, "fusion_lon": 0.0}, {"lat": 38.905583166666666, "is_disabled": 0, "type": "electric_scooter", "lon": -76.98372966666666, "bike_id": "3437078869793ab3d8f085b90820d036", "fusion_lat": 0.0, "name": "3437078869793ab3d8f085b90820d036", "is_reserved": 0, "rental_uris": {"android": "https://dc.lft.to/lastmile_qr_scan", "ios": "https://dc.lft.to/lastmile_qr_scan"}, "fusion_lon": 0.0}, {"lat": 38.923518333333334, "is_disabled": 0, "type": "electric_scooter", "lon": -77.04151783333333, "bike_id": "1805c29c77edc252b6aa70cb5b613c5a", "fusion_lat": 0.0, "name": "1805c29c77edc252b6aa70cb5b613c5a", "is_reserved": 0, "rental_uris": {"android": "https://dc.lft.to/lastmile_qr_scan", "ios": "https://dc.lft.to/lastmile_qr_scan"}, "fusion_lon": 0.0}, {"lat": 38.9225355, "is_disabled": 0, "type": "electric_scooter", "lon": -77.019734, "bike_id": "2b3682680cbb9853f71cc27657d8511f", "fusion_lat": 0.0, "name": "2b3682680cbb9853f71cc27657d8511f", "is_reserved": 0, "rental_uris": {"android": "https://dc.lft.to/lastmile_qr_scan", "ios": "https://dc.lft.to/lastmile_qr_scan"}, "fusion_lon": 0.0}, {"lat": 38.871496, "is_disabled": 0, "type": "electric_bike", "lon": -76.93664033333333, "bike_id": "fbce14d4d3cc9b72f4cde7b8e8b9a7ea", "fusion_lat": 0.0, "name": "fbce14d4d3cc9b72f4cde7b8e8b9a7ea", "is_reserved": 0, "rental_uris": {"android": "https://dc.lft.to/lastmile_qr_scan", "ios": "https://dc.lft.to/lastmile_qr_scan"}, "fusion_lon": 0.0}, {"lat": 38.944312333333336, "is_disabled": 0, "type": "electric_scooter", "lon": -77.06305066666667, "bike_id": "45930b030f0c2bbcb9e7a5297a9b6c34", "fusion_lat": 0.0, "name": "45930b030f0c2bbcb9e7a5297a9b6c34", "is_reserved": 0, "rental_uris": {"android": "https://dc.lft.to/lastmile_qr_scan", "ios": "https://dc.lft.to/lastmile_qr_scan"}, "fusion_lon": 0.0}, {"lat": 38.888879, "is_disabled": 0, "type": "electric_scooter", "lon": -76.9315975, "bike_id": "a9c33f98ed7e89080a917e984ffbd038", "fusion_lat": 0.0, "name": "a9c33f98ed7e89080a917e984ffbd038", "is_reserved": 0, "rental_uris": {"android": "https://dc.lft.to/lastmile_qr_scan", "ios": "https://dc.lft.to/lastmile_qr_scan"}, "fusion_lon": 0.0}, {"lat": 38.96622383333333, "is_disabled": 0, "type": "electric_bike", "lon": -76.97672016666667, "bike_id": "66de1cc0872e66a94a8e4d2623df5599", "fusion_lat": 0.0, "name": "66de1cc0872e66a94a8e4d2623df5599", "is_reserved": 0, "rental_uris": {"android": "https://dc.lft.to/lastmile_qr_scan", "ios": "https://dc.lft.to/lastmile_qr_scan"}, "fusion_lon": 0.0}, {"lat": 38.91977133333333, "is_disabled": 0, "type": "electric_scooter", "lon": -77.01211266666667, "bike_id": "70d5adcce7dd4c23ad60ff3a56ed1c0e", "fusion_lat": 0.0, "name": "70d5adcce7dd4c23ad60ff3a56ed1c0e", "is_reserved": 0, "rental_uris": {"android": "https://dc.lft.to/lastmile_qr_scan", "ios": "https://dc.lft.to/lastmile_qr_scan"}, "fusion_lon": 0.0}, {"lat": 38.93584383333334, "is_disabled": 0, "type": "electric_bike", "lon": -77.10680433333333, "bike_id": "ff1ee22fcb7cd6b3c6cc716b2a33569e", "fusion_lat": 0.0, "name": "ff1ee22fcb7cd6b3c6cc716b2a33569e", "is_reserved": 0, "rental_uris": {"android": "https://dc.lft.to/lastmile_qr_scan", "ios": "https://dc.lft.to/lastmile_qr_scan"}, "fusion_lon": 0.0}, {"lat": 38.883133, "is_disabled": 0, "type": "electric_scooter", "lon": -77.00936866666666, "bike_id": "207856196d4983b74ff7ad02bd118571", "fusion_lat": 0.0, "name": "207856196d4983b74ff7ad02bd118571", "is_reserved": 0, "rental_uris": {"android": "https://dc.lft.to/lastmile_qr_scan", "ios": "https://dc.lft.to/lastmile_qr_scan"}, "fusion_lon": 0.0}, {"lat": 38.907855833333336, "is_disabled": 0, "type": "electric_scooter", "lon": -77.03479333333334, "bike_id": "e76bef0f97302fd41fe7340492173cef", "fusion_lat": 0.0, "name": "e76bef0f97302fd41fe7340492173cef", "is_reserved": 0, "rental_uris": {"android": "https://dc.lft.to/lastmile_qr_scan", "ios": "https://dc.lft.to/lastmile_qr_scan"}, "fusion_lon": 0.0}, {"lat": 38.902271166666665, "is_disabled": 0, "type": "electric_scooter", "lon": -77.0049315, "bike_id": "7532ead9ce6ba0a97261344351ee4b76", "fusion_lat": 0.0, "name": "7532ead9ce6ba0a97261344351ee4b76", "is_reserved": 0, "rental_uris": {"android": "https://dc.lft.to/lastmile_qr_scan", "ios": "https://dc.lft.to/lastmile_qr_scan"}, "fusion_lon": 0.0}, {"lat": 38.93625133333333, "is_disabled": 0, "type": "electric_scooter", "lon": -77.03652616666666, "bike_id": "7d68a4241052339990484fe5edd6106e", "fusion_lat": 0.0, "name": "7d68a4241052339990484fe5edd6106e", "is_reserved": 0, "rental_uris": {"android": "https://dc.lft.to/lastmile_qr_scan", "ios": "https://dc.lft.to/lastmile_qr_scan"}, "fusion_lon": 0.0}, {"lat": 38.92707633333333, "is_disabled": 0, "type": "electric_scooter", "lon": -77.02094516666666, "bike_id": "8bd5f391cfda0299a36109356fc954ca", "fusion_lat": 0.0, "name": "8bd5f391cfda0299a36109356fc954ca", "is_reserved": 0, "rental_uris": {"android": "https://dc.lft.to/lastmile_qr_scan", "ios": "https://dc.lft.to/lastmile_qr_scan"}, "fusion_lon": 0.0}, {"lat": 38.924151, "is_disabled": 0, "type": "electric_bike", "lon": -77.05038266666666, "bike_id": "7957ad6f8226a55a6a90f27d3956884e", "fusion_lat": 0.0, "name": "7957ad6f8226a55a6a90f27d3956884e", "is_reserved": 0, "rental_uris": {"android": "https://dc.lft.to/lastmile_qr_scan", "ios": "https://dc.lft.to/lastmile_qr_scan"}, "fusion_lon": 0.0}, {"lat": 38.918962, "is_disabled": 0, "type": "electric_scooter", "lon": -77.0344635, "bike_id": "b06b3a111b02cc2471d2f73bc9b607ba", "fusion_lat": 0.0, "name": "b06b3a111b02cc2471d2f73bc9b607ba", "is_reserved": 0, "rental_uris": {"android": "https://dc.lft.to/lastmile_qr_scan", "ios": "https://dc.lft.to/lastmile_qr_scan"}, "fusion_lon": 0.0}, {"lat": 38.900369, "is_disabled": 0, "type": "electric_scooter", "lon": -77.00577116666666, "bike_id": "d97e69640f9c144a638a428b82f2bd44", "fusion_lat": 0.0, "name": "d97e69640f9c144a638a428b82f2bd44", "is_reserved": 0, "rental_uris": {"android": "https://dc.lft.to/lastmile_qr_scan", "ios": "https://dc.lft.to/lastmile_qr_scan"}, "fusion_lon": 0.0}, {"lat": 38.92469233333333, "is_disabled": 0, "type": "electric_bike", "lon": -77.2083565, "bike_id": "5ba7f5ec624fcdfdbb885f82f67fc5b1", "fusion_lat": 0.0, "name": "5ba7f5ec624fcdfdbb885f82f67fc5b1", "is_reserved": 0, "rental_uris": {"android": "https://dc.lft.to/lastmile_qr_scan", "ios": "https://dc.lft.to/lastmile_qr_scan"}, "fusion_lon": 0.0}, {"lat": 38.94465666666667, "is_disabled": 0, "type": "electric_scooter", "lon": -77.06031133333333, "bike_id": "a09587b9e0646871e50cbe773d31f3f3", "fusion_lat": 0.0, "name": "a09587b9e0646871e50cbe773d31f3f3", "is_reserved": 0, "rental_uris": {"android": "https://dc.lft.to/lastmile_qr_scan", "ios": "https://dc.lft.to/lastmile_qr_scan"}, "fusion_lon": 0.0}, {"lat": 38.9527635, "is_disabled": 0, "type": "electric_scooter", "lon": -77.03664333333333, "bike_id": "397a58a085041b7375d7e90acd4b79c6", "fusion_lat": 0.0, "name": "397a58a085041b7375d7e90acd4b79c6", "is_reserved": 0, "rental_uris": {"android": "https://dc.lft.to/lastmile_qr_scan", "ios": "https://dc.lft.to/lastmile_qr_scan"}, "fusion_lon": 0.0}, {"lat": 38.893735166666666, "is_disabled": 0, "type": "electric_scooter", "lon": -77.0479245, "bike_id": "b991838c02ba3d7c9f8ebc407f96220d", "fusion_lat": 0.0, "name": "b991838c02ba3d7c9f8ebc407f96220d", "is_reserved": 0, "rental_uris": {"android": "https://dc.lft.to/lastmile_qr_scan", "ios": "https://dc.lft.to/lastmile_qr_scan"}, "fusion_lon": 0.0}, {"lat": 38.85809583333333, "is_disabled": 0, "type": "electric_scooter", "lon": -76.98654616666667, "bike_id": "f166b7eb0ef4953a8f1c04fc21a772fb", "fusion_lat": 0.0, "name": "f166b7eb0ef4953a8f1c04fc21a772fb", "is_reserved": 0, "rental_uris": {"android": "https://dc.lft.to/lastmile_qr_scan", "ios": "https://dc.lft.to/lastmile_qr_scan"}, "fusion_lon": 0.0}, {"lat": 38.9444725, "is_disabled": 0, "type": "electric_scooter", "lon": -77.03284116666667, "bike_id": "54752254f5f2e7d101ae31a55e8a97be", "fusion_lat": 0.0, "name": "54752254f5f2e7d101ae31a55e8a97be", "is_reserved": 0, "rental_uris": {"android": "https://dc.lft.to/lastmile_qr_scan", "ios": "https://dc.lft.to/lastmile_qr_scan"}, "fusion_lon": 0.0}, {"lat": 38.91689483333333, "is_disabled": 0, "type": "electric_scooter", "lon": -77.04336616666667, "bike_id": "32ac6519be17b1d5841d71f1fba888a8", "fusion_lat": 0.0, "name": "32ac6519be17b1d5841d71f1fba888a8", "is_reserved": 0, "rental_uris": {"android": "https://dc.lft.to/lastmile_qr_scan", "ios": "https://dc.lft.to/lastmile_qr_scan"}, "fusion_lon": 0.0}, {"lat": 38.91600733333333, "is_disabled": 0, "type": "electric_scooter", "lon": -77.07565716666667, "bike_id": "799826eb45e7f9d100e6b4198c3ded70", "fusion_lat": 0.0, "name": "799826eb45e7f9d100e6b4198c3ded70", "is_reserved": 0, "rental_uris": {"android": "https://dc.lft.to/lastmile_qr_scan", "ios": "https://dc.lft.to/lastmile_qr_scan"}, "fusion_lon": 0.0}, {"lat": 38.87447783333333, "is_disabled": 0, "type": "electric_bike", "lon": -77.10819316666667, "bike_id": "276e1c752718d0a9ecc145a9acebb206", "fusion_lat": 0.0, "name": "276e1c752718d0a9ecc145a9acebb206", "is_reserved": 0, "rental_uris": {"android": "https://dc.lft.to/lastmile_qr_scan", "ios": "https://dc.lft.to/lastmile_qr_scan"}, "fusion_lon": 0.0}, {"lat": 38.96394733333333, "is_disabled": 0, "type": "electric_scooter", "lon": -77.02590783333333, "bike_id": "9066182af159fc5ed50f661a92552a99", "fusion_lat": 0.0, "name": "9066182af159fc5ed50f661a92552a99", "is_reserved": 0, "rental_uris": {"android": "https://dc.lft.to/lastmile_qr_scan", "ios": "https://dc.lft.to/lastmile_qr_scan"}, "fusion_lon": 0.0}, {"lat": 38.890953833333334, "is_disabled": 0, "type": "electric_scooter", "lon": -76.94298216666667, "bike_id": "12ea596a9c37db62e759cef90d6f95e3", "fusion_lat": 0.0, "name": "12ea596a9c37db62e759cef90d6f95e3", "is_reserved": 0, "rental_uris": {"android": "https://dc.lft.to/lastmile_qr_scan", "ios": "https://dc.lft.to/lastmile_qr_scan"}, "fusion_lon": 0.0}, {"lat": 38.9490385, "is_disabled": 0, "type": "electric_bike", "lon": -76.97241633333333, "bike_id": "593bc1b7e46fb13feebdd2d2d8e359e5", "fusion_lat": 0.0, "name": "593bc1b7e46fb13feebdd2d2d8e359e5", "is_reserved": 0, "rental_uris": {"android": "https://dc.lft.to/lastmile_qr_scan", "ios": "https://dc.lft.to/lastmile_qr_scan"}, "fusion_lon": 0.0}, {"lat": 38.923923333333335, "is_disabled": 0, "type": "electric_scooter", "lon": -77.02695516666667, "bike_id": "11724fd78078f96644ddf1bba2a5db3f", "fusion_lat": 0.0, "name": "11724fd78078f96644ddf1bba2a5db3f", "is_reserved": 0, "rental_uris": {"android": "https://dc.lft.to/lastmile_qr_scan", "ios": "https://dc.lft.to/lastmile_qr_scan"}, "fusion_lon": 0.0}, {"lat": 38.937472166666666, "is_disabled": 0, "type": "electric_scooter", "lon": -77.03612166666667, "bike_id": "274c21d585c378e2c825643db869f785", "fusion_lat": 0.0, "name": "274c21d585c378e2c825643db869f785", "is_reserved": 0, "rental_uris": {"android": "https://dc.lft.to/lastmile_qr_scan", "ios": "https://dc.lft.to/lastmile_qr_scan"}, "fusion_lon": 0.0}, {"lat": 38.89843, "is_disabled": 0, "type": "electric_scooter", "lon": -77.03051683333334, "bike_id": "22e92e7430bf85d3b32c12c1a47c1ba3", "fusion_lat": 0.0, "name": "22e92e7430bf85d3b32c12c1a47c1ba3", "is_reserved": 0, "rental_uris": {"android": "https://dc.lft.to/lastmile_qr_scan", "ios": "https://dc.lft.to/lastmile_qr_scan"}, "fusion_lon": 0.0}, {"lat": 38.94086633333333, "is_disabled": 0, "type": "electric_scooter", "lon": -77.06133716666666, "bike_id": "fb60d5d442ebb0e278772c60697b3322", "fusion_lat": 0.0, "name": "fb60d5d442ebb0e278772c60697b3322", "is_reserved": 0, "rental_uris": {"android": "https://dc.lft.to/lastmile_qr_scan", "ios": "https://dc.lft.to/lastmile_qr_scan"}, "fusion_lon": 0.0}, {"lat": 38.916372, "is_disabled": 0, "type": "electric_scooter", "lon": -77.03140933333333, "bike_id": "7a4ce67f53c6a04f5dad78b88eea88ce", "fusion_lat": 0.0, "name": "7a4ce67f53c6a04f5dad78b88eea88ce", "is_reserved": 0, "rental_uris": {"android": "https://dc.lft.to/lastmile_qr_scan", "ios": "https://dc.lft.to/lastmile_qr_scan"}, "fusion_lon": 0.0}, {"lat": 38.930767, "is_disabled": 0, "type": "electric_scooter", "lon": -77.03115033333333, "bike_id": "9dcc316314ee9b4af498b831b92fbe09", "fusion_lat": 0.0, "name": "9dcc316314ee9b4af498b831b92fbe09", "is_reserved": 0, "rental_uris": {"android": "https://dc.lft.to/lastmile_qr_scan", "ios": "https://dc.lft.to/lastmile_qr_scan"}, "fusion_lon": 0.0}, {"lat": 38.93987283333333, "is_disabled": 0, "type": "electric_scooter", "lon": -77.02883866666667, "bike_id": "f97aac529aba8e0809fdcc1cb4b0d91c", "fusion_lat": 0.0, "name": "f97aac529aba8e0809fdcc1cb4b0d91c", "is_reserved": 0, "rental_uris": {"android": "https://dc.lft.to/lastmile_qr_scan", "ios": "https://dc.lft.to/lastmile_qr_scan"}, "fusion_lon": 0.0}, {"lat": 38.915493833333336, "is_disabled": 0, "type": "electric_scooter", "lon": -77.03864566666667, "bike_id": "7bea499903e6af1eb2c6f00212b3bb48", "fusion_lat": 0.0, "name": "7bea499903e6af1eb2c6f00212b3bb48", "is_reserved": 0, "rental_uris": {"android": "https://dc.lft.to/lastmile_qr_scan", "ios": "https://dc.lft.to/lastmile_qr_scan"}, "fusion_lon": 0.0}, {"lat": 38.905602, "is_disabled": 0, "type": "electric_scooter", "lon": -77.005942, "bike_id": "c76bc16dea6c00d17df0a52a9a073396", "fusion_lat": 0.0, "name": "c76bc16dea6c00d17df0a52a9a073396", "is_reserved": 0, "rental_uris": {"android": "https://dc.lft.to/lastmile_qr_scan", "ios": "https://dc.lft.to/lastmile_qr_scan"}, "fusion_lon": 0.0}, {"lat": 38.8665025, "is_disabled": 0, "type": "electric_scooter", "lon": -76.98884683333333, "bike_id": "8c3d5eaad4a243198be4c4268440b6cb", "fusion_lat": 0.0, "name": "8c3d5eaad4a243198be4c4268440b6cb", "is_reserved": 0, "rental_uris": {"android": "https://dc.lft.to/lastmile_qr_scan", "ios": "https://dc.lft.to/lastmile_qr_scan"}, "fusion_lon": 0.0}, {"lat": 38.90382433333333, "is_disabled": 0, "type": "electric_scooter", "lon": -77.02193316666667, "bike_id": "67a2e1df04ab28838fd03f4a3e09f79b", "fusion_lat": 0.0, "name": "67a2e1df04ab28838fd03f4a3e09f79b", "is_reserved": 0, "rental_uris": {"android": "https://dc.lft.to/lastmile_qr_scan", "ios": "https://dc.lft.to/lastmile_qr_scan"}, "fusion_lon": 0.0}, {"lat": 38.87129566666667, "is_disabled": 0, "type": "electric_scooter", "lon": -77.00783016666666, "bike_id": "740d70a6d50797f24b4da14500c0bd40", "fusion_lat": 0.0, "name": "740d70a6d50797f24b4da14500c0bd40", "is_reserved": 0, "rental_uris": {"android": "https://dc.lft.to/lastmile_qr_scan", "ios": "https://dc.lft.to/lastmile_qr_scan"}, "fusion_lon": 0.0}, {"lat": 39.00012566666667, "is_disabled": 0, "type": "electric_bike", "lon": -76.910744, "bike_id": "d27225f2380f284ff276bd7fbb61a251", "fusion_lat": 0.0, "name": "d27225f2380f284ff276bd7fbb61a251", "is_reserved": 0, "rental_uris": {"android": "https://dc.lft.to/lastmile_qr_scan", "ios": "https://dc.lft.to/lastmile_qr_scan"}, "fusion_lon": 0.0}, {"lat": 38.828702166666666, "is_disabled": 0, "type": "electric_bike", "lon": -77.11224633333333, "bike_id": "28b8cb82590ef415c91cedaa9de9de35", "fusion_lat": 0.0, "name": "28b8cb82590ef415c91cedaa9de9de35", "is_reserved": 0, "rental_uris": {"android": "https://dc.lft.to/lastmile_qr_scan", "ios": "https://dc.lft.to/lastmile_qr_scan"}, "fusion_lon": 0.0}, {"lat": 38.909731, "is_disabled": 0, "type": "electric_scooter", "lon": -76.99724516666667, "bike_id": "ecbf2c02f68b6c84ca613fbbe6e25381", "fusion_lat": 0.0, "name": "ecbf2c02f68b6c84ca613fbbe6e25381", "is_reserved": 0, "rental_uris": {"android": "https://dc.lft.to/lastmile_qr_scan", "ios": "https://dc.lft.to/lastmile_qr_scan"}, "fusion_lon": 0.0}, {"lat": 38.95613383333333, "is_disabled": 0, "type": "electric_scooter", "lon": -77.027815, "bike_id": "ad622a1c67daaa3a20f9193d61e30e87", "fusion_lat": 0.0, "name": "ad622a1c67daaa3a20f9193d61e30e87", "is_reserved": 0, "rental_uris": {"android": "https://dc.lft.to/lastmile_qr_scan", "ios": "https://dc.lft.to/lastmile_qr_scan"}, "fusion_lon": 0.0}, {"lat": 38.901788333333336, "is_disabled": 0, "type": "electric_scooter", "lon": -77.02416066666666, "bike_id": "f843b941fc8cca725fc5469de71f7a86", "fusion_lat": 0.0, "name": "f843b941fc8cca725fc5469de71f7a86", "is_reserved": 0, "rental_uris": {"android": "https://dc.lft.to/lastmile_qr_scan", "ios": "https://dc.lft.to/lastmile_qr_scan"}, "fusion_lon": 0.0}, {"lat": 38.87665766666667, "is_disabled": 0, "type": "electric_scooter", "lon": -77.01761683333334, "bike_id": "50aae3d7551556ab0582390c76a6de9b", "fusion_lat": 0.0, "name": "50aae3d7551556ab0582390c76a6de9b", "is_reserved": 0, "rental_uris": {"android": "https://dc.lft.to/lastmile_qr_scan", "ios": "https://dc.lft.to/lastmile_qr_scan"}, "fusion_lon": 0.0}, {"lat": 38.919646666666665, "is_disabled": 0, "type": "electric_scooter", "lon": -77.01439233333333, "bike_id": "37c8007fb5e6aff0ab12fab250c52d66", "fusion_lat": 0.0, "name": "37c8007fb5e6aff0ab12fab250c52d66", "is_reserved": 0, "rental_uris": {"android": "https://dc.lft.to/lastmile_qr_scan", "ios": "https://dc.lft.to/lastmile_qr_scan"}, "fusion_lon": 0.0}, {"lat": 38.898175333333334, "is_disabled": 0, "type": "electric_scooter", "lon": -77.03306483333333, "bike_id": "6a4f08f4f2b376245fea8d7dafba81f4", "fusion_lat": 0.0, "name": "6a4f08f4f2b376245fea8d7dafba81f4", "is_reserved": 0, "rental_uris": {"android": "https://dc.lft.to/lastmile_qr_scan", "ios": "https://dc.lft.to/lastmile_qr_scan"}, "fusion_lon": 0.0}, {"lat": 38.88454866666667, "is_disabled": 0, "type": "electric_scooter", "lon": -76.92963833333333, "bike_id": "0fd0faef6f1fdaff68662aca27f1ac45", "fusion_lat": 0.0, "name": "0fd0faef6f1fdaff68662aca27f1ac45", "is_reserved": 0, "rental_uris": {"android": "https://dc.lft.to/lastmile_qr_scan", "ios": "https://dc.lft.to/lastmile_qr_scan"}, "fusion_lon": 0.0}, {"lat": 38.907880666666664, "is_disabled": 0, "type": "electric_scooter", "lon": -77.03473716666667, "bike_id": "a2c997629260844094b10779ad3d61ee", "fusion_lat": 0.0, "name": "a2c997629260844094b10779ad3d61ee", "is_reserved": 0, "rental_uris": {"android": "https://dc.lft.to/lastmile_qr_scan", "ios": "https://dc.lft.to/lastmile_qr_scan"}, "fusion_lon": 0.0}, {"lat": 38.93372433333333, "is_disabled": 0, "type": "electric_scooter", "lon": -77.03559716666666, "bike_id": "bb258c82ca53e0b915e90eef86822223", "fusion_lat": 0.0, "name": "bb258c82ca53e0b915e90eef86822223", "is_reserved": 0, "rental_uris": {"android": "https://dc.lft.to/lastmile_qr_scan", "ios": "https://dc.lft.to/lastmile_qr_scan"}, "fusion_lon": 0.0}, {"lat": 38.88712983333333, "is_disabled": 0, "type": "electric_bike", "lon": -77.1330405, "bike_id": "f584486863a69fe06ef69de761892ecb", "fusion_lat": 0.0, "name": "f584486863a69fe06ef69de761892ecb", "is_reserved": 0, "rental_uris": {"android": "https://dc.lft.to/lastmile_qr_scan", "ios": "https://dc.lft.to/lastmile_qr_scan"}, "fusion_lon": 0.0}, {"lat": 38.93429833333333, "is_disabled": 0, "type": "electric_scooter", "lon": -76.96508216666666, "bike_id": "33f0d7427cdc26e442fe095d84bed44c", "fusion_lat": 0.0, "name": "33f0d7427cdc26e442fe095d84bed44c", "is_reserved": 0, "rental_uris": {"android": "https://dc.lft.to/lastmile_qr_scan", "ios": "https://dc.lft.to/lastmile_qr_scan"}, "fusion_lon": 0.0}, {"lat": 38.95706283333333, "is_disabled": 0, "type": "electric_scooter", "lon": -77.02405966666667, "bike_id": "c80dc06bf1e2c27db5201c12ec881d57", "fusion_lat": 0.0, "name": "c80dc06bf1e2c27db5201c12ec881d57", "is_reserved": 0, "rental_uris": {"android": "https://dc.lft.to/lastmile_qr_scan", "ios": "https://dc.lft.to/lastmile_qr_scan"}, "fusion_lon": 0.0}, {"lat": 38.99863966666667, "is_disabled": 0, "type": "electric_bike", "lon": -77.029059, "bike_id": "0bcca659e311fe93162de7f6aff0f097", "fusion_lat": 0.0, "name": "0bcca659e311fe93162de7f6aff0f097", "is_reserved": 0, "rental_uris": {"android": "https://dc.lft.to/lastmile_qr_scan", "ios": "https://dc.lft.to/lastmile_qr_scan"}, "fusion_lon": 0.0}, {"lat": 38.885478, "is_disabled": 0, "type": "electric_bike", "lon": -77.11786666666667, "bike_id": "0107c5df0f7d069b1918b8f3161e6880", "fusion_lat": 0.0, "name": "0107c5df0f7d069b1918b8f3161e6880", "is_reserved": 0, "rental_uris": {"android": "https://dc.lft.to/lastmile_qr_scan", "ios": "https://dc.lft.to/lastmile_qr_scan"}, "fusion_lon": 0.0}, {"lat": 38.85851316666667, "is_disabled": 0, "type": "electric_scooter", "lon": -76.9956365, "bike_id": "ed37ff4d1454e341932122d3a6dfef5c", "fusion_lat": 0.0, "name": "ed37ff4d1454e341932122d3a6dfef5c", "is_reserved": 0, "rental_uris": {"android": "https://dc.lft.to/lastmile_qr_scan", "ios": "https://dc.lft.to/lastmile_qr_scan"}, "fusion_lon": 0.0}, {"lat": 39.094358666666665, "is_disabled": 0, "type": "electric_bike", "lon": -77.1346005, "bike_id": "0c8d9cf97d9443ec37c2a18ea0283cd7", "fusion_lat": 0.0, "name": "0c8d9cf97d9443ec37c2a18ea0283cd7", "is_reserved": 0, "rental_uris": {"android": "https://dc.lft.to/lastmile_qr_scan", "ios": "https://dc.lft.to/lastmile_qr_scan"}, "fusion_lon": 0.0}, {"lat": 38.8628225, "is_disabled": 0, "type": "electric_scooter", "lon": -76.99238283333334, "bike_id": "64682e9827c2f0a4046664284c02ce29", "fusion_lat": 0.0, "name": "64682e9827c2f0a4046664284c02ce29", "is_reserved": 0, "rental_uris": {"android": "https://dc.lft.to/lastmile_qr_scan", "ios": "https://dc.lft.to/lastmile_qr_scan"}, "fusion_lon": 0.0}, {"lat": 38.939475333333334, "is_disabled": 0, "type": "electric_scooter", "lon": -77.02183433333333, "bike_id": "bf06fec9df781676ea3b1b6c1f92b254", "fusion_lat": 0.0, "name": "bf06fec9df781676ea3b1b6c1f92b254", "is_reserved": 0, "rental_uris": {"android": "https://dc.lft.to/lastmile_qr_scan", "ios": "https://dc.lft.to/lastmile_qr_scan"}, "fusion_lon": 0.0}, {"lat": 38.898454666666666, "is_disabled": 0, "type": "electric_scooter", "lon": -76.944716, "bike_id": "1b66ba06180d1f3a9c2e0179043abd2c", "fusion_lat": 0.0, "name": "1b66ba06180d1f3a9c2e0179043abd2c", "is_reserved": 0, "rental_uris": {"android": "https://dc.lft.to/lastmile_qr_scan", "ios": "https://dc.lft.to/lastmile_qr_scan"}, "fusion_lon": 0.0}, {"lat": 38.92439666666667, "is_disabled": 0, "type": "electric_scooter", "lon": -77.0337365, "bike_id": "f91a4d926bb89fd2cbe57f7f18d1ab48", "fusion_lat": 0.0, "name": "f91a4d926bb89fd2cbe57f7f18d1ab48", "is_reserved": 0, "rental_uris": {"android": "https://dc.lft.to/lastmile_qr_scan", "ios": "https://dc.lft.to/lastmile_qr_scan"}, "fusion_lon": 0.0}, {"lat": 38.92331083333333, "is_disabled": 0, "type": "electric_scooter", "lon": -77.04452283333333, "bike_id": "f078382db5aaf9e5649d0b003218488c", "fusion_lat": 0.0, "name": "f078382db5aaf9e5649d0b003218488c", "is_reserved": 0, "rental_uris": {"android": "https://dc.lft.to/lastmile_qr_scan", "ios": "https://dc.lft.to/lastmile_qr_scan"}, "fusion_lon": 0.0}, {"lat": 38.919834, "is_disabled": 0, "type": "electric_scooter", "lon": -77.04101816666666, "bike_id": "011823e56c575f908ae5094f3d5bbaac", "fusion_lat": 0.0, "name": "011823e56c575f908ae5094f3d5bbaac", "is_reserved": 0, "rental_uris": {"android": "https://dc.lft.to/lastmile_qr_scan", "ios": "https://dc.lft.to/lastmile_qr_scan"}, "fusion_lon": 0.0}, {"lat": 38.94128633333333, "is_disabled": 0, "type": "electric_bike", "lon": -76.99630183333333, "bike_id": "94c7098ae29a82fbf90155563b8457c4", "fusion_lat": 0.0, "name": "94c7098ae29a82fbf90155563b8457c4", "is_reserved": 0, "rental_uris": {"android": "https://dc.lft.to/lastmile_qr_scan", "ios": "https://dc.lft.to/lastmile_qr_scan"}, "fusion_lon": 0.0}, {"lat": 38.89514833333333, "is_disabled": 0, "type": "electric_scooter", "lon": -77.0436415, "bike_id": "7e18e0cb446aa2a9403d7267d6f746e5", "fusion_lat": 0.0, "name": "7e18e0cb446aa2a9403d7267d6f746e5", "is_reserved": 0, "rental_uris": {"android": "https://dc.lft.to/lastmile_qr_scan", "ios": "https://dc.lft.to/lastmile_qr_scan"}, "fusion_lon": 0.0}, {"lat": 38.9067035, "is_disabled": 0, "type": "electric_scooter", "lon": -77.03651183333334, "bike_id": "ec39f14f07208ba21a2de10327a7c74c", "fusion_lat": 0.0, "name": "ec39f14f07208ba21a2de10327a7c74c", "is_reserved": 0, "rental_uris": {"android": "https://dc.lft.to/lastmile_qr_scan", "ios": "https://dc.lft.to/lastmile_qr_scan"}, "fusion_lon": 0.0}, {"lat": 38.909505, "is_disabled": 0, "type": "electric_scooter", "lon": -77.04687316666667, "bike_id": "f57bafd5039fee01b8287b33723397fa", "fusion_lat": 0.0, "name": "f57bafd5039fee01b8287b33723397fa", "is_reserved": 0, "rental_uris": {"android": "https://dc.lft.to/lastmile_qr_scan", "ios": "https://dc.lft.to/lastmile_qr_scan"}, "fusion_lon": 0.0}, {"lat": 38.9081575, "is_disabled": 0, "type": "electric_scooter", "lon": -76.9829045, "bike_id": "88cb4d906ec266b24ca7693376095e71", "fusion_lat": 0.0, "name": "88cb4d906ec266b24ca7693376095e71", "is_reserved": 0, "rental_uris": {"android": "https://dc.lft.to/lastmile_qr_scan", "ios": "https://dc.lft.to/lastmile_qr_scan"}, "fusion_lon": 0.0}, {"lat": 38.905323, "is_disabled": 0, "type": "electric_scooter", "lon": -77.00586266666667, "bike_id": "5a3647f4c474602f151b37db3c867ba9", "fusion_lat": 0.0, "name": "5a3647f4c474602f151b37db3c867ba9", "is_reserved": 0, "rental_uris": {"android": "https://dc.lft.to/lastmile_qr_scan", "ios": "https://dc.lft.to/lastmile_qr_scan"}, "fusion_lon": 0.0}, {"lat": 38.93357483333333, "is_disabled": 0, "type": "electric_scooter", "lon": -77.03727783333333, "bike_id": "67f365bde1547148e39381e970ac54ec", "fusion_lat": 0.0, "name": "67f365bde1547148e39381e970ac54ec", "is_reserved": 0, "rental_uris": {"android": "https://dc.lft.to/lastmile_qr_scan", "ios": "https://dc.lft.to/lastmile_qr_scan"}, "fusion_lon": 0.0}, {"lat": 38.884811666666664, "is_disabled": 0, "type": "electric_scooter", "lon": -76.94527366666667, "bike_id": "ef4e9c9fed4bf727ebed77e7ad8fa730", "fusion_lat": 0.0, "name": "ef4e9c9fed4bf727ebed77e7ad8fa730", "is_reserved": 0, "rental_uris": {"android": "https://dc.lft.to/lastmile_qr_scan", "ios": "https://dc.lft.to/lastmile_qr_scan"}, "fusion_lon": 0.0}, {"lat": 38.89970133333333, "is_disabled": 0, "type": "electric_scooter", "lon": -77.01616216666666, "bike_id": "a7dac051a93643aae8d7e9e0c4e7d598", "fusion_lat": 0.0, "name": "a7dac051a93643aae8d7e9e0c4e7d598", "is_reserved": 0, "rental_uris": {"android": "https://dc.lft.to/lastmile_qr_scan", "ios": "https://dc.lft.to/lastmile_qr_scan"}, "fusion_lon": 0.0}, {"lat": 38.89610483333333, "is_disabled": 0, "type": "electric_scooter", "lon": -76.95523516666667, "bike_id": "d0e8759630a5dedfaa29570c8f282599", "fusion_lat": 0.0, "name": "d0e8759630a5dedfaa29570c8f282599", "is_reserved": 0, "rental_uris": {"android": "https://dc.lft.to/lastmile_qr_scan", "ios": "https://dc.lft.to/lastmile_qr_scan"}, "fusion_lon": 0.0}, {"lat": 38.92474433333334, "is_disabled": 0, "type": "electric_scooter", "lon": -77.03381466666667, "bike_id": "ad65166675f4f857921e4123bb444f32", "fusion_lat": 0.0, "name": "ad65166675f4f857921e4123bb444f32", "is_reserved": 0, "rental_uris": {"android": "https://dc.lft.to/lastmile_qr_scan", "ios": "https://dc.lft.to/lastmile_qr_scan"}, "fusion_lon": 0.0}, {"lat": 38.90915566666666, "is_disabled": 0, "type": "electric_scooter", "lon": -77.03643283333334, "bike_id": "8513e49c50e57139097a5ceff897b7d3", "fusion_lat": 0.0, "name": "8513e49c50e57139097a5ceff897b7d3", "is_reserved": 0, "rental_uris": {"android": "https://dc.lft.to/lastmile_qr_scan", "ios": "https://dc.lft.to/lastmile_qr_scan"}, "fusion_lon": 0.0}, {"lat": 38.93873166666667, "is_disabled": 0, "type": "electric_scooter", "lon": -77.0244615, "bike_id": "6e4a5d4d7c25326fecb73c1a44d03a29", "fusion_lat": 0.0, "name": "6e4a5d4d7c25326fecb73c1a44d03a29", "is_reserved": 0, "rental_uris": {"android": "https://dc.lft.to/lastmile_qr_scan", "ios": "https://dc.lft.to/lastmile_qr_scan"}, "fusion_lon": 0.0}, {"lat": 38.89048416666667, "is_disabled": 0, "type": "electric_scooter", "lon": -76.98992583333333, "bike_id": "bf294ee57f8c0fad3e786bf99ae843d6", "fusion_lat": 0.0, "name": "bf294ee57f8c0fad3e786bf99ae843d6", "is_reserved": 0, "rental_uris": {"android": "https://dc.lft.to/lastmile_qr_scan", "ios": "https://dc.lft.to/lastmile_qr_scan"}, "fusion_lon": 0.0}, {"lat": 38.8655935, "is_disabled": 0, "type": "electric_scooter", "lon": -76.98952283333334, "bike_id": "66e19d98a89d461f9df741cc3d4b1149", "fusion_lat": 0.0, "name": "66e19d98a89d461f9df741cc3d4b1149", "is_reserved": 0, "rental_uris": {"android": "https://dc.lft.to/lastmile_qr_scan", "ios": "https://dc.lft.to/lastmile_qr_scan"}, "fusion_lon": 0.0}, {"lat": 38.88731883333333, "is_disabled": 0, "type": "electric_scooter", "lon": -77.03208033333334, "bike_id": "00959a2485aea017f2347650536cf4fc", "fusion_lat": 0.0, "name": "00959a2485aea017f2347650536cf4fc", "is_reserved": 0, "rental_uris": {"android": "https://dc.lft.to/lastmile_qr_scan", "ios": "https://dc.lft.to/lastmile_qr_scan"}, "fusion_lon": 0.0}, {"lat": 38.955645833333335, "is_disabled": 0, "type": "electric_scooter", "lon": -77.02242166666667, "bike_id": "1c472f6dd87bddee3b9610110efd6ddd", "fusion_lat": 0.0, "name": "1c472f6dd87bddee3b9610110efd6ddd", "is_reserved": 0, "rental_uris": {"android": "https://dc.lft.to/lastmile_qr_scan", "ios": "https://dc.lft.to/lastmile_qr_scan"}, "fusion_lon": 0.0}, {"lat": 38.939734, "is_disabled": 0, "type": "electric_scooter", "lon": -77.03589116666667, "bike_id": "c333451a6ad8369df0a5d7205ffe16d4", "fusion_lat": 0.0, "name": "c333451a6ad8369df0a5d7205ffe16d4", "is_reserved": 0, "rental_uris": {"android": "https://dc.lft.to/lastmile_qr_scan", "ios": "https://dc.lft.to/lastmile_qr_scan"}, "fusion_lon": 0.0}, {"lat": 38.907816833333335, "is_disabled": 0, "type": "electric_scooter", "lon": -77.06898533333333, "bike_id": "cc6102bcb9da81dbe0df618f9a2442af", "fusion_lat": 0.0, "name": "cc6102bcb9da81dbe0df618f9a2442af", "is_reserved": 0, "rental_uris": {"android": "https://dc.lft.to/lastmile_qr_scan", "ios": "https://dc.lft.to/lastmile_qr_scan"}, "fusion_lon": 0.0}, {"lat": 38.8872765, "is_disabled": 0, "type": "electric_scooter", "lon": -77.02836116666667, "bike_id": "37583062cb95aae3df51c591ab56dd84", "fusion_lat": 0.0, "name": "37583062cb95aae3df51c591ab56dd84", "is_reserved": 0, "rental_uris": {"android": "https://dc.lft.to/lastmile_qr_scan", "ios": "https://dc.lft.to/lastmile_qr_scan"}, "fusion_lon": 0.0}, {"lat": 38.887209166666665, "is_disabled": 0, "type": "electric_scooter", "lon": -77.01378733333334, "bike_id": "a787e3d4ed086f77aa8bf5ffe22e16f6", "fusion_lat": 0.0, "name": "a787e3d4ed086f77aa8bf5ffe22e16f6", "is_reserved": 0, "rental_uris": {"android": "https://dc.lft.to/lastmile_qr_scan", "ios": "https://dc.lft.to/lastmile_qr_scan"}, "fusion_lon": 0.0}, {"lat": 38.962280166666666, "is_disabled": 0, "type": "electric_scooter", "lon": -77.02976616666666, "bike_id": "0d3121f97f674cba80f72875fd9f2d9a", "fusion_lat": 0.0, "name": "0d3121f97f674cba80f72875fd9f2d9a", "is_reserved": 0, "rental_uris": {"android": "https://dc.lft.to/lastmile_qr_scan", "ios": "https://dc.lft.to/lastmile_qr_scan"}, "fusion_lon": 0.0}, {"lat": 38.903154666666666, "is_disabled": 0, "type": "electric_scooter", "lon": -77.02080666666667, "bike_id": "728b8721cba32abd3d24a596ba327fa8", "fusion_lat": 0.0, "name": "728b8721cba32abd3d24a596ba327fa8", "is_reserved": 0, "rental_uris": {"android": "https://dc.lft.to/lastmile_qr_scan", "ios": "https://dc.lft.to/lastmile_qr_scan"}, "fusion_lon": 0.0}, {"lat": 38.91920316666667, "is_disabled": 0, "type": "electric_scooter", "lon": -77.00094316666667, "bike_id": "c03a5e6bdd37fd4504aacf585c96dfe0", "fusion_lat": 0.0, "name": "c03a5e6bdd37fd4504aacf585c96dfe0", "is_reserved": 0, "rental_uris": {"android": "https://dc.lft.to/lastmile_qr_scan", "ios": "https://dc.lft.to/lastmile_qr_scan"}, "fusion_lon": 0.0}, {"lat": 38.90471133333333, "is_disabled": 0, "type": "electric_bike", "lon": -77.06752733333333, "bike_id": "a2f72c4e9038024934a03b7415534afc", "fusion_lat": 0.0, "name": "a2f72c4e9038024934a03b7415534afc", "is_reserved": 0, "rental_uris": {"android": "https://dc.lft.to/lastmile_qr_scan", "ios": "https://dc.lft.to/lastmile_qr_scan"}, "fusion_lon": 0.0}, {"lat": 38.86356133333334, "is_disabled": 0, "type": "electric_scooter", "lon": -76.98275233333334, "bike_id": "a6115683487572c60c51f8f8c6e82751", "fusion_lat": 0.0, "name": "a6115683487572c60c51f8f8c6e82751", "is_reserved": 0, "rental_uris": {"android": "https://dc.lft.to/lastmile_qr_scan", "ios": "https://dc.lft.to/lastmile_qr_scan"}, "fusion_lon": 0.0}, {"lat": 38.92065483333333, "is_disabled": 0, "type": "electric_scooter", "lon": -77.032906, "bike_id": "d05bb29648c35e0e9faee4260a1fa5e3", "fusion_lat": 0.0, "name": "d05bb29648c35e0e9faee4260a1fa5e3", "is_reserved": 0, "rental_uris": {"android": "https://dc.lft.to/lastmile_qr_scan", "ios": "https://dc.lft.to/lastmile_qr_scan"}, "fusion_lon": 0.0}, {"lat": 38.92455416666667, "is_disabled": 0, "type": "electric_scooter", "lon": -77.01224966666666, "bike_id": "d5fa2065249a7404b7eb8208372001be", "fusion_lat": 0.0, "name": "d5fa2065249a7404b7eb8208372001be", "is_reserved": 0, "rental_uris": {"android": "https://dc.lft.to/lastmile_qr_scan", "ios": "https://dc.lft.to/lastmile_qr_scan"}, "fusion_lon": 0.0}, {"lat": 38.90879416666667, "is_disabled": 0, "type": "electric_scooter", "lon": -77.03671016666667, "bike_id": "927730f9ca2027fc54e85742367ac3fa", "fusion_lat": 0.0, "name": "927730f9ca2027fc54e85742367ac3fa", "is_reserved": 0, "rental_uris": {"android": "https://dc.lft.to/lastmile_qr_scan", "ios": "https://dc.lft.to/lastmile_qr_scan"}, "fusion_lon": 0.0}, {"lat": 38.884608666666665, "is_disabled": 0, "type": "electric_scooter", "lon": -77.01529766666667, "bike_id": "51bc8af9c28f187998d8075faa9d79f4", "fusion_lat": 0.0, "name": "51bc8af9c28f187998d8075faa9d79f4", "is_reserved": 0, "rental_uris": {"android": "https://dc.lft.to/lastmile_qr_scan", "ios": "https://dc.lft.to/lastmile_qr_scan"}, "fusion_lon": 0.0}, {"lat": 38.8914195, "is_disabled": 0, "type": "electric_bike", "lon": -77.113081, "bike_id": "193784ee2079b077c4f3f270acbbff0c", "fusion_lat": 0.0, "name": "193784ee2079b077c4f3f270acbbff0c", "is_reserved": 0, "rental_uris": {"android": "https://dc.lft.to/lastmile_qr_scan", "ios": "https://dc.lft.to/lastmile_qr_scan"}, "fusion_lon": 0.0}, {"lat": 38.926782833333334, "is_disabled": 0, "type": "electric_scooter", "lon": -77.00742133333334, "bike_id": "7e880b6beee08f4619c76ea3d6fdd47c", "fusion_lat": 0.0, "name": "7e880b6beee08f4619c76ea3d6fdd47c", "is_reserved": 0, "rental_uris": {"android": "https://dc.lft.to/lastmile_qr_scan", "ios": "https://dc.lft.to/lastmile_qr_scan"}, "fusion_lon": 0.0}, {"lat": 38.9096465, "is_disabled": 0, "type": "electric_scooter", "lon": -77.04053483333334, "bike_id": "e838545b61d25c242877c44020d46ae8", "fusion_lat": 0.0, "name": "e838545b61d25c242877c44020d46ae8", "is_reserved": 0, "rental_uris": {"android": "https://dc.lft.to/lastmile_qr_scan", "ios": "https://dc.lft.to/lastmile_qr_scan"}, "fusion_lon": 0.0}, {"lat": 38.924867, "is_disabled": 0, "type": "electric_scooter", "lon": -77.02542266666667, "bike_id": "4ae214400cc90ae8c3c81bf34ef6cf43", "fusion_lat": 0.0, "name": "4ae214400cc90ae8c3c81bf34ef6cf43", "is_reserved": 0, "rental_uris": {"android": "https://dc.lft.to/lastmile_qr_scan", "ios": "https://dc.lft.to/lastmile_qr_scan"}, "fusion_lon": 0.0}, {"lat": 38.90039766666666, "is_disabled": 0, "type": "electric_scooter", "lon": -77.00539216666667, "bike_id": "641bacbce29c3273696934648539710b", "fusion_lat": 0.0, "name": "641bacbce29c3273696934648539710b", "is_reserved": 0, "rental_uris": {"android": "https://dc.lft.to/lastmile_qr_scan", "ios": "https://dc.lft.to/lastmile_qr_scan"}, "fusion_lon": 0.0}, {"lat": 38.902303333333336, "is_disabled": 0, "type": "electric_scooter", "lon": -77.01950116666667, "bike_id": "b9a7812be0b046ec89a0905d0e2c5722", "fusion_lat": 0.0, "name": "b9a7812be0b046ec89a0905d0e2c5722", "is_reserved": 0, "rental_uris": {"android": "https://dc.lft.to/lastmile_qr_scan", "ios": "https://dc.lft.to/lastmile_qr_scan"}, "fusion_lon": 0.0}, {"lat": 38.916764666666666, "is_disabled": 0, "type": "electric_scooter", "lon": -77.04148633333334, "bike_id": "61244bba8088306b9029220a331b2119", "fusion_lat": 0.0, "name": "61244bba8088306b9029220a331b2119", "is_reserved": 0, "rental_uris": {"android": "https://dc.lft.to/lastmile_qr_scan", "ios": "https://dc.lft.to/lastmile_qr_scan"}, "fusion_lon": 0.0}, {"lat": 38.91248016666667, "is_disabled": 0, "type": "electric_scooter", "lon": -77.00429133333333, "bike_id": "950e59d0d70e51b9d185aa318c391422", "fusion_lat": 0.0, "name": "950e59d0d70e51b9d185aa318c391422", "is_reserved": 0, "rental_uris": {"android": "https://dc.lft.to/lastmile_qr_scan", "ios": "https://dc.lft.to/lastmile_qr_scan"}, "fusion_lon": 0.0}, {"lat": 38.892212666666666, "is_disabled": 0, "type": "electric_bike", "lon": -77.107778, "bike_id": "c18f3da137bc0f53c45a8765b76595d4", "fusion_lat": 0.0, "name": "c18f3da137bc0f53c45a8765b76595d4", "is_reserved": 0, "rental_uris": {"android": "https://dc.lft.to/lastmile_qr_scan", "ios": "https://dc.lft.to/lastmile_qr_scan"}, "fusion_lon": 0.0}, {"lat": 38.92893483333334, "is_disabled": 0, "type": "electric_scooter", "lon": -77.03334916666667, "bike_id": "ffae74c15b630ebe21d730e55b7b7149", "fusion_lat": 0.0, "name": "ffae74c15b630ebe21d730e55b7b7149", "is_reserved": 0, "rental_uris": {"android": "https://dc.lft.to/lastmile_qr_scan", "ios": "https://dc.lft.to/lastmile_qr_scan"}, "fusion_lon": 0.0}, {"lat": 38.89122733333333, "is_disabled": 0, "type": "electric_scooter", "lon": -76.94091216666666, "bike_id": "1b64f0b39996e3233b630e2e20428073", "fusion_lat": 0.0, "name": "1b64f0b39996e3233b630e2e20428073", "is_reserved": 0, "rental_uris": {"android": "https://dc.lft.to/lastmile_qr_scan", "ios": "https://dc.lft.to/lastmile_qr_scan"}, "fusion_lon": 0.0}, {"lat": 38.910777333333336, "is_disabled": 0, "type": "electric_scooter", "lon": -77.07644916666666, "bike_id": "080d5fb83637bc1243f088251ed70d2c", "fusion_lat": 0.0, "name": "080d5fb83637bc1243f088251ed70d2c", "is_reserved": 0, "rental_uris": {"android": "https://dc.lft.to/lastmile_qr_scan", "ios": "https://dc.lft.to/lastmile_qr_scan"}, "fusion_lon": 0.0}, {"lat": 38.9000035, "is_disabled": 0, "type": "electric_scooter", "lon": -76.99852133333333, "bike_id": "259b2f7850df031ac401c0e866e1a17a", "fusion_lat": 0.0, "name": "259b2f7850df031ac401c0e866e1a17a", "is_reserved": 0, "rental_uris": {"android": "https://dc.lft.to/lastmile_qr_scan", "ios": "https://dc.lft.to/lastmile_qr_scan"}, "fusion_lon": 0.0}, {"lat": 38.90514433333333, "is_disabled": 0, "type": "electric_scooter", "lon": -77.06880916666667, "bike_id": "bce7cfacca278ebd17d31d3f44f76bdd", "fusion_lat": 0.0, "name": "bce7cfacca278ebd17d31d3f44f76bdd", "is_reserved": 0, "rental_uris": {"android": "https://dc.lft.to/lastmile_qr_scan", "ios": "https://dc.lft.to/lastmile_qr_scan"}, "fusion_lon": 0.0}, {"lat": 38.93328433333333, "is_disabled": 0, "type": "electric_scooter", "lon": -77.05709083333333, "bike_id": "4c90cc8b39bfa4ea8dc2636d034502e6", "fusion_lat": 0.0, "name": "4c90cc8b39bfa4ea8dc2636d034502e6", "is_reserved": 0, "rental_uris": {"android": "https://dc.lft.to/lastmile_qr_scan", "ios": "https://dc.lft.to/lastmile_qr_scan"}, "fusion_lon": 0.0}, {"lat": 38.901423666666666, "is_disabled": 0, "type": "electric_scooter", "lon": -77.01815816666667, "bike_id": "207a1ad16b21d0e01cb3fe71c42ffcc9", "fusion_lat": 0.0, "name": "207a1ad16b21d0e01cb3fe71c42ffcc9", "is_reserved": 0, "rental_uris": {"android": "https://dc.lft.to/lastmile_qr_scan", "ios": "https://dc.lft.to/lastmile_qr_scan"}, "fusion_lon": 0.0}, {"lat": 39.015902, "is_disabled": 0, "type": "electric_bike", "lon": -77.04427233333334, "bike_id": "8432b40a609ae1e307fd09e8959a955b", "fusion_lat": 0.0, "name": "8432b40a609ae1e307fd09e8959a955b", "is_reserved": 0, "rental_uris": {"android": "https://dc.lft.to/lastmile_qr_scan", "ios": "https://dc.lft.to/lastmile_qr_scan"}, "fusion_lon": 0.0}, {"lat": 38.935368, "is_disabled": 0, "type": "electric_scooter", "lon": -77.03421016666667, "bike_id": "85fe3c73b05bd2884e9977d97affaba7", "fusion_lat": 0.0, "name": "85fe3c73b05bd2884e9977d97affaba7", "is_reserved": 0, "rental_uris": {"android": "https://dc.lft.to/lastmile_qr_scan", "ios": "https://dc.lft.to/lastmile_qr_scan"}, "fusion_lon": 0.0}, {"lat": 38.90491866666667, "is_disabled": 0, "type": "electric_scooter", "lon": -77.0327235, "bike_id": "e018e946f7fcbbe9cf69f295e696fd7d", "fusion_lat": 0.0, "name": "e018e946f7fcbbe9cf69f295e696fd7d", "is_reserved": 0, "rental_uris": {"android": "https://dc.lft.to/lastmile_qr_scan", "ios": "https://dc.lft.to/lastmile_qr_scan"}, "fusion_lon": 0.0}, {"lat": 38.94802583333333, "is_disabled": 0, "type": "electric_scooter", "lon": -77.0791015, "bike_id": "afc0fb30963d98014001d39942d295aa", "fusion_lat": 0.0, "name": "afc0fb30963d98014001d39942d295aa", "is_reserved": 0, "rental_uris": {"android": "https://dc.lft.to/lastmile_qr_scan", "ios": "https://dc.lft.to/lastmile_qr_scan"}, "fusion_lon": 0.0}, {"lat": 38.884248, "is_disabled": 0, "type": "electric_scooter", "lon": -77.030498, "bike_id": "e311a1270363778f866fc83ab1ad2454", "fusion_lat": 0.0, "name": "e311a1270363778f866fc83ab1ad2454", "is_reserved": 0, "rental_uris": {"android": "https://dc.lft.to/lastmile_qr_scan", "ios": "https://dc.lft.to/lastmile_qr_scan"}, "fusion_lon": 0.0}, {"lat": 38.9195795, "is_disabled": 0, "type": "electric_scooter", "lon": -77.04310966666667, "bike_id": "7e7c8c691cf6134909ec20de3287f005", "fusion_lat": 0.0, "name": "7e7c8c691cf6134909ec20de3287f005", "is_reserved": 0, "rental_uris": {"android": "https://dc.lft.to/lastmile_qr_scan", "ios": "https://dc.lft.to/lastmile_qr_scan"}, "fusion_lon": 0.0}, {"lat": 38.917531, "is_disabled": 0, "type": "electric_bike", "lon": -77.04767266666667, "bike_id": "abdc7743ad09b4def6102d6256759077", "fusion_lat": 0.0, "name": "abdc7743ad09b4def6102d6256759077", "is_reserved": 0, "rental_uris": {"android": "https://dc.lft.to/lastmile_qr_scan", "ios": "https://dc.lft.to/lastmile_qr_scan"}, "fusion_lon": 0.0}, {"lat": 38.927939333333335, "is_disabled": 0, "type": "electric_scooter", "lon": -77.026027, "bike_id": "34ff9e223a5e1e7de2865877a0fb193a", "fusion_lat": 0.0, "name": "34ff9e223a5e1e7de2865877a0fb193a", "is_reserved": 0, "rental_uris": {"android": "https://dc.lft.to/lastmile_qr_scan", "ios": "https://dc.lft.to/lastmile_qr_scan"}, "fusion_lon": 0.0}, {"lat": 38.9243405, "is_disabled": 0, "type": "electric_scooter", "lon": -77.03402883333334, "bike_id": "32ba7e6611b7b5ab590e38c368241e04", "fusion_lat": 0.0, "name": "32ba7e6611b7b5ab590e38c368241e04", "is_reserved": 0, "rental_uris": {"android": "https://dc.lft.to/lastmile_qr_scan", "ios": "https://dc.lft.to/lastmile_qr_scan"}, "fusion_lon": 0.0}, {"lat": 38.906889166666666, "is_disabled": 0, "type": "electric_scooter", "lon": -76.9994225, "bike_id": "7ad8583ad7710fdc7e768d5bf4f9f2e2", "fusion_lat": 0.0, "name": "7ad8583ad7710fdc7e768d5bf4f9f2e2", "is_reserved": 0, "rental_uris": {"android": "https://dc.lft.to/lastmile_qr_scan", "ios": "https://dc.lft.to/lastmile_qr_scan"}, "fusion_lon": 0.0}, {"lat": 39.034142333333335, "is_disabled": 0, "type": "electric_bike", "lon": -77.04305383333333, "bike_id": "ddd8ca4a3f2ed1274fe981d53ff60f36", "fusion_lat": 0.0, "name": "ddd8ca4a3f2ed1274fe981d53ff60f36", "is_reserved": 0, "rental_uris": {"android": "https://dc.lft.to/lastmile_qr_scan", "ios": "https://dc.lft.to/lastmile_qr_scan"}, "fusion_lon": 0.0}, {"lat": 38.911829166666664, "is_disabled": 0, "type": "electric_scooter", "lon": -77.038314, "bike_id": "59e651715e32ae77bd5ecd3d1af55bd0", "fusion_lat": 0.0, "name": "59e651715e32ae77bd5ecd3d1af55bd0", "is_reserved": 0, "rental_uris": {"android": "https://dc.lft.to/lastmile_qr_scan", "ios": "https://dc.lft.to/lastmile_qr_scan"}, "fusion_lon": 0.0}, {"lat": 38.913372, "is_disabled": 0, "type": "electric_scooter", "lon": -77.03989666666666, "bike_id": "1496a6bf2f52405442a27958cb865ad1", "fusion_lat": 0.0, "name": "1496a6bf2f52405442a27958cb865ad1", "is_reserved": 0, "rental_uris": {"android": "https://dc.lft.to/lastmile_qr_scan", "ios": "https://dc.lft.to/lastmile_qr_scan"}, "fusion_lon": 0.0}, {"lat": 38.89755016666667, "is_disabled": 0, "type": "electric_scooter", "lon": -77.03232716666666, "bike_id": "f18f5f4afb1df79230c6476151dcec8e", "fusion_lat": 0.0, "name": "f18f5f4afb1df79230c6476151dcec8e", "is_reserved": 0, "rental_uris": {"android": "https://dc.lft.to/lastmile_qr_scan", "ios": "https://dc.lft.to/lastmile_qr_scan"}, "fusion_lon": 0.0}, {"lat": 38.844223, "is_disabled": 0, "type": "electric_scooter", "lon": -76.997766, "bike_id": "7b5cdb92c6460fdb88e233cabf710152", "fusion_lat": 0.0, "name": "7b5cdb92c6460fdb88e233cabf710152", "is_reserved": 0, "rental_uris": {"android": "https://dc.lft.to/lastmile_qr_scan", "ios": "https://dc.lft.to/lastmile_qr_scan"}, "fusion_lon": 0.0}, {"lat": 38.973294833333334, "is_disabled": 0, "type": "electric_bike", "lon": -77.0214615, "bike_id": "4e361b7e8a1625e4805a741f5025e320", "fusion_lat": 0.0, "name": "4e361b7e8a1625e4805a741f5025e320", "is_reserved": 0, "rental_uris": {"android": "https://dc.lft.to/lastmile_qr_scan", "ios": "https://dc.lft.to/lastmile_qr_scan"}, "fusion_lon": 0.0}, {"lat": 38.93484, "is_disabled": 0, "type": "electric_scooter", "lon": -77.036038, "bike_id": "ca5ddb4576cca1292f42204bb726df9c", "fusion_lat": 0.0, "name": "ca5ddb4576cca1292f42204bb726df9c", "is_reserved": 0, "rental_uris": {"android": "https://dc.lft.to/lastmile_qr_scan", "ios": "https://dc.lft.to/lastmile_qr_scan"}, "fusion_lon": 0.0}, {"lat": 38.903927833333334, "is_disabled": 0, "type": "electric_scooter", "lon": -77.04868716666667, "bike_id": "2a26e23f58a15d0cdea2ba27bdaba148", "fusion_lat": 0.0, "name": "2a26e23f58a15d0cdea2ba27bdaba148", "is_reserved": 0, "rental_uris": {"android": "https://dc.lft.to/lastmile_qr_scan", "ios": "https://dc.lft.to/lastmile_qr_scan"}, "fusion_lon": 0.0}, {"lat": 38.93657983333333, "is_disabled": 0, "type": "electric_bike", "lon": -76.95214733333333, "bike_id": "bab98655b5da4d408903d5f1a8babae1", "fusion_lat": 0.0, "name": "bab98655b5da4d408903d5f1a8babae1", "is_reserved": 0, "rental_uris": {"android": "https://dc.lft.to/lastmile_qr_scan", "ios": "https://dc.lft.to/lastmile_qr_scan"}, "fusion_lon": 0.0}, {"lat": 38.88089, "is_disabled": 0, "type": "electric_scooter", "lon": -76.99263783333333, "bike_id": "94dac7d10fa0b3ed094e2fef3523143f", "fusion_lat": 0.0, "name": "94dac7d10fa0b3ed094e2fef3523143f", "is_reserved": 0, "rental_uris": {"android": "https://dc.lft.to/lastmile_qr_scan", "ios": "https://dc.lft.to/lastmile_qr_scan"}, "fusion_lon": 0.0}, {"lat": 38.887400166666666, "is_disabled": 0, "type": "electric_scooter", "lon": -77.02831366666666, "bike_id": "2568d29c6954c161c963a75acabda9c8", "fusion_lat": 0.0, "name": "2568d29c6954c161c963a75acabda9c8", "is_reserved": 0, "rental_uris": {"android": "https://dc.lft.to/lastmile_qr_scan", "ios": "https://dc.lft.to/lastmile_qr_scan"}, "fusion_lon": 0.0}, {"lat": 38.909454833333335, "is_disabled": 0, "type": "electric_scooter", "lon": -77.04497183333334, "bike_id": "6e9ac26d1702222dd7e85a6337177a07", "fusion_lat": 0.0, "name": "6e9ac26d1702222dd7e85a6337177a07", "is_reserved": 0, "rental_uris": {"android": "https://dc.lft.to/lastmile_qr_scan", "ios": "https://dc.lft.to/lastmile_qr_scan"}, "fusion_lon": 0.0}, {"lat": 38.881198166666664, "is_disabled": 0, "type": "electric_scooter", "lon": -77.00099216666666, "bike_id": "f79a03fff492eddcb621c5c799daf6f8", "fusion_lat": 0.0, "name": "f79a03fff492eddcb621c5c799daf6f8", "is_reserved": 0, "rental_uris": {"android": "https://dc.lft.to/lastmile_qr_scan", "ios": "https://dc.lft.to/lastmile_qr_scan"}, "fusion_lon": 0.0}, {"lat": 38.91427316666667, "is_disabled": 0, "type": "electric_scooter", "lon": -77.01706566666667, "bike_id": "f8e8d841e81b85543d031fbeac39dc03", "fusion_lat": 0.0, "name": "f8e8d841e81b85543d031fbeac39dc03", "is_reserved": 0, "rental_uris": {"android": "https://dc.lft.to/lastmile_qr_scan", "ios": "https://dc.lft.to/lastmile_qr_scan"}, "fusion_lon": 0.0}, {"lat": 38.906375, "is_disabled": 0, "type": "electric_scooter", "lon": -77.03467416666666, "bike_id": "8b35be3f3fd96f059d7ed51b180714ea", "fusion_lat": 0.0, "name": "8b35be3f3fd96f059d7ed51b180714ea", "is_reserved": 0, "rental_uris": {"android": "https://dc.lft.to/lastmile_qr_scan", "ios": "https://dc.lft.to/lastmile_qr_scan"}, "fusion_lon": 0.0}, {"lat": 38.898973, "is_disabled": 0, "type": "electric_scooter", "lon": -76.98420366666667, "bike_id": "859a8edab9b84eb43d2dce6cdb779789", "fusion_lat": 0.0, "name": "859a8edab9b84eb43d2dce6cdb779789", "is_reserved": 0, "rental_uris": {"android": "https://dc.lft.to/lastmile_qr_scan", "ios": "https://dc.lft.to/lastmile_qr_scan"}, "fusion_lon": 0.0}, {"lat": 38.8973445, "is_disabled": 0, "type": "electric_scooter", "lon": -76.94721633333333, "bike_id": "d391a4c88d27daec22699b950e8e4a8c", "fusion_lat": 0.0, "name": "d391a4c88d27daec22699b950e8e4a8c", "is_reserved": 0, "rental_uris": {"android": "https://dc.lft.to/lastmile_qr_scan", "ios": "https://dc.lft.to/lastmile_qr_scan"}, "fusion_lon": 0.0}, {"lat": 38.920686, "is_disabled": 0, "type": "electric_scooter", "lon": -77.045515, "bike_id": "ac6774d6fd26ea974d9a3f2cb29407b7", "fusion_lat": 0.0, "name": "ac6774d6fd26ea974d9a3f2cb29407b7", "is_reserved": 0, "rental_uris": {"android": "https://dc.lft.to/lastmile_qr_scan", "ios": "https://dc.lft.to/lastmile_qr_scan"}, "fusion_lon": 0.0}, {"lat": 38.92709716666667, "is_disabled": 0, "type": "electric_scooter", "lon": -77.02407666666667, "bike_id": "06a6b78eff4ea04e1eddd4ae14f6404e", "fusion_lat": 0.0, "name": "06a6b78eff4ea04e1eddd4ae14f6404e", "is_reserved": 0, "rental_uris": {"android": "https://dc.lft.to/lastmile_qr_scan", "ios": "https://dc.lft.to/lastmile_qr_scan"}, "fusion_lon": 0.0}, {"lat": 38.903827666666665, "is_disabled": 0, "type": "electric_scooter", "lon": -77.05810316666667, "bike_id": "9c0cf1828114dafdc2f8e3598150135c", "fusion_lat": 0.0, "name": "9c0cf1828114dafdc2f8e3598150135c", "is_reserved": 0, "rental_uris": {"android": "https://dc.lft.to/lastmile_qr_scan", "ios": "https://dc.lft.to/lastmile_qr_scan"}, "fusion_lon": 0.0}, {"lat": 38.90304283333333, "is_disabled": 0, "type": "electric_scooter", "lon": -77.05130216666667, "bike_id": "2d44da7d47b44b903ec07c4e0fb93c80", "fusion_lat": 0.0, "name": "2d44da7d47b44b903ec07c4e0fb93c80", "is_reserved": 0, "rental_uris": {"android": "https://dc.lft.to/lastmile_qr_scan", "ios": "https://dc.lft.to/lastmile_qr_scan"}, "fusion_lon": 0.0}, {"lat": 38.95356866666667, "is_disabled": 0, "type": "electric_bike", "lon": -76.980942, "bike_id": "8a5129a71a191f4fe224b9a6813c3550", "fusion_lat": 0.0, "name": "8a5129a71a191f4fe224b9a6813c3550", "is_reserved": 0, "rental_uris": {"android": "https://dc.lft.to/lastmile_qr_scan", "ios": "https://dc.lft.to/lastmile_qr_scan"}, "fusion_lon": 0.0}, {"lat": 38.91411766666667, "is_disabled": 0, "type": "electric_scooter", "lon": -77.035293, "bike_id": "855c520efca35ca05102ad859acd7bbc", "fusion_lat": 0.0, "name": "855c520efca35ca05102ad859acd7bbc", "is_reserved": 0, "rental_uris": {"android": "https://dc.lft.to/lastmile_qr_scan", "ios": "https://dc.lft.to/lastmile_qr_scan"}, "fusion_lon": 0.0}, {"lat": 38.91742933333333, "is_disabled": 0, "type": "electric_scooter", "lon": -77.03663216666666, "bike_id": "5871c1be87bd12e3cb7c68254f408299", "fusion_lat": 0.0, "name": "5871c1be87bd12e3cb7c68254f408299", "is_reserved": 0, "rental_uris": {"android": "https://dc.lft.to/lastmile_qr_scan", "ios": "https://dc.lft.to/lastmile_qr_scan"}, "fusion_lon": 0.0}, {"lat": 38.9217335, "is_disabled": 0, "type": "electric_scooter", "lon": -77.03803383333333, "bike_id": "8eeef59ad57deb358bc9a894ad86e2cf", "fusion_lat": 0.0, "name": "8eeef59ad57deb358bc9a894ad86e2cf", "is_reserved": 0, "rental_uris": {"android": "https://dc.lft.to/lastmile_qr_scan", "ios": "https://dc.lft.to/lastmile_qr_scan"}, "fusion_lon": 0.0}, {"lat": 38.921163666666665, "is_disabled": 0, "type": "electric_scooter", "lon": -77.0365615, "bike_id": "1dc140c6540501b9de5c49452baa69db", "fusion_lat": 0.0, "name": "1dc140c6540501b9de5c49452baa69db", "is_reserved": 0, "rental_uris": {"android": "https://dc.lft.to/lastmile_qr_scan", "ios": "https://dc.lft.to/lastmile_qr_scan"}, "fusion_lon": 0.0}, {"lat": 38.905876166666665, "is_disabled": 0, "type": "electric_scooter", "lon": -76.98637533333333, "bike_id": "f7b23e5771740c351ef5d7cf0264b5c7", "fusion_lat": 0.0, "name": "f7b23e5771740c351ef5d7cf0264b5c7", "is_reserved": 0, "rental_uris": {"android": "https://dc.lft.to/lastmile_qr_scan", "ios": "https://dc.lft.to/lastmile_qr_scan"}, "fusion_lon": 0.0}, {"lat": 38.91675033333333, "is_disabled": 0, "type": "electric_scooter", "lon": -77.02405966666667, "bike_id": "d54055e9f0a2ebf19d54011323ee6db6", "fusion_lat": 0.0, "name": "d54055e9f0a2ebf19d54011323ee6db6", "is_reserved": 0, "rental_uris": {"android": "https://dc.lft.to/lastmile_qr_scan", "ios": "https://dc.lft.to/lastmile_qr_scan"}, "fusion_lon": 0.0}, {"lat": 38.893240166666665, "is_disabled": 0, "type": "electric_bike", "lon": -76.92113466666666, "bike_id": "86f3a7ca0e9550dde6d62697166d69bc", "fusion_lat": 0.0, "name": "86f3a7ca0e9550dde6d62697166d69bc", "is_reserved": 0, "rental_uris": {"android": "https://dc.lft.to/lastmile_qr_scan", "ios": "https://dc.lft.to/lastmile_qr_scan"}, "fusion_lon": 0.0}, {"lat": 38.9156025, "is_disabled": 0, "type": "electric_scooter", "lon": -77.03166533333334, "bike_id": "882097d02cd3b96446979975a4ff5b03", "fusion_lat": 0.0, "name": "882097d02cd3b96446979975a4ff5b03", "is_reserved": 0, "rental_uris": {"android": "https://dc.lft.to/lastmile_qr_scan", "ios": "https://dc.lft.to/lastmile_qr_scan"}, "fusion_lon": 0.0}, {"lat": 38.920541666666665, "is_disabled": 0, "type": "electric_scooter", "lon": -77.03392266666667, "bike_id": "03a8e5c0c1b27bc53b38e4858ba7cb16", "fusion_lat": 0.0, "name": "03a8e5c0c1b27bc53b38e4858ba7cb16", "is_reserved": 0, "rental_uris": {"android": "https://dc.lft.to/lastmile_qr_scan", "ios": "https://dc.lft.to/lastmile_qr_scan"}, "fusion_lon": 0.0}, {"lat": 38.91117233333333, "is_disabled": 0, "type": "electric_scooter", "lon": -77.03765516666667, "bike_id": "a5eb4583db4ab9e61f381b6a5531017c", "fusion_lat": 0.0, "name": "a5eb4583db4ab9e61f381b6a5531017c", "is_reserved": 0, "rental_uris": {"android": "https://dc.lft.to/lastmile_qr_scan", "ios": "https://dc.lft.to/lastmile_qr_scan"}, "fusion_lon": 0.0}, {"lat": 38.88577983333333, "is_disabled": 0, "type": "electric_scooter", "lon": -76.91914166666666, "bike_id": "67f12ecce9d2b3170b082d844c63eba6", "fusion_lat": 0.0, "name": "67f12ecce9d2b3170b082d844c63eba6", "is_reserved": 0, "rental_uris": {"android": "https://dc.lft.to/lastmile_qr_scan", "ios": "https://dc.lft.to/lastmile_qr_scan"}, "fusion_lon": 0.0}, {"lat": 38.924767, "is_disabled": 0, "type": "electric_scooter", "lon": -77.02848083333333, "bike_id": "65658e9621ce9b8442815aceac607afb", "fusion_lat": 0.0, "name": "65658e9621ce9b8442815aceac607afb", "is_reserved": 0, "rental_uris": {"android": "https://dc.lft.to/lastmile_qr_scan", "ios": "https://dc.lft.to/lastmile_qr_scan"}, "fusion_lon": 0.0}, {"lat": 38.9561375, "is_disabled": 0, "type": "electric_scooter", "lon": -77.02759966666666, "bike_id": "82799b2e71bcf4b7440dcf3cc3301524", "fusion_lat": 0.0, "name": "82799b2e71bcf4b7440dcf3cc3301524", "is_reserved": 0, "rental_uris": {"android": "https://dc.lft.to/lastmile_qr_scan", "ios": "https://dc.lft.to/lastmile_qr_scan"}, "fusion_lon": 0.0}, {"lat": 38.911755666666664, "is_disabled": 0, "type": "electric_scooter", "lon": -77.0609765, "bike_id": "98f6596fe706df5c9c59b1be572e0f12", "fusion_lat": 0.0, "name": "98f6596fe706df5c9c59b1be572e0f12", "is_reserved": 0, "rental_uris": {"android": "https://dc.lft.to/lastmile_qr_scan", "ios": "https://dc.lft.to/lastmile_qr_scan"}, "fusion_lon": 0.0}, {"lat": 38.886386333333334, "is_disabled": 0, "type": "electric_bike", "lon": -76.9547475, "bike_id": "53a2c5f272a71968cf7fe49bc2232c79", "fusion_lat": 0.0, "name": "53a2c5f272a71968cf7fe49bc2232c79", "is_reserved": 0, "rental_uris": {"android": "https://dc.lft.to/lastmile_qr_scan", "ios": "https://dc.lft.to/lastmile_qr_scan"}, "fusion_lon": 0.0}, {"lat": 38.92892533333333, "is_disabled": 0, "type": "electric_scooter", "lon": -77.0222025, "bike_id": "0c86e3689d01c56498fd24a4c1f64a60", "fusion_lat": 0.0, "name": "0c86e3689d01c56498fd24a4c1f64a60", "is_reserved": 0, "rental_uris": {"android": "https://dc.lft.to/lastmile_qr_scan", "ios": "https://dc.lft.to/lastmile_qr_scan"}, "fusion_lon": 0.0}, {"lat": 38.92731533333333, "is_disabled": 0, "type": "electric_scooter", "lon": -77.034442, "bike_id": "9ba8e1ee24090bb337e35b8fa78cdd98", "fusion_lat": 0.0, "name": "9ba8e1ee24090bb337e35b8fa78cdd98", "is_reserved": 0, "rental_uris": {"android": "https://dc.lft.to/lastmile_qr_scan", "ios": "https://dc.lft.to/lastmile_qr_scan"}, "fusion_lon": 0.0}, {"lat": 39.0563485, "is_disabled": 0, "type": "electric_bike", "lon": -77.12526283333334, "bike_id": "09fdfe34c1e15e347f46eadf5bcf282c", "fusion_lat": 0.0, "name": "09fdfe34c1e15e347f46eadf5bcf282c", "is_reserved": 0, "rental_uris": {"android": "https://dc.lft.to/lastmile_qr_scan", "ios": "https://dc.lft.to/lastmile_qr_scan"}, "fusion_lon": 0.0}, {"lat": 38.8981685, "is_disabled": 0, "type": "electric_scooter", "lon": -76.9969715, "bike_id": "5b4d02c1e1bbef4a931c27716dda38cb", "fusion_lat": 0.0, "name": "5b4d02c1e1bbef4a931c27716dda38cb", "is_reserved": 0, "rental_uris": {"android": "https://dc.lft.to/lastmile_qr_scan", "ios": "https://dc.lft.to/lastmile_qr_scan"}, "fusion_lon": 0.0}, {"lat": 38.927533, "is_disabled": 0, "type": "electric_scooter", "lon": -77.03221966666666, "bike_id": "6e6db3d5706a11808ba9ed24666c1a0b", "fusion_lat": 0.0, "name": "6e6db3d5706a11808ba9ed24666c1a0b", "is_reserved": 0, "rental_uris": {"android": "https://dc.lft.to/lastmile_qr_scan", "ios": "https://dc.lft.to/lastmile_qr_scan"}, "fusion_lon": 0.0}, {"lat": 38.90163483333333, "is_disabled": 0, "type": "electric_scooter", "lon": -77.024553, "bike_id": "6c339fddbd0b7631f97492b76cae55aa", "fusion_lat": 0.0, "name": "6c339fddbd0b7631f97492b76cae55aa", "is_reserved": 0, "rental_uris": {"android": "https://dc.lft.to/lastmile_qr_scan", "ios": "https://dc.lft.to/lastmile_qr_scan"}, "fusion_lon": 0.0}, {"lat": 38.890421833333335, "is_disabled": 0, "type": "electric_scooter", "lon": -76.95141683333334, "bike_id": "f87001752c06e09b31c32ba8da30896f", "fusion_lat": 0.0, "name": "f87001752c06e09b31c32ba8da30896f", "is_reserved": 0, "rental_uris": {"android": "https://dc.lft.to/lastmile_qr_scan", "ios": "https://dc.lft.to/lastmile_qr_scan"}, "fusion_lon": 0.0}, {"lat": 38.89504, "is_disabled": 0, "type": "electric_scooter", "lon": -77.022919, "bike_id": "c51990304de4cebdbafada9cb6e5b8cf", "fusion_lat": 0.0, "name": "c51990304de4cebdbafada9cb6e5b8cf", "is_reserved": 0, "rental_uris": {"android": "https://dc.lft.to/lastmile_qr_scan", "ios": "https://dc.lft.to/lastmile_qr_scan"}, "fusion_lon": 0.0}, {"lat": 38.90559966666667, "is_disabled": 0, "type": "electric_scooter", "lon": -77.034181, "bike_id": "6506b1b29c4f755e85547f80ea1b0d6b", "fusion_lat": 0.0, "name": "6506b1b29c4f755e85547f80ea1b0d6b", "is_reserved": 0, "rental_uris": {"android": "https://dc.lft.to/lastmile_qr_scan", "ios": "https://dc.lft.to/lastmile_qr_scan"}, "fusion_lon": 0.0}, {"lat": 38.903007333333335, "is_disabled": 0, "type": "electric_scooter", "lon": -77.02597533333334, "bike_id": "34905658bcbae9b125a3a022921bc7c0", "fusion_lat": 0.0, "name": "34905658bcbae9b125a3a022921bc7c0", "is_reserved": 0, "rental_uris": {"android": "https://dc.lft.to/lastmile_qr_scan", "ios": "https://dc.lft.to/lastmile_qr_scan"}, "fusion_lon": 0.0}, {"lat": 38.94172566666667, "is_disabled": 0, "type": "electric_scooter", "lon": -77.02347983333334, "bike_id": "9f72c0f4859ef76e04e608cb25556812", "fusion_lat": 0.0, "name": "9f72c0f4859ef76e04e608cb25556812", "is_reserved": 0, "rental_uris": {"android": "https://dc.lft.to/lastmile_qr_scan", "ios": "https://dc.lft.to/lastmile_qr_scan"}, "fusion_lon": 0.0}, {"lat": 38.846579166666665, "is_disabled": 0, "type": "electric_bike", "lon": -76.97936333333334, "bike_id": "15ce27ccb7fac1ecafad7aa7f423510b", "fusion_lat": 0.0, "name": "15ce27ccb7fac1ecafad7aa7f423510b", "is_reserved": 0, "rental_uris": {"android": "https://dc.lft.to/lastmile_qr_scan", "ios": "https://dc.lft.to/lastmile_qr_scan"}, "fusion_lon": 0.0}, {"lat": 38.90562283333333, "is_disabled": 0, "type": "electric_scooter", "lon": -77.03391833333333, "bike_id": "1443913f7e8d7b76e18eb0aed9a08f6f", "fusion_lat": 0.0, "name": "1443913f7e8d7b76e18eb0aed9a08f6f", "is_reserved": 0, "rental_uris": {"android": "https://dc.lft.to/lastmile_qr_scan", "ios": "https://dc.lft.to/lastmile_qr_scan"}, "fusion_lon": 0.0}, {"lat": 38.894793, "is_disabled": 0, "type": "electric_scooter", "lon": -77.02112733333334, "bike_id": "572e314622eba73fc54e8b6caa553cc6", "fusion_lat": 0.0, "name": "572e314622eba73fc54e8b6caa553cc6", "is_reserved": 0, "rental_uris": {"android": "https://dc.lft.to/lastmile_qr_scan", "ios": "https://dc.lft.to/lastmile_qr_scan"}, "fusion_lon": 0.0}, {"lat": 38.86905466666666, "is_disabled": 0, "type": "electric_bike", "lon": -77.13179233333334, "bike_id": "b8557fd4f9fa59d66653515cd3e2c181", "fusion_lat": 0.0, "name": "b8557fd4f9fa59d66653515cd3e2c181", "is_reserved": 0, "rental_uris": {"android": "https://dc.lft.to/lastmile_qr_scan", "ios": "https://dc.lft.to/lastmile_qr_scan"}, "fusion_lon": 0.0}, {"lat": 38.9199355, "is_disabled": 0, "type": "electric_scooter", "lon": -77.032325, "bike_id": "e7922a89441f13f264783ef2008daf68", "fusion_lat": 0.0, "name": "e7922a89441f13f264783ef2008daf68", "is_reserved": 0, "rental_uris": {"android": "https://dc.lft.to/lastmile_qr_scan", "ios": "https://dc.lft.to/lastmile_qr_scan"}, "fusion_lon": 0.0}, {"lat": 38.91049116666667, "is_disabled": 0, "type": "electric_scooter", "lon": -77.015106, "bike_id": "d816b3d096cacc7c09889212313969d4", "fusion_lat": 0.0, "name": "d816b3d096cacc7c09889212313969d4", "is_reserved": 0, "rental_uris": {"android": "https://dc.lft.to/lastmile_qr_scan", "ios": "https://dc.lft.to/lastmile_qr_scan"}, "fusion_lon": 0.0}, {"lat": 38.93283683333333, "is_disabled": 0, "type": "electric_scooter", "lon": -77.0397635, "bike_id": "70160270dfb27f0fe18f8a009d44e2ba", "fusion_lat": 0.0, "name": "70160270dfb27f0fe18f8a009d44e2ba", "is_reserved": 0, "rental_uris": {"android": "https://dc.lft.to/lastmile_qr_scan", "ios": "https://dc.lft.to/lastmile_qr_scan"}, "fusion_lon": 0.0}, {"lat": 38.92480833333333, "is_disabled": 0, "type": "electric_scooter", "lon": -77.052122, "bike_id": "7036c764f7f980faa9d97e4eb7e84868", "fusion_lat": 0.0, "name": "7036c764f7f980faa9d97e4eb7e84868", "is_reserved": 0, "rental_uris": {"android": "https://dc.lft.to/lastmile_qr_scan", "ios": "https://dc.lft.to/lastmile_qr_scan"}, "fusion_lon": 0.0}, {"lat": 38.932779333333336, "is_disabled": 0, "type": "electric_scooter", "lon": -77.0363835, "bike_id": "4d48e8121bff8744d8df241e0f6f8175", "fusion_lat": 0.0, "name": "4d48e8121bff8744d8df241e0f6f8175", "is_reserved": 0, "rental_uris": {"android": "https://dc.lft.to/lastmile_qr_scan", "ios": "https://dc.lft.to/lastmile_qr_scan"}, "fusion_lon": 0.0}, {"lat": 38.93170533333333, "is_disabled": 0, "type": "electric_scooter", "lon": -77.02819433333333, "bike_id": "d692168e49ebcdde3af50433264a896f", "fusion_lat": 0.0, "name": "d692168e49ebcdde3af50433264a896f", "is_reserved": 0, "rental_uris": {"android": "https://dc.lft.to/lastmile_qr_scan", "ios": "https://dc.lft.to/lastmile_qr_scan"}, "fusion_lon": 0.0}, {"lat": 38.90136733333333, "is_disabled": 0, "type": "electric_scooter", "lon": -77.0007295, "bike_id": "4396bebe2e914dbaaaec5b01af4d8765", "fusion_lat": 0.0, "name": "4396bebe2e914dbaaaec5b01af4d8765", "is_reserved": 0, "rental_uris": {"android": "https://dc.lft.to/lastmile_qr_scan", "ios": "https://dc.lft.to/lastmile_qr_scan"}, "fusion_lon": 0.0}, {"lat": 38.92179633333333, "is_disabled": 0, "type": "electric_scooter", "lon": -77.04237133333334, "bike_id": "0cda5adb88c0cb6f5e502ac13d973dbb", "fusion_lat": 0.0, "name": "0cda5adb88c0cb6f5e502ac13d973dbb", "is_reserved": 0, "rental_uris": {"android": "https://dc.lft.to/lastmile_qr_scan", "ios": "https://dc.lft.to/lastmile_qr_scan"}, "fusion_lon": 0.0}, {"lat": 38.907239, "is_disabled": 0, "type": "electric_scooter", "lon": -77.0482565, "bike_id": "59a3305d12e5b542ee4439cf73e3bf0e", "fusion_lat": 0.0, "name": "59a3305d12e5b542ee4439cf73e3bf0e", "is_reserved": 0, "rental_uris": {"android": "https://dc.lft.to/lastmile_qr_scan", "ios": "https://dc.lft.to/lastmile_qr_scan"}, "fusion_lon": 0.0}, {"lat": 39.030455333333336, "is_disabled": 0, "type": "electric_bike", "lon": -77.09486466666667, "bike_id": "701bac5c40cfdb2fe0acec47b9d1eb8a", "fusion_lat": 0.0, "name": "701bac5c40cfdb2fe0acec47b9d1eb8a", "is_reserved": 0, "rental_uris": {"android": "https://dc.lft.to/lastmile_qr_scan", "ios": "https://dc.lft.to/lastmile_qr_scan"}, "fusion_lon": 0.0}, {"lat": 38.900731, "is_disabled": 0, "type": "electric_scooter", "lon": -77.05314383333334, "bike_id": "bdc29d3ca73664261509eb481abcbff7", "fusion_lat": 0.0, "name": "bdc29d3ca73664261509eb481abcbff7", "is_reserved": 0, "rental_uris": {"android": "https://dc.lft.to/lastmile_qr_scan", "ios": "https://dc.lft.to/lastmile_qr_scan"}, "fusion_lon": 0.0}, {"lat": 38.887073, "is_disabled": 0, "type": "electric_scooter", "lon": -77.001544, "bike_id": "0c7cd8ed2e5c72de52d89583dc4c019e", "fusion_lat": 0.0, "name": "0c7cd8ed2e5c72de52d89583dc4c019e", "is_reserved": 0, "rental_uris": {"android": "https://dc.lft.to/lastmile_qr_scan", "ios": "https://dc.lft.to/lastmile_qr_scan"}, "fusion_lon": 0.0}, {"lat": 38.9462965, "is_disabled": 0, "type": "electric_scooter", "lon": -77.01848133333333, "bike_id": "d6b9561d2a6e1eb97c766980a5338d4e", "fusion_lat": 0.0, "name": "d6b9561d2a6e1eb97c766980a5338d4e", "is_reserved": 0, "rental_uris": {"android": "https://dc.lft.to/lastmile_qr_scan", "ios": "https://dc.lft.to/lastmile_qr_scan"}, "fusion_lon": 0.0}, {"lat": 38.93674883333333, "is_disabled": 0, "type": "electric_scooter", "lon": -77.03575766666667, "bike_id": "2d2b1b6c6ba2b03a6bfcf619e594b96e", "fusion_lat": 0.0, "name": "2d2b1b6c6ba2b03a6bfcf619e594b96e", "is_reserved": 0, "rental_uris": {"android": "https://dc.lft.to/lastmile_qr_scan", "ios": "https://dc.lft.to/lastmile_qr_scan"}, "fusion_lon": 0.0}, {"lat": 38.92197483333333, "is_disabled": 0, "type": "electric_scooter", "lon": -77.04256466666666, "bike_id": "8d339502fcdb7599a05325a440d95373", "fusion_lat": 0.0, "name": "8d339502fcdb7599a05325a440d95373", "is_reserved": 0, "rental_uris": {"android": "https://dc.lft.to/lastmile_qr_scan", "ios": "https://dc.lft.to/lastmile_qr_scan"}, "fusion_lon": 0.0}, {"lat": 38.951645166666665, "is_disabled": 0, "type": "electric_scooter", "lon": -77.009764, "bike_id": "365e7e2a4c101aa06925c88fa11df1a7", "fusion_lat": 0.0, "name": "365e7e2a4c101aa06925c88fa11df1a7", "is_reserved": 0, "rental_uris": {"android": "https://dc.lft.to/lastmile_qr_scan", "ios": "https://dc.lft.to/lastmile_qr_scan"}, "fusion_lon": 0.0}, {"lat": 38.8951655, "is_disabled": 0, "type": "electric_scooter", "lon": -77.04364533333333, "bike_id": "97b84c69d49d722115516940a8509a2f", "fusion_lat": 0.0, "name": "97b84c69d49d722115516940a8509a2f", "is_reserved": 0, "rental_uris": {"android": "https://dc.lft.to/lastmile_qr_scan", "ios": "https://dc.lft.to/lastmile_qr_scan"}, "fusion_lon": 0.0}, {"lat": 38.92968533333333, "is_disabled": 0, "type": "electric_scooter", "lon": -77.03401016666666, "bike_id": "e9e049410d0a8db89dda3290ca9f8119", "fusion_lat": 0.0, "name": "e9e049410d0a8db89dda3290ca9f8119", "is_reserved": 0, "rental_uris": {"android": "https://dc.lft.to/lastmile_qr_scan", "ios": "https://dc.lft.to/lastmile_qr_scan"}, "fusion_lon": 0.0}, {"lat": 38.92892066666667, "is_disabled": 0, "type": "electric_scooter", "lon": -77.03253566666666, "bike_id": "d0345a0b731188d6fc5c7de32847f0f1", "fusion_lat": 0.0, "name": "d0345a0b731188d6fc5c7de32847f0f1", "is_reserved": 0, "rental_uris": {"android": "https://dc.lft.to/lastmile_qr_scan", "ios": "https://dc.lft.to/lastmile_qr_scan"}, "fusion_lon": 0.0}, {"lat": 38.90970133333333, "is_disabled": 0, "type": "electric_scooter", "lon": -77.04513216666666, "bike_id": "6415ba5d6532a1905689479db4005928", "fusion_lat": 0.0, "name": "6415ba5d6532a1905689479db4005928", "is_reserved": 0, "rental_uris": {"android": "https://dc.lft.to/lastmile_qr_scan", "ios": "https://dc.lft.to/lastmile_qr_scan"}, "fusion_lon": 0.0}, {"lat": 38.923265, "is_disabled": 0, "type": "electric_scooter", "lon": -77.03894833333334, "bike_id": "a4afe6b0fee6a9634cf09c8b1e95dd83", "fusion_lat": 0.0, "name": "a4afe6b0fee6a9634cf09c8b1e95dd83", "is_reserved": 0, "rental_uris": {"android": "https://dc.lft.to/lastmile_qr_scan", "ios": "https://dc.lft.to/lastmile_qr_scan"}, "fusion_lon": 0.0}, {"lat": 39.051929333333334, "is_disabled": 0, "type": "electric_bike", "lon": -77.10931333333333, "bike_id": "ae86e670b3a3dd21b7cb3db34b048e47", "fusion_lat": 0.0, "name": "ae86e670b3a3dd21b7cb3db34b048e47", "is_reserved": 0, "rental_uris": {"android": "https://dc.lft.to/lastmile_qr_scan", "ios": "https://dc.lft.to/lastmile_qr_scan"}, "fusion_lon": 0.0}, {"lat": 38.90902466666667, "is_disabled": 0, "type": "electric_scooter", "lon": -77.03660383333333, "bike_id": "3666c8ed463156d23736620019ac8b30", "fusion_lat": 0.0, "name": "3666c8ed463156d23736620019ac8b30", "is_reserved": 0, "rental_uris": {"android": "https://dc.lft.to/lastmile_qr_scan", "ios": "https://dc.lft.to/lastmile_qr_scan"}, "fusion_lon": 0.0}, {"lat": 38.905673, "is_disabled": 0, "type": "electric_scooter", "lon": -77.027967, "bike_id": "05b84770e07b333a1917e8d14aa86056", "fusion_lat": 0.0, "name": "05b84770e07b333a1917e8d14aa86056", "is_reserved": 0, "rental_uris": {"android": "https://dc.lft.to/lastmile_qr_scan", "ios": "https://dc.lft.to/lastmile_qr_scan"}, "fusion_lon": 0.0}, {"lat": 38.866505333333336, "is_disabled": 0, "type": "electric_scooter", "lon": -76.980887, "bike_id": "cebaffa19da352f0146961519ff62fd0", "fusion_lat": 0.0, "name": "cebaffa19da352f0146961519ff62fd0", "is_reserved": 0, "rental_uris": {"android": "https://dc.lft.to/lastmile_qr_scan", "ios": "https://dc.lft.to/lastmile_qr_scan"}, "fusion_lon": 0.0}, {"lat": 38.90053866666667, "is_disabled": 0, "type": "electric_scooter", "lon": -77.025905, "bike_id": "e109708cac09e54d0737fa0422f736f1", "fusion_lat": 0.0, "name": "e109708cac09e54d0737fa0422f736f1", "is_reserved": 0, "rental_uris": {"android": "https://dc.lft.to/lastmile_qr_scan", "ios": "https://dc.lft.to/lastmile_qr_scan"}, "fusion_lon": 0.0}, {"lat": 38.91966883333333, "is_disabled": 0, "type": "electric_scooter", "lon": -77.013515, "bike_id": "790dc17137ab9891d7b83e1b6322c339", "fusion_lat": 0.0, "name": "790dc17137ab9891d7b83e1b6322c339", "is_reserved": 0, "rental_uris": {"android": "https://dc.lft.to/lastmile_qr_scan", "ios": "https://dc.lft.to/lastmile_qr_scan"}, "fusion_lon": 0.0}, {"lat": 38.92947, "is_disabled": 0, "type": "electric_scooter", "lon": -77.01892316666667, "bike_id": "b2b509775b1e5e24048962e065ff90cf", "fusion_lat": 0.0, "name": "b2b509775b1e5e24048962e065ff90cf", "is_reserved": 0, "rental_uris": {"android": "https://dc.lft.to/lastmile_qr_scan", "ios": "https://dc.lft.to/lastmile_qr_scan"}, "fusion_lon": 0.0}, {"lat": 38.907230166666665, "is_disabled": 0, "type": "electric_scooter", "lon": -77.0343135, "bike_id": "ef9ff450de080f51ad00b70e0229b1b1", "fusion_lat": 0.0, "name": "ef9ff450de080f51ad00b70e0229b1b1", "is_reserved": 0, "rental_uris": {"android": "https://dc.lft.to/lastmile_qr_scan", "ios": "https://dc.lft.to/lastmile_qr_scan"}, "fusion_lon": 0.0}, {"lat": 38.892210666666664, "is_disabled": 0, "type": "electric_scooter", "lon": -77.043653, "bike_id": "0bb725357dff6f2d20b1bcd9c745b67f", "fusion_lat": 0.0, "name": "0bb725357dff6f2d20b1bcd9c745b67f", "is_reserved": 0, "rental_uris": {"android": "https://dc.lft.to/lastmile_qr_scan", "ios": "https://dc.lft.to/lastmile_qr_scan"}, "fusion_lon": 0.0}, {"lat": 38.91750733333333, "is_disabled": 0, "type": "electric_scooter", "lon": -77.03664216666667, "bike_id": "5b8a75dfb270a318302c11ad3211ec91", "fusion_lat": 0.0, "name": "5b8a75dfb270a318302c11ad3211ec91", "is_reserved": 0, "rental_uris": {"android": "https://dc.lft.to/lastmile_qr_scan", "ios": "https://dc.lft.to/lastmile_qr_scan"}, "fusion_lon": 0.0}, {"lat": 38.903801666666666, "is_disabled": 0, "type": "electric_scooter", "lon": -77.0540695, "bike_id": "ccc3c89d838c5355578cc23590142f78", "fusion_lat": 0.0, "name": "ccc3c89d838c5355578cc23590142f78", "is_reserved": 0, "rental_uris": {"android": "https://dc.lft.to/lastmile_qr_scan", "ios": "https://dc.lft.to/lastmile_qr_scan"}, "fusion_lon": 0.0}, {"lat": 38.90955966666667, "is_disabled": 0, "type": "electric_scooter", "lon": -77.0479825, "bike_id": "9471761a49c9667b7a69ebdd17725961", "fusion_lat": 0.0, "name": "9471761a49c9667b7a69ebdd17725961", "is_reserved": 0, "rental_uris": {"android": "https://dc.lft.to/lastmile_qr_scan", "ios": "https://dc.lft.to/lastmile_qr_scan"}, "fusion_lon": 0.0}, {"lat": 38.854985666666664, "is_disabled": 0, "type": "electric_bike", "lon": -77.1204785, "bike_id": "da26ca8c289cb6d4f00b44863e5e7398", "fusion_lat": 0.0, "name": "da26ca8c289cb6d4f00b44863e5e7398", "is_reserved": 0, "rental_uris": {"android": "https://dc.lft.to/lastmile_qr_scan", "ios": "https://dc.lft.to/lastmile_qr_scan"}, "fusion_lon": 0.0}, {"lat": 38.97838466666666, "is_disabled": 0, "type": "electric_bike", "lon": -77.02650316666667, "bike_id": "053d13befd0489674487e5bb73a8e0b4", "fusion_lat": 0.0, "name": "053d13befd0489674487e5bb73a8e0b4", "is_reserved": 0, "rental_uris": {"android": "https://dc.lft.to/lastmile_qr_scan", "ios": "https://dc.lft.to/lastmile_qr_scan"}, "fusion_lon": 0.0}, {"lat": 38.900089333333334, "is_disabled": 0, "type": "electric_scooter", "lon": -76.99216783333334, "bike_id": "44169fa95e3144dde2c9c2d1c84abfab", "fusion_lat": 0.0, "name": "44169fa95e3144dde2c9c2d1c84abfab", "is_reserved": 0, "rental_uris": {"android": "https://dc.lft.to/lastmile_qr_scan", "ios": "https://dc.lft.to/lastmile_qr_scan"}, "fusion_lon": 0.0}, {"lat": 38.934525666666666, "is_disabled": 0, "type": "electric_scooter", "lon": -77.02734133333334, "bike_id": "5ce4aeab97c64bdfa19fc8f3515044c6", "fusion_lat": 0.0, "name": "5ce4aeab97c64bdfa19fc8f3515044c6", "is_reserved": 0, "rental_uris": {"android": "https://dc.lft.to/lastmile_qr_scan", "ios": "https://dc.lft.to/lastmile_qr_scan"}, "fusion_lon": 0.0}, {"lat": 38.90635433333333, "is_disabled": 0, "type": "electric_scooter", "lon": -76.97950366666667, "bike_id": "667054697a2eb37250375aebc74e6220", "fusion_lat": 0.0, "name": "667054697a2eb37250375aebc74e6220", "is_reserved": 0, "rental_uris": {"android": "https://dc.lft.to/lastmile_qr_scan", "ios": "https://dc.lft.to/lastmile_qr_scan"}, "fusion_lon": 0.0}, {"lat": 38.913200333333336, "is_disabled": 0, "type": "electric_scooter", "lon": -77.014978, "bike_id": "1300e4a193f103e1b6b79bb273640d66", "fusion_lat": 0.0, "name": "1300e4a193f103e1b6b79bb273640d66", "is_reserved": 0, "rental_uris": {"android": "https://dc.lft.to/lastmile_qr_scan", "ios": "https://dc.lft.to/lastmile_qr_scan"}, "fusion_lon": 0.0}, {"lat": 38.942992833333335, "is_disabled": 0, "type": "electric_scooter", "lon": -77.059271, "bike_id": "c95c3ccf8f3b1f85d104bae2b4ef1517", "fusion_lat": 0.0, "name": "c95c3ccf8f3b1f85d104bae2b4ef1517", "is_reserved": 0, "rental_uris": {"android": "https://dc.lft.to/lastmile_qr_scan", "ios": "https://dc.lft.to/lastmile_qr_scan"}, "fusion_lon": 0.0}, {"lat": 38.832356, "is_disabled": 0, "type": "electric_bike", "lon": -76.94626366666667, "bike_id": "ee762665dd936888010dd2e1a9aa6462", "fusion_lat": 0.0, "name": "ee762665dd936888010dd2e1a9aa6462", "is_reserved": 0, "rental_uris": {"android": "https://dc.lft.to/lastmile_qr_scan", "ios": "https://dc.lft.to/lastmile_qr_scan"}, "fusion_lon": 0.0}, {"lat": 38.863844666666665, "is_disabled": 0, "type": "electric_scooter", "lon": -76.99248116666666, "bike_id": "3a31f8d79b4e6d5e82032127cbd98bf3", "fusion_lat": 0.0, "name": "3a31f8d79b4e6d5e82032127cbd98bf3", "is_reserved": 0, "rental_uris": {"android": "https://dc.lft.to/lastmile_qr_scan", "ios": "https://dc.lft.to/lastmile_qr_scan"}, "fusion_lon": 0.0}, {"lat": 38.9244355, "is_disabled": 0, "type": "electric_scooter", "lon": -77.02035766666667, "bike_id": "3f9d4a47536bcb1eefee80773756f5f1", "fusion_lat": 0.0, "name": "3f9d4a47536bcb1eefee80773756f5f1", "is_reserved": 0, "rental_uris": {"android": "https://dc.lft.to/lastmile_qr_scan", "ios": "https://dc.lft.to/lastmile_qr_scan"}, "fusion_lon": 0.0}, {"lat": 38.860931, "is_disabled": 0, "type": "electric_scooter", "lon": -76.98377466666666, "bike_id": "7376ae2e4ab987a47eb1cb2e29bce3ff", "fusion_lat": 0.0, "name": "7376ae2e4ab987a47eb1cb2e29bce3ff", "is_reserved": 0, "rental_uris": {"android": "https://dc.lft.to/lastmile_qr_scan", "ios": "https://dc.lft.to/lastmile_qr_scan"}, "fusion_lon": 0.0}, {"lat": 38.9384775, "is_disabled": 0, "type": "electric_scooter", "lon": -77.02591666666666, "bike_id": "2b9d95572e2ecbaa6ecf265336fb0535", "fusion_lat": 0.0, "name": "2b9d95572e2ecbaa6ecf265336fb0535", "is_reserved": 0, "rental_uris": {"android": "https://dc.lft.to/lastmile_qr_scan", "ios": "https://dc.lft.to/lastmile_qr_scan"}, "fusion_lon": 0.0}, {"lat": 38.889948833333335, "is_disabled": 0, "type": "electric_scooter", "lon": -76.955646, "bike_id": "d93dcdd7611494029cc9ee6567ced513", "fusion_lat": 0.0, "name": "d93dcdd7611494029cc9ee6567ced513", "is_reserved": 0, "rental_uris": {"android": "https://dc.lft.to/lastmile_qr_scan", "ios": "https://dc.lft.to/lastmile_qr_scan"}, "fusion_lon": 0.0}, {"lat": 38.8568805, "is_disabled": 0, "type": "electric_scooter", "lon": -76.98166216666667, "bike_id": "ec84e6fe0c243bfc08e3a11399f8b04d", "fusion_lat": 0.0, "name": "ec84e6fe0c243bfc08e3a11399f8b04d", "is_reserved": 0, "rental_uris": {"android": "https://dc.lft.to/lastmile_qr_scan", "ios": "https://dc.lft.to/lastmile_qr_scan"}, "fusion_lon": 0.0}, {"lat": 38.921673166666665, "is_disabled": 0, "type": "electric_scooter", "lon": -77.040139, "bike_id": "5793fc2a270d86aacdc67d3f8323c23f", "fusion_lat": 0.0, "name": "5793fc2a270d86aacdc67d3f8323c23f", "is_reserved": 0, "rental_uris": {"android": "https://dc.lft.to/lastmile_qr_scan", "ios": "https://dc.lft.to/lastmile_qr_scan"}, "fusion_lon": 0.0}, {"lat": 38.905628166666666, "is_disabled": 0, "type": "electric_scooter", "lon": -77.06292416666666, "bike_id": "acb6060e467f32468352205ba444c711", "fusion_lat": 0.0, "name": "acb6060e467f32468352205ba444c711", "is_reserved": 0, "rental_uris": {"android": "https://dc.lft.to/lastmile_qr_scan", "ios": "https://dc.lft.to/lastmile_qr_scan"}, "fusion_lon": 0.0}, {"lat": 38.8861015, "is_disabled": 0, "type": "electric_scooter", "lon": -77.00377983333334, "bike_id": "4a6853520cb9c0c31afdeb89c8f7d552", "fusion_lat": 0.0, "name": "4a6853520cb9c0c31afdeb89c8f7d552", "is_reserved": 0, "rental_uris": {"android": "https://dc.lft.to/lastmile_qr_scan", "ios": "https://dc.lft.to/lastmile_qr_scan"}, "fusion_lon": 0.0}, {"lat": 38.90562533333333, "is_disabled": 0, "type": "electric_scooter", "lon": -77.005948, "bike_id": "a8e7b6c91c88cb86c356b1b2b4414b8a", "fusion_lat": 0.0, "name": "a8e7b6c91c88cb86c356b1b2b4414b8a", "is_reserved": 0, "rental_uris": {"android": "https://dc.lft.to/lastmile_qr_scan", "ios": "https://dc.lft.to/lastmile_qr_scan"}, "fusion_lon": 0.0}, {"lat": 38.90678, "is_disabled": 0, "type": "electric_scooter", "lon": -77.0719175, "bike_id": "8d7e08946779e73f9ef8c3b51222b694", "fusion_lat": 0.0, "name": "8d7e08946779e73f9ef8c3b51222b694", "is_reserved": 0, "rental_uris": {"android": "https://dc.lft.to/lastmile_qr_scan", "ios": "https://dc.lft.to/lastmile_qr_scan"}, "fusion_lon": 0.0}, {"lat": 38.936982, "is_disabled": 0, "type": "electric_bike", "lon": -77.029804, "bike_id": "c709427203b04a586d1511a9abd7411c", "fusion_lat": 0.0, "name": "c709427203b04a586d1511a9abd7411c", "is_reserved": 0, "rental_uris": {"android": "https://dc.lft.to/lastmile_qr_scan", "ios": "https://dc.lft.to/lastmile_qr_scan"}, "fusion_lon": 0.0}, {"lat": 38.93420066666667, "is_disabled": 0, "type": "electric_scooter", "lon": -77.04136616666666, "bike_id": "8d3ccbc2406c1c6a579bcb36de8f241e", "fusion_lat": 0.0, "name": "8d3ccbc2406c1c6a579bcb36de8f241e", "is_reserved": 0, "rental_uris": {"android": "https://dc.lft.to/lastmile_qr_scan", "ios": "https://dc.lft.to/lastmile_qr_scan"}, "fusion_lon": 0.0}, {"lat": 38.855254333333335, "is_disabled": 0, "type": "electric_bike", "lon": -76.9845605, "bike_id": "868a5617560844ed8db8d19cbc046979", "fusion_lat": 0.0, "name": "868a5617560844ed8db8d19cbc046979", "is_reserved": 0, "rental_uris": {"android": "https://dc.lft.to/lastmile_qr_scan", "ios": "https://dc.lft.to/lastmile_qr_scan"}, "fusion_lon": 0.0}, {"lat": 38.83723483333333, "is_disabled": 0, "type": "electric_bike", "lon": -76.99764816666666, "bike_id": "394ab4e06bf915b01665146da04dd937", "fusion_lat": 0.0, "name": "394ab4e06bf915b01665146da04dd937", "is_reserved": 0, "rental_uris": {"android": "https://dc.lft.to/lastmile_qr_scan", "ios": "https://dc.lft.to/lastmile_qr_scan"}, "fusion_lon": 0.0}, {"lat": 38.89860433333333, "is_disabled": 0, "type": "electric_scooter", "lon": -77.01900083333334, "bike_id": "010b0456ae20655f22dc3e8dffa33889", "fusion_lat": 0.0, "name": "010b0456ae20655f22dc3e8dffa33889", "is_reserved": 0, "rental_uris": {"android": "https://dc.lft.to/lastmile_qr_scan", "ios": "https://dc.lft.to/lastmile_qr_scan"}, "fusion_lon": 0.0}, {"lat": 38.90400016666667, "is_disabled": 0, "type": "electric_scooter", "lon": -77.017518, "bike_id": "fa05e4ad20f81addf19c5a06b5de23ca", "fusion_lat": 0.0, "name": "fa05e4ad20f81addf19c5a06b5de23ca", "is_reserved": 0, "rental_uris": {"android": "https://dc.lft.to/lastmile_qr_scan", "ios": "https://dc.lft.to/lastmile_qr_scan"}, "fusion_lon": 0.0}, {"lat": 38.921856, "is_disabled": 0, "type": "electric_scooter", "lon": -77.02979416666666, "bike_id": "3382f9a39481c9e969643bb23ddd1c3a", "fusion_lat": 0.0, "name": "3382f9a39481c9e969643bb23ddd1c3a", "is_reserved": 0, "rental_uris": {"android": "https://dc.lft.to/lastmile_qr_scan", "ios": "https://dc.lft.to/lastmile_qr_scan"}, "fusion_lon": 0.0}, {"lat": 38.900679333333336, "is_disabled": 0, "type": "electric_scooter", "lon": -77.0501725, "bike_id": "7c06a61ea40241f0da02e73602dde918", "fusion_lat": 0.0, "name": "7c06a61ea40241f0da02e73602dde918", "is_reserved": 0, "rental_uris": {"android": "https://dc.lft.to/lastmile_qr_scan", "ios": "https://dc.lft.to/lastmile_qr_scan"}, "fusion_lon": 0.0}, {"lat": 38.908681333333334, "is_disabled": 0, "type": "electric_scooter", "lon": -77.04332666666667, "bike_id": "e0da50c7cb5d70fbee287175d896315b", "fusion_lat": 0.0, "name": "e0da50c7cb5d70fbee287175d896315b", "is_reserved": 0, "rental_uris": {"android": "https://dc.lft.to/lastmile_qr_scan", "ios": "https://dc.lft.to/lastmile_qr_scan"}, "fusion_lon": 0.0}, {"lat": 38.924793666666666, "is_disabled": 0, "type": "electric_scooter", "lon": -77.052178, "bike_id": "213666bec32fab56ba9dca97f4bd3bbd", "fusion_lat": 0.0, "name": "213666bec32fab56ba9dca97f4bd3bbd", "is_reserved": 0, "rental_uris": {"android": "https://dc.lft.to/lastmile_qr_scan", "ios": "https://dc.lft.to/lastmile_qr_scan"}, "fusion_lon": 0.0}, {"lat": 38.9232085, "is_disabled": 0, "type": "electric_scooter", "lon": -77.0389535, "bike_id": "833a20548409c21bd050b283b1ae68ad", "fusion_lat": 0.0, "name": "833a20548409c21bd050b283b1ae68ad", "is_reserved": 0, "rental_uris": {"android": "https://dc.lft.to/lastmile_qr_scan", "ios": "https://dc.lft.to/lastmile_qr_scan"}, "fusion_lon": 0.0}, {"lat": 38.94499833333333, "is_disabled": 0, "type": "electric_scooter", "lon": -77.0154755, "bike_id": "5acaf413e42a1931c81c6e853929e61b", "fusion_lat": 0.0, "name": "5acaf413e42a1931c81c6e853929e61b", "is_reserved": 0, "rental_uris": {"android": "https://dc.lft.to/lastmile_qr_scan", "ios": "https://dc.lft.to/lastmile_qr_scan"}, "fusion_lon": 0.0}, {"lat": 38.92068483333333, "is_disabled": 0, "type": "electric_scooter", "lon": -77.02422216666666, "bike_id": "3011cbb87b088c992ad62982d5e59cb1", "fusion_lat": 0.0, "name": "3011cbb87b088c992ad62982d5e59cb1", "is_reserved": 0, "rental_uris": {"android": "https://dc.lft.to/lastmile_qr_scan", "ios": "https://dc.lft.to/lastmile_qr_scan"}, "fusion_lon": 0.0}, {"lat": 38.909564, "is_disabled": 0, "type": "electric_scooter", "lon": -77.026824, "bike_id": "90644ad43105596912c207d0acbcd868", "fusion_lat": 0.0, "name": "90644ad43105596912c207d0acbcd868", "is_reserved": 0, "rental_uris": {"android": "https://dc.lft.to/lastmile_qr_scan", "ios": "https://dc.lft.to/lastmile_qr_scan"}, "fusion_lon": 0.0}, {"lat": 38.9409485, "is_disabled": 0, "type": "electric_scooter", "lon": -77.0327945, "bike_id": "c01242bc5a1493e79e6d3cb0b1d75403", "fusion_lat": 0.0, "name": "c01242bc5a1493e79e6d3cb0b1d75403", "is_reserved": 0, "rental_uris": {"android": "https://dc.lft.to/lastmile_qr_scan", "ios": "https://dc.lft.to/lastmile_qr_scan"}, "fusion_lon": 0.0}, {"lat": 38.87627833333333, "is_disabled": 0, "type": "electric_scooter", "lon": -76.96525583333333, "bike_id": "6b34d981074c101ad553e4db0aa59a01", "fusion_lat": 0.0, "name": "6b34d981074c101ad553e4db0aa59a01", "is_reserved": 0, "rental_uris": {"android": "https://dc.lft.to/lastmile_qr_scan", "ios": "https://dc.lft.to/lastmile_qr_scan"}, "fusion_lon": 0.0},