{"data": {"bikes": [{"lon": -77.0019985, "lat": 38.90237233333333, "rental_uris": {"ios": "https://dc.lft.to/lastmile_qr_scan", "android": "https://dc.lft.to/lastmile_qr_scan"}, "bike_id": "2c9f8cecd1c2a3383f336fdad19e62f0", "type": "electric_scooter", "is_disabled": 0, "fusion_lat": 0.0, "fusion_lon": 0.0, "is_reserved": 0, "name": "2c9f8cecd1c2a3383f336fdad19e62f0"}, {"lon": -77.02394516666666, "lat": 38.90718066666667, "rental_uris": {"ios": "https://dc.lft.to/lastmile_qr_scan", "android": "https://dc.lft.to/lastmile_qr_scan"}, "bike_id": "7dcd11257ad145f3bdf8ceb9af19c168", "type": "electric_bike", "is_disabled": 0, "fusion_lat": 0.0, "fusion_lon": 0.0, "is_reserved": 0, "name": "7dcd11257ad145f3bdf8ceb9af19c168"}, {"lon": -77.02426433333333, "lat": 38.93720883333334, "rental_uris": {"ios": "https://dc.lft.to/lastmile_qr_scan", "android": "https://dc.lft.to/lastmile_qr_scan"}, "bike_id": "4894ef4a9b77b85fee574dcee141e4ba", "type": "electric_scooter", "is_disabled": 0, "fusion_lat": 0.0, "fusion_lon": 0.0, "is_reserved": 0, "name": "4894ef4a9b77b85fee574dcee141e4ba"}, {"lon": -77.0280115, "lat": 38.89232233333333, "rental_uris": {"ios": "https://dc.lft.to/lastmile_qr_scan", "android": "https://dc.lft.to/lastmile_qr_scan"}, "bike_id": "052aab72910194cc459c58d8230e008b", "type": "electric_scooter", "is_disabled": 0, "fusion_lat": 0.0, "fusion_lon": 0.0, "is_reserved": 0, "name": "052aab72910194cc459c58d8230e008b"}, {"lon": -77.06244566666666, "lat": 38.9053165, "rental_uris": {"ios": "https://dc.lft.to/lastmile_qr_scan", "android": "https://dc.lft.to/lastmile_qr_scan"}, "bike_id": "07d0ecc2493428678f84aa2cdc0af11d", "type": "electric_scooter", "is_disabled": 0, "fusion_lat": 0.0, "fusion_lon": 0.0, "is_reserved": 0, "name": "07d0ecc2493428678f84aa2cdc0af11d"}, {"lon": -77.05343133333334, "lat": 38.902322833333336, "rental_uris": {"ios": "https://dc.lft.to/lastmile_qr_scan", "android": "https://dc.lft.to/lastmile_qr_scan"}, "bike_id": "d7d6dbf768f12ac555dceaef40ffef6b", "type": "electric_scooter", "is_disabled": 0, "fusion_lat": 0.0, "fusion_lon": 0.0, "is_reserved": 0, "name": "d7d6dbf768f12ac555dceaef40ffef6b"}, {"lon": -76.98884266666667, "lat": 38.86663033333333, "rental_uris": {"ios": "https://dc.lft.to/lastmile_qr_scan", "android": "https://dc.lft.to/lastmile_qr_scan"}, "bike_id": "187f84ec80aef78fe0ecc0fb5e3816e0", "type": "electric_scooter", "is_disabled": 0, "fusion_lat": 0.0, "fusion_lon": 0.0, "is_reserved": 0, "name": "187f84ec80aef78fe0ecc0fb5e3816e0"}, {"lon": -77.06100583333334, "lat": 38.906871333333335, "rental_uris": {"ios": "https://dc.lft.to/lastmile_qr_scan", "android": "https://dc.lft.to/lastmile_qr_scan"}, "bike_id": "0df9ea499da929af4b728df3a44c20b3", "type": "electric_scooter", "is_disabled": 0, "fusion_lat": 0.0, "fusion_lon": 0.0, "is_reserved": 0, "name": "0df9ea499da929af4b728df3a44c20b3"}, {"lon": -77.0178575, "lat": 38.919998666666665, "rental_uris": {"ios": "https://dc.lft.to/lastmile_qr_scan", "android": "https://dc.lft.to/lastmile_qr_scan"}, "bike_id": "684a2b0b9a387d5bfae3d23a24603c5d", "type": "electric_scooter", "is_disabled": 0, "fusion_lat": 0.0, "fusion_lon": 0.0, "is_reserved": 0, "name": "684a2b0b9a387d5bfae3d23a24603c5d"}, {"lon": -77.01994866666666, "lat": 38.87589233333333, "rental_uris": {"ios": "https://dc.lft.to/lastmile_qr_scan", "android": "https://dc.lft.to/lastmile_qr_scan"}, "bike_id": "b1caed1d3e4a3df3b9347cda36bf6d83", "type": "electric_scooter", "is_disabled": 0, "fusion_lat": 0.0, "fusion_lon": 0.0, "is_reserved": 0, "name": "b1caed1d3e4a3df3b9347cda36bf6d83"}, {"lon": -76.98745966666667, "lat": 38.886142666666665, "rental_uris": {"ios": "https://dc.lft.to/lastmile_qr_scan", "android": "https://dc.lft.to/lastmile_qr_scan"}, "bike_id": "742177628a16bf95854f42f60533d5f4", "type": "electric_scooter", "is_disabled": 0, "fusion_lat": 0.0, "fusion_lon": 0.0, "is_reserved": 0, "name": "742177628a16bf95854f42f60533d5f4"}, {"lon": -77.03832683333333, "lat": 38.921729, "rental_uris": {"ios": "https://dc.lft.to/lastmile_qr_scan", "android": "https://dc.lft.to/lastmile_qr_scan"}, "bike_id": "e8c06f292419f8b13a9b529adef23a80", "type": "electric_scooter", "is_disabled": 0, "fusion_lat": 0.0, "fusion_lon": 0.0, "is_reserved": 0, "name": "e8c06f292419f8b13a9b529adef23a80"}, {"lon": -77.03897466666666, "lat": 38.922406, "rental_uris": {"ios": "https://dc.lft.to/lastmile_qr_scan", "android": "https://dc.lft.to/lastmile_qr_scan"}, "bike_id": "3142a7352f2f8791db390f429d72d525", "type": "electric_scooter", "is_disabled": 0, "fusion_lat": 0.0, "fusion_lon": 0.0, "is_reserved": 0, "name": "3142a7352f2f8791db390f429d72d525"}, {"lon": -77.01989966666666, "lat": 38.915707833333336, "rental_uris": {"ios": "https://dc.lft.to/lastmile_qr_scan", "android": "https://dc.lft.to/lastmile_qr_scan"}, "bike_id": "0f4e661fbd33946c54bab6147fee9e15", "type": "electric_scooter", "is_disabled": 0, "fusion_lat": 0.0, "fusion_lon": 0.0, "is_reserved": 0, "name": "0f4e661fbd33946c54bab6147fee9e15"}, {"lon": -77.044654, "lat": 38.905465166666666, "rental_uris": {"ios": "https://dc.lft.to/lastmile_qr_scan", "android": "https://dc.lft.to/lastmile_qr_scan"}, "bike_id": "bfb8155e7b116648f9a676d25ce13c48", "type": "electric_scooter", "is_disabled": 0, "fusion_lat": 0.0, "fusion_lon": 0.0, "is_reserved": 0, "name": "bfb8155e7b116648f9a676d25ce13c48"}, {"lon": -77.02716666666667, "lat": 38.916943833333335, "rental_uris": {"ios": "https://dc.lft.to/lastmile_qr_scan", "android": "https://dc.lft.to/lastmile_qr_scan"}, "bike_id": "6ed0caf8afab6f4965f86a9eb5c47ccb", "type": "electric_scooter", "is_disabled": 0, "fusion_lat": 0.0, "fusion_lon": 0.0, "is_reserved": 0, "name": "6ed0caf8afab6f4965f86a9eb5c47ccb"}, {"lon": -77.0059785, "lat": 38.88517066666667, "rental_uris": {"ios": "https://dc.lft.to/lastmile_qr_scan", "android": "https://dc.lft.to/lastmile_qr_scan"}, "bike_id": "ad59a9e9f871ffb5e914524494de4970", "type": "electric_scooter", "is_disabled": 0, "fusion_lat": 0.0, "fusion_lon": 0.0, "is_reserved": 0, "name": "ad59a9e9f871ffb5e914524494de4970"}, {"lon": -77.0447675, "lat": 38.915359333333335, "rental_uris": {"ios": "https://dc.lft.to/lastmile_qr_scan", "android": "https://dc.lft.to/lastmile_qr_scan"}, "bike_id": "65e7d4c625ea5c7e5fb00b4e3b33cad8", "type": "electric_scooter", "is_disabled": 0, "fusion_lat": 0.0, "fusion_lon": 0.0, "is_reserved": 0, "name": "65e7d4c625ea5c7e5fb00b4e3b33cad8"}, {"lon": -77.04653983333333, "lat": 38.912750833333334, "rental_uris": {"ios": "https://dc.lft.to/lastmile_qr_scan", "android": "https://dc.lft.to/lastmile_qr_scan"}, "bike_id": "f3fb221a6b737610a2f576f0731c26d9", "type": "electric_scooter", "is_disabled": 0, "fusion_lat": 0.0, "fusion_lon": 0.0, "is_reserved": 0, "name": "f3fb221a6b737610a2f576f0731c26d9"}, {"lon": -77.05078216666666, "lat": 38.905376, "rental_uris": {"ios": "https://dc.lft.to/lastmile_qr_scan", "android": "https://dc.lft.to/lastmile_qr_scan"}, "bike_id": "7ef3b83f809aceba2a3fdceb6f509e3c", "type": "electric_scooter", "is_disabled": 0, "fusion_lat": 0.0, "fusion_lon": 0.0, "is_reserved": 0, "name": "7ef3b83f809aceba2a3fdceb6f509e3c"}, {"lon": -77.03267916666667, "lat": 38.9285105, "rental_uris": {"ios": "https://dc.lft.to/lastmile_qr_scan", "android": "https://dc.lft.to/lastmile_qr_scan"}, "bike_id": "9c2f2338fe22c5353382b664203fe082", "type": "electric_scooter", "is_disabled": 0, "fusion_lat": 0.0, "fusion_lon": 0.0, "is_reserved": 0, "name": "9c2f2338fe22c5353382b664203fe082"}, {"lon": -77.02612016666667, "lat": 38.89923483333333, "rental_uris": {"ios": "https://dc.lft.to/lastmile_qr_scan", "android": "https://dc.lft.to/lastmile_qr_scan"}, "bike_id": "04350beaf5d35d95218947c61ba174f4", "type": "electric_scooter", "is_disabled": 0, "fusion_lat": 0.0, "fusion_lon": 0.0, "is_reserved": 0, "name": "04350beaf5d35d95218947c61ba174f4"}, {"lon": -77.01365383333334, "lat": 38.8870585, "rental_uris": {"ios": "https://dc.lft.to/lastmile_qr_scan", "android": "https://dc.lft.to/lastmile_qr_scan"}, "bike_id": "462dbbb9eaa38695c23e3828a21154e3", "type": "electric_scooter", "is_disabled": 0, "fusion_lat": 0.0, "fusion_lon": 0.0, "is_reserved": 0, "name": "462dbbb9eaa38695c23e3828a21154e3"}, {"lon": -77.05602433333334, "lat": 38.936995, "rental_uris": {"ios": "https://dc.lft.to/lastmile_qr_scan", "android": "https://dc.lft.to/lastmile_qr_scan"}, "bike_id": "1c36f9f443c7b7250b960885afbdf98a", "type": "electric_scooter", "is_disabled": 0, "fusion_lat": 0.0, "fusion_lon": 0.0, "is_reserved": 0, "name": "1c36f9f443c7b7250b960885afbdf98a"}, {"lon": -77.00925966666667, "lat": 38.896558166666665, "rental_uris": {"ios": "https://dc.lft.to/lastmile_qr_scan", "android": "https://dc.lft.to/lastmile_qr_scan"}, "bike_id": "9f5b79f96b763e14960c2fb2d5ec5500", "type": "electric_scooter", "is_disabled": 0, "fusion_lat": 0.0, "fusion_lon": 0.0, "is_reserved": 0, "name": "9f5b79f96b763e14960c2fb2d5ec5500"}, {"lon": -76.9956545, "lat": 38.884578833333336, "rental_uris": {"ios": "https://dc.lft.to/lastmile_qr_scan", "android": "https://dc.lft.to/lastmile_qr_scan"}, "bike_id": "f3957cec35ed4fe659e5cd24ca38e021", "type": "electric_bike", "is_disabled": 0, "fusion_lat": 0.0, "fusion_lon": 0.0, "is_reserved": 0, "name": "f3957cec35ed4fe659e5cd24ca38e021"}, {"lon": -76.99597716666666, "lat": 38.8569755, "rental_uris": {"ios": "https://dc.lft.to/lastmile_qr_scan", "android": "https://dc.lft.to/lastmile_qr_scan"}, "bike_id": "cc2649a96f7201a927baa09d70036416", "type": "electric_scooter", "is_disabled": 0, "fusion_lat": 0.0, "fusion_lon": 0.0, "is_reserved": 0, "name": "cc2649a96f7201a927baa09d70036416"}, {"lon": -77.029365, "lat": 38.898132, "rental_uris": {"ios": "https://dc.lft.to/lastmile_qr_scan", "android": "https://dc.lft.to/lastmile_qr_scan"}, "bike_id": "f4f59a6ec01d6262f5ffdce2102e3962", "type": "electric_scooter", "is_disabled": 0, "fusion_lat": 0.0, "fusion_lon": 0.0, "is_reserved": 0, "name": "f4f59a6ec01d6262f5ffdce2102e3962"}, {"lon": -76.98822666666666, "lat": 38.89071333333333, "rental_uris": {"ios": "https://dc.lft.to/lastmile_qr_scan", "android": "https://dc.lft.to/lastmile_qr_scan"}, "bike_id": "de17022e8d774617ceb696e58f6e9faf", "type": "electric_scooter", "is_disabled": 0, "fusion_lat": 0.0, "fusion_lon": 0.0, "is_reserved": 0, "name": "de17022e8d774617ceb696e58f6e9faf"}, {"lon": -77.03929166666667, "lat": 38.917606166666666, "rental_uris": {"ios": "https://dc.lft.to/lastmile_qr_scan", "android": "https://dc.lft.to/lastmile_qr_scan"}, "bike_id": "708137b48605ac798eed9fff80fb5db1", "type": "electric_scooter", "is_disabled": 0, "fusion_lat": 0.0, "fusion_lon": 0.0, "is_reserved": 0, "name": "708137b48605ac798eed9fff80fb5db1"}, {"lon": -77.03771216666667, "lat": 38.92200166666667, "rental_uris": {"ios": "https://dc.lft.to/lastmile_qr_scan", "android": "https://dc.lft.to/lastmile_qr_scan"}, "bike_id": "97957fab985df8e193703902a05f5e5d", "type": "electric_scooter", "is_disabled": 0, "fusion_lat": 0.0, "fusion_lon": 0.0, "is_reserved": 0, "name": "97957fab985df8e193703902a05f5e5d"}, {"lon": -77.06449016666667, "lat": 38.905161666666665, "rental_uris": {"ios": "https://dc.lft.to/lastmile_qr_scan", "android": "https://dc.lft.to/lastmile_qr_scan"}, "bike_id": "f101efc9fd5c0d9112d8d868cd6bf424", "type": "electric_scooter", "is_disabled": 0, "fusion_lat": 0.0, "fusion_lon": 0.0, "is_reserved": 0, "name": "f101efc9fd5c0d9112d8d868cd6bf424"}, {"lon": -77.03188633333333, "lat": 38.91743433333333, "rental_uris": {"ios": "https://dc.lft.to/lastmile_qr_scan", "android": "https://dc.lft.to/lastmile_qr_scan"}, "bike_id": "5f66c9bf3df80c2a613d67b392d9de52", "type": "electric_scooter", "is_disabled": 0, "fusion_lat": 0.0, "fusion_lon": 0.0, "is_reserved": 0, "name": "5f66c9bf3df80c2a613d67b392d9de52"}, {"lon": -77.01210366666666, "lat": 38.9184215, "rental_uris": {"ios": "https://dc.lft.to/lastmile_qr_scan", "android": "https://dc.lft.to/lastmile_qr_scan"}, "bike_id": "9e8b30d1d63cdc19a9e78d1dc46060f4", "type": "electric_scooter", "is_disabled": 0, "fusion_lat": 0.0, "fusion_lon": 0.0, "is_reserved": 0, "name": "9e8b30d1d63cdc19a9e78d1dc46060f4"}, {"lon": -76.96240483333334, "lat": 38.87764716666667, "rental_uris": {"ios": "https://dc.lft.to/lastmile_qr_scan", "android": "https://dc.lft.to/lastmile_qr_scan"}, "bike_id": "9fb0f88af4224a1db2d3d181e9933776", "type": "electric_scooter", "is_disabled": 0, "fusion_lat": 0.0, "fusion_lon": 0.0, "is_reserved": 0, "name": "9fb0f88af4224a1db2d3d181e9933776"}, {"lon": -77.03858233333334, "lat": 38.90369333333334, "rental_uris": {"ios": "https://dc.lft.to/lastmile_qr_scan", "android": "https://dc.lft.to/lastmile_qr_scan"}, "bike_id": "991f683ab135bb9f8983d9ea9fff6ce2", "type": "electric_scooter", "is_disabled": 0, "fusion_lat": 0.0, "fusion_lon": 0.0, "is_reserved": 0, "name": "991f683ab135bb9f8983d9ea9fff6ce2"}, {"lon": -77.03170666666666, "lat": 38.91553666666667, "rental_uris": {"ios": "https://dc.lft.to/lastmile_qr_scan", "android": "https://dc.lft.to/lastmile_qr_scan"}, "bike_id": "7211c1387d83d12c7f4dedd70fadefa1", "type": "electric_scooter", "is_disabled": 0, "fusion_lat": 0.0, "fusion_lon": 0.0, "is_reserved": 0, "name": "7211c1387d83d12c7f4dedd70fadefa1"}, {"lon": -77.02491433333333, "lat": 38.941842666666666, "rental_uris": {"ios": "https://dc.lft.to/lastmile_qr_scan", "android": "https://dc.lft.to/lastmile_qr_scan"}, "bike_id": "d57af7ed842697c622c898752905daf2", "type": "electric_scooter", "is_disabled": 0, "fusion_lat": 0.0, "fusion_lon": 0.0, "is_reserved": 0, "name": "d57af7ed842697c622c898752905daf2"}, {"lon": -77.0123185, "lat": 38.92873433333333, "rental_uris": {"ios": "https://dc.lft.to/lastmile_qr_scan", "android": "https://dc.lft.to/lastmile_qr_scan"}, "bike_id": "0fdb82d652bc1be63faece75107e52d4", "type": "electric_scooter", "is_disabled": 0, "fusion_lat": 0.0, "fusion_lon": 0.0, "is_reserved": 0, "name": "0fdb82d652bc1be63faece75107e52d4"}, {"lon": -77.04544666666666, "lat": 38.934099833333335, "rental_uris": {"ios": "https://dc.lft.to/lastmile_qr_scan", "android": "https://dc.lft.to/lastmile_qr_scan"}, "bike_id": "5ac6c75a5e2507ba245abf07de6eeec7", "type": "electric_scooter", "is_disabled": 0, "fusion_lat": 0.0, "fusion_lon": 0.0, "is_reserved": 0, "name": "5ac6c75a5e2507ba245abf07de6eeec7"}, {"lon": -77.025266, "lat": 38.929817, "rental_uris": {"ios": "https://dc.lft.to/lastmile_qr_scan", "android": "https://dc.lft.to/lastmile_qr_scan"}, "bike_id": "748d4f5c8154f55b92a64921030a6c00", "type": "electric_scooter", "is_disabled": 0, "fusion_lat": 0.0, "fusion_lon": 0.0, "is_reserved": 0, "name": "748d4f5c8154f55b92a64921030a6c00"}, {"lon": -77.0385275, "lat": 38.9082005, "rental_uris": {"ios": "https://dc.lft.to/lastmile_qr_scan", "android": "https://dc.lft.to/lastmile_qr_scan"}, "bike_id": "a113fa2b1d1cf1474d13e23b193aa2e1", "type": "electric_scooter", "is_disabled": 0, "fusion_lat": 0.0, "fusion_lon": 0.0, "is_reserved": 0, "name": "a113fa2b1d1cf1474d13e23b193aa2e1"}, {"lon": -77.03084616666666, "lat": 38.922482333333335, "rental_uris": {"ios": "https://dc.lft.to/lastmile_qr_scan", "android": "https://dc.lft.to/lastmile_qr_scan"}, "bike_id": "bf22b45e956d5d13959a5693147c8076", "type": "electric_scooter", "is_disabled": 0, "fusion_lat": 0.0, "fusion_lon": 0.0, "is_reserved": 0, "name": "bf22b45e956d5d13959a5693147c8076"}, {"lon": -77.03201066666666, "lat": 38.899693, "rental_uris": {"ios": "https://dc.lft.to/lastmile_qr_scan", "android": "https://dc.lft.to/lastmile_qr_scan"}, "bike_id": "3ce1d39e8eaf6f7c9b83d0a2a737de96", "type": "electric_scooter", "is_disabled": 0, "fusion_lat": 0.0, "fusion_lon": 0.0, "is_reserved": 0, "name": "3ce1d39e8eaf6f7c9b83d0a2a737de96"}, {"lon": -76.973314, "lat": 38.904117666666664, "rental_uris": {"ios": "https://dc.lft.to/lastmile_qr_scan", "android": "https://dc.lft.to/lastmile_qr_scan"}, "bike_id": "bf829c17ac5f77a4c372cc581673b269", "type": "electric_scooter", "is_disabled": 0, "fusion_lat": 0.0, "fusion_lon": 0.0, "is_reserved": 0, "name": "bf829c17ac5f77a4c372cc581673b269"}, {"lon": -77.02785316666667, "lat": 38.953706333333336, "rental_uris": {"ios": "https://dc.lft.to/lastmile_qr_scan", "android": "https://dc.lft.to/lastmile_qr_scan"}, "bike_id": "85df0deb4c10aaa2fc2f2e1bdf72023e", "type": "electric_scooter", "is_disabled": 0, "fusion_lat": 0.0, "fusion_lon": 0.0, "is_reserved": 0, "name": "85df0deb4c10aaa2fc2f2e1bdf72023e"}, {"lon": -77.02712133333333, "lat": 38.9180265, "rental_uris": {"ios": "https://dc.lft.to/lastmile_qr_scan", "android": "https://dc.lft.to/lastmile_qr_scan"}, "bike_id": "c041022df90bd6ec10a7633f30b6ecfc", "type": "electric_scooter", "is_disabled": 0, "fusion_lat": 0.0, "fusion_lon": 0.0, "is_reserved": 0, "name": "c041022df90bd6ec10a7633f30b6ecfc"}, {"lon": -77.00385516666667, "lat": 38.923658833333334, "rental_uris": {"ios": "https://dc.lft.to/lastmile_qr_scan", "android": "https://dc.lft.to/lastmile_qr_scan"}, "bike_id": "af4a0771bd3c968c60350f236037ab68", "type": "electric_scooter", "is_disabled": 0, "fusion_lat": 0.0, "fusion_lon": 0.0, "is_reserved": 0, "name": "af4a0771bd3c968c60350f236037ab68"}, {"lon": -77.04348333333333, "lat": 38.9105305, "rental_uris": {"ios": "https://dc.lft.to/lastmile_qr_scan", "android": "https://dc.lft.to/lastmile_qr_scan"}, "bike_id": "281a19b72fb7bb9715fe30bf22ed18c9", "type": "electric_scooter", "is_disabled": 0, "fusion_lat": 0.0, "fusion_lon": 0.0, "is_reserved": 0, "name": "281a19b72fb7bb9715fe30bf22ed18c9"}, {"lon": -77.0503655, "lat": 38.92373516666667, "rental_uris": {"ios": "https://dc.lft.to/lastmile_qr_scan", "android": "https://dc.lft.to/lastmile_qr_scan"}, "bike_id": "072cd26002bb875f310f91095f151892", "type": "electric_scooter", "is_disabled": 0, "fusion_lat": 0.0, "fusion_lon": 0.0, "is_reserved": 0, "name": "072cd26002bb875f310f91095f151892"}, {"lon": -77.02391333333334, "lat": 38.91996683333333, "rental_uris": {"ios": "https://dc.lft.to/lastmile_qr_scan", "android": "https://dc.lft.to/lastmile_qr_scan"}, "bike_id": "1746bce7513bf252177a05915f6201e0", "type": "electric_scooter", "is_disabled": 0, "fusion_lat": 0.0, "fusion_lon": 0.0, "is_reserved": 0, "name": "1746bce7513bf252177a05915f6201e0"}, {"lon": -77.03186266666667, "lat": 38.909806833333334, "rental_uris": {"ios": "https://dc.lft.to/lastmile_qr_scan", "android": "https://dc.lft.to/lastmile_qr_scan"}, "bike_id": "653721a862b2c56c4619e4293852c62d", "type": "electric_scooter", "is_disabled": 0, "fusion_lat": 0.0, "fusion_lon": 0.0, "is_reserved": 0, "name": "653721a862b2c56c4619e4293852c62d"}, {"lon": -77.02967433333333, "lat": 38.916839, "rental_uris": {"ios": "https://dc.lft.to/lastmile_qr_scan", "android": "https://dc.lft.to/lastmile_qr_scan"}, "bike_id": "27cb3fa7c9b92bdda6fee0ac8a6b1da3", "type": "electric_scooter", "is_disabled": 0, "fusion_lat": 0.0, "fusion_lon": 0.0, "is_reserved": 0, "name": "27cb3fa7c9b92bdda6fee0ac8a6b1da3"}, {"lon": -77.03956016666666, "lat": 38.911850333333334, "rental_uris": {"ios": "https://dc.lft.to/lastmile_qr_scan", "android": "https://dc.lft.to/lastmile_qr_scan"}, "bike_id": "57e0bdf352ad9d06429c80aca3455d1a", "type": "electric_scooter", "is_disabled": 0, "fusion_lat": 0.0, "fusion_lon": 0.0, "is_reserved": 0, "name": "57e0bdf352ad9d06429c80aca3455d1a"}, {"lon": -77.04758983333333, "lat": 38.9199525, "rental_uris": {"ios": "https://dc.lft.to/lastmile_qr_scan", "android": "https://dc.lft.to/lastmile_qr_scan"}, "bike_id": "3471c48bdca6c7040dd7df53e6d0365a", "type": "electric_bike", "is_disabled": 0, "fusion_lat": 0.0, "fusion_lon": 0.0, "is_reserved": 0, "name": "3471c48bdca6c7040dd7df53e6d0365a"}, {"lon": -77.01051833333334, "lat": 38.963553166666664, "rental_uris": {"ios": "https://dc.lft.to/lastmile_qr_scan", "android": "https://dc.lft.to/lastmile_qr_scan"}, "bike_id": "47f5ff1385ecdc676b1853c1135a061a", "type": "electric_scooter", "is_disabled": 0, "fusion_lat": 0.0, "fusion_lon": 0.0, "is_reserved": 0, "name": "47f5ff1385ecdc676b1853c1135a061a"}, {"lon": -77.0346175, "lat": 38.903173, "rental_uris": {"ios": "https://dc.lft.to/lastmile_qr_scan", "android": "https://dc.lft.to/lastmile_qr_scan"}, "bike_id": "da0322647ff3d33a003a88f379d71f85", "type": "electric_scooter", "is_disabled": 0, "fusion_lat": 0.0, "fusion_lon": 0.0, "is_reserved": 0, "name": "da0322647ff3d33a003a88f379d71f85"}, {"lon": -77.03167616666667, "lat": 38.88768616666667, "rental_uris": {"ios": "https://dc.lft.to/lastmile_qr_scan", "android": "https://dc.lft.to/lastmile_qr_scan"}, "bike_id": "cf152c9dc452dbae2eb5c0777c178cfd", "type": "electric_scooter", "is_disabled": 0, "fusion_lat": 0.0, "fusion_lon": 0.0, "is_reserved": 0, "name": "cf152c9dc452dbae2eb5c0777c178cfd"}, {"lon": -77.00756266666667, "lat": 38.926741166666666, "rental_uris": {"ios": "https://dc.lft.to/lastmile_qr_scan", "android": "https://dc.lft.to/lastmile_qr_scan"}, "bike_id": "a6b6b19947091d4afe2e1a4b14ef2865", "type": "electric_scooter", "is_disabled": 0, "fusion_lat": 0.0, "fusion_lon": 0.0, "is_reserved": 0, "name": "a6b6b19947091d4afe2e1a4b14ef2865"}, {"lon": -77.01771766666667, "lat": 38.872183166666666, "rental_uris": {"ios": "https://dc.lft.to/lastmile_qr_scan", "android": "https://dc.lft.to/lastmile_qr_scan"}, "bike_id": "23dc844dc8109bdc09bcc60bc1a72262", "type": "electric_scooter", "is_disabled": 0, "fusion_lat": 0.0, "fusion_lon": 0.0, "is_reserved": 0, "name": "23dc844dc8109bdc09bcc60bc1a72262"}, {"lon": -77.11847683333333, "lat": 38.8773275, "rental_uris": {"ios": "https://dc.lft.to/lastmile_qr_scan", "android": "https://dc.lft.to/lastmile_qr_scan"}, "bike_id": "5615ad30b5f05c24bd62c1f336c992a5", "type": "electric_bike", "is_disabled": 0, "fusion_lat": 0.0, "fusion_lon": 0.0, "is_reserved": 0, "name": "5615ad30b5f05c24bd62c1f336c992a5"}, {"lon": -77.02392116666667, "lat": 38.9176545, "rental_uris": {"ios": "https://dc.lft.to/lastmile_qr_scan", "android": "https://dc.lft.to/lastmile_qr_scan"}, "bike_id": "cb7df3e70d8be9e0d2e367f8a3acadd8", "type": "electric_scooter", "is_disabled": 0, "fusion_lat": 0.0, "fusion_lon": 0.0, "is_reserved": 0, "name": "cb7df3e70d8be9e0d2e367f8a3acadd8"}, {"lon": -77.018012, "lat": 38.921352, "rental_uris": {"ios": "https://dc.lft.to/lastmile_qr_scan", "android": "https://dc.lft.to/lastmile_qr_scan"}, "bike_id": "96e41110b369614c6329b9582a216536", "type": "electric_scooter", "is_disabled": 0, "fusion_lat": 0.0, "fusion_lon": 0.0, "is_reserved": 0, "name": "96e41110b369614c6329b9582a216536"}, {"lon": -77.01765333333333, "lat": 38.87706983333333, "rental_uris": {"ios": "https://dc.lft.to/lastmile_qr_scan", "android": "https://dc.lft.to/lastmile_qr_scan"}, "bike_id": "757c818b8e83db57cfdad93b09c0474d", "type": "electric_scooter", "is_disabled": 0, "fusion_lat": 0.0, "fusion_lon": 0.0, "is_reserved": 0, "name": "757c818b8e83db57cfdad93b09c0474d"}, {"lon": -77.0386695, "lat": 38.891932833333335, "rental_uris": {"ios": "https://dc.lft.to/lastmile_qr_scan", "android": "https://dc.lft.to/lastmile_qr_scan"}, "bike_id": "feb03417fe9021f92ac60bb0322814b5", "type": "electric_scooter", "is_disabled": 0, "fusion_lat": 0.0, "fusion_lon": 0.0, "is_reserved": 0, "name": "feb03417fe9021f92ac60bb0322814b5"}, {"lon": -77.00341916666666, "lat": 38.895294666666665, "rental_uris": {"ios": "https://dc.lft.to/lastmile_qr_scan", "android": "https://dc.lft.to/lastmile_qr_scan"}, "bike_id": "7e79bd6206fab7a341a91c8fa6967510", "type": "electric_scooter", "is_disabled": 0, "fusion_lat": 0.0, "fusion_lon": 0.0, "is_reserved": 0, "name": "7e79bd6206fab7a341a91c8fa6967510"}, {"lon": -77.03499566666666, "lat": 38.923403, "rental_uris": {"ios": "https://dc.lft.to/lastmile_qr_scan", "android": "https://dc.lft.to/lastmile_qr_scan"}, "bike_id": "18d1e9bbd8dc9d41885324e346df4729", "type": "electric_scooter", "is_disabled": 0, "fusion_lat": 0.0, "fusion_lon": 0.0, "is_reserved": 0, "name": "18d1e9bbd8dc9d41885324e346df4729"}, {"lon": -76.98836533333333, "lat": 38.900456, "rental_uris": {"ios": "https://dc.lft.to/lastmile_qr_scan", "android": "https://dc.lft.to/lastmile_qr_scan"}, "bike_id": "71c7f8b4b17118aba5f13e14bdb59e87", "type": "electric_scooter", "is_disabled": 0, "fusion_lat": 0.0, "fusion_lon": 0.0, "is_reserved": 0, "name": "71c7f8b4b17118aba5f13e14bdb59e87"}, {"lon": -77.04087233333334, "lat": 38.92028216666667, "rental_uris": {"ios": "https://dc.lft.to/lastmile_qr_scan", "android": "https://dc.lft.to/lastmile_qr_scan"}, "bike_id": "8b15a9004f04c7f6f76f1bcc6beab775", "type": "electric_scooter", "is_disabled": 0, "fusion_lat": 0.0, "fusion_lon": 0.0, "is_reserved": 0, "name": "8b15a9004f04c7f6f76f1bcc6beab775"}, {"lon": -76.97755366666667, "lat": 38.8646375, "rental_uris": {"ios": "https://dc.lft.to/lastmile_qr_scan", "android": "https://dc.lft.to/lastmile_qr_scan"}, "bike_id": "11056f330cf866098ee9d3734f9bd98b", "type": "electric_bike", "is_disabled": 0, "fusion_lat": 0.0, "fusion_lon": 0.0, "is_reserved": 0, "name": "11056f330cf866098ee9d3734f9bd98b"}, {"lon": -77.03263066666666, "lat": 38.93895216666667, "rental_uris": {"ios": "https://dc.lft.to/lastmile_qr_scan", "android": "https://dc.lft.to/lastmile_qr_scan"}, "bike_id": "9663491e7c5ac15d827b366b2531ae42", "type": "electric_scooter", "is_disabled": 0, "fusion_lat": 0.0, "fusion_lon": 0.0, "is_reserved": 0, "name": "9663491e7c5ac15d827b366b2531ae42"}, {"lon": -77.01760883333333, "lat": 38.9026675, "rental_uris": {"ios": "https://dc.lft.to/lastmile_qr_scan", "android": "https://dc.lft.to/lastmile_qr_scan"}, "bike_id": "be72107e946e873a905deda44dd3c695", "type": "electric_scooter", "is_disabled": 0, "fusion_lat": 0.0, "fusion_lon": 0.0, "is_reserved": 0, "name": "be72107e946e873a905deda44dd3c695"}, {"lon": -77.04725733333333, "lat": 38.90960033333333, "rental_uris": {"ios": "https://dc.lft.to/lastmile_qr_scan", "android": "https://dc.lft.to/lastmile_qr_scan"}, "bike_id": "be9baecd6874f2f936f405d1ea54758e", "type": "electric_scooter", "is_disabled": 0, "fusion_lat": 0.0, "fusion_lon": 0.0, "is_reserved": 0, "name": "be9baecd6874f2f936f405d1ea54758e"}, {"lon": -77.02232266666667, "lat": 38.89219216666667, "rental_uris": {"ios": "https://dc.lft.to/lastmile_qr_scan", "android": "https://dc.lft.to/lastmile_qr_scan"}, "bike_id": "a8995e8d594308379d45ab3996596361", "type": "electric_scooter", "is_disabled": 0, "fusion_lat": 0.0, "fusion_lon": 0.0, "is_reserved": 0, "name": "a8995e8d594308379d45ab3996596361"}, {"lon": -77.02988683333334, "lat": 38.974391833333335, "rental_uris": {"ios": "https://dc.lft.to/lastmile_qr_scan", "android": "https://dc.lft.to/lastmile_qr_scan"}, "bike_id": "42d2fc797e90ca86b307cf7ce199e54d", "type": "electric_bike", "is_disabled": 0, "fusion_lat": 0.0, "fusion_lon": 0.0, "is_reserved": 0, "name": "42d2fc797e90ca86b307cf7ce199e54d"}, {"lon": -77.04361966666667, "lat": 38.9038055, "rental_uris": {"ios": "https://dc.lft.to/lastmile_qr_scan", "android": "https://dc.lft.to/lastmile_qr_scan"}, "bike_id": "0a22dc78984c5147a531ae72746874fe", "type": "electric_scooter", "is_disabled": 0, "fusion_lat": 0.0, "fusion_lon": 0.0, "is_reserved": 0, "name": "0a22dc78984c5147a531ae72746874fe"}, {"lon": -76.997774, "lat": 38.924548333333334, "rental_uris": {"ios": "https://dc.lft.to/lastmile_qr_scan", "android": "https://dc.lft.to/lastmile_qr_scan"}, "bike_id": "cf2c7b258a8a17bc229b6228825ecbcc", "type": "electric_scooter", "is_disabled": 0, "fusion_lat": 0.0, "fusion_lon": 0.0, "is_reserved": 0, "name": "cf2c7b258a8a17bc229b6228825ecbcc"}, {"lon": -77.01989583333334, "lat": 38.9157335, "rental_uris": {"ios": "https://dc.lft.to/lastmile_qr_scan", "android": "https://dc.lft.to/lastmile_qr_scan"}, "bike_id": "c9ca5ee3948262581dd25874e6501978", "type": "electric_scooter", "is_disabled": 0, "fusion_lat": 0.0, "fusion_lon": 0.0, "is_reserved": 0, "name": "c9ca5ee3948262581dd25874e6501978"}, {"lon": -77.03132716666667, "lat": 38.923717, "rental_uris": {"ios": "https://dc.lft.to/lastmile_qr_scan", "android": "https://dc.lft.to/lastmile_qr_scan"}, "bike_id": "d1ab9a82367bc469d58d8b05633ff4f6", "type": "electric_scooter", "is_disabled": 0, "fusion_lat": 0.0, "fusion_lon": 0.0, "is_reserved": 0, "name": "d1ab9a82367bc469d58d8b05633ff4f6"}, {"lon": -76.9993375, "lat": 38.8430075, "rental_uris": {"ios": "https://dc.lft.to/lastmile_qr_scan", "android": "https://dc.lft.to/lastmile_qr_scan"}, "bike_id": "3a4359d71df3dc1eb77cd70bc4b97aea", "type": "electric_scooter", "is_disabled": 0, "fusion_lat": 0.0, "fusion_lon": 0.0, "is_reserved": 0, "name": "3a4359d71df3dc1eb77cd70bc4b97aea"}, {"lon": -77.00772483333333, "lat": 38.92676866666667, "rental_uris": {"ios": "https://dc.lft.to/lastmile_qr_scan", "android": "https://dc.lft.to/lastmile_qr_scan"}, "bike_id": "c3a118dc55533875307ad12375fe1216", "type": "electric_scooter", "is_disabled": 0, "fusion_lat": 0.0, "fusion_lon": 0.0, "is_reserved": 0, "name": "c3a118dc55533875307ad12375fe1216"}, {"lon": -76.99828133333334, "lat": 38.885352166666664, "rental_uris": {"ios": "https://dc.lft.to/lastmile_qr_scan", "android": "https://dc.lft.to/lastmile_qr_scan"}, "bike_id": "3494f1f466382337d64257cbe5f1d4aa", "type": "electric_scooter", "is_disabled": 0, "fusion_lat": 0.0, "fusion_lon": 0.0, "is_reserved": 0, "name": "3494f1f466382337d64257cbe5f1d4aa"}, {"lon": -77.05133366666666, "lat": 38.907166, "rental_uris": {"ios": "https://dc.lft.to/lastmile_qr_scan", "android": "https://dc.lft.to/lastmile_qr_scan"}, "bike_id": "c9850e3ec24c21c833f76d09d1a8629e", "type": "electric_scooter", "is_disabled": 0, "fusion_lat": 0.0, "fusion_lon": 0.0, "is_reserved": 0, "name": "c9850e3ec24c21c833f76d09d1a8629e"}, {"lon": -77.0252865, "lat": 38.88041583333333, "rental_uris": {"ios": "https://dc.lft.to/lastmile_qr_scan", "android": "https://dc.lft.to/lastmile_qr_scan"}, "bike_id": "554d62ae665bac601a1e5cb0bfce46da", "type": "electric_bike", "is_disabled": 0, "fusion_lat": 0.0, "fusion_lon": 0.0, "is_reserved": 0, "name": "554d62ae665bac601a1e5cb0bfce46da"}, {"lon": -77.05884633333334, "lat": 38.93641616666667, "rental_uris": {"ios": "https://dc.lft.to/lastmile_qr_scan", "android": "https://dc.lft.to/lastmile_qr_scan"}, "bike_id": "61aa6bd47b2541ea8113b172695e3343", "type": "electric_scooter", "is_disabled": 0, "fusion_lat": 0.0, "fusion_lon": 0.0, "is_reserved": 0, "name": "61aa6bd47b2541ea8113b172695e3343"}, {"lon": -77.0268765, "lat": 38.918141166666665, "rental_uris": {"ios": "https://dc.lft.to/lastmile_qr_scan", "android": "https://dc.lft.to/lastmile_qr_scan"}, "bike_id": "715895a07e4c46126710dab3ea5c71e6", "type": "electric_scooter", "is_disabled": 0, "fusion_lat": 0.0, "fusion_lon": 0.0, "is_reserved": 0, "name": "715895a07e4c46126710dab3ea5c71e6"}, {"lon": -76.94421416666667, "lat": 38.966166, "rental_uris": {"ios": "https://dc.lft.to/lastmile_qr_scan", "android": "https://dc.lft.to/lastmile_qr_scan"}, "bike_id": "ee1c8c29f4758a674a3ce5c285bb92c4", "type": "electric_bike", "is_disabled": 0, "fusion_lat": 0.0, "fusion_lon": 0.0, "is_reserved": 0, "name": "ee1c8c29f4758a674a3ce5c285bb92c4"}, {"lon": -77.03306716666667, "lat": 38.9274915, "rental_uris": {"ios": "https://dc.lft.to/lastmile_qr_scan", "android": "https://dc.lft.to/lastmile_qr_scan"}, "bike_id": "3ef6e6ba8f305779df9ffdb356dae3f8", "type": "electric_scooter", "is_disabled": 0, "fusion_lat": 0.0, "fusion_lon": 0.0, "is_reserved": 0, "name": "3ef6e6ba8f305779df9ffdb356dae3f8"}, {"lon": -76.98839383333333, "lat": 38.8428205, "rental_uris": {"ios": "https://dc.lft.to/lastmile_qr_scan", "android": "https://dc.lft.to/lastmile_qr_scan"}, "bike_id": "101b4c9329730abc153568ec085c1e57", "type": "electric_bike", "is_disabled": 0, "fusion_lat": 0.0, "fusion_lon": 0.0, "is_reserved": 0, "name": "101b4c9329730abc153568ec085c1e57"}, {"lon": -77.022101, "lat": 38.91416016666667, "rental_uris": {"ios": "https://dc.lft.to/lastmile_qr_scan", "android": "https://dc.lft.to/lastmile_qr_scan"}, "bike_id": "bdabb9ab6c0f90ed21ab6cb7688d87be", "type": "electric_scooter", "is_disabled": 0, "fusion_lat": 0.0, "fusion_lon": 0.0, "is_reserved": 0, "name": "bdabb9ab6c0f90ed21ab6cb7688d87be"}, {"lon": -77.0301845, "lat": 38.90502933333333, "rental_uris": {"ios": "https://dc.lft.to/lastmile_qr_scan", "android": "https://dc.lft.to/lastmile_qr_scan"}, "bike_id": "904882aa3dc7593c1c5592970f6618b0", "type": "electric_scooter", "is_disabled": 0, "fusion_lat": 0.0, "fusion_lon": 0.0, "is_reserved": 0, "name": "904882aa3dc7593c1c5592970f6618b0"}, {"lon": -77.00068283333333, "lat": 38.924405666666665, "rental_uris": {"ios": "https://dc.lft.to/lastmile_qr_scan", "android": "https://dc.lft.to/lastmile_qr_scan"}, "bike_id": "25adc55e84385aed547b6b051db54a2d", "type": "electric_scooter", "is_disabled": 0, "fusion_lat": 0.0, "fusion_lon": 0.0, "is_reserved": 0, "name": "25adc55e84385aed547b6b051db54a2d"}, {"lon": -76.98511, "lat": 38.915522833333334, "rental_uris": {"ios": "https://dc.lft.to/lastmile_qr_scan", "android": "https://dc.lft.to/lastmile_qr_scan"}, "bike_id": "b8f1b165ad49fd186545708df3de31ce", "type": "electric_bike", "is_disabled": 0, "fusion_lat": 0.0, "fusion_lon": 0.0, "is_reserved": 0, "name": "b8f1b165ad49fd186545708df3de31ce"}, {"lon": -77.00353166666666, "lat": 38.9909655, "rental_uris": {"ios": "https://dc.lft.to/lastmile_qr_scan", "android": "https://dc.lft.to/lastmile_qr_scan"}, "bike_id": "075d90ca415858d8ef2c462b19ad110c", "type": "electric_bike", "is_disabled": 0, "fusion_lat": 0.0, "fusion_lon": 0.0, "is_reserved": 0, "name": "075d90ca415858d8ef2c462b19ad110c"}, {"lon": -77.02551366666667, "lat": 38.94140316666667, "rental_uris": {"ios": "https://dc.lft.to/lastmile_qr_scan", "android": "https://dc.lft.to/lastmile_qr_scan"}, "bike_id": "331b02a2f3e99ac0d56a4a2cbbc794cf", "type": "electric_scooter", "is_disabled": 0, "fusion_lat": 0.0, "fusion_lon": 0.0, "is_reserved": 0, "name": "331b02a2f3e99ac0d56a4a2cbbc794cf"}, {"lon": -77.09165916666667, "lat": 38.945608, "rental_uris": {"ios": "https://dc.lft.to/lastmile_qr_scan", "android": "https://dc.lft.to/lastmile_qr_scan"}, "bike_id": "4c161d7503aa6005f5aba048fae34eda", "type": "electric_scooter", "is_disabled": 0, "fusion_lat": 0.0, "fusion_lon": 0.0, "is_reserved": 0, "name": "4c161d7503aa6005f5aba048fae34eda"}, {"lon": -77.0432655, "lat": 38.8922275, "rental_uris": {"ios": "https://dc.lft.to/lastmile_qr_scan", "android": "https://dc.lft.to/lastmile_qr_scan"}, "bike_id": "4759986d0eaebd6fe6d4eae020f11844", "type": "electric_scooter", "is_disabled": 0, "fusion_lat": 0.0, "fusion_lon": 0.0, "is_reserved": 0, "name": "4759986d0eaebd6fe6d4eae020f11844"}, {"lon": -77.00039916666667, "lat": 38.90013116666667, "rental_uris": {"ios": "https://dc.lft.to/lastmile_qr_scan", "android": "https://dc.lft.to/lastmile_qr_scan"}, "bike_id": "bb55340173028d8986466e1cfc1ba62f", "type": "electric_scooter", "is_disabled": 0, "fusion_lat": 0.0, "fusion_lon": 0.0, "is_reserved": 0, "name": "bb55340173028d8986466e1cfc1ba62f"}, {"lon": -77.00295533333333, "lat": 38.894912166666664, "rental_uris": {"ios": "https://dc.lft.to/lastmile_qr_scan", "android": "https://dc.lft.to/lastmile_qr_scan"}, "bike_id": "818c6309eb2c59fc55dcb852fe7c13fe", "type": "electric_scooter", "is_disabled": 0, "fusion_lat": 0.0, "fusion_lon": 0.0, "is_reserved": 0, "name": "818c6309eb2c59fc55dcb852fe7c13fe"}, {"lon": -77.03263733333333, "lat": 38.902722833333335, "rental_uris": {"ios": "https://dc.lft.to/lastmile_qr_scan", "android": "https://dc.lft.to/lastmile_qr_scan"}, "bike_id": "6775412f5b1c8f974f98db5ed3e62e2a", "type": "electric_scooter", "is_disabled": 0, "fusion_lat": 0.0, "fusion_lon": 0.0, "is_reserved": 0, "name": "6775412f5b1c8f974f98db5ed3e62e2a"}, {"lon": -77.020981, "lat": 38.93118166666667, "rental_uris": {"ios": "https://dc.lft.to/lastmile_qr_scan", "android": "https://dc.lft.to/lastmile_qr_scan"}, "bike_id": "4f63745c1ee40cf841fa061bcd356767", "type": "electric_scooter", "is_disabled": 0, "fusion_lat": 0.0, "fusion_lon": 0.0, "is_reserved": 0, "name": "4f63745c1ee40cf841fa061bcd356767"}, {"lon": -76.98697, "lat": 38.862506, "rental_uris": {"ios": "https://dc.lft.to/lastmile_qr_scan", "android": "https://dc.lft.to/lastmile_qr_scan"}, "bike_id": "926a6adc55dae6e48860996da6e3f938", "type": "electric_scooter", "is_disabled": 0, "fusion_lat": 0.0, "fusion_lon": 0.0, "is_reserved": 0, "name": "926a6adc55dae6e48860996da6e3f938"}, {"lon": -77.0284865, "lat": 38.887462166666666, "rental_uris": {"ios": "https://dc.lft.to/lastmile_qr_scan", "android": "https://dc.lft.to/lastmile_qr_scan"}, "bike_id": "2ea21b4fd15aa5dc5b2bf51ebd572e69", "type": "electric_scooter", "is_disabled": 0, "fusion_lat": 0.0, "fusion_lon": 0.0, "is_reserved": 0, "name": "2ea21b4fd15aa5dc5b2bf51ebd572e69"}, {"lon": -76.97330383333333, "lat": 38.90410166666667, "rental_uris": {"ios": "https://dc.lft.to/lastmile_qr_scan", "android": "https://dc.lft.to/lastmile_qr_scan"}, "bike_id": "7cb7a4c71d4bbf2701cb46f6fbacaf9a", "type": "electric_scooter", "is_disabled": 0, "fusion_lat": 0.0, "fusion_lon": 0.0, "is_reserved": 0, "name": "7cb7a4c71d4bbf2701cb46f6fbacaf9a"}, {"lon": -77.00211716666666, "lat": 38.89545733333333, "rental_uris": {"ios": "https://dc.lft.to/lastmile_qr_scan", "android": "https://dc.lft.to/lastmile_qr_scan"}, "bike_id": "ca1e1be6456b2889716c3f275b3d2414", "type": "electric_scooter", "is_disabled": 0, "fusion_lat": 0.0, "fusion_lon": 0.0, "is_reserved": 0, "name": "ca1e1be6456b2889716c3f275b3d2414"}, {"lon": -77.06325, "lat": 38.9445575, "rental_uris": {"ios": "https://dc.lft.to/lastmile_qr_scan", "android": "https://dc.lft.to/lastmile_qr_scan"}, "bike_id": "ce0813716b86c6489fd3f4d5186321fa", "type": "electric_scooter", "is_disabled": 0, "fusion_lat": 0.0, "fusion_lon": 0.0, "is_reserved": 0, "name": "ce0813716b86c6489fd3f4d5186321fa"}, {"lon": -77.05882733333333, "lat": 38.93637016666667, "rental_uris": {"ios": "https://dc.lft.to/lastmile_qr_scan", "android": "https://dc.lft.to/lastmile_qr_scan"}, "bike_id": "e1c7deff9d924fc12a4a43666d22072e", "type": "electric_scooter", "is_disabled": 0, "fusion_lat": 0.0, "fusion_lon": 0.0, "is_reserved": 0, "name": "e1c7deff9d924fc12a4a43666d22072e"}, {"lon": -76.99365166666666, "lat": 38.92838166666667, "rental_uris": {"ios": "https://dc.lft.to/lastmile_qr_scan", "android": "https://dc.lft.to/lastmile_qr_scan"}, "bike_id": "2d4f4f9a42d26068c96ebec0e41c0b36", "type": "electric_scooter", "is_disabled": 0, "fusion_lat": 0.0, "fusion_lon": 0.0, "is_reserved": 0, "name": "2d4f4f9a42d26068c96ebec0e41c0b36"}, {"lon": -77.0421305, "lat": 38.90558816666667, "rental_uris": {"ios": "https://dc.lft.to/lastmile_qr_scan", "android": "https://dc.lft.to/lastmile_qr_scan"}, "bike_id": "93a73a7388995ed5826a1b45df4507fb", "type": "electric_scooter", "is_disabled": 0, "fusion_lat": 0.0, "fusion_lon": 0.0, "is_reserved": 0, "name": "93a73a7388995ed5826a1b45df4507fb"}, {"lon": -76.98833066666667, "lat": 38.900414, "rental_uris": {"ios": "https://dc.lft.to/lastmile_qr_scan", "android": "https://dc.lft.to/lastmile_qr_scan"}, "bike_id": "26d8147f2d469233d8c5e4e2c3306d32", "type": "electric_scooter", "is_disabled": 0, "fusion_lat": 0.0, "fusion_lon": 0.0, "is_reserved": 0, "name": "26d8147f2d469233d8c5e4e2c3306d32"}, {"lon": -77.00210083333333, "lat": 38.90239716666667, "rental_uris": {"ios": "https://dc.lft.to/lastmile_qr_scan", "android": "https://dc.lft.to/lastmile_qr_scan"}, "bike_id": "4fb776da136be326b1949929bfc27b32", "type": "electric_scooter", "is_disabled": 0, "fusion_lat": 0.0, "fusion_lon": 0.0, "is_reserved": 0, "name": "4fb776da136be326b1949929bfc27b32"}, {"lon": -76.97669, "lat": 38.95248183333333, "rental_uris": {"ios": "https://dc.lft.to/lastmile_qr_scan", "android": "https://dc.lft.to/lastmile_qr_scan"}, "bike_id": "7e4c4eb697f22f01d29c16f1e5ad357d", "type": "electric_bike", "is_disabled": 0, "fusion_lat": 0.0, "fusion_lon": 0.0, "is_reserved": 0, "name": "7e4c4eb697f22f01d29c16f1e5ad357d"}, {"lon": -77.02264283333334, "lat": 38.87880116666667, "rental_uris": {"ios": "https://dc.lft.to/lastmile_qr_scan", "android": "https://dc.lft.to/lastmile_qr_scan"}, "bike_id": "60a6fc150fcd292ab9799533e156ed9c", "type": "electric_scooter", "is_disabled": 0, "fusion_lat": 0.0, "fusion_lon": 0.0, "is_reserved": 0, "name": "60a6fc150fcd292ab9799533e156ed9c"}, {"lon": -77.02995633333333, "lat": 38.92678933333333, "rental_uris": {"ios": "https://dc.lft.to/lastmile_qr_scan", "android": "https://dc.lft.to/lastmile_qr_scan"}, "bike_id": "8829108b8d513b3b25a532cd7485e5ba", "type": "electric_scooter", "is_disabled": 0, "fusion_lat": 0.0, "fusion_lon": 0.0, "is_reserved": 0, "name": "8829108b8d513b3b25a532cd7485e5ba"}, {"lon": -77.02549733333333, "lat": 38.9413955, "rental_uris": {"ios": "https://dc.lft.to/lastmile_qr_scan", "android": "https://dc.lft.to/lastmile_qr_scan"}, "bike_id": "5cb9b086f16475a02c501adb99b7243a", "type": "electric_scooter", "is_disabled": 0, "fusion_lat": 0.0, "fusion_lon": 0.0, "is_reserved": 0, "name": "5cb9b086f16475a02c501adb99b7243a"}, {"lon": -77.02500183333333, "lat": 38.9419985, "rental_uris": {"ios": "https://dc.lft.to/lastmile_qr_scan", "android": "https://dc.lft.to/lastmile_qr_scan"}, "bike_id": "6d3a440531c69669356039d076b4b612", "type": "electric_scooter", "is_disabled": 0, "fusion_lat": 0.0, "fusion_lon": 0.0, "is_reserved": 0, "name": "6d3a440531c69669356039d076b4b612"}, {"lon": -77.040528, "lat": 38.91875983333333, "rental_uris": {"ios": "https://dc.lft.to/lastmile_qr_scan", "android": "https://dc.lft.to/lastmile_qr_scan"}, "bike_id": "a9b1ae6a936b6fbeed9eafdbfe0ea83b", "type": "electric_scooter", "is_disabled": 0, "fusion_lat": 0.0, "fusion_lon": 0.0, "is_reserved": 0, "name": "a9b1ae6a936b6fbeed9eafdbfe0ea83b"}, {"lon": -77.03847033333334, "lat": 38.916655, "rental_uris": {"ios": "https://dc.lft.to/lastmile_qr_scan", "android": "https://dc.lft.to/lastmile_qr_scan"}, "bike_id": "7a72062a9e2db5c6a45591ebcfb0d5b0", "type": "electric_scooter", "is_disabled": 0, "fusion_lat": 0.0, "fusion_lon": 0.0, "is_reserved": 0, "name": "7a72062a9e2db5c6a45591ebcfb0d5b0"}, {"lon": -77.00188916666667, "lat": 38.894517666666665, "rental_uris": {"ios": "https://dc.lft.to/lastmile_qr_scan", "android": "https://dc.lft.to/lastmile_qr_scan"}, "bike_id": "535530e1280ffa44f53cb6a2c206d8d4", "type": "electric_scooter", "is_disabled": 0, "fusion_lat": 0.0, "fusion_lon": 0.0, "is_reserved": 0, "name": "535530e1280ffa44f53cb6a2c206d8d4"}, {"lon": -77.05385133333333, "lat": 38.89893683333333, "rental_uris": {"ios": "https://dc.lft.to/lastmile_qr_scan", "android": "https://dc.lft.to/lastmile_qr_scan"}, "bike_id": "0e01ec1d66e02e7e81b7cccf301e1c84", "type": "electric_scooter", "is_disabled": 0, "fusion_lat": 0.0, "fusion_lon": 0.0, "is_reserved": 0, "name": "0e01ec1d66e02e7e81b7cccf301e1c84"}, {"lon": -77.03086483333334, "lat": 38.92718583333333, "rental_uris": {"ios": "https://dc.lft.to/lastmile_qr_scan", "android": "https://dc.lft.to/lastmile_qr_scan"}, "bike_id": "250e155a2768a054ce3bb9762242ee5c", "type": "electric_scooter", "is_disabled": 0, "fusion_lat": 0.0, "fusion_lon": 0.0, "is_reserved": 0, "name": "250e155a2768a054ce3bb9762242ee5c"}, {"lon": -76.98798216666667, "lat": 38.867271, "rental_uris": {"ios": "https://dc.lft.to/lastmile_qr_scan", "android": "https://dc.lft.to/lastmile_qr_scan"}, "bike_id": "10ad4a0449fff3c08b27bf645b685765", "type": "electric_scooter", "is_disabled": 0, "fusion_lat": 0.0, "fusion_lon": 0.0, "is_reserved": 0, "name": "10ad4a0449fff3c08b27bf645b685765"}, {"lon": -77.03596266666666, "lat": 38.93937783333333, "rental_uris": {"ios": "https://dc.lft.to/lastmile_qr_scan", "android": "https://dc.lft.to/lastmile_qr_scan"}, "bike_id": "4b42af31ef424a5dea3a5e14ae61e37f", "type": "electric_scooter", "is_disabled": 0, "fusion_lat": 0.0, "fusion_lon": 0.0, "is_reserved": 0, "name": "4b42af31ef424a5dea3a5e14ae61e37f"}, {"lon": -77.04123666666666, "lat": 38.91709383333333, "rental_uris": {"ios": "https://dc.lft.to/lastmile_qr_scan", "android": "https://dc.lft.to/lastmile_qr_scan"}, "bike_id": "a316f093fdfdb669e46b74f3b80aa704", "type": "electric_scooter", "is_disabled": 0, "fusion_lat": 0.0, "fusion_lon": 0.0, "is_reserved": 0, "name": "a316f093fdfdb669e46b74f3b80aa704"}, {"lon": -76.9830025, "lat": 38.90523133333333, "rental_uris": {"ios": "https://dc.lft.to/lastmile_qr_scan", "android": "https://dc.lft.to/lastmile_qr_scan"}, "bike_id": "b7ab2b31daa77382541018b033299f79", "type": "electric_scooter", "is_disabled": 0, "fusion_lat": 0.0, "fusion_lon": 0.0, "is_reserved": 0, "name": "b7ab2b31daa77382541018b033299f79"}, {"lon": -77.02483716666667, "lat": 38.927499, "rental_uris": {"ios": "https://dc.lft.to/lastmile_qr_scan", "android": "https://dc.lft.to/lastmile_qr_scan"}, "bike_id": "37102abb126d756f984255f63d0b8496", "type": "electric_scooter", "is_disabled": 0, "fusion_lat": 0.0, "fusion_lon": 0.0, "is_reserved": 0, "name": "37102abb126d756f984255f63d0b8496"}, {"lon": -77.07923083333333, "lat": 38.930953, "rental_uris": {"ios": "https://dc.lft.to/lastmile_qr_scan", "android": "https://dc.lft.to/lastmile_qr_scan"}, "bike_id": "e0e4713c0ca6ffccda37273cba9a5252", "type": "electric_scooter", "is_disabled": 0, "fusion_lat": 0.0, "fusion_lon": 0.0, "is_reserved": 0, "name": "e0e4713c0ca6ffccda37273cba9a5252"}, {"lon": -76.98150766666667, "lat": 38.903215, "rental_uris": {"ios": "https://dc.lft.to/lastmile_qr_scan", "android": "https://dc.lft.to/lastmile_qr_scan"}, "bike_id": "c258866f7bb0f6c74a72b963e42388ae", "type": "electric_scooter", "is_disabled": 0, "fusion_lat": 0.0, "fusion_lon": 0.0, "is_reserved": 0, "name": "c258866f7bb0f6c74a72b963e42388ae"}, {"lon": -77.0397625, "lat": 38.90271466666667, "rental_uris": {"ios": "https://dc.lft.to/lastmile_qr_scan", "android": "https://dc.lft.to/lastmile_qr_scan"}, "bike_id": "3318a36ce673479843b0afd41564047e", "type": "electric_scooter", "is_disabled": 0, "fusion_lat": 0.0, "fusion_lon": 0.0, "is_reserved": 0, "name": "3318a36ce673479843b0afd41564047e"}, {"lon": -77.03260766666666, "lat": 38.932557, "rental_uris": {"ios": "https://dc.lft.to/lastmile_qr_scan", "android": "https://dc.lft.to/lastmile_qr_scan"}, "bike_id": "1105056023aceadf267d00498203fe57", "type": "electric_scooter", "is_disabled": 0, "fusion_lat": 0.0, "fusion_lon": 0.0, "is_reserved": 0, "name": "1105056023aceadf267d00498203fe57"}, {"lon": -77.03025166666667, "lat": 38.932188333333336, "rental_uris": {"ios": "https://dc.lft.to/lastmile_qr_scan", "android": "https://dc.lft.to/lastmile_qr_scan"}, "bike_id": "59f93f6625b23506d62439a36a177fa1", "type": "electric_scooter", "is_disabled": 0, "fusion_lat": 0.0, "fusion_lon": 0.0, "is_reserved": 0, "name": "59f93f6625b23506d62439a36a177fa1"}, {"lon": -77.03854033333333, "lat": 38.9037165, "rental_uris": {"ios": "https://dc.lft.to/lastmile_qr_scan", "android": "https://dc.lft.to/lastmile_qr_scan"}, "bike_id": "214b6bb6f015002a9d7c3c5b966687f0", "type": "electric_scooter", "is_disabled": 0, "fusion_lat": 0.0, "fusion_lon": 0.0, "is_reserved": 0, "name": "214b6bb6f015002a9d7c3c5b966687f0"}, {"lon": -77.0179815, "lat": 38.921327833333336, "rental_uris": {"ios": "https://dc.lft.to/lastmile_qr_scan", "android": "https://dc.lft.to/lastmile_qr_scan"}, "bike_id": "e0bd42dff8d80433fda375d024840932", "type": "electric_scooter", "is_disabled": 0, "fusion_lat": 0.0, "fusion_lon": 0.0, "is_reserved": 0, "name": "e0bd42dff8d80433fda375d024840932"}, {"lon": -77.02132366666666, "lat": 38.92464583333334, "rental_uris": {"ios": "https://dc.lft.to/lastmile_qr_scan", "android": "https://dc.lft.to/lastmile_qr_scan"}, "bike_id": "b26253d964b7fd055f906ad16d7ed2d0", "type": "electric_scooter", "is_disabled": 0, "fusion_lat": 0.0, "fusion_lon": 0.0, "is_reserved": 0, "name": "b26253d964b7fd055f906ad16d7ed2d0"}, {"lon": -77.045207, "lat": 38.94201066666667, "rental_uris": {"ios": "https://dc.lft.to/lastmile_qr_scan", "android": "https://dc.lft.to/lastmile_qr_scan"}, "bike_id": "c002bda6aa16d46509be533796073328", "type": "electric_bike", "is_disabled": 0, "fusion_lat": 0.0, "fusion_lon": 0.0, "is_reserved": 0, "name": "c002bda6aa16d46509be533796073328"}, {"lon": -77.01745433333333, "lat": 38.885873, "rental_uris": {"ios": "https://dc.lft.to/lastmile_qr_scan", "android": "https://dc.lft.to/lastmile_qr_scan"}, "bike_id": "9b466d998356c1252c453f5488f3e0af", "type": "electric_scooter", "is_disabled": 0, "fusion_lat": 0.0, "fusion_lon": 0.0, "is_reserved": 0, "name": "9b466d998356c1252c453f5488f3e0af"}, {"lon": -77.00336383333334, "lat": 38.889920333333336, "rental_uris": {"ios": "https://dc.lft.to/lastmile_qr_scan", "android": "https://dc.lft.to/lastmile_qr_scan"}, "bike_id": "3d36e946e99feb25b92f83b176514a84", "type": "electric_scooter", "is_disabled": 0, "fusion_lat": 0.0, "fusion_lon": 0.0, "is_reserved": 0, "name": "3d36e946e99feb25b92f83b176514a84"}, {"lon": -77.046969, "lat": 38.9158225, "rental_uris": {"ios": "https://dc.lft.to/lastmile_qr_scan", "android": "https://dc.lft.to/lastmile_qr_scan"}, "bike_id": "e041d04896035fc224e0c16343360169", "type": "electric_scooter", "is_disabled": 0, "fusion_lat": 0.0, "fusion_lon": 0.0, "is_reserved": 0, "name": "e041d04896035fc224e0c16343360169"}, {"lon": -77.02360966666667, "lat": 38.893665, "rental_uris": {"ios": "https://dc.lft.to/lastmile_qr_scan", "android": "https://dc.lft.to/lastmile_qr_scan"}, "bike_id": "7b0b6533dc2972a30205a2939fad416c", "type": "electric_scooter", "is_disabled": 0, "fusion_lat": 0.0, "fusion_lon": 0.0, "is_reserved": 0, "name": "7b0b6533dc2972a30205a2939fad416c"}, {"lon": -77.02985166666667, "lat": 38.8975345, "rental_uris": {"ios": "https://dc.lft.to/lastmile_qr_scan", "android": "https://dc.lft.to/lastmile_qr_scan"}, "bike_id": "d17068d4a1ceaaf5a6a6e22e8cb806f2", "type": "electric_scooter", "is_disabled": 0, "fusion_lat": 0.0, "fusion_lon": 0.0, "is_reserved": 0, "name": "d17068d4a1ceaaf5a6a6e22e8cb806f2"}, {"lon": -76.94800416666666, "lat": 38.861922666666665, "rental_uris": {"ios": "https://dc.lft.to/lastmile_qr_scan", "android": "https://dc.lft.to/lastmile_qr_scan"}, "bike_id": "11e2e730f655404a3acbd04205a0323e", "type": "electric_bike", "is_disabled": 0, "fusion_lat": 0.0, "fusion_lon": 0.0, "is_reserved": 0, "name": "11e2e730f655404a3acbd04205a0323e"}, {"lon": -77.0043235, "lat": 38.90569766666667, "rental_uris": {"ios": "https://dc.lft.to/lastmile_qr_scan", "android": "https://dc.lft.to/lastmile_qr_scan"}, "bike_id": "d2d18984bccfa6e6a795cfef51b9ea73", "type": "electric_scooter", "is_disabled": 0, "fusion_lat": 0.0, "fusion_lon": 0.0, "is_reserved": 0, "name": "d2d18984bccfa6e6a795cfef51b9ea73"}, {"lon": -77.022411, "lat": 38.9227595, "rental_uris": {"ios": "https://dc.lft.to/lastmile_qr_scan", "android": "https://dc.lft.to/lastmile_qr_scan"}, "bike_id": "1c3bbe237521a96b47cd5d1a25ff7596", "type": "electric_scooter", "is_disabled": 0, "fusion_lat": 0.0, "fusion_lon": 0.0, "is_reserved": 0, "name": "1c3bbe237521a96b47cd5d1a25ff7596"}, {"lon": -77.03864383333334, "lat": 38.902921666666664, "rental_uris": {"ios": "https://dc.lft.to/lastmile_qr_scan", "android": "https://dc.lft.to/lastmile_qr_scan"}, "bike_id": "1fa25b6fddc6a3416bc6b8708accfd5d", "type": "electric_scooter", "is_disabled": 0, "fusion_lat": 0.0, "fusion_lon": 0.0, "is_reserved": 0, "name": "1fa25b6fddc6a3416bc6b8708accfd5d"}, {"lon": -77.03350216666666, "lat": 38.898451666666666, "rental_uris": {"ios": "https://dc.lft.to/lastmile_qr_scan", "android": "https://dc.lft.to/lastmile_qr_scan"}, "bike_id": "bcf4611ab441cf3a34d1fe84944ac787", "type": "electric_scooter", "is_disabled": 0, "fusion_lat": 0.0, "fusion_lon": 0.0, "is_reserved": 0, "name": "bcf4611ab441cf3a34d1fe84944ac787"}, {"lon": -77.03386716666667, "lat": 38.9388095, "rental_uris": {"ios": "https://dc.lft.to/lastmile_qr_scan", "android": "https://dc.lft.to/lastmile_qr_scan"}, "bike_id": "3243c5b334aa0d8db23d98e0b8e4919b", "type": "electric_scooter", "is_disabled": 0, "fusion_lat": 0.0, "fusion_lon": 0.0, "is_reserved": 0, "name": "3243c5b334aa0d8db23d98e0b8e4919b"}, {"lon": -76.99778383333333, "lat": 38.844296166666666, "rental_uris": {"ios": "https://dc.lft.to/lastmile_qr_scan", "android": "https://dc.lft.to/lastmile_qr_scan"}, "bike_id": "4db279ed693e9da9470197530e924a28", "type": "electric_scooter", "is_disabled": 0, "fusion_lat": 0.0, "fusion_lon": 0.0, "is_reserved": 0, "name": "4db279ed693e9da9470197530e924a28"}, {"lon": -76.937488, "lat": 38.890524666666664, "rental_uris": {"ios": "https://dc.lft.to/lastmile_qr_scan", "android": "https://dc.lft.to/lastmile_qr_scan"}, "bike_id": "3828e8365d15ef0ba5e0a17461c347ef", "type": "electric_scooter", "is_disabled": 0, "fusion_lat": 0.0, "fusion_lon": 0.0, "is_reserved": 0, "name": "3828e8365d15ef0ba5e0a17461c347ef"}, {"lon": -77.0435085, "lat": 38.9042875, "rental_uris": {"ios": "https://dc.lft.to/lastmile_qr_scan", "android": "https://dc.lft.to/lastmile_qr_scan"}, "bike_id": "8d83891fe60ccbd13f27c29e1d7931dd", "type": "electric_scooter", "is_disabled": 0, "fusion_lat": 0.0, "fusion_lon": 0.0, "is_reserved": 0, "name": "8d83891fe60ccbd13f27c29e1d7931dd"}, {"lon": -77.02400383333334, "lat": 38.90045333333333, "rental_uris": {"ios": "https://dc.lft.to/lastmile_qr_scan", "android": "https://dc.lft.to/lastmile_qr_scan"}, "bike_id": "378d0d143513dfc1aa9402e7d8cf1b7c", "type": "electric_scooter", "is_disabled": 0, "fusion_lat": 0.0, "fusion_lon": 0.0, "is_reserved": 0, "name": "378d0d143513dfc1aa9402e7d8cf1b7c"}, {"lon": -77.02943683333334, "lat": 38.92077533333333, "rental_uris": {"ios": "https://dc.lft.to/lastmile_qr_scan", "android": "https://dc.lft.to/lastmile_qr_scan"}, "bike_id": "0b57d6c73511a375656d11d1ead9248b", "type": "electric_scooter", "is_disabled": 0, "fusion_lat": 0.0, "fusion_lon": 0.0, "is_reserved": 0, "name": "0b57d6c73511a375656d11d1ead9248b"}, {"lon": -76.99519, "lat": 38.89607766666666, "rental_uris": {"ios": "https://dc.lft.to/lastmile_qr_scan", "android": "https://dc.lft.to/lastmile_qr_scan"}, "bike_id": "644e36d4724a0cb2b7e4c2f7416476d1", "type": "electric_scooter", "is_disabled": 0, "fusion_lat": 0.0, "fusion_lon": 0.0, "is_reserved": 0, "name": "644e36d4724a0cb2b7e4c2f7416476d1"}, {"lon": -77.04055083333333, "lat": 38.89735566666667, "rental_uris": {"ios": "https://dc.lft.to/lastmile_qr_scan", "android": "https://dc.lft.to/lastmile_qr_scan"}, "bike_id": "529c11efe48209cc36aec42d90bb1d03", "type": "electric_scooter", "is_disabled": 0, "fusion_lat": 0.0, "fusion_lon": 0.0, "is_reserved": 0, "name": "529c11efe48209cc36aec42d90bb1d03"}, {"lon": -77.01760983333334, "lat": 38.876883666666664, "rental_uris": {"ios": "https://dc.lft.to/lastmile_qr_scan", "android": "https://dc.lft.to/lastmile_qr_scan"}, "bike_id": "3e6213d25d31c58e67b830f2c42fad74", "type": "electric_scooter", "is_disabled": 0, "fusion_lat": 0.0, "fusion_lon": 0.0, "is_reserved": 0, "name": "3e6213d25d31c58e67b830f2c42fad74"}, {"lon": -77.058822, "lat": 38.91823733333333, "rental_uris": {"ios": "https://dc.lft.to/lastmile_qr_scan", "android": "https://dc.lft.to/lastmile_qr_scan"}, "bike_id": "05313cdc1326b18cf69f810ae7bd5e5f", "type": "electric_scooter", "is_disabled": 0, "fusion_lat": 0.0, "fusion_lon": 0.0, "is_reserved": 0, "name": "05313cdc1326b18cf69f810ae7bd5e5f"}, {"lon": -77.04652533333334, "lat": 38.89828833333333, "rental_uris": {"ios": "https://dc.lft.to/lastmile_qr_scan", "android": "https://dc.lft.to/lastmile_qr_scan"}, "bike_id": "48da3acad71f065fe74adbb1cee6ecf6", "type": "electric_scooter", "is_disabled": 0, "fusion_lat": 0.0, "fusion_lon": 0.0, "is_reserved": 0, "name": "48da3acad71f065fe74adbb1cee6ecf6"}, {"lon": -77.009593, "lat": 38.917047, "rental_uris": {"ios": "https://dc.lft.to/lastmile_qr_scan", "android": "https://dc.lft.to/lastmile_qr_scan"}, "bike_id": "c229e16c0f552fd06465d2a3531a169f", "type": "electric_scooter", "is_disabled": 0, "fusion_lat": 0.0, "fusion_lon": 0.0, "is_reserved": 0, "name": "c229e16c0f552fd06465d2a3531a169f"}, {"lon": -77.03587483333334, "lat": 38.9169375, "rental_uris": {"ios": "https://dc.lft.to/lastmile_qr_scan", "android": "https://dc.lft.to/lastmile_qr_scan"}, "bike_id": "c075dd63734c26aea75f230bd2d97992", "type": "electric_scooter", "is_disabled": 0, "fusion_lat": 0.0, "fusion_lon": 0.0, "is_reserved": 0, "name": "c075dd63734c26aea75f230bd2d97992"}, {"lon": -77.02976, "lat": 38.916779166666664, "rental_uris": {"ios": "https://dc.lft.to/lastmile_qr_scan", "android": "https://dc.lft.to/lastmile_qr_scan"}, "bike_id": "413150499d26c4b0131223c83b5c8d12", "type": "electric_scooter", "is_disabled": 0, "fusion_lat": 0.0, "fusion_lon": 0.0, "is_reserved": 0, "name": "413150499d26c4b0131223c83b5c8d12"}, {"lon": -77.04690233333334, "lat": 38.9213395, "rental_uris": {"ios": "https://dc.lft.to/lastmile_qr_scan", "android": "https://dc.lft.to/lastmile_qr_scan"}, "bike_id": "c20e2b675323342e34025124eb628ab9", "type": "electric_scooter", "is_disabled": 0, "fusion_lat": 0.0, "fusion_lon": 0.0, "is_reserved": 0, "name": "c20e2b675323342e34025124eb628ab9"}, {"lon": -77.01718766666667, "lat": 38.974986333333334, "rental_uris": {"ios": "https://dc.lft.to/lastmile_qr_scan", "android": "https://dc.lft.to/lastmile_qr_scan"}, "bike_id": "f0a76cc0fbdcb9ec78603daffe6d3a02", "type": "electric_scooter", "is_disabled": 0, "fusion_lat": 0.0, "fusion_lon": 0.0, "is_reserved": 0, "name": "f0a76cc0fbdcb9ec78603daffe6d3a02"}, {"lon": -77.03724416666667, "lat": 38.932851666666664, "rental_uris": {"ios": "https://dc.lft.to/lastmile_qr_scan", "android": "https://dc.lft.to/lastmile_qr_scan"}, "bike_id": "841ed062cf4975624b4094a2bb7a4e20", "type": "electric_scooter", "is_disabled": 0, "fusion_lat": 0.0, "fusion_lon": 0.0, "is_reserved": 0, "name": "841ed062cf4975624b4094a2bb7a4e20"}, {"lon": -77.05048483333333, "lat": 38.92385083333333, "rental_uris": {"ios": "https://dc.lft.to/lastmile_qr_scan", "android": "https://dc.lft.to/lastmile_qr_scan"}, "bike_id": "931cda27b4d9ba8cb23f1789d942badb", "type": "electric_scooter", "is_disabled": 0, "fusion_lat": 0.0, "fusion_lon": 0.0, "is_reserved": 0, "name": "931cda27b4d9ba8cb23f1789d942badb"}, {"lon": -76.9811005, "lat": 38.90407066666667, "rental_uris": {"ios": "https://dc.lft.to/lastmile_qr_scan", "android": "https://dc.lft.to/lastmile_qr_scan"}, "bike_id": "7fe6936ec25d4021f468463909606442", "type": "electric_scooter", "is_disabled": 0, "fusion_lat": 0.0, "fusion_lon": 0.0, "is_reserved": 0, "name": "7fe6936ec25d4021f468463909606442"}, {"lon": -77.04372233333333, "lat": 38.89226333333333, "rental_uris": {"ios": "https://dc.lft.to/lastmile_qr_scan", "android": "https://dc.lft.to/lastmile_qr_scan"}, "bike_id": "a6b5ba8e00e24514bd4c13d3421dfa9a", "type": "electric_scooter", "is_disabled": 0, "fusion_lat": 0.0, "fusion_lon": 0.0, "is_reserved": 0, "name": "a6b5ba8e00e24514bd4c13d3421dfa9a"}, {"lon": -76.998316, "lat": 38.88322316666667, "rental_uris": {"ios": "https://dc.lft.to/lastmile_qr_scan", "android": "https://dc.lft.to/lastmile_qr_scan"}, "bike_id": "b41f3986563fcd6f56b1b88dbdb202e3", "type": "electric_scooter", "is_disabled": 0, "fusion_lat": 0.0, "fusion_lon": 0.0, "is_reserved": 0, "name": "b41f3986563fcd6f56b1b88dbdb202e3"}, {"lon": -77.052641, "lat": 38.92773916666667, "rental_uris": {"ios": "https://dc.lft.to/lastmile_qr_scan", "android": "https://dc.lft.to/lastmile_qr_scan"}, "bike_id": "3036277d832bddcb5a9a05d20852aa2b", "type": "electric_scooter", "is_disabled": 0, "fusion_lat": 0.0, "fusion_lon": 0.0, "is_reserved": 0, "name": "3036277d832bddcb5a9a05d20852aa2b"}, {"lon": -77.0241915, "lat": 38.93101883333333, "rental_uris": {"ios": "https://dc.lft.to/lastmile_qr_scan", "android": "https://dc.lft.to/lastmile_qr_scan"}, "bike_id": "4df4855bac08c771eb1d3c05cfea6b5b", "type": "electric_scooter", "is_disabled": 0, "fusion_lat": 0.0, "fusion_lon": 0.0, "is_reserved": 0, "name": "4df4855bac08c771eb1d3c05cfea6b5b"}, {"lon": -77.03863966666667, "lat": 38.907904, "rental_uris": {"ios": "https://dc.lft.to/lastmile_qr_scan", "android": "https://dc.lft.to/lastmile_qr_scan"}, "bike_id": "d7900017e1a41a34373067bc308d5e11", "type": "electric_scooter", "is_disabled": 0, "fusion_lat": 0.0, "fusion_lon": 0.0, "is_reserved": 0, "name": "d7900017e1a41a34373067bc308d5e11"}, {"lon": -77.0458625, "lat": 38.921277333333336, "rental_uris": {"ios": "https://dc.lft.to/lastmile_qr_scan", "android": "https://dc.lft.to/lastmile_qr_scan"}, "bike_id": "6a24c8fd378c4974077f263b7c7b8971", "type": "electric_scooter", "is_disabled": 0, "fusion_lat": 0.0, "fusion_lon": 0.0, "is_reserved": 0, "name": "6a24c8fd378c4974077f263b7c7b8971"}, {"lon": -77.03165416666667, "lat": 38.90959483333334, "rental_uris": {"ios": "https://dc.lft.to/lastmile_qr_scan", "android": "https://dc.lft.to/lastmile_qr_scan"}, "bike_id": "08e2d88048389e24569764f4ff0c3638", "type": "electric_scooter", "is_disabled": 0, "fusion_lat": 0.0, "fusion_lon": 0.0, "is_reserved": 0, "name": "08e2d88048389e24569764f4ff0c3638"}, {"lon": -76.94408066666666, "lat": 38.881446333333336, "rental_uris": {"ios": "https://dc.lft.to/lastmile_qr_scan", "android": "https://dc.lft.to/lastmile_qr_scan"}, "bike_id": "029d63e178dd817ffecc91c31f506f3d", "type": "electric_scooter", "is_disabled": 0, "fusion_lat": 0.0, "fusion_lon": 0.0, "is_reserved": 0, "name": "029d63e178dd817ffecc91c31f506f3d"}, {"lon": -76.99354233333334, "lat": 38.845065, "rental_uris": {"ios": "https://dc.lft.to/lastmile_qr_scan", "android": "https://dc.lft.to/lastmile_qr_scan"}, "bike_id": "530ae15b14d62af34478235c6648151a", "type": "electric_bike", "is_disabled": 0, "fusion_lat": 0.0, "fusion_lon": 0.0, "is_reserved": 0, "name": "530ae15b14d62af34478235c6648151a"}, {"lon": -77.00661316666667, "lat": 38.90034566666667, "rental_uris": {"ios": "https://dc.lft.to/lastmile_qr_scan", "android": "https://dc.lft.to/lastmile_qr_scan"}, "bike_id": "beb14e503903d86a16cba89b8d2d9774", "type": "electric_scooter", "is_disabled": 0, "fusion_lat": 0.0, "fusion_lon": 0.0, "is_reserved": 0, "name": "beb14e503903d86a16cba89b8d2d9774"}, {"lon": -77.04862116666666, "lat": 38.90530833333333, "rental_uris": {"ios": "https://dc.lft.to/lastmile_qr_scan", "android": "https://dc.lft.to/lastmile_qr_scan"}, "bike_id": "3a872358290ee322f00c2f47243a7b6c", "type": "electric_scooter", "is_disabled": 0, "fusion_lat": 0.0, "fusion_lon": 0.0, "is_reserved": 0, "name": "3a872358290ee322f00c2f47243a7b6c"}, {"lon": -77.04527233333333, "lat": 38.858202666666664, "rental_uris": {"ios": "https://dc.lft.to/lastmile_qr_scan", "android": "https://dc.lft.to/lastmile_qr_scan"}, "bike_id": "edcf7fbc154a9973f254e46f528109de", "type": "electric_bike", "is_disabled": 0, "fusion_lat": 0.0, "fusion_lon": 0.0, "is_reserved": 0, "name": "edcf7fbc154a9973f254e46f528109de"}, {"lon": -77.04658133333334, "lat": 38.9136355, "rental_uris": {"ios": "https://dc.lft.to/lastmile_qr_scan", "android": "https://dc.lft.to/lastmile_qr_scan"}, "bike_id": "83f5685b770f30991d1bbac91d2ebccc", "type": "electric_scooter", "is_disabled": 0, "fusion_lat": 0.0, "fusion_lon": 0.0, "is_reserved": 0, "name": "83f5685b770f30991d1bbac91d2ebccc"}, {"lon": -77.03007916666667, "lat": 38.894191666666664, "rental_uris": {"ios": "https://dc.lft.to/lastmile_qr_scan", "android": "https://dc.lft.to/lastmile_qr_scan"}, "bike_id": "4de182b065da91b96d19f624f4fc5bf6", "type": "electric_scooter", "is_disabled": 0, "fusion_lat": 0.0, "fusion_lon": 0.0, "is_reserved": 0, "name": "4de182b065da91b96d19f624f4fc5bf6"}, {"lon": -76.99835516666667, "lat": 38.89083266666667, "rental_uris": {"ios": "https://dc.lft.to/lastmile_qr_scan", "android": "https://dc.lft.to/lastmile_qr_scan"}, "bike_id": "2ebfa9c94ae3802f5b24383260badcdf", "type": "electric_scooter", "is_disabled": 0, "fusion_lat": 0.0, "fusion_lon": 0.0, "is_reserved": 0, "name": "2ebfa9c94ae3802f5b24383260badcdf"}, {"lon": -76.99378066666667, "lat": 38.92382583333333, "rental_uris": {"ios": "https://dc.lft.to/lastmile_qr_scan", "android": "https://dc.lft.to/lastmile_qr_scan"}, "bike_id": "257187a7aba738c8fe49abe6539acb98", "type": "electric_scooter", "is_disabled": 0, "fusion_lat": 0.0, "fusion_lon": 0.0, "is_reserved": 0, "name": "257187a7aba738c8fe49abe6539acb98"}, {"lon": -77.03764966666667, "lat": 38.9222345, "rental_uris": {"ios": "https://dc.lft.to/lastmile_qr_scan", "android": "https://dc.lft.to/lastmile_qr_scan"}, "bike_id": "b01d37d81b23b3de850e41089a8d7f01", "type": "electric_scooter", "is_disabled": 0, "fusion_lat": 0.0, "fusion_lon": 0.0, "is_reserved": 0, "name": "b01d37d81b23b3de850e41089a8d7f01"}, {"lon": -76.98359033333334, "lat": 38.88745866666667, "rental_uris": {"ios": "https://dc.lft.to/lastmile_qr_scan", "android": "https://dc.lft.to/lastmile_qr_scan"}, "bike_id": "0010f550dfe1c15363d63e761faa5f9f", "type": "electric_scooter", "is_disabled": 0, "fusion_lat": 0.0, "fusion_lon": 0.0, "is_reserved": 0, "name": "0010f550dfe1c15363d63e761faa5f9f"}, {"lon": -76.98270466666666, "lat": 38.88530866666667, "rental_uris": {"ios": "https://dc.lft.to/lastmile_qr_scan", "android": "https://dc.lft.to/lastmile_qr_scan"}, "bike_id": "dfe373bac6eae1f47c394429de2ff5b0", "type": "electric_scooter", "is_disabled": 0, "fusion_lat": 0.0, "fusion_lon": 0.0, "is_reserved": 0, "name": "dfe373bac6eae1f47c394429de2ff5b0"}, {"lon": -77.05024766666666, "lat": 38.9005745, "rental_uris": {"ios": "https://dc.lft.to/lastmile_qr_scan", "android": "https://dc.lft.to/lastmile_qr_scan"}, "bike_id": "5d8058dc50fd3b2cd982f868a5d23359", "type": "electric_scooter", "is_disabled": 0, "fusion_lat": 0.0, "fusion_lon": 0.0, "is_reserved": 0, "name": "5d8058dc50fd3b2cd982f868a5d23359"}, {"lon": -77.0587985, "lat": 38.936383166666666, "rental_uris": {"ios": "https://dc.lft.to/lastmile_qr_scan", "android": "https://dc.lft.to/lastmile_qr_scan"}, "bike_id": "b4395a79af137eb4ecd7b4c719d1bcb7", "type": "electric_scooter", "is_disabled": 0, "fusion_lat": 0.0, "fusion_lon": 0.0, "is_reserved": 0, "name": "b4395a79af137eb4ecd7b4c719d1bcb7"}, {"lon": -77.0254085, "lat": 38.92406916666667, "rental_uris": {"ios": "https://dc.lft.to/lastmile_qr_scan", "android": "https://dc.lft.to/lastmile_qr_scan"}, "bike_id": "826274f60612d2f8bcad1ee6d64b5be7", "type": "electric_scooter", "is_disabled": 0, "fusion_lat": 0.0, "fusion_lon": 0.0, "is_reserved": 0, "name": "826274f60612d2f8bcad1ee6d64b5be7"}, {"lon": -76.98103266666666, "lat": 38.90392116666666, "rental_uris": {"ios": "https://dc.lft.to/lastmile_qr_scan", "android": "https://dc.lft.to/lastmile_qr_scan"}, "bike_id": "520830bbe182be06301789610aaaccd8", "type": "electric_scooter", "is_disabled": 0, "fusion_lat": 0.0, "fusion_lon": 0.0, "is_reserved": 0, "name": "520830bbe182be06301789610aaaccd8"}, {"lon": -77.02205766666667, "lat": 38.9208135, "rental_uris": {"ios": "https://dc.lft.to/lastmile_qr_scan", "android": "https://dc.lft.to/lastmile_qr_scan"}, "bike_id": "659b13845c44d2a1a8e22dc68b5ed463", "type": "electric_bike", "is_disabled": 0, "fusion_lat": 0.0, "fusion_lon": 0.0, "is_reserved": 0, "name": "659b13845c44d2a1a8e22dc68b5ed463"}, {"lon": -77.04015966666667, "lat": 38.907248333333335, "rental_uris": {"ios": "https://dc.lft.to/lastmile_qr_scan", "android": "https://dc.lft.to/lastmile_qr_scan"}, "bike_id": "0368f52a783a446a2ab857ce863748dd", "type": "electric_scooter", "is_disabled": 0, "fusion_lat": 0.0, "fusion_lon": 0.0, "is_reserved": 0, "name": "0368f52a783a446a2ab857ce863748dd"}, {"lon": -76.97525783333333, "lat": 38.903296166666664, "rental_uris": {"ios": "https://dc.lft.to/lastmile_qr_scan", "android": "https://dc.lft.to/lastmile_qr_scan"}, "bike_id": "323cc63fa1838d40998b229d370ef564", "type": "electric_bike", "is_disabled": 0, "fusion_lat": 0.0, "fusion_lon": 0.0, "is_reserved": 0, "name": "323cc63fa1838d40998b229d370ef564"}, {"lon": -76.9977835, "lat": 38.8443375, "rental_uris": {"ios": "https://dc.lft.to/lastmile_qr_scan", "android": "https://dc.lft.to/lastmile_qr_scan"}, "bike_id": "d476a135bff22794d37abb401364f854", "type": "electric_scooter", "is_disabled": 0, "fusion_lat": 0.0, "fusion_lon": 0.0, "is_reserved": 0, "name": "d476a135bff22794d37abb401364f854"}, {"lon": -77.04239833333334, "lat": 38.90357133333333, "rental_uris": {"ios": "https://dc.lft.to/lastmile_qr_scan", "android": "https://dc.lft.to/lastmile_qr_scan"}, "bike_id": "8386cb7aa2349c9fd09a0595b6901295", "type": "electric_scooter", "is_disabled": 0, "fusion_lat": 0.0, "fusion_lon": 0.0, "is_reserved": 0, "name": "8386cb7aa2349c9fd09a0595b6901295"}, {"lon": -77.02699483333333, "lat": 38.90843133333333, "rental_uris": {"ios": "https://dc.lft.to/lastmile_qr_scan", "android": "https://dc.lft.to/lastmile_qr_scan"}, "bike_id": "d8114fcf7254ee38eb7deffd872e9ee5", "type": "electric_scooter", "is_disabled": 0, "fusion_lat": 0.0, "fusion_lon": 0.0, "is_reserved": 0, "name": "d8114fcf7254ee38eb7deffd872e9ee5"}, {"lon": -77.01405016666666, "lat": 38.905822666666666, "rental_uris": {"ios": "https://dc.lft.to/lastmile_qr_scan", "android": "https://dc.lft.to/lastmile_qr_scan"}, "bike_id": "2a094eab0052295cd75e2dde09e616bb", "type": "electric_scooter", "is_disabled": 0, "fusion_lat": 0.0, "fusion_lon": 0.0, "is_reserved": 0, "name": "2a094eab0052295cd75e2dde09e616bb"}, {"lon": -77.02973466666667, "lat": 38.916847, "rental_uris": {"ios": "https://dc.lft.to/lastmile_qr_scan", "android": "https://dc.lft.to/lastmile_qr_scan"}, "bike_id": "8e6b5b53c8d6c03f81bbaf7b91a51eed", "type": "electric_scooter", "is_disabled": 0, "fusion_lat": 0.0, "fusion_lon": 0.0, "is_reserved": 0, "name": "8e6b5b53c8d6c03f81bbaf7b91a51eed"}, {"lon": -77.02711133333334, "lat": 38.89602683333333, "rental_uris": {"ios": "https://dc.lft.to/lastmile_qr_scan", "android": "https://dc.lft.to/lastmile_qr_scan"}, "bike_id": "72648b69197ecabe4dbd0fe75df37cba", "type": "electric_scooter", "is_disabled": 0, "fusion_lat": 0.0, "fusion_lon": 0.0, "is_reserved": 0, "name": "72648b69197ecabe4dbd0fe75df37cba"}, {"lon": -77.04457866666667, "lat": 38.90832916666667, "rental_uris": {"ios": "https://dc.lft.to/lastmile_qr_scan", "android": "https://dc.lft.to/lastmile_qr_scan"}, "bike_id": "b6052d09f2399df4c19a82869e6728a3", "type": "electric_scooter", "is_disabled": 0, "fusion_lat": 0.0, "fusion_lon": 0.0, "is_reserved": 0, "name": "b6052d09f2399df4c19a82869e6728a3"}, {"lon": -77.03182133333334, "lat": 38.913310833333334, "rental_uris": {"ios": "https://dc.lft.to/lastmile_qr_scan", "android": "https://dc.lft.to/lastmile_qr_scan"}, "bike_id": "99de11ee4ffb02aa1d1b95a61d27a79d", "type": "electric_scooter", "is_disabled": 0, "fusion_lat": 0.0, "fusion_lon": 0.0, "is_reserved": 0, "name": "99de11ee4ffb02aa1d1b95a61d27a79d"}, {"lon": -77.0318555, "lat": 38.91742766666667, "rental_uris": {"ios": "https://dc.lft.to/lastmile_qr_scan", "android": "https://dc.lft.to/lastmile_qr_scan"}, "bike_id": "b6786bced259caf76dcdf1a0ee6891f4", "type": "electric_scooter", "is_disabled": 0, "fusion_lat": 0.0, "fusion_lon": 0.0, "is_reserved": 0, "name": "b6786bced259caf76dcdf1a0ee6891f4"}, {"lon": -76.9823225, "lat": 38.88648233333333, "rental_uris": {"ios": "https://dc.lft.to/lastmile_qr_scan", "android": "https://dc.lft.to/lastmile_qr_scan"}, "bike_id": "e3b049677cab4497be67f81c1d3e64a5", "type": "electric_scooter", "is_disabled": 0, "fusion_lat": 0.0, "fusion_lon": 0.0, "is_reserved": 0, "name": "e3b049677cab4497be67f81c1d3e64a5"}, {"lon": -77.062892, "lat": 38.90435433333333, "rental_uris": {"ios": "https://dc.lft.to/lastmile_qr_scan", "android": "https://dc.lft.to/lastmile_qr_scan"}, "bike_id": "4e31d6279784bd98c19cda301e510709", "type": "electric_scooter", "is_disabled": 0, "fusion_lat": 0.0, "fusion_lon": 0.0, "is_reserved": 0, "name": "4e31d6279784bd98c19cda301e510709"}, {"lon": -76.99529433333333, "lat": 38.883736, "rental_uris": {"ios": "https://dc.lft.to/lastmile_qr_scan", "android": "https://dc.lft.to/lastmile_qr_scan"}, "bike_id": "1e4320aa56a3504114b0eb77f9031638", "type": "electric_scooter", "is_disabled": 0, "fusion_lat": 0.0, "fusion_lon": 0.0, "is_reserved": 0, "name": "1e4320aa56a3504114b0eb77f9031638"}, {"lon": -76.9731, "lat": 38.865701333333334, "rental_uris": {"ios": "https://dc.lft.to/lastmile_qr_scan", "android": "https://dc.lft.to/lastmile_qr_scan"}, "bike_id": "2a1145c6d93aace0fbebefe094df5fdd", "type": "electric_scooter", "is_disabled": 0, "fusion_lat": 0.0, "fusion_lon": 0.0, "is_reserved": 0, "name": "2a1145c6d93aace0fbebefe094df5fdd"}, {"lon": -77.0186555, "lat": 38.973670166666665, "rental_uris": {"ios": "https://dc.lft.to/lastmile_qr_scan", "android": "https://dc.lft.to/lastmile_qr_scan"}, "bike_id": "7b89b335eb48ee2c05af731334aa33ed", "type": "electric_scooter", "is_disabled": 0, "fusion_lat": 0.0, "fusion_lon": 0.0, "is_reserved": 0, "name": "7b89b335eb48ee2c05af731334aa33ed"}, {"lon": -77.03152016666667, "lat": 38.91912083333333, "rental_uris": {"ios": "https://dc.lft.to/lastmile_qr_scan", "android": "https://dc.lft.to/lastmile_qr_scan"}, "bike_id": "687e9f2aad12938bae62318dac2381dc", "type": "electric_scooter", "is_disabled": 0, "fusion_lat": 0.0, "fusion_lon": 0.0, "is_reserved": 0, "name": "687e9f2aad12938bae62318dac2381dc"}, {"lon": -77.02306933333334, "lat": 38.92707566666667, "rental_uris": {"ios": "https://dc.lft.to/lastmile_qr_scan", "android": "https://dc.lft.to/lastmile_qr_scan"}, "bike_id": "e5794a626c047a50088c30ad31951605", "type": "electric_scooter", "is_disabled": 0, "fusion_lat": 0.0, "fusion_lon": 0.0, "is_reserved": 0, "name": "e5794a626c047a50088c30ad31951605"}, {"lon": -77.03869183333333, "lat": 38.92153366666667, "rental_uris": {"ios": "https://dc.lft.to/lastmile_qr_scan", "android": "https://dc.lft.to/lastmile_qr_scan"}, "bike_id": "b7013f0ebb7149e8cc709d50e1eaf1ce", "type": "electric_scooter", "is_disabled": 0, "fusion_lat": 0.0, "fusion_lon": 0.0, "is_reserved": 0, "name": "b7013f0ebb7149e8cc709d50e1eaf1ce"}, {"lon": -77.04359933333333, "lat": 38.92062, "rental_uris": {"ios": "https://dc.lft.to/lastmile_qr_scan", "android": "https://dc.lft.to/lastmile_qr_scan"}, "bike_id": "b6ced94c55c38f598738cbff42d5d798", "type": "electric_scooter", "is_disabled": 0, "fusion_lat": 0.0, "fusion_lon": 0.0, "is_reserved": 0, "name": "b6ced94c55c38f598738cbff42d5d798"}, {"lon": -77.00053183333333, "lat": 38.8766705, "rental_uris": {"ios": "https://dc.lft.to/lastmile_qr_scan", "android": "https://dc.lft.to/lastmile_qr_scan"}, "bike_id": "d31342ea48b03be2646590866fb2467e", "type": "electric_scooter", "is_disabled": 0, "fusion_lat": 0.0, "fusion_lon": 0.0, "is_reserved": 0, "name": "d31342ea48b03be2646590866fb2467e"}, {"lon": -77.0395935, "lat": 38.89249383333333, "rental_uris": {"ios": "https://dc.lft.to/lastmile_qr_scan", "android": "https://dc.lft.to/lastmile_qr_scan"}, "bike_id": "fa6d1bb468080db1de664b83305a69ec", "type": "electric_scooter", "is_disabled": 0, "fusion_lat": 0.0, "fusion_lon": 0.0, "is_reserved": 0, "name": "fa6d1bb468080db1de664b83305a69ec"}, {"lon": -76.98365616666666, "lat": 38.9150145, "rental_uris": {"ios": "https://dc.lft.to/lastmile_qr_scan", "android": "https://dc.lft.to/lastmile_qr_scan"}, "bike_id": "6db98c72a54fb5e1d6c0f6700c31c5da", "type": "electric_scooter", "is_disabled": 0, "fusion_lat": 0.0, "fusion_lon": 0.0, "is_reserved": 0, "name": "6db98c72a54fb5e1d6c0f6700c31c5da"}, {"lon": -77.03720833333334, "lat": 38.91690833333333, "rental_uris": {"ios": "https://dc.lft.to/lastmile_qr_scan", "android": "https://dc.lft.to/lastmile_qr_scan"}, "bike_id": "0a1363dcc7ad6865a7efa922c35ab0a4", "type": "electric_scooter", "is_disabled": 0, "fusion_lat": 0.0, "fusion_lon": 0.0, "is_reserved": 0, "name": "0a1363dcc7ad6865a7efa922c35ab0a4"}, {"lon": -77.03489866666666, "lat": 38.9248005, "rental_uris": {"ios": "https://dc.lft.to/lastmile_qr_scan", "android": "https://dc.lft.to/lastmile_qr_scan"}, "bike_id": "fd98b839ac63b479be1e9bb56a8bd982", "type": "electric_scooter", "is_disabled": 0, "fusion_lat": 0.0, "fusion_lon": 0.0, "is_reserved": 0, "name": "fd98b839ac63b479be1e9bb56a8bd982"}, {"lon": -77.03665283333333, "lat": 38.93059433333333, "rental_uris": {"ios": "https://dc.lft.to/lastmile_qr_scan", "android": "https://dc.lft.to/lastmile_qr_scan"}, "bike_id": "bc6c0b44dac41bd8f644f95a1e9867ff", "type": "electric_scooter", "is_disabled": 0, "fusion_lat": 0.0, "fusion_lon": 0.0, "is_reserved": 0, "name": "bc6c0b44dac41bd8f644f95a1e9867ff"}, {"lon": -77.04690766666667, "lat": 39.023951, "rental_uris": {"ios": "https://dc.lft.to/lastmile_qr_scan", "android": "https://dc.lft.to/lastmile_qr_scan"}, "bike_id": "f9eb771c8537709ae2257bbe1d73dda5", "type": "electric_bike", "is_disabled": 0, "fusion_lat": 0.0, "fusion_lon": 0.0, "is_reserved": 0, "name": "f9eb771c8537709ae2257bbe1d73dda5"}, {"lon": -77.11151466666666, "lat": 38.855138833333335, "rental_uris": {"ios": "https://dc.lft.to/lastmile_qr_scan", "android": "https://dc.lft.to/lastmile_qr_scan"}, "bike_id": "6d42824d2c5858bdfa83bfe5350882bc", "type": "electric_bike", "is_disabled": 0, "fusion_lat": 0.0, "fusion_lon": 0.0, "is_reserved": 0, "name": "6d42824d2c5858bdfa83bfe5350882bc"}, {"lon": -77.015846, "lat": 38.886128, "rental_uris": {"ios": "https://dc.lft.to/lastmile_qr_scan", "android": "https://dc.lft.to/lastmile_qr_scan"}, "bike_id": "5541cb4666f0c23feb6fa135de523785", "type": "electric_scooter", "is_disabled": 0, "fusion_lat": 0.0, "fusion_lon": 0.0, "is_reserved": 0, "name": "5541cb4666f0c23feb6fa135de523785"}, {"lon": -77.1874365, "lat": 38.89354316666667, "rental_uris": {"ios": "https://dc.lft.to/lastmile_qr_scan", "android": "https://dc.lft.to/lastmile_qr_scan"}, "bike_id": "2d5c98249a3450a2fbb2d1a6eeabee33", "type": "electric_bike", "is_disabled": 0, "fusion_lat": 0.0, "fusion_lon": 0.0, "is_reserved": 0, "name": "2d5c98249a3450a2fbb2d1a6eeabee33"}, {"lon": -77.02859583333333, "lat": 38.887452333333336, "rental_uris": {"ios": "https://dc.lft.to/lastmile_qr_scan", "android": "https://dc.lft.to/lastmile_qr_scan"}, "bike_id": "a10829233ba6809275af34587f3d066b", "type": "electric_scooter", "is_disabled": 0, "fusion_lat": 0.0, "fusion_lon": 0.0, "is_reserved": 0, "name": "a10829233ba6809275af34587f3d066b"}, {"lon": -77.02802083333333, "lat": 38.884295, "rental_uris": {"ios": "https://dc.lft.to/lastmile_qr_scan", "android": "https://dc.lft.to/lastmile_qr_scan"}, "bike_id": "73b7c31179a4c6606240aaa952149c99", "type": "electric_scooter", "is_disabled": 0, "fusion_lat": 0.0, "fusion_lon": 0.0, "is_reserved": 0, "name": "73b7c31179a4c6606240aaa952149c99"}, {"lon": -77.05325816666667, "lat": 38.904518, "rental_uris": {"ios": "https://dc.lft.to/lastmile_qr_scan", "android": "https://dc.lft.to/lastmile_qr_scan"}, "bike_id": "c1edbd964fc3d7ccf00eee9905f15b35", "type": "electric_scooter", "is_disabled": 0, "fusion_lat": 0.0, "fusion_lon": 0.0, "is_reserved": 0, "name": "c1edbd964fc3d7ccf00eee9905f15b35"}, {"lon": -77.06464883333334, "lat": 38.927451166666664, "rental_uris": {"ios": "https://dc.lft.to/lastmile_qr_scan", "android": "https://dc.lft.to/lastmile_qr_scan"}, "bike_id": "6c622d618fbb53f5e6fe104668397a95", "type": "electric_scooter", "is_disabled": 0, "fusion_lat": 0.0, "fusion_lon": 0.0, "is_reserved": 0, "name": "6c622d618fbb53f5e6fe104668397a95"}, {"lon": -77.0294955, "lat": 38.91268433333333, "rental_uris": {"ios": "https://dc.lft.to/lastmile_qr_scan", "android": "https://dc.lft.to/lastmile_qr_scan"}, "bike_id": "ce30bb7453f0949675ba5952e28c5370", "type": "electric_scooter", "is_disabled": 0, "fusion_lat": 0.0, "fusion_lon": 0.0, "is_reserved": 0, "name": "ce30bb7453f0949675ba5952e28c5370"}, {"lon": -77.02288133333333, "lat": 38.91687983333333, "rental_uris": {"ios": "https://dc.lft.to/lastmile_qr_scan", "android": "https://dc.lft.to/lastmile_qr_scan"}, "bike_id": "9620cb758b316ab775e44615aa8c3e2d", "type": "electric_scooter", "is_disabled": 0, "fusion_lat": 0.0, "fusion_lon": 0.0, "is_reserved": 0, "name": "9620cb758b316ab775e44615aa8c3e2d"}, {"lon": -77.0510675, "lat": 39.03671383333333, "rental_uris": {"ios": "https://dc.lft.to/lastmile_qr_scan", "android": "https://dc.lft.to/lastmile_qr_scan"}, "bike_id": "cc2c44d8dac30e96502649d0806cb5d3", "type": "electric_bike", "is_disabled": 0, "fusion_lat": 0.0, "fusion_lon": 0.0, "is_reserved": 0, "name": "cc2c44d8dac30e96502649d0806cb5d3"}, {"lon": -76.99860683333333, "lat": 38.886374, "rental_uris": {"ios": "https://dc.lft.to/lastmile_qr_scan", "android": "https://dc.lft.to/lastmile_qr_scan"}, "bike_id": "e0f14c8a86528dc3747b038c9a90e7db", "type": "electric_scooter", "is_disabled": 0, "fusion_lat": 0.0, "fusion_lon": 0.0, "is_reserved": 0, "name": "e0f14c8a86528dc3747b038c9a90e7db"}, {"lon": -77.02847733333333, "lat": 38.887469333333335, "rental_uris": {"ios": "https://dc.lft.to/lastmile_qr_scan", "android": "https://dc.lft.to/lastmile_qr_scan"}, "bike_id": "26247454d38e4ca9199874b997aad668", "type": "electric_scooter", "is_disabled": 0, "fusion_lat": 0.0, "fusion_lon": 0.0, "is_reserved": 0, "name": "26247454d38e4ca9199874b997aad668"}, {"lon": -77.03879833333333, "lat": 38.892017, "rental_uris": {"ios": "https://dc.lft.to/lastmile_qr_scan", "android": "https://dc.lft.to/lastmile_qr_scan"}, "bike_id": "6c888fe9f974ae537c473dc134f0f56f", "type": "electric_scooter", "is_disabled": 0, "fusion_lat": 0.0, "fusion_lon": 0.0, "is_reserved": 0, "name": "6c888fe9f974ae537c473dc134f0f56f"}, {"lon": -76.99818516666667, "lat": 38.907317166666665, "rental_uris": {"ios": "https://dc.lft.to/lastmile_qr_scan", "android": "https://dc.lft.to/lastmile_qr_scan"}, "bike_id": "ff57998ca81a9d57b5673b08d3fe3a66", "type": "electric_scooter", "is_disabled": 0, "fusion_lat": 0.0, "fusion_lon": 0.0, "is_reserved": 0, "name": "ff57998ca81a9d57b5673b08d3fe3a66"}, {"lon": -77.04403433333333, "lat": 38.909212, "rental_uris": {"ios": "https://dc.lft.to/lastmile_qr_scan", "android": "https://dc.lft.to/lastmile_qr_scan"}, "bike_id": "d540f933cf2d97315d34d4d19e5b66d6", "type": "electric_scooter", "is_disabled": 0, "fusion_lat": 0.0, "fusion_lon": 0.0, "is_reserved": 0, "name": "d540f933cf2d97315d34d4d19e5b66d6"}, {"lon": -76.99119016666667, "lat": 38.933615333333336, "rental_uris": {"ios": "https://dc.lft.to/lastmile_qr_scan", "android": "https://dc.lft.to/lastmile_qr_scan"}, "bike_id": "a07924f1e6269a4b5c5f9daa25fa52de", "type": "electric_scooter", "is_disabled": 0, "fusion_lat": 0.0, "fusion_lon": 0.0, "is_reserved": 0, "name": "a07924f1e6269a4b5c5f9daa25fa52de"}, {"lon": -77.0503215, "lat": 38.90142983333333, "rental_uris": {"ios": "https://dc.lft.to/lastmile_qr_scan", "android": "https://dc.lft.to/lastmile_qr_scan"}, "bike_id": "6476c9d72bff73ca66d9a2017c94e0f3", "type": "electric_scooter", "is_disabled": 0, "fusion_lat": 0.0, "fusion_lon": 0.0, "is_reserved": 0, "name": "6476c9d72bff73ca66d9a2017c94e0f3"}, {"lon": -76.9678585, "lat": 38.873425, "rental_uris": {"ios": "https://dc.lft.to/lastmile_qr_scan", "android": "https://dc.lft.to/lastmile_qr_scan"}, "bike_id": "29d5b598c33ffc5f59718b24bb264b01", "type": "electric_scooter", "is_disabled": 0, "fusion_lat": 0.0, "fusion_lon": 0.0, "is_reserved": 0, "name": "29d5b598c33ffc5f59718b24bb264b01"}, {"lon": -77.03815016666667, "lat": 38.93094033333333, "rental_uris": {"ios": "https://dc.lft.to/lastmile_qr_scan", "android": "https://dc.lft.to/lastmile_qr_scan"}, "bike_id": "8a863918880cf8dc6094a818f4f29687", "type": "electric_scooter", "is_disabled": 0, "fusion_lat": 0.0, "fusion_lon": 0.0, "is_reserved": 0, "name": "8a863918880cf8dc6094a818f4f29687"}, {"lon": -77.07907916666667, "lat": 38.9480615, "rental_uris": {"ios": "https://dc.lft.to/lastmile_qr_scan", "android": "https://dc.lft.to/lastmile_qr_scan"}, "bike_id": "67c1670810e97aa79740e531580956ee", "type": "electric_scooter", "is_disabled": 0, "fusion_lat": 0.0, "fusion_lon": 0.0, "is_reserved": 0, "name": "67c1670810e97aa79740e531580956ee"}, {"lon": -77.0448515, "lat": 38.9110705, "rental_uris": {"ios": "https://dc.lft.to/lastmile_qr_scan", "android": "https://dc.lft.to/lastmile_qr_scan"}, "bike_id": "7ed755ca75fdc3b803a25ec1fbfbb6d9", "type": "electric_scooter", "is_disabled": 0, "fusion_lat": 0.0, "fusion_lon": 0.0, "is_reserved": 0, "name": "7ed755ca75fdc3b803a25ec1fbfbb6d9"}, {"lon": -77.016942, "lat": 38.9053015, "rental_uris": {"ios": "https://dc.lft.to/lastmile_qr_scan", "android": "https://dc.lft.to/lastmile_qr_scan"}, "bike_id": "8ed172d0823d1b7caececcd4bd8912ad", "type": "electric_scooter", "is_disabled": 0, "fusion_lat": 0.0, "fusion_lon": 0.0, "is_reserved": 0, "name": "8ed172d0823d1b7caececcd4bd8912ad"}, {"lon": -77.04379766666666, "lat": 38.921147833333336, "rental_uris": {"ios": "https://dc.lft.to/lastmile_qr_scan", "android": "https://dc.lft.to/lastmile_qr_scan"}, "bike_id": "8ffb44f6fc0e345a71d5fb256c0aed9d", "type": "electric_scooter", "is_disabled": 0, "fusion_lat": 0.0, "fusion_lon": 0.0, "is_reserved": 0, "name": "8ffb44f6fc0e345a71d5fb256c0aed9d"}, {"lon": -77.02247033333333, "lat": 38.92285583333334, "rental_uris": {"ios": "https://dc.lft.to/lastmile_qr_scan", "android": "https://dc.lft.to/lastmile_qr_scan"}, "bike_id": "79e5dd25d639eb58591f24285fa3b3cb", "type": "electric_scooter", "is_disabled": 0, "fusion_lat": 0.0, "fusion_lon": 0.0, "is_reserved": 0, "name": "79e5dd25d639eb58591f24285fa3b3cb"}, {"lon": -77.04348516666667, "lat": 38.910671, "rental_uris": {"ios": "https://dc.lft.to/lastmile_qr_scan", "android": "https://dc.lft.to/lastmile_qr_scan"}, "bike_id": "ee0a9220f19c11a5eb1a51966eea2e62", "type": "electric_scooter", "is_disabled": 0, "fusion_lat": 0.0, "fusion_lon": 0.0, "is_reserved": 0, "name": "ee0a9220f19c11a5eb1a51966eea2e62"}, {"lon": -77.06583483333333, "lat": 38.903558333333336, "rental_uris": {"ios": "https://dc.lft.to/lastmile_qr_scan", "android": "https://dc.lft.to/lastmile_qr_scan"}, "bike_id": "7a5a73d6ee366cd7162b950518eee037", "type": "electric_scooter", "is_disabled": 0, "fusion_lat": 0.0, "fusion_lon": 0.0, "is_reserved": 0, "name": "7a5a73d6ee366cd7162b950518eee037"}, {"lon": -77.01513783333333, "lat": 38.892436833333335, "rental_uris": {"ios": "https://dc.lft.to/lastmile_qr_scan", "android": "https://dc.lft.to/lastmile_qr_scan"}, "bike_id": "1e22821dda008eacfa3c811ec4884346", "type": "electric_scooter", "is_disabled": 0, "fusion_lat": 0.0, "fusion_lon": 0.0, "is_reserved": 0, "name": "1e22821dda008eacfa3c811ec4884346"}, {"lon": -77.0176385, "lat": 38.885894, "rental_uris": {"ios": "https://dc.lft.to/lastmile_qr_scan", "android": "https://dc.lft.to/lastmile_qr_scan"}, "bike_id": "bfe099b50207b57945eb94fb7f7636ed", "type": "electric_scooter", "is_disabled": 0, "fusion_lat": 0.0, "fusion_lon": 0.0, "is_reserved": 0, "name": "bfe099b50207b57945eb94fb7f7636ed"}, {"lon": -77.00598533333333, "lat": 38.885209333333336, "rental_uris": {"ios": "https://dc.lft.to/lastmile_qr_scan", "android": "https://dc.lft.to/lastmile_qr_scan"}, "bike_id": "6d3b63d98e0b79484ed0bb5ec09ebd33", "type": "electric_scooter", "is_disabled": 0, "fusion_lat": 0.0, "fusion_lon": 0.0, "is_reserved": 0, "name": "6d3b63d98e0b79484ed0bb5ec09ebd33"}, {"lon": -77.043788, "lat": 38.89222483333333, "rental_uris": {"ios": "https://dc.lft.to/lastmile_qr_scan", "android": "https://dc.lft.to/lastmile_qr_scan"}, "bike_id": "7427d929c60ff6c3d302b5cfec0bd62d", "type": "electric_scooter", "is_disabled": 0, "fusion_lat": 0.0, "fusion_lon": 0.0, "is_reserved": 0, "name": "7427d929c60ff6c3d302b5cfec0bd62d"}, {"lon": -76.99794116666666, "lat": 38.95087066666667, "rental_uris": {"ios": "https://dc.lft.to/lastmile_qr_scan", "android": "https://dc.lft.to/lastmile_qr_scan"}, "bike_id": "32f16027ee73f54bb78b63ec40abeec6", "type": "electric_bike", "is_disabled": 0, "fusion_lat": 0.0, "fusion_lon": 0.0, "is_reserved": 0, "name": "32f16027ee73f54bb78b63ec40abeec6"}, {"lon": -77.01102166666666, "lat": 38.90356283333333, "rental_uris": {"ios": "https://dc.lft.to/lastmile_qr_scan", "android": "https://dc.lft.to/lastmile_qr_scan"}, "bike_id": "d7cc32bc7f2af12f84fe7d27545dc9be", "type": "electric_scooter", "is_disabled": 0, "fusion_lat": 0.0, "fusion_lon": 0.0, "is_reserved": 0, "name": "d7cc32bc7f2af12f84fe7d27545dc9be"}, {"lon": -77.04674183333333, "lat": 38.904269166666666, "rental_uris": {"ios": "https://dc.lft.to/lastmile_qr_scan", "android": "https://dc.lft.to/lastmile_qr_scan"}, "bike_id": "a974d09bfd6c08475dd86827d39ea5c8", "type": "electric_scooter", "is_disabled": 0, "fusion_lat": 0.0, "fusion_lon": 0.0, "is_reserved": 0, "name": "a974d09bfd6c08475dd86827d39ea5c8"}, {"lon": -77.0130325, "lat": 38.930017, "rental_uris": {"ios": "https://dc.lft.to/lastmile_qr_scan", "android": "https://dc.lft.to/lastmile_qr_scan"}, "bike_id": "6be167a7df1befc50863aaea2e24e45c", "type": "electric_scooter", "is_disabled": 0, "fusion_lat": 0.0, "fusion_lon": 0.0, "is_reserved": 0, "name": "6be167a7df1befc50863aaea2e24e45c"}, {"lon": -77.04667233333333, "lat": 38.90014033333333, "rental_uris": {"ios": "https://dc.lft.to/lastmile_qr_scan", "android": "https://dc.lft.to/lastmile_qr_scan"}, "bike_id": "c5fb80d5c609fc839560cf6762fa13bc", "type": "electric_scooter", "is_disabled": 0, "fusion_lat": 0.0, "fusion_lon": 0.0, "is_reserved": 0, "name": "c5fb80d5c609fc839560cf6762fa13bc"}, {"lon": -77.02848483333334, "lat": 38.917047833333335, "rental_uris": {"ios": "https://dc.lft.to/lastmile_qr_scan", "android": "https://dc.lft.to/lastmile_qr_scan"}, "bike_id": "7d3489fcfc905db3710c8ec20a63a3a5", "type": "electric_scooter", "is_disabled": 0, "fusion_lat": 0.0, "fusion_lon": 0.0, "is_reserved": 0, "name": "7d3489fcfc905db3710c8ec20a63a3a5"}, {"lon": -77.04400766666667, "lat": 38.895775, "rental_uris": {"ios": "https://dc.lft.to/lastmile_qr_scan", "android": "https://dc.lft.to/lastmile_qr_scan"}, "bike_id": "005ecee0d8e24fbd913a9d6453299189", "type": "electric_scooter", "is_disabled": 0, "fusion_lat": 0.0, "fusion_lon": 0.0, "is_reserved": 0, "name": "005ecee0d8e24fbd913a9d6453299189"}, {"lon": -77.0326255, "lat": 38.92908833333333, "rental_uris": {"ios": "https://dc.lft.to/lastmile_qr_scan", "android": "https://dc.lft.to/lastmile_qr_scan"}, "bike_id": "a6721466c122b82f85fc0485aedcaf54", "type": "electric_scooter", "is_disabled": 0, "fusion_lat": 0.0, "fusion_lon": 0.0, "is_reserved": 0, "name": "a6721466c122b82f85fc0485aedcaf54"}, {"lon": -77.038577, "lat": 38.903711, "rental_uris": {"ios": "https://dc.lft.to/lastmile_qr_scan", "android": "https://dc.lft.to/lastmile_qr_scan"}, "bike_id": "9842849287d704bf148d7f4065d13db1", "type": "electric_scooter", "is_disabled": 0, "fusion_lat": 0.0, "fusion_lon": 0.0, "is_reserved": 0, "name": "9842849287d704bf148d7f4065d13db1"}, {"lon": -76.995309, "lat": 38.883714499999996, "rental_uris": {"ios": "https://dc.lft.to/lastmile_qr_scan", "android": "https://dc.lft.to/lastmile_qr_scan"}, "bike_id": "b89710815adf9f612d8ec953e0625163", "type": "electric_scooter", "is_disabled": 0, "fusion_lat": 0.0, "fusion_lon": 0.0, "is_reserved": 0, "name": "b89710815adf9f612d8ec953e0625163"}, {"lon": -77.02206183333334, "lat": 38.887151833333334, "rental_uris": {"ios": "https://dc.lft.to/lastmile_qr_scan", "android": "https://dc.lft.to/lastmile_qr_scan"}, "bike_id": "f2a28004480a036ca29ce19fe1f8807f", "type": "electric_scooter", "is_disabled": 0, "fusion_lat": 0.0, "fusion_lon": 0.0, "is_reserved": 0, "name": "f2a28004480a036ca29ce19fe1f8807f"}, {"lon": -77.04895433333333, "lat": 38.90066516666667, "rental_uris": {"ios": "https://dc.lft.to/lastmile_qr_scan", "android": "https://dc.lft.to/lastmile_qr_scan"}, "bike_id": "78cd6693938b34c077319c8f71a68a41", "type": "electric_scooter", "is_disabled": 0, "fusion_lat": 0.0, "fusion_lon": 0.0, "is_reserved": 0, "name": "78cd6693938b34c077319c8f71a68a41"}, {"lon": -77.03226483333333, "lat": 38.897767, "rental_uris": {"ios": "https://dc.lft.to/lastmile_qr_scan", "android": "https://dc.lft.to/lastmile_qr_scan"}, "bike_id": "789e1dc8d18953490da1c849b6d08184", "type": "electric_scooter", "is_disabled": 0, "fusion_lat": 0.0, "fusion_lon": 0.0, "is_reserved": 0, "name": "789e1dc8d18953490da1c849b6d08184"}, {"lon": -77.05021283333333, "lat": 38.907211333333336, "rental_uris": {"ios": "https://dc.lft.to/lastmile_qr_scan", "android": "https://dc.lft.to/lastmile_qr_scan"}, "bike_id": "0e5bd0cfcb2c978516ffa9b77f27903c", "type": "electric_scooter", "is_disabled": 0, "fusion_lat": 0.0, "fusion_lon": 0.0, "is_reserved": 0, "name": "0e5bd0cfcb2c978516ffa9b77f27903c"}, {"lon": -77.04174983333333, "lat": 38.916557, "rental_uris": {"ios": "https://dc.lft.to/lastmile_qr_scan", "android": "https://dc.lft.to/lastmile_qr_scan"}, "bike_id": "213eed6f896d5210044d0a56ff0fe677", "type": "electric_scooter", "is_disabled": 0, "fusion_lat": 0.0, "fusion_lon": 0.0, "is_reserved": 0, "name": "213eed6f896d5210044d0a56ff0fe677"}, {"lon": -77.0059745, "lat": 38.885188166666666, "rental_uris": {"ios": "https://dc.lft.to/lastmile_qr_scan", "android": "https://dc.lft.to/lastmile_qr_scan"}, "bike_id": "1b76daaf2492720d1eb82a35f752a0e5", "type": "electric_scooter", "is_disabled": 0, "fusion_lat": 0.0, "fusion_lon": 0.0, "is_reserved": 0, "name": "1b76daaf2492720d1eb82a35f752a0e5"}, {"lon": -77.03865383333333, "lat": 38.902770833333335, "rental_uris": {"ios": "https://dc.lft.to/lastmile_qr_scan", "android": "https://dc.lft.to/lastmile_qr_scan"}, "bike_id": "be79bc0abc40dbf9cc17030240454e3a", "type": "electric_scooter", "is_disabled": 0, "fusion_lat": 0.0, "fusion_lon": 0.0, "is_reserved": 0, "name": "be79bc0abc40dbf9cc17030240454e3a"}, {"lon": -77.026233, "lat": 38.962257666666666, "rental_uris": {"ios": "https://dc.lft.to/lastmile_qr_scan", "android": "https://dc.lft.to/lastmile_qr_scan"}, "bike_id": "8aaf7796114fafa811e7401c57335ab5", "type": "electric_bike", "is_disabled": 0, "fusion_lat": 0.0, "fusion_lon": 0.0, "is_reserved": 0, "name": "8aaf7796114fafa811e7401c57335ab5"}, {"lon": -77.03632916666666, "lat": 38.90382, "rental_uris": {"ios": "https://dc.lft.to/lastmile_qr_scan", "android": "https://dc.lft.to/lastmile_qr_scan"}, "bike_id": "efd2b4f427d0a74b3894acdaf15362c6", "type": "electric_scooter", "is_disabled": 0, "fusion_lat": 0.0, "fusion_lon": 0.0, "is_reserved": 0, "name": "efd2b4f427d0a74b3894acdaf15362c6"}, {"lon": -76.90815583333334, "lat": 39.0028925, "rental_uris": {"ios": "https://dc.lft.to/lastmile_qr_scan", "android": "https://dc.lft.to/lastmile_qr_scan"}, "bike_id": "f5a03df4a8da5e49459aef2b7debe069", "type": "electric_bike", "is_disabled": 0, "fusion_lat": 0.0, "fusion_lon": 0.0, "is_reserved": 0, "name": "f5a03df4a8da5e49459aef2b7debe069"}, {"lon": -77.01224883333333, "lat": 38.877318, "rental_uris": {"ios": "https://dc.lft.to/lastmile_qr_scan", "android": "https://dc.lft.to/lastmile_qr_scan"}, "bike_id": "72537b204c8e97a9d1b09436a28dad94", "type": "electric_scooter", "is_disabled": 0, "fusion_lat": 0.0, "fusion_lon": 0.0, "is_reserved": 0, "name": "72537b204c8e97a9d1b09436a28dad94"}, {"lon": -76.98616033333333, "lat": 38.938289, "rental_uris": {"ios": "https://dc.lft.to/lastmile_qr_scan", "android": "https://dc.lft.to/lastmile_qr_scan"}, "bike_id": "eee2468b327575b0d4f8936c426d2e4a", "type": "electric_scooter", "is_disabled": 0, "fusion_lat": 0.0, "fusion_lon": 0.0, "is_reserved": 0, "name": "eee2468b327575b0d4f8936c426d2e4a"}, {"lon": -76.95144783333333, "lat": 38.890406, "rental_uris": {"ios": "https://dc.lft.to/lastmile_qr_scan", "android": "https://dc.lft.to/lastmile_qr_scan"}, "bike_id": "f2bd1a399c92a9df6c7fdcdd090f846b", "type": "electric_scooter", "is_disabled": 0, "fusion_lat": 0.0, "fusion_lon": 0.0, "is_reserved": 0, "name": "f2bd1a399c92a9df6c7fdcdd090f846b"}, {"lon": -77.02293933333333, "lat": 38.917419833333334, "rental_uris": {"ios": "https://dc.lft.to/lastmile_qr_scan", "android": "https://dc.lft.to/lastmile_qr_scan"}, "bike_id": "77d1482152f1400b622ce747014492ee", "type": "electric_scooter", "is_disabled": 0, "fusion_lat": 0.0, "fusion_lon": 0.0, "is_reserved": 0, "name": "77d1482152f1400b622ce747014492ee"}, {"lon": -77.04333233333334, "lat": 38.8995035, "rental_uris": {"ios": "https://dc.lft.to/lastmile_qr_scan", "android": "https://dc.lft.to/lastmile_qr_scan"}, "bike_id": "5ae11aff76a5a8ba1a2490f5aa2e715c", "type": "electric_scooter", "is_disabled": 0, "fusion_lat": 0.0, "fusion_lon": 0.0, "is_reserved": 0, "name": "5ae11aff76a5a8ba1a2490f5aa2e715c"}, {"lon": -76.97700233333333, "lat": 38.949148666666666, "rental_uris": {"ios": "https://dc.lft.to/lastmile_qr_scan", "android": "https://dc.lft.to/lastmile_qr_scan"}, "bike_id": "e03fd806c7edd43de1c02ba8e65a0488", "type": "electric_bike", "is_disabled": 0, "fusion_lat": 0.0, "fusion_lon": 0.0, "is_reserved": 0, "name": "e03fd806c7edd43de1c02ba8e65a0488"}, {"lon": -77.00403283333333, "lat": 38.921357, "rental_uris": {"ios": "https://dc.lft.to/lastmile_qr_scan", "android": "https://dc.lft.to/lastmile_qr_scan"}, "bike_id": "b152e5162492a62d6c8089391c0e1f07", "type": "electric_scooter", "is_disabled": 0, "fusion_lat": 0.0, "fusion_lon": 0.0, "is_reserved": 0, "name": "b152e5162492a62d6c8089391c0e1f07"}, {"lon": -77.02363516666666, "lat": 38.89220233333333, "rental_uris": {"ios": "https://dc.lft.to/lastmile_qr_scan", "android": "https://dc.lft.to/lastmile_qr_scan"}, "bike_id": "e6b322d0dea9a151cad5bccd2809712d", "type": "electric_scooter", "is_disabled": 0, "fusion_lat": 0.0, "fusion_lon": 0.0, "is_reserved": 0, "name": "e6b322d0dea9a151cad5bccd2809712d"}, {"lon": -77.02501533333333, "lat": 38.906386, "rental_uris": {"ios": "https://dc.lft.to/lastmile_qr_scan", "android": "https://dc.lft.to/lastmile_qr_scan"}, "bike_id": "82ea274de4d4d1ae9c1a60dc054ce428", "type": "electric_scooter", "is_disabled": 0, "fusion_lat": 0.0, "fusion_lon": 0.0, "is_reserved": 0, "name": "82ea274de4d4d1ae9c1a60dc054ce428"}, {"lon": -77.3609275, "lat": 38.939567, "rental_uris": {"ios": "https://dc.lft.to/lastmile_qr_scan", "android": "https://dc.lft.to/lastmile_qr_scan"}, "bike_id": "79a61fff49f54ffa9ad82f6322956e49", "type": "electric_bike", "is_disabled": 0, "fusion_lat": 0.0, "fusion_lon": 0.0, "is_reserved": 0, "name": "79a61fff49f54ffa9ad82f6322956e49"}, {"lon": -77.0409145, "lat": 38.90560083333333, "rental_uris": {"ios": "https://dc.lft.to/lastmile_qr_scan", "android": "https://dc.lft.to/lastmile_qr_scan"}, "bike_id": "a6c247fbd0bf8e17c817907eb1544c61", "type": "electric_scooter", "is_disabled": 0, "fusion_lat": 0.0, "fusion_lon": 0.0, "is_reserved": 0, "name": "a6c247fbd0bf8e17c817907eb1544c61"}, {"lon": -77.04492466666666, "lat": 38.90511, "rental_uris": {"ios": "https://dc.lft.to/lastmile_qr_scan", "android": "https://dc.lft.to/lastmile_qr_scan"}, "bike_id": "a8dc1809880762a57a6e77abaa98dff5", "type": "electric_scooter", "is_disabled": 0, "fusion_lat": 0.0, "fusion_lon": 0.0, "is_reserved": 0, "name": "a8dc1809880762a57a6e77abaa98dff5"}, {"lon": -77.04224883333333, "lat": 38.92165216666667, "rental_uris": {"ios": "https://dc.lft.to/lastmile_qr_scan", "android": "https://dc.lft.to/lastmile_qr_scan"}, "bike_id": "959236dfeb6524e3a7b003029947e9ec", "type": "electric_scooter", "is_disabled": 0, "fusion_lat": 0.0, "fusion_lon": 0.0, "is_reserved": 0, "name": "959236dfeb6524e3a7b003029947e9ec"}, {"lon": -77.02904733333334, "lat": 38.92815316666667, "rental_uris": {"ios": "https://dc.lft.to/lastmile_qr_scan", "android": "https://dc.lft.to/lastmile_qr_scan"}, "bike_id": "8c7c1778baada7b26b6aac8552ba0292", "type": "electric_scooter", "is_disabled": 0, "fusion_lat": 0.0, "fusion_lon": 0.0, "is_reserved": 0, "name": "8c7c1778baada7b26b6aac8552ba0292"}, {"lon": -76.99879833333334, "lat": 38.9012535, "rental_uris": {"ios": "https://dc.lft.to/lastmile_qr_scan", "android": "https://dc.lft.to/lastmile_qr_scan"}, "bike_id": "f66cfe5b934103e0602fb99e2da74723", "type": "electric_scooter", "is_disabled": 0, "fusion_lat": 0.0, "fusion_lon": 0.0, "is_reserved": 0, "name": "f66cfe5b934103e0602fb99e2da74723"}, {"lon": -77.02584233333333, "lat": 38.920352333333334, "rental_uris": {"ios": "https://dc.lft.to/lastmile_qr_scan", "android": "https://dc.lft.to/lastmile_qr_scan"}, "bike_id": "42a0e3438351d34435ec2ffed8c33116", "type": "electric_scooter", "is_disabled": 0, "fusion_lat": 0.0, "fusion_lon": 0.0, "is_reserved": 0, "name": "42a0e3438351d34435ec2ffed8c33116"}, {"lon": -77.08032466666667, "lat": 38.923882, "rental_uris": {"ios": "https://dc.lft.to/lastmile_qr_scan", "android": "https://dc.lft.to/lastmile_qr_scan"}, "bike_id": "6c4f9386c4fd6a06e20af2f8699d5376", "type": "electric_scooter", "is_disabled": 0, "fusion_lat": 0.0, "fusion_lon": 0.0, "is_reserved": 0, "name": "6c4f9386c4fd6a06e20af2f8699d5376"},