{"data": {"bikes": [{"lon": -76.93357383333333, "bike_id": "c8806a584586ac8e01439119ad0551df", "lat": 38.8879835, "fusion_lon": 0.0, "fusion_lat": 0.0, "type": "electric_scooter", "name": "c8806a584586ac8e01439119ad0551df", "is_disabled": 0, "rental_uris": {"ios": "https://dc.lft.to/lastmile_qr_scan", "android": "https://dc.lft.to/lastmile_qr_scan"}, "is_reserved": 0}, {"lon": -77.03271366666667, "bike_id": "d5b9c925945ed2346741028242f85188", "lat": 38.932605, "fusion_lon": 0.0, "fusion_lat": 0.0, "type": "electric_scooter", "name": "d5b9c925945ed2346741028242f85188", "is_disabled": 0, "rental_uris": {"ios": "https://dc.lft.to/lastmile_qr_scan", "android": "https://dc.lft.to/lastmile_qr_scan"}, "is_reserved": 0}, {"lon": -77.0100225, "bike_id": "bb7f1c47d6c734b5cb6426748a56eb7d", "lat": 38.919257, "fusion_lon": 0.0, "fusion_lat": 0.0, "type": "electric_scooter", "name": "bb7f1c47d6c734b5cb6426748a56eb7d", "is_disabled": 0, "rental_uris": {"ios": "https://dc.lft.to/lastmile_qr_scan", "android": "https://dc.lft.to/lastmile_qr_scan"}, "is_reserved": 0}, {"lon": -77.02514633333334, "bike_id": "deca9d65a3d4df5c9438db89af0ec0f5", "lat": 38.930984333333335, "fusion_lon": 0.0, "fusion_lat": 0.0, "type": "electric_scooter", "name": "deca9d65a3d4df5c9438db89af0ec0f5", "is_disabled": 0, "rental_uris": {"ios": "https://dc.lft.to/lastmile_qr_scan", "android": "https://dc.lft.to/lastmile_qr_scan"}, "is_reserved": 0}, {"lon": -77.04262316666667, "bike_id": "4d6b6532622747420a9a5ff51f1386a0", "lat": 38.90744516666667, "fusion_lon": 0.0, "fusion_lat": 0.0, "type": "electric_scooter", "name": "4d6b6532622747420a9a5ff51f1386a0", "is_disabled": 0, "rental_uris": {"ios": "https://dc.lft.to/lastmile_qr_scan", "android": "https://dc.lft.to/lastmile_qr_scan"}, "is_reserved": 0}, {"lon": -76.94874566666667, "bike_id": "0f4d283e104c8106ea5b54ff083ec158", "lat": 38.895486166666664, "fusion_lon": 0.0, "fusion_lat": 0.0, "type": "electric_scooter", "name": "0f4d283e104c8106ea5b54ff083ec158", "is_disabled": 0, "rental_uris": {"ios": "https://dc.lft.to/lastmile_qr_scan", "android": "https://dc.lft.to/lastmile_qr_scan"}, "is_reserved": 0}, {"lon": -77.02948866666667, "bike_id": "f77b1ca5edf57156619d6e3e5ae9e45b", "lat": 38.923726333333335, "fusion_lon": 0.0, "fusion_lat": 0.0, "type": "electric_scooter", "name": "f77b1ca5edf57156619d6e3e5ae9e45b", "is_disabled": 0, "rental_uris": {"ios": "https://dc.lft.to/lastmile_qr_scan", "android": "https://dc.lft.to/lastmile_qr_scan"}, "is_reserved": 0}, {"lon": -77.048003, "bike_id": "5b6148e973d86c018437e3de0524a1e8", "lat": 38.90956383333334, "fusion_lon": 0.0, "fusion_lat": 0.0, "type": "electric_scooter", "name": "5b6148e973d86c018437e3de0524a1e8", "is_disabled": 0, "rental_uris": {"ios": "https://dc.lft.to/lastmile_qr_scan", "android": "https://dc.lft.to/lastmile_qr_scan"}, "is_reserved": 0}, {"lon": -77.02793683333333, "bike_id": "8c690393b1984cc5158dc81a0881eb29", "lat": 38.92974733333333, "fusion_lon": 0.0, "fusion_lat": 0.0, "type": "electric_scooter", "name": "8c690393b1984cc5158dc81a0881eb29", "is_disabled": 0, "rental_uris": {"ios": "https://dc.lft.to/lastmile_qr_scan", "android": "https://dc.lft.to/lastmile_qr_scan"}, "is_reserved": 0}, {"lon": -77.054345, "bike_id": "15410214d5168d302963532c9990aa39", "lat": 38.92846866666667, "fusion_lon": 0.0, "fusion_lat": 0.0, "type": "electric_bike", "name": "15410214d5168d302963532c9990aa39", "is_disabled": 0, "rental_uris": {"ios": "https://dc.lft.to/lastmile_qr_scan", "android": "https://dc.lft.to/lastmile_qr_scan"}, "is_reserved": 0}, {"lon": -76.97425216666667, "bike_id": "f7fa61a6508512814b574b2ef6586616", "lat": 38.904016666666664, "fusion_lon": 0.0, "fusion_lat": 0.0, "type": "electric_scooter", "name": "f7fa61a6508512814b574b2ef6586616", "is_disabled": 0, "rental_uris": {"ios": "https://dc.lft.to/lastmile_qr_scan", "android": "https://dc.lft.to/lastmile_qr_scan"}, "is_reserved": 0}, {"lon": -77.0398805, "bike_id": "d7d12a3f7a81f0016b2950129a454fce", "lat": 38.93393433333333, "fusion_lon": 0.0, "fusion_lat": 0.0, "type": "electric_bike", "name": "d7d12a3f7a81f0016b2950129a454fce", "is_disabled": 0, "rental_uris": {"ios": "https://dc.lft.to/lastmile_qr_scan", "android": "https://dc.lft.to/lastmile_qr_scan"}, "is_reserved": 0}, {"lon": -77.03348266666667, "bike_id": "4232fd7074c2006194dc62a603b51271", "lat": 38.907129166666664, "fusion_lon": 0.0, "fusion_lat": 0.0, "type": "electric_scooter", "name": "4232fd7074c2006194dc62a603b51271", "is_disabled": 0, "rental_uris": {"ios": "https://dc.lft.to/lastmile_qr_scan", "android": "https://dc.lft.to/lastmile_qr_scan"}, "is_reserved": 0}, {"lon": -77.00007333333333, "bike_id": "4c575aa7de02e5231933828590ad5799", "lat": 38.89739016666667, "fusion_lon": 0.0, "fusion_lat": 0.0, "type": "electric_scooter", "name": "4c575aa7de02e5231933828590ad5799", "is_disabled": 0, "rental_uris": {"ios": "https://dc.lft.to/lastmile_qr_scan", "android": "https://dc.lft.to/lastmile_qr_scan"}, "is_reserved": 0}, {"lon": -77.02507116666666, "bike_id": "b0c250d4bd6c94c35b67341421393dca", "lat": 38.92076016666667, "fusion_lon": 0.0, "fusion_lat": 0.0, "type": "electric_scooter", "name": "b0c250d4bd6c94c35b67341421393dca", "is_disabled": 0, "rental_uris": {"ios": "https://dc.lft.to/lastmile_qr_scan", "android": "https://dc.lft.to/lastmile_qr_scan"}, "is_reserved": 0}, {"lon": -76.99867516666667, "bike_id": "3b61fd727dece30eb1d7511af6dfdbaf", "lat": 38.900253, "fusion_lon": 0.0, "fusion_lat": 0.0, "type": "electric_scooter", "name": "3b61fd727dece30eb1d7511af6dfdbaf", "is_disabled": 0, "rental_uris": {"ios": "https://dc.lft.to/lastmile_qr_scan", "android": "https://dc.lft.to/lastmile_qr_scan"}, "is_reserved": 0}, {"lon": -77.0152085, "bike_id": "5c80297f9004eebf78096edcc81fffd7", "lat": 38.88498966666667, "fusion_lon": 0.0, "fusion_lat": 0.0, "type": "electric_scooter", "name": "5c80297f9004eebf78096edcc81fffd7", "is_disabled": 0, "rental_uris": {"ios": "https://dc.lft.to/lastmile_qr_scan", "android": "https://dc.lft.to/lastmile_qr_scan"}, "is_reserved": 0}, {"lon": -77.01448433333333, "bike_id": "ea1320b5fc8186bcb2cb033416b031e6", "lat": 38.87671233333333, "fusion_lon": 0.0, "fusion_lat": 0.0, "type": "electric_bike", "name": "ea1320b5fc8186bcb2cb033416b031e6", "is_disabled": 0, "rental_uris": {"ios": "https://dc.lft.to/lastmile_qr_scan", "android": "https://dc.lft.to/lastmile_qr_scan"}, "is_reserved": 0}, {"lon": -77.10802333333334, "bike_id": "b19d322128a78b6169ff997ab75d61f4", "lat": 38.812059166666664, "fusion_lon": 0.0, "fusion_lat": 0.0, "type": "electric_bike", "name": "b19d322128a78b6169ff997ab75d61f4", "is_disabled": 0, "rental_uris": {"ios": "https://dc.lft.to/lastmile_qr_scan", "android": "https://dc.lft.to/lastmile_qr_scan"}, "is_reserved": 0}, {"lon": -77.03169066666666, "bike_id": "9cc83bd1a19fd4173ce1eaa43385e40c", "lat": 38.90288983333333, "fusion_lon": 0.0, "fusion_lat": 0.0, "type": "electric_scooter", "name": "9cc83bd1a19fd4173ce1eaa43385e40c", "is_disabled": 0, "rental_uris": {"ios": "https://dc.lft.to/lastmile_qr_scan", "android": "https://dc.lft.to/lastmile_qr_scan"}, "is_reserved": 0}, {"lon": -77.06487583333333, "bike_id": "bc16780131f6d2614faa6e3a86613b1d", "lat": 38.909792333333336, "fusion_lon": 0.0, "fusion_lat": 0.0, "type": "electric_scooter", "name": "bc16780131f6d2614faa6e3a86613b1d", "is_disabled": 0, "rental_uris": {"ios": "https://dc.lft.to/lastmile_qr_scan", "android": "https://dc.lft.to/lastmile_qr_scan"}, "is_reserved": 0}, {"lon": -77.0458325, "bike_id": "e43a0cc38e3f9fd6dd119289e468cf90", "lat": 38.9136, "fusion_lon": 0.0, "fusion_lat": 0.0, "type": "electric_scooter", "name": "e43a0cc38e3f9fd6dd119289e468cf90", "is_disabled": 0, "rental_uris": {"ios": "https://dc.lft.to/lastmile_qr_scan", "android": "https://dc.lft.to/lastmile_qr_scan"}, "is_reserved": 0}, {"lon": -77.00583583333334, "bike_id": "762826793a3efb4b763ed5dd7b3f7dc1", "lat": 38.905645666666665, "fusion_lon": 0.0, "fusion_lat": 0.0, "type": "electric_scooter", "name": "762826793a3efb4b763ed5dd7b3f7dc1", "is_disabled": 0, "rental_uris": {"ios": "https://dc.lft.to/lastmile_qr_scan", "android": "https://dc.lft.to/lastmile_qr_scan"}, "is_reserved": 0}, {"lon": -77.02178316666667, "bike_id": "58beef5ff6c42c053edaf2cee5127426", "lat": 38.893566666666665, "fusion_lon": 0.0, "fusion_lat": 0.0, "type": "electric_scooter", "name": "58beef5ff6c42c053edaf2cee5127426", "is_disabled": 0, "rental_uris": {"ios": "https://dc.lft.to/lastmile_qr_scan", "android": "https://dc.lft.to/lastmile_qr_scan"}, "is_reserved": 0}, {"lon": -77.04705883333334, "bike_id": "826ee6007d9c4f724a8934b0e7ab0a26", "lat": 38.92061266666666, "fusion_lon": 0.0, "fusion_lat": 0.0, "type": "electric_scooter", "name": "826ee6007d9c4f724a8934b0e7ab0a26", "is_disabled": 0, "rental_uris": {"ios": "https://dc.lft.to/lastmile_qr_scan", "android": "https://dc.lft.to/lastmile_qr_scan"}, "is_reserved": 0}, {"lon": -77.036636, "bike_id": "8d615ff06ed42f1c1248f3568a993a26", "lat": 38.93342616666666, "fusion_lon": 0.0, "fusion_lat": 0.0, "type": "electric_scooter", "name": "8d615ff06ed42f1c1248f3568a993a26", "is_disabled": 0, "rental_uris": {"ios": "https://dc.lft.to/lastmile_qr_scan", "android": "https://dc.lft.to/lastmile_qr_scan"}, "is_reserved": 0}, {"lon": -76.94939133333334, "bike_id": "6bf8377aabfe6dcbc77b00d636785757", "lat": 38.90368083333333, "fusion_lon": 0.0, "fusion_lat": 0.0, "type": "electric_scooter", "name": "6bf8377aabfe6dcbc77b00d636785757", "is_disabled": 0, "rental_uris": {"ios": "https://dc.lft.to/lastmile_qr_scan", "android": "https://dc.lft.to/lastmile_qr_scan"}, "is_reserved": 0}, {"lon": -77.032816, "bike_id": "5f18c71375fc2bb7b0240afb907e91f4", "lat": 38.93342916666667, "fusion_lon": 0.0, "fusion_lat": 0.0, "type": "electric_scooter", "name": "5f18c71375fc2bb7b0240afb907e91f4", "is_disabled": 0, "rental_uris": {"ios": "https://dc.lft.to/lastmile_qr_scan", "android": "https://dc.lft.to/lastmile_qr_scan"}, "is_reserved": 0}, {"lon": -77.00342933333333, "bike_id": "8b44791fadeb48f7aeef14b0c70d60c3", "lat": 38.902726666666666, "fusion_lon": 0.0, "fusion_lat": 0.0, "type": "electric_scooter", "name": "8b44791fadeb48f7aeef14b0c70d60c3", "is_disabled": 0, "rental_uris": {"ios": "https://dc.lft.to/lastmile_qr_scan", "android": "https://dc.lft.to/lastmile_qr_scan"}, "is_reserved": 0}, {"lon": -76.98106566666667, "bike_id": "cdb611f40f5b9344bd68480a38043f0f", "lat": 38.877310666666666, "fusion_lon": 0.0, "fusion_lat": 0.0, "type": "electric_bike", "name": "cdb611f40f5b9344bd68480a38043f0f", "is_disabled": 0, "rental_uris": {"ios": "https://dc.lft.to/lastmile_qr_scan", "android": "https://dc.lft.to/lastmile_qr_scan"}, "is_reserved": 0}, {"lon": -76.997847, "bike_id": "19765cd6f35d0ecca81dd44936324226", "lat": 38.890891, "fusion_lon": 0.0, "fusion_lat": 0.0, "type": "electric_scooter", "name": "19765cd6f35d0ecca81dd44936324226", "is_disabled": 0, "rental_uris": {"ios": "https://dc.lft.to/lastmile_qr_scan", "android": "https://dc.lft.to/lastmile_qr_scan"}, "is_reserved": 0}, {"lon": -77.0018735, "bike_id": "00a8c708c1feecbc6bc2e46855eec09a", "lat": 38.89477383333333, "fusion_lon": 0.0, "fusion_lat": 0.0, "type": "electric_scooter", "name": "00a8c708c1feecbc6bc2e46855eec09a", "is_disabled": 0, "rental_uris": {"ios": "https://dc.lft.to/lastmile_qr_scan", "android": "https://dc.lft.to/lastmile_qr_scan"}, "is_reserved": 0}, {"lon": -77.02688033333334, "bike_id": "4501da3e6f5f863594e42ce0a40ad0af", "lat": 38.904036, "fusion_lon": 0.0, "fusion_lat": 0.0, "type": "electric_scooter", "name": "4501da3e6f5f863594e42ce0a40ad0af", "is_disabled": 0, "rental_uris": {"ios": "https://dc.lft.to/lastmile_qr_scan", "android": "https://dc.lft.to/lastmile_qr_scan"}, "is_reserved": 0}, {"lon": -76.99864783333334, "bike_id": "a245f6172b4da2a15efe9e8b2b540fb6", "lat": 38.90025933333333, "fusion_lon": 0.0, "fusion_lat": 0.0, "type": "electric_scooter", "name": "a245f6172b4da2a15efe9e8b2b540fb6", "is_disabled": 0, "rental_uris": {"ios": "https://dc.lft.to/lastmile_qr_scan", "android": "https://dc.lft.to/lastmile_qr_scan"}, "is_reserved": 0}, {"lon": -77.03656683333334, "bike_id": "8c683e6b74ac718846e2b480774b8c6e", "lat": 38.933294333333336, "fusion_lon": 0.0, "fusion_lat": 0.0, "type": "electric_scooter", "name": "8c683e6b74ac718846e2b480774b8c6e", "is_disabled": 0, "rental_uris": {"ios": "https://dc.lft.to/lastmile_qr_scan", "android": "https://dc.lft.to/lastmile_qr_scan"}, "is_reserved": 0}, {"lon": -77.0024975, "bike_id": "ee54dd03ad98c4d2edaadeb86c8d6f79", "lat": 38.88514383333333, "fusion_lon": 0.0, "fusion_lat": 0.0, "type": "electric_scooter", "name": "ee54dd03ad98c4d2edaadeb86c8d6f79", "is_disabled": 0, "rental_uris": {"ios": "https://dc.lft.to/lastmile_qr_scan", "android": "https://dc.lft.to/lastmile_qr_scan"}, "is_reserved": 0}, {"lon": -77.02724683333334, "bike_id": "b26f2ca2258e5314893f710497bcaeda", "lat": 38.89789716666667, "fusion_lon": 0.0, "fusion_lat": 0.0, "type": "electric_scooter", "name": "b26f2ca2258e5314893f710497bcaeda", "is_disabled": 0, "rental_uris": {"ios": "https://dc.lft.to/lastmile_qr_scan", "android": "https://dc.lft.to/lastmile_qr_scan"}, "is_reserved": 0}, {"lon": -77.00953716666666, "bike_id": "ba2c1b4a5a722013896d1409897b0365", "lat": 38.92136683333333, "fusion_lon": 0.0, "fusion_lat": 0.0, "type": "electric_scooter", "name": "ba2c1b4a5a722013896d1409897b0365", "is_disabled": 0, "rental_uris": {"ios": "https://dc.lft.to/lastmile_qr_scan", "android": "https://dc.lft.to/lastmile_qr_scan"}, "is_reserved": 0}, {"lon": -76.99256216666667, "bike_id": "59a70b85e943ab62c038d6f2f6bd73f2", "lat": 38.899931333333335, "fusion_lon": 0.0, "fusion_lat": 0.0, "type": "electric_scooter", "name": "59a70b85e943ab62c038d6f2f6bd73f2", "is_disabled": 0, "rental_uris": {"ios": "https://dc.lft.to/lastmile_qr_scan", "android": "https://dc.lft.to/lastmile_qr_scan"}, "is_reserved": 0}, {"lon": -76.98244516666666, "bike_id": "a813c51a9ab91b50fae94079d20110b0", "lat": 38.86460116666667, "fusion_lon": 0.0, "fusion_lat": 0.0, "type": "electric_scooter", "name": "a813c51a9ab91b50fae94079d20110b0", "is_disabled": 0, "rental_uris": {"ios": "https://dc.lft.to/lastmile_qr_scan", "android": "https://dc.lft.to/lastmile_qr_scan"}, "is_reserved": 0}, {"lon": -77.046948, "bike_id": "7e9f97edfce8fb2535f26b3f514b21c2", "lat": 38.918984333333334, "fusion_lon": 0.0, "fusion_lat": 0.0, "type": "electric_scooter", "name": "7e9f97edfce8fb2535f26b3f514b21c2", "is_disabled": 0, "rental_uris": {"ios": "https://dc.lft.to/lastmile_qr_scan", "android": "https://dc.lft.to/lastmile_qr_scan"}, "is_reserved": 0}, {"lon": -77.02172933333334, "bike_id": "0ad0b20a66c9b67698e670971f97e583", "lat": 38.89746783333333, "fusion_lon": 0.0, "fusion_lat": 0.0, "type": "electric_scooter", "name": "0ad0b20a66c9b67698e670971f97e583", "is_disabled": 0, "rental_uris": {"ios": "https://dc.lft.to/lastmile_qr_scan", "android": "https://dc.lft.to/lastmile_qr_scan"}, "is_reserved": 0}, {"lon": -77.03643866666667, "bike_id": "bff9921592c3052c37ade173713945d2", "lat": 38.90834133333333, "fusion_lon": 0.0, "fusion_lat": 0.0, "type": "electric_scooter", "name": "bff9921592c3052c37ade173713945d2", "is_disabled": 0, "rental_uris": {"ios": "https://dc.lft.to/lastmile_qr_scan", "android": "https://dc.lft.to/lastmile_qr_scan"}, "is_reserved": 0}, {"lon": -77.0240075, "bike_id": "b8420d2fd79aa07c4c4b368298d8e055", "lat": 38.882778333333334, "fusion_lon": 0.0, "fusion_lat": 0.0, "type": "electric_scooter", "name": "b8420d2fd79aa07c4c4b368298d8e055", "is_disabled": 0, "rental_uris": {"ios": "https://dc.lft.to/lastmile_qr_scan", "android": "https://dc.lft.to/lastmile_qr_scan"}, "is_reserved": 0}, {"lon": -77.0376655, "bike_id": "688692b18f0ed624fe641a5a08b978e1", "lat": 38.9361115, "fusion_lon": 0.0, "fusion_lat": 0.0, "type": "electric_scooter", "name": "688692b18f0ed624fe641a5a08b978e1", "is_disabled": 0, "rental_uris": {"ios": "https://dc.lft.to/lastmile_qr_scan", "android": "https://dc.lft.to/lastmile_qr_scan"}, "is_reserved": 0}, {"lon": -77.034349, "bike_id": "f086d149800cbd1ea6892ee7964f98dc", "lat": 38.9053425, "fusion_lon": 0.0, "fusion_lat": 0.0, "type": "electric_scooter", "name": "f086d149800cbd1ea6892ee7964f98dc", "is_disabled": 0, "rental_uris": {"ios": "https://dc.lft.to/lastmile_qr_scan", "android": "https://dc.lft.to/lastmile_qr_scan"}, "is_reserved": 0}, {"lon": -77.021775, "bike_id": "54ae3ed9115c2347f6ae53335e743399", "lat": 38.90956166666667, "fusion_lon": 0.0, "fusion_lat": 0.0, "type": "electric_scooter", "name": "54ae3ed9115c2347f6ae53335e743399", "is_disabled": 0, "rental_uris": {"ios": "https://dc.lft.to/lastmile_qr_scan", "android": "https://dc.lft.to/lastmile_qr_scan"}, "is_reserved": 0}, {"lon": -77.010339, "bike_id": "449dcda3f97541fc5fd812bbde448b78", "lat": 38.92132133333333, "fusion_lon": 0.0, "fusion_lat": 0.0, "type": "electric_scooter", "name": "449dcda3f97541fc5fd812bbde448b78", "is_disabled": 0, "rental_uris": {"ios": "https://dc.lft.to/lastmile_qr_scan", "android": "https://dc.lft.to/lastmile_qr_scan"}, "is_reserved": 0}, {"lon": -76.96597533333333, "bike_id": "b12b3c999eda0e240f2a06db28ea80a1", "lat": 38.871165500000004, "fusion_lon": 0.0, "fusion_lat": 0.0, "type": "electric_scooter", "name": "b12b3c999eda0e240f2a06db28ea80a1", "is_disabled": 0, "rental_uris": {"ios": "https://dc.lft.to/lastmile_qr_scan", "android": "https://dc.lft.to/lastmile_qr_scan"}, "is_reserved": 0}, {"lon": -77.036702, "bike_id": "592f48701000ee00a27befb34ac3d232", "lat": 38.918138, "fusion_lon": 0.0, "fusion_lat": 0.0, "type": "electric_scooter", "name": "592f48701000ee00a27befb34ac3d232", "is_disabled": 0, "rental_uris": {"ios": "https://dc.lft.to/lastmile_qr_scan", "android": "https://dc.lft.to/lastmile_qr_scan"}, "is_reserved": 0}, {"lon": -77.03218633333333, "bike_id": "562d1d0e572a0c2a7c6cebfc4857d7d8", "lat": 38.907364333333334, "fusion_lon": 0.0, "fusion_lat": 0.0, "type": "electric_scooter", "name": "562d1d0e572a0c2a7c6cebfc4857d7d8", "is_disabled": 0, "rental_uris": {"ios": "https://dc.lft.to/lastmile_qr_scan", "android": "https://dc.lft.to/lastmile_qr_scan"}, "is_reserved": 0}, {"lon": -77.018344, "bike_id": "7b23f365406469dc046633514436f962", "lat": 38.909327833333336, "fusion_lon": 0.0, "fusion_lat": 0.0, "type": "electric_scooter", "name": "7b23f365406469dc046633514436f962", "is_disabled": 0, "rental_uris": {"ios": "https://dc.lft.to/lastmile_qr_scan", "android": "https://dc.lft.to/lastmile_qr_scan"}, "is_reserved": 0}, {"lon": -76.99100816666666, "bike_id": "67b3b8bbd6359f4482bf5bf791212dd3", "lat": 38.903181000000004, "fusion_lon": 0.0, "fusion_lat": 0.0, "type": "electric_scooter", "name": "67b3b8bbd6359f4482bf5bf791212dd3", "is_disabled": 0, "rental_uris": {"ios": "https://dc.lft.to/lastmile_qr_scan", "android": "https://dc.lft.to/lastmile_qr_scan"}, "is_reserved": 0}, {"lon": -77.048682, "bike_id": "dbd212129fa2eb71d2f52ecf02a9a545", "lat": 38.905989, "fusion_lon": 0.0, "fusion_lat": 0.0, "type": "electric_scooter", "name": "dbd212129fa2eb71d2f52ecf02a9a545", "is_disabled": 0, "rental_uris": {"ios": "https://dc.lft.to/lastmile_qr_scan", "android": "https://dc.lft.to/lastmile_qr_scan"}, "is_reserved": 0}, {"lon": -77.01516183333334, "bike_id": "a94cccd082660992e40ae167f31550bb", "lat": 38.91877616666667, "fusion_lon": 0.0, "fusion_lat": 0.0, "type": "electric_scooter", "name": "a94cccd082660992e40ae167f31550bb", "is_disabled": 0, "rental_uris": {"ios": "https://dc.lft.to/lastmile_qr_scan", "android": "https://dc.lft.to/lastmile_qr_scan"}, "is_reserved": 0}, {"lon": -77.01702066666667, "bike_id": "d9cebe21d241e57fd42eb7cdb73e06ca", "lat": 38.90450533333333, "fusion_lon": 0.0, "fusion_lat": 0.0, "type": "electric_scooter", "name": "d9cebe21d241e57fd42eb7cdb73e06ca", "is_disabled": 0, "rental_uris": {"ios": "https://dc.lft.to/lastmile_qr_scan", "android": "https://dc.lft.to/lastmile_qr_scan"}, "is_reserved": 0}, {"lon": -76.98557016666666, "bike_id": "24c1d18216b2add9a6e69812913cf440", "lat": 38.90716066666667, "fusion_lon": 0.0, "fusion_lat": 0.0, "type": "electric_scooter", "name": "24c1d18216b2add9a6e69812913cf440", "is_disabled": 0, "rental_uris": {"ios": "https://dc.lft.to/lastmile_qr_scan", "android": "https://dc.lft.to/lastmile_qr_scan"}, "is_reserved": 0}, {"lon": -77.02779516666666, "bike_id": "20dd0444432712df14b566fdaba77869", "lat": 38.92979066666667, "fusion_lon": 0.0, "fusion_lat": 0.0, "type": "electric_scooter", "name": "20dd0444432712df14b566fdaba77869", "is_disabled": 0, "rental_uris": {"ios": "https://dc.lft.to/lastmile_qr_scan", "android": "https://dc.lft.to/lastmile_qr_scan"}, "is_reserved": 0}, {"lon": -76.972431, "bike_id": "6413753f9d8c4e8191a6bb61d8db6134", "lat": 38.903442, "fusion_lon": 0.0, "fusion_lat": 0.0, "type": "electric_scooter", "name": "6413753f9d8c4e8191a6bb61d8db6134", "is_disabled": 0, "rental_uris": {"ios": "https://dc.lft.to/lastmile_qr_scan", "android": "https://dc.lft.to/lastmile_qr_scan"}, "is_reserved": 0}, {"lon": -76.98334466666667, "bike_id": "d0113731018901e12548ef5d307db6fe", "lat": 38.895434, "fusion_lon": 0.0, "fusion_lat": 0.0, "type": "electric_scooter", "name": "d0113731018901e12548ef5d307db6fe", "is_disabled": 0, "rental_uris": {"ios": "https://dc.lft.to/lastmile_qr_scan", "android": "https://dc.lft.to/lastmile_qr_scan"}, "is_reserved": 0}, {"lon": -76.99713166666666, "bike_id": "75499c7a4692e577a309f6de68decc62", "lat": 38.89254833333333, "fusion_lon": 0.0, "fusion_lat": 0.0, "type": "electric_scooter", "name": "75499c7a4692e577a309f6de68decc62", "is_disabled": 0, "rental_uris": {"ios": "https://dc.lft.to/lastmile_qr_scan", "android": "https://dc.lft.to/lastmile_qr_scan"}, "is_reserved": 0}, {"lon": -77.0198265, "bike_id": "77a0f68a852a13de598376b77fc63a86", "lat": 38.885843666666666, "fusion_lon": 0.0, "fusion_lat": 0.0, "type": "electric_scooter", "name": "77a0f68a852a13de598376b77fc63a86", "is_disabled": 0, "rental_uris": {"ios": "https://dc.lft.to/lastmile_qr_scan", "android": "https://dc.lft.to/lastmile_qr_scan"}, "is_reserved": 0}, {"lon": -77.04059483333333, "bike_id": "b14059fab8ffe6d923146aa7a04a601f", "lat": 38.9087515, "fusion_lon": 0.0, "fusion_lat": 0.0, "type": "electric_scooter", "name": "b14059fab8ffe6d923146aa7a04a601f", "is_disabled": 0, "rental_uris": {"ios": "https://dc.lft.to/lastmile_qr_scan", "android": "https://dc.lft.to/lastmile_qr_scan"}, "is_reserved": 0}, {"lon": -77.1662645, "bike_id": "e694b8048a7bdafc434720d59dac72ee", "lat": 38.8883985, "fusion_lon": 0.0, "fusion_lat": 0.0, "type": "electric_bike", "name": "e694b8048a7bdafc434720d59dac72ee", "is_disabled": 0, "rental_uris": {"ios": "https://dc.lft.to/lastmile_qr_scan", "android": "https://dc.lft.to/lastmile_qr_scan"}, "is_reserved": 0}, {"lon": -77.03444666666667, "bike_id": "166428a5d14694e052751195dca9b05c", "lat": 38.93436033333333, "fusion_lon": 0.0, "fusion_lat": 0.0, "type": "electric_scooter", "name": "166428a5d14694e052751195dca9b05c", "is_disabled": 0, "rental_uris": {"ios": "https://dc.lft.to/lastmile_qr_scan", "android": "https://dc.lft.to/lastmile_qr_scan"}, "is_reserved": 0}, {"lon": -77.04655766666667, "bike_id": "5021c14f625b726472c9ecc32b51cbfa", "lat": 38.913649666666664, "fusion_lon": 0.0, "fusion_lat": 0.0, "type": "electric_scooter", "name": "5021c14f625b726472c9ecc32b51cbfa", "is_disabled": 0, "rental_uris": {"ios": "https://dc.lft.to/lastmile_qr_scan", "android": "https://dc.lft.to/lastmile_qr_scan"}, "is_reserved": 0}, {"lon": -77.0232985, "bike_id": "eb687355869b32cd94cd178a9a5d47c1", "lat": 38.93532883333334, "fusion_lon": 0.0, "fusion_lat": 0.0, "type": "electric_scooter", "name": "eb687355869b32cd94cd178a9a5d47c1", "is_disabled": 0, "rental_uris": {"ios": "https://dc.lft.to/lastmile_qr_scan", "android": "https://dc.lft.to/lastmile_qr_scan"}, "is_reserved": 0}, {"lon": -77.03756016666667, "bike_id": "b758c01638dc245d12fd3ef83f7bdf9c", "lat": 38.9291005, "fusion_lon": 0.0, "fusion_lat": 0.0, "type": "electric_scooter", "name": "b758c01638dc245d12fd3ef83f7bdf9c", "is_disabled": 0, "rental_uris": {"ios": "https://dc.lft.to/lastmile_qr_scan", "android": "https://dc.lft.to/lastmile_qr_scan"}, "is_reserved": 0}, {"lon": -77.00561416666666, "bike_id": "b65a8fc4eb1bc13fcb251aa412a423fd", "lat": 38.87467933333333, "fusion_lon": 0.0, "fusion_lat": 0.0, "type": "electric_scooter", "name": "b65a8fc4eb1bc13fcb251aa412a423fd", "is_disabled": 0, "rental_uris": {"ios": "https://dc.lft.to/lastmile_qr_scan", "android": "https://dc.lft.to/lastmile_qr_scan"}, "is_reserved": 0}, {"lon": -77.03284716666667, "bike_id": "777e1a16d1a192f00898cea9de22b2d5", "lat": 38.9302665, "fusion_lon": 0.0, "fusion_lat": 0.0, "type": "electric_scooter", "name": "777e1a16d1a192f00898cea9de22b2d5", "is_disabled": 0, "rental_uris": {"ios": "https://dc.lft.to/lastmile_qr_scan", "android": "https://dc.lft.to/lastmile_qr_scan"}, "is_reserved": 0}, {"lon": -77.024875, "bike_id": "a442f903b2b1eed2a3d2cf94d06f614d", "lat": 38.92586083333333, "fusion_lon": 0.0, "fusion_lat": 0.0, "type": "electric_scooter", "name": "a442f903b2b1eed2a3d2cf94d06f614d", "is_disabled": 0, "rental_uris": {"ios": "https://dc.lft.to/lastmile_qr_scan", "android": "https://dc.lft.to/lastmile_qr_scan"}, "is_reserved": 0}, {"lon": -77.04134616666667, "bike_id": "ef8e1e905adc747295391b3d40fc3469", "lat": 38.94259316666667, "fusion_lon": 0.0, "fusion_lat": 0.0, "type": "electric_scooter", "name": "ef8e1e905adc747295391b3d40fc3469", "is_disabled": 0, "rental_uris": {"ios": "https://dc.lft.to/lastmile_qr_scan", "android": "https://dc.lft.to/lastmile_qr_scan"}, "is_reserved": 0}, {"lon": -77.03273783333333, "bike_id": "435900038354b2f524df35395fed3557", "lat": 38.940977833333335, "fusion_lon": 0.0, "fusion_lat": 0.0, "type": "electric_scooter", "name": "435900038354b2f524df35395fed3557", "is_disabled": 0, "rental_uris": {"ios": "https://dc.lft.to/lastmile_qr_scan", "android": "https://dc.lft.to/lastmile_qr_scan"}, "is_reserved": 0}, {"lon": -76.98659016666667, "bike_id": "e40fea9548bdb38ce466d691adb23bd8", "lat": 38.86735683333333, "fusion_lon": 0.0, "fusion_lat": 0.0, "type": "electric_scooter", "name": "e40fea9548bdb38ce466d691adb23bd8", "is_disabled": 0, "rental_uris": {"ios": "https://dc.lft.to/lastmile_qr_scan", "android": "https://dc.lft.to/lastmile_qr_scan"}, "is_reserved": 0}, {"lon": -77.03258416666667, "bike_id": "afb7d26ba570b0e7ce4293bdc4601d39", "lat": 38.9377585, "fusion_lon": 0.0, "fusion_lat": 0.0, "type": "electric_scooter", "name": "afb7d26ba570b0e7ce4293bdc4601d39", "is_disabled": 0, "rental_uris": {"ios": "https://dc.lft.to/lastmile_qr_scan", "android": "https://dc.lft.to/lastmile_qr_scan"}, "is_reserved": 0}, {"lon": -77.042248, "bike_id": "7fb77064359cec98fd881d326a73f171", "lat": 38.913379, "fusion_lon": 0.0, "fusion_lat": 0.0, "type": "electric_scooter", "name": "7fb77064359cec98fd881d326a73f171", "is_disabled": 0, "rental_uris": {"ios": "https://dc.lft.to/lastmile_qr_scan", "android": "https://dc.lft.to/lastmile_qr_scan"}, "is_reserved": 0}, {"lon": -77.03584216666667, "bike_id": "7210fe8051c1760e08a2f0c3bf7d7225", "lat": 38.91045733333333, "fusion_lon": 0.0, "fusion_lat": 0.0, "type": "electric_scooter", "name": "7210fe8051c1760e08a2f0c3bf7d7225", "is_disabled": 0, "rental_uris": {"ios": "https://dc.lft.to/lastmile_qr_scan", "android": "https://dc.lft.to/lastmile_qr_scan"}, "is_reserved": 0}, {"lon": -77.03323733333333, "bike_id": "a2636745c4cedf5345f084d9cb3b19a4", "lat": 38.94719033333333, "fusion_lon": 0.0, "fusion_lat": 0.0, "type": "electric_scooter", "name": "a2636745c4cedf5345f084d9cb3b19a4", "is_disabled": 0, "rental_uris": {"ios": "https://dc.lft.to/lastmile_qr_scan", "android": "https://dc.lft.to/lastmile_qr_scan"}, "is_reserved": 0}, {"lon": -77.04674216666666, "bike_id": "dc19c502ff6312cb5527549f8119f836", "lat": 38.9072075, "fusion_lon": 0.0, "fusion_lat": 0.0, "type": "electric_scooter", "name": "dc19c502ff6312cb5527549f8119f836", "is_disabled": 0, "rental_uris": {"ios": "https://dc.lft.to/lastmile_qr_scan", "android": "https://dc.lft.to/lastmile_qr_scan"}, "is_reserved": 0}, {"lon": -76.992894, "bike_id": "c852a8a5550733c1cbf01b695a384ce2", "lat": 38.898891, "fusion_lon": 0.0, "fusion_lat": 0.0, "type": "electric_scooter", "name": "c852a8a5550733c1cbf01b695a384ce2", "is_disabled": 0, "rental_uris": {"ios": "https://dc.lft.to/lastmile_qr_scan", "android": "https://dc.lft.to/lastmile_qr_scan"}, "is_reserved": 0}, {"lon": -77.03196516666667, "bike_id": "8b5a185007c643cfb92aef46ccb83181", "lat": 38.927777166666665, "fusion_lon": 0.0, "fusion_lat": 0.0, "type": "electric_scooter", "name": "8b5a185007c643cfb92aef46ccb83181", "is_disabled": 0, "rental_uris": {"ios": "https://dc.lft.to/lastmile_qr_scan", "android": "https://dc.lft.to/lastmile_qr_scan"}, "is_reserved": 0}, {"lon": -77.037595, "bike_id": "12edb56ec10952b7798cc852c7592c06", "lat": 38.920121333333334, "fusion_lon": 0.0, "fusion_lat": 0.0, "type": "electric_scooter", "name": "12edb56ec10952b7798cc852c7592c06", "is_disabled": 0, "rental_uris": {"ios": "https://dc.lft.to/lastmile_qr_scan", "android": "https://dc.lft.to/lastmile_qr_scan"}, "is_reserved": 0}, {"lon": -77.02749966666667, "bike_id": "091810b89307fc117a2dd5ffd5fcaa81", "lat": 38.9333805, "fusion_lon": 0.0, "fusion_lat": 0.0, "type": "electric_scooter", "name": "091810b89307fc117a2dd5ffd5fcaa81", "is_disabled": 0, "rental_uris": {"ios": "https://dc.lft.to/lastmile_qr_scan", "android": "https://dc.lft.to/lastmile_qr_scan"}, "is_reserved": 0}, {"lon": -77.032637, "bike_id": "53d47d482e1d8e77a48b834e10fd8ed1", "lat": 38.93241666666667, "fusion_lon": 0.0, "fusion_lat": 0.0, "type": "electric_scooter", "name": "53d47d482e1d8e77a48b834e10fd8ed1", "is_disabled": 0, "rental_uris": {"ios": "https://dc.lft.to/lastmile_qr_scan", "android": "https://dc.lft.to/lastmile_qr_scan"}, "is_reserved": 0}, {"lon": -77.01786866666667, "bike_id": "11c5c70294bc56c2bc3c466e8e76d8a3", "lat": 38.904942, "fusion_lon": 0.0, "fusion_lat": 0.0, "type": "electric_scooter", "name": "11c5c70294bc56c2bc3c466e8e76d8a3", "is_disabled": 0, "rental_uris": {"ios": "https://dc.lft.to/lastmile_qr_scan", "android": "https://dc.lft.to/lastmile_qr_scan"}, "is_reserved": 0}, {"lon": -76.98374516666667, "bike_id": "a89967edbb701866ad48fd2afe880744", "lat": 38.896078, "fusion_lon": 0.0, "fusion_lat": 0.0, "type": "electric_scooter", "name": "a89967edbb701866ad48fd2afe880744", "is_disabled": 0, "rental_uris": {"ios": "https://dc.lft.to/lastmile_qr_scan", "android": "https://dc.lft.to/lastmile_qr_scan"}, "is_reserved": 0}, {"lon": -77.02167033333333, "bike_id": "da453cfb23b5b58f505a562e66de7fa8", "lat": 38.9299345, "fusion_lon": 0.0, "fusion_lat": 0.0, "type": "electric_scooter", "name": "da453cfb23b5b58f505a562e66de7fa8", "is_disabled": 0, "rental_uris": {"ios": "https://dc.lft.to/lastmile_qr_scan", "android": "https://dc.lft.to/lastmile_qr_scan"}, "is_reserved": 0}, {"lon": -77.03543383333333, "bike_id": "0dc9aec83140d5f7dac373ed81f2a6de", "lat": 38.92575733333334, "fusion_lon": 0.0, "fusion_lat": 0.0, "type": "electric_scooter", "name": "0dc9aec83140d5f7dac373ed81f2a6de", "is_disabled": 0, "rental_uris": {"ios": "https://dc.lft.to/lastmile_qr_scan", "android": "https://dc.lft.to/lastmile_qr_scan"}, "is_reserved": 0}, {"lon": -76.99644933333333, "bike_id": "fda496c575b22fd51e284cb491861256", "lat": 38.90026666666667, "fusion_lon": 0.0, "fusion_lat": 0.0, "type": "electric_scooter", "name": "fda496c575b22fd51e284cb491861256", "is_disabled": 0, "rental_uris": {"ios": "https://dc.lft.to/lastmile_qr_scan", "android": "https://dc.lft.to/lastmile_qr_scan"}, "is_reserved": 0}, {"lon": -77.0305555, "bike_id": "56c3ef6d8fccdce3390bf55f5cb2fb7e", "lat": 38.884206666666664, "fusion_lon": 0.0, "fusion_lat": 0.0, "type": "electric_scooter", "name": "56c3ef6d8fccdce3390bf55f5cb2fb7e", "is_disabled": 0, "rental_uris": {"ios": "https://dc.lft.to/lastmile_qr_scan", "android": "https://dc.lft.to/lastmile_qr_scan"}, "is_reserved": 0}, {"lon": -77.044777, "bike_id": "bfb0d0d977b775f12156e28c6c33d876", "lat": 38.92425216666667, "fusion_lon": 0.0, "fusion_lat": 0.0, "type": "electric_scooter", "name": "bfb0d0d977b775f12156e28c6c33d876", "is_disabled": 0, "rental_uris": {"ios": "https://dc.lft.to/lastmile_qr_scan", "android": "https://dc.lft.to/lastmile_qr_scan"}, "is_reserved": 0}, {"lon": -77.03963466666667, "bike_id": "168f69f1922eb32d4f56d9a8d91e8dcd", "lat": 38.913925166666665, "fusion_lon": 0.0, "fusion_lat": 0.0, "type": "electric_scooter", "name": "168f69f1922eb32d4f56d9a8d91e8dcd", "is_disabled": 0, "rental_uris": {"ios": "https://dc.lft.to/lastmile_qr_scan", "android": "https://dc.lft.to/lastmile_qr_scan"}, "is_reserved": 0}, {"lon": -77.04130833333333, "bike_id": "c2f843071fa855a205ff23d45d18b184", "lat": 38.9063705, "fusion_lon": 0.0, "fusion_lat": 0.0, "type": "electric_scooter", "name": "c2f843071fa855a205ff23d45d18b184", "is_disabled": 0, "rental_uris": {"ios": "https://dc.lft.to/lastmile_qr_scan", "android": "https://dc.lft.to/lastmile_qr_scan"}, "is_reserved": 0}, {"lon": -77.02747966666666, "bike_id": "fc1b3cec8537402ef5833b9f5b1c1d74", "lat": 38.941862666666665, "fusion_lon": 0.0, "fusion_lat": 0.0, "type": "electric_scooter", "name": "fc1b3cec8537402ef5833b9f5b1c1d74", "is_disabled": 0, "rental_uris": {"ios": "https://dc.lft.to/lastmile_qr_scan", "android": "https://dc.lft.to/lastmile_qr_scan"}, "is_reserved": 0}, {"lon": -77.0435995, "bike_id": "9f876741a2b565e928f2ff3aaa93225e", "lat": 38.9112905, "fusion_lon": 0.0, "fusion_lat": 0.0, "type": "electric_scooter", "name": "9f876741a2b565e928f2ff3aaa93225e", "is_disabled": 0, "rental_uris": {"ios": "https://dc.lft.to/lastmile_qr_scan", "android": "https://dc.lft.to/lastmile_qr_scan"}, "is_reserved": 0}, {"lon": -77.005914, "bike_id": "a66ef67221b383ad716b3b0fcdf57074", "lat": 38.90560833333333, "fusion_lon": 0.0, "fusion_lat": 0.0, "type": "electric_scooter", "name": "a66ef67221b383ad716b3b0fcdf57074", "is_disabled": 0, "rental_uris": {"ios": "https://dc.lft.to/lastmile_qr_scan", "android": "https://dc.lft.to/lastmile_qr_scan"}, "is_reserved": 0}, {"lon": -77.02670066666667, "bike_id": "90a4513ded41a182b78c152a1f86a385", "lat": 38.97194266666666, "fusion_lon": 0.0, "fusion_lat": 0.0, "type": "electric_scooter", "name": "90a4513ded41a182b78c152a1f86a385", "is_disabled": 0, "rental_uris": {"ios": "https://dc.lft.to/lastmile_qr_scan", "android": "https://dc.lft.to/lastmile_qr_scan"}, "is_reserved": 0}, {"lon": -77.0045315, "bike_id": "c0b82ac0524c92dc743888ae05a0075f", "lat": 38.9176505, "fusion_lon": 0.0, "fusion_lat": 0.0, "type": "electric_scooter", "name": "c0b82ac0524c92dc743888ae05a0075f", "is_disabled": 0, "rental_uris": {"ios": "https://dc.lft.to/lastmile_qr_scan", "android": "https://dc.lft.to/lastmile_qr_scan"}, "is_reserved": 0}, {"lon": -76.98236916666667, "bike_id": "b9f9d50098ec91cfa46eccbea21166e8", "lat": 38.8886395, "fusion_lon": 0.0, "fusion_lat": 0.0, "type": "electric_scooter", "name": "b9f9d50098ec91cfa46eccbea21166e8", "is_disabled": 0, "rental_uris": {"ios": "https://dc.lft.to/lastmile_qr_scan", "android": "https://dc.lft.to/lastmile_qr_scan"}, "is_reserved": 0}, {"lon": -77.019088, "bike_id": "4751143997e47784ea6a3f996a80b6d5", "lat": 38.8774675, "fusion_lon": 0.0, "fusion_lat": 0.0, "type": "electric_scooter", "name": "4751143997e47784ea6a3f996a80b6d5", "is_disabled": 0, "rental_uris": {"ios": "https://dc.lft.to/lastmile_qr_scan", "android": "https://dc.lft.to/lastmile_qr_scan"}, "is_reserved": 0}, {"lon": -77.03522983333333, "bike_id": "77476b6dd1984740e2ce2b1638b9a702", "lat": 38.923546333333334, "fusion_lon": 0.0, "fusion_lat": 0.0, "type": "electric_scooter", "name": "77476b6dd1984740e2ce2b1638b9a702", "is_disabled": 0, "rental_uris": {"ios": "https://dc.lft.to/lastmile_qr_scan", "android": "https://dc.lft.to/lastmile_qr_scan"}, "is_reserved": 0}, {"lon": -76.99034, "bike_id": "c325e2dab51289c4438ff6e697565398", "lat": 38.887570833333335, "fusion_lon": 0.0, "fusion_lat": 0.0, "type": "electric_scooter", "name": "c325e2dab51289c4438ff6e697565398", "is_disabled": 0, "rental_uris": {"ios": "https://dc.lft.to/lastmile_qr_scan", "android": "https://dc.lft.to/lastmile_qr_scan"}, "is_reserved": 0}, {"lon": -77.06491933333334, "bike_id": "2f2843cd24d9d6109a3dc845da7533eb", "lat": 38.929106833333336, "fusion_lon": 0.0, "fusion_lat": 0.0, "type": "electric_scooter", "name": "2f2843cd24d9d6109a3dc845da7533eb", "is_disabled": 0, "rental_uris": {"ios": "https://dc.lft.to/lastmile_qr_scan", "android": "https://dc.lft.to/lastmile_qr_scan"}, "is_reserved": 0}, {"lon": -77.0218415, "bike_id": "93c819bcb33e4d7cba5075f1332de6c5", "lat": 38.909559, "fusion_lon": 0.0, "fusion_lat": 0.0, "type": "electric_scooter", "name": "93c819bcb33e4d7cba5075f1332de6c5", "is_disabled": 0, "rental_uris": {"ios": "https://dc.lft.to/lastmile_qr_scan", "android": "https://dc.lft.to/lastmile_qr_scan"}, "is_reserved": 0}, {"lon": -77.0339915, "bike_id": "ddfb39e132bfc29b4379a117fafcbb82", "lat": 38.931258166666666, "fusion_lon": 0.0, "fusion_lat": 0.0, "type": "electric_scooter", "name": "ddfb39e132bfc29b4379a117fafcbb82", "is_disabled": 0, "rental_uris": {"ios": "https://dc.lft.to/lastmile_qr_scan", "android": "https://dc.lft.to/lastmile_qr_scan"}, "is_reserved": 0}, {"lon": -77.03061066666666, "bike_id": "b87d7f185a2da4f806ff0e85d991b923", "lat": 38.90811266666667, "fusion_lon": 0.0, "fusion_lat": 0.0, "type": "electric_scooter", "name": "b87d7f185a2da4f806ff0e85d991b923", "is_disabled": 0, "rental_uris": {"ios": "https://dc.lft.to/lastmile_qr_scan", "android": "https://dc.lft.to/lastmile_qr_scan"}, "is_reserved": 0}, {"lon": -77.03358566666667, "bike_id": "d3fb94e5a66a3289a761b1956b6b2189", "lat": 38.923541166666666, "fusion_lon": 0.0, "fusion_lat": 0.0, "type": "electric_scooter", "name": "d3fb94e5a66a3289a761b1956b6b2189", "is_disabled": 0, "rental_uris": {"ios": "https://dc.lft.to/lastmile_qr_scan", "android": "https://dc.lft.to/lastmile_qr_scan"}, "is_reserved": 0}, {"lon": -77.00886433333334, "bike_id": "34016ce2694d6af368ce72d6013d7f72", "lat": 38.9171435, "fusion_lon": 0.0, "fusion_lat": 0.0, "type": "electric_scooter", "name": "34016ce2694d6af368ce72d6013d7f72", "is_disabled": 0, "rental_uris": {"ios": "https://dc.lft.to/lastmile_qr_scan", "android": "https://dc.lft.to/lastmile_qr_scan"}, "is_reserved": 0}, {"lon": -77.0004485, "bike_id": "7bcc9add27a2dc871fcfb1a38234aba7", "lat": 38.8751615, "fusion_lon": 0.0, "fusion_lat": 0.0, "type": "electric_scooter", "name": "7bcc9add27a2dc871fcfb1a38234aba7", "is_disabled": 0, "rental_uris": {"ios": "https://dc.lft.to/lastmile_qr_scan", "android": "https://dc.lft.to/lastmile_qr_scan"}, "is_reserved": 0}, {"lon": -76.947916, "bike_id": "f77204d5e65a2bdfdb06a8ca8391c924", "lat": 38.861882333333334, "fusion_lon": 0.0, "fusion_lat": 0.0, "type": "electric_bike", "name": "f77204d5e65a2bdfdb06a8ca8391c924", "is_disabled": 0, "rental_uris": {"ios": "https://dc.lft.to/lastmile_qr_scan", "android": "https://dc.lft.to/lastmile_qr_scan"}, "is_reserved": 0}, {"lon": -77.00678683333334, "bike_id": "c105ae0271cbcbf1d4253078ec97172b", "lat": 38.834945833333336, "fusion_lon": 0.0, "fusion_lat": 0.0, "type": "electric_scooter", "name": "c105ae0271cbcbf1d4253078ec97172b", "is_disabled": 0, "rental_uris": {"ios": "https://dc.lft.to/lastmile_qr_scan", "android": "https://dc.lft.to/lastmile_qr_scan"}, "is_reserved": 0}, {"lon": -77.017678, "bike_id": "be69bee3fbface38c458104c70a63657", "lat": 38.887415, "fusion_lon": 0.0, "fusion_lat": 0.0, "type": "electric_scooter", "name": "be69bee3fbface38c458104c70a63657", "is_disabled": 0, "rental_uris": {"ios": "https://dc.lft.to/lastmile_qr_scan", "android": "https://dc.lft.to/lastmile_qr_scan"}, "is_reserved": 0}, {"lon": -76.94881583333333, "bike_id": "221d7af64f486177763c3db03c7ef5e2", "lat": 38.89425766666667, "fusion_lon": 0.0, "fusion_lat": 0.0, "type": "electric_scooter", "name": "221d7af64f486177763c3db03c7ef5e2", "is_disabled": 0, "rental_uris": {"ios": "https://dc.lft.to/lastmile_qr_scan", "android": "https://dc.lft.to/lastmile_qr_scan"}, "is_reserved": 0}, {"lon": -77.01819216666667, "bike_id": "adfa8d5ada1e77e849316e27a8c0c3ce", "lat": 38.90134283333333, "fusion_lon": 0.0, "fusion_lat": 0.0, "type": "electric_scooter", "name": "adfa8d5ada1e77e849316e27a8c0c3ce", "is_disabled": 0, "rental_uris": {"ios": "https://dc.lft.to/lastmile_qr_scan", "android": "https://dc.lft.to/lastmile_qr_scan"}, "is_reserved": 0}, {"lon": -76.99625433333334, "bike_id": "e7e0c145b9e54a4537643d7cbbdc315f", "lat": 38.8879855, "fusion_lon": 0.0, "fusion_lat": 0.0, "type": "electric_scooter", "name": "e7e0c145b9e54a4537643d7cbbdc315f", "is_disabled": 0, "rental_uris": {"ios": "https://dc.lft.to/lastmile_qr_scan", "android": "https://dc.lft.to/lastmile_qr_scan"}, "is_reserved": 0}, {"lon": -77.025992, "bike_id": "f01fe51b160ef0095edab3b4958d3ae4", "lat": 38.91692666666667, "fusion_lon": 0.0, "fusion_lat": 0.0, "type": "electric_scooter", "name": "f01fe51b160ef0095edab3b4958d3ae4", "is_disabled": 0, "rental_uris": {"ios": "https://dc.lft.to/lastmile_qr_scan", "android": "https://dc.lft.to/lastmile_qr_scan"}, "is_reserved": 0}, {"lon": -76.94123716666667, "bike_id": "e46eaf0b563739798f1d2b9bf19cb1b7", "lat": 38.908211666666666, "fusion_lon": 0.0, "fusion_lat": 0.0, "type": "electric_scooter", "name": "e46eaf0b563739798f1d2b9bf19cb1b7", "is_disabled": 0, "rental_uris": {"ios": "https://dc.lft.to/lastmile_qr_scan", "android": "https://dc.lft.to/lastmile_qr_scan"}, "is_reserved": 0}, {"lon": -76.99052, "bike_id": "88ee2d610c375bb3c8707a8e2d6b4b3e", "lat": 38.863817, "fusion_lon": 0.0, "fusion_lat": 0.0, "type": "electric_scooter", "name": "88ee2d610c375bb3c8707a8e2d6b4b3e", "is_disabled": 0, "rental_uris": {"ios": "https://dc.lft.to/lastmile_qr_scan", "android": "https://dc.lft.to/lastmile_qr_scan"}, "is_reserved": 0}, {"lon": -77.05288816666666, "bike_id": "b474d19b79effa613ea7147c19bc5883", "lat": 38.90334933333333, "fusion_lon": 0.0, "fusion_lat": 0.0, "type": "electric_scooter", "name": "b474d19b79effa613ea7147c19bc5883", "is_disabled": 0, "rental_uris": {"ios": "https://dc.lft.to/lastmile_qr_scan", "android": "https://dc.lft.to/lastmile_qr_scan"}, "is_reserved": 0}, {"lon": -77.03381116666667, "bike_id": "bc4f82b7b42c510dd28e7d4fd2ae1722", "lat": 38.93877783333333, "fusion_lon": 0.0, "fusion_lat": 0.0, "type": "electric_scooter", "name": "bc4f82b7b42c510dd28e7d4fd2ae1722", "is_disabled": 0, "rental_uris": {"ios": "https://dc.lft.to/lastmile_qr_scan", "android": "https://dc.lft.to/lastmile_qr_scan"}, "is_reserved": 0}, {"lon": -77.0005845, "bike_id": "16d028eb2c16c8f96b05354f2b0a31f2", "lat": 38.90086083333333, "fusion_lon": 0.0, "fusion_lat": 0.0, "type": "electric_scooter", "name": "16d028eb2c16c8f96b05354f2b0a31f2", "is_disabled": 0, "rental_uris": {"ios": "https://dc.lft.to/lastmile_qr_scan", "android": "https://dc.lft.to/lastmile_qr_scan"}, "is_reserved": 0}, {"lon": -77.0257855, "bike_id": "a02561a2c002af88421b4b0dfeb13682", "lat": 38.8873805, "fusion_lon": 0.0, "fusion_lat": 0.0, "type": "electric_scooter", "name": "a02561a2c002af88421b4b0dfeb13682", "is_disabled": 0, "rental_uris": {"ios": "https://dc.lft.to/lastmile_qr_scan", "android": "https://dc.lft.to/lastmile_qr_scan"}, "is_reserved": 0}, {"lon": -77.023236, "bike_id": "899c535ca2e7de953d4cba97b51505c1", "lat": 38.949727333333335, "fusion_lon": 0.0, "fusion_lat": 0.0, "type": "electric_scooter", "name": "899c535ca2e7de953d4cba97b51505c1", "is_disabled": 0, "rental_uris": {"ios": "https://dc.lft.to/lastmile_qr_scan", "android": "https://dc.lft.to/lastmile_qr_scan"}, "is_reserved": 0}, {"lon": -76.9937365, "bike_id": "b307c6816c14819720dd74fc6a245f7d", "lat": 38.8937395, "fusion_lon": 0.0, "fusion_lat": 0.0, "type": "electric_scooter", "name": "b307c6816c14819720dd74fc6a245f7d", "is_disabled": 0, "rental_uris": {"ios": "https://dc.lft.to/lastmile_qr_scan", "android": "https://dc.lft.to/lastmile_qr_scan"}, "is_reserved": 0}, {"lon": -77.00105316666667, "bike_id": "eff5f0b375cd42bf67e75f14758b5f64", "lat": 38.917089, "fusion_lon": 0.0, "fusion_lat": 0.0, "type": "electric_scooter", "name": "eff5f0b375cd42bf67e75f14758b5f64", "is_disabled": 0, "rental_uris": {"ios": "https://dc.lft.to/lastmile_qr_scan", "android": "https://dc.lft.to/lastmile_qr_scan"}, "is_reserved": 0}, {"lon": -77.03593016666666, "bike_id": "1d5cddd42db9402d4fdbbcba098ba99f", "lat": 38.92678183333334, "fusion_lon": 0.0, "fusion_lat": 0.0, "type": "electric_scooter", "name": "1d5cddd42db9402d4fdbbcba098ba99f", "is_disabled": 0, "rental_uris": {"ios": "https://dc.lft.to/lastmile_qr_scan", "android": "https://dc.lft.to/lastmile_qr_scan"}, "is_reserved": 0}, {"lon": -77.03258416666667, "bike_id": "2f5baa5942246dcfbee8587980318291", "lat": 38.93269316666667, "fusion_lon": 0.0, "fusion_lat": 0.0, "type": "electric_scooter", "name": "2f5baa5942246dcfbee8587980318291", "is_disabled": 0, "rental_uris": {"ios": "https://dc.lft.to/lastmile_qr_scan", "android": "https://dc.lft.to/lastmile_qr_scan"}, "is_reserved": 0}, {"lon": -77.0371505, "bike_id": "726c5d87ec385b846491ab00bc45d548", "lat": 38.9148305, "fusion_lon": 0.0, "fusion_lat": 0.0, "type": "electric_scooter", "name": "726c5d87ec385b846491ab00bc45d548", "is_disabled": 0, "rental_uris": {"ios": "https://dc.lft.to/lastmile_qr_scan", "android": "https://dc.lft.to/lastmile_qr_scan"}, "is_reserved": 0}, {"lon": -77.02709566666667, "bike_id": "87186402c3e35fdf4f76206a812ccb41", "lat": 38.906741333333336, "fusion_lon": 0.0, "fusion_lat": 0.0, "type": "electric_scooter", "name": "87186402c3e35fdf4f76206a812ccb41", "is_disabled": 0, "rental_uris": {"ios": "https://dc.lft.to/lastmile_qr_scan", "android": "https://dc.lft.to/lastmile_qr_scan"}, "is_reserved": 0}, {"lon": -77.01896, "bike_id": "ae0730f24a7234c17077d3e1daa1282c", "lat": 38.8746485, "fusion_lon": 0.0, "fusion_lat": 0.0, "type": "electric_scooter", "name": "ae0730f24a7234c17077d3e1daa1282c", "is_disabled": 0, "rental_uris": {"ios": "https://dc.lft.to/lastmile_qr_scan", "android": "https://dc.lft.to/lastmile_qr_scan"}, "is_reserved": 0}, {"lon": -77.11612333333333, "bike_id": "53dd9fac1978e71474f6d4ea5edb30d5", "lat": 38.85494416666667, "fusion_lon": 0.0, "fusion_lat": 0.0, "type": "electric_bike", "name": "53dd9fac1978e71474f6d4ea5edb30d5", "is_disabled": 0, "rental_uris": {"ios": "https://dc.lft.to/lastmile_qr_scan", "android": "https://dc.lft.to/lastmile_qr_scan"}, "is_reserved": 0}, {"lon": -77.0025765, "bike_id": "4571f3285c8a55da1ebed2b9637ca122", "lat": 38.918184833333335, "fusion_lon": 0.0, "fusion_lat": 0.0, "type": "electric_scooter", "name": "4571f3285c8a55da1ebed2b9637ca122", "is_disabled": 0, "rental_uris": {"ios": "https://dc.lft.to/lastmile_qr_scan", "android": "https://dc.lft.to/lastmile_qr_scan"}, "is_reserved": 0}, {"lon": -76.9962155, "bike_id": "0774ffad21d86c1ee42565e77e380f6b", "lat": 38.909406, "fusion_lon": 0.0, "fusion_lat": 0.0, "type": "electric_scooter", "name": "0774ffad21d86c1ee42565e77e380f6b", "is_disabled": 0, "rental_uris": {"ios": "https://dc.lft.to/lastmile_qr_scan", "android": "https://dc.lft.to/lastmile_qr_scan"}, "is_reserved": 0}, {"lon": -76.941756, "bike_id": "6df9580077983ad87687ddae7529809f", "lat": 38.89276383333333, "fusion_lon": 0.0, "fusion_lat": 0.0, "type": "electric_scooter", "name": "6df9580077983ad87687ddae7529809f", "is_disabled": 0, "rental_uris": {"ios": "https://dc.lft.to/lastmile_qr_scan", "android": "https://dc.lft.to/lastmile_qr_scan"}, "is_reserved": 0}, {"lon": -77.0317675, "bike_id": "11486610614b709d79aa7dc04bdf5e26", "lat": 38.9036345, "fusion_lon": 0.0, "fusion_lat": 0.0, "type": "electric_scooter", "name": "11486610614b709d79aa7dc04bdf5e26", "is_disabled": 0, "rental_uris": {"ios": "https://dc.lft.to/lastmile_qr_scan", "android": "https://dc.lft.to/lastmile_qr_scan"}, "is_reserved": 0}, {"lon": -77.063389, "bike_id": "04a98b4906f409b53784a32e235c1096", "lat": 38.90680066666667, "fusion_lon": 0.0, "fusion_lat": 0.0, "type": "electric_scooter", "name": "04a98b4906f409b53784a32e235c1096", "is_disabled": 0, "rental_uris": {"ios": "https://dc.lft.to/lastmile_qr_scan", "android": "https://dc.lft.to/lastmile_qr_scan"}, "is_reserved": 0}, {"lon": -77.01403766666667, "bike_id": "62c1fc8f6a71da42fe7fbff19a595cd7", "lat": 38.914808666666666, "fusion_lon": 0.0, "fusion_lat": 0.0, "type": "electric_scooter", "name": "62c1fc8f6a71da42fe7fbff19a595cd7", "is_disabled": 0, "rental_uris": {"ios": "https://dc.lft.to/lastmile_qr_scan", "android": "https://dc.lft.to/lastmile_qr_scan"}, "is_reserved": 0}, {"lon": -77.08457783333333, "bike_id": "21e4cdb4fc713ed6fe01443fd7376135", "lat": 38.848195, "fusion_lon": 0.0, "fusion_lat": 0.0, "type": "electric_bike", "name": "21e4cdb4fc713ed6fe01443fd7376135", "is_disabled": 0, "rental_uris": {"ios": "https://dc.lft.to/lastmile_qr_scan", "android": "https://dc.lft.to/lastmile_qr_scan"}, "is_reserved": 0}, {"lon": -77.05534616666667, "bike_id": "2633f1becd47034ac1c2e465e98207f5", "lat": 38.9342995, "fusion_lon": 0.0, "fusion_lat": 0.0, "type": "electric_scooter", "name": "2633f1becd47034ac1c2e465e98207f5", "is_disabled": 0, "rental_uris": {"ios": "https://dc.lft.to/lastmile_qr_scan", "android": "https://dc.lft.to/lastmile_qr_scan"}, "is_reserved": 0}, {"lon": -77.03504466666666, "bike_id": "4aeb8b8ed00885d88c28cb8e6558431b", "lat": 38.9247885, "fusion_lon": 0.0, "fusion_lat": 0.0, "type": "electric_scooter", "name": "4aeb8b8ed00885d88c28cb8e6558431b", "is_disabled": 0, "rental_uris": {"ios": "https://dc.lft.to/lastmile_qr_scan", "android": "https://dc.lft.to/lastmile_qr_scan"}, "is_reserved": 0}, {"lon": -76.98071483333334, "bike_id": "cb88a2be6ef8fc941a811e7c36c2e073", "lat": 38.90173933333333, "fusion_lon": 0.0, "fusion_lat": 0.0, "type": "electric_scooter", "name": "cb88a2be6ef8fc941a811e7c36c2e073", "is_disabled": 0, "rental_uris": {"ios": "https://dc.lft.to/lastmile_qr_scan", "android": "https://dc.lft.to/lastmile_qr_scan"}, "is_reserved": 0}, {"lon": -77.03424166666667, "bike_id": "05ed97161ce3f5ba2e59ae25e8169c81", "lat": 38.9224565, "fusion_lon": 0.0, "fusion_lat": 0.0, "type": "electric_scooter", "name": "05ed97161ce3f5ba2e59ae25e8169c81", "is_disabled": 0, "rental_uris": {"ios": "https://dc.lft.to/lastmile_qr_scan", "android": "https://dc.lft.to/lastmile_qr_scan"}, "is_reserved": 0}, {"lon": -77.03261483333333, "bike_id": "ace1e1eb2c9048e96bcdffcfabdd2c6a", "lat": 38.93410633333333, "fusion_lon": 0.0, "fusion_lat": 0.0, "type": "electric_scooter", "name": "ace1e1eb2c9048e96bcdffcfabdd2c6a", "is_disabled": 0, "rental_uris": {"ios": "https://dc.lft.to/lastmile_qr_scan", "android": "https://dc.lft.to/lastmile_qr_scan"}, "is_reserved": 0}, {"lon": -77.03899, "bike_id": "44221ece02e8b94fdac8eea6a2eefb23", "lat": 38.9235775, "fusion_lon": 0.0, "fusion_lat": 0.0, "type": "electric_scooter", "name": "44221ece02e8b94fdac8eea6a2eefb23", "is_disabled": 0, "rental_uris": {"ios": "https://dc.lft.to/lastmile_qr_scan", "android": "https://dc.lft.to/lastmile_qr_scan"}, "is_reserved": 0}, {"lon": -77.02689216666667, "bike_id": "b6a3ef9a6608aec25f7e2b357367399e", "lat": 38.89720766666667, "fusion_lon": 0.0, "fusion_lat": 0.0, "type": "electric_scooter", "name": "b6a3ef9a6608aec25f7e2b357367399e", "is_disabled": 0, "rental_uris": {"ios": "https://dc.lft.to/lastmile_qr_scan", "android": "https://dc.lft.to/lastmile_qr_scan"}, "is_reserved": 0}, {"lon": -77.0397145, "bike_id": "670c4e862ecbe584141daeac6a59872f", "lat": 38.91190983333333, "fusion_lon": 0.0, "fusion_lat": 0.0, "type": "electric_scooter", "name": "670c4e862ecbe584141daeac6a59872f", "is_disabled": 0, "rental_uris": {"ios": "https://dc.lft.to/lastmile_qr_scan", "android": "https://dc.lft.to/lastmile_qr_scan"}, "is_reserved": 0}, {"lon": -77.03502816666666, "bike_id": "11d563a17507c0947f2bc8ee56c90fa9", "lat": 38.937510333333336, "fusion_lon": 0.0, "fusion_lat": 0.0, "type": "electric_scooter", "name": "11d563a17507c0947f2bc8ee56c90fa9", "is_disabled": 0, "rental_uris": {"ios": "https://dc.lft.to/lastmile_qr_scan", "android": "https://dc.lft.to/lastmile_qr_scan"}, "is_reserved": 0}, {"lon": -77.01330516666667, "bike_id": "79b6ee0508187778d8e9e3271d298731", "lat": 38.879310833333335, "fusion_lon": 0.0, "fusion_lat": 0.0, "type": "electric_scooter", "name": "79b6ee0508187778d8e9e3271d298731", "is_disabled": 0, "rental_uris": {"ios": "https://dc.lft.to/lastmile_qr_scan", "android": "https://dc.lft.to/lastmile_qr_scan"}, "is_reserved": 0}, {"lon": -77.01621883333334, "bike_id": "4901110f8f6d4f795f3be861dc415338", "lat": 38.90687883333333, "fusion_lon": 0.0, "fusion_lat": 0.0, "type": "electric_scooter", "name": "4901110f8f6d4f795f3be861dc415338", "is_disabled": 0, "rental_uris": {"ios": "https://dc.lft.to/lastmile_qr_scan", "android": "https://dc.lft.to/lastmile_qr_scan"}, "is_reserved": 0}, {"lon": -77.02225066666666, "bike_id": "fe0bb3216ec6585a033da8737bea4142", "lat": 38.91018966666667, "fusion_lon": 0.0, "fusion_lat": 0.0, "type": "electric_scooter", "name": "fe0bb3216ec6585a033da8737bea4142", "is_disabled": 0, "rental_uris": {"ios": "https://dc.lft.to/lastmile_qr_scan", "android": "https://dc.lft.to/lastmile_qr_scan"}, "is_reserved": 0}, {"lon": -77.02267383333333, "bike_id": "5b907c4469633584c027cb639f8b6cf0", "lat": 38.9127065, "fusion_lon": 0.0, "fusion_lat": 0.0, "type": "electric_scooter", "name": "5b907c4469633584c027cb639f8b6cf0", "is_disabled": 0, "rental_uris": {"ios": "https://dc.lft.to/lastmile_qr_scan", "android": "https://dc.lft.to/lastmile_qr_scan"}, "is_reserved": 0}, {"lon": -77.03661733333334, "bike_id": "0959322cac5cae9e27cc60f3b8935473", "lat": 38.902884, "fusion_lon": 0.0, "fusion_lat": 0.0, "type": "electric_scooter", "name": "0959322cac5cae9e27cc60f3b8935473", "is_disabled": 0, "rental_uris": {"ios": "https://dc.lft.to/lastmile_qr_scan", "android": "https://dc.lft.to/lastmile_qr_scan"}, "is_reserved": 0}, {"lon": -77.03658416666667, "bike_id": "3443868c44ec5194cb6fa2940b2dcd05", "lat": 38.9124685, "fusion_lon": 0.0, "fusion_lat": 0.0, "type": "electric_scooter", "name": "3443868c44ec5194cb6fa2940b2dcd05", "is_disabled": 0, "rental_uris": {"ios": "https://dc.lft.to/lastmile_qr_scan", "android": "https://dc.lft.to/lastmile_qr_scan"}, "is_reserved": 0}, {"lon": -77.11591483333333, "bike_id": "686def5327127c9c6aea953b9f7619ab", "lat": 39.07495466666666, "fusion_lon": 0.0, "fusion_lat": 0.0, "type": "electric_bike", "name": "686def5327127c9c6aea953b9f7619ab", "is_disabled": 0, "rental_uris": {"ios": "https://dc.lft.to/lastmile_qr_scan", "android": "https://dc.lft.to/lastmile_qr_scan"}, "is_reserved": 0}, {"lon": -77.0328365, "bike_id": "be7d633ab4fb57f4db14003b341bd1b7", "lat": 38.937773, "fusion_lon": 0.0, "fusion_lat": 0.0, "type": "electric_bike", "name": "be7d633ab4fb57f4db14003b341bd1b7", "is_disabled": 0, "rental_uris": {"ios": "https://dc.lft.to/lastmile_qr_scan", "android": "https://dc.lft.to/lastmile_qr_scan"}, "is_reserved": 0}, {"lon": -76.96908866666666, "bike_id": "f8fa801f54961b024e4f629af22d45c7", "lat": 38.846142, "fusion_lon": 0.0, "fusion_lat": 0.0, "type": "electric_bike", "name": "f8fa801f54961b024e4f629af22d45c7", "is_disabled": 0, "rental_uris": {"ios": "https://dc.lft.to/lastmile_qr_scan", "android": "https://dc.lft.to/lastmile_qr_scan"}, "is_reserved": 0}, {"lon": -77.02825533333333, "bike_id": "0e75c2694570be8f375387aabfb936bf", "lat": 38.938851666666665, "fusion_lon": 0.0, "fusion_lat": 0.0, "type": "electric_scooter", "name": "0e75c2694570be8f375387aabfb936bf", "is_disabled": 0, "rental_uris": {"ios": "https://dc.lft.to/lastmile_qr_scan", "android": "https://dc.lft.to/lastmile_qr_scan"}, "is_reserved": 0}, {"lon": -76.990718, "bike_id": "6aedfe65487fd530edc807bfd0c092a5", "lat": 38.927449833333334, "fusion_lon": 0.0, "fusion_lat": 0.0, "type": "electric_scooter", "name": "6aedfe65487fd530edc807bfd0c092a5", "is_disabled": 0, "rental_uris": {"ios": "https://dc.lft.to/lastmile_qr_scan", "android": "https://dc.lft.to/lastmile_qr_scan"}, "is_reserved": 0}, {"lon": -76.9993025, "bike_id": "6ca44c8e82e1f7fafd4471f0aede7e05", "lat": 38.84316166666667, "fusion_lon": 0.0, "fusion_lat": 0.0, "type": "electric_scooter", "name": "6ca44c8e82e1f7fafd4471f0aede7e05", "is_disabled": 0, "rental_uris": {"ios": "https://dc.lft.to/lastmile_qr_scan", "android": "https://dc.lft.to/lastmile_qr_scan"}, "is_reserved": 0}, {"lon": -76.99050983333333, "bike_id": "e85565ee578d630bd280a3790fdf9a02", "lat": 38.863760666666664, "fusion_lon": 0.0, "fusion_lat": 0.0, "type": "electric_scooter", "name": "e85565ee578d630bd280a3790fdf9a02", "is_disabled": 0, "rental_uris": {"ios": "https://dc.lft.to/lastmile_qr_scan", "android": "https://dc.lft.to/lastmile_qr_scan"}, "is_reserved": 0}, {"lon": -77.01127066666666, "bike_id": "3aba64d4af1c562ea510e4c0e2fe25cd", "lat": 38.89495316666667, "fusion_lon": 0.0, "fusion_lat": 0.0, "type": "electric_scooter", "name": "3aba64d4af1c562ea510e4c0e2fe25cd", "is_disabled": 0, "rental_uris": {"ios": "https://dc.lft.to/lastmile_qr_scan", "android": "https://dc.lft.to/lastmile_qr_scan"}, "is_reserved": 0}, {"lon": -77.01150883333334, "bike_id": "70c4d59cd16dd722832ee858e700302e", "lat": 38.895861, "fusion_lon": 0.0, "fusion_lat": 0.0, "type": "electric_scooter", "name": "70c4d59cd16dd722832ee858e700302e", "is_disabled": 0, "rental_uris": {"ios": "https://dc.lft.to/lastmile_qr_scan", "android": "https://dc.lft.to/lastmile_qr_scan"}, "is_reserved": 0}, {"lon": -77.02171116666666, "bike_id": "321148a39c27c622af7d57e50758160e", "lat": 38.92506816666667, "fusion_lon": 0.0, "fusion_lat": 0.0, "type": "electric_scooter", "name": "321148a39c27c622af7d57e50758160e", "is_disabled": 0, "rental_uris": {"ios": "https://dc.lft.to/lastmile_qr_scan", "android": "https://dc.lft.to/lastmile_qr_scan"}, "is_reserved": 0}, {"lon": -77.01451933333334, "bike_id": "a1d7108a383054e406f0b66d560396f0", "lat": 38.905223, "fusion_lon": 0.0, "fusion_lat": 0.0, "type": "electric_scooter", "name": "a1d7108a383054e406f0b66d560396f0", "is_disabled": 0, "rental_uris": {"ios": "https://dc.lft.to/lastmile_qr_scan", "android": "https://dc.lft.to/lastmile_qr_scan"}, "is_reserved": 0}, {"lon": -76.98848066666666, "bike_id": "af57cd7aa26dd890d5ad33f2165837e8", "lat": 38.90129566666667, "fusion_lon": 0.0, "fusion_lat": 0.0, "type": "electric_scooter", "name": "af57cd7aa26dd890d5ad33f2165837e8", "is_disabled": 0, "rental_uris": {"ios": "https://dc.lft.to/lastmile_qr_scan", "android": "https://dc.lft.to/lastmile_qr_scan"}, "is_reserved": 0}, {"lon": -77.03484483333334, "bike_id": "9f94fba77c4ee268bd3b9e28c16172b4", "lat": 38.90041566666667, "fusion_lon": 0.0, "fusion_lat": 0.0, "type": "electric_scooter", "name": "9f94fba77c4ee268bd3b9e28c16172b4", "is_disabled": 0, "rental_uris": {"ios": "https://dc.lft.to/lastmile_qr_scan", "android": "https://dc.lft.to/lastmile_qr_scan"}, "is_reserved": 0}, {"lon": -76.9775225, "bike_id": "1d96f4b0b032cd6630781c304048f5d3", "lat": 38.865065333333334, "fusion_lon": 0.0, "fusion_lat": 0.0, "type": "electric_scooter", "name": "1d96f4b0b032cd6630781c304048f5d3", "is_disabled": 0, "rental_uris": {"ios": "https://dc.lft.to/lastmile_qr_scan", "android": "https://dc.lft.to/lastmile_qr_scan"}, "is_reserved": 0}, {"lon": -77.01538316666667, "bike_id": "f27da94b78be107884f1fa94496d025c", "lat": 38.90971733333333, "fusion_lon": 0.0, "fusion_lat": 0.0, "type": "electric_bike", "name": "f27da94b78be107884f1fa94496d025c", "is_disabled": 0, "rental_uris": {"ios": "https://dc.lft.to/lastmile_qr_scan", "android": "https://dc.lft.to/lastmile_qr_scan"}, "is_reserved": 0}, {"lon": -77.02461983333333, "bike_id": "9ee9cdf52b877537aa177ba2ffff0fe8", "lat": 38.91692033333333, "fusion_lon": 0.0, "fusion_lat": 0.0, "type": "electric_scooter", "name": "9ee9cdf52b877537aa177ba2ffff0fe8", "is_disabled": 0, "rental_uris": {"ios": "https://dc.lft.to/lastmile_qr_scan", "android": "https://dc.lft.to/lastmile_qr_scan"}, "is_reserved": 0}, {"lon": -77.12222183333333, "bike_id": "becc29456a7285498f60f69432b25b89", "lat": 38.8530045, "fusion_lon": 0.0, "fusion_lat": 0.0, "type": "electric_bike", "name": "becc29456a7285498f60f69432b25b89", "is_disabled": 0, "rental_uris": {"ios": "https://dc.lft.to/lastmile_qr_scan", "android": "https://dc.lft.to/lastmile_qr_scan"}, "is_reserved": 0}, {"lon": -77.04059633333334, "bike_id": "d17b9fec9997ce99dfff3f3bb7ed3f0e", "lat": 38.914844333333335, "fusion_lon": 0.0, "fusion_lat": 0.0, "type": "electric_scooter", "name": "d17b9fec9997ce99dfff3f3bb7ed3f0e", "is_disabled": 0, "rental_uris": {"ios": "https://dc.lft.to/lastmile_qr_scan", "android": "https://dc.lft.to/lastmile_qr_scan"}, "is_reserved": 0}, {"lon": -77.0443665, "bike_id": "0ca760c7e8e49c8e6f7d98f2acc3b8ca", "lat": 38.92174383333333, "fusion_lon": 0.0, "fusion_lat": 0.0, "type": "electric_scooter", "name": "0ca760c7e8e49c8e6f7d98f2acc3b8ca", "is_disabled": 0, "rental_uris": {"ios": "https://dc.lft.to/lastmile_qr_scan", "android": "https://dc.lft.to/lastmile_qr_scan"}, "is_reserved": 0}, {"lon": -77.056085, "bike_id": "b3328d52fce084c8ef3b895839c080cf", "lat": 38.9233425, "fusion_lon": 0.0, "fusion_lat": 0.0, "type": "electric_scooter", "name": "b3328d52fce084c8ef3b895839c080cf", "is_disabled": 0, "rental_uris": {"ios": "https://dc.lft.to/lastmile_qr_scan", "android": "https://dc.lft.to/lastmile_qr_scan"}, "is_reserved": 0}, {"lon": -77.014016, "bike_id": "2f6fcf2850741b96ff85351a20979bbd", "lat": 38.92864433333333, "fusion_lon": 0.0, "fusion_lat": 0.0, "type": "electric_scooter", "name": "2f6fcf2850741b96ff85351a20979bbd", "is_disabled": 0, "rental_uris": {"ios": "https://dc.lft.to/lastmile_qr_scan", "android": "https://dc.lft.to/lastmile_qr_scan"}, "is_reserved": 0}, {"lon": -77.03342983333333, "bike_id": "d888e1075550376f8850c5864d3e64d2", "lat": 38.8995915, "fusion_lon": 0.0, "fusion_lat": 0.0, "type": "electric_scooter", "name": "d888e1075550376f8850c5864d3e64d2", "is_disabled": 0, "rental_uris": {"ios": "https://dc.lft.to/lastmile_qr_scan", "android": "https://dc.lft.to/lastmile_qr_scan"}, "is_reserved": 0}, {"lon": -77.01756783333333, "bike_id": "609e0831a7cb5544062c46dc9fa9245b", "lat": 38.90276883333333, "fusion_lon": 0.0, "fusion_lat": 0.0, "type": "electric_scooter", "name": "609e0831a7cb5544062c46dc9fa9245b", "is_disabled": 0, "rental_uris": {"ios": "https://dc.lft.to/lastmile_qr_scan", "android": "https://dc.lft.to/lastmile_qr_scan"}, "is_reserved": 0}, {"lon": -77.01105683333333, "bike_id": "0ef29d6e794f7c776a68d40e37312379", "lat": 38.9180805, "fusion_lon": 0.0, "fusion_lat": 0.0, "type": "electric_scooter", "name": "0ef29d6e794f7c776a68d40e37312379", "is_disabled": 0, "rental_uris": {"ios": "https://dc.lft.to/lastmile_qr_scan", "android": "https://dc.lft.to/lastmile_qr_scan"}, "is_reserved": 0}, {"lon": -77.03203216666667, "bike_id": "b1bd247ae363b116b502021b0e9f7084", "lat": 38.939697, "fusion_lon": 0.0, "fusion_lat": 0.0, "type": "electric_scooter", "name": "b1bd247ae363b116b502021b0e9f7084", "is_disabled": 0, "rental_uris": {"ios": "https://dc.lft.to/lastmile_qr_scan", "android": "https://dc.lft.to/lastmile_qr_scan"}, "is_reserved": 0}, {"lon": -77.0235345, "bike_id": "69f943fcc72d8b0839e3a427d10e05ba", "lat": 38.93534483333333, "fusion_lon": 0.0, "fusion_lat": 0.0, "type": "electric_scooter", "name": "69f943fcc72d8b0839e3a427d10e05ba", "is_disabled": 0, "rental_uris": {"ios": "https://dc.lft.to/lastmile_qr_scan", "android": "https://dc.lft.to/lastmile_qr_scan"}, "is_reserved": 0}, {"lon": -77.013403, "bike_id": "5936cf02766937ab72e3db2162d56766", "lat": 38.87817733333333, "fusion_lon": 0.0, "fusion_lat": 0.0, "type": "electric_scooter", "name": "5936cf02766937ab72e3db2162d56766", "is_disabled": 0, "rental_uris": {"ios": "https://dc.lft.to/lastmile_qr_scan", "android": "https://dc.lft.to/lastmile_qr_scan"}, "is_reserved": 0}, {"lon": -77.02874333333334, "bike_id": "c430fd8069b876a77b623bdb3e935136", "lat": 38.91693016666667, "fusion_lon": 0.0, "fusion_lat": 0.0, "type": "electric_scooter", "name": "c430fd8069b876a77b623bdb3e935136", "is_disabled": 0, "rental_uris": {"ios": "https://dc.lft.to/lastmile_qr_scan", "android": "https://dc.lft.to/lastmile_qr_scan"}, "is_reserved": 0}, {"lon": -77.03131233333333, "bike_id": "3c8d2a7e5dfc166ca00821915b1eee55", "lat": 38.91568316666667, "fusion_lon": 0.0, "fusion_lat": 0.0, "type": "electric_scooter", "name": "3c8d2a7e5dfc166ca00821915b1eee55", "is_disabled": 0, "rental_uris": {"ios": "https://dc.lft.to/lastmile_qr_scan", "android": "https://dc.lft.to/lastmile_qr_scan"}, "is_reserved": 0}, {"lon": -76.96523516666667, "bike_id": "7373892247650a8130b74a9cffb54a48", "lat": 38.8762985, "fusion_lon": 0.0, "fusion_lat": 0.0, "type": "electric_scooter", "name": "7373892247650a8130b74a9cffb54a48", "is_disabled": 0, "rental_uris": {"ios": "https://dc.lft.to/lastmile_qr_scan", "android": "https://dc.lft.to/lastmile_qr_scan"}, "is_reserved": 0}, {"lon": -77.00591716666666, "bike_id": "d02bc84b49ba7a1224eb082be017f637", "lat": 38.90560383333333, "fusion_lon": 0.0, "fusion_lat": 0.0, "type": "electric_scooter", "name": "d02bc84b49ba7a1224eb082be017f637", "is_disabled": 0, "rental_uris": {"ios": "https://dc.lft.to/lastmile_qr_scan", "android": "https://dc.lft.to/lastmile_qr_scan"}, "is_reserved": 0}, {"lon": -77.038492, "bike_id": "c2621f9979b85e99f13a8d0b7b5d6f32", "lat": 38.9313095, "fusion_lon": 0.0, "fusion_lat": 0.0, "type": "electric_scooter", "name": "c2621f9979b85e99f13a8d0b7b5d6f32", "is_disabled": 0, "rental_uris": {"ios": "https://dc.lft.to/lastmile_qr_scan", "android": "https://dc.lft.to/lastmile_qr_scan"}, "is_reserved": 0}, {"lon": -77.10026916666666, "bike_id": "e42f408f0f987b40bf792f70f79f3fae", "lat": 38.871400666666666, "fusion_lon": 0.0, "fusion_lat": 0.0, "type": "electric_bike", "name": "e42f408f0f987b40bf792f70f79f3fae", "is_disabled": 0, "rental_uris": {"ios": "https://dc.lft.to/lastmile_qr_scan", "android": "https://dc.lft.to/lastmile_qr_scan"}, "is_reserved": 0}, {"lon": -77.0514605, "bike_id": "c9df555a640f40492d7d91933bd15174", "lat": 38.898603, "fusion_lon": 0.0, "fusion_lat": 0.0, "type": "electric_scooter", "name": "c9df555a640f40492d7d91933bd15174", "is_disabled": 0, "rental_uris": {"ios": "https://dc.lft.to/lastmile_qr_scan", "android": "https://dc.lft.to/lastmile_qr_scan"}, "is_reserved": 0}, {"lon": -76.998489, "bike_id": "ecda7b1c2b5b107a80b5b78f48849638", "lat": 38.90103583333333, "fusion_lon": 0.0, "fusion_lat": 0.0, "type": "electric_scooter", "name": "ecda7b1c2b5b107a80b5b78f48849638", "is_disabled": 0, "rental_uris": {"ios": "https://dc.lft.to/lastmile_qr_scan", "android": "https://dc.lft.to/lastmile_qr_scan"}, "is_reserved": 0}, {"lon": -77.07660233333333, "bike_id": "b5df12d586966ec5c3f576442d3e6b03", "lat": 38.862592, "fusion_lon": 0.0, "fusion_lat": 0.0, "type": "electric_bike", "name": "b5df12d586966ec5c3f576442d3e6b03", "is_disabled": 0, "rental_uris": {"ios": "https://dc.lft.to/lastmile_qr_scan", "android": "https://dc.lft.to/lastmile_qr_scan"}, "is_reserved": 0}, {"lon": -77.03662133333333, "bike_id": "b9653e0f30fdfaf2cada35fba1fbea7e", "lat": 38.929894833333336, "fusion_lon": 0.0, "fusion_lat": 0.0, "type": "electric_scooter", "name": "b9653e0f30fdfaf2cada35fba1fbea7e", "is_disabled": 0, "rental_uris": {"ios": "https://dc.lft.to/lastmile_qr_scan", "android": "https://dc.lft.to/lastmile_qr_scan"}, "is_reserved": 0}, {"lon": -77.03962416666667, "bike_id": "dc63173685af75ff8d24a29a0d46dc1e", "lat": 38.90235583333333, "fusion_lon": 0.0, "fusion_lat": 0.0, "type": "electric_scooter", "name": "dc63173685af75ff8d24a29a0d46dc1e", "is_disabled": 0, "rental_uris": {"ios": "https://dc.lft.to/lastmile_qr_scan", "android": "https://dc.lft.to/lastmile_qr_scan"}, "is_reserved": 0}, {"lon": -77.024359, "bike_id": "cf0462cdf194d75e3207f8ae10ad4975", "lat": 38.92264333333333, "fusion_lon": 0.0, "fusion_lat": 0.0, "type": "electric_scooter", "name": "cf0462cdf194d75e3207f8ae10ad4975", "is_disabled": 0, "rental_uris": {"ios": "https://dc.lft.to/lastmile_qr_scan", "android": "https://dc.lft.to/lastmile_qr_scan"}, "is_reserved": 0}, {"lon": -76.99011483333334, "bike_id": "f117c6b55a5d09988da94d400d7efad7", "lat": 38.9460605, "fusion_lon": 0.0, "fusion_lat": 0.0, "type": "electric_scooter", "name": "f117c6b55a5d09988da94d400d7efad7", "is_disabled": 0, "rental_uris": {"ios": "https://dc.lft.to/lastmile_qr_scan", "android": "https://dc.lft.to/lastmile_qr_scan"}, "is_reserved": 0}, {"lon": -76.99489816666667, "bike_id": "a90e8d855f3fb17961db88d8a8851069", "lat": 38.879513333333335, "fusion_lon": 0.0, "fusion_lat": 0.0, "type": "electric_scooter", "name": "a90e8d855f3fb17961db88d8a8851069", "is_disabled": 0, "rental_uris": {"ios": "https://dc.lft.to/lastmile_qr_scan", "android": "https://dc.lft.to/lastmile_qr_scan"}, "is_reserved": 0}, {"lon": -77.0386635, "bike_id": "d6ad72a0826d94f8aae53d2c04925a8e", "lat": 38.92017366666666, "fusion_lon": 0.0, "fusion_lat": 0.0, "type": "electric_scooter", "name": "d6ad72a0826d94f8aae53d2c04925a8e", "is_disabled": 0, "rental_uris": {"ios": "https://dc.lft.to/lastmile_qr_scan", "android": "https://dc.lft.to/lastmile_qr_scan"}, "is_reserved": 0}, {"lon": -76.98984416666667, "bike_id": "8aff4d0fa612bd413545712077a64f6a", "lat": 38.859299, "fusion_lon": 0.0, "fusion_lat": 0.0, "type": "electric_scooter", "name": "8aff4d0fa612bd413545712077a64f6a", "is_disabled": 0, "rental_uris": {"ios": "https://dc.lft.to/lastmile_qr_scan", "android": "https://dc.lft.to/lastmile_qr_scan"}, "is_reserved": 0}, {"lon": -76.9936835, "bike_id": "26932c1d0e2b7e7a7bd1ebba353937df", "lat": 38.940254833333334, "fusion_lon": 0.0, "fusion_lat": 0.0, "type": "electric_scooter", "name": "26932c1d0e2b7e7a7bd1ebba353937df", "is_disabled": 0, "rental_uris": {"ios": "https://dc.lft.to/lastmile_qr_scan", "android": "https://dc.lft.to/lastmile_qr_scan"}, "is_reserved": 0}, {"lon": -77.049793, "bike_id": "5667df08498715653973270d796195a5", "lat": 39.06293733333333, "fusion_lon": 0.0, "fusion_lat": 0.0, "type": "electric_bike", "name": "5667df08498715653973270d796195a5", "is_disabled": 0, "rental_uris": {"ios": "https://dc.lft.to/lastmile_qr_scan", "android": "https://dc.lft.to/lastmile_qr_scan"}, "is_reserved": 0}, {"lon": -76.98012816666666, "bike_id": "de2514e80fdb03df1e3e10497a193342", "lat": 38.853168833333335, "fusion_lon": 0.0, "fusion_lat": 0.0, "type": "electric_bike", "name": "de2514e80fdb03df1e3e10497a193342", "is_disabled": 0, "rental_uris": {"ios": "https://dc.lft.to/lastmile_qr_scan", "android": "https://dc.lft.to/lastmile_qr_scan"}, "is_reserved": 0}, {"lon": -76.9898835, "bike_id": "610cfb0d80a67fb747893b301b5bad93", "lat": 38.93363516666667, "fusion_lon": 0.0, "fusion_lat": 0.0, "type": "electric_scooter", "name": "610cfb0d80a67fb747893b301b5bad93", "is_disabled": 0, "rental_uris": {"ios": "https://dc.lft.to/lastmile_qr_scan", "android": "https://dc.lft.to/lastmile_qr_scan"}, "is_reserved": 0}, {"lon": -77.021563, "bike_id": "5fe14b8488c7e80b3f485902755ecf6d", "lat": 38.95076866666667, "fusion_lon": 0.0, "fusion_lat": 0.0, "type": "electric_scooter", "name": "5fe14b8488c7e80b3f485902755ecf6d", "is_disabled": 0, "rental_uris": {"ios": "https://dc.lft.to/lastmile_qr_scan", "android": "https://dc.lft.to/lastmile_qr_scan"}, "is_reserved": 0}, {"lon": -77.02391283333333, "bike_id": "48a7065e9abb85d69c8f41f3f583897c", "lat": 38.92076383333333, "fusion_lon": 0.0, "fusion_lat": 0.0, "type": "electric_scooter", "name": "48a7065e9abb85d69c8f41f3f583897c", "is_disabled": 0, "rental_uris": {"ios": "https://dc.lft.to/lastmile_qr_scan", "android": "https://dc.lft.to/lastmile_qr_scan"}, "is_reserved": 0}, {"lon": -77.007287, "bike_id": "8cb747e79b99e92b5ed99bb315fa2d47", "lat": 38.899148, "fusion_lon": 0.0, "fusion_lat": 0.0, "type": "electric_scooter", "name": "8cb747e79b99e92b5ed99bb315fa2d47", "is_disabled": 0, "rental_uris": {"ios": "https://dc.lft.to/lastmile_qr_scan", "android": "https://dc.lft.to/lastmile_qr_scan"}, "is_reserved": 0}, {"lon": -77.03654966666667, "bike_id": "b84ca6b3fd2d6fe1006be9f1d4cb3bf8", "lat": 38.9362745, "fusion_lon": 0.0, "fusion_lat": 0.0, "type": "electric_bike", "name": "b84ca6b3fd2d6fe1006be9f1d4cb3bf8", "is_disabled": 0, "rental_uris": {"ios": "https://dc.lft.to/lastmile_qr_scan", "android": "https://dc.lft.to/lastmile_qr_scan"}, "is_reserved": 0}, {"lon": -77.020091, "bike_id": "36c09a8650a485752abb10f6653d2f1c", "lat": 38.924209, "fusion_lon": 0.0, "fusion_lat": 0.0, "type": "electric_scooter", "name": "36c09a8650a485752abb10f6653d2f1c", "is_disabled": 0, "rental_uris": {"ios": "https://dc.lft.to/lastmile_qr_scan", "android": "https://dc.lft.to/lastmile_qr_scan"}, "is_reserved": 0}, {"lon": -76.99518233333333, "bike_id": "e2c2d6e519b2b40db11c340fc80a6288", "lat": 38.862577333333334, "fusion_lon": 0.0, "fusion_lat": 0.0, "type": "electric_scooter", "name": "e2c2d6e519b2b40db11c340fc80a6288", "is_disabled": 0, "rental_uris": {"ios": "https://dc.lft.to/lastmile_qr_scan", "android": "https://dc.lft.to/lastmile_qr_scan"}, "is_reserved": 0}, {"lon": -77.034234, "bike_id": "a2b9d7cfd57f40c15d050b06aca5ade0", "lat": 38.926417, "fusion_lon": 0.0, "fusion_lat": 0.0, "type": "electric_scooter", "name": "a2b9d7cfd57f40c15d050b06aca5ade0", "is_disabled": 0, "rental_uris": {"ios": "https://dc.lft.to/lastmile_qr_scan", "android": "https://dc.lft.to/lastmile_qr_scan"}, "is_reserved": 0}, {"lon": -77.013296, "bike_id": "bbfd92081428d0338213bbb7646dfaf4", "lat": 38.92071383333333, "fusion_lon": 0.0, "fusion_lat": 0.0, "type": "electric_scooter", "name": "bbfd92081428d0338213bbb7646dfaf4", "is_disabled": 0, "rental_uris": {"ios": "https://dc.lft.to/lastmile_qr_scan", "android": "https://dc.lft.to/lastmile_qr_scan"}, "is_reserved": 0}, {"lon": -77.06741566666666, "bike_id": "819bb689986737c06b181b1cf703b70b", "lat": 38.90368683333333, "fusion_lon": 0.0, "fusion_lat": 0.0, "type": "electric_bike", "name": "819bb689986737c06b181b1cf703b70b", "is_disabled": 0, "rental_uris": {"ios": "https://dc.lft.to/lastmile_qr_scan", "android": "https://dc.lft.to/lastmile_qr_scan"}, "is_reserved": 0}, {"lon": -77.020779, "bike_id": "e56b96bca4dab625ddd849a57af65581", "lat": 38.92719316666667, "fusion_lon": 0.0, "fusion_lat": 0.0, "type": "electric_scooter", "name": "e56b96bca4dab625ddd849a57af65581", "is_disabled": 0, "rental_uris": {"ios": "https://dc.lft.to/lastmile_qr_scan", "android": "https://dc.lft.to/lastmile_qr_scan"}, "is_reserved": 0}, {"lon": -77.017291, "bike_id": "4cfbd54b033151b8dd1a96862e3f537a", "lat": 38.91684633333333, "fusion_lon": 0.0, "fusion_lat": 0.0, "type": "electric_scooter", "name": "4cfbd54b033151b8dd1a96862e3f537a", "is_disabled": 0, "rental_uris": {"ios": "https://dc.lft.to/lastmile_qr_scan", "android": "https://dc.lft.to/lastmile_qr_scan"}, "is_reserved": 0}, {"lon": -77.03621016666666, "bike_id": "36872966ffc14e384e70357b0a3b6ec5", "lat": 38.9068425, "fusion_lon": 0.0, "fusion_lat": 0.0, "type": "electric_scooter", "name": "36872966ffc14e384e70357b0a3b6ec5", "is_disabled": 0, "rental_uris": {"ios": "https://dc.lft.to/lastmile_qr_scan", "android": "https://dc.lft.to/lastmile_qr_scan"}, "is_reserved": 0}, {"lon": -77.05880416666666, "bike_id": "b5fcde8cf5f7c27108965a0ed54e61ce", "lat": 38.862904666666665, "fusion_lon": 0.0, "fusion_lat": 0.0, "type": "electric_bike", "name": "b5fcde8cf5f7c27108965a0ed54e61ce", "is_disabled": 0, "rental_uris": {"ios": "https://dc.lft.to/lastmile_qr_scan", "android": "https://dc.lft.to/lastmile_qr_scan"}, "is_reserved": 0}, {"lon": -76.986861, "bike_id": "ba6100b0bb12348873285f59e0afc55e", "lat": 38.91224183333333, "fusion_lon": 0.0, "fusion_lat": 0.0, "type": "electric_scooter", "name": "ba6100b0bb12348873285f59e0afc55e", "is_disabled": 0, "rental_uris": {"ios": "https://dc.lft.to/lastmile_qr_scan", "android": "https://dc.lft.to/lastmile_qr_scan"}, "is_reserved": 0}, {"lon": -77.02345266666667, "bike_id": "862f819655715d23bce9507616013681", "lat": 38.92249983333333, "fusion_lon": 0.0, "fusion_lat": 0.0, "type": "electric_scooter", "name": "862f819655715d23bce9507616013681", "is_disabled": 0, "rental_uris": {"ios": "https://dc.lft.to/lastmile_qr_scan", "android": "https://dc.lft.to/lastmile_qr_scan"}, "is_reserved": 0}, {"lon": -77.01219633333334, "bike_id": "a6919fe05e5a503c25148ee00a771b1e", "lat": 38.91504366666667, "fusion_lon": 0.0, "fusion_lat": 0.0, "type": "electric_scooter", "name": "a6919fe05e5a503c25148ee00a771b1e", "is_disabled": 0, "rental_uris": {"ios": "https://dc.lft.to/lastmile_qr_scan", "android": "https://dc.lft.to/lastmile_qr_scan"}, "is_reserved": 0}, {"lon": -77.00502933333334, "bike_id": "6f8e429938f5c474afcf163d79c05110", "lat": 38.905834666666664, "fusion_lon": 0.0, "fusion_lat": 0.0, "type": "electric_scooter", "name": "6f8e429938f5c474afcf163d79c05110", "is_disabled": 0, "rental_uris": {"ios": "https://dc.lft.to/lastmile_qr_scan", "android": "https://dc.lft.to/lastmile_qr_scan"}, "is_reserved": 0}, {"lon": -77.01507116666667, "bike_id": "b58c11c7ee09c749b0bacba57dc8d759", "lat": 38.90020766666667, "fusion_lon": 0.0, "fusion_lat": 0.0, "type": "electric_scooter", "name": "b58c11c7ee09c749b0bacba57dc8d759", "is_disabled": 0, "rental_uris": {"ios": "https://dc.lft.to/lastmile_qr_scan", "android": "https://dc.lft.to/lastmile_qr_scan"}, "is_reserved": 0}, {"lon": -77.023096, "bike_id": "ea52e60918cc975537d06245e47aec96", "lat": 38.9183805, "fusion_lon": 0.0, "fusion_lat": 0.0, "type": "electric_scooter", "name": "ea52e60918cc975537d06245e47aec96", "is_disabled": 0, "rental_uris": {"ios": "https://dc.lft.to/lastmile_qr_scan", "android": "https://dc.lft.to/lastmile_qr_scan"}, "is_reserved": 0}, {"lon": -77.02153416666667, "bike_id": "45e0d5610be7786a446fb669f5ba790f", "lat": 38.92226266666667, "fusion_lon": 0.0, "fusion_lat": 0.0, "type": "electric_scooter", "name": "45e0d5610be7786a446fb669f5ba790f", "is_disabled": 0, "rental_uris": {"ios": "https://dc.lft.to/lastmile_qr_scan", "android": "https://dc.lft.to/lastmile_qr_scan"}, "is_reserved": 0}, {"lon": -76.92768916666667, "bike_id": "47f55d1d75578b1d99e8c87ba3ba83e5", "lat": 38.900892, "fusion_lon": 0.0, "fusion_lat": 0.0, "type": "electric_scooter", "name": "47f55d1d75578b1d99e8c87ba3ba83e5", "is_disabled": 0, "rental_uris": {"ios": "https://dc.lft.to/lastmile_qr_scan", "android": "https://dc.lft.to/lastmile_qr_scan"}, "is_reserved": 0}, {"lon": -77.05490466666667, "bike_id": "1a31f4912248d3908d3cedfa792be397", "lat": 38.90843433333333, "fusion_lon": 0.0, "fusion_lat": 0.0, "type": "electric_scooter", "name": "1a31f4912248d3908d3cedfa792be397", "is_disabled": 0, "rental_uris": {"ios": "https://dc.lft.to/lastmile_qr_scan", "android": "https://dc.lft.to/lastmile_qr_scan"}, "is_reserved": 0}, {"lon": -77.0519295, "bike_id": "9688152ac56d9d6277b3545fee238651", "lat": 38.92455833333333, "fusion_lon": 0.0, "fusion_lat": 0.0, "type": "electric_scooter", "name": "9688152ac56d9d6277b3545fee238651", "is_disabled": 0, "rental_uris": {"ios": "https://dc.lft.to/lastmile_qr_scan", "android": "https://dc.lft.to/lastmile_qr_scan"}, "is_reserved": 0}, {"lon": -77.023754, "bike_id": "8b37c1d5f213fea0369c694271ac3d03", "lat": 38.902180333333334, "fusion_lon": 0.0, "fusion_lat": 0.0, "type": "electric_scooter", "name": "8b37c1d5f213fea0369c694271ac3d03", "is_disabled": 0, "rental_uris": {"ios": "https://dc.lft.to/lastmile_qr_scan", "android": "https://dc.lft.to/lastmile_qr_scan"}, "is_reserved": 0}, {"lon": -76.983037, "bike_id": "64477c957ccbeb2e6e6c89577571dc0e", "lat": 38.868964, "fusion_lon": 0.0, "fusion_lat": 0.0, "type": "electric_scooter", "name": "64477c957ccbeb2e6e6c89577571dc0e", "is_disabled": 0, "rental_uris": {"ios": "https://dc.lft.to/lastmile_qr_scan", "android": "https://dc.lft.to/lastmile_qr_scan"}, "is_reserved": 0}, {"lon": -76.96059816666667, "bike_id": "8b8919c4b95b46b5d18e8009562d9b7d", "lat": 38.884079166666666, "fusion_lon": 0.0, "fusion_lat": 0.0, "type": "electric_bike", "name": "8b8919c4b95b46b5d18e8009562d9b7d", "is_disabled": 0, "rental_uris": {"ios": "https://dc.lft.to/lastmile_qr_scan", "android": "https://dc.lft.to/lastmile_qr_scan"}, "is_reserved": 0}, {"lon": -77.03175066666667, "bike_id": "73c5e0f7556770405e3b75d4e8cfa61b", "lat": 38.9191315, "fusion_lon": 0.0, "fusion_lat": 0.0, "type": "electric_scooter", "name": "73c5e0f7556770405e3b75d4e8cfa61b", "is_disabled": 0, "rental_uris": {"ios": "https://dc.lft.to/lastmile_qr_scan", "android": "https://dc.lft.to/lastmile_qr_scan"}, "is_reserved": 0}, {"lon": -76.98715916666667, "bike_id": "e300ea47de120e28d2ea805fba1f6912", "lat": 38.86632733333333, "fusion_lon": 0.0, "fusion_lat": 0.0, "type": "electric_scooter", "name": "e300ea47de120e28d2ea805fba1f6912", "is_disabled": 0, "rental_uris": {"ios": "https://dc.lft.to/lastmile_qr_scan", "android": "https://dc.lft.to/lastmile_qr_scan"}, "is_reserved": 0}, {"lon": -77.00201016666666, "bike_id": "3e7093e68d6c538e9c0b7522bd2bae01", "lat": 38.90044833333333, "fusion_lon": 0.0, "fusion_lat": 0.0, "type": "electric_scooter", "name": "3e7093e68d6c538e9c0b7522bd2bae01", "is_disabled": 0, "rental_uris": {"ios": "https://dc.lft.to/lastmile_qr_scan", "android": "https://dc.lft.to/lastmile_qr_scan"}, "is_reserved": 0}, {"lon": -77.03454066666667, "bike_id": "1d79d4c35fa766898e40889d4758ad95", "lat": 38.910091, "fusion_lon": 0.0, "fusion_lat": 0.0, "type": "electric_scooter", "name": "1d79d4c35fa766898e40889d4758ad95", "is_disabled": 0, "rental_uris": {"ios": "https://dc.lft.to/lastmile_qr_scan", "android": "https://dc.lft.to/lastmile_qr_scan"}, "is_reserved": 0}, {"lon": -77.01132733333333, "bike_id": "fc67dfb7c4eab31b579f39fc831eac7a", "lat": 38.90731433333333, "fusion_lon": 0.0, "fusion_lat": 0.0, "type": "electric_scooter", "name": "fc67dfb7c4eab31b579f39fc831eac7a", "is_disabled": 0, "rental_uris": {"ios": "https://dc.lft.to/lastmile_qr_scan", "android": "https://dc.lft.to/lastmile_qr_scan"}, "is_reserved": 0}, {"lon": -76.98884983333333, "bike_id": "2fa04d6e066364c79fc678717f3799a9", "lat": 38.86655066666667, "fusion_lon": 0.0, "fusion_lat": 0.0, "type": "electric_scooter", "name": "2fa04d6e066364c79fc678717f3799a9", "is_disabled": 0, "rental_uris": {"ios": "https://dc.lft.to/lastmile_qr_scan", "android": "https://dc.lft.to/lastmile_qr_scan"}, "is_reserved": 0}, {"lon": -76.94890366666667, "bike_id": "ff2ed3d5081d1df7cec0cad2087d2f4e", "lat": 38.895317, "fusion_lon": 0.0, "fusion_lat": 0.0, "type": "electric_scooter", "name": "ff2ed3d5081d1df7cec0cad2087d2f4e", "is_disabled": 0, "rental_uris": {"ios": "https://dc.lft.to/lastmile_qr_scan", "android": "https://dc.lft.to/lastmile_qr_scan"}, "is_reserved": 0}, {"lon": -77.0071945, "bike_id": "9a19a9863ddd2da594db6a22dcd68623", "lat": 38.87853616666666, "fusion_lon": 0.0, "fusion_lat": 0.0, "type": "electric_scooter", "name": "9a19a9863ddd2da594db6a22dcd68623", "is_disabled": 0, "rental_uris": {"ios": "https://dc.lft.to/lastmile_qr_scan", "android": "https://dc.lft.to/lastmile_qr_scan"}, "is_reserved": 0}, {"lon": -77.018482, "bike_id": "41d5ac751c03fd0395ea901c6a1389dc", "lat": 38.901441166666665, "fusion_lon": 0.0, "fusion_lat": 0.0, "type": "electric_scooter", "name": "41d5ac751c03fd0395ea901c6a1389dc", "is_disabled": 0, "rental_uris": {"ios": "https://dc.lft.to/lastmile_qr_scan", "android": "https://dc.lft.to/lastmile_qr_scan"}, "is_reserved": 0}, {"lon": -77.0072485, "bike_id": "79746bb8245a33b9cc5abbb7ff236ba5", "lat": 38.95064583333333, "fusion_lon": 0.0, "fusion_lat": 0.0, "type": "electric_bike", "name": "79746bb8245a33b9cc5abbb7ff236ba5", "is_disabled": 0, "rental_uris": {"ios": "https://dc.lft.to/lastmile_qr_scan", "android": "https://dc.lft.to/lastmile_qr_scan"}, "is_reserved": 0}, {"lon": -76.94152833333334, "bike_id": "928e43815cdf380cad94b25c56e8b440", "lat": 38.87912683333333, "fusion_lon": 0.0, "fusion_lat": 0.0, "type": "electric_scooter", "name": "928e43815cdf380cad94b25c56e8b440", "is_disabled": 0, "rental_uris": {"ios": "https://dc.lft.to/lastmile_qr_scan", "android": "https://dc.lft.to/lastmile_qr_scan"}, "is_reserved": 0}, {"lon": -77.08816716666666, "bike_id": "fa4e807f0807a74916a3fded7eedae5c", "lat": 38.90975183333333, "fusion_lon": 0.0, "fusion_lat": 0.0, "type": "electric_scooter", "name": "fa4e807f0807a74916a3fded7eedae5c", "is_disabled": 0, "rental_uris": {"ios": "https://dc.lft.to/lastmile_qr_scan", "android": "https://dc.lft.to/lastmile_qr_scan"}, "is_reserved": 0}, {"lon": -77.0021095, "bike_id": "4fd3757ebd4cb5ea67c007a425c0d4c1", "lat": 38.9004285, "fusion_lon": 0.0, "fusion_lat": 0.0, "type": "electric_scooter", "name": "4fd3757ebd4cb5ea67c007a425c0d4c1", "is_disabled": 0, "rental_uris": {"ios": "https://dc.lft.to/lastmile_qr_scan", "android": "https://dc.lft.to/lastmile_qr_scan"}, "is_reserved": 0}, {"lon": -77.00547016666667, "bike_id": "7cf85de6ecf16caf131e2df74cb00b4d", "lat": 38.87457933333334, "fusion_lon": 0.0, "fusion_lat": 0.0, "type": "electric_scooter", "name": "7cf85de6ecf16caf131e2df74cb00b4d", "is_disabled": 0, "rental_uris": {"ios": "https://dc.lft.to/lastmile_qr_scan", "android": "https://dc.lft.to/lastmile_qr_scan"}, "is_reserved": 0}, {"lon": -76.9832895, "bike_id": "202b6736e6caa7c61185721d40217915", "lat": 38.90095083333333, "fusion_lon": 0.0, "fusion_lat": 0.0, "type": "electric_scooter", "name": "202b6736e6caa7c61185721d40217915", "is_disabled": 0, "rental_uris": {"ios": "https://dc.lft.to/lastmile_qr_scan", "android": "https://dc.lft.to/lastmile_qr_scan"}, "is_reserved": 0}, {"lon": -76.99273833333334, "bike_id": "67c1060476fe756a0745f2937f4d63d6", "lat": 38.89766566666667, "fusion_lon": 0.0, "fusion_lat": 0.0, "type": "electric_scooter", "name": "67c1060476fe756a0745f2937f4d63d6", "is_disabled": 0, "rental_uris": {"ios": "https://dc.lft.to/lastmile_qr_scan", "android": "https://dc.lft.to/lastmile_qr_scan"}, "is_reserved": 0}, {"lon": -77.052188, "bike_id": "becf9929373b4149b0f69599361986a0", "lat": 38.91567583333333, "fusion_lon": 0.0, "fusion_lat": 0.0, "type": "electric_scooter", "name": "becf9929373b4149b0f69599361986a0", "is_disabled": 0, "rental_uris": {"ios": "https://dc.lft.to/lastmile_qr_scan", "android": "https://dc.lft.to/lastmile_qr_scan"}, "is_reserved": 0}, {"lon": -76.96527116666667, "bike_id": "2a4955194d84beaa9f4113cc225260bb", "lat": 38.87628766666667, "fusion_lon": 0.0, "fusion_lat": 0.0, "type": "electric_scooter", "name": "2a4955194d84beaa9f4113cc225260bb", "is_disabled": 0, "rental_uris": {"ios": "https://dc.lft.to/lastmile_qr_scan", "android": "https://dc.lft.to/lastmile_qr_scan"}, "is_reserved": 0}, {"lon": -77.05706533333333, "bike_id": "d5320eb6d840cb499185d252ff4e6868", "lat": 38.905437, "fusion_lon": 0.0, "fusion_lat": 0.0, "type": "electric_scooter", "name": "d5320eb6d840cb499185d252ff4e6868", "is_disabled": 0, "rental_uris": {"ios": "https://dc.lft.to/lastmile_qr_scan", "android": "https://dc.lft.to/lastmile_qr_scan"}, "is_reserved": 0}, {"lon": -77.03680366666667, "bike_id": "ca7b8b731df26caa1ee0e0cbea731ea9", "lat": 38.92107016666667, "fusion_lon": 0.0, "fusion_lat": 0.0, "type": "electric_scooter", "name": "ca7b8b731df26caa1ee0e0cbea731ea9", "is_disabled": 0, "rental_uris": {"ios": "https://dc.lft.to/lastmile_qr_scan", "android": "https://dc.lft.to/lastmile_qr_scan"}, "is_reserved": 0}, {"lon": -76.9411635, "bike_id": "b73ba6483299968af4a147d84564ae0e", "lat": 38.88649233333334, "fusion_lon": 0.0, "fusion_lat": 0.0, "type": "electric_scooter", "name": "b73ba6483299968af4a147d84564ae0e", "is_disabled": 0, "rental_uris": {"ios": "https://dc.lft.to/lastmile_qr_scan", "android": "https://dc.lft.to/lastmile_qr_scan"}, "is_reserved": 0}, {"lon": -76.946307, "bike_id": "fa6d565353a73424f46c25b10bc3189e", "lat": 38.8983115, "fusion_lon": 0.0, "fusion_lat": 0.0, "type": "electric_scooter", "name": "fa6d565353a73424f46c25b10bc3189e", "is_disabled": 0, "rental_uris": {"ios": "https://dc.lft.to/lastmile_qr_scan", "android": "https://dc.lft.to/lastmile_qr_scan"}, "is_reserved": 0}, {"lon": -77.04732816666667, "bike_id": "53862e39353afb12a4525fcce5c4b5a0", "lat": 38.90722933333333, "fusion_lon": 0.0, "fusion_lat": 0.0, "type": "electric_scooter", "name": "53862e39353afb12a4525fcce5c4b5a0", "is_disabled": 0, "rental_uris": {"ios": "https://dc.lft.to/lastmile_qr_scan", "android": "https://dc.lft.to/lastmile_qr_scan"}, "is_reserved": 0}, {"lon": -77.02794683333333, "bike_id": "4a8456dda828e0d8a4ad90f7099cba56", "lat": 38.930846333333335, "fusion_lon": 0.0, "fusion_lat": 0.0, "type": "electric_scooter", "name": "4a8456dda828e0d8a4ad90f7099cba56", "is_disabled": 0, "rental_uris": {"ios": "https://dc.lft.to/lastmile_qr_scan", "android": "https://dc.lft.to/lastmile_qr_scan"}, "is_reserved": 0}, {"lon": -77.04869783333334, "bike_id": "16a584314fa6c3d7b8359cd281ac51f0", "lat": 38.9043405, "fusion_lon": 0.0, "fusion_lat": 0.0, "type": "electric_scooter", "name": "16a584314fa6c3d7b8359cd281ac51f0", "is_disabled": 0, "rental_uris": {"ios": "https://dc.lft.to/lastmile_qr_scan", "android": "https://dc.lft.to/lastmile_qr_scan"}, "is_reserved": 0}, {"lon": -77.03262833333334, "bike_id": "a95cc6bea6b41878357a582cef971810", "lat": 38.93776616666667, "fusion_lon": 0.0, "fusion_lat": 0.0, "type": "electric_scooter", "name": "a95cc6bea6b41878357a582cef971810", "is_disabled": 0, "rental_uris": {"ios": "https://dc.lft.to/lastmile_qr_scan", "android": "https://dc.lft.to/lastmile_qr_scan"}, "is_reserved": 0}, {"lon": -77.04469083333333, "bike_id": "62b51f812d90c18e3101f80c1d07841a", "lat": 38.907141833333334, "fusion_lon": 0.0, "fusion_lat": 0.0, "type": "electric_scooter", "name": "62b51f812d90c18e3101f80c1d07841a", "is_disabled": 0, "rental_uris": {"ios": "https://dc.lft.to/lastmile_qr_scan", "android": "https://dc.lft.to/lastmile_qr_scan"}, "is_reserved": 0}, {"lon": -76.984912, "bike_id": "e52164a36558ad71a5a0c0f0ae3bb48a", "lat": 38.878334833333334, "fusion_lon": 0.0, "fusion_lat": 0.0, "type": "electric_scooter", "name": "e52164a36558ad71a5a0c0f0ae3bb48a", "is_disabled": 0, "rental_uris": {"ios": "https://dc.lft.to/lastmile_qr_scan", "android": "https://dc.lft.to/lastmile_qr_scan"}, "is_reserved": 0}, {"lon": -77.03093016666666, "bike_id": "6ad37145f0521065984ee9adf76643eb", "lat": 38.93456183333333, "fusion_lon": 0.0, "fusion_lat": 0.0, "type": "electric_scooter", "name": "6ad37145f0521065984ee9adf76643eb", "is_disabled": 0, "rental_uris": {"ios": "https://dc.lft.to/lastmile_qr_scan", "android": "https://dc.lft.to/lastmile_qr_scan"}, "is_reserved": 0}, {"lon": -77.0478445, "bike_id": "2c642bbaf4d62029180c30b3d497a934", "lat": 38.8294535, "fusion_lon": 0.0, "fusion_lat": 0.0, "type": "electric_bike", "name": "2c642bbaf4d62029180c30b3d497a934", "is_disabled": 0, "rental_uris": {"ios": "https://dc.lft.to/lastmile_qr_scan", "android": "https://dc.lft.to/lastmile_qr_scan"}, "is_reserved": 0}, {"lon": -77.02368566666667, "bike_id": "04a17c170154dbb27d036dd8669b3c57", "lat": 38.89222766666666, "fusion_lon": 0.0, "fusion_lat": 0.0, "type": "electric_scooter", "name": "04a17c170154dbb27d036dd8669b3c57", "is_disabled": 0, "rental_uris": {"ios": "https://dc.lft.to/lastmile_qr_scan", "android": "https://dc.lft.to/lastmile_qr_scan"}, "is_reserved": 0}, {"lon": -76.99652316666666, "bike_id": "d13d4c2fa714012b7ba252cd77a4112a", "lat": 38.98827133333333, "fusion_lon": 0.0, "fusion_lat": 0.0, "type": "electric_bike", "name": "d13d4c2fa714012b7ba252cd77a4112a", "is_disabled": 0, "rental_uris": {"ios": "https://dc.lft.to/lastmile_qr_scan", "android": "https://dc.lft.to/lastmile_qr_scan"}, "is_reserved": 0}, {"lon": -77.06873983333334, "bike_id": "a9fad9d12e3fdcdace7665ff0806dfbe", "lat": 38.9052305, "fusion_lon": 0.0, "fusion_lat": 0.0, "type": "electric_scooter", "name": "a9fad9d12e3fdcdace7665ff0806dfbe", "is_disabled": 0, "rental_uris": {"ios": "https://dc.lft.to/lastmile_qr_scan", "android": "https://dc.lft.to/lastmile_qr_scan"}, "is_reserved": 0}, {"lon": -76.975192, "bike_id": "df2ef14476ed3a89fdd914f8995424a0", "lat": 38.96697966666667, "fusion_lon": 0.0, "fusion_lat": 0.0, "type": "electric_bike", "name": "df2ef14476ed3a89fdd914f8995424a0", "is_disabled": 0, "rental_uris": {"ios": "https://dc.lft.to/lastmile_qr_scan", "android": "https://dc.lft.to/lastmile_qr_scan"}, "is_reserved": 0}, {"lon": -76.99680283333333, "bike_id": "1ac0139e9015809b6087f58991659df2", "lat": 38.860202, "fusion_lon": 0.0, "fusion_lat": 0.0, "type": "electric_scooter", "name": "1ac0139e9015809b6087f58991659df2", "is_disabled": 0, "rental_uris": {"ios": "https://dc.lft.to/lastmile_qr_scan", "android": "https://dc.lft.to/lastmile_qr_scan"}, "is_reserved": 0}, {"lon": -77.0504715, "bike_id": "2413910dffaa52d5668c866b8ed5d7fe", "lat": 38.90712116666667, "fusion_lon": 0.0, "fusion_lat": 0.0, "type": "electric_scooter", "name": "2413910dffaa52d5668c866b8ed5d7fe", "is_disabled": 0, "rental_uris": {"ios": "https://dc.lft.to/lastmile_qr_scan", "android": "https://dc.lft.to/lastmile_qr_scan"}, "is_reserved": 0}, {"lon": -77.07121616666667, "bike_id": "55ab8307f773b94c42423a15c50cb8c0", "lat": 38.91971816666667, "fusion_lon": 0.0, "fusion_lat": 0.0, "type": "electric_scooter", "name": "55ab8307f773b94c42423a15c50cb8c0", "is_disabled": 0, "rental_uris": {"ios": "https://dc.lft.to/lastmile_qr_scan", "android": "https://dc.lft.to/lastmile_qr_scan"}, "is_reserved": 0}, {"lon": -77.042046, "bike_id": "4d3fc7fbffdbd8845b9476d1d49d08e0", "lat": 38.907772, "fusion_lon": 0.0, "fusion_lat": 0.0, "type": "electric_scooter", "name": "4d3fc7fbffdbd8845b9476d1d49d08e0", "is_disabled": 0, "rental_uris": {"ios": "https://dc.lft.to/lastmile_qr_scan", "android": "https://dc.lft.to/lastmile_qr_scan"}, "is_reserved": 0}, {"lon": -77.02082166666666, "bike_id": "0b2c7c3d6ac622a2ff8476e368e03774", "lat": 38.95748116666667, "fusion_lon": 0.0, "fusion_lat": 0.0, "type": "electric_scooter", "name": "0b2c7c3d6ac622a2ff8476e368e03774", "is_disabled": 0, "rental_uris": {"ios": "https://dc.lft.to/lastmile_qr_scan", "android": "https://dc.lft.to/lastmile_qr_scan"}, "is_reserved": 0}, {"lon": -77.04144383333333, "bike_id": "05a412583bbcffe83e440322956672bf", "lat": 38.907377, "fusion_lon": 0.0, "fusion_lat": 0.0, "type": "electric_scooter", "name": "05a412583bbcffe83e440322956672bf", "is_disabled": 0, "rental_uris": {"ios": "https://dc.lft.to/lastmile_qr_scan", "android": "https://dc.lft.to/lastmile_qr_scan"}, "is_reserved": 0}, {"lon": -77.05310533333333, "bike_id": "ce885026b8b1aeee782684280ede00f9", "lat": 38.90073783333333, "fusion_lon": 0.0, "fusion_lat": 0.0, "type": "electric_scooter", "name": "ce885026b8b1aeee782684280ede00f9", "is_disabled": 0, "rental_uris": {"ios": "https://dc.lft.to/lastmile_qr_scan", "android": "https://dc.lft.to/lastmile_qr_scan"}, "is_reserved": 0}, {"lon": -77.02977966666667, "bike_id": "54d118d3323adb335084c39631da0607", "lat": 38.9393265, "fusion_lon": 0.0, "fusion_lat": 0.0, "type": "electric_scooter", "name": "54d118d3323adb335084c39631da0607", "is_disabled": 0, "rental_uris": {"ios": "https://dc.lft.to/lastmile_qr_scan", "android": "https://dc.lft.to/lastmile_qr_scan"}, "is_reserved": 0}, {"lon": -76.98336666666667, "bike_id": "14eb869054a1d7aa6fabe69da6be58de", "lat": 38.900954166666665, "fusion_lon": 0.0, "fusion_lat": 0.0, "type": "electric_scooter", "name": "14eb869054a1d7aa6fabe69da6be58de", "is_disabled": 0, "rental_uris": {"ios": "https://dc.lft.to/lastmile_qr_scan", "android": "https://dc.lft.to/lastmile_qr_scan"}, "is_reserved": 0}, {"lon": -77.023981, "bike_id": "dd2bc995b649a6b03f5c84f3fde7346e", "lat": 38.9094785, "fusion_lon": 0.0, "fusion_lat": 0.0, "type": "electric_scooter", "name": "dd2bc995b649a6b03f5c84f3fde7346e", "is_disabled": 0, "rental_uris": {"ios": "https://dc.lft.to/lastmile_qr_scan", "android": "https://dc.lft.to/lastmile_qr_scan"}, "is_reserved": 0}, {"lon": -77.00529766666666, "bike_id": "83271be9c806cb704256e85954516084", "lat": 38.929752, "fusion_lon": 0.0, "fusion_lat": 0.0, "type": "electric_scooter", "name": "83271be9c806cb704256e85954516084", "is_disabled": 0, "rental_uris": {"ios": "https://dc.lft.to/lastmile_qr_scan", "android": "https://dc.lft.to/lastmile_qr_scan"}, "is_reserved": 0}, {"lon": -77.02042816666666, "bike_id": "3b2b8db24472bfa0939890a8a47b072d", "lat": 38.908644333333335, "fusion_lon": 0.0, "fusion_lat": 0.0, "type": "electric_scooter", "name": "3b2b8db24472bfa0939890a8a47b072d", "is_disabled": 0, "rental_uris": {"ios": "https://dc.lft.to/lastmile_qr_scan", "android": "https://dc.lft.to/lastmile_qr_scan"}, "is_reserved": 0}, {"lon": -77.01480333333333, "bike_id": "0febf080f21c71988002a643bd6597e8", "lat": 38.940683166666666, "fusion_lon": 0.0, "fusion_lat": 0.0, "type": "electric_bike", "name": "0febf080f21c71988002a643bd6597e8", "is_disabled": 0, "rental_uris": {"ios": "https://dc.lft.to/lastmile_qr_scan", "android": "https://dc.lft.to/lastmile_qr_scan"}, "is_reserved": 0}, {"lon": -77.022093, "bike_id": "23bd01628791d80ff6448a42093408c1", "lat": 38.893558666666664, "fusion_lon": 0.0, "fusion_lat": 0.0, "type": "electric_scooter", "name": "23bd01628791d80ff6448a42093408c1", "is_disabled": 0, "rental_uris": {"ios": "https://dc.lft.to/lastmile_qr_scan", "android": "https://dc.lft.to/lastmile_qr_scan"}, "is_reserved": 0}, {"lon": -76.92619816666667, "bike_id": "54c6a8352ed2784318e84caa82302fb3", "lat": 38.884609166666664, "fusion_lon": 0.0, "fusion_lat": 0.0, "type": "electric_scooter", "name": "54c6a8352ed2784318e84caa82302fb3", "is_disabled": 0, "rental_uris": {"ios": "https://dc.lft.to/lastmile_qr_scan", "android": "https://dc.lft.to/lastmile_qr_scan"}, "is_reserved": 0}, {"lon": -77.02266816666666, "bike_id": "982faa954c36056fac39d5cfb632d5a5", "lat": 38.937671, "fusion_lon": 0.0, "fusion_lat": 0.0, "type": "electric_scooter", "name": "982faa954c36056fac39d5cfb632d5a5", "is_disabled": 0, "rental_uris": {"ios": "https://dc.lft.to/lastmile_qr_scan", "android": "https://dc.lft.to/lastmile_qr_scan"}, "is_reserved": 0}, {"lon": -77.05407266666667, "bike_id": "204ee23943bc6aad3a28df650f24c10d", "lat": 38.95054183333333, "fusion_lon": 0.0, "fusion_lat": 0.0, "type": "electric_scooter", "name": "204ee23943bc6aad3a28df650f24c10d", "is_disabled": 0, "rental_uris": {"ios": "https://dc.lft.to/lastmile_qr_scan", "android": "https://dc.lft.to/lastmile_qr_scan"}, "is_reserved": 0}, {"lon": -76.97300733333333, "bike_id": "066f0cefcbd3e40db36fcd69de03e272", "lat": 38.9164635, "fusion_lon": 0.0, "fusion_lat": 0.0, "type": "electric_scooter", "name": "066f0cefcbd3e40db36fcd69de03e272", "is_disabled": 0, "rental_uris": {"ios": "https://dc.lft.to/lastmile_qr_scan", "android": "https://dc.lft.to/lastmile_qr_scan"}, "is_reserved": 0}, {"lon": -76.9759835, "bike_id": "47aa141b1ca32155e1a2bb47f19f5aa8", "lat": 38.9057055, "fusion_lon": 0.0, "fusion_lat": 0.0, "type": "electric_scooter", "name": "47aa141b1ca32155e1a2bb47f19f5aa8", "is_disabled": 0, "rental_uris": {"ios": "https://dc.lft.to/lastmile_qr_scan", "android": "https://dc.lft.to/lastmile_qr_scan"}, "is_reserved": 0}, {"lon": -77.0294255, "bike_id": "b2f926b66f77dfd3d0005c8c9b9e58b2", "lat": 38.887435833333335, "fusion_lon": 0.0, "fusion_lat": 0.0, "type": "electric_scooter", "name": "b2f926b66f77dfd3d0005c8c9b9e58b2", "is_disabled": 0, "rental_uris": {"ios": "https://dc.lft.to/lastmile_qr_scan", "android": "https://dc.lft.to/lastmile_qr_scan"}, "is_reserved": 0}, {"lon": -76.98693266666666, "bike_id": "7841cdddd0511c832d6d9ed51251e584", "lat": 38.86254816666667, "fusion_lon": 0.0, "fusion_lat": 0.0, "type": "electric_scooter", "name": "7841cdddd0511c832d6d9ed51251e584", "is_disabled": 0, "rental_uris": {"ios": "https://dc.lft.to/lastmile_qr_scan", "android": "https://dc.lft.to/lastmile_qr_scan"}, "is_reserved": 0}, {"lon": -77.00208433333333, "bike_id": "7755ee7d078b28217e900b3276402961", "lat": 38.89545716666667, "fusion_lon": 0.0, "fusion_lat": 0.0, "type": "electric_scooter", "name": "7755ee7d078b28217e900b3276402961", "is_disabled": 0, "rental_uris": {"ios": "https://dc.lft.to/lastmile_qr_scan", "android": "https://dc.lft.to/lastmile_qr_scan"}, "is_reserved": 0},