{"data": {"bikes": [{"fusion_lon": 0.0, "lat": 38.8847365, "lon": -77.02203516666667, "bike_id": "9cd496ab1e644a8be1d029486f254c3d", "rental_uris": {"android": "https://dc.lft.to/lastmile_qr_scan", "ios": "https://dc.lft.to/lastmile_qr_scan"}, "fusion_lat": 0.0, "name": "9cd496ab1e644a8be1d029486f254c3d", "is_reserved": 0, "is_disabled": 0, "type": "electric_scooter"}, {"fusion_lon": 0.0, "lat": 38.89609816666667, "lon": -77.04515716666667, "bike_id": "99a187795eb298bffc41f5d18921c5c6", "rental_uris": {"android": "https://dc.lft.to/lastmile_qr_scan", "ios": "https://dc.lft.to/lastmile_qr_scan"}, "fusion_lat": 0.0, "name": "99a187795eb298bffc41f5d18921c5c6", "is_reserved": 0, "is_disabled": 0, "type": "electric_scooter"}, {"fusion_lon": 0.0, "lat": 38.9225525, "lon": -77.0195405, "bike_id": "c10b65100585093d261dd561c8c21fdb", "rental_uris": {"android": "https://dc.lft.to/lastmile_qr_scan", "ios": "https://dc.lft.to/lastmile_qr_scan"}, "fusion_lat": 0.0, "name": "c10b65100585093d261dd561c8c21fdb", "is_reserved": 0, "is_disabled": 0, "type": "electric_scooter"}, {"fusion_lon": 0.0, "lat": 38.8971365, "lon": -77.02894116666667, "bike_id": "8287b729af63b901b545dadc4f45a4d0", "rental_uris": {"android": "https://dc.lft.to/lastmile_qr_scan", "ios": "https://dc.lft.to/lastmile_qr_scan"}, "fusion_lat": 0.0, "name": "8287b729af63b901b545dadc4f45a4d0", "is_reserved": 0, "is_disabled": 0, "type": "electric_scooter"}, {"fusion_lon": 0.0, "lat": 38.90780616666667, "lon": -77.04518683333333, "bike_id": "5fb80e4388b0b29cb9584e2093d8b1fc", "rental_uris": {"android": "https://dc.lft.to/lastmile_qr_scan", "ios": "https://dc.lft.to/lastmile_qr_scan"}, "fusion_lat": 0.0, "name": "5fb80e4388b0b29cb9584e2093d8b1fc", "is_reserved": 0, "is_disabled": 0, "type": "electric_scooter"}, {"fusion_lon": 0.0, "lat": 38.89724616666667, "lon": -77.0469835, "bike_id": "512db1b74b30d9cd12723bd7ac1495d7", "rental_uris": {"android": "https://dc.lft.to/lastmile_qr_scan", "ios": "https://dc.lft.to/lastmile_qr_scan"}, "fusion_lat": 0.0, "name": "512db1b74b30d9cd12723bd7ac1495d7", "is_reserved": 0, "is_disabled": 0, "type": "electric_scooter"}, {"fusion_lon": 0.0, "lat": 38.90023083333333, "lon": -76.98760300000001, "bike_id": "583e9ab522ac34ea77bcaa0c06b31a85", "rental_uris": {"android": "https://dc.lft.to/lastmile_qr_scan", "ios": "https://dc.lft.to/lastmile_qr_scan"}, "fusion_lat": 0.0, "name": "583e9ab522ac34ea77bcaa0c06b31a85", "is_reserved": 0, "is_disabled": 0, "type": "electric_scooter"}, {"fusion_lon": 0.0, "lat": 38.915671, "lon": -77.03192183333333, "bike_id": "068c8a28f62c20272ff003ba83ab3dff", "rental_uris": {"android": "https://dc.lft.to/lastmile_qr_scan", "ios": "https://dc.lft.to/lastmile_qr_scan"}, "fusion_lat": 0.0, "name": "068c8a28f62c20272ff003ba83ab3dff", "is_reserved": 0, "is_disabled": 0, "type": "electric_scooter"}, {"fusion_lon": 0.0, "lat": 38.900412333333335, "lon": -76.97228733333333, "bike_id": "68307801c329df4488c3713dfbfb4654", "rental_uris": {"android": "https://dc.lft.to/lastmile_qr_scan", "ios": "https://dc.lft.to/lastmile_qr_scan"}, "fusion_lat": 0.0, "name": "68307801c329df4488c3713dfbfb4654", "is_reserved": 0, "is_disabled": 0, "type": "electric_bike"}, {"fusion_lon": 0.0, "lat": 38.9060205, "lon": -77.12895133333333, "bike_id": "07480bd2c6aacbaaecf8da1514ac99eb", "rental_uris": {"android": "https://dc.lft.to/lastmile_qr_scan", "ios": "https://dc.lft.to/lastmile_qr_scan"}, "fusion_lat": 0.0, "name": "07480bd2c6aacbaaecf8da1514ac99eb", "is_reserved": 0, "is_disabled": 0, "type": "electric_bike"}, {"fusion_lon": 0.0, "lat": 38.92564983333333, "lon": -76.999609, "bike_id": "3989671e2cc0047e471a206350a62b1f", "rental_uris": {"android": "https://dc.lft.to/lastmile_qr_scan", "ios": "https://dc.lft.to/lastmile_qr_scan"}, "fusion_lat": 0.0, "name": "3989671e2cc0047e471a206350a62b1f", "is_reserved": 0, "is_disabled": 0, "type": "electric_scooter"}, {"fusion_lon": 0.0, "lat": 38.880515, "lon": -77.0117785, "bike_id": "ca72a1f6b0b0a7044a80f175a5670bd0", "rental_uris": {"android": "https://dc.lft.to/lastmile_qr_scan", "ios": "https://dc.lft.to/lastmile_qr_scan"}, "fusion_lat": 0.0, "name": "ca72a1f6b0b0a7044a80f175a5670bd0", "is_reserved": 0, "is_disabled": 0, "type": "electric_scooter"}, {"fusion_lon": 0.0, "lat": 38.92097366666667, "lon": -77.04705016666666, "bike_id": "28ef1e63c31401b01695ba1a2b7c6f2c", "rental_uris": {"android": "https://dc.lft.to/lastmile_qr_scan", "ios": "https://dc.lft.to/lastmile_qr_scan"}, "fusion_lat": 0.0, "name": "28ef1e63c31401b01695ba1a2b7c6f2c", "is_reserved": 0, "is_disabled": 0, "type": "electric_scooter"}, {"fusion_lon": 0.0, "lat": 38.911043166666666, "lon": -77.04450816666666, "bike_id": "075e4ba317ce82291c4c126d19d96cc8", "rental_uris": {"android": "https://dc.lft.to/lastmile_qr_scan", "ios": "https://dc.lft.to/lastmile_qr_scan"}, "fusion_lat": 0.0, "name": "075e4ba317ce82291c4c126d19d96cc8", "is_reserved": 0, "is_disabled": 0, "type": "electric_scooter"}, {"fusion_lon": 0.0, "lat": 38.937069, "lon": -77.03294883333334, "bike_id": "ca46629b59c2e56c05b24c6fd78c8ded", "rental_uris": {"android": "https://dc.lft.to/lastmile_qr_scan", "ios": "https://dc.lft.to/lastmile_qr_scan"}, "fusion_lat": 0.0, "name": "ca46629b59c2e56c05b24c6fd78c8ded", "is_reserved": 0, "is_disabled": 0, "type": "electric_scooter"}, {"fusion_lon": 0.0, "lat": 38.874364666666665, "lon": -77.00048033333333, "bike_id": "02d8b0b6f55294ef6d75894c1ccd2ff3", "rental_uris": {"android": "https://dc.lft.to/lastmile_qr_scan", "ios": "https://dc.lft.to/lastmile_qr_scan"}, "fusion_lat": 0.0, "name": "02d8b0b6f55294ef6d75894c1ccd2ff3", "is_reserved": 0, "is_disabled": 0, "type": "electric_scooter"}, {"fusion_lon": 0.0, "lat": 38.89968433333333, "lon": -77.00941866666666, "bike_id": "18692ad609ebba2b0809b3d55d2591a2", "rental_uris": {"android": "https://dc.lft.to/lastmile_qr_scan", "ios": "https://dc.lft.to/lastmile_qr_scan"}, "fusion_lat": 0.0, "name": "18692ad609ebba2b0809b3d55d2591a2", "is_reserved": 0, "is_disabled": 0, "type": "electric_scooter"}, {"fusion_lon": 0.0, "lat": 38.918014, "lon": -77.02712966666667, "bike_id": "2393baed9e003f52c6d189ee022d9200", "rental_uris": {"android": "https://dc.lft.to/lastmile_qr_scan", "ios": "https://dc.lft.to/lastmile_qr_scan"}, "fusion_lat": 0.0, "name": "2393baed9e003f52c6d189ee022d9200", "is_reserved": 0, "is_disabled": 0, "type": "electric_scooter"}, {"fusion_lon": 0.0, "lat": 38.92481883333333, "lon": -77.03944933333334, "bike_id": "42a59ec9740ac4572333f92af04e5d78", "rental_uris": {"android": "https://dc.lft.to/lastmile_qr_scan", "ios": "https://dc.lft.to/lastmile_qr_scan"}, "fusion_lat": 0.0, "name": "42a59ec9740ac4572333f92af04e5d78", "is_reserved": 0, "is_disabled": 0, "type": "electric_scooter"}, {"fusion_lon": 0.0, "lat": 38.90920883333333, "lon": -77.07282666666667, "bike_id": "91cbf437779824673dac33ba1fdf9c94", "rental_uris": {"android": "https://dc.lft.to/lastmile_qr_scan", "ios": "https://dc.lft.to/lastmile_qr_scan"}, "fusion_lat": 0.0, "name": "91cbf437779824673dac33ba1fdf9c94", "is_reserved": 0, "is_disabled": 0, "type": "electric_scooter"}, {"fusion_lon": 0.0, "lat": 38.92337533333333, "lon": -76.9714565, "bike_id": "e3b998236fb6fb79829caa8d54c554cc", "rental_uris": {"android": "https://dc.lft.to/lastmile_qr_scan", "ios": "https://dc.lft.to/lastmile_qr_scan"}, "fusion_lat": 0.0, "name": "e3b998236fb6fb79829caa8d54c554cc", "is_reserved": 0, "is_disabled": 0, "type": "electric_bike"}, {"fusion_lon": 0.0, "lat": 38.90511083333333, "lon": -77.04062233333333, "bike_id": "8a3ae2d7de2d9ad3627233ea2296ad1a", "rental_uris": {"android": "https://dc.lft.to/lastmile_qr_scan", "ios": "https://dc.lft.to/lastmile_qr_scan"}, "fusion_lat": 0.0, "name": "8a3ae2d7de2d9ad3627233ea2296ad1a", "is_reserved": 0, "is_disabled": 0, "type": "electric_scooter"}, {"fusion_lon": 0.0, "lat": 38.941377, "lon": -77.02328216666666, "bike_id": "c76bc7593f55e38ec0c38429fd99b5e1", "rental_uris": {"android": "https://dc.lft.to/lastmile_qr_scan", "ios": "https://dc.lft.to/lastmile_qr_scan"}, "fusion_lat": 0.0, "name": "c76bc7593f55e38ec0c38429fd99b5e1", "is_reserved": 0, "is_disabled": 0, "type": "electric_scooter"}, {"fusion_lon": 0.0, "lat": 38.92475233333333, "lon": -77.022487, "bike_id": "10267a42bd077424f93cfd4d65ed7eb1", "rental_uris": {"android": "https://dc.lft.to/lastmile_qr_scan", "ios": "https://dc.lft.to/lastmile_qr_scan"}, "fusion_lat": 0.0, "name": "10267a42bd077424f93cfd4d65ed7eb1", "is_reserved": 0, "is_disabled": 0, "type": "electric_scooter"}, {"fusion_lon": 0.0, "lat": 38.8997425, "lon": -77.04198866666667, "bike_id": "7c887c75ebbcc4f981d4df263dabffd4", "rental_uris": {"android": "https://dc.lft.to/lastmile_qr_scan", "ios": "https://dc.lft.to/lastmile_qr_scan"}, "fusion_lat": 0.0, "name": "7c887c75ebbcc4f981d4df263dabffd4", "is_reserved": 0, "is_disabled": 0, "type": "electric_scooter"}, {"fusion_lon": 0.0, "lat": 38.92930233333333, "lon": -77.00679833333334, "bike_id": "7ffed7bd28b3b14f6521118ad0f0135c", "rental_uris": {"android": "https://dc.lft.to/lastmile_qr_scan", "ios": "https://dc.lft.to/lastmile_qr_scan"}, "fusion_lat": 0.0, "name": "7ffed7bd28b3b14f6521118ad0f0135c", "is_reserved": 0, "is_disabled": 0, "type": "electric_scooter"}, {"fusion_lon": 0.0, "lat": 38.911718666666665, "lon": -77.03218133333333, "bike_id": "59dec012aab73b4c64044fa83a0fee11", "rental_uris": {"android": "https://dc.lft.to/lastmile_qr_scan", "ios": "https://dc.lft.to/lastmile_qr_scan"}, "fusion_lat": 0.0, "name": "59dec012aab73b4c64044fa83a0fee11", "is_reserved": 0, "is_disabled": 0, "type": "electric_scooter"}, {"fusion_lon": 0.0, "lat": 38.88744966666667, "lon": -77.02868933333333, "bike_id": "98f31fd50834d87c24e9ca5c7bf14f83", "rental_uris": {"android": "https://dc.lft.to/lastmile_qr_scan", "ios": "https://dc.lft.to/lastmile_qr_scan"}, "fusion_lat": 0.0, "name": "98f31fd50834d87c24e9ca5c7bf14f83", "is_reserved": 0, "is_disabled": 0, "type": "electric_scooter"}, {"fusion_lon": 0.0, "lat": 38.907824833333336, "lon": -77.00207033333334, "bike_id": "6f3a8881f7bf6c5c0e52d0b33f3427b5", "rental_uris": {"android": "https://dc.lft.to/lastmile_qr_scan", "ios": "https://dc.lft.to/lastmile_qr_scan"}, "fusion_lat": 0.0, "name": "6f3a8881f7bf6c5c0e52d0b33f3427b5", "is_reserved": 0, "is_disabled": 0, "type": "electric_scooter"}, {"fusion_lon": 0.0, "lat": 38.89740583333333, "lon": -77.0127435, "bike_id": "329327cfb9ef57be6276ecb9c7570490", "rental_uris": {"android": "https://dc.lft.to/lastmile_qr_scan", "ios": "https://dc.lft.to/lastmile_qr_scan"}, "fusion_lat": 0.0, "name": "329327cfb9ef57be6276ecb9c7570490", "is_reserved": 0, "is_disabled": 0, "type": "electric_scooter"}, {"fusion_lon": 0.0, "lat": 38.92863783333333, "lon": -77.037167, "bike_id": "820fce9c015088c72191f3c090469a13", "rental_uris": {"android": "https://dc.lft.to/lastmile_qr_scan", "ios": "https://dc.lft.to/lastmile_qr_scan"}, "fusion_lat": 0.0, "name": "820fce9c015088c72191f3c090469a13", "is_reserved": 0, "is_disabled": 0, "type": "electric_scooter"}, {"fusion_lon": 0.0, "lat": 38.91121966666667, "lon": -77.03296183333333, "bike_id": "1db48ec83062e8dabb4dbe509df4ddac", "rental_uris": {"android": "https://dc.lft.to/lastmile_qr_scan", "ios": "https://dc.lft.to/lastmile_qr_scan"}, "fusion_lat": 0.0, "name": "1db48ec83062e8dabb4dbe509df4ddac", "is_reserved": 0, "is_disabled": 0, "type": "electric_scooter"}, {"fusion_lon": 0.0, "lat": 38.934567333333334, "lon": -77.0581265, "bike_id": "5fec1d9727a17980aacd80769a00320f", "rental_uris": {"android": "https://dc.lft.to/lastmile_qr_scan", "ios": "https://dc.lft.to/lastmile_qr_scan"}, "fusion_lat": 0.0, "name": "5fec1d9727a17980aacd80769a00320f", "is_reserved": 0, "is_disabled": 0, "type": "electric_scooter"}, {"fusion_lon": 0.0, "lat": 38.892249666666665, "lon": -77.04505183333333, "bike_id": "66986abe4c2eb4e8e56895868f714a4f", "rental_uris": {"android": "https://dc.lft.to/lastmile_qr_scan", "ios": "https://dc.lft.to/lastmile_qr_scan"}, "fusion_lat": 0.0, "name": "66986abe4c2eb4e8e56895868f714a4f", "is_reserved": 0, "is_disabled": 0, "type": "electric_scooter"}, {"fusion_lon": 0.0, "lat": 38.880253833333335, "lon": -77.005644, "bike_id": "08171961deb31ebc027854628ec3a728", "rental_uris": {"android": "https://dc.lft.to/lastmile_qr_scan", "ios": "https://dc.lft.to/lastmile_qr_scan"}, "fusion_lat": 0.0, "name": "08171961deb31ebc027854628ec3a728", "is_reserved": 0, "is_disabled": 0, "type": "electric_scooter"}, {"fusion_lon": 0.0, "lat": 38.915048666666664, "lon": -77.0450555, "bike_id": "f7785592074c4d76b8850e6590f3bc9b", "rental_uris": {"android": "https://dc.lft.to/lastmile_qr_scan", "ios": "https://dc.lft.to/lastmile_qr_scan"}, "fusion_lat": 0.0, "name": "f7785592074c4d76b8850e6590f3bc9b", "is_reserved": 0, "is_disabled": 0, "type": "electric_scooter"}, {"fusion_lon": 0.0, "lat": 38.897578333333335, "lon": -77.02685066666666, "bike_id": "e0fd43fa0a4ed61e39f29207dc1f01ad", "rental_uris": {"android": "https://dc.lft.to/lastmile_qr_scan", "ios": "https://dc.lft.to/lastmile_qr_scan"}, "fusion_lat": 0.0, "name": "e0fd43fa0a4ed61e39f29207dc1f01ad", "is_reserved": 0, "is_disabled": 0, "type": "electric_scooter"}, {"fusion_lon": 0.0, "lat": 38.875234, "lon": -77.01230716666667, "bike_id": "39f7767a308d9a4f14e6f78ada99e264", "rental_uris": {"android": "https://dc.lft.to/lastmile_qr_scan", "ios": "https://dc.lft.to/lastmile_qr_scan"}, "fusion_lat": 0.0, "name": "39f7767a308d9a4f14e6f78ada99e264", "is_reserved": 0, "is_disabled": 0, "type": "electric_scooter"}, {"fusion_lon": 0.0, "lat": 38.940847833333336, "lon": -77.00305383333334, "bike_id": "250d22f06235b3f121ec54340eeff5d3", "rental_uris": {"android": "https://dc.lft.to/lastmile_qr_scan", "ios": "https://dc.lft.to/lastmile_qr_scan"}, "fusion_lat": 0.0, "name": "250d22f06235b3f121ec54340eeff5d3", "is_reserved": 0, "is_disabled": 0, "type": "electric_scooter"}, {"fusion_lon": 0.0, "lat": 38.90557283333333, "lon": -77.02984483333333, "bike_id": "661f74a4a838ef776ea13ad95cae1c56", "rental_uris": {"android": "https://dc.lft.to/lastmile_qr_scan", "ios": "https://dc.lft.to/lastmile_qr_scan"}, "fusion_lat": 0.0, "name": "661f74a4a838ef776ea13ad95cae1c56", "is_reserved": 0, "is_disabled": 0, "type": "electric_scooter"}, {"fusion_lon": 0.0, "lat": 38.9062, "lon": -76.99331866666667, "bike_id": "e07bb73699b17352c2e6b5dbec9949cf", "rental_uris": {"android": "https://dc.lft.to/lastmile_qr_scan", "ios": "https://dc.lft.to/lastmile_qr_scan"}, "fusion_lat": 0.0, "name": "e07bb73699b17352c2e6b5dbec9949cf", "is_reserved": 0, "is_disabled": 0, "type": "electric_scooter"}, {"fusion_lon": 0.0, "lat": 38.928185, "lon": -77.0229635, "bike_id": "8b92b91576f9556303069be181eebc10", "rental_uris": {"android": "https://dc.lft.to/lastmile_qr_scan", "ios": "https://dc.lft.to/lastmile_qr_scan"}, "fusion_lat": 0.0, "name": "8b92b91576f9556303069be181eebc10", "is_reserved": 0, "is_disabled": 0, "type": "electric_scooter"}, {"fusion_lon": 0.0, "lat": 38.90216566666667, "lon": -77.0476515, "bike_id": "98fbd1e1c8b25502a951173af938d674", "rental_uris": {"android": "https://dc.lft.to/lastmile_qr_scan", "ios": "https://dc.lft.to/lastmile_qr_scan"}, "fusion_lat": 0.0, "name": "98fbd1e1c8b25502a951173af938d674", "is_reserved": 0, "is_disabled": 0, "type": "electric_scooter"}, {"fusion_lon": 0.0, "lat": 38.90860333333333, "lon": -77.080821, "bike_id": "a946506d06a7ab5cdfff4d60c370ce7b", "rental_uris": {"android": "https://dc.lft.to/lastmile_qr_scan", "ios": "https://dc.lft.to/lastmile_qr_scan"}, "fusion_lat": 0.0, "name": "a946506d06a7ab5cdfff4d60c370ce7b", "is_reserved": 0, "is_disabled": 0, "type": "electric_bike"}, {"fusion_lon": 0.0, "lat": 38.975521666666666, "lon": -77.02656733333333, "bike_id": "6b7dcde4e3e88a9fe8cacd21b0d7df4e", "rental_uris": {"android": "https://dc.lft.to/lastmile_qr_scan", "ios": "https://dc.lft.to/lastmile_qr_scan"}, "fusion_lat": 0.0, "name": "6b7dcde4e3e88a9fe8cacd21b0d7df4e", "is_reserved": 0, "is_disabled": 0, "type": "electric_scooter"}, {"fusion_lon": 0.0, "lat": 38.90800183333333, "lon": -77.084014, "bike_id": "102d4b05cdd45043ede3e949bcddd6ee", "rental_uris": {"android": "https://dc.lft.to/lastmile_qr_scan", "ios": "https://dc.lft.to/lastmile_qr_scan"}, "fusion_lat": 0.0, "name": "102d4b05cdd45043ede3e949bcddd6ee", "is_reserved": 0, "is_disabled": 0, "type": "electric_scooter"}, {"fusion_lon": 0.0, "lat": 38.97256683333333, "lon": -76.99277533333333, "bike_id": "eb810265ea2f46e0626c806f66857f2a", "rental_uris": {"android": "https://dc.lft.to/lastmile_qr_scan", "ios": "https://dc.lft.to/lastmile_qr_scan"}, "fusion_lat": 0.0, "name": "eb810265ea2f46e0626c806f66857f2a", "is_reserved": 0, "is_disabled": 0, "type": "electric_bike"}, {"fusion_lon": 0.0, "lat": 38.894656, "lon": -77.02652683333334, "bike_id": "f1440eb42327b14df2e850222e53a40d", "rental_uris": {"android": "https://dc.lft.to/lastmile_qr_scan", "ios": "https://dc.lft.to/lastmile_qr_scan"}, "fusion_lat": 0.0, "name": "f1440eb42327b14df2e850222e53a40d", "is_reserved": 0, "is_disabled": 0, "type": "electric_scooter"}, {"fusion_lon": 0.0, "lat": 38.861961666666666, "lon": -77.056508, "bike_id": "07b2c6a5a29906c03ee14798a54b10aa", "rental_uris": {"android": "https://dc.lft.to/lastmile_qr_scan", "ios": "https://dc.lft.to/lastmile_qr_scan"}, "fusion_lat": 0.0, "name": "07b2c6a5a29906c03ee14798a54b10aa", "is_reserved": 0, "is_disabled": 0, "type": "electric_bike"}, {"fusion_lon": 0.0, "lat": 38.92371216666667, "lon": -77.02148266666667, "bike_id": "7dbc905d9941a5310c3b251e338c4a2a", "rental_uris": {"android": "https://dc.lft.to/lastmile_qr_scan", "ios": "https://dc.lft.to/lastmile_qr_scan"}, "fusion_lat": 0.0, "name": "7dbc905d9941a5310c3b251e338c4a2a", "is_reserved": 0, "is_disabled": 0, "type": "electric_scooter"}, {"fusion_lon": 0.0, "lat": 38.89215433333333, "lon": -77.04153816666667, "bike_id": "34931eacbeddd39caba222d6e9627b52", "rental_uris": {"android": "https://dc.lft.to/lastmile_qr_scan", "ios": "https://dc.lft.to/lastmile_qr_scan"}, "fusion_lat": 0.0, "name": "34931eacbeddd39caba222d6e9627b52", "is_reserved": 0, "is_disabled": 0, "type": "electric_scooter"}, {"fusion_lon": 0.0, "lat": 38.8955605, "lon": -77.01638433333333, "bike_id": "c96f05839a3452d72221c7378552a5f3", "rental_uris": {"android": "https://dc.lft.to/lastmile_qr_scan", "ios": "https://dc.lft.to/lastmile_qr_scan"}, "fusion_lat": 0.0, "name": "c96f05839a3452d72221c7378552a5f3", "is_reserved": 0, "is_disabled": 0, "type": "electric_scooter"}, {"fusion_lon": 0.0, "lat": 38.92234583333333, "lon": -77.0211845, "bike_id": "e6c716b0f20adddd8cc548a08991c6d4", "rental_uris": {"android": "https://dc.lft.to/lastmile_qr_scan", "ios": "https://dc.lft.to/lastmile_qr_scan"}, "fusion_lat": 0.0, "name": "e6c716b0f20adddd8cc548a08991c6d4", "is_reserved": 0, "is_disabled": 0, "type": "electric_scooter"}, {"fusion_lon": 0.0, "lat": 38.9242135, "lon": -77.01945416666666, "bike_id": "d3803ec381e3cdd9bf56ab08290deb3e", "rental_uris": {"android": "https://dc.lft.to/lastmile_qr_scan", "ios": "https://dc.lft.to/lastmile_qr_scan"}, "fusion_lat": 0.0, "name": "d3803ec381e3cdd9bf56ab08290deb3e", "is_reserved": 0, "is_disabled": 0, "type": "electric_scooter"}, {"fusion_lon": 0.0, "lat": 38.897439166666665, "lon": -77.03042716666667, "bike_id": "e3f4164b00c805a1b50e9dcad59a00e0", "rental_uris": {"android": "https://dc.lft.to/lastmile_qr_scan", "ios": "https://dc.lft.to/lastmile_qr_scan"}, "fusion_lat": 0.0, "name": "e3f4164b00c805a1b50e9dcad59a00e0", "is_reserved": 0, "is_disabled": 0, "type": "electric_scooter"}, {"fusion_lon": 0.0, "lat": 38.88371983333333, "lon": -77.01874833333333, "bike_id": "1b80ead985dcf24650a95bce48530476", "rental_uris": {"android": "https://dc.lft.to/lastmile_qr_scan", "ios": "https://dc.lft.to/lastmile_qr_scan"}, "fusion_lat": 0.0, "name": "1b80ead985dcf24650a95bce48530476", "is_reserved": 0, "is_disabled": 0, "type": "electric_scooter"}, {"fusion_lon": 0.0, "lat": 38.89906783333333, "lon": -77.02167116666666, "bike_id": "3764a14e9d42d2e97b246f22439a72e5", "rental_uris": {"android": "https://dc.lft.to/lastmile_qr_scan", "ios": "https://dc.lft.to/lastmile_qr_scan"}, "fusion_lat": 0.0, "name": "3764a14e9d42d2e97b246f22439a72e5", "is_reserved": 0, "is_disabled": 0, "type": "electric_scooter"}, {"fusion_lon": 0.0, "lat": 38.897788166666665, "lon": -77.03168283333333, "bike_id": "0864f0c1148f87f78e9757841982af21", "rental_uris": {"android": "https://dc.lft.to/lastmile_qr_scan", "ios": "https://dc.lft.to/lastmile_qr_scan"}, "fusion_lat": 0.0, "name": "0864f0c1148f87f78e9757841982af21", "is_reserved": 0, "is_disabled": 0, "type": "electric_scooter"}, {"fusion_lon": 0.0, "lat": 38.88712183333333, "lon": -76.996075, "bike_id": "534be3e444488ea14e2f9ae40ddde0d6", "rental_uris": {"android": "https://dc.lft.to/lastmile_qr_scan", "ios": "https://dc.lft.to/lastmile_qr_scan"}, "fusion_lat": 0.0, "name": "534be3e444488ea14e2f9ae40ddde0d6", "is_reserved": 0, "is_disabled": 0, "type": "electric_scooter"}, {"fusion_lon": 0.0, "lat": 38.8930935, "lon": -76.93970416666667, "bike_id": "7d43a4b721dbb0702fdb7565d4021240", "rental_uris": {"android": "https://dc.lft.to/lastmile_qr_scan", "ios": "https://dc.lft.to/lastmile_qr_scan"}, "fusion_lat": 0.0, "name": "7d43a4b721dbb0702fdb7565d4021240", "is_reserved": 0, "is_disabled": 0, "type": "electric_scooter"}, {"fusion_lon": 0.0, "lat": 38.847559833333335, "lon": -77.0537875, "bike_id": "12fdeec08b6309e999871008c9ccaead", "rental_uris": {"android": "https://dc.lft.to/lastmile_qr_scan", "ios": "https://dc.lft.to/lastmile_qr_scan"}, "fusion_lat": 0.0, "name": "12fdeec08b6309e999871008c9ccaead", "is_reserved": 0, "is_disabled": 0, "type": "electric_bike"}, {"fusion_lon": 0.0, "lat": 38.900419166666666, "lon": -76.98833183333333, "bike_id": "f25c9a99f04d083b211a034fdd9d5830", "rental_uris": {"android": "https://dc.lft.to/lastmile_qr_scan", "ios": "https://dc.lft.to/lastmile_qr_scan"}, "fusion_lat": 0.0, "name": "f25c9a99f04d083b211a034fdd9d5830", "is_reserved": 0, "is_disabled": 0, "type": "electric_scooter"}, {"fusion_lon": 0.0, "lat": 38.90010866666667, "lon": -77.04107866666666, "bike_id": "e1f0ce32f721ab76be3cf7bd7a7e45bd", "rental_uris": {"android": "https://dc.lft.to/lastmile_qr_scan", "ios": "https://dc.lft.to/lastmile_qr_scan"}, "fusion_lat": 0.0, "name": "e1f0ce32f721ab76be3cf7bd7a7e45bd", "is_reserved": 0, "is_disabled": 0, "type": "electric_scooter"}, {"fusion_lon": 0.0, "lat": 38.92400166666667, "lon": -77.022459, "bike_id": "1b6d7dbf98facf1b3f708951fbdda418", "rental_uris": {"android": "https://dc.lft.to/lastmile_qr_scan", "ios": "https://dc.lft.to/lastmile_qr_scan"}, "fusion_lat": 0.0, "name": "1b6d7dbf98facf1b3f708951fbdda418", "is_reserved": 0, "is_disabled": 0, "type": "electric_scooter"}, {"fusion_lon": 0.0, "lat": 38.95631083333333, "lon": -77.033048, "bike_id": "bd52e2eaef189bc620037201a0d516cc", "rental_uris": {"android": "https://dc.lft.to/lastmile_qr_scan", "ios": "https://dc.lft.to/lastmile_qr_scan"}, "fusion_lat": 0.0, "name": "bd52e2eaef189bc620037201a0d516cc", "is_reserved": 0, "is_disabled": 0, "type": "electric_scooter"}, {"fusion_lon": 0.0, "lat": 38.91929066666667, "lon": -77.0195485, "bike_id": "595159b6844928579235385d8aeda679", "rental_uris": {"android": "https://dc.lft.to/lastmile_qr_scan", "ios": "https://dc.lft.to/lastmile_qr_scan"}, "fusion_lat": 0.0, "name": "595159b6844928579235385d8aeda679", "is_reserved": 0, "is_disabled": 0, "type": "electric_scooter"}, {"fusion_lon": 0.0, "lat": 38.894923666666664, "lon": -76.94892616666667, "bike_id": "9e08af9fbb370ae251e93a1cd98e8937", "rental_uris": {"android": "https://dc.lft.to/lastmile_qr_scan", "ios": "https://dc.lft.to/lastmile_qr_scan"}, "fusion_lat": 0.0, "name": "9e08af9fbb370ae251e93a1cd98e8937", "is_reserved": 0, "is_disabled": 0, "type": "electric_scooter"}, {"fusion_lon": 0.0, "lat": 38.89197333333333, "lon": -76.9938405, "bike_id": "4ef71c913530e03602a9090f10512372", "rental_uris": {"android": "https://dc.lft.to/lastmile_qr_scan", "ios": "https://dc.lft.to/lastmile_qr_scan"}, "fusion_lat": 0.0, "name": "4ef71c913530e03602a9090f10512372", "is_reserved": 0, "is_disabled": 0, "type": "electric_scooter"}, {"fusion_lon": 0.0, "lat": 38.9181345, "lon": -77.04027283333333, "bike_id": "f1c18a2c1043071acba78f32e803da5d", "rental_uris": {"android": "https://dc.lft.to/lastmile_qr_scan", "ios": "https://dc.lft.to/lastmile_qr_scan"}, "fusion_lat": 0.0, "name": "f1c18a2c1043071acba78f32e803da5d", "is_reserved": 0, "is_disabled": 0, "type": "electric_scooter"}, {"fusion_lon": 0.0, "lat": 38.913693, "lon": -77.04484783333334, "bike_id": "b20f58318ae4f76df53209d69eb77438", "rental_uris": {"android": "https://dc.lft.to/lastmile_qr_scan", "ios": "https://dc.lft.to/lastmile_qr_scan"}, "fusion_lat": 0.0, "name": "b20f58318ae4f76df53209d69eb77438", "is_reserved": 0, "is_disabled": 0, "type": "electric_scooter"}, {"fusion_lon": 0.0, "lat": 38.91552866666667, "lon": -77.04446316666667, "bike_id": "f10f4d8fc94f8ed369d10af403376958", "rental_uris": {"android": "https://dc.lft.to/lastmile_qr_scan", "ios": "https://dc.lft.to/lastmile_qr_scan"}, "fusion_lat": 0.0, "name": "f10f4d8fc94f8ed369d10af403376958", "is_reserved": 0, "is_disabled": 0, "type": "electric_scooter"}, {"fusion_lon": 0.0, "lat": 38.93976816666667, "lon": -77.02840666666667, "bike_id": "fe665f5b2d148c85f0edfeb8286a3c98", "rental_uris": {"android": "https://dc.lft.to/lastmile_qr_scan", "ios": "https://dc.lft.to/lastmile_qr_scan"}, "fusion_lat": 0.0, "name": "fe665f5b2d148c85f0edfeb8286a3c98", "is_reserved": 0, "is_disabled": 0, "type": "electric_scooter"}, {"fusion_lon": 0.0, "lat": 38.92864733333333, "lon": -77.01407266666666, "bike_id": "557a7eaba393da01c1cbc8918840b5a1", "rental_uris": {"android": "https://dc.lft.to/lastmile_qr_scan", "ios": "https://dc.lft.to/lastmile_qr_scan"}, "fusion_lat": 0.0, "name": "557a7eaba393da01c1cbc8918840b5a1", "is_reserved": 0, "is_disabled": 0, "type": "electric_scooter"}, {"fusion_lon": 0.0, "lat": 38.89548933333333, "lon": -77.00924033333334, "bike_id": "6cffd1a1010eae653528e1a743c6432a", "rental_uris": {"android": "https://dc.lft.to/lastmile_qr_scan", "ios": "https://dc.lft.to/lastmile_qr_scan"}, "fusion_lat": 0.0, "name": "6cffd1a1010eae653528e1a743c6432a", "is_reserved": 0, "is_disabled": 0, "type": "electric_scooter"}, {"fusion_lon": 0.0, "lat": 38.892555, "lon": -77.0021895, "bike_id": "84dae863e0b9156ac329bcab45952cfb", "rental_uris": {"android": "https://dc.lft.to/lastmile_qr_scan", "ios": "https://dc.lft.to/lastmile_qr_scan"}, "fusion_lat": 0.0, "name": "84dae863e0b9156ac329bcab45952cfb", "is_reserved": 0, "is_disabled": 0, "type": "electric_scooter"}, {"fusion_lon": 0.0, "lat": 38.89608966666667, "lon": -77.05081483333333, "bike_id": "8beac28548347b34015b2b59925736d8", "rental_uris": {"android": "https://dc.lft.to/lastmile_qr_scan", "ios": "https://dc.lft.to/lastmile_qr_scan"}, "fusion_lat": 0.0, "name": "8beac28548347b34015b2b59925736d8", "is_reserved": 0, "is_disabled": 0, "type": "electric_scooter"}, {"fusion_lon": 0.0, "lat": 38.92692183333333, "lon": -77.0227485, "bike_id": "2a533d082774df821be77bb2c134d57d", "rental_uris": {"android": "https://dc.lft.to/lastmile_qr_scan", "ios": "https://dc.lft.to/lastmile_qr_scan"}, "fusion_lat": 0.0, "name": "2a533d082774df821be77bb2c134d57d", "is_reserved": 0, "is_disabled": 0, "type": "electric_scooter"}, {"fusion_lon": 0.0, "lat": 38.901289166666665, "lon": -77.04480166666667, "bike_id": "74f9061cf1ca12f23bc95bf1c64ccb6b", "rental_uris": {"android": "https://dc.lft.to/lastmile_qr_scan", "ios": "https://dc.lft.to/lastmile_qr_scan"}, "fusion_lat": 0.0, "name": "74f9061cf1ca12f23bc95bf1c64ccb6b", "is_reserved": 0, "is_disabled": 0, "type": "electric_scooter"}, {"fusion_lon": 0.0, "lat": 38.914193, "lon": -77.0427785, "bike_id": "b1975b15ad672cbe3cc0258b28ab04ba", "rental_uris": {"android": "https://dc.lft.to/lastmile_qr_scan", "ios": "https://dc.lft.to/lastmile_qr_scan"}, "fusion_lat": 0.0, "name": "b1975b15ad672cbe3cc0258b28ab04ba", "is_reserved": 0, "is_disabled": 0, "type": "electric_scooter"}, {"fusion_lon": 0.0, "lat": 38.93817883333333, "lon": -77.10176066666666, "bike_id": "3663a408f40ac0b7344eb6a59f5219d8", "rental_uris": {"android": "https://dc.lft.to/lastmile_qr_scan", "ios": "https://dc.lft.to/lastmile_qr_scan"}, "fusion_lat": 0.0, "name": "3663a408f40ac0b7344eb6a59f5219d8", "is_reserved": 0, "is_disabled": 0, "type": "electric_bike"}, {"fusion_lon": 0.0, "lat": 38.8968595, "lon": -77.00500833333334, "bike_id": "8267d017ec4517211ebc71e78b24f736", "rental_uris": {"android": "https://dc.lft.to/lastmile_qr_scan", "ios": "https://dc.lft.to/lastmile_qr_scan"}, "fusion_lat": 0.0, "name": "8267d017ec4517211ebc71e78b24f736", "is_reserved": 0, "is_disabled": 0, "type": "electric_scooter"}, {"fusion_lon": 0.0, "lat": 38.895948833333335, "lon": -77.01625616666666, "bike_id": "111bae7bd5e7f50ef1308a3c0a2ad590", "rental_uris": {"android": "https://dc.lft.to/lastmile_qr_scan", "ios": "https://dc.lft.to/lastmile_qr_scan"}, "fusion_lat": 0.0, "name": "111bae7bd5e7f50ef1308a3c0a2ad590", "is_reserved": 0, "is_disabled": 0, "type": "electric_scooter"}, {"fusion_lon": 0.0, "lat": 38.8686645, "lon": -76.98661883333334, "bike_id": "7a567d1f2a80e47b75f6179ffc0df077", "rental_uris": {"android": "https://dc.lft.to/lastmile_qr_scan", "ios": "https://dc.lft.to/lastmile_qr_scan"}, "fusion_lat": 0.0, "name": "7a567d1f2a80e47b75f6179ffc0df077", "is_reserved": 0, "is_disabled": 0, "type": "electric_scooter"}, {"fusion_lon": 0.0, "lat": 38.854409, "lon": -77.08324283333333, "bike_id": "8ba187e5736b8d48263b2e8f5a37440d", "rental_uris": {"android": "https://dc.lft.to/lastmile_qr_scan", "ios": "https://dc.lft.to/lastmile_qr_scan"}, "fusion_lat": 0.0, "name": "8ba187e5736b8d48263b2e8f5a37440d", "is_reserved": 0, "is_disabled": 0, "type": "electric_bike"}, {"fusion_lon": 0.0, "lat": 38.91082, "lon": -77.04481033333333, "bike_id": "d98e4572e29acfdf42a1d6ea284fd130", "rental_uris": {"android": "https://dc.lft.to/lastmile_qr_scan", "ios": "https://dc.lft.to/lastmile_qr_scan"}, "fusion_lat": 0.0, "name": "d98e4572e29acfdf42a1d6ea284fd130", "is_reserved": 0, "is_disabled": 0, "type": "electric_scooter"}, {"fusion_lon": 0.0, "lat": 38.922396166666665, "lon": -77.02121983333333, "bike_id": "7c5d91047c614f24864b17f8b1dc432b", "rental_uris": {"android": "https://dc.lft.to/lastmile_qr_scan", "ios": "https://dc.lft.to/lastmile_qr_scan"}, "fusion_lat": 0.0, "name": "7c5d91047c614f24864b17f8b1dc432b", "is_reserved": 0, "is_disabled": 0, "type": "electric_scooter"}, {"fusion_lon": 0.0, "lat": 38.901552333333335, "lon": -77.05053, "bike_id": "74a6e9d14ea6ae344b60538be2225c2f", "rental_uris": {"android": "https://dc.lft.to/lastmile_qr_scan", "ios": "https://dc.lft.to/lastmile_qr_scan"}, "fusion_lat": 0.0, "name": "74a6e9d14ea6ae344b60538be2225c2f", "is_reserved": 0, "is_disabled": 0, "type": "electric_scooter"}, {"fusion_lon": 0.0, "lat": 38.90381983333333, "lon": -77.04533216666667, "bike_id": "ffe61342945d07992243314f7d68f96c", "rental_uris": {"android": "https://dc.lft.to/lastmile_qr_scan", "ios": "https://dc.lft.to/lastmile_qr_scan"}, "fusion_lat": 0.0, "name": "ffe61342945d07992243314f7d68f96c", "is_reserved": 0, "is_disabled": 0, "type": "electric_scooter"}, {"fusion_lon": 0.0, "lat": 38.9891475, "lon": -77.10095466666667, "bike_id": "fafc3a05192ff978c12f22530085741f", "rental_uris": {"android": "https://dc.lft.to/lastmile_qr_scan", "ios": "https://dc.lft.to/lastmile_qr_scan"}, "fusion_lat": 0.0, "name": "fafc3a05192ff978c12f22530085741f", "is_reserved": 0, "is_disabled": 0, "type": "electric_bike"}, {"fusion_lon": 0.0, "lat": 38.934269, "lon": -77.03448716666666, "bike_id": "2a1032ad4a6effa037d91095e3334776", "rental_uris": {"android": "https://dc.lft.to/lastmile_qr_scan", "ios": "https://dc.lft.to/lastmile_qr_scan"}, "fusion_lat": 0.0, "name": "2a1032ad4a6effa037d91095e3334776", "is_reserved": 0, "is_disabled": 0, "type": "electric_scooter"}, {"fusion_lon": 0.0, "lat": 38.89359266666666, "lon": -77.028147, "bike_id": "f4f50c113a81f09b48468061205924ed", "rental_uris": {"android": "https://dc.lft.to/lastmile_qr_scan", "ios": "https://dc.lft.to/lastmile_qr_scan"}, "fusion_lat": 0.0, "name": "f4f50c113a81f09b48468061205924ed", "is_reserved": 0, "is_disabled": 0, "type": "electric_scooter"}, {"fusion_lon": 0.0, "lat": 38.90353016666667, "lon": -77.01951466666667, "bike_id": "353d60b3ebb348e8fcb613f3c04326f2", "rental_uris": {"android": "https://dc.lft.to/lastmile_qr_scan", "ios": "https://dc.lft.to/lastmile_qr_scan"}, "fusion_lat": 0.0, "name": "353d60b3ebb348e8fcb613f3c04326f2", "is_reserved": 0, "is_disabled": 0, "type": "electric_scooter"}, {"fusion_lon": 0.0, "lat": 38.922627, "lon": -77.03682, "bike_id": "b5d9db8519ab92b5a8335db4542ad59b", "rental_uris": {"android": "https://dc.lft.to/lastmile_qr_scan", "ios": "https://dc.lft.to/lastmile_qr_scan"}, "fusion_lat": 0.0, "name": "b5d9db8519ab92b5a8335db4542ad59b", "is_reserved": 0, "is_disabled": 0, "type": "electric_scooter"}, {"fusion_lon": 0.0, "lat": 38.896265166666666, "lon": -77.0317635, "bike_id": "60975fa983952c5aec084e2480b399da", "rental_uris": {"android": "https://dc.lft.to/lastmile_qr_scan", "ios": "https://dc.lft.to/lastmile_qr_scan"}, "fusion_lat": 0.0, "name": "60975fa983952c5aec084e2480b399da", "is_reserved": 0, "is_disabled": 0, "type": "electric_scooter"}, {"fusion_lon": 0.0, "lat": 38.944242833333334, "lon": -77.05521066666667, "bike_id": "846831bea49b907dd81655af122f2fd9", "rental_uris": {"android": "https://dc.lft.to/lastmile_qr_scan", "ios": "https://dc.lft.to/lastmile_qr_scan"}, "fusion_lat": 0.0, "name": "846831bea49b907dd81655af122f2fd9", "is_reserved": 0, "is_disabled": 0, "type": "electric_scooter"}, {"fusion_lon": 0.0, "lat": 38.9751875, "lon": -77.01689433333334, "bike_id": "65f6571119b977771a7d95bafc0209be", "rental_uris": {"android": "https://dc.lft.to/lastmile_qr_scan", "ios": "https://dc.lft.to/lastmile_qr_scan"}, "fusion_lat": 0.0, "name": "65f6571119b977771a7d95bafc0209be", "is_reserved": 0, "is_disabled": 0, "type": "electric_scooter"}, {"fusion_lon": 0.0, "lat": 38.886106166666664, "lon": -77.00282366666667, "bike_id": "d50bd6c1334a34c560bc06792da5b5c9", "rental_uris": {"android": "https://dc.lft.to/lastmile_qr_scan", "ios": "https://dc.lft.to/lastmile_qr_scan"}, "fusion_lat": 0.0, "name": "d50bd6c1334a34c560bc06792da5b5c9", "is_reserved": 0, "is_disabled": 0, "type": "electric_scooter"}, {"fusion_lon": 0.0, "lat": 38.924863, "lon": -77.0216155, "bike_id": "19fb2c86c0891677b7a172e6eb7ffd6d", "rental_uris": {"android": "https://dc.lft.to/lastmile_qr_scan", "ios": "https://dc.lft.to/lastmile_qr_scan"}, "fusion_lat": 0.0, "name": "19fb2c86c0891677b7a172e6eb7ffd6d", "is_reserved": 0, "is_disabled": 0, "type": "electric_scooter"}, {"fusion_lon": 0.0, "lat": 38.90198433333333, "lon": -77.05897616666667, "bike_id": "63af6221dd823ef7f04a04cefcbcf19d", "rental_uris": {"android": "https://dc.lft.to/lastmile_qr_scan", "ios": "https://dc.lft.to/lastmile_qr_scan"}, "fusion_lat": 0.0, "name": "63af6221dd823ef7f04a04cefcbcf19d", "is_reserved": 0, "is_disabled": 0, "type": "electric_scooter"}, {"fusion_lon": 0.0, "lat": 38.905522, "lon": -77.01576866666667, "bike_id": "f6ea3852af7ac6c7c859a5c2cdd79147", "rental_uris": {"android": "https://dc.lft.to/lastmile_qr_scan", "ios": "https://dc.lft.to/lastmile_qr_scan"}, "fusion_lat": 0.0, "name": "f6ea3852af7ac6c7c859a5c2cdd79147", "is_reserved": 0, "is_disabled": 0, "type": "electric_scooter"}, {"fusion_lon": 0.0, "lat": 39.08488766666667, "lon": -76.95051766666667, "bike_id": "b51c6ed979f4e709dbcb3f7c54beac3e", "rental_uris": {"android": "https://dc.lft.to/lastmile_qr_scan", "ios": "https://dc.lft.to/lastmile_qr_scan"}, "fusion_lat": 0.0, "name": "b51c6ed979f4e709dbcb3f7c54beac3e", "is_reserved": 0, "is_disabled": 0, "type": "electric_bike"}, {"fusion_lon": 0.0, "lat": 38.900488, "lon": -77.03173933333333, "bike_id": "b8cf0b649418a97a2b4b0cc877dc4e31", "rental_uris": {"android": "https://dc.lft.to/lastmile_qr_scan", "ios": "https://dc.lft.to/lastmile_qr_scan"}, "fusion_lat": 0.0, "name": "b8cf0b649418a97a2b4b0cc877dc4e31", "is_reserved": 0, "is_disabled": 0, "type": "electric_scooter"}, {"fusion_lon": 0.0, "lat": 38.89612016666667, "lon": -77.03040533333333, "bike_id": "cc81a49d93054f4e068537d7b6d38104", "rental_uris": {"android": "https://dc.lft.to/lastmile_qr_scan", "ios": "https://dc.lft.to/lastmile_qr_scan"}, "fusion_lat": 0.0, "name": "cc81a49d93054f4e068537d7b6d38104", "is_reserved": 0, "is_disabled": 0, "type": "electric_scooter"}, {"fusion_lon": 0.0, "lat": 38.907812, "lon": -77.0451145, "bike_id": "3731183736847a4d2538b35791a0b8a7", "rental_uris": {"android": "https://dc.lft.to/lastmile_qr_scan", "ios": "https://dc.lft.to/lastmile_qr_scan"}, "fusion_lat": 0.0, "name": "3731183736847a4d2538b35791a0b8a7", "is_reserved": 0, "is_disabled": 0, "type": "electric_scooter"}, {"fusion_lon": 0.0, "lat": 38.935274666666665, "lon": -77.02843316666667, "bike_id": "28972a3d078f83d522a8d3e6af8a3bc7", "rental_uris": {"android": "https://dc.lft.to/lastmile_qr_scan", "ios": "https://dc.lft.to/lastmile_qr_scan"}, "fusion_lat": 0.0, "name": "28972a3d078f83d522a8d3e6af8a3bc7", "is_reserved": 0, "is_disabled": 0, "type": "electric_scooter"}, {"fusion_lon": 0.0, "lat": 38.89845533333333, "lon": -77.03317483333333, "bike_id": "c6f3ef970eb1a97110a617e6eb85e8f6", "rental_uris": {"android": "https://dc.lft.to/lastmile_qr_scan", "ios": "https://dc.lft.to/lastmile_qr_scan"}, "fusion_lat": 0.0, "name": "c6f3ef970eb1a97110a617e6eb85e8f6", "is_reserved": 0, "is_disabled": 0, "type": "electric_scooter"}, {"fusion_lon": 0.0, "lat": 38.8757595, "lon": -77.0058245, "bike_id": "0b46cce2d7854e0bb5d7be1a354ab064", "rental_uris": {"android": "https://dc.lft.to/lastmile_qr_scan", "ios": "https://dc.lft.to/lastmile_qr_scan"}, "fusion_lat": 0.0, "name": "0b46cce2d7854e0bb5d7be1a354ab064", "is_reserved": 0, "is_disabled": 0, "type": "electric_scooter"}, {"fusion_lon": 0.0, "lat": 38.90266366666667, "lon": -77.06291033333333, "bike_id": "0dd4ef528350dccfb5886a06732a3276", "rental_uris": {"android": "https://dc.lft.to/lastmile_qr_scan", "ios": "https://dc.lft.to/lastmile_qr_scan"}, "fusion_lat": 0.0, "name": "0dd4ef528350dccfb5886a06732a3276", "is_reserved": 0, "is_disabled": 0, "type": "electric_scooter"}, {"fusion_lon": 0.0, "lat": 38.885387, "lon": -76.9820625, "bike_id": "95fd35a3012ce66d80694d8675a535b5", "rental_uris": {"android": "https://dc.lft.to/lastmile_qr_scan", "ios": "https://dc.lft.to/lastmile_qr_scan"}, "fusion_lat": 0.0, "name": "95fd35a3012ce66d80694d8675a535b5", "is_reserved": 0, "is_disabled": 0, "type": "electric_scooter"}, {"fusion_lon": 0.0, "lat": 38.909501666666664, "lon": -77.03186566666666, "bike_id": "449fed47634d0e122fa6ed5447ceb7c7", "rental_uris": {"android": "https://dc.lft.to/lastmile_qr_scan", "ios": "https://dc.lft.to/lastmile_qr_scan"}, "fusion_lat": 0.0, "name": "449fed47634d0e122fa6ed5447ceb7c7", "is_reserved": 0, "is_disabled": 0, "type": "electric_scooter"}, {"fusion_lon": 0.0, "lat": 38.8934945, "lon": -77.031665, "bike_id": "de16879a7d5957cefedbded2220cd499", "rental_uris": {"android": "https://dc.lft.to/lastmile_qr_scan", "ios": "https://dc.lft.to/lastmile_qr_scan"}, "fusion_lat": 0.0, "name": "de16879a7d5957cefedbded2220cd499", "is_reserved": 0, "is_disabled": 0, "type": "electric_scooter"}, {"fusion_lon": 0.0, "lat": 38.9289615, "lon": -77.03514683333333, "bike_id": "cdb2c078f64535c475ca5ecd2ad71579", "rental_uris": {"android": "https://dc.lft.to/lastmile_qr_scan", "ios": "https://dc.lft.to/lastmile_qr_scan"}, "fusion_lat": 0.0, "name": "cdb2c078f64535c475ca5ecd2ad71579", "is_reserved": 0, "is_disabled": 0, "type": "electric_scooter"}, {"fusion_lon": 0.0, "lat": 38.88611733333333, "lon": -76.99656016666667, "bike_id": "83ae6297247241939d84b6dd33bd5ffa", "rental_uris": {"android": "https://dc.lft.to/lastmile_qr_scan", "ios": "https://dc.lft.to/lastmile_qr_scan"}, "fusion_lat": 0.0, "name": "83ae6297247241939d84b6dd33bd5ffa", "is_reserved": 0, "is_disabled": 0, "type": "electric_scooter"}, {"fusion_lon": 0.0, "lat": 38.902816333333334, "lon": -77.038358, "bike_id": "db04067606746f2f8b18af21079737a8", "rental_uris": {"android": "https://dc.lft.to/lastmile_qr_scan", "ios": "https://dc.lft.to/lastmile_qr_scan"}, "fusion_lat": 0.0, "name": "db04067606746f2f8b18af21079737a8", "is_reserved": 0, "is_disabled": 0, "type": "electric_scooter"}, {"fusion_lon": 0.0, "lat": 38.92679166666667, "lon": -77.01485183333334, "bike_id": "3c25969bdb5b72d96fbd1fd51e1b29e2", "rental_uris": {"android": "https://dc.lft.to/lastmile_qr_scan", "ios": "https://dc.lft.to/lastmile_qr_scan"}, "fusion_lat": 0.0, "name": "3c25969bdb5b72d96fbd1fd51e1b29e2", "is_reserved": 0, "is_disabled": 0, "type": "electric_scooter"}, {"fusion_lon": 0.0, "lat": 38.90056333333333, "lon": -77.04802566666666, "bike_id": "62edef550e7eedc9b9339653080641da", "rental_uris": {"android": "https://dc.lft.to/lastmile_qr_scan", "ios": "https://dc.lft.to/lastmile_qr_scan"}, "fusion_lat": 0.0, "name": "62edef550e7eedc9b9339653080641da", "is_reserved": 0, "is_disabled": 0, "type": "electric_scooter"}, {"fusion_lon": 0.0, "lat": 38.905494833333336, "lon": -77.04491716666666, "bike_id": "e85b16bd8019e9a5c39d5cb162bdb11c", "rental_uris": {"android": "https://dc.lft.to/lastmile_qr_scan", "ios": "https://dc.lft.to/lastmile_qr_scan"}, "fusion_lat": 0.0, "name": "e85b16bd8019e9a5c39d5cb162bdb11c", "is_reserved": 0, "is_disabled": 0, "type": "electric_scooter"}, {"fusion_lon": 0.0, "lat": 38.924754666666665, "lon": -77.02900916666667, "bike_id": "af21a4b86fac93a912445bc7df5555c0", "rental_uris": {"android": "https://dc.lft.to/lastmile_qr_scan", "ios": "https://dc.lft.to/lastmile_qr_scan"}, "fusion_lat": 0.0, "name": "af21a4b86fac93a912445bc7df5555c0", "is_reserved": 0, "is_disabled": 0, "type": "electric_scooter"}, {"fusion_lon": 0.0, "lat": 38.92668883333333, "lon": -77.0149845, "bike_id": "4f5e687db8087eb05afb3c20dcac4dda", "rental_uris": {"android": "https://dc.lft.to/lastmile_qr_scan", "ios": "https://dc.lft.to/lastmile_qr_scan"}, "fusion_lat": 0.0, "name": "4f5e687db8087eb05afb3c20dcac4dda", "is_reserved": 0, "is_disabled": 0, "type": "electric_scooter"}, {"fusion_lon": 0.0, "lat": 38.876807, "lon": -77.00353366666667, "bike_id": "75de9575672ef9d94b39a7b56e746bab", "rental_uris": {"android": "https://dc.lft.to/lastmile_qr_scan", "ios": "https://dc.lft.to/lastmile_qr_scan"}, "fusion_lat": 0.0, "name": "75de9575672ef9d94b39a7b56e746bab", "is_reserved": 0, "is_disabled": 0, "type": "electric_scooter"}, {"fusion_lon": 0.0, "lat": 38.895466, "lon": -76.98892716666667, "bike_id": "b912a1cf8247768fb7538416933501f3", "rental_uris": {"android": "https://dc.lft.to/lastmile_qr_scan", "ios": "https://dc.lft.to/lastmile_qr_scan"}, "fusion_lat": 0.0, "name": "b912a1cf8247768fb7538416933501f3", "is_reserved": 0, "is_disabled": 0, "type": "electric_scooter"}, {"fusion_lon": 0.0, "lat": 38.898281833333336, "lon": -77.04681066666667, "bike_id": "533228594dc028745a1b27f0bc798dc9", "rental_uris": {"android": "https://dc.lft.to/lastmile_qr_scan", "ios": "https://dc.lft.to/lastmile_qr_scan"}, "fusion_lat": 0.0, "name": "533228594dc028745a1b27f0bc798dc9", "is_reserved": 0, "is_disabled": 0, "type": "electric_bike"}, {"fusion_lon": 0.0, "lat": 38.936776, "lon": -77.03577833333334, "bike_id": "668193660ed5c6f65fd816f6dcebbc40", "rental_uris": {"android": "https://dc.lft.to/lastmile_qr_scan", "ios": "https://dc.lft.to/lastmile_qr_scan"}, "fusion_lat": 0.0, "name": "668193660ed5c6f65fd816f6dcebbc40", "is_reserved": 0, "is_disabled": 0, "type": "electric_scooter"}, {"fusion_lon": 0.0, "lat": 38.919912, "lon": -77.02183033333333, "bike_id": "d95f51d171d04083341eecdaa2546632", "rental_uris": {"android": "https://dc.lft.to/lastmile_qr_scan", "ios": "https://dc.lft.to/lastmile_qr_scan"}, "fusion_lat": 0.0, "name": "d95f51d171d04083341eecdaa2546632", "is_reserved": 0, "is_disabled": 0, "type": "electric_scooter"}, {"fusion_lon": 0.0, "lat": 38.92910666666667, "lon": -77.012323, "bike_id": "4a93ba56ae032237d97a035877b273e6", "rental_uris": {"android": "https://dc.lft.to/lastmile_qr_scan", "ios": "https://dc.lft.to/lastmile_qr_scan"}, "fusion_lat": 0.0, "name": "4a93ba56ae032237d97a035877b273e6", "is_reserved": 0, "is_disabled": 0, "type": "electric_scooter"}, {"fusion_lon": 0.0, "lat": 38.8848075, "lon": -77.02632466666667, "bike_id": "956be49736599582426bda1571da26e6", "rental_uris": {"android": "https://dc.lft.to/lastmile_qr_scan", "ios": "https://dc.lft.to/lastmile_qr_scan"}, "fusion_lat": 0.0, "name": "956be49736599582426bda1571da26e6", "is_reserved": 0, "is_disabled": 0, "type": "electric_scooter"}, {"fusion_lon": 0.0, "lat": 38.90143916666667, "lon": -77.04306383333333, "bike_id": "419d76e366fa914206b6d9d6ddee25d8", "rental_uris": {"android": "https://dc.lft.to/lastmile_qr_scan", "ios": "https://dc.lft.to/lastmile_qr_scan"}, "fusion_lat": 0.0, "name": "419d76e366fa914206b6d9d6ddee25d8", "is_reserved": 0, "is_disabled": 0, "type": "electric_scooter"}, {"fusion_lon": 0.0, "lat": 38.91902816666666, "lon": -77.02950633333333, "bike_id": "bbbc45f67220ed25eef66d0a937b9b53", "rental_uris": {"android": "https://dc.lft.to/lastmile_qr_scan", "ios": "https://dc.lft.to/lastmile_qr_scan"}, "fusion_lat": 0.0, "name": "bbbc45f67220ed25eef66d0a937b9b53", "is_reserved": 0, "is_disabled": 0, "type": "electric_scooter"}, {"fusion_lon": 0.0, "lat": 38.927318, "lon": -77.02499716666667, "bike_id": "be11331eae297f2520a93faf77082901", "rental_uris": {"android": "https://dc.lft.to/lastmile_qr_scan", "ios": "https://dc.lft.to/lastmile_qr_scan"}, "fusion_lat": 0.0, "name": "be11331eae297f2520a93faf77082901", "is_reserved": 0, "is_disabled": 0, "type": "electric_bike"}, {"fusion_lon": 0.0, "lat": 38.8956775, "lon": -77.04154233333334, "bike_id": "5664ee1ace747164c86a15414e55e74a", "rental_uris": {"android": "https://dc.lft.to/lastmile_qr_scan", "ios": "https://dc.lft.to/lastmile_qr_scan"}, "fusion_lat": 0.0, "name": "5664ee1ace747164c86a15414e55e74a", "is_reserved": 0, "is_disabled": 0, "type": "electric_scooter"}, {"fusion_lon": 0.0, "lat": 38.924133499999996, "lon": -77.0201385, "bike_id": "b70b70549f15649ca27a0dd2808d10e8", "rental_uris": {"android": "https://dc.lft.to/lastmile_qr_scan", "ios": "https://dc.lft.to/lastmile_qr_scan"}, "fusion_lat": 0.0, "name": "b70b70549f15649ca27a0dd2808d10e8", "is_reserved": 0, "is_disabled": 0, "type": "electric_scooter"}, {"fusion_lon": 0.0, "lat": 38.9081975, "lon": -77.039393, "bike_id": "9ee0cb82129c54204682dd0079a294e2", "rental_uris": {"android": "https://dc.lft.to/lastmile_qr_scan", "ios": "https://dc.lft.to/lastmile_qr_scan"}, "fusion_lat": 0.0, "name": "9ee0cb82129c54204682dd0079a294e2", "is_reserved": 0, "is_disabled": 0, "type": "electric_scooter"}, {"fusion_lon": 0.0, "lat": 38.923329, "lon": -77.0190115, "bike_id": "87827b220e8a12474b0f3278dc3dd9c4", "rental_uris": {"android": "https://dc.lft.to/lastmile_qr_scan", "ios": "https://dc.lft.to/lastmile_qr_scan"}, "fusion_lat": 0.0, "name": "87827b220e8a12474b0f3278dc3dd9c4", "is_reserved": 0, "is_disabled": 0, "type": "electric_scooter"}, {"fusion_lon": 0.0, "lat": 38.9111255, "lon": -77.03827233333334, "bike_id": "f17866b73e72eccf4161e4e43aed63f2", "rental_uris": {"android": "https://dc.lft.to/lastmile_qr_scan", "ios": "https://dc.lft.to/lastmile_qr_scan"}, "fusion_lat": 0.0, "name": "f17866b73e72eccf4161e4e43aed63f2", "is_reserved": 0, "is_disabled": 0, "type": "electric_scooter"}, {"fusion_lon": 0.0, "lat": 38.906848, "lon": -77.04494216666667, "bike_id": "610184311cda223f16581eb3f68b87de", "rental_uris": {"android": "https://dc.lft.to/lastmile_qr_scan", "ios": "https://dc.lft.to/lastmile_qr_scan"}, "fusion_lat": 0.0, "name": "610184311cda223f16581eb3f68b87de", "is_reserved": 0, "is_disabled": 0, "type": "electric_scooter"}, {"fusion_lon": 0.0, "lat": 38.92159316666667, "lon": -77.03405683333334, "bike_id": "6a85a37234ec5e714dc64cbe6424f107", "rental_uris": {"android": "https://dc.lft.to/lastmile_qr_scan", "ios": "https://dc.lft.to/lastmile_qr_scan"}, "fusion_lat": 0.0, "name": "6a85a37234ec5e714dc64cbe6424f107", "is_reserved": 0, "is_disabled": 0, "type": "electric_scooter"}, {"fusion_lon": 0.0, "lat": 38.9036625, "lon": -77.03846866666666, "bike_id": "335070aeb0970eacf35aef8f770345b1", "rental_uris": {"android": "https://dc.lft.to/lastmile_qr_scan", "ios": "https://dc.lft.to/lastmile_qr_scan"}, "fusion_lat": 0.0, "name": "335070aeb0970eacf35aef8f770345b1", "is_reserved": 0, "is_disabled": 0, "type": "electric_scooter"}, {"fusion_lon": 0.0, "lat": 38.9001355, "lon": -77.04659016666666, "bike_id": "89b58170db5f24dbb1dab87f2f43df67", "rental_uris": {"android": "https://dc.lft.to/lastmile_qr_scan", "ios": "https://dc.lft.to/lastmile_qr_scan"}, "fusion_lat": 0.0, "name": "89b58170db5f24dbb1dab87f2f43df67", "is_reserved": 0, "is_disabled": 0, "type": "electric_scooter"}, {"fusion_lon": 0.0, "lat": 38.919238666666665, "lon": -77.03491666666666, "bike_id": "30b11a2d8897a3239be0329ef247dfe9", "rental_uris": {"android": "https://dc.lft.to/lastmile_qr_scan", "ios": "https://dc.lft.to/lastmile_qr_scan"}, "fusion_lat": 0.0, "name": "30b11a2d8897a3239be0329ef247dfe9", "is_reserved": 0, "is_disabled": 0, "type": "electric_scooter"}, {"fusion_lon": 0.0, "lat": 38.9035185, "lon": -77.04333066666666, "bike_id": "ffb0206f3acd3aeeaf00e0a95e43b83f", "rental_uris": {"android": "https://dc.lft.to/lastmile_qr_scan", "ios": "https://dc.lft.to/lastmile_qr_scan"}, "fusion_lat": 0.0, "name": "ffb0206f3acd3aeeaf00e0a95e43b83f", "is_reserved": 0, "is_disabled": 0, "type": "electric_scooter"}, {"fusion_lon": 0.0, "lat": 38.897666666666666, "lon": -77.012083, "bike_id": "e73f4bef684898fc3b71d2c00dc04854", "rental_uris": {"android": "https://dc.lft.to/lastmile_qr_scan", "ios": "https://dc.lft.to/lastmile_qr_scan"}, "fusion_lat": 0.0, "name": "e73f4bef684898fc3b71d2c00dc04854", "is_reserved": 0, "is_disabled": 0, "type": "electric_scooter"}, {"fusion_lon": 0.0, "lat": 38.91411983333333, "lon": -77.03269783333333, "bike_id": "aaa16184ecf3ebf70074e4544e90e0f4", "rental_uris": {"android": "https://dc.lft.to/lastmile_qr_scan", "ios": "https://dc.lft.to/lastmile_qr_scan"}, "fusion_lat": 0.0, "name": "aaa16184ecf3ebf70074e4544e90e0f4", "is_reserved": 0, "is_disabled": 0, "type": "electric_scooter"}, {"fusion_lon": 0.0, "lat": 38.90001083333333, "lon": -77.046797, "bike_id": "54707cd2dcee49e7e7484ac85a225b30", "rental_uris": {"android": "https://dc.lft.to/lastmile_qr_scan", "ios": "https://dc.lft.to/lastmile_qr_scan"}, "fusion_lat": 0.0, "name": "54707cd2dcee49e7e7484ac85a225b30", "is_reserved": 0, "is_disabled": 0, "type": "electric_scooter"}, {"fusion_lon": 0.0, "lat": 38.88599583333333, "lon": -77.00336316666667, "bike_id": "15c1b5aeed69c7cff000ceb8fc40a3d9", "rental_uris": {"android": "https://dc.lft.to/lastmile_qr_scan", "ios": "https://dc.lft.to/lastmile_qr_scan"}, "fusion_lat": 0.0, "name": "15c1b5aeed69c7cff000ceb8fc40a3d9", "is_reserved": 0, "is_disabled": 0, "type": "electric_scooter"}, {"fusion_lon": 0.0, "lat": 38.90188116666667, "lon": -77.04818316666666, "bike_id": "deacde9cde4fae08df9679a3218c0d86", "rental_uris": {"android": "https://dc.lft.to/lastmile_qr_scan", "ios": "https://dc.lft.to/lastmile_qr_scan"}, "fusion_lat": 0.0, "name": "deacde9cde4fae08df9679a3218c0d86", "is_reserved": 0, "is_disabled": 0, "type": "electric_scooter"}, {"fusion_lon": 0.0, "lat": 38.8874565, "lon": -77.01495666666666, "bike_id": "38a8475dc4d27bc0070a153da0c05270", "rental_uris": {"android": "https://dc.lft.to/lastmile_qr_scan", "ios": "https://dc.lft.to/lastmile_qr_scan"}, "fusion_lat": 0.0, "name": "38a8475dc4d27bc0070a153da0c05270", "is_reserved": 0, "is_disabled": 0, "type": "electric_scooter"}, {"fusion_lon": 0.0, "lat": 38.8960175, "lon": -77.02790416666667, "bike_id": "ef81d2dfface82920a7a511a16bea9da", "rental_uris": {"android": "https://dc.lft.to/lastmile_qr_scan", "ios": "https://dc.lft.to/lastmile_qr_scan"}, "fusion_lat": 0.0, "name": "ef81d2dfface82920a7a511a16bea9da", "is_reserved": 0, "is_disabled": 0, "type": "electric_scooter"}, {"fusion_lon": 0.0, "lat": 38.9140425, "lon": -77.02848433333334, "bike_id": "fa1a6a1058862adbfb84f61107f4cefe", "rental_uris": {"android": "https://dc.lft.to/lastmile_qr_scan", "ios": "https://dc.lft.to/lastmile_qr_scan"}, "fusion_lat": 0.0, "name": "fa1a6a1058862adbfb84f61107f4cefe", "is_reserved": 0, "is_disabled": 0, "type": "electric_scooter"}, {"fusion_lon": 0.0, "lat": 38.92327816666667, "lon": -77.01956116666666, "bike_id": "4c8227aada79936a2dcc60aefc63664b", "rental_uris": {"android": "https://dc.lft.to/lastmile_qr_scan", "ios": "https://dc.lft.to/lastmile_qr_scan"}, "fusion_lat": 0.0, "name": "4c8227aada79936a2dcc60aefc63664b", "is_reserved": 0, "is_disabled": 0, "type": "electric_scooter"}, {"fusion_lon": 0.0, "lat": 38.9246595, "lon": -77.02207416666667, "bike_id": "1c70b06a80a16df1507bf3d27899b2f2", "rental_uris": {"android": "https://dc.lft.to/lastmile_qr_scan", "ios": "https://dc.lft.to/lastmile_qr_scan"}, "fusion_lat": 0.0, "name": "1c70b06a80a16df1507bf3d27899b2f2", "is_reserved": 0, "is_disabled": 0, "type": "electric_scooter"}, {"fusion_lon": 0.0, "lat": 38.91910933333333, "lon": -77.048041, "bike_id": "50e0f39c18a421e36e6c03cd5a4c7823", "rental_uris": {"android": "https://dc.lft.to/lastmile_qr_scan", "ios": "https://dc.lft.to/lastmile_qr_scan"}, "fusion_lat": 0.0, "name": "50e0f39c18a421e36e6c03cd5a4c7823", "is_reserved": 0, "is_disabled": 0, "type": "electric_scooter"}, {"fusion_lon": 0.0, "lat": 38.89213066666667, "lon": -77.022249, "bike_id": "f030210399ae7c5a595f500f47efcbc2", "rental_uris": {"android": "https://dc.lft.to/lastmile_qr_scan", "ios": "https://dc.lft.to/lastmile_qr_scan"}, "fusion_lat": 0.0, "name": "f030210399ae7c5a595f500f47efcbc2", "is_reserved": 0, "is_disabled": 0, "type": "electric_scooter"}, {"fusion_lon": 0.0, "lat": 38.8990315, "lon": -77.0333305, "bike_id": "a449545a2f7e9a29fab8bae328b225e9", "rental_uris": {"android": "https://dc.lft.to/lastmile_qr_scan", "ios": "https://dc.lft.to/lastmile_qr_scan"}, "fusion_lat": 0.0, "name": "a449545a2f7e9a29fab8bae328b225e9", "is_reserved": 0, "is_disabled": 0, "type": "electric_scooter"}, {"fusion_lon": 0.0, "lat": 38.900196, "lon": -76.99908933333333, "bike_id": "1b9bef64f43536ff8c25fa72237191cd", "rental_uris": {"android": "https://dc.lft.to/lastmile_qr_scan", "ios": "https://dc.lft.to/lastmile_qr_scan"}, "fusion_lat": 0.0, "name": "1b9bef64f43536ff8c25fa72237191cd", "is_reserved": 0, "is_disabled": 0, "type": "electric_scooter"}, {"fusion_lon": 0.0, "lat": 38.920617666666665, "lon": -76.9706735, "bike_id": "29d5666e9d996762c7a2bac8a6a717ad", "rental_uris": {"android": "https://dc.lft.to/lastmile_qr_scan", "ios": "https://dc.lft.to/lastmile_qr_scan"}, "fusion_lat": 0.0, "name": "29d5666e9d996762c7a2bac8a6a717ad", "is_reserved": 0, "is_disabled": 0, "type": "electric_bike"}, {"fusion_lon": 0.0, "lat": 38.8921605, "lon": -77.02166883333334, "bike_id": "97e9dee9b0cea63992c474690a6c5ac3", "rental_uris": {"android": "https://dc.lft.to/lastmile_qr_scan", "ios": "https://dc.lft.to/lastmile_qr_scan"}, "fusion_lat": 0.0, "name": "97e9dee9b0cea63992c474690a6c5ac3", "is_reserved": 0, "is_disabled": 0, "type": "electric_scooter"}, {"fusion_lon": 0.0, "lat": 38.9388385, "lon": -77.03229716666667, "bike_id": "879fb30f2b59db4f0acac7a21efab2fc", "rental_uris": {"android": "https://dc.lft.to/lastmile_qr_scan", "ios": "https://dc.lft.to/lastmile_qr_scan"}, "fusion_lat": 0.0, "name": "879fb30f2b59db4f0acac7a21efab2fc", "is_reserved": 0, "is_disabled": 0, "type": "electric_scooter"}, {"fusion_lon": 0.0, "lat": 38.89723466666667, "lon": -77.0436195, "bike_id": "6ee69214d33137d26cff6d8d83bf8bcd", "rental_uris": {"android": "https://dc.lft.to/lastmile_qr_scan", "ios": "https://dc.lft.to/lastmile_qr_scan"}, "fusion_lat": 0.0, "name": "6ee69214d33137d26cff6d8d83bf8bcd", "is_reserved": 0, "is_disabled": 0, "type": "electric_scooter"}, {"fusion_lon": 0.0, "lat": 38.906461166666666, "lon": -77.04872966666667, "bike_id": "35a0940f2952f4d7f6562ab203ee97a8", "rental_uris": {"android": "https://dc.lft.to/lastmile_qr_scan", "ios": "https://dc.lft.to/lastmile_qr_scan"}, "fusion_lat": 0.0, "name": "35a0940f2952f4d7f6562ab203ee97a8", "is_reserved": 0, "is_disabled": 0, "type": "electric_scooter"}, {"fusion_lon": 0.0, "lat": 38.916920166666664, "lon": -77.03821333333333, "bike_id": "0c037aee5a29a31e051116acd7a42ff5", "rental_uris": {"android": "https://dc.lft.to/lastmile_qr_scan", "ios": "https://dc.lft.to/lastmile_qr_scan"}, "fusion_lat": 0.0, "name": "0c037aee5a29a31e051116acd7a42ff5", "is_reserved": 0, "is_disabled": 0, "type": "electric_scooter"}, {"fusion_lon": 0.0, "lat": 38.9033115, "lon": -77.02467983333334, "bike_id": "fa48290a187d94e8e54d30310bafd3dc", "rental_uris": {"android": "https://dc.lft.to/lastmile_qr_scan", "ios": "https://dc.lft.to/lastmile_qr_scan"}, "fusion_lat": 0.0, "name": "fa48290a187d94e8e54d30310bafd3dc", "is_reserved": 0, "is_disabled": 0, "type": "electric_scooter"}, {"fusion_lon": 0.0, "lat": 38.92651033333333, "lon": -77.02417883333334, "bike_id": "10243101ca485e17563c617deb1bbe5b", "rental_uris": {"android": "https://dc.lft.to/lastmile_qr_scan", "ios": "https://dc.lft.to/lastmile_qr_scan"}, "fusion_lat": 0.0, "name": "10243101ca485e17563c617deb1bbe5b", "is_reserved": 0, "is_disabled": 0, "type": "electric_scooter"}, {"fusion_lon": 0.0, "lat": 38.92478166666667, "lon": -77.0219115, "bike_id": "d25c794b9cdbd34be680ec2dc6f17952", "rental_uris": {"android": "https://dc.lft.to/lastmile_qr_scan", "ios": "https://dc.lft.to/lastmile_qr_scan"}, "fusion_lat": 0.0, "name": "d25c794b9cdbd34be680ec2dc6f17952", "is_reserved": 0, "is_disabled": 0, "type": "electric_scooter"}, {"fusion_lon": 0.0, "lat": 38.975138666666666, "lon": -77.016926, "bike_id": "5ce9bbb95959305e922909366cea8464", "rental_uris": {"android": "https://dc.lft.to/lastmile_qr_scan", "ios": "https://dc.lft.to/lastmile_qr_scan"}, "fusion_lat": 0.0, "name": "5ce9bbb95959305e922909366cea8464", "is_reserved": 0, "is_disabled": 0, "type": "electric_scooter"}, {"fusion_lon": 0.0, "lat": 39.094361, "lon": -77.13465466666666, "bike_id": "2c4e8709a11b631039bde44da3e69fff", "rental_uris": {"android": "https://dc.lft.to/lastmile_qr_scan", "ios": "https://dc.lft.to/lastmile_qr_scan"}, "fusion_lat": 0.0, "name": "2c4e8709a11b631039bde44da3e69fff", "is_reserved": 0, "is_disabled": 0, "type": "electric_bike"}, {"fusion_lon": 0.0, "lat": 38.91561733333333, "lon": -77.04439816666667, "bike_id": "eecb53a930e6e7b6a2584a854c07ec92", "rental_uris": {"android": "https://dc.lft.to/lastmile_qr_scan", "ios": "https://dc.lft.to/lastmile_qr_scan"}, "fusion_lat": 0.0, "name": "eecb53a930e6e7b6a2584a854c07ec92", "is_reserved": 0, "is_disabled": 0, "type": "electric_scooter"}, {"fusion_lon": 0.0, "lat": 38.89659783333333, "lon": -76.98108216666667, "bike_id": "7515ca5858f51d3e2c0127caa78fa16c", "rental_uris": {"android": "https://dc.lft.to/lastmile_qr_scan", "ios": "https://dc.lft.to/lastmile_qr_scan"}, "fusion_lat": 0.0, "name": "7515ca5858f51d3e2c0127caa78fa16c", "is_reserved": 0, "is_disabled": 0, "type": "electric_scooter"}, {"fusion_lon": 0.0, "lat": 38.898816, "lon": -77.03301016666667, "bike_id": "e3a6790031ecc2bdc948082fe2af27f8", "rental_uris": {"android": "https://dc.lft.to/lastmile_qr_scan", "ios": "https://dc.lft.to/lastmile_qr_scan"}, "fusion_lat": 0.0, "name": "e3a6790031ecc2bdc948082fe2af27f8", "is_reserved": 0, "is_disabled": 0, "type": "electric_scooter"}, {"fusion_lon": 0.0, "lat": 38.942634, "lon": -77.02844233333333, "bike_id": "a9b3da25ae53738201142d136076dcea", "rental_uris": {"android": "https://dc.lft.to/lastmile_qr_scan", "ios": "https://dc.lft.to/lastmile_qr_scan"}, "fusion_lat": 0.0, "name": "a9b3da25ae53738201142d136076dcea", "is_reserved": 0, "is_disabled": 0, "type": "electric_scooter"}, {"fusion_lon": 0.0, "lat": 38.8970705, "lon": -76.9912375, "bike_id": "5eb76b31ff40a0e004cba99b0ff0a2f6", "rental_uris": {"android": "https://dc.lft.to/lastmile_qr_scan", "ios": "https://dc.lft.to/lastmile_qr_scan"}, "fusion_lat": 0.0, "name": "5eb76b31ff40a0e004cba99b0ff0a2f6", "is_reserved": 0, "is_disabled": 0, "type": "electric_scooter"}, {"fusion_lon": 0.0, "lat": 38.913305, "lon": -77.03444533333334, "bike_id": "1c1ed6f8bd073a385469ac1c90a4c202", "rental_uris": {"android": "https://dc.lft.to/lastmile_qr_scan", "ios": "https://dc.lft.to/lastmile_qr_scan"}, "fusion_lat": 0.0, "name": "1c1ed6f8bd073a385469ac1c90a4c202", "is_reserved": 0, "is_disabled": 0, "type": "electric_scooter"}, {"fusion_lon": 0.0, "lat": 38.8957845, "lon": -77.03185716666667, "bike_id": "678ea26192d1352fafe4f379a429c078", "rental_uris": {"android": "https://dc.lft.to/lastmile_qr_scan", "ios": "https://dc.lft.to/lastmile_qr_scan"}, "fusion_lat": 0.0, "name": "678ea26192d1352fafe4f379a429c078", "is_reserved": 0, "is_disabled": 0, "type": "electric_scooter"}, {"fusion_lon": 0.0, "lat": 38.934948, "lon": -76.981986, "bike_id": "1547e0e703a1dfb97dcaa0efd853c01a", "rental_uris": {"android": "https://dc.lft.to/lastmile_qr_scan", "ios": "https://dc.lft.to/lastmile_qr_scan"}, "fusion_lat": 0.0, "name": "1547e0e703a1dfb97dcaa0efd853c01a", "is_reserved": 0, "is_disabled": 0, "type": "electric_scooter"}, {"fusion_lon": 0.0, "lat": 38.932504, "lon": -76.9962845, "bike_id": "f939dfa694986a33b1eec9397d46ec40", "rental_uris": {"android": "https://dc.lft.to/lastmile_qr_scan", "ios": "https://dc.lft.to/lastmile_qr_scan"}, "fusion_lat": 0.0, "name": "f939dfa694986a33b1eec9397d46ec40", "is_reserved": 0, "is_disabled": 0, "type": "electric_scooter"}, {"fusion_lon": 0.0, "lat": 38.91931733333333, "lon": -77.03475316666666, "bike_id": "b9917c6c5b93c072ccb78b6cf816431c", "rental_uris": {"android": "https://dc.lft.to/lastmile_qr_scan", "ios": "https://dc.lft.to/lastmile_qr_scan"}, "fusion_lat": 0.0, "name": "b9917c6c5b93c072ccb78b6cf816431c", "is_reserved": 0, "is_disabled": 0, "type": "electric_scooter"}, {"fusion_lon": 0.0, "lat": 38.88647366666667, "lon": -77.028358, "bike_id": "356cfad709c561269183f3d3b29a7cac", "rental_uris": {"android": "https://dc.lft.to/lastmile_qr_scan", "ios": "https://dc.lft.to/lastmile_qr_scan"}, "fusion_lat": 0.0, "name": "356cfad709c561269183f3d3b29a7cac", "is_reserved": 0, "is_disabled": 0, "type": "electric_bike"}, {"fusion_lon": 0.0, "lat": 38.884715166666666, "lon": -77.0255875, "bike_id": "24096d16c77413aa7ec009b86c05cdde", "rental_uris": {"android": "https://dc.lft.to/lastmile_qr_scan", "ios": "https://dc.lft.to/lastmile_qr_scan"}, "fusion_lat": 0.0, "name": "24096d16c77413aa7ec009b86c05cdde", "is_reserved": 0, "is_disabled": 0, "type": "electric_scooter"}, {"fusion_lon": 0.0, "lat": 38.9126445, "lon": -77.04555216666667, "bike_id": "df976ed0f7855ffac239f42b419ec47f", "rental_uris": {"android": "https://dc.lft.to/lastmile_qr_scan", "ios": "https://dc.lft.to/lastmile_qr_scan"}, "fusion_lat": 0.0, "name": "df976ed0f7855ffac239f42b419ec47f", "is_reserved": 0, "is_disabled": 0, "type": "electric_scooter"}, {"fusion_lon": 0.0, "lat": 38.8849185, "lon": -77.00713566666667, "bike_id": "6351c6c4d52b18a8bfa3f7335f7ed746", "rental_uris": {"android": "https://dc.lft.to/lastmile_qr_scan", "ios": "https://dc.lft.to/lastmile_qr_scan"}, "fusion_lat": 0.0, "name": "6351c6c4d52b18a8bfa3f7335f7ed746", "is_reserved": 0, "is_disabled": 0, "type": "electric_scooter"}, {"fusion_lon": 0.0, "lat": 38.882781666666666, "lon": -76.93243183333334, "bike_id": "e6c34cdf5289b90c5e9d71fb258885b9", "rental_uris": {"android": "https://dc.lft.to/lastmile_qr_scan", "ios": "https://dc.lft.to/lastmile_qr_scan"}, "fusion_lat": 0.0, "name": "e6c34cdf5289b90c5e9d71fb258885b9", "is_reserved": 0, "is_disabled": 0, "type": "electric_bike"}, {"fusion_lon": 0.0, "lat": 38.913809, "lon": -77.03218433333333, "bike_id": "9624798f80a2852b70a1967bd1fcffb7", "rental_uris": {"android": "https://dc.lft.to/lastmile_qr_scan", "ios": "https://dc.lft.to/lastmile_qr_scan"}, "fusion_lat": 0.0, "name": "9624798f80a2852b70a1967bd1fcffb7", "is_reserved": 0, "is_disabled": 0, "type": "electric_scooter"}, {"fusion_lon": 0.0, "lat": 38.896957666666665, "lon": -77.0318165, "bike_id": "223dc1e048b02ccfdf9141d9461d4126", "rental_uris": {"android": "https://dc.lft.to/lastmile_qr_scan", "ios": "https://dc.lft.to/lastmile_qr_scan"}, "fusion_lat": 0.0, "name": "223dc1e048b02ccfdf9141d9461d4126", "is_reserved": 0, "is_disabled": 0, "type": "electric_scooter"}, {"fusion_lon": 0.0, "lat": 38.900332166666665, "lon": -77.039284, "bike_id": "b7c82a52fe9fa8ead9310a7ddf8542e7", "rental_uris": {"android": "https://dc.lft.to/lastmile_qr_scan", "ios": "https://dc.lft.to/lastmile_qr_scan"}, "fusion_lat": 0.0, "name": "b7c82a52fe9fa8ead9310a7ddf8542e7", "is_reserved": 0, "is_disabled": 0, "type": "electric_scooter"}, {"fusion_lon": 0.0, "lat": 38.896535, "lon": -77.05023916666667, "bike_id": "3cc416167e93e937dd91852956d61d8f", "rental_uris": {"android": "https://dc.lft.to/lastmile_qr_scan", "ios": "https://dc.lft.to/lastmile_qr_scan"}, "fusion_lat": 0.0, "name": "3cc416167e93e937dd91852956d61d8f", "is_reserved": 0, "is_disabled": 0, "type": "electric_scooter"}, {"fusion_lon": 0.0, "lat": 38.8468085, "lon": -76.9963235, "bike_id": "ac4c1ce6cf9917437d8e03c98523c9b5", "rental_uris": {"android": "https://dc.lft.to/lastmile_qr_scan", "ios": "https://dc.lft.to/lastmile_qr_scan"}, "fusion_lat": 0.0, "name": "ac4c1ce6cf9917437d8e03c98523c9b5", "is_reserved": 0, "is_disabled": 0, "type": "electric_bike"}, {"fusion_lon": 0.0, "lat": 38.918748666666666, "lon": -76.96439216666667, "bike_id": "53f3f3efb835c0648dbde1b37dec008a", "rental_uris": {"android": "https://dc.lft.to/lastmile_qr_scan", "ios": "https://dc.lft.to/lastmile_qr_scan"}, "fusion_lat": 0.0, "name": "53f3f3efb835c0648dbde1b37dec008a", "is_reserved": 0, "is_disabled": 0, "type": "electric_bike"}, {"fusion_lon": 0.0, "lat": 38.92580516666666, "lon": -77.02761766666667, "bike_id": "6c94080d5a46aa6daeabe46cc4f63269", "rental_uris": {"android": "https://dc.lft.to/lastmile_qr_scan", "ios": "https://dc.lft.to/lastmile_qr_scan"}, "fusion_lat": 0.0, "name": "6c94080d5a46aa6daeabe46cc4f63269", "is_reserved": 0, "is_disabled": 0, "type": "electric_scooter"}, {"fusion_lon": 0.0, "lat": 38.924093666666664, "lon": -77.02137766666667, "bike_id": "5aa40aa4a8ecd71b206ea464b604cc35", "rental_uris": {"android": "https://dc.lft.to/lastmile_qr_scan", "ios": "https://dc.lft.to/lastmile_qr_scan"}, "fusion_lat": 0.0, "name": "5aa40aa4a8ecd71b206ea464b604cc35", "is_reserved": 0, "is_disabled": 0, "type": "electric_scooter"}, {"fusion_lon": 0.0, "lat": 38.90904283333333, "lon": -77.072762, "bike_id": "9e372581f5b99e583b4c52755db5a527", "rental_uris": {"android": "https://dc.lft.to/lastmile_qr_scan", "ios": "https://dc.lft.to/lastmile_qr_scan"}, "fusion_lat": 0.0, "name": "9e372581f5b99e583b4c52755db5a527", "is_reserved": 0, "is_disabled": 0, "type": "electric_scooter"}, {"fusion_lon": 0.0, "lat": 38.898809166666666, "lon": -76.988394, "bike_id": "237e20c72285f9d91e72773a9a860c60", "rental_uris": {"android": "https://dc.lft.to/lastmile_qr_scan", "ios": "https://dc.lft.to/lastmile_qr_scan"}, "fusion_lat": 0.0, "name": "237e20c72285f9d91e72773a9a860c60", "is_reserved": 0, "is_disabled": 0, "type": "electric_scooter"}, {"fusion_lon": 0.0, "lat": 38.89218916666667, "lon": -77.0313635, "bike_id": "ab312e974686ce117fd6ab8d676e7b01", "rental_uris": {"android": "https://dc.lft.to/lastmile_qr_scan", "ios": "https://dc.lft.to/lastmile_qr_scan"}, "fusion_lat": 0.0, "name": "ab312e974686ce117fd6ab8d676e7b01", "is_reserved": 0, "is_disabled": 0, "type": "electric_scooter"}, {"fusion_lon": 0.0, "lat": 38.90433633333333, "lon": -77.02612066666667, "bike_id": "997f9de2abbaf8605dd80f6331b6de87", "rental_uris": {"android": "https://dc.lft.to/lastmile_qr_scan", "ios": "https://dc.lft.to/lastmile_qr_scan"}, "fusion_lat": 0.0, "name": "997f9de2abbaf8605dd80f6331b6de87", "is_reserved": 0, "is_disabled": 0, "type": "electric_scooter"}, {"fusion_lon": 0.0, "lat": 38.932372666666666, "lon": -77.03277533333333, "bike_id": "ef8227eeb63aa894ac5de469fcb81d75", "rental_uris": {"android": "https://dc.lft.to/lastmile_qr_scan", "ios": "https://dc.lft.to/lastmile_qr_scan"}, "fusion_lat": 0.0, "name": "ef8227eeb63aa894ac5de469fcb81d75", "is_reserved": 0, "is_disabled": 0, "type": "electric_scooter"}, {"fusion_lon": 0.0, "lat": 38.89892, "lon": -77.0317525, "bike_id": "d7450eb60ce03fd9eaab022ee36a16fa", "rental_uris": {"android": "https://dc.lft.to/lastmile_qr_scan", "ios": "https://dc.lft.to/lastmile_qr_scan"}, "fusion_lat": 0.0, "name": "d7450eb60ce03fd9eaab022ee36a16fa", "is_reserved": 0, "is_disabled": 0, "type": "electric_scooter"}, {"fusion_lon": 0.0, "lat": 38.89708566666667, "lon": -76.99121683333334, "bike_id": "8566687cb3b4bc1903b68fcf89bacbdb", "rental_uris": {"android": "https://dc.lft.to/lastmile_qr_scan", "ios": "https://dc.lft.to/lastmile_qr_scan"}, "fusion_lat": 0.0, "name": "8566687cb3b4bc1903b68fcf89bacbdb", "is_reserved": 0, "is_disabled": 0, "type": "electric_scooter"}, {"fusion_lon": 0.0, "lat": 38.901303, "lon": -77.0449245, "bike_id": "5d884985328e279343e021a1e8b96faa", "rental_uris": {"android": "https://dc.lft.to/lastmile_qr_scan", "ios": "https://dc.lft.to/lastmile_qr_scan"}, "fusion_lat": 0.0, "name": "5d884985328e279343e021a1e8b96faa", "is_reserved": 0, "is_disabled": 0, "type": "electric_scooter"}, {"fusion_lon": 0.0, "lat": 38.92461983333333, "lon": -77.02716966666667, "bike_id": "596103fcfb285366765ebd5ebc1a409f", "rental_uris": {"android": "https://dc.lft.to/lastmile_qr_scan", "ios": "https://dc.lft.to/lastmile_qr_scan"}, "fusion_lat": 0.0, "name": "596103fcfb285366765ebd5ebc1a409f", "is_reserved": 0, "is_disabled": 0, "type": "electric_scooter"}, {"fusion_lon": 0.0, "lat": 38.926329333333335, "lon": -77.02514666666667, "bike_id": "a0fa92f56f4d885087f8c2aff0361005", "rental_uris": {"android": "https://dc.lft.to/lastmile_qr_scan", "ios": "https://dc.lft.to/lastmile_qr_scan"}, "fusion_lat": 0.0, "name": "a0fa92f56f4d885087f8c2aff0361005", "is_reserved": 0, "is_disabled": 0, "type": "electric_scooter"}, {"fusion_lon": 0.0, "lat": 38.93290433333333, "lon": -77.02842583333333, "bike_id": "78e092ddfdce22c7f58df29517439dc5", "rental_uris": {"android": "https://dc.lft.to/lastmile_qr_scan", "ios": "https://dc.lft.to/lastmile_qr_scan"}, "fusion_lat": 0.0, "name": "78e092ddfdce22c7f58df29517439dc5", "is_reserved": 0, "is_disabled": 0, "type": "electric_scooter"}, {"fusion_lon": 0.0, "lat": 38.9237075, "lon": -77.02128016666667, "bike_id": "dbc40a750414cd3dc012b4eb41b1e5e1", "rental_uris": {"android": "https://dc.lft.to/lastmile_qr_scan", "ios": "https://dc.lft.to/lastmile_qr_scan"}, "fusion_lat": 0.0, "name": "dbc40a750414cd3dc012b4eb41b1e5e1", "is_reserved": 0, "is_disabled": 0, "type": "electric_scooter"}, {"fusion_lon": 0.0, "lat": 38.9231365, "lon": -77.01954083333334, "bike_id": "ecd894d568d74fe68a836806de931211", "rental_uris": {"android": "https://dc.lft.to/lastmile_qr_scan", "ios": "https://dc.lft.to/lastmile_qr_scan"}, "fusion_lat": 0.0, "name": "ecd894d568d74fe68a836806de931211", "is_reserved": 0, "is_disabled": 0, "type": "electric_scooter"}, {"fusion_lon": 0.0, "lat": 38.90399266666667, "lon": -77.02491416666666, "bike_id": "14a51969637d41330ed490045ab71fb7", "rental_uris": {"android": "https://dc.lft.to/lastmile_qr_scan", "ios": "https://dc.lft.to/lastmile_qr_scan"}, "fusion_lat": 0.0, "name": "14a51969637d41330ed490045ab71fb7", "is_reserved": 0, "is_disabled": 0, "type": "electric_scooter"}, {"fusion_lon": 0.0, "lat": 38.911126833333334, "lon": -77.04467666666666, "bike_id": "077017d4f1ec597e202c931b8dd339c3", "rental_uris": {"android": "https://dc.lft.to/lastmile_qr_scan", "ios": "https://dc.lft.to/lastmile_qr_scan"}, "fusion_lat": 0.0, "name": "077017d4f1ec597e202c931b8dd339c3", "is_reserved": 0, "is_disabled": 0, "type": "electric_scooter"}, {"fusion_lon": 0.0, "lat": 38.92288816666667, "lon": -77.01955333333333, "bike_id": "815565c3e3a0a258adb85b433c82cae6", "rental_uris": {"android": "https://dc.lft.to/lastmile_qr_scan", "ios": "https://dc.lft.to/lastmile_qr_scan"}, "fusion_lat": 0.0, "name": "815565c3e3a0a258adb85b433c82cae6", "is_reserved": 0, "is_disabled": 0, "type": "electric_scooter"}, {"fusion_lon": 0.0, "lat": 39.007171, "lon": -76.9814715, "bike_id": "64809a80bb86f9acd9e8576e673a1538", "rental_uris": {"android": "https://dc.lft.to/lastmile_qr_scan", "ios": "https://dc.lft.to/lastmile_qr_scan"}, "fusion_lat": 0.0, "name": "64809a80bb86f9acd9e8576e673a1538", "is_reserved": 0, "is_disabled": 0, "type": "electric_bike"}, {"fusion_lon": 0.0, "lat": 38.91686133333333, "lon": -77.02949066666666, "bike_id": "873edff81d3712801949c6627d7c70d0", "rental_uris": {"android": "https://dc.lft.to/lastmile_qr_scan", "ios": "https://dc.lft.to/lastmile_qr_scan"}, "fusion_lat": 0.0, "name": "873edff81d3712801949c6627d7c70d0", "is_reserved": 0, "is_disabled": 0, "type": "electric_scooter"}, {"fusion_lon": 0.0, "lat": 38.90270133333333, "lon": -77.04680666666667, "bike_id": "f56dac88d24ad1fd1820c312df1c8959", "rental_uris": {"android": "https://dc.lft.to/lastmile_qr_scan", "ios": "https://dc.lft.to/lastmile_qr_scan"}, "fusion_lat": 0.0, "name": "f56dac88d24ad1fd1820c312df1c8959", "is_reserved": 0, "is_disabled": 0, "type": "electric_scooter"}, {"fusion_lon": 0.0, "lat": 38.9647165, "lon": -77.03175533333334, "bike_id": "0dc0cb5609363cafd2129244a93506d3", "rental_uris": {"android": "https://dc.lft.to/lastmile_qr_scan", "ios": "https://dc.lft.to/lastmile_qr_scan"}, "fusion_lat": 0.0, "name": "0dc0cb5609363cafd2129244a93506d3", "is_reserved": 0, "is_disabled": 0, "type": "electric_bike"}, {"fusion_lon": 0.0, "lat": 38.915557, "lon": -77.00701633333334, "bike_id": "45823ede038af9bdc0ed6b48458150c5", "rental_uris": {"android": "https://dc.lft.to/lastmile_qr_scan", "ios": "https://dc.lft.to/lastmile_qr_scan"}, "fusion_lat": 0.0, "name": "45823ede038af9bdc0ed6b48458150c5", "is_reserved": 0, "is_disabled": 0, "type": "electric_scooter"}, {"fusion_lon": 0.0, "lat": 38.84884666666667, "lon": -77.07799033333333, "bike_id": "6b6ee0af04bdcbfe80724c7e329acd70", "rental_uris": {"android": "https://dc.lft.to/lastmile_qr_scan", "ios": "https://dc.lft.to/lastmile_qr_scan"}, "fusion_lat": 0.0, "name": "6b6ee0af04bdcbfe80724c7e329acd70", "is_reserved": 0, "is_disabled": 0, "type": "electric_bike"}, {"fusion_lon": 0.0, "lat": 38.925089666666665, "lon": -77.02286983333333, "bike_id": "0dc953e827c7718db8daa7df5dd445a8", "rental_uris": {"android": "https://dc.lft.to/lastmile_qr_scan", "ios": "https://dc.lft.to/lastmile_qr_scan"}, "fusion_lat": 0.0, "name": "0dc953e827c7718db8daa7df5dd445a8", "is_reserved": 0, "is_disabled": 0, "type": "electric_scooter"}, {"fusion_lon": 0.0, "lat": 38.8671555, "lon": -77.01009533333334, "bike_id": "119d6894d808d49af231cd00ec64dcb7", "rental_uris": {"android": "https://dc.lft.to/lastmile_qr_scan", "ios": "https://dc.lft.to/lastmile_qr_scan"}, "fusion_lat": 0.0, "name": "119d6894d808d49af231cd00ec64dcb7", "is_reserved": 0, "is_disabled": 0, "type": "electric_scooter"}, {"fusion_lon": 0.0, "lat": 38.900519333333335, "lon": -77.01773016666667, "bike_id": "6fe6ed54f15e183b7e86e260db66b767", "rental_uris": {"android": "https://dc.lft.to/lastmile_qr_scan", "ios": "https://dc.lft.to/lastmile_qr_scan"}, "fusion_lat": 0.0, "name": "6fe6ed54f15e183b7e86e260db66b767", "is_reserved": 0, "is_disabled": 0, "type": "electric_scooter"}, {"fusion_lon": 0.0, "lat": 38.927104166666666, "lon": -77.02334516666667, "bike_id": "26b5b5b9c6fe14ca5f2f030bcae47f1a", "rental_uris": {"android": "https://dc.lft.to/lastmile_qr_scan", "ios": "https://dc.lft.to/lastmile_qr_scan"}, "fusion_lat": 0.0, "name": "26b5b5b9c6fe14ca5f2f030bcae47f1a", "is_reserved": 0, "is_disabled": 0, "type": "electric_scooter"}, {"fusion_lon": 0.0, "lat": 38.9135895, "lon": -77.09194933333333, "bike_id": "b017510c21d8e230f2606b8a3fc2626c", "rental_uris": {"android": "https://dc.lft.to/lastmile_qr_scan", "ios": "https://dc.lft.to/lastmile_qr_scan"}, "fusion_lat": 0.0, "name": "b017510c21d8e230f2606b8a3fc2626c", "is_reserved": 0, "is_disabled": 0, "type": "electric_scooter"}, {"fusion_lon": 0.0, "lat": 38.928736, "lon": -77.0126225, "bike_id": "b92272ba5a9bd5460a2819a9f6629b99", "rental_uris": {"android": "https://dc.lft.to/lastmile_qr_scan", "ios": "https://dc.lft.to/lastmile_qr_scan"}, "fusion_lat": 0.0, "name": "b92272ba5a9bd5460a2819a9f6629b99", "is_reserved": 0, "is_disabled": 0, "type": "electric_bike"}, {"fusion_lon": 0.0, "lat": 38.91708, "lon": -77.02963733333333, "bike_id": "fc34fbc6a8b6c4a1575477647b9fe195", "rental_uris": {"android": "https://dc.lft.to/lastmile_qr_scan", "ios": "https://dc.lft.to/lastmile_qr_scan"}, "fusion_lat": 0.0, "name": "fc34fbc6a8b6c4a1575477647b9fe195", "is_reserved": 0, "is_disabled": 0, "type": "electric_scooter"}, {"fusion_lon": 0.0, "lat": 38.89976266666667, "lon": -77.042008, "bike_id": "d90971aa44d9a31793939d742ab7bd3b", "rental_uris": {"android": "https://dc.lft.to/lastmile_qr_scan", "ios": "https://dc.lft.to/lastmile_qr_scan"}, "fusion_lat": 0.0, "name": "d90971aa44d9a31793939d742ab7bd3b", "is_reserved": 0, "is_disabled": 0, "type": "electric_scooter"}, {"fusion_lon": 0.0, "lat": 38.89591816666667, "lon": -77.02676516666666, "bike_id": "9dc61506a14d6a2cd5fcae1186a15ae0", "rental_uris": {"android": "https://dc.lft.to/lastmile_qr_scan", "ios": "https://dc.lft.to/lastmile_qr_scan"}, "fusion_lat": 0.0, "name": "9dc61506a14d6a2cd5fcae1186a15ae0", "is_reserved": 0, "is_disabled": 0, "type": "electric_scooter"}, {"fusion_lon": 0.0, "lat": 38.92255566666667, "lon": -77.03058483333334, "bike_id": "582507e2743ed99dee2de4c2853449b6", "rental_uris": {"android": "https://dc.lft.to/lastmile_qr_scan", "ios": "https://dc.lft.to/lastmile_qr_scan"}, "fusion_lat": 0.0, "name": "582507e2743ed99dee2de4c2853449b6", "is_reserved": 0, "is_disabled": 0, "type": "electric_scooter"}, {"fusion_lon": 0.0, "lat": 38.9041805, "lon": -77.02511766666667, "bike_id": "1246248772c639369e2bd0a131f87719", "rental_uris": {"android": "https://dc.lft.to/lastmile_qr_scan", "ios": "https://dc.lft.to/lastmile_qr_scan"}, "fusion_lat": 0.0, "name": "1246248772c639369e2bd0a131f87719", "is_reserved": 0, "is_disabled": 0, "type": "electric_scooter"}, {"fusion_lon": 0.0, "lat": 38.923107, "lon": -77.01956416666667, "bike_id": "898cbf984a83ebb4513e1ae0b17ede9b", "rental_uris": {"android": "https://dc.lft.to/lastmile_qr_scan", "ios": "https://dc.lft.to/lastmile_qr_scan"}, "fusion_lat": 0.0, "name": "898cbf984a83ebb4513e1ae0b17ede9b", "is_reserved": 0, "is_disabled": 0, "type": "electric_scooter"}, {"fusion_lon": 0.0, "lat": 38.904351, "lon": -77.03259116666666, "bike_id": "771f9208e5047d4d96b3f19794236053", "rental_uris": {"android": "https://dc.lft.to/lastmile_qr_scan", "ios": "https://dc.lft.to/lastmile_qr_scan"}, "fusion_lat": 0.0, "name": "771f9208e5047d4d96b3f19794236053", "is_reserved": 0, "is_disabled": 0, "type": "electric_scooter"}, {"fusion_lon": 0.0, "lat": 38.9376595, "lon": -77.0325815, "bike_id": "00dd74a1ca8f6d3dac82b80570f2d64a", "rental_uris": {"android": "https://dc.lft.to/lastmile_qr_scan", "ios": "https://dc.lft.to/lastmile_qr_scan"}, "fusion_lat": 0.0, "name": "00dd74a1ca8f6d3dac82b80570f2d64a", "is_reserved": 0, "is_disabled": 0, "type": "electric_scooter"}, {"fusion_lon": 0.0, "lat": 38.92329433333333, "lon": -77.05678633333333, "bike_id": "2c07aed67011d22b46e21ff07f440de9", "rental_uris": {"android": "https://dc.lft.to/lastmile_qr_scan", "ios": "https://dc.lft.to/lastmile_qr_scan"}, "fusion_lat": 0.0, "name": "2c07aed67011d22b46e21ff07f440de9", "is_reserved": 0, "is_disabled": 0, "type": "electric_scooter"}, {"fusion_lon": 0.0, "lat": 38.9733615, "lon": -76.995791, "bike_id": "e6492f774cf155b3fa664652e6497c65", "rental_uris": {"android": "https://dc.lft.to/lastmile_qr_scan", "ios": "https://dc.lft.to/lastmile_qr_scan"}, "fusion_lat": 0.0, "name": "e6492f774cf155b3fa664652e6497c65", "is_reserved": 0, "is_disabled": 0, "type": "electric_bike"}, {"fusion_lon": 0.0, "lat": 38.8981685, "lon": -77.024928, "bike_id": "2b07e73b5dfbe9a066ccfe2f1ec00cad", "rental_uris": {"android": "https://dc.lft.to/lastmile_qr_scan", "ios": "https://dc.lft.to/lastmile_qr_scan"}, "fusion_lat": 0.0, "name": "2b07e73b5dfbe9a066ccfe2f1ec00cad", "is_reserved": 0, "is_disabled": 0, "type": "electric_scooter"}, {"fusion_lon": 0.0, "lat": 39.04228616666666, "lon": -76.997404, "bike_id": "9e23deb79a25e3d398f0718a6d6ef7a7", "rental_uris": {"android": "https://dc.lft.to/lastmile_qr_scan", "ios": "https://dc.lft.to/lastmile_qr_scan"}, "fusion_lat": 0.0, "name": "9e23deb79a25e3d398f0718a6d6ef7a7", "is_reserved": 0, "is_disabled": 0, "type": "electric_bike"}, {"fusion_lon": 0.0, "lat": 38.9210715, "lon": -77.02073483333334, "bike_id": "5c698d083f9f4036d154acd3e62f2c3f", "rental_uris": {"android": "https://dc.lft.to/lastmile_qr_scan", "ios": "https://dc.lft.to/lastmile_qr_scan"}, "fusion_lat": 0.0, "name": "5c698d083f9f4036d154acd3e62f2c3f", "is_reserved": 0, "is_disabled": 0, "type": "electric_scooter"}, {"fusion_lon": 0.0, "lat": 38.909227333333334, "lon": -77.02310466666667, "bike_id": "ae408d48b3f0cc8e85c8c3a860b2df57", "rental_uris": {"android": "https://dc.lft.to/lastmile_qr_scan", "ios": "https://dc.lft.to/lastmile_qr_scan"}, "fusion_lat": 0.0, "name": "ae408d48b3f0cc8e85c8c3a860b2df57", "is_reserved": 0, "is_disabled": 0, "type": "electric_scooter"}, {"fusion_lon": 0.0, "lat": 38.91339766666667, "lon": -77.0205645, "bike_id": "ffba12e4acc608cbf3d41024343a5379", "rental_uris": {"android": "https://dc.lft.to/lastmile_qr_scan", "ios": "https://dc.lft.to/lastmile_qr_scan"}, "fusion_lat": 0.0, "name": "ffba12e4acc608cbf3d41024343a5379", "is_reserved": 0, "is_disabled": 0, "type": "electric_scooter"}, {"fusion_lon": 0.0, "lat": 38.903788, "lon": -77.01922466666667, "bike_id": "515aa52c52b7783db48fa02c536a2c5a", "rental_uris": {"android": "https://dc.lft.to/lastmile_qr_scan", "ios": "https://dc.lft.to/lastmile_qr_scan"}, "fusion_lat": 0.0, "name": "515aa52c52b7783db48fa02c536a2c5a", "is_reserved": 0, "is_disabled": 0, "type": "electric_scooter"}, {"fusion_lon": 0.0, "lat": 38.92056083333333, "lon": -76.984332, "bike_id": "4a1067825ba624bad534998bb5a88a84", "rental_uris": {"android": "https://dc.lft.to/lastmile_qr_scan", "ios": "https://dc.lft.to/lastmile_qr_scan"}, "fusion_lat": 0.0, "name": "4a1067825ba624bad534998bb5a88a84", "is_reserved": 0, "is_disabled": 0, "type": "electric_scooter"}, {"fusion_lon": 0.0, "lat": 38.929663, "lon": -77.04113133333334, "bike_id": "3612c3fe71492a5f5f0954b6e9a4bfa7", "rental_uris": {"android": "https://dc.lft.to/lastmile_qr_scan", "ios": "https://dc.lft.to/lastmile_qr_scan"}, "fusion_lat": 0.0, "name": "3612c3fe71492a5f5f0954b6e9a4bfa7", "is_reserved": 0, "is_disabled": 0, "type": "electric_scooter"}, {"fusion_lon": 0.0, "lat": 38.90497033333333, "lon": -77.05458899999999, "bike_id": "e6a67360589384a1f1d5b6cf54bf7fde", "rental_uris": {"android": "https://dc.lft.to/lastmile_qr_scan", "ios": "https://dc.lft.to/lastmile_qr_scan"}, "fusion_lat": 0.0, "name": "e6a67360589384a1f1d5b6cf54bf7fde", "is_reserved": 0, "is_disabled": 0, "type": "electric_scooter"}, {"fusion_lon": 0.0, "lat": 38.90053233333333, "lon": -76.984947, "bike_id": "ea4759bb688efbb344a322e3d27ec834", "rental_uris": {"android": "https://dc.lft.to/lastmile_qr_scan", "ios": "https://dc.lft.to/lastmile_qr_scan"}, "fusion_lat": 0.0, "name": "ea4759bb688efbb344a322e3d27ec834", "is_reserved": 0, "is_disabled": 0, "type": "electric_scooter"}, {"fusion_lon": 0.0, "lat": 38.913284833333336, "lon": -77.04535233333333, "bike_id": "dff0689a3f15aab346c6f31d01825ec6", "rental_uris": {"android": "https://dc.lft.to/lastmile_qr_scan", "ios": "https://dc.lft.to/lastmile_qr_scan"}, "fusion_lat": 0.0, "name": "dff0689a3f15aab346c6f31d01825ec6", "is_reserved": 0, "is_disabled": 0, "type": "electric_scooter"}, {"fusion_lon": 0.0, "lat": 38.90059183333334, "lon": -77.05015766666666, "bike_id": "9727504cbea150813d5b9d89af07a22c", "rental_uris": {"android": "https://dc.lft.to/lastmile_qr_scan", "ios": "https://dc.lft.to/lastmile_qr_scan"}, "fusion_lat": 0.0, "name": "9727504cbea150813d5b9d89af07a22c", "is_reserved": 0, "is_disabled": 0, "type": "electric_scooter"}, {"fusion_lon": 0.0, "lat": 38.963994, "lon": -77.027766, "bike_id": "2dabef1547372e332380daeb837715a5", "rental_uris": {"android": "https://dc.lft.to/lastmile_qr_scan", "ios": "https://dc.lft.to/lastmile_qr_scan"}, "fusion_lat": 0.0, "name": "2dabef1547372e332380daeb837715a5", "is_reserved": 0, "is_disabled": 0, "type": "electric_scooter"}, {"fusion_lon": 0.0, "lat": 38.91683283333333, "lon": -77.046106, "bike_id": "5ab22822b9a9d3e95390fdcacc56dc1f", "rental_uris": {"android": "https://dc.lft.to/lastmile_qr_scan", "ios": "https://dc.lft.to/lastmile_qr_scan"}, "fusion_lat": 0.0, "name": "5ab22822b9a9d3e95390fdcacc56dc1f", "is_reserved": 0, "is_disabled": 0, "type": "electric_scooter"}, {"fusion_lon": 0.0, "lat": 38.9323965, "lon": -77.0327425, "bike_id": "e89c76868883774b004ff93814427fe8", "rental_uris": {"android": "https://dc.lft.to/lastmile_qr_scan", "ios": "https://dc.lft.to/lastmile_qr_scan"}, "fusion_lat": 0.0, "name": "e89c76868883774b004ff93814427fe8", "is_reserved": 0, "is_disabled": 0, "type": "electric_scooter"}, {"fusion_lon": 0.0, "lat": 38.903603, "lon": -77.01776783333334, "bike_id": "9ecefba0fb2189c000500ac12043e482", "rental_uris": {"android": "https://dc.lft.to/lastmile_qr_scan", "ios": "https://dc.lft.to/lastmile_qr_scan"}, "fusion_lat": 0.0, "name": "9ecefba0fb2189c000500ac12043e482", "is_reserved": 0, "is_disabled": 0, "type": "electric_scooter"}, {"fusion_lon": 0.0, "lat": 38.8471055, "lon": -76.96818566666667, "bike_id": "326bb352149076b49134f65dc1ce4a5b", "rental_uris": {"android": "https://dc.lft.to/lastmile_qr_scan", "ios": "https://dc.lft.to/lastmile_qr_scan"}, "fusion_lat": 0.0, "name": "326bb352149076b49134f65dc1ce4a5b", "is_reserved": 0, "is_disabled": 0, "type": "electric_scooter"}, {"fusion_lon": 0.0, "lat": 38.91700683333333, "lon": -77.04222133333333, "bike_id": "444019a66bbc7d61c7c6def8f9a495e1", "rental_uris": {"android": "https://dc.lft.to/lastmile_qr_scan", "ios": "https://dc.lft.to/lastmile_qr_scan"}, "fusion_lat": 0.0, "name": "444019a66bbc7d61c7c6def8f9a495e1", "is_reserved": 0, "is_disabled": 0, "type": "electric_scooter"}, {"fusion_lon": 0.0, "lat": 38.887068666666664, "lon": -77.02171366666667, "bike_id": "223559fb1e0d995567df7ff55d69ad31", "rental_uris": {"android": "https://dc.lft.to/lastmile_qr_scan", "ios": "https://dc.lft.to/lastmile_qr_scan"}, "fusion_lat": 0.0, "name": "223559fb1e0d995567df7ff55d69ad31", "is_reserved": 0, "is_disabled": 0, "type": "electric_scooter"}, {"fusion_lon": 0.0, "lat": 38.9109175, "lon": -77.04400433333333, "bike_id": "8b3f3a99360fcdab2b4badd8a8891316", "rental_uris": {"android": "https://dc.lft.to/lastmile_qr_scan", "ios": "https://dc.lft.to/lastmile_qr_scan"}, "fusion_lat": 0.0, "name": "8b3f3a99360fcdab2b4badd8a8891316", "is_reserved": 0, "is_disabled": 0, "type": "electric_scooter"}, {"fusion_lon": 0.0, "lat": 38.900333333333336, "lon": -76.988332, "bike_id": "ff795a6b865f7efb51bf0ead2bc87454", "rental_uris": {"android": "https://dc.lft.to/lastmile_qr_scan", "ios": "https://dc.lft.to/lastmile_qr_scan"}, "fusion_lat": 0.0, "name": "ff795a6b865f7efb51bf0ead2bc87454", "is_reserved": 0, "is_disabled": 0, "type": "electric_scooter"}, {"fusion_lon": 0.0, "lat": 38.898954833333335, "lon": -77.03301366666666, "bike_id": "1666cdacb4a0dad189492257938a32c2", "rental_uris": {"android": "https://dc.lft.to/lastmile_qr_scan", "ios": "https://dc.lft.to/lastmile_qr_scan"}, "fusion_lat": 0.0, "name": "1666cdacb4a0dad189492257938a32c2", "is_reserved": 0, "is_disabled": 0, "type": "electric_scooter"}, {"fusion_lon": 0.0, "lat": 38.80682433333333, "lon": -77.133874, "bike_id": "551ed03db768203fbd209e08bc6ddf3e", "rental_uris": {"android": "https://dc.lft.to/lastmile_qr_scan", "ios": "https://dc.lft.to/lastmile_qr_scan"}, "fusion_lat": 0.0, "name": "551ed03db768203fbd209e08bc6ddf3e", "is_reserved": 0, "is_disabled": 0, "type": "electric_bike"}, {"fusion_lon": 0.0, "lat": 39.07467666666667, "lon": -77.11529733333333, "bike_id": "cf9b724c9c85aef177017d0b2f63cdb4", "rental_uris": {"android": "https://dc.lft.to/lastmile_qr_scan", "ios": "https://dc.lft.to/lastmile_qr_scan"}, "fusion_lat": 0.0, "name": "cf9b724c9c85aef177017d0b2f63cdb4", "is_reserved": 0, "is_disabled": 0, "type": "electric_bike"}, {"fusion_lon": 0.0, "lat": 38.91258066666666, "lon": -76.972084, "bike_id": "93735abc4fba1eacd4389bf240c14afd", "rental_uris": {"android": "https://dc.lft.to/lastmile_qr_scan", "ios": "https://dc.lft.to/lastmile_qr_scan"}, "fusion_lat": 0.0, "name": "93735abc4fba1eacd4389bf240c14afd", "is_reserved": 0, "is_disabled": 0, "type": "electric_scooter"}, {"fusion_lon": 0.0, "lat": 38.902669833333334, "lon": -77.02915816666666, "bike_id": "33583239e2a913c15f324016b89eea34", "rental_uris": {"android": "https://dc.lft.to/lastmile_qr_scan", "ios": "https://dc.lft.to/lastmile_qr_scan"}, "fusion_lat": 0.0, "name": "33583239e2a913c15f324016b89eea34", "is_reserved": 0, "is_disabled": 0, "type": "electric_scooter"}, {"fusion_lon": 0.0, "lat": 38.90973266666666, "lon": -77.08829233333333, "bike_id": "8abec9b35c30d17cb9c4fbf9eb2060b6", "rental_uris": {"android": "https://dc.lft.to/lastmile_qr_scan", "ios": "https://dc.lft.to/lastmile_qr_scan"}, "fusion_lat": 0.0, "name": "8abec9b35c30d17cb9c4fbf9eb2060b6", "is_reserved": 0, "is_disabled": 0, "type": "electric_bike"}, {"fusion_lon": 0.0, "lat": 38.927885833333335, "lon": -77.0533335, "bike_id": "f7f693bb105415de179af6faeb84d311", "rental_uris": {"android": "https://dc.lft.to/lastmile_qr_scan", "ios": "https://dc.lft.to/lastmile_qr_scan"}, "fusion_lat": 0.0, "name": "f7f693bb105415de179af6faeb84d311", "is_reserved": 0, "is_disabled": 0, "type": "electric_scooter"}, {"fusion_lon": 0.0, "lat": 38.88686583333333, "lon": -76.9763475, "bike_id": "f435acac0c55ddc20bd22e1383776a0b", "rental_uris": {"android": "https://dc.lft.to/lastmile_qr_scan", "ios": "https://dc.lft.to/lastmile_qr_scan"}, "fusion_lat": 0.0, "name": "f435acac0c55ddc20bd22e1383776a0b", "is_reserved": 0, "is_disabled": 0, "type": "electric_scooter"}, {"fusion_lon": 0.0, "lat": 38.9444295, "lon": -77.029103, "bike_id": "5a7303ae7ef50b52baa639a1122f480b", "rental_uris": {"android": "https://dc.lft.to/lastmile_qr_scan", "ios": "https://dc.lft.to/lastmile_qr_scan"}, "fusion_lat": 0.0, "name": "5a7303ae7ef50b52baa639a1122f480b", "is_reserved": 0, "is_disabled": 0, "type": "electric_scooter"}, {"fusion_lon": 0.0, "lat": 38.909849333333334, "lon": -77.0221115, "bike_id": "0718df143954eea747b29b71618d94bf", "rental_uris": {"android": "https://dc.lft.to/lastmile_qr_scan", "ios": "https://dc.lft.to/lastmile_qr_scan"}, "fusion_lat": 0.0, "name": "0718df143954eea747b29b71618d94bf", "is_reserved": 0, "is_disabled": 0, "type": "electric_scooter"}, {"fusion_lon": 0.0, "lat": 38.89355066666667, "lon": -77.00333316666666, "bike_id": "d81506303e78b50d256decb6a1c98092", "rental_uris": {"android": "https://dc.lft.to/lastmile_qr_scan", "ios": "https://dc.lft.to/lastmile_qr_scan"}, "fusion_lat": 0.0, "name": "d81506303e78b50d256decb6a1c98092", "is_reserved": 0, "is_disabled": 0, "type": "electric_scooter"}, {"fusion_lon": 0.0, "lat": 38.896303333333336, "lon": -77.04013416666666, "bike_id": "69e387a0becd9eff696eccf3bbe119f7", "rental_uris": {"android": "https://dc.lft.to/lastmile_qr_scan", "ios": "https://dc.lft.to/lastmile_qr_scan"}, "fusion_lat": 0.0, "name": "69e387a0becd9eff696eccf3bbe119f7", "is_reserved": 0, "is_disabled": 0, "type": "electric_scooter"}, {"fusion_lon": 0.0, "lat": 38.9226635, "lon": -77.02440433333334, "bike_id": "9b4ad97b5e2c2d7f2ab68a7a7c2438b1", "rental_uris": {"android": "https://dc.lft.to/lastmile_qr_scan", "ios": "https://dc.lft.to/lastmile_qr_scan"}, "fusion_lat": 0.0, "name": "9b4ad97b5e2c2d7f2ab68a7a7c2438b1", "is_reserved": 0, "is_disabled": 0, "type": "electric_scooter"}, {"fusion_lon": 0.0, "lat": 38.92236533333333, "lon": -77.02854383333333, "bike_id": "a0dca3bbf28e66a6a472e0fed12548fa", "rental_uris": {"android": "https://dc.lft.to/lastmile_qr_scan", "ios": "https://dc.lft.to/lastmile_qr_scan"}, "fusion_lat": 0.0, "name": "a0dca3bbf28e66a6a472e0fed12548fa", "is_reserved": 0, "is_disabled": 0, "type": "electric_scooter"}, {"fusion_lon": 0.0, "lat": 38.92681533333333, "lon": -77.01572983333334, "bike_id": "04e21548a3772c62a6b1da07d58ca96f", "rental_uris": {"android": "https://dc.lft.to/lastmile_qr_scan", "ios": "https://dc.lft.to/lastmile_qr_scan"}, "fusion_lat": 0.0, "name": "04e21548a3772c62a6b1da07d58ca96f", "is_reserved": 0, "is_disabled": 0, "type": "electric_scooter"}, {"fusion_lon": 0.0, "lat": 38.915586833333336, "lon": -77.044508, "bike_id": "4992006dfd3af9db9dacd42028e2eb97", "rental_uris": {"android": "https://dc.lft.to/lastmile_qr_scan", "ios": "https://dc.lft.to/lastmile_qr_scan"}, "fusion_lat": 0.0, "name": "4992006dfd3af9db9dacd42028e2eb97", "is_reserved": 0, "is_disabled": 0, "type": "electric_scooter"}, {"fusion_lon": 0.0, "lat": 38.92781316666667, "lon": -77.025674, "bike_id": "b27a4d63a71c2313ed85d17884878c31", "rental_uris": {"android": "https://dc.lft.to/lastmile_qr_scan", "ios": "https://dc.lft.to/lastmile_qr_scan"}, "fusion_lat": 0.0, "name": "b27a4d63a71c2313ed85d17884878c31", "is_reserved": 0, "is_disabled": 0, "type": "electric_scooter"}, {"fusion_lon": 0.0, "lat": 38.902660166666664, "lon": -77.03067816666666, "bike_id": "60494594723d919401ed319fa99277f2", "rental_uris": {"android": "https://dc.lft.to/lastmile_qr_scan", "ios": "https://dc.lft.to/lastmile_qr_scan"}, "fusion_lat": 0.0, "name": "60494594723d919401ed319fa99277f2", "is_reserved": 0, "is_disabled": 0, "type": "electric_scooter"}, {"fusion_lon": 0.0, "lat": 38.89925566666667, "lon": -77.04552766666667, "bike_id": "ced4ea350be992c7fc97812394ad6a2c", "rental_uris": {"android": "https://dc.lft.to/lastmile_qr_scan", "ios": "https://dc.lft.to/lastmile_qr_scan"}, "fusion_lat": 0.0, "name": "ced4ea350be992c7fc97812394ad6a2c", "is_reserved": 0, "is_disabled": 0, "type": "electric_scooter"}, {"fusion_lon": 0.0, "lat": 38.92372616666667, "lon": -77.01915666666666, "bike_id": "a8f004a57d2d0b75e0aa6cf06c9248c7", "rental_uris": {"android": "https://dc.lft.to/lastmile_qr_scan", "ios": "https://dc.lft.to/lastmile_qr_scan"}, "fusion_lat": 0.0, "name": "a8f004a57d2d0b75e0aa6cf06c9248c7", "is_reserved": 0, "is_disabled": 0, "type": "electric_scooter"}, {"fusion_lon": 0.0, "lat": 38.897492166666666, "lon": -77.0286975, "bike_id": "0ffabd2ae62e08d19c7078744ae29263", "rental_uris": {"android": "https://dc.lft.to/lastmile_qr_scan", "ios": "https://dc.lft.to/lastmile_qr_scan"}, "fusion_lat": 0.0, "name": "0ffabd2ae62e08d19c7078744ae29263", "is_reserved": 0, "is_disabled": 0, "type": "electric_scooter"}, {"fusion_lon": 0.0, "lat": 38.90069066666667, "lon": -77.05015533333334, "bike_id": "0fc937b7c9aa1a4c06f3e060c727f8a8", "rental_uris": {"android": "https://dc.lft.to/lastmile_qr_scan", "ios": "https://dc.lft.to/lastmile_qr_scan"}, "fusion_lat": 0.0, "name": "0fc937b7c9aa1a4c06f3e060c727f8a8", "is_reserved": 0, "is_disabled": 0, "type": "electric_scooter"}, {"fusion_lon": 0.0, "lat": 38.93639183333333, "lon": -77.064273, "bike_id": "704e22aef31b061972e43d5bc64684a9", "rental_uris": {"android": "https://dc.lft.to/lastmile_qr_scan", "ios": "https://dc.lft.to/lastmile_qr_scan"}, "fusion_lat": 0.0, "name": "704e22aef31b061972e43d5bc64684a9", "is_reserved": 0, "is_disabled": 0, "type": "electric_scooter"}, {"fusion_lon": 0.0, "lat": 38.902450333333334, "lon": -77.02652633333334, "bike_id": "c4bc8212e894ded25b4b8d7893bd36f6", "rental_uris": {"android": "https://dc.lft.to/lastmile_qr_scan", "ios": "https://dc.lft.to/lastmile_qr_scan"}, "fusion_lat": 0.0, "name": "c4bc8212e894ded25b4b8d7893bd36f6", "is_reserved": 0, "is_disabled": 0, "type": "electric_scooter"}, {"fusion_lon": 0.0, "lat": 38.924448166666664, "lon": -77.0215065, "bike_id": "17511b6744899c04c95f8ea2aa7b97c8", "rental_uris": {"android": "https://dc.lft.to/lastmile_qr_scan", "ios": "https://dc.lft.to/lastmile_qr_scan"}, "fusion_lat": 0.0, "name": "17511b6744899c04c95f8ea2aa7b97c8", "is_reserved": 0, "is_disabled": 0, "type": "electric_scooter"}, {"fusion_lon": 0.0, "lat": 38.91560066666667, "lon": -77.0324145, "bike_id": "d8e3a2b15ff5b8044a4340f6c32989c6", "rental_uris": {"android": "https://dc.lft.to/lastmile_qr_scan", "ios": "https://dc.lft.to/lastmile_qr_scan"}, "fusion_lat": 0.0, "name": "d8e3a2b15ff5b8044a4340f6c32989c6", "is_reserved": 0, "is_disabled": 0, "type": "electric_scooter"}, {"fusion_lon": 0.0, "lat": 38.98943516666667, "lon": -77.101058, "bike_id": "34004ccf8b33f3a0da56045353074ba8", "rental_uris": {"android": "https://dc.lft.to/lastmile_qr_scan", "ios": "https://dc.lft.to/lastmile_qr_scan"}, "fusion_lat": 0.0, "name": "34004ccf8b33f3a0da56045353074ba8", "is_reserved": 0, "is_disabled": 0, "type": "electric_bike"}, {"fusion_lon": 0.0, "lat": 38.89957233333333, "lon": -77.04508216666666, "bike_id": "f9ddd0043661b5be23e9340a808710ed", "rental_uris": {"android": "https://dc.lft.to/lastmile_qr_scan", "ios": "https://dc.lft.to/lastmile_qr_scan"}, "fusion_lat": 0.0, "name": "f9ddd0043661b5be23e9340a808710ed", "is_reserved": 0, "is_disabled": 0, "type": "electric_scooter"}, {"fusion_lon": 0.0, "lat": 38.909895666666664, "lon": -77.04264916666666, "bike_id": "857d3690b4e86f9c8c5927eb40ff876d", "rental_uris": {"android": "https://dc.lft.to/lastmile_qr_scan", "ios": "https://dc.lft.to/lastmile_qr_scan"}, "fusion_lat": 0.0, "name": "857d3690b4e86f9c8c5927eb40ff876d", "is_reserved": 0, "is_disabled": 0, "type": "electric_scooter"}, {"fusion_lon": 0.0, "lat": 38.89693416666667, "lon": -77.01200866666667, "bike_id": "a70dcb318e0e5167ab46807cdb224408", "rental_uris": {"android": "https://dc.lft.to/lastmile_qr_scan", "ios": "https://dc.lft.to/lastmile_qr_scan"}, "fusion_lat": 0.0, "name": "a70dcb318e0e5167ab46807cdb224408", "is_reserved": 0, "is_disabled": 0, "type": "electric_scooter"}, {"fusion_lon": 0.0, "lat": 38.88505516666667, "lon": -77.0057445, "bike_id": "7e167e5bfa67beb8cf139efd15d19216", "rental_uris": {"android": "https://dc.lft.to/lastmile_qr_scan", "ios": "https://dc.lft.to/lastmile_qr_scan"}, "fusion_lat": 0.0, "name": "7e167e5bfa67beb8cf139efd15d19216", "is_reserved": 0, "is_disabled": 0, "type": "electric_scooter"}, {"fusion_lon": 0.0, "lat": 38.8994105, "lon": -77.045029, "bike_id": "84223432d0823cb2d81556b9b78e0b65", "rental_uris": {"android": "https://dc.lft.to/lastmile_qr_scan", "ios": "https://dc.lft.to/lastmile_qr_scan"}, "fusion_lat": 0.0, "name": "84223432d0823cb2d81556b9b78e0b65", "is_reserved": 0, "is_disabled": 0, "type": "electric_scooter"}, {"fusion_lon": 0.0, "lat": 38.902892, "lon": -77.03819833333333, "bike_id": "64eb2629842c6e73db8ee6f68e7e8bc9", "rental_uris": {"android": "https://dc.lft.to/lastmile_qr_scan", "ios": "https://dc.lft.to/lastmile_qr_scan"}, "fusion_lat": 0.0, "name": "64eb2629842c6e73db8ee6f68e7e8bc9", "is_reserved": 0, "is_disabled": 0, "type": "electric_scooter"}, {"fusion_lon": 0.0, "lat": 38.880733166666666, "lon": -77.00531533333333, "bike_id": "6e6270a3c936886bc95d4d084bcf69a0", "rental_uris": {"android": "https://dc.lft.to/lastmile_qr_scan", "ios": "https://dc.lft.to/lastmile_qr_scan"}, "fusion_lat": 0.0, "name": "6e6270a3c936886bc95d4d084bcf69a0", "is_reserved": 0, "is_disabled": 0, "type": "electric_scooter"}, {"fusion_lon": 0.0, "lat": 38.9305815, "lon": -77.03807183333333, "bike_id": "02ea145b5db290f1aaad7d55ac026a2f", "rental_uris": {"android": "https://dc.lft.to/lastmile_qr_scan", "ios": "https://dc.lft.to/lastmile_qr_scan"}, "fusion_lat": 0.0, "name": "02ea145b5db290f1aaad7d55ac026a2f", "is_reserved": 0, "is_disabled": 0, "type": "electric_bike"}, {"fusion_lon": 0.0, "lat": 38.922040833333334, "lon": -76.9837285, "bike_id": "9fb00a5f4a47b6054bdcad6321ab4f3c", "rental_uris": {"android": "https://dc.lft.to/lastmile_qr_scan", "ios": "https://dc.lft.to/lastmile_qr_scan"},