{"data": {"bikes": [{"bike_id": "2787ea954a224019b0320ceac128d12a", "lat": 38.892310333333334, "is_disabled": 0, "lon": -77.04878783333334, "fusion_lon": 0.0, "is_reserved": 0, "fusion_lat": 0.0, "rental_uris": {"android": "https://dc.lft.to/lastmile_qr_scan", "ios": "https://dc.lft.to/lastmile_qr_scan"}, "type": "electric_scooter", "name": "2787ea954a224019b0320ceac128d12a"}, {"bike_id": "00b9762a5d915d7a4a6bd6c26425dec6", "lat": 38.81987866666667, "is_disabled": 0, "lon": -76.99811433333333, "fusion_lon": 0.0, "is_reserved": 0, "fusion_lat": 0.0, "rental_uris": {"android": "https://dc.lft.to/lastmile_qr_scan", "ios": "https://dc.lft.to/lastmile_qr_scan"}, "type": "electric_bike", "name": "00b9762a5d915d7a4a6bd6c26425dec6"}, {"bike_id": "ea453b342de187e3c79c2e7731484b2d", "lat": 38.89591266666667, "is_disabled": 0, "lon": -77.04758233333334, "fusion_lon": 0.0, "is_reserved": 0, "fusion_lat": 0.0, "rental_uris": {"android": "https://dc.lft.to/lastmile_qr_scan", "ios": "https://dc.lft.to/lastmile_qr_scan"}, "type": "electric_scooter", "name": "ea453b342de187e3c79c2e7731484b2d"}, {"bike_id": "4ec67c706b0343cb20965a7f1fe7bd89", "lat": 38.89512833333333, "is_disabled": 0, "lon": -77.01125633333334, "fusion_lon": 0.0, "is_reserved": 0, "fusion_lat": 0.0, "rental_uris": {"android": "https://dc.lft.to/lastmile_qr_scan", "ios": "https://dc.lft.to/lastmile_qr_scan"}, "type": "electric_scooter", "name": "4ec67c706b0343cb20965a7f1fe7bd89"}, {"bike_id": "c6a7147cd1566379d4cff12b9c553ab1", "lat": 38.871743333333335, "is_disabled": 0, "lon": -77.00578733333333, "fusion_lon": 0.0, "is_reserved": 0, "fusion_lat": 0.0, "rental_uris": {"android": "https://dc.lft.to/lastmile_qr_scan", "ios": "https://dc.lft.to/lastmile_qr_scan"}, "type": "electric_scooter", "name": "c6a7147cd1566379d4cff12b9c553ab1"}, {"bike_id": "603dcea60b835827c50af77f6fb4f172", "lat": 38.886293, "is_disabled": 0, "lon": -77.02222916666666, "fusion_lon": 0.0, "is_reserved": 0, "fusion_lat": 0.0, "rental_uris": {"android": "https://dc.lft.to/lastmile_qr_scan", "ios": "https://dc.lft.to/lastmile_qr_scan"}, "type": "electric_scooter", "name": "603dcea60b835827c50af77f6fb4f172"}, {"bike_id": "f24cf7969d3d8552d6e8ead985e95546", "lat": 38.8871785, "is_disabled": 0, "lon": -77.022079, "fusion_lon": 0.0, "is_reserved": 0, "fusion_lat": 0.0, "rental_uris": {"android": "https://dc.lft.to/lastmile_qr_scan", "ios": "https://dc.lft.to/lastmile_qr_scan"}, "type": "electric_scooter", "name": "f24cf7969d3d8552d6e8ead985e95546"}, {"bike_id": "16a4c5d8c2f0938d667d6edff48f1825", "lat": 38.918517666666666, "is_disabled": 0, "lon": -77.0900465, "fusion_lon": 0.0, "is_reserved": 0, "fusion_lat": 0.0, "rental_uris": {"android": "https://dc.lft.to/lastmile_qr_scan", "ios": "https://dc.lft.to/lastmile_qr_scan"}, "type": "electric_scooter", "name": "16a4c5d8c2f0938d667d6edff48f1825"}, {"bike_id": "94990c50100ba0e572e4952c7db1f96c", "lat": 38.892222333333336, "is_disabled": 0, "lon": -77.04515766666667, "fusion_lon": 0.0, "is_reserved": 0, "fusion_lat": 0.0, "rental_uris": {"android": "https://dc.lft.to/lastmile_qr_scan", "ios": "https://dc.lft.to/lastmile_qr_scan"}, "type": "electric_scooter", "name": "94990c50100ba0e572e4952c7db1f96c"}, {"bike_id": "f2530ed7e646fc846d78a2625691b2fc", "lat": 38.871779833333335, "is_disabled": 0, "lon": -77.00608633333333, "fusion_lon": 0.0, "is_reserved": 0, "fusion_lat": 0.0, "rental_uris": {"android": "https://dc.lft.to/lastmile_qr_scan", "ios": "https://dc.lft.to/lastmile_qr_scan"}, "type": "electric_scooter", "name": "f2530ed7e646fc846d78a2625691b2fc"}, {"bike_id": "5d84f0739103fddd0b77a50e6b7195cd", "lat": 38.91987616666667, "is_disabled": 0, "lon": -77.04086333333333, "fusion_lon": 0.0, "is_reserved": 0, "fusion_lat": 0.0, "rental_uris": {"android": "https://dc.lft.to/lastmile_qr_scan", "ios": "https://dc.lft.to/lastmile_qr_scan"}, "type": "electric_scooter", "name": "5d84f0739103fddd0b77a50e6b7195cd"}, {"bike_id": "1699b2e1f80589c37df050fd41e39f51", "lat": 38.89729333333333, "is_disabled": 0, "lon": -77.028862, "fusion_lon": 0.0, "is_reserved": 0, "fusion_lat": 0.0, "rental_uris": {"android": "https://dc.lft.to/lastmile_qr_scan", "ios": "https://dc.lft.to/lastmile_qr_scan"}, "type": "electric_scooter", "name": "1699b2e1f80589c37df050fd41e39f51"}, {"bike_id": "1b591448cc6d2ed11b684471237651ba", "lat": 38.912030333333334, "is_disabled": 0, "lon": -76.98771133333334, "fusion_lon": 0.0, "is_reserved": 0, "fusion_lat": 0.0, "rental_uris": {"android": "https://dc.lft.to/lastmile_qr_scan", "ios": "https://dc.lft.to/lastmile_qr_scan"}, "type": "electric_scooter", "name": "1b591448cc6d2ed11b684471237651ba"}, {"bike_id": "fea7a5a3199a10f5784c066aae743bf3", "lat": 38.90027366666666, "is_disabled": 0, "lon": -76.99191383333333, "fusion_lon": 0.0, "is_reserved": 0, "fusion_lat": 0.0, "rental_uris": {"android": "https://dc.lft.to/lastmile_qr_scan", "ios": "https://dc.lft.to/lastmile_qr_scan"}, "type": "electric_scooter", "name": "fea7a5a3199a10f5784c066aae743bf3"}, {"bike_id": "97602237a59102e101124b0506692cda", "lat": 38.912676833333336, "is_disabled": 0, "lon": -77.02228283333334, "fusion_lon": 0.0, "is_reserved": 0, "fusion_lat": 0.0, "rental_uris": {"android": "https://dc.lft.to/lastmile_qr_scan", "ios": "https://dc.lft.to/lastmile_qr_scan"}, "type": "electric_scooter", "name": "97602237a59102e101124b0506692cda"}, {"bike_id": "fef536d9c2f0154d704c9d9d013bf21b", "lat": 38.93284116666667, "is_disabled": 0, "lon": -77.0364125, "fusion_lon": 0.0, "is_reserved": 0, "fusion_lat": 0.0, "rental_uris": {"android": "https://dc.lft.to/lastmile_qr_scan", "ios": "https://dc.lft.to/lastmile_qr_scan"}, "type": "electric_scooter", "name": "fef536d9c2f0154d704c9d9d013bf21b"}, {"bike_id": "4dbb97c86806e4944d5c247d9362c05f", "lat": 38.9005685, "is_disabled": 0, "lon": -76.98522966666667, "fusion_lon": 0.0, "is_reserved": 0, "fusion_lat": 0.0, "rental_uris": {"android": "https://dc.lft.to/lastmile_qr_scan", "ios": "https://dc.lft.to/lastmile_qr_scan"}, "type": "electric_scooter", "name": "4dbb97c86806e4944d5c247d9362c05f"}, {"bike_id": "e3d7cd0461d46ba8147039a7a848a891", "lat": 38.92505366666666, "is_disabled": 0, "lon": -77.03883716666667, "fusion_lon": 0.0, "is_reserved": 0, "fusion_lat": 0.0, "rental_uris": {"android": "https://dc.lft.to/lastmile_qr_scan", "ios": "https://dc.lft.to/lastmile_qr_scan"}, "type": "electric_scooter", "name": "e3d7cd0461d46ba8147039a7a848a891"}, {"bike_id": "492cf96850abf0c9e625ecf98da0c8da", "lat": 38.92091166666667, "is_disabled": 0, "lon": -77.02397266666667, "fusion_lon": 0.0, "is_reserved": 0, "fusion_lat": 0.0, "rental_uris": {"android": "https://dc.lft.to/lastmile_qr_scan", "ios": "https://dc.lft.to/lastmile_qr_scan"}, "type": "electric_scooter", "name": "492cf96850abf0c9e625ecf98da0c8da"}, {"bike_id": "7b379127cac0d3febc864111d1089145", "lat": 38.89219416666667, "is_disabled": 0, "lon": -77.04337216666667, "fusion_lon": 0.0, "is_reserved": 0, "fusion_lat": 0.0, "rental_uris": {"android": "https://dc.lft.to/lastmile_qr_scan", "ios": "https://dc.lft.to/lastmile_qr_scan"}, "type": "electric_scooter", "name": "7b379127cac0d3febc864111d1089145"}, {"bike_id": "fae9f8db173cd11a433bd866d469d7f0", "lat": 38.93570283333333, "is_disabled": 0, "lon": -77.02718066666667, "fusion_lon": 0.0, "is_reserved": 0, "fusion_lat": 0.0, "rental_uris": {"android": "https://dc.lft.to/lastmile_qr_scan", "ios": "https://dc.lft.to/lastmile_qr_scan"}, "type": "electric_scooter", "name": "fae9f8db173cd11a433bd866d469d7f0"}, {"bike_id": "d6fc223e71192f2b58e21f4cdd18ca16", "lat": 38.920560333333334, "is_disabled": 0, "lon": -77.0324505, "fusion_lon": 0.0, "is_reserved": 0, "fusion_lat": 0.0, "rental_uris": {"android": "https://dc.lft.to/lastmile_qr_scan", "ios": "https://dc.lft.to/lastmile_qr_scan"}, "type": "electric_scooter", "name": "d6fc223e71192f2b58e21f4cdd18ca16"}, {"bike_id": "640baddc2409823f1a78ed8c2b8592b5", "lat": 38.91660733333333, "is_disabled": 0, "lon": -77.0227935, "fusion_lon": 0.0, "is_reserved": 0, "fusion_lat": 0.0, "rental_uris": {"android": "https://dc.lft.to/lastmile_qr_scan", "ios": "https://dc.lft.to/lastmile_qr_scan"}, "type": "electric_scooter", "name": "640baddc2409823f1a78ed8c2b8592b5"}, {"bike_id": "52553b9784e5883ee1525047d31f7636", "lat": 38.896191333333334, "is_disabled": 0, "lon": -76.90740666666667, "fusion_lon": 0.0, "is_reserved": 0, "fusion_lat": 0.0, "rental_uris": {"android": "https://dc.lft.to/lastmile_qr_scan", "ios": "https://dc.lft.to/lastmile_qr_scan"}, "type": "electric_bike", "name": "52553b9784e5883ee1525047d31f7636"}, {"bike_id": "37d089c1d013eef4c1908910eb64a6fd", "lat": 38.924848, "is_disabled": 0, "lon": -77.0224835, "fusion_lon": 0.0, "is_reserved": 0, "fusion_lat": 0.0, "rental_uris": {"android": "https://dc.lft.to/lastmile_qr_scan", "ios": "https://dc.lft.to/lastmile_qr_scan"}, "type": "electric_scooter", "name": "37d089c1d013eef4c1908910eb64a6fd"}, {"bike_id": "86fc86f36e157e2ecc12e1599fd849c9", "lat": 38.91413516666667, "is_disabled": 0, "lon": -77.04002233333334, "fusion_lon": 0.0, "is_reserved": 0, "fusion_lat": 0.0, "rental_uris": {"android": "https://dc.lft.to/lastmile_qr_scan", "ios": "https://dc.lft.to/lastmile_qr_scan"}, "type": "electric_scooter", "name": "86fc86f36e157e2ecc12e1599fd849c9"}, {"bike_id": "f4fe6c8a1a4fc39badc39b4f00062f6e", "lat": 38.9229575, "is_disabled": 0, "lon": -77.04143333333333, "fusion_lon": 0.0, "is_reserved": 0, "fusion_lat": 0.0, "rental_uris": {"android": "https://dc.lft.to/lastmile_qr_scan", "ios": "https://dc.lft.to/lastmile_qr_scan"}, "type": "electric_scooter", "name": "f4fe6c8a1a4fc39badc39b4f00062f6e"}, {"bike_id": "d51955b4d6ee46b7cc7767763edc43a2", "lat": 38.9007855, "is_disabled": 0, "lon": -77.0500135, "fusion_lon": 0.0, "is_reserved": 0, "fusion_lat": 0.0, "rental_uris": {"android": "https://dc.lft.to/lastmile_qr_scan", "ios": "https://dc.lft.to/lastmile_qr_scan"}, "type": "electric_scooter", "name": "d51955b4d6ee46b7cc7767763edc43a2"}, {"bike_id": "4f309dd3a556be9045166f97788b6361", "lat": 38.93469233333333, "is_disabled": 0, "lon": -77.04134433333333, "fusion_lon": 0.0, "is_reserved": 0, "fusion_lat": 0.0, "rental_uris": {"android": "https://dc.lft.to/lastmile_qr_scan", "ios": "https://dc.lft.to/lastmile_qr_scan"}, "type": "electric_scooter", "name": "4f309dd3a556be9045166f97788b6361"}, {"bike_id": "e77a7741999a66ab549056797c507c40", "lat": 38.905735666666665, "is_disabled": 0, "lon": -77.03964016666667, "fusion_lon": 0.0, "is_reserved": 0, "fusion_lat": 0.0, "rental_uris": {"android": "https://dc.lft.to/lastmile_qr_scan", "ios": "https://dc.lft.to/lastmile_qr_scan"}, "type": "electric_scooter", "name": "e77a7741999a66ab549056797c507c40"}, {"bike_id": "251f6c2f3dc21d26b17c13536f3ff8de", "lat": 38.9096045, "is_disabled": 0, "lon": -77.04460666666667, "fusion_lon": 0.0, "is_reserved": 0, "fusion_lat": 0.0, "rental_uris": {"android": "https://dc.lft.to/lastmile_qr_scan", "ios": "https://dc.lft.to/lastmile_qr_scan"}, "type": "electric_scooter", "name": "251f6c2f3dc21d26b17c13536f3ff8de"}, {"bike_id": "37f9815ccd6b845e597d1400eea82e97", "lat": 38.89001066666667, "is_disabled": 0, "lon": -77.00053083333333, "fusion_lon": 0.0, "is_reserved": 0, "fusion_lat": 0.0, "rental_uris": {"android": "https://dc.lft.to/lastmile_qr_scan", "ios": "https://dc.lft.to/lastmile_qr_scan"}, "type": "electric_scooter", "name": "37f9815ccd6b845e597d1400eea82e97"}, {"bike_id": "56b020159b91a6afae784b30d8d9a617", "lat": 38.90644133333333, "is_disabled": 0, "lon": -77.042508, "fusion_lon": 0.0, "is_reserved": 0, "fusion_lat": 0.0, "rental_uris": {"android": "https://dc.lft.to/lastmile_qr_scan", "ios": "https://dc.lft.to/lastmile_qr_scan"}, "type": "electric_scooter", "name": "56b020159b91a6afae784b30d8d9a617"}, {"bike_id": "191ee46bbb7ca2f7e8420d3a6e064e74", "lat": 38.90732216666667, "is_disabled": 0, "lon": -76.98607616666666, "fusion_lon": 0.0, "is_reserved": 0, "fusion_lat": 0.0, "rental_uris": {"android": "https://dc.lft.to/lastmile_qr_scan", "ios": "https://dc.lft.to/lastmile_qr_scan"}, "type": "electric_scooter", "name": "191ee46bbb7ca2f7e8420d3a6e064e74"}, {"bike_id": "95a6eec65890570069a1e6bf445b637c", "lat": 38.92854, "is_disabled": 0, "lon": -77.03300033333333, "fusion_lon": 0.0, "is_reserved": 0, "fusion_lat": 0.0, "rental_uris": {"android": "https://dc.lft.to/lastmile_qr_scan", "ios": "https://dc.lft.to/lastmile_qr_scan"}, "type": "electric_scooter", "name": "95a6eec65890570069a1e6bf445b637c"}, {"bike_id": "70edb17bd688aed07e91d413e95c5e93", "lat": 38.911098333333335, "is_disabled": 0, "lon": -77.03865466666667, "fusion_lon": 0.0, "is_reserved": 0, "fusion_lat": 0.0, "rental_uris": {"android": "https://dc.lft.to/lastmile_qr_scan", "ios": "https://dc.lft.to/lastmile_qr_scan"}, "type": "electric_scooter", "name": "70edb17bd688aed07e91d413e95c5e93"}, {"bike_id": "fa0b140bc6e152c7f39aaf6046fd324e", "lat": 38.876492166666665, "is_disabled": 0, "lon": -76.96506516666666, "fusion_lon": 0.0, "is_reserved": 0, "fusion_lat": 0.0, "rental_uris": {"android": "https://dc.lft.to/lastmile_qr_scan", "ios": "https://dc.lft.to/lastmile_qr_scan"}, "type": "electric_scooter", "name": "fa0b140bc6e152c7f39aaf6046fd324e"}, {"bike_id": "686ac737e822dd8148b28915a09ffb07", "lat": 38.902064333333335, "is_disabled": 0, "lon": -77.01303166666666, "fusion_lon": 0.0, "is_reserved": 0, "fusion_lat": 0.0, "rental_uris": {"android": "https://dc.lft.to/lastmile_qr_scan", "ios": "https://dc.lft.to/lastmile_qr_scan"}, "type": "electric_scooter", "name": "686ac737e822dd8148b28915a09ffb07"}, {"bike_id": "6b97aef4ea29776c2f16e3bb59a859ba", "lat": 38.899174333333335, "is_disabled": 0, "lon": -76.93381116666667, "fusion_lon": 0.0, "is_reserved": 0, "fusion_lat": 0.0, "rental_uris": {"android": "https://dc.lft.to/lastmile_qr_scan", "ios": "https://dc.lft.to/lastmile_qr_scan"}, "type": "electric_scooter", "name": "6b97aef4ea29776c2f16e3bb59a859ba"}, {"bike_id": "bff711ead6dbbe44307dd5bdb2c17038", "lat": 38.93283433333333, "is_disabled": 0, "lon": -77.04081083333334, "fusion_lon": 0.0, "is_reserved": 0, "fusion_lat": 0.0, "rental_uris": {"android": "https://dc.lft.to/lastmile_qr_scan", "ios": "https://dc.lft.to/lastmile_qr_scan"}, "type": "electric_scooter", "name": "bff711ead6dbbe44307dd5bdb2c17038"}, {"bike_id": "39fa83673efa350b896015c549a3addf", "lat": 38.89774416666667, "is_disabled": 0, "lon": -77.03193316666666, "fusion_lon": 0.0, "is_reserved": 0, "fusion_lat": 0.0, "rental_uris": {"android": "https://dc.lft.to/lastmile_qr_scan", "ios": "https://dc.lft.to/lastmile_qr_scan"}, "type": "electric_scooter", "name": "39fa83673efa350b896015c549a3addf"}, {"bike_id": "ee5f112403089797a4f168534e8c832f", "lat": 38.84110583333333, "is_disabled": 0, "lon": -77.07017516666667, "fusion_lon": 0.0, "is_reserved": 0, "fusion_lat": 0.0, "rental_uris": {"android": "https://dc.lft.to/lastmile_qr_scan", "ios": "https://dc.lft.to/lastmile_qr_scan"}, "type": "electric_bike", "name": "ee5f112403089797a4f168534e8c832f"}, {"bike_id": "3ebce016d498986145ba3d82a405b729", "lat": 38.89905383333333, "is_disabled": 0, "lon": -77.04876516666667, "fusion_lon": 0.0, "is_reserved": 0, "fusion_lat": 0.0, "rental_uris": {"android": "https://dc.lft.to/lastmile_qr_scan", "ios": "https://dc.lft.to/lastmile_qr_scan"}, "type": "electric_scooter", "name": "3ebce016d498986145ba3d82a405b729"}, {"bike_id": "5394597359b3c049d9368671808392f6", "lat": 38.8764695, "is_disabled": 0, "lon": -76.96506083333334, "fusion_lon": 0.0, "is_reserved": 0, "fusion_lat": 0.0, "rental_uris": {"android": "https://dc.lft.to/lastmile_qr_scan", "ios": "https://dc.lft.to/lastmile_qr_scan"}, "type": "electric_scooter", "name": "5394597359b3c049d9368671808392f6"}, {"bike_id": "766022e8f85816a2542e55bce1de7363", "lat": 38.892214, "is_disabled": 0, "lon": -77.04506483333333, "fusion_lon": 0.0, "is_reserved": 0, "fusion_lat": 0.0, "rental_uris": {"android": "https://dc.lft.to/lastmile_qr_scan", "ios": "https://dc.lft.to/lastmile_qr_scan"}, "type": "electric_scooter", "name": "766022e8f85816a2542e55bce1de7363"}, {"bike_id": "cec3b47bd2ac73fdb6d085e79f262d3f", "lat": 38.8738055, "is_disabled": 0, "lon": -76.969822, "fusion_lon": 0.0, "is_reserved": 0, "fusion_lat": 0.0, "rental_uris": {"android": "https://dc.lft.to/lastmile_qr_scan", "ios": "https://dc.lft.to/lastmile_qr_scan"}, "type": "electric_scooter", "name": "cec3b47bd2ac73fdb6d085e79f262d3f"}, {"bike_id": "20351aed3c52adbd178c45e6671351dc", "lat": 38.92950333333334, "is_disabled": 0, "lon": -77.04405116666666, "fusion_lon": 0.0, "is_reserved": 0, "fusion_lat": 0.0, "rental_uris": {"android": "https://dc.lft.to/lastmile_qr_scan", "ios": "https://dc.lft.to/lastmile_qr_scan"}, "type": "electric_scooter", "name": "20351aed3c52adbd178c45e6671351dc"}, {"bike_id": "7550ffc25fcfc78f37aa154fd755e863", "lat": 38.89021966666667, "is_disabled": 0, "lon": -76.9370795, "fusion_lon": 0.0, "is_reserved": 0, "fusion_lat": 0.0, "rental_uris": {"android": "https://dc.lft.to/lastmile_qr_scan", "ios": "https://dc.lft.to/lastmile_qr_scan"}, "type": "electric_scooter", "name": "7550ffc25fcfc78f37aa154fd755e863"}, {"bike_id": "6e9fc86cbff284886dc0bb8d6c763721", "lat": 38.905103833333335, "is_disabled": 0, "lon": -77.0548855, "fusion_lon": 0.0, "is_reserved": 0, "fusion_lat": 0.0, "rental_uris": {"android": "https://dc.lft.to/lastmile_qr_scan", "ios": "https://dc.lft.to/lastmile_qr_scan"}, "type": "electric_scooter", "name": "6e9fc86cbff284886dc0bb8d6c763721"}, {"bike_id": "e5885f3d466f73eca39eefae7296c535", "lat": 38.903087, "is_disabled": 0, "lon": -77.028688, "fusion_lon": 0.0, "is_reserved": 0, "fusion_lat": 0.0, "rental_uris": {"android": "https://dc.lft.to/lastmile_qr_scan", "ios": "https://dc.lft.to/lastmile_qr_scan"}, "type": "electric_scooter", "name": "e5885f3d466f73eca39eefae7296c535"}, {"bike_id": "94bbf9e62559bb5d31a7e119b2756480", "lat": 38.898293, "is_disabled": 0, "lon": -77.0075225, "fusion_lon": 0.0, "is_reserved": 0, "fusion_lat": 0.0, "rental_uris": {"android": "https://dc.lft.to/lastmile_qr_scan", "ios": "https://dc.lft.to/lastmile_qr_scan"}, "type": "electric_scooter", "name": "94bbf9e62559bb5d31a7e119b2756480"}, {"bike_id": "a99b606eab4e02a02c9185a527bea63f", "lat": 38.907863166666665, "is_disabled": 0, "lon": -77.034376, "fusion_lon": 0.0, "is_reserved": 0, "fusion_lat": 0.0, "rental_uris": {"android": "https://dc.lft.to/lastmile_qr_scan", "ios": "https://dc.lft.to/lastmile_qr_scan"}, "type": "electric_scooter", "name": "a99b606eab4e02a02c9185a527bea63f"}, {"bike_id": "19924f3622b6dbbaf885c51cb8f36270", "lat": 38.887451666666664, "is_disabled": 0, "lon": -77.03146116666667, "fusion_lon": 0.0, "is_reserved": 0, "fusion_lat": 0.0, "rental_uris": {"android": "https://dc.lft.to/lastmile_qr_scan", "ios": "https://dc.lft.to/lastmile_qr_scan"}, "type": "electric_scooter", "name": "19924f3622b6dbbaf885c51cb8f36270"}, {"bike_id": "c756b3a7f7252901a3966a1cb433ccd6", "lat": 38.90557283333333, "is_disabled": 0, "lon": -77.04555333333333, "fusion_lon": 0.0, "is_reserved": 0, "fusion_lat": 0.0, "rental_uris": {"android": "https://dc.lft.to/lastmile_qr_scan", "ios": "https://dc.lft.to/lastmile_qr_scan"}, "type": "electric_scooter", "name": "c756b3a7f7252901a3966a1cb433ccd6"}, {"bike_id": "1cac4e3c11af31fb321aa5dd939f2d6d", "lat": 38.892239000000004, "is_disabled": 0, "lon": -77.04753583333333, "fusion_lon": 0.0, "is_reserved": 0, "fusion_lat": 0.0, "rental_uris": {"android": "https://dc.lft.to/lastmile_qr_scan", "ios": "https://dc.lft.to/lastmile_qr_scan"}, "type": "electric_scooter", "name": "1cac4e3c11af31fb321aa5dd939f2d6d"}, {"bike_id": "6db572d15710c60a684eba1be8e757aa", "lat": 38.917093666666666, "is_disabled": 0, "lon": -77.01106233333333, "fusion_lon": 0.0, "is_reserved": 0, "fusion_lat": 0.0, "rental_uris": {"android": "https://dc.lft.to/lastmile_qr_scan", "ios": "https://dc.lft.to/lastmile_qr_scan"}, "type": "electric_scooter", "name": "6db572d15710c60a684eba1be8e757aa"}, {"bike_id": "de17754390cc70949fad004159a4d8f1", "lat": 38.919838666666664, "is_disabled": 0, "lon": -77.03187566666666, "fusion_lon": 0.0, "is_reserved": 0, "fusion_lat": 0.0, "rental_uris": {"android": "https://dc.lft.to/lastmile_qr_scan", "ios": "https://dc.lft.to/lastmile_qr_scan"}, "type": "electric_scooter", "name": "de17754390cc70949fad004159a4d8f1"}, {"bike_id": "d18a86acc768435b27c042cab2c1440a", "lat": 38.90627083333333, "is_disabled": 0, "lon": -77.04665516666667, "fusion_lon": 0.0, "is_reserved": 0, "fusion_lat": 0.0, "rental_uris": {"android": "https://dc.lft.to/lastmile_qr_scan", "ios": "https://dc.lft.to/lastmile_qr_scan"}, "type": "electric_scooter", "name": "d18a86acc768435b27c042cab2c1440a"}, {"bike_id": "b424b7137734120ba6ad12f656ebec6b", "lat": 38.892384666666665, "is_disabled": 0, "lon": -77.04162966666667, "fusion_lon": 0.0, "is_reserved": 0, "fusion_lat": 0.0, "rental_uris": {"android": "https://dc.lft.to/lastmile_qr_scan", "ios": "https://dc.lft.to/lastmile_qr_scan"}, "type": "electric_scooter", "name": "b424b7137734120ba6ad12f656ebec6b"}, {"bike_id": "f709876c0c00d8a76916ca348599c9be", "lat": 38.92007133333333, "is_disabled": 0, "lon": -77.02135266666667, "fusion_lon": 0.0, "is_reserved": 0, "fusion_lat": 0.0, "rental_uris": {"android": "https://dc.lft.to/lastmile_qr_scan", "ios": "https://dc.lft.to/lastmile_qr_scan"}, "type": "electric_scooter", "name": "f709876c0c00d8a76916ca348599c9be"}, {"bike_id": "7854e84161f7d8e63485d448654d61c4", "lat": 38.90960066666667, "is_disabled": 0, "lon": -77.02281766666667, "fusion_lon": 0.0, "is_reserved": 0, "fusion_lat": 0.0, "rental_uris": {"android": "https://dc.lft.to/lastmile_qr_scan", "ios": "https://dc.lft.to/lastmile_qr_scan"}, "type": "electric_scooter", "name": "7854e84161f7d8e63485d448654d61c4"}, {"bike_id": "74fc0c44a48f4138c5e3eefdb8c87359", "lat": 38.90388, "is_disabled": 0, "lon": -76.97614416666667, "fusion_lon": 0.0, "is_reserved": 0, "fusion_lat": 0.0, "rental_uris": {"android": "https://dc.lft.to/lastmile_qr_scan", "ios": "https://dc.lft.to/lastmile_qr_scan"}, "type": "electric_scooter", "name": "74fc0c44a48f4138c5e3eefdb8c87359"}, {"bike_id": "79fe65b1710a8bbeaed3b66d7422432b", "lat": 38.91020016666667, "is_disabled": 0, "lon": -77.0487595, "fusion_lon": 0.0, "is_reserved": 0, "fusion_lat": 0.0, "rental_uris": {"android": "https://dc.lft.to/lastmile_qr_scan", "ios": "https://dc.lft.to/lastmile_qr_scan"}, "type": "electric_scooter", "name": "79fe65b1710a8bbeaed3b66d7422432b"}, {"bike_id": "8f5177cccfe89d75e9708d8b6af33784", "lat": 38.914104, "is_disabled": 0, "lon": -77.04491666666667, "fusion_lon": 0.0, "is_reserved": 0, "fusion_lat": 0.0, "rental_uris": {"android": "https://dc.lft.to/lastmile_qr_scan", "ios": "https://dc.lft.to/lastmile_qr_scan"}, "type": "electric_scooter", "name": "8f5177cccfe89d75e9708d8b6af33784"}, {"bike_id": "6ed92e9a870cab1264cbed1521ccb280", "lat": 38.89264516666667, "is_disabled": 0, "lon": -77.04200933333334, "fusion_lon": 0.0, "is_reserved": 0, "fusion_lat": 0.0, "rental_uris": {"android": "https://dc.lft.to/lastmile_qr_scan", "ios": "https://dc.lft.to/lastmile_qr_scan"}, "type": "electric_scooter", "name": "6ed92e9a870cab1264cbed1521ccb280"}, {"bike_id": "f03eba2b59d297b22b27119e4c6c814d", "lat": 38.880876666666666, "is_disabled": 0, "lon": -76.98502983333333, "fusion_lon": 0.0, "is_reserved": 0, "fusion_lat": 0.0, "rental_uris": {"android": "https://dc.lft.to/lastmile_qr_scan", "ios": "https://dc.lft.to/lastmile_qr_scan"}, "type": "electric_scooter", "name": "f03eba2b59d297b22b27119e4c6c814d"}, {"bike_id": "6df5c411d88cd55cc51a06af18225b1c", "lat": 38.892250833333335, "is_disabled": 0, "lon": -77.0486805, "fusion_lon": 0.0, "is_reserved": 0, "fusion_lat": 0.0, "rental_uris": {"android": "https://dc.lft.to/lastmile_qr_scan", "ios": "https://dc.lft.to/lastmile_qr_scan"}, "type": "electric_scooter", "name": "6df5c411d88cd55cc51a06af18225b1c"}, {"bike_id": "0e28197350c9bb34cd17da43b7709864", "lat": 38.89741566666667, "is_disabled": 0, "lon": -77.02461983333333, "fusion_lon": 0.0, "is_reserved": 0, "fusion_lat": 0.0, "rental_uris": {"android": "https://dc.lft.to/lastmile_qr_scan", "ios": "https://dc.lft.to/lastmile_qr_scan"}, "type": "electric_scooter", "name": "0e28197350c9bb34cd17da43b7709864"}, {"bike_id": "b84dd193d5c37ff078d9a74bcd24356f", "lat": 38.9223915, "is_disabled": 0, "lon": -77.02095466666667, "fusion_lon": 0.0, "is_reserved": 0, "fusion_lat": 0.0, "rental_uris": {"android": "https://dc.lft.to/lastmile_qr_scan", "ios": "https://dc.lft.to/lastmile_qr_scan"}, "type": "electric_scooter", "name": "b84dd193d5c37ff078d9a74bcd24356f"}, {"bike_id": "99da7e32db3f1c81b0348f23b94e2dd9", "lat": 38.914378666666664, "is_disabled": 0, "lon": -77.04175816666667, "fusion_lon": 0.0, "is_reserved": 0, "fusion_lat": 0.0, "rental_uris": {"android": "https://dc.lft.to/lastmile_qr_scan", "ios": "https://dc.lft.to/lastmile_qr_scan"}, "type": "electric_scooter", "name": "99da7e32db3f1c81b0348f23b94e2dd9"}, {"bike_id": "0591a3143864da5b0b466ef030bd1d9c", "lat": 38.899579833333334, "is_disabled": 0, "lon": -77.04775816666667, "fusion_lon": 0.0, "is_reserved": 0, "fusion_lat": 0.0, "rental_uris": {"android": "https://dc.lft.to/lastmile_qr_scan", "ios": "https://dc.lft.to/lastmile_qr_scan"}, "type": "electric_scooter", "name": "0591a3143864da5b0b466ef030bd1d9c"}, {"bike_id": "48255ea84a5260d74a69aa59f8a2aac7", "lat": 38.97250233333333, "is_disabled": 0, "lon": -76.980595, "fusion_lon": 0.0, "is_reserved": 0, "fusion_lat": 0.0, "rental_uris": {"android": "https://dc.lft.to/lastmile_qr_scan", "ios": "https://dc.lft.to/lastmile_qr_scan"}, "type": "electric_bike", "name": "48255ea84a5260d74a69aa59f8a2aac7"}, {"bike_id": "1653f8f4160413ac80b142b9afd16a43", "lat": 38.9050055, "is_disabled": 0, "lon": -76.97954133333333, "fusion_lon": 0.0, "is_reserved": 0, "fusion_lat": 0.0, "rental_uris": {"android": "https://dc.lft.to/lastmile_qr_scan", "ios": "https://dc.lft.to/lastmile_qr_scan"}, "type": "electric_scooter", "name": "1653f8f4160413ac80b142b9afd16a43"}, {"bike_id": "65d3ea02e7050e4214e95ea184c07e84", "lat": 38.913527, "is_disabled": 0, "lon": -77.0205515, "fusion_lon": 0.0, "is_reserved": 0, "fusion_lat": 0.0, "rental_uris": {"android": "https://dc.lft.to/lastmile_qr_scan", "ios": "https://dc.lft.to/lastmile_qr_scan"}, "type": "electric_scooter", "name": "65d3ea02e7050e4214e95ea184c07e84"}, {"bike_id": "add8c1662bd96ad73a5dc628538705ec", "lat": 38.92168433333333, "is_disabled": 0, "lon": -77.03323433333334, "fusion_lon": 0.0, "is_reserved": 0, "fusion_lat": 0.0, "rental_uris": {"android": "https://dc.lft.to/lastmile_qr_scan", "ios": "https://dc.lft.to/lastmile_qr_scan"}, "type": "electric_scooter", "name": "add8c1662bd96ad73a5dc628538705ec"}, {"bike_id": "9023fba6e7a661d3b62672d961092cf3", "lat": 38.88491966666667, "is_disabled": 0, "lon": -77.007148, "fusion_lon": 0.0, "is_reserved": 0, "fusion_lat": 0.0, "rental_uris": {"android": "https://dc.lft.to/lastmile_qr_scan", "ios": "https://dc.lft.to/lastmile_qr_scan"}, "type": "electric_scooter", "name": "9023fba6e7a661d3b62672d961092cf3"}, {"bike_id": "030a31b0a5f5adb8de8cc20842d42656", "lat": 38.9081375, "is_disabled": 0, "lon": -77.03857333333333, "fusion_lon": 0.0, "is_reserved": 0, "fusion_lat": 0.0, "rental_uris": {"android": "https://dc.lft.to/lastmile_qr_scan", "ios": "https://dc.lft.to/lastmile_qr_scan"}, "type": "electric_scooter", "name": "030a31b0a5f5adb8de8cc20842d42656"}, {"bike_id": "7a20314b7be2190c8016d2f44d319725", "lat": 38.87145233333333, "is_disabled": 0, "lon": -76.93747716666667, "fusion_lon": 0.0, "is_reserved": 0, "fusion_lat": 0.0, "rental_uris": {"android": "https://dc.lft.to/lastmile_qr_scan", "ios": "https://dc.lft.to/lastmile_qr_scan"}, "type": "electric_bike", "name": "7a20314b7be2190c8016d2f44d319725"}, {"bike_id": "00f58ca416a3b7633e8f9266cda88fa1", "lat": 38.90516733333333, "is_disabled": 0, "lon": -76.9519895, "fusion_lon": 0.0, "is_reserved": 0, "fusion_lat": 0.0, "rental_uris": {"android": "https://dc.lft.to/lastmile_qr_scan", "ios": "https://dc.lft.to/lastmile_qr_scan"}, "type": "electric_scooter", "name": "00f58ca416a3b7633e8f9266cda88fa1"}, {"bike_id": "ec74ed74faffa5c4282c48d4137401d4", "lat": 38.957608666666665, "is_disabled": 0, "lon": -76.99930033333334, "fusion_lon": 0.0, "is_reserved": 0, "fusion_lat": 0.0, "rental_uris": {"android": "https://dc.lft.to/lastmile_qr_scan", "ios": "https://dc.lft.to/lastmile_qr_scan"}, "type": "electric_scooter", "name": "ec74ed74faffa5c4282c48d4137401d4"}, {"bike_id": "a7d1c6bfcdf33a4e4d78e5d246517292", "lat": 38.925802, "is_disabled": 0, "lon": -77.03781783333334, "fusion_lon": 0.0, "is_reserved": 0, "fusion_lat": 0.0, "rental_uris": {"android": "https://dc.lft.to/lastmile_qr_scan", "ios": "https://dc.lft.to/lastmile_qr_scan"}, "type": "electric_scooter", "name": "a7d1c6bfcdf33a4e4d78e5d246517292"}, {"bike_id": "627d0a603ef2238dbeced3f3f6eb0e6c", "lat": 38.899988666666665, "is_disabled": 0, "lon": -77.05234133333333, "fusion_lon": 0.0, "is_reserved": 0, "fusion_lat": 0.0, "rental_uris": {"android": "https://dc.lft.to/lastmile_qr_scan", "ios": "https://dc.lft.to/lastmile_qr_scan"}, "type": "electric_scooter", "name": "627d0a603ef2238dbeced3f3f6eb0e6c"}, {"bike_id": "396dec372b3fbf7477bda6946686f75d", "lat": 38.90444466666667, "is_disabled": 0, "lon": -77.03285833333334, "fusion_lon": 0.0, "is_reserved": 0, "fusion_lat": 0.0, "rental_uris": {"android": "https://dc.lft.to/lastmile_qr_scan", "ios": "https://dc.lft.to/lastmile_qr_scan"}, "type": "electric_scooter", "name": "396dec372b3fbf7477bda6946686f75d"}, {"bike_id": "83218559d497b8800b06ffcbb9f1d0e8", "lat": 38.92990983333333, "is_disabled": 0, "lon": -77.0230665, "fusion_lon": 0.0, "is_reserved": 0, "fusion_lat": 0.0, "rental_uris": {"android": "https://dc.lft.to/lastmile_qr_scan", "ios": "https://dc.lft.to/lastmile_qr_scan"}, "type": "electric_scooter", "name": "83218559d497b8800b06ffcbb9f1d0e8"}, {"bike_id": "230a56dfa3744b7243fcbb1d6ec76fac", "lat": 38.89735566666667, "is_disabled": 0, "lon": -77.00777433333333, "fusion_lon": 0.0, "is_reserved": 0, "fusion_lat": 0.0, "rental_uris": {"android": "https://dc.lft.to/lastmile_qr_scan", "ios": "https://dc.lft.to/lastmile_qr_scan"}, "type": "electric_scooter", "name": "230a56dfa3744b7243fcbb1d6ec76fac"}, {"bike_id": "a0271a679bff92316b27b6498503a262", "lat": 38.904312833333336, "is_disabled": 0, "lon": -77.042678, "fusion_lon": 0.0, "is_reserved": 0, "fusion_lat": 0.0, "rental_uris": {"android": "https://dc.lft.to/lastmile_qr_scan", "ios": "https://dc.lft.to/lastmile_qr_scan"}, "type": "electric_scooter", "name": "a0271a679bff92316b27b6498503a262"}, {"bike_id": "e02da6340577066fa9f5ef18af319747", "lat": 38.92186383333333, "is_disabled": 0, "lon": -77.03200633333333, "fusion_lon": 0.0, "is_reserved": 0, "fusion_lat": 0.0, "rental_uris": {"android": "https://dc.lft.to/lastmile_qr_scan", "ios": "https://dc.lft.to/lastmile_qr_scan"}, "type": "electric_scooter", "name": "e02da6340577066fa9f5ef18af319747"}, {"bike_id": "353a021d34079ffef418af5786271f7a", "lat": 38.89740466666667, "is_disabled": 0, "lon": -77.0436055, "fusion_lon": 0.0, "is_reserved": 0, "fusion_lat": 0.0, "rental_uris": {"android": "https://dc.lft.to/lastmile_qr_scan", "ios": "https://dc.lft.to/lastmile_qr_scan"}, "type": "electric_scooter", "name": "353a021d34079ffef418af5786271f7a"}, {"bike_id": "08a8f6c6ba1e4f0a3929f103ce0a7c5c", "lat": 38.896044833333335, "is_disabled": 0, "lon": -77.05443233333334, "fusion_lon": 0.0, "is_reserved": 0, "fusion_lat": 0.0, "rental_uris": {"android": "https://dc.lft.to/lastmile_qr_scan", "ios": "https://dc.lft.to/lastmile_qr_scan"}, "type": "electric_scooter", "name": "08a8f6c6ba1e4f0a3929f103ce0a7c5c"}, {"bike_id": "59a30f3ad100f93ad18bd3efdfe0c908", "lat": 38.918172, "is_disabled": 0, "lon": -77.024785, "fusion_lon": 0.0, "is_reserved": 0, "fusion_lat": 0.0, "rental_uris": {"android": "https://dc.lft.to/lastmile_qr_scan", "ios": "https://dc.lft.to/lastmile_qr_scan"}, "type": "electric_scooter", "name": "59a30f3ad100f93ad18bd3efdfe0c908"}, {"bike_id": "acf5a1752b7c9f220dc3543b97ba1aba", "lat": 38.91564833333333, "is_disabled": 0, "lon": -77.04657816666666, "fusion_lon": 0.0, "is_reserved": 0, "fusion_lat": 0.0, "rental_uris": {"android": "https://dc.lft.to/lastmile_qr_scan", "ios": "https://dc.lft.to/lastmile_qr_scan"}, "type": "electric_scooter", "name": "acf5a1752b7c9f220dc3543b97ba1aba"}, {"bike_id": "34702aa095619661d42a99735556c345", "lat": 38.901260666666666, "is_disabled": 0, "lon": -77.03806283333333, "fusion_lon": 0.0, "is_reserved": 0, "fusion_lat": 0.0, "rental_uris": {"android": "https://dc.lft.to/lastmile_qr_scan", "ios": "https://dc.lft.to/lastmile_qr_scan"}, "type": "electric_scooter", "name": "34702aa095619661d42a99735556c345"}, {"bike_id": "89ff9a9cc0aa18cc3082b32e685bcbd2", "lat": 38.911155, "is_disabled": 0, "lon": -77.00610233333333, "fusion_lon": 0.0, "is_reserved": 0, "fusion_lat": 0.0, "rental_uris": {"android": "https://dc.lft.to/lastmile_qr_scan", "ios": "https://dc.lft.to/lastmile_qr_scan"}, "type": "electric_scooter", "name": "89ff9a9cc0aa18cc3082b32e685bcbd2"}, {"bike_id": "0794998698b4be5f73419e3475c5226a", "lat": 38.923986, "is_disabled": 0, "lon": -77.0341825, "fusion_lon": 0.0, "is_reserved": 0, "fusion_lat": 0.0, "rental_uris": {"android": "https://dc.lft.to/lastmile_qr_scan", "ios": "https://dc.lft.to/lastmile_qr_scan"}, "type": "electric_scooter", "name": "0794998698b4be5f73419e3475c5226a"}, {"bike_id": "a7ac946d28aa59ec703511fb271b9d46", "lat": 38.8906115, "is_disabled": 0, "lon": -77.02304116666667, "fusion_lon": 0.0, "is_reserved": 0, "fusion_lat": 0.0, "rental_uris": {"android": "https://dc.lft.to/lastmile_qr_scan", "ios": "https://dc.lft.to/lastmile_qr_scan"}, "type": "electric_scooter", "name": "a7ac946d28aa59ec703511fb271b9d46"}, {"bike_id": "f0a61931c47f58ddefe089011ed0ea2a", "lat": 38.947880833333336, "is_disabled": 0, "lon": -77.04083016666667, "fusion_lon": 0.0, "is_reserved": 0, "fusion_lat": 0.0, "rental_uris": {"android": "https://dc.lft.to/lastmile_qr_scan", "ios": "https://dc.lft.to/lastmile_qr_scan"}, "type": "electric_scooter", "name": "f0a61931c47f58ddefe089011ed0ea2a"}, {"bike_id": "95d20f0fe26b716b09f6e42bed8a5abd", "lat": 38.921655333333334, "is_disabled": 0, "lon": -77.04032683333334, "fusion_lon": 0.0, "is_reserved": 0, "fusion_lat": 0.0, "rental_uris": {"android": "https://dc.lft.to/lastmile_qr_scan", "ios": "https://dc.lft.to/lastmile_qr_scan"}, "type": "electric_scooter", "name": "95d20f0fe26b716b09f6e42bed8a5abd"}, {"bike_id": "291395a8b10cb07029b8478c73757477", "lat": 38.912663, "is_disabled": 0, "lon": -77.0364915, "fusion_lon": 0.0, "is_reserved": 0, "fusion_lat": 0.0, "rental_uris": {"android": "https://dc.lft.to/lastmile_qr_scan", "ios": "https://dc.lft.to/lastmile_qr_scan"}, "type": "electric_scooter", "name": "291395a8b10cb07029b8478c73757477"}, {"bike_id": "ab6eeefff1573e707cb31c65c5e12049", "lat": 38.916613, "is_disabled": 0, "lon": -77.04385616666667, "fusion_lon": 0.0, "is_reserved": 0, "fusion_lat": 0.0, "rental_uris": {"android": "https://dc.lft.to/lastmile_qr_scan", "ios": "https://dc.lft.to/lastmile_qr_scan"}, "type": "electric_scooter", "name": "ab6eeefff1573e707cb31c65c5e12049"}, {"bike_id": "01823b3acc5e13cbae02d287a7f58a49", "lat": 38.93063133333333, "is_disabled": 0, "lon": -77.02321633333334, "fusion_lon": 0.0, "is_reserved": 0, "fusion_lat": 0.0, "rental_uris": {"android": "https://dc.lft.to/lastmile_qr_scan", "ios": "https://dc.lft.to/lastmile_qr_scan"}, "type": "electric_scooter", "name": "01823b3acc5e13cbae02d287a7f58a49"}, {"bike_id": "38bb62ef6c58005100a3b966e17bca82", "lat": 38.8531935, "is_disabled": 0, "lon": -76.98010866666667, "fusion_lon": 0.0, "is_reserved": 0, "fusion_lat": 0.0, "rental_uris": {"android": "https://dc.lft.to/lastmile_qr_scan", "ios": "https://dc.lft.to/lastmile_qr_scan"}, "type": "electric_bike", "name": "38bb62ef6c58005100a3b966e17bca82"}, {"bike_id": "eb958cd2ba25d84bed5e1c8048dc84f6", "lat": 38.951158166666666, "is_disabled": 0, "lon": -76.9677985, "fusion_lon": 0.0, "is_reserved": 0, "fusion_lat": 0.0, "rental_uris": {"android": "https://dc.lft.to/lastmile_qr_scan", "ios": "https://dc.lft.to/lastmile_qr_scan"}, "type": "electric_bike", "name": "eb958cd2ba25d84bed5e1c8048dc84f6"}, {"bike_id": "aaefbf53af358bf989ff2df6e969c536", "lat": 38.92298483333333, "is_disabled": 0, "lon": -77.02062183333334, "fusion_lon": 0.0, "is_reserved": 0, "fusion_lat": 0.0, "rental_uris": {"android": "https://dc.lft.to/lastmile_qr_scan", "ios": "https://dc.lft.to/lastmile_qr_scan"}, "type": "electric_scooter", "name": "aaefbf53af358bf989ff2df6e969c536"}, {"bike_id": "2c9f6edcf31f76f08170115a36c85d60", "lat": 38.91056316666667, "is_disabled": 0, "lon": -77.02220316666667, "fusion_lon": 0.0, "is_reserved": 0, "fusion_lat": 0.0, "rental_uris": {"android": "https://dc.lft.to/lastmile_qr_scan", "ios": "https://dc.lft.to/lastmile_qr_scan"}, "type": "electric_scooter", "name": "2c9f6edcf31f76f08170115a36c85d60"}, {"bike_id": "44cef26d74642403035ea6e2504e794d", "lat": 38.88450866666667, "is_disabled": 0, "lon": -77.0257375, "fusion_lon": 0.0, "is_reserved": 0, "fusion_lat": 0.0, "rental_uris": {"android": "https://dc.lft.to/lastmile_qr_scan", "ios": "https://dc.lft.to/lastmile_qr_scan"}, "type": "electric_scooter", "name": "44cef26d74642403035ea6e2504e794d"}, {"bike_id": "31f2c6ea745f872097a07d245a710aac", "lat": 38.8955365, "is_disabled": 0, "lon": -77.00918333333334, "fusion_lon": 0.0, "is_reserved": 0, "fusion_lat": 0.0, "rental_uris": {"android": "https://dc.lft.to/lastmile_qr_scan", "ios": "https://dc.lft.to/lastmile_qr_scan"}, "type": "electric_scooter", "name": "31f2c6ea745f872097a07d245a710aac"}, {"bike_id": "cb2f02c6c2154aec0decc17b50ed6244", "lat": 38.924181833333336, "is_disabled": 0, "lon": -77.0194485, "fusion_lon": 0.0, "is_reserved": 0, "fusion_lat": 0.0, "rental_uris": {"android": "https://dc.lft.to/lastmile_qr_scan", "ios": "https://dc.lft.to/lastmile_qr_scan"}, "type": "electric_scooter", "name": "cb2f02c6c2154aec0decc17b50ed6244"}, {"bike_id": "b9df96a643c1c750d5352ad9a54b8d93", "lat": 38.91997116666667, "is_disabled": 0, "lon": -77.02169733333334, "fusion_lon": 0.0, "is_reserved": 0, "fusion_lat": 0.0, "rental_uris": {"android": "https://dc.lft.to/lastmile_qr_scan", "ios": "https://dc.lft.to/lastmile_qr_scan"}, "type": "electric_scooter", "name": "b9df96a643c1c750d5352ad9a54b8d93"}, {"bike_id": "cfa5d5043b8e8417dfec1f2a4345055e", "lat": 38.877275166666664, "is_disabled": 0, "lon": -77.00935316666667, "fusion_lon": 0.0, "is_reserved": 0, "fusion_lat": 0.0, "rental_uris": {"android": "https://dc.lft.to/lastmile_qr_scan", "ios": "https://dc.lft.to/lastmile_qr_scan"}, "type": "electric_scooter", "name": "cfa5d5043b8e8417dfec1f2a4345055e"}, {"bike_id": "da6c11c8aa2097298db12bd74ccb0c00", "lat": 38.8922555, "is_disabled": 0, "lon": -77.046876, "fusion_lon": 0.0, "is_reserved": 0, "fusion_lat": 0.0, "rental_uris": {"android": "https://dc.lft.to/lastmile_qr_scan", "ios": "https://dc.lft.to/lastmile_qr_scan"}, "type": "electric_scooter", "name": "da6c11c8aa2097298db12bd74ccb0c00"}, {"bike_id": "28a2b849f34817e95ced5e100c77a79f", "lat": 38.8808255, "is_disabled": 0, "lon": -76.98511316666666, "fusion_lon": 0.0, "is_reserved": 0, "fusion_lat": 0.0, "rental_uris": {"android": "https://dc.lft.to/lastmile_qr_scan", "ios": "https://dc.lft.to/lastmile_qr_scan"}, "type": "electric_scooter", "name": "28a2b849f34817e95ced5e100c77a79f"}, {"bike_id": "7dcada02626434e11201eaca9f912136", "lat": 38.830969833333334, "is_disabled": 0, "lon": -76.99407933333333, "fusion_lon": 0.0, "is_reserved": 0, "fusion_lat": 0.0, "rental_uris": {"android": "https://dc.lft.to/lastmile_qr_scan", "ios": "https://dc.lft.to/lastmile_qr_scan"}, "type": "electric_bike", "name": "7dcada02626434e11201eaca9f912136"}, {"bike_id": "011ec3a927bc2b9a87031863787dcf79", "lat": 38.92421066666667, "is_disabled": 0, "lon": -77.03549533333333, "fusion_lon": 0.0, "is_reserved": 0, "fusion_lat": 0.0, "rental_uris": {"android": "https://dc.lft.to/lastmile_qr_scan", "ios": "https://dc.lft.to/lastmile_qr_scan"}, "type": "electric_scooter", "name": "011ec3a927bc2b9a87031863787dcf79"}, {"bike_id": "c09ac42e497989eb9e043924eade160a", "lat": 38.90573033333333, "is_disabled": 0, "lon": -77.0241555, "fusion_lon": 0.0, "is_reserved": 0, "fusion_lat": 0.0, "rental_uris": {"android": "https://dc.lft.to/lastmile_qr_scan", "ios": "https://dc.lft.to/lastmile_qr_scan"}, "type": "electric_scooter", "name": "c09ac42e497989eb9e043924eade160a"}, {"bike_id": "96bc24bd59e9d43523663554ebd95e38", "lat": 38.879488, "is_disabled": 0, "lon": -77.00512083333334, "fusion_lon": 0.0, "is_reserved": 0, "fusion_lat": 0.0, "rental_uris": {"android": "https://dc.lft.to/lastmile_qr_scan", "ios": "https://dc.lft.to/lastmile_qr_scan"}, "type": "electric_scooter", "name": "96bc24bd59e9d43523663554ebd95e38"}, {"bike_id": "bb78de5f87348c7fad36f09669bc2812", "lat": 38.913441166666665, "is_disabled": 0, "lon": -77.03191783333334, "fusion_lon": 0.0, "is_reserved": 0, "fusion_lat": 0.0, "rental_uris": {"android": "https://dc.lft.to/lastmile_qr_scan", "ios": "https://dc.lft.to/lastmile_qr_scan"}, "type": "electric_scooter", "name": "bb78de5f87348c7fad36f09669bc2812"}, {"bike_id": "6f03368c1ab1949b978052d19f29a588", "lat": 38.897227666666666, "is_disabled": 0, "lon": -77.01264016666667, "fusion_lon": 0.0, "is_reserved": 0, "fusion_lat": 0.0, "rental_uris": {"android": "https://dc.lft.to/lastmile_qr_scan", "ios": "https://dc.lft.to/lastmile_qr_scan"}, "type": "electric_scooter", "name": "6f03368c1ab1949b978052d19f29a588"}, {"bike_id": "50d34a68b5a2e2bb60c5bc46eb3cc956", "lat": 38.90020083333334, "is_disabled": 0, "lon": -77.01178333333333, "fusion_lon": 0.0, "is_reserved": 0, "fusion_lat": 0.0, "rental_uris": {"android": "https://dc.lft.to/lastmile_qr_scan", "ios": "https://dc.lft.to/lastmile_qr_scan"}, "type": "electric_scooter", "name": "50d34a68b5a2e2bb60c5bc46eb3cc956"}, {"bike_id": "5836d3b34c632f1c2a117a25cbbc7dfd", "lat": 38.8923005, "is_disabled": 0, "lon": -77.03038033333333, "fusion_lon": 0.0, "is_reserved": 0, "fusion_lat": 0.0, "rental_uris": {"android": "https://dc.lft.to/lastmile_qr_scan", "ios": "https://dc.lft.to/lastmile_qr_scan"}, "type": "electric_scooter", "name": "5836d3b34c632f1c2a117a25cbbc7dfd"}, {"bike_id": "808e37cc18f6bf8db60f17760f17c8c6", "lat": 38.91619383333333, "is_disabled": 0, "lon": -76.97149433333334, "fusion_lon": 0.0, "is_reserved": 0, "fusion_lat": 0.0, "rental_uris": {"android": "https://dc.lft.to/lastmile_qr_scan", "ios": "https://dc.lft.to/lastmile_qr_scan"}, "type": "electric_scooter", "name": "808e37cc18f6bf8db60f17760f17c8c6"}, {"bike_id": "9dc9d5b7e05f3b901df28706d3d45efd", "lat": 38.93720366666667, "is_disabled": 0, "lon": -77.01913416666666, "fusion_lon": 0.0, "is_reserved": 0, "fusion_lat": 0.0, "rental_uris": {"android": "https://dc.lft.to/lastmile_qr_scan", "ios": "https://dc.lft.to/lastmile_qr_scan"}, "type": "electric_scooter", "name": "9dc9d5b7e05f3b901df28706d3d45efd"}, {"bike_id": "5081de7d27caba522a16e962760bacb4", "lat": 38.900042, "is_disabled": 0, "lon": -77.00576983333333, "fusion_lon": 0.0, "is_reserved": 0, "fusion_lat": 0.0, "rental_uris": {"android": "https://dc.lft.to/lastmile_qr_scan", "ios": "https://dc.lft.to/lastmile_qr_scan"}, "type": "electric_scooter", "name": "5081de7d27caba522a16e962760bacb4"}, {"bike_id": "1cbff7ad8d7e42661aecaab455e3de28", "lat": 38.91986683333333, "is_disabled": 0, "lon": -76.97309866666667, "fusion_lon": 0.0, "is_reserved": 0, "fusion_lat": 0.0, "rental_uris": {"android": "https://dc.lft.to/lastmile_qr_scan", "ios": "https://dc.lft.to/lastmile_qr_scan"}, "type": "electric_scooter", "name": "1cbff7ad8d7e42661aecaab455e3de28"}, {"bike_id": "d742b881a076daae402113d736fa46e2", "lat": 38.88519816666667, "is_disabled": 0, "lon": -77.00579266666666, "fusion_lon": 0.0, "is_reserved": 0, "fusion_lat": 0.0, "rental_uris": {"android": "https://dc.lft.to/lastmile_qr_scan", "ios": "https://dc.lft.to/lastmile_qr_scan"}, "type": "electric_scooter", "name": "d742b881a076daae402113d736fa46e2"}, {"bike_id": "c18e5c8cad9647a269047202fa85b7be", "lat": 38.9022345, "is_disabled": 0, "lon": -77.04681533333333, "fusion_lon": 0.0, "is_reserved": 0, "fusion_lat": 0.0, "rental_uris": {"android": "https://dc.lft.to/lastmile_qr_scan", "ios": "https://dc.lft.to/lastmile_qr_scan"}, "type": "electric_scooter", "name": "c18e5c8cad9647a269047202fa85b7be"}, {"bike_id": "12b24ae020250cf455ca5f6a0a98690b", "lat": 38.9095065, "is_disabled": 0, "lon": -77.04670333333334, "fusion_lon": 0.0, "is_reserved": 0, "fusion_lat": 0.0, "rental_uris": {"android": "https://dc.lft.to/lastmile_qr_scan", "ios": "https://dc.lft.to/lastmile_qr_scan"}, "type": "electric_scooter", "name": "12b24ae020250cf455ca5f6a0a98690b"}, {"bike_id": "d5b71795e9cf1d58b1da9469822286bd", "lat": 38.90411433333333, "is_disabled": 0, "lon": -77.06780783333333, "fusion_lon": 0.0, "is_reserved": 0, "fusion_lat": 0.0, "rental_uris": {"android": "https://dc.lft.to/lastmile_qr_scan", "ios": "https://dc.lft.to/lastmile_qr_scan"}, "type": "electric_scooter", "name": "d5b71795e9cf1d58b1da9469822286bd"}, {"bike_id": "05b04877d971574985adac1f3aa108fb", "lat": 38.916257333333334, "is_disabled": 0, "lon": -77.02162933333334, "fusion_lon": 0.0, "is_reserved": 0, "fusion_lat": 0.0, "rental_uris": {"android": "https://dc.lft.to/lastmile_qr_scan", "ios": "https://dc.lft.to/lastmile_qr_scan"}, "type": "electric_scooter", "name": "05b04877d971574985adac1f3aa108fb"}, {"bike_id": "0aba90400da5709fcebd99973e34aaf4", "lat": 38.967834833333335, "is_disabled": 0, "lon": -76.96265533333333, "fusion_lon": 0.0, "is_reserved": 0, "fusion_lat": 0.0, "rental_uris": {"android": "https://dc.lft.to/lastmile_qr_scan", "ios": "https://dc.lft.to/lastmile_qr_scan"}, "type": "electric_bike", "name": "0aba90400da5709fcebd99973e34aaf4"}, {"bike_id": "2aa241da88d41c2ef1126fa7230ec720", "lat": 38.91777666666667, "is_disabled": 0, "lon": -77.02307483333334, "fusion_lon": 0.0, "is_reserved": 0, "fusion_lat": 0.0, "rental_uris": {"android": "https://dc.lft.to/lastmile_qr_scan", "ios": "https://dc.lft.to/lastmile_qr_scan"}, "type": "electric_scooter", "name": "2aa241da88d41c2ef1126fa7230ec720"}, {"bike_id": "7a0fa0037742bbab3472a6e4d90a3b89", "lat": 38.8602485, "is_disabled": 0, "lon": -76.97000066666666, "fusion_lon": 0.0, "is_reserved": 0, "fusion_lat": 0.0, "rental_uris": {"android": "https://dc.lft.to/lastmile_qr_scan", "ios": "https://dc.lft.to/lastmile_qr_scan"}, "type": "electric_scooter", "name": "7a0fa0037742bbab3472a6e4d90a3b89"}, {"bike_id": "6818ae5ac5c0f9c6016c1fcfa9657b01", "lat": 38.90843066666667, "is_disabled": 0, "lon": -77.02694133333334, "fusion_lon": 0.0, "is_reserved": 0, "fusion_lat": 0.0, "rental_uris": {"android": "https://dc.lft.to/lastmile_qr_scan", "ios": "https://dc.lft.to/lastmile_qr_scan"}, "type": "electric_scooter", "name": "6818ae5ac5c0f9c6016c1fcfa9657b01"}, {"bike_id": "4f2369353d2c5a13e795de16d8eb3e36", "lat": 38.8945615, "is_disabled": 0, "lon": -76.93667566666667, "fusion_lon": 0.0, "is_reserved": 0, "fusion_lat": 0.0, "rental_uris": {"android": "https://dc.lft.to/lastmile_qr_scan", "ios": "https://dc.lft.to/lastmile_qr_scan"}, "type": "electric_bike", "name": "4f2369353d2c5a13e795de16d8eb3e36"}, {"bike_id": "f08529b261015cc5f9e2a6a556cd1164", "lat": 38.94473633333333, "is_disabled": 0, "lon": -76.986849, "fusion_lon": 0.0, "is_reserved": 0, "fusion_lat": 0.0, "rental_uris": {"android": "https://dc.lft.to/lastmile_qr_scan", "ios": "https://dc.lft.to/lastmile_qr_scan"}, "type": "electric_bike", "name": "f08529b261015cc5f9e2a6a556cd1164"}, {"bike_id": "6d36bd9d72e7a789d6f719d0899ef0da", "lat": 38.895837, "is_disabled": 0, "lon": -77.029807, "fusion_lon": 0.0, "is_reserved": 0, "fusion_lat": 0.0, "rental_uris": {"android": "https://dc.lft.to/lastmile_qr_scan", "ios": "https://dc.lft.to/lastmile_qr_scan"}, "type": "electric_scooter", "name": "6d36bd9d72e7a789d6f719d0899ef0da"}, {"bike_id": "f35409dda7fdd4fa3100b6288b9629dc", "lat": 38.910185, "is_disabled": 0, "lon": -77.04455066666667, "fusion_lon": 0.0, "is_reserved": 0, "fusion_lat": 0.0, "rental_uris": {"android": "https://dc.lft.to/lastmile_qr_scan", "ios": "https://dc.lft.to/lastmile_qr_scan"}, "type": "electric_scooter", "name": "f35409dda7fdd4fa3100b6288b9629dc"}, {"bike_id": "52453e3e2035dd3d7f2a9ae882f2cd1d", "lat": 38.859957333333334, "is_disabled": 0, "lon": -76.985451, "fusion_lon": 0.0, "is_reserved": 0, "fusion_lat": 0.0, "rental_uris": {"android": "https://dc.lft.to/lastmile_qr_scan", "ios": "https://dc.lft.to/lastmile_qr_scan"}, "type": "electric_scooter", "name": "52453e3e2035dd3d7f2a9ae882f2cd1d"}, {"bike_id": "ec3a1b9a6bc620db4f7d12db57e316a5", "lat": 38.9155275, "is_disabled": 0, "lon": -77.01195966666667, "fusion_lon": 0.0, "is_reserved": 0, "fusion_lat": 0.0, "rental_uris": {"android": "https://dc.lft.to/lastmile_qr_scan", "ios": "https://dc.lft.to/lastmile_qr_scan"}, "type": "electric_scooter", "name": "ec3a1b9a6bc620db4f7d12db57e316a5"}, {"bike_id": "6354c544dcc2dd7acf6562ae4495d85d", "lat": 38.9164025, "is_disabled": 0, "lon": -77.03211666666667, "fusion_lon": 0.0, "is_reserved": 0, "fusion_lat": 0.0, "rental_uris": {"android": "https://dc.lft.to/lastmile_qr_scan", "ios": "https://dc.lft.to/lastmile_qr_scan"}, "type": "electric_scooter", "name": "6354c544dcc2dd7acf6562ae4495d85d"}, {"bike_id": "6bfdf20eb705e56b74a5beea690d743e", "lat": 38.93323733333333, "is_disabled": 0, "lon": -77.03813933333333, "fusion_lon": 0.0, "is_reserved": 0, "fusion_lat": 0.0, "rental_uris": {"android": "https://dc.lft.to/lastmile_qr_scan", "ios": "https://dc.lft.to/lastmile_qr_scan"}, "type": "electric_scooter", "name": "6bfdf20eb705e56b74a5beea690d743e"}, {"bike_id": "50f4cf250d4937fc2f9da160dbb49ec1", "lat": 38.913658166666664, "is_disabled": 0, "lon": -77.046609, "fusion_lon": 0.0, "is_reserved": 0, "fusion_lat": 0.0, "rental_uris": {"android": "https://dc.lft.to/lastmile_qr_scan", "ios": "https://dc.lft.to/lastmile_qr_scan"}, "type": "electric_scooter", "name": "50f4cf250d4937fc2f9da160dbb49ec1"}, {"bike_id": "5c47b26a707ab931065b7ce062f630b7", "lat": 38.89935766666667, "is_disabled": 0, "lon": -77.04188833333333, "fusion_lon": 0.0, "is_reserved": 0, "fusion_lat": 0.0, "rental_uris": {"android": "https://dc.lft.to/lastmile_qr_scan", "ios": "https://dc.lft.to/lastmile_qr_scan"}, "type": "electric_scooter", "name": "5c47b26a707ab931065b7ce062f630b7"}, {"bike_id": "fc9d363f134da095461dd6099b2744fb", "lat": 38.8923115, "is_disabled": 0, "lon": -77.0283685, "fusion_lon": 0.0, "is_reserved": 0, "fusion_lat": 0.0, "rental_uris": {"android": "https://dc.lft.to/lastmile_qr_scan", "ios": "https://dc.lft.to/lastmile_qr_scan"}, "type": "electric_scooter", "name": "fc9d363f134da095461dd6099b2744fb"}, {"bike_id": "2cce0640a785d58efc27cd4959aa5705", "lat": 38.920564166666665, "is_disabled": 0, "lon": -77.03307933333333, "fusion_lon": 0.0, "is_reserved": 0, "fusion_lat": 0.0, "rental_uris": {"android": "https://dc.lft.to/lastmile_qr_scan", "ios": "https://dc.lft.to/lastmile_qr_scan"}, "type": "electric_scooter", "name": "2cce0640a785d58efc27cd4959aa5705"}, {"bike_id": "340ca129636cf5a13c8ef6a07baba90e", "lat": 38.92268516666667, "is_disabled": 0, "lon": -77.01920083333333, "fusion_lon": 0.0, "is_reserved": 0, "fusion_lat": 0.0, "rental_uris": {"android": "https://dc.lft.to/lastmile_qr_scan", "ios": "https://dc.lft.to/lastmile_qr_scan"}, "type": "electric_scooter", "name": "340ca129636cf5a13c8ef6a07baba90e"}, {"bike_id": "f9033f8e7a48f67f5829dafd8159c4b6", "lat": 38.905112, "is_disabled": 0, "lon": -77.0592315, "fusion_lon": 0.0, "is_reserved": 0, "fusion_lat": 0.0, "rental_uris": {"android": "https://dc.lft.to/lastmile_qr_scan", "ios": "https://dc.lft.to/lastmile_qr_scan"}, "type": "electric_scooter", "name": "f9033f8e7a48f67f5829dafd8159c4b6"}, {"bike_id": "e777b1eae7112e68f2b28c1d78cc3524", "lat": 38.924572833333336, "is_disabled": 0, "lon": -77.03287033333334, "fusion_lon": 0.0, "is_reserved": 0, "fusion_lat": 0.0, "rental_uris": {"android": "https://dc.lft.to/lastmile_qr_scan", "ios": "https://dc.lft.to/lastmile_qr_scan"}, "type": "electric_scooter", "name": "e777b1eae7112e68f2b28c1d78cc3524"}, {"bike_id": "674317171d779cdc0e3dd854841f2352", "lat": 38.928499333333335, "is_disabled": 0, "lon": -77.0328965, "fusion_lon": 0.0, "is_reserved": 0, "fusion_lat": 0.0, "rental_uris": {"android": "https://dc.lft.to/lastmile_qr_scan", "ios": "https://dc.lft.to/lastmile_qr_scan"}, "type": "electric_scooter", "name": "674317171d779cdc0e3dd854841f2352"}, {"bike_id": "af4e40480c36c2102a8886910b5d309f", "lat": 38.893035833333336, "is_disabled": 0, "lon": -76.95085783333333, "fusion_lon": 0.0, "is_reserved": 0, "fusion_lat": 0.0, "rental_uris": {"android": "https://dc.lft.to/lastmile_qr_scan", "ios": "https://dc.lft.to/lastmile_qr_scan"}, "type": "electric_scooter", "name": "af4e40480c36c2102a8886910b5d309f"}, {"bike_id": "54faec219197a0ca0806e80150bef76f", "lat": 38.93283916666667, "is_disabled": 0, "lon": -77.03699016666667, "fusion_lon": 0.0, "is_reserved": 0, "fusion_lat": 0.0, "rental_uris": {"android": "https://dc.lft.to/lastmile_qr_scan", "ios": "https://dc.lft.to/lastmile_qr_scan"}, "type": "electric_scooter", "name": "54faec219197a0ca0806e80150bef76f"}, {"bike_id": "315022052bbd8b4381fd73a14da8f0a8", "lat": 38.919861833333336, "is_disabled": 0, "lon": -77.0319635, "fusion_lon": 0.0, "is_reserved": 0, "fusion_lat": 0.0, "rental_uris": {"android": "https://dc.lft.to/lastmile_qr_scan", "ios": "https://dc.lft.to/lastmile_qr_scan"}, "type": "electric_scooter", "name": "315022052bbd8b4381fd73a14da8f0a8"}, {"bike_id": "3d37c1c4e4228d730dd356ac1079619f", "lat": 38.9334425, "is_disabled": 0, "lon": -77.05709033333333, "fusion_lon": 0.0, "is_reserved": 0, "fusion_lat": 0.0, "rental_uris": {"android": "https://dc.lft.to/lastmile_qr_scan", "ios": "https://dc.lft.to/lastmile_qr_scan"}, "type": "electric_scooter", "name": "3d37c1c4e4228d730dd356ac1079619f"}, {"bike_id": "ec4d0d8cfb981efab8d0140d57cfa15d", "lat": 38.9096995, "is_disabled": 0, "lon": -77.0383755, "fusion_lon": 0.0, "is_reserved": 0, "fusion_lat": 0.0, "rental_uris": {"android": "https://dc.lft.to/lastmile_qr_scan", "ios": "https://dc.lft.to/lastmile_qr_scan"}, "type": "electric_scooter", "name": "ec4d0d8cfb981efab8d0140d57cfa15d"}, {"bike_id": "b9a26fd3d756098433c59649bf538887", "lat": 38.929879166666666, "is_disabled": 0, "lon": -77.032636, "fusion_lon": 0.0, "is_reserved": 0, "fusion_lat": 0.0, "rental_uris": {"android": "https://dc.lft.to/lastmile_qr_scan", "ios": "https://dc.lft.to/lastmile_qr_scan"}, "type": "electric_bike", "name": "b9a26fd3d756098433c59649bf538887"}, {"bike_id": "979dd4fc96fb2e7384d6805265b6a94c", "lat": 38.908435, "is_disabled": 0, "lon": -77.0269465, "fusion_lon": 0.0, "is_reserved": 0, "fusion_lat": 0.0, "rental_uris": {"android": "https://dc.lft.to/lastmile_qr_scan", "ios": "https://dc.lft.to/lastmile_qr_scan"}, "type": "electric_scooter", "name": "979dd4fc96fb2e7384d6805265b6a94c"}, {"bike_id": "316ec648b5a24560c277634ee8f11fb0", "lat": 38.90646666666667, "is_disabled": 0, "lon": -77.034397, "fusion_lon": 0.0, "is_reserved": 0, "fusion_lat": 0.0, "rental_uris": {"android": "https://dc.lft.to/lastmile_qr_scan", "ios": "https://dc.lft.to/lastmile_qr_scan"}, "type": "electric_scooter", "name": "316ec648b5a24560c277634ee8f11fb0"}, {"bike_id": "553be4e9e762658484705c7235f4f32b", "lat": 38.90584466666667, "is_disabled": 0, "lon": -77.06517666666667, "fusion_lon": 0.0, "is_reserved": 0, "fusion_lat": 0.0, "rental_uris": {"android": "https://dc.lft.to/lastmile_qr_scan", "ios": "https://dc.lft.to/lastmile_qr_scan"}, "type": "electric_scooter", "name": "553be4e9e762658484705c7235f4f32b"}, {"bike_id": "3833ae014a8ec7614c0e8dcc77bf6e88", "lat": 38.90695733333333, "is_disabled": 0, "lon": -77.0449855, "fusion_lon": 0.0, "is_reserved": 0, "fusion_lat": 0.0, "rental_uris": {"android": "https://dc.lft.to/lastmile_qr_scan", "ios": "https://dc.lft.to/lastmile_qr_scan"}, "type": "electric_scooter", "name": "3833ae014a8ec7614c0e8dcc77bf6e88"}, {"bike_id": "daf56cfbe06151936f6b5ad428ee285a", "lat": 38.8573295, "is_disabled": 0, "lon": -76.990992, "fusion_lon": 0.0, "is_reserved": 0, "fusion_lat": 0.0, "rental_uris": {"android": "https://dc.lft.to/lastmile_qr_scan", "ios": "https://dc.lft.to/lastmile_qr_scan"}, "type": "electric_scooter", "name": "daf56cfbe06151936f6b5ad428ee285a"}, {"bike_id": "c00b6ca411f239ebcba7fbf23e7270ae", "lat": 38.924589166666664, "is_disabled": 0, "lon": -77.03968616666667, "fusion_lon": 0.0, "is_reserved": 0, "fusion_lat": 0.0, "rental_uris": {"android": "https://dc.lft.to/lastmile_qr_scan", "ios": "https://dc.lft.to/lastmile_qr_scan"}, "type": "electric_scooter", "name": "c00b6ca411f239ebcba7fbf23e7270ae"}, {"bike_id": "9e29068c581610266ff8b167426e7187", "lat": 38.91318, "is_disabled": 0, "lon": -77.0471195, "fusion_lon": 0.0, "is_reserved": 0, "fusion_lat": 0.0, "rental_uris": {"android": "https://dc.lft.to/lastmile_qr_scan", "ios": "https://dc.lft.to/lastmile_qr_scan"}, "type": "electric_scooter", "name": "9e29068c581610266ff8b167426e7187"}, {"bike_id": "5057980937ef5778189b8eb91d3692eb", "lat": 38.9373965, "is_disabled": 0, "lon": -77.03258333333333, "fusion_lon": 0.0, "is_reserved": 0, "fusion_lat": 0.0, "rental_uris": {"android": "https://dc.lft.to/lastmile_qr_scan", "ios": "https://dc.lft.to/lastmile_qr_scan"}, "type": "electric_scooter", "name": "5057980937ef5778189b8eb91d3692eb"}, {"bike_id": "c07ef6f7803889c4fae8bb1c0a99f25f", "lat": 38.90563566666667, "is_disabled": 0, "lon": -77.03249216666667, "fusion_lon": 0.0, "is_reserved": 0, "fusion_lat": 0.0, "rental_uris": {"android": "https://dc.lft.to/lastmile_qr_scan", "ios": "https://dc.lft.to/lastmile_qr_scan"}, "type": "electric_scooter", "name": "c07ef6f7803889c4fae8bb1c0a99f25f"}, {"bike_id": "ea8cf5f9cc29c7bda0d0cef0b0184ef2", "lat": 38.9234995, "is_disabled": 0, "lon": -77.0190405, "fusion_lon": 0.0, "is_reserved": 0, "fusion_lat": 0.0, "rental_uris": {"android": "https://dc.lft.to/lastmile_qr_scan", "ios": "https://dc.lft.to/lastmile_qr_scan"}, "type": "electric_scooter", "name": "ea8cf5f9cc29c7bda0d0cef0b0184ef2"}, {"bike_id": "14efc8260ae96c338340c83b242eed08", "lat": 38.904661833333336, "is_disabled": 0, "lon": -76.9950395, "fusion_lon": 0.0, "is_reserved": 0, "fusion_lat": 0.0, "rental_uris": {"android": "https://dc.lft.to/lastmile_qr_scan", "ios": "https://dc.lft.to/lastmile_qr_scan"}, "type": "electric_scooter", "name": "14efc8260ae96c338340c83b242eed08"}, {"bike_id": "f4cc71f8aa9ebc9f1975e0a87fd43b2b", "lat": 38.922593666666664, "is_disabled": 0, "lon": -77.02011033333334, "fusion_lon": 0.0, "is_reserved": 0, "fusion_lat": 0.0, "rental_uris": {"android": "https://dc.lft.to/lastmile_qr_scan", "ios": "https://dc.lft.to/lastmile_qr_scan"}, "type": "electric_scooter", "name": "f4cc71f8aa9ebc9f1975e0a87fd43b2b"}, {"bike_id": "8cd6d51ac5ad129e2435755a5c359215", "lat": 38.919233166666665, "is_disabled": 0, "lon": -77.0793815, "fusion_lon": 0.0, "is_reserved": 0, "fusion_lat": 0.0, "rental_uris": {"android": "https://dc.lft.to/lastmile_qr_scan", "ios": "https://dc.lft.to/lastmile_qr_scan"}, "type": "electric_scooter", "name": "8cd6d51ac5ad129e2435755a5c359215"}, {"bike_id": "4f6ec39cc23833d7a2e9d7b029c54261", "lat": 38.8756805, "is_disabled": 0, "lon": -77.02052266666666, "fusion_lon": 0.0, "is_reserved": 0, "fusion_lat": 0.0, "rental_uris": {"android": "https://dc.lft.to/lastmile_qr_scan", "ios": "https://dc.lft.to/lastmile_qr_scan"}, "type": "electric_scooter", "name": "4f6ec39cc23833d7a2e9d7b029c54261"}, {"bike_id": "61ef56f1e2164d14d251e9334eb521ef", "lat": 38.9230055, "is_disabled": 0, "lon": -77.02325833333333, "fusion_lon": 0.0, "is_reserved": 0, "fusion_lat": 0.0, "rental_uris": {"android": "https://dc.lft.to/lastmile_qr_scan", "ios": "https://dc.lft.to/lastmile_qr_scan"}, "type": "electric_scooter", "name": "61ef56f1e2164d14d251e9334eb521ef"}, {"bike_id": "4eea7e477793b89a787004dd9c72dcda", "lat": 38.914235833333336, "is_disabled": 0, "lon": -77.045916, "fusion_lon": 0.0, "is_reserved": 0, "fusion_lat": 0.0, "rental_uris": {"android": "https://dc.lft.to/lastmile_qr_scan", "ios": "https://dc.lft.to/lastmile_qr_scan"}, "type": "electric_scooter", "name": "4eea7e477793b89a787004dd9c72dcda"}, {"bike_id": "3917b7ca5d9104f15c74a267b7aa00b0", "lat": 38.89226, "is_disabled": 0, "lon": -77.02627783333334, "fusion_lon": 0.0, "is_reserved": 0, "fusion_lat": 0.0, "rental_uris": {"android": "https://dc.lft.to/lastmile_qr_scan", "ios": "https://dc.lft.to/lastmile_qr_scan"}, "type": "electric_scooter", "name": "3917b7ca5d9104f15c74a267b7aa00b0"}, {"bike_id": "9ee8167fde19b879a77fdc126bed7a87", "lat": 38.907242833333335, "is_disabled": 0, "lon": -77.00348966666667, "fusion_lon": 0.0, "is_reserved": 0, "fusion_lat": 0.0, "rental_uris": {"android": "https://dc.lft.to/lastmile_qr_scan", "ios": "https://dc.lft.to/lastmile_qr_scan"}, "type": "electric_scooter", "name": "9ee8167fde19b879a77fdc126bed7a87"}, {"bike_id": "ab20b3409825ce9fcb864e7762e58921", "lat": 38.9339555, "is_disabled": 0, "lon": -77.05743516666666, "fusion_lon": 0.0, "is_reserved": 0, "fusion_lat": 0.0, "rental_uris": {"android": "https://dc.lft.to/lastmile_qr_scan", "ios": "https://dc.lft.to/lastmile_qr_scan"}, "type": "electric_scooter", "name": "ab20b3409825ce9fcb864e7762e58921"}, {"bike_id": "f45bda7867662cb36a8fd11f511f2956", "lat": 38.9070245, "is_disabled": 0, "lon": -76.98701016666666, "fusion_lon": 0.0, "is_reserved": 0, "fusion_lat": 0.0, "rental_uris": {"android": "https://dc.lft.to/lastmile_qr_scan", "ios": "https://dc.lft.to/lastmile_qr_scan"}, "type": "electric_scooter", "name": "f45bda7867662cb36a8fd11f511f2956"}, {"bike_id": "726611159a972935ba6e0d9308094ad2", "lat": 38.90957983333333, "is_disabled": 0, "lon": -77.00742783333334, "fusion_lon": 0.0, "is_reserved": 0, "fusion_lat": 0.0, "rental_uris": {"android": "https://dc.lft.to/lastmile_qr_scan", "ios": "https://dc.lft.to/lastmile_qr_scan"}, "type": "electric_scooter", "name": "726611159a972935ba6e0d9308094ad2"}, {"bike_id": "5c69ca4fdef92390344ce6da1695ef74", "lat": 38.902304, "is_disabled": 0, "lon": -76.99268783333333, "fusion_lon": 0.0, "is_reserved": 0, "fusion_lat": 0.0, "rental_uris": {"android": "https://dc.lft.to/lastmile_qr_scan", "ios": "https://dc.lft.to/lastmile_qr_scan"}, "type": "electric_scooter", "name": "5c69ca4fdef92390344ce6da1695ef74"}, {"bike_id": "c23ad87d8c7efb1db6df283192d71810", "lat": 38.88059, "is_disabled": 0, "lon": -77.00540533333333, "fusion_lon": 0.0, "is_reserved": 0, "fusion_lat": 0.0, "rental_uris": {"android": "https://dc.lft.to/lastmile_qr_scan", "ios": "https://dc.lft.to/lastmile_qr_scan"}, "type": "electric_scooter", "name": "c23ad87d8c7efb1db6df283192d71810"}, {"bike_id": "7dd8a6bb0214771df5b64f0eeaaefd9d", "lat": 38.91738633333333, "is_disabled": 0, "lon": -77.04176866666667, "fusion_lon": 0.0, "is_reserved": 0, "fusion_lat": 0.0, "rental_uris": {"android": "https://dc.lft.to/lastmile_qr_scan", "ios": "https://dc.lft.to/lastmile_qr_scan"}, "type": "electric_scooter", "name": "7dd8a6bb0214771df5b64f0eeaaefd9d"}, {"bike_id": "5c5f4717084a9e065668ded2b260c3ed", "lat": 38.90431516666666, "is_disabled": 0, "lon": -77.02954566666666, "fusion_lon": 0.0, "is_reserved": 0, "fusion_lat": 0.0, "rental_uris": {"android": "https://dc.lft.to/lastmile_qr_scan", "ios": "https://dc.lft.to/lastmile_qr_scan"}, "type": "electric_scooter", "name": "5c5f4717084a9e065668ded2b260c3ed"}, {"bike_id": "dd3ae524438d3dd4f1c27d72197a2355", "lat": 38.905147, "is_disabled": 0, "lon": -77.043375, "fusion_lon": 0.0, "is_reserved": 0, "fusion_lat": 0.0, "rental_uris": {"android": "https://dc.lft.to/lastmile_qr_scan", "ios": "https://dc.lft.to/lastmile_qr_scan"}, "type": "electric_scooter", "name": "dd3ae524438d3dd4f1c27d72197a2355"}, {"bike_id": "2484abb3fb35739d9f18c5544b4039e0", "lat": 38.873813, "is_disabled": 0, "lon": -77.0013385, "fusion_lon": 0.0, "is_reserved": 0, "fusion_lat": 0.0, "rental_uris": {"android": "https://dc.lft.to/lastmile_qr_scan", "ios": "https://dc.lft.to/lastmile_qr_scan"}, "type": "electric_scooter", "name": "2484abb3fb35739d9f18c5544b4039e0"}, {"bike_id": "89d63bd46e55558ad291c0e882e6df4e", "lat": 38.90179416666667, "is_disabled": 0, "lon": -76.9282705, "fusion_lon": 0.0, "is_reserved": 0, "fusion_lat": 0.0, "rental_uris": {"android": "https://dc.lft.to/lastmile_qr_scan", "ios": "https://dc.lft.to/lastmile_qr_scan"}, "type": "electric_scooter", "name": "89d63bd46e55558ad291c0e882e6df4e"}, {"bike_id": "599d46c218fb0def020656ad65a20ec8", "lat": 38.902277, "is_disabled": 0, "lon": -77.00208933333333, "fusion_lon": 0.0, "is_reserved": 0, "fusion_lat": 0.0, "rental_uris": {"android": "https://dc.lft.to/lastmile_qr_scan", "ios": "https://dc.lft.to/lastmile_qr_scan"}, "type": "electric_scooter", "name": "599d46c218fb0def020656ad65a20ec8"}, {"bike_id": "b3edc2cff661571ad9714faf43225656", "lat": 38.89358683333333, "is_disabled": 0, "lon": -76.94748466666667, "fusion_lon": 0.0, "is_reserved": 0, "fusion_lat": 0.0, "rental_uris": {"android": "https://dc.lft.to/lastmile_qr_scan", "ios": "https://dc.lft.to/lastmile_qr_scan"}, "type": "electric_scooter", "name": "b3edc2cff661571ad9714faf43225656"}, {"bike_id": "eb44223653fcc0bb10f8ee4b590dde4b", "lat": 38.908655333333336, "is_disabled": 0, "lon": -77.07163916666667, "fusion_lon": 0.0, "is_reserved": 0, "fusion_lat": 0.0, "rental_uris": {"android": "https://dc.lft.to/lastmile_qr_scan", "ios": "https://dc.lft.to/lastmile_qr_scan"}, "type": "electric_scooter", "name": "eb44223653fcc0bb10f8ee4b590dde4b"}, {"bike_id": "d3505322f9eefe3e4071d467da5e8b2d", "lat": 38.92283616666667, "is_disabled": 0, "lon": -77.03668533333334, "fusion_lon": 0.0, "is_reserved": 0, "fusion_lat": 0.0, "rental_uris": {"android": "https://dc.lft.to/lastmile_qr_scan", "ios": "https://dc.lft.to/lastmile_qr_scan"}, "type": "electric_scooter", "name": "d3505322f9eefe3e4071d467da5e8b2d"}, {"bike_id": "c01e782b9ce7e2b55becad58769190b2", "lat": 38.9502, "is_disabled": 0, "lon": -77.0674425, "fusion_lon": 0.0, "is_reserved": 0, "fusion_lat": 0.0, "rental_uris": {"android": "https://dc.lft.to/lastmile_qr_scan", "ios": "https://dc.lft.to/lastmile_qr_scan"}, "type": "electric_scooter", "name": "c01e782b9ce7e2b55becad58769190b2"}, {"bike_id": "21ca05e03f0e056068297804507ffeeb", "lat": 38.819070833333335, "is_disabled": 0, "lon": -77.12649316666666, "fusion_lon": 0.0, "is_reserved": 0, "fusion_lat": 0.0, "rental_uris": {"android": "https://dc.lft.to/lastmile_qr_scan", "ios": "https://dc.lft.to/lastmile_qr_scan"}, "type": "electric_bike", "name": "21ca05e03f0e056068297804507ffeeb"}, {"bike_id": "92641a2e1654dd2645021cbe53c266dc", "lat": 38.905624, "is_disabled": 0, "lon": -77.04364766666667, "fusion_lon": 0.0, "is_reserved": 0, "fusion_lat": 0.0, "rental_uris": {"android": "https://dc.lft.to/lastmile_qr_scan", "ios": "https://dc.lft.to/lastmile_qr_scan"}, "type": "electric_scooter", "name": "92641a2e1654dd2645021cbe53c266dc"}, {"bike_id": "92e84ea8da0cd97692bf7f5676aec401", "lat": 38.907017833333335, "is_disabled": 0, "lon": -77.0420625, "fusion_lon": 0.0, "is_reserved": 0, "fusion_lat": 0.0, "rental_uris": {"android": "https://dc.lft.to/lastmile_qr_scan", "ios": "https://dc.lft.to/lastmile_qr_scan"}, "type": "electric_scooter", "name": "92e84ea8da0cd97692bf7f5676aec401"}, {"bike_id": "d1903e426823059da13c1a5bbb42dd0e", "lat": 38.914160333333335, "is_disabled": 0, "lon": -77.041536, "fusion_lon": 0.0, "is_reserved": 0, "fusion_lat": 0.0, "rental_uris": {"android": "https://dc.lft.to/lastmile_qr_scan", "ios": "https://dc.lft.to/lastmile_qr_scan"}, "type": "electric_scooter", "name": "d1903e426823059da13c1a5bbb42dd0e"}, {"bike_id": "51200c2733eb07fe96f4fe122653e47e", "lat": 38.906951666666664, "is_disabled": 0, "lon": -76.95255166666666, "fusion_lon": 0.0, "is_reserved": 0, "fusion_lat": 0.0, "rental_uris": {"android": "https://dc.lft.to/lastmile_qr_scan", "ios": "https://dc.lft.to/lastmile_qr_scan"}, "type": "electric_bike", "name": "51200c2733eb07fe96f4fe122653e47e"}, {"bike_id": "4b188dd776ded2773c6863f82e85e192", "lat": 38.921220166666664, "is_disabled": 0, "lon": -77.01211316666667, "fusion_lon": 0.0, "is_reserved": 0, "fusion_lat": 0.0, "rental_uris": {"android": "https://dc.lft.to/lastmile_qr_scan", "ios": "https://dc.lft.to/lastmile_qr_scan"}, "type": "electric_scooter", "name": "4b188dd776ded2773c6863f82e85e192"}, {"bike_id": "d6d194f979c71c2edd2557c355111a92", "lat": 38.93561066666667, "is_disabled": 0, "lon": -77.06373733333334, "fusion_lon": 0.0, "is_reserved": 0, "fusion_lat": 0.0, "rental_uris": {"android": "https://dc.lft.to/lastmile_qr_scan", "ios": "https://dc.lft.to/lastmile_qr_scan"}, "type": "electric_scooter", "name": "d6d194f979c71c2edd2557c355111a92"}, {"bike_id": "89705ceb53edc83b19f635d1248de225", "lat": 38.92342033333333, "is_disabled": 0, "lon": -76.9983395, "fusion_lon": 0.0, "is_reserved": 0, "fusion_lat": 0.0, "rental_uris": {"android": "https://dc.lft.to/lastmile_qr_scan", "ios": "https://dc.lft.to/lastmile_qr_scan"}, "type": "electric_scooter", "name": "89705ceb53edc83b19f635d1248de225"}, {"bike_id": "caa37b3a0022630c4f2702d13430c151", "lat": 38.99782616666667, "is_disabled": 0, "lon": -77.00762333333333, "fusion_lon": 0.0, "is_reserved": 0, "fusion_lat": 0.0, "rental_uris": {"android": "https://dc.lft.to/lastmile_qr_scan", "ios": "https://dc.lft.to/lastmile_qr_scan"}, "type": "electric_bike", "name": "caa37b3a0022630c4f2702d13430c151"}, {"bike_id": "1595bb18c2dd513c470f0be87e86cf4a", "lat": 38.892892833333335, "is_disabled": 0, "lon": -77.00197416666667, "fusion_lon": 0.0, "is_reserved": 0, "fusion_lat": 0.0, "rental_uris": {"android": "https://dc.lft.to/lastmile_qr_scan", "ios": "https://dc.lft.to/lastmile_qr_scan"}, "type": "electric_scooter", "name": "1595bb18c2dd513c470f0be87e86cf4a"}, {"bike_id": "ac48819c5ef4cbcb2b13b167af052de4", "lat": 38.9003515, "is_disabled": 0, "lon": -77.00215466666667, "fusion_lon": 0.0, "is_reserved": 0, "fusion_lat": 0.0, "rental_uris": {"android": "https://dc.lft.to/lastmile_qr_scan", "ios": "https://dc.lft.to/lastmile_qr_scan"}, "type": "electric_scooter", "name": "ac48819c5ef4cbcb2b13b167af052de4"}, {"bike_id": "391ab5232298fcd5d5928f77058e449c", "lat": 38.9205825, "is_disabled": 0, "lon": -77.03311166666667, "fusion_lon": 0.0, "is_reserved": 0, "fusion_lat": 0.0, "rental_uris": {"android": "https://dc.lft.to/lastmile_qr_scan", "ios": "https://dc.lft.to/lastmile_qr_scan"}, "type": "electric_bike", "name": "391ab5232298fcd5d5928f77058e449c"}, {"bike_id": "fa04a006b1b0e6e9abfaf26038b9f2f6", "lat": 38.89911266666667, "is_disabled": 0, "lon": -76.9338485, "fusion_lon": 0.0, "is_reserved": 0, "fusion_lat": 0.0, "rental_uris": {"android": "https://dc.lft.to/lastmile_qr_scan", "ios": "https://dc.lft.to/lastmile_qr_scan"}, "type": "electric_scooter", "name": "fa04a006b1b0e6e9abfaf26038b9f2f6"}, {"bike_id": "1e88cdbbbbe2087898281f81eeddc9b9", "lat": 38.8771895, "is_disabled": 0, "lon": -77.01651433333333, "fusion_lon": 0.0, "is_reserved": 0, "fusion_lat": 0.0, "rental_uris": {"android": "https://dc.lft.to/lastmile_qr_scan", "ios": "https://dc.lft.to/lastmile_qr_scan"}, "type": "electric_scooter", "name": "1e88cdbbbbe2087898281f81eeddc9b9"}, {"bike_id": "0d18a651c45dd17732c7d18a8283f545", "lat": 38.937696333333335, "is_disabled": 0, "lon": -77.02295, "fusion_lon": 0.0, "is_reserved": 0, "fusion_lat": 0.0, "rental_uris": {"android": "https://dc.lft.to/lastmile_qr_scan", "ios": "https://dc.lft.to/lastmile_qr_scan"}, "type": "electric_scooter", "name": "0d18a651c45dd17732c7d18a8283f545"}, {"bike_id": "502f2db370cf7ee689ead845de8e6065", "lat": 38.905652, "is_disabled": 0, "lon": -77.0424235, "fusion_lon": 0.0, "is_reserved": 0, "fusion_lat": 0.0, "rental_uris": {"android": "https://dc.lft.to/lastmile_qr_scan", "ios": "https://dc.lft.to/lastmile_qr_scan"}, "type": "electric_scooter", "name": "502f2db370cf7ee689ead845de8e6065"}, {"bike_id": "3b1210c9fd72bc82d7d874d1af3b2189", "lat": 38.915165333333334, "is_disabled": 0, "lon": -76.98067283333333, "fusion_lon": 0.0, "is_reserved": 0, "fusion_lat": 0.0, "rental_uris": {"android": "https://dc.lft.to/lastmile_qr_scan", "ios": "https://dc.lft.to/lastmile_qr_scan"}, "type": "electric_scooter", "name": "3b1210c9fd72bc82d7d874d1af3b2189"}, {"bike_id": "bb7e3777f181595042329b4622c6b4be", "lat": 38.89469066666667, "is_disabled": 0, "lon": -77.01859766666666, "fusion_lon": 0.0, "is_reserved": 0, "fusion_lat": 0.0, "rental_uris": {"android": "https://dc.lft.to/lastmile_qr_scan", "ios": "https://dc.lft.to/lastmile_qr_scan"}, "type": "electric_scooter", "name": "bb7e3777f181595042329b4622c6b4be"}, {"bike_id": "36d8b402a02956b6d0fe79175b119324", "lat": 38.880709, "is_disabled": 0, "lon": -77.02558416666666, "fusion_lon": 0.0, "is_reserved": 0, "fusion_lat": 0.0, "rental_uris": {"android": "https://dc.lft.to/lastmile_qr_scan", "ios": "https://dc.lft.to/lastmile_qr_scan"}, "type": "electric_bike", "name": "36d8b402a02956b6d0fe79175b119324"}, {"bike_id": "39ceb1295bd10d3bb53e8e440b6faa96", "lat": 38.9330365, "is_disabled": 0, "lon": -77.03590133333333, "fusion_lon": 0.0, "is_reserved": 0, "fusion_lat": 0.0, "rental_uris": {"android": "https://dc.lft.to/lastmile_qr_scan", "ios": "https://dc.lft.to/lastmile_qr_scan"}, "type": "electric_scooter", "name": "39ceb1295bd10d3bb53e8e440b6faa96"}, {"bike_id": "033159efbc777f059a6cb5dc8dde7b67", "lat": 38.927843333333335, "is_disabled": 0, "lon": -77.03148283333333, "fusion_lon": 0.0, "is_reserved": 0, "fusion_lat": 0.0, "rental_uris": {"android": "https://dc.lft.to/lastmile_qr_scan", "ios": "https://dc.lft.to/lastmile_qr_scan"}, "type": "electric_scooter", "name": "033159efbc777f059a6cb5dc8dde7b67"}, {"bike_id": "6e3225b4e5d9d125e4c726aeddfbe424", "lat": 38.930666333333335, "is_disabled": 0, "lon": -77.0232075, "fusion_lon": 0.0, "is_reserved": 0, "fusion_lat": 0.0, "rental_uris": {"android": "https://dc.lft.to/lastmile_qr_scan", "ios": "https://dc.lft.to/lastmile_qr_scan"}, "type": "electric_scooter", "name": "6e3225b4e5d9d125e4c726aeddfbe424"}, {"bike_id": "4547c3c1befabe9694253c27cb44a8c9", "lat": 38.956062, "is_disabled": 0, "lon": -77.0903175, "fusion_lon": 0.0, "is_reserved": 0, "fusion_lat": 0.0, "rental_uris": {"android": "https://dc.lft.to/lastmile_qr_scan", "ios": "https://dc.lft.to/lastmile_qr_scan"}, "type": "electric_scooter", "name": "4547c3c1befabe9694253c27cb44a8c9"}, {"bike_id": "75a6104dfefa34fa3c8da940069c4667", "lat": 38.85452766666667, "is_disabled": 0, "lon": -76.97232866666667, "fusion_lon": 0.0, "is_reserved": 0, "fusion_lat": 0.0, "rental_uris": {"android": "https://dc.lft.to/lastmile_qr_scan", "ios": "https://dc.lft.to/lastmile_qr_scan"}, "type": "electric_scooter", "name": "75a6104dfefa34fa3c8da940069c4667"}, {"bike_id": "c2c0c77cf4055fbad0f8d6da7a4f38f5", "lat": 38.90106316666667, "is_disabled": 0, "lon": -77.02463, "fusion_lon": 0.0, "is_reserved": 0, "fusion_lat": 0.0, "rental_uris": {"android": "https://dc.lft.to/lastmile_qr_scan", "ios": "https://dc.lft.to/lastmile_qr_scan"}, "type": "electric_scooter", "name": "c2c0c77cf4055fbad0f8d6da7a4f38f5"}, {"bike_id": "8eb9f28302c91cf0a0f7811a763d59e8", "lat": 38.89226433333333, "is_disabled": 0, "lon": -77.04366933333333, "fusion_lon": 0.0, "is_reserved": 0, "fusion_lat": 0.0, "rental_uris": {"android": "https://dc.lft.to/lastmile_qr_scan", "ios": "https://dc.lft.to/lastmile_qr_scan"}, "type": "electric_scooter", "name": "8eb9f28302c91cf0a0f7811a763d59e8"}, {"bike_id": "16e80c3b8c98927b0c0330f0d4fcf6b3", "lat": 38.819142166666666, "is_disabled": 0, "lon": -77.1265545, "fusion_lon": 0.0, "is_reserved": 0, "fusion_lat": 0.0, "rental_uris": {"android": "https://dc.lft.to/lastmile_qr_scan", "ios": "https://dc.lft.to/lastmile_qr_scan"}, "type": "electric_bike", "name": "16e80c3b8c98927b0c0330f0d4fcf6b3"}, {"bike_id": "0d3e73a10b92f0b47b147161807aa181", "lat": 38.915939333333334, "is_disabled": 0, "lon": -77.0460535, "fusion_lon": 0.0, "is_reserved": 0, "fusion_lat": 0.0, "rental_uris": {"android": "https://dc.lft.to/lastmile_qr_scan", "ios": "https://dc.lft.to/lastmile_qr_scan"}, "type": "electric_scooter", "name": "0d3e73a10b92f0b47b147161807aa181"}, {"bike_id": "2c7469256167378f3a7d22f05df83241", "lat": 38.90031883333333, "is_disabled": 0, "lon": -77.0000755, "fusion_lon": 0.0, "is_reserved": 0, "fusion_lat": 0.0, "rental_uris": {"android": "https://dc.lft.to/lastmile_qr_scan", "ios": "https://dc.lft.to/lastmile_qr_scan"}, "type": "electric_scooter", "name": "2c7469256167378f3a7d22f05df83241"}, {"bike_id": "e727a4a0fae862ac042cccd3dcbcca3d", "lat": 38.897394, "is_disabled": 0, "lon": -77.0270995, "fusion_lon": 0.0, "is_reserved": 0, "fusion_lat": 0.0, "rental_uris": {"android": "https://dc.lft.to/lastmile_qr_scan", "ios": "https://dc.lft.to/lastmile_qr_scan"}, "type": "electric_scooter", "name": "e727a4a0fae862ac042cccd3dcbcca3d"}, {"bike_id": "a199ecdebe8c2b59840e41c1d1331f93", "lat": 38.9180825, "is_disabled": 0, "lon": -77.039316, "fusion_lon": 0.0, "is_reserved": 0, "fusion_lat": 0.0, "rental_uris": {"android": "https://dc.lft.to/lastmile_qr_scan", "ios": "https://dc.lft.to/lastmile_qr_scan"}, "type": "electric_scooter", "name": "a199ecdebe8c2b59840e41c1d1331f93"}, {"bike_id": "7f75e147a2c7de82254f6a4a5bc29301", "lat": 38.92940766666667, "is_disabled": 0, "lon": -77.03279916666666, "fusion_lon": 0.0, "is_reserved": 0, "fusion_lat": 0.0, "rental_uris": {"android": "https://dc.lft.to/lastmile_qr_scan", "ios": "https://dc.lft.to/lastmile_qr_scan"}, "type": "electric_scooter", "name": "7f75e147a2c7de82254f6a4a5bc29301"}, {"bike_id": "f36fa65866e18223aea17e6ac561b633", "lat": 38.88683966666667, "is_disabled": 0, "lon": -77.01369566666666, "fusion_lon": 0.0, "is_reserved": 0, "fusion_lat": 0.0, "rental_uris": {"android": "https://dc.lft.to/lastmile_qr_scan", "ios": "https://dc.lft.to/lastmile_qr_scan"}, "type": "electric_scooter", "name": "f36fa65866e18223aea17e6ac561b633"}, {"bike_id": "b28d29d7fc6db0c4faffe6aeb1f87b5b", "lat": 38.911057, "is_disabled": 0, "lon": -77.00725866666667, "fusion_lon": 0.0, "is_reserved": 0, "fusion_lat": 0.0, "rental_uris": {"android": "https://dc.lft.to/lastmile_qr_scan", "ios": "https://dc.lft.to/lastmile_qr_scan"}, "type": "electric_scooter", "name": "b28d29d7fc6db0c4faffe6aeb1f87b5b"}, {"bike_id": "5d827e859e842a4f367807ebdd43fc26", "lat": 38.91809133333334, "is_disabled": 0, "lon": -77.027157, "fusion_lon": 0.0, "is_reserved": 0, "fusion_lat": 0.0, "rental_uris": {"android": "https://dc.lft.to/lastmile_qr_scan", "ios": "https://dc.lft.to/lastmile_qr_scan"}, "type": "electric_scooter", "name": "5d827e859e842a4f367807ebdd43fc26"}, {"bike_id": "577b7f1b55354432da4a46dd72b753ae", "lat": 38.911871833333336, "is_disabled": 0, "lon": -77.04227066666667, "fusion_lon": 0.0, "is_reserved": 0, "fusion_lat": 0.0, "rental_uris": {"android": "https://dc.lft.to/lastmile_qr_scan", "ios": "https://dc.lft.to/lastmile_qr_scan"}, "type": "electric_scooter", "name": "577b7f1b55354432da4a46dd72b753ae"}, {"bike_id": "f1493920a55ac5a6749a972908c92f50", "lat": 38.92269366666667, "is_disabled": 0, "lon": -77.029751, "fusion_lon": 0.0, "is_reserved": 0, "fusion_lat": 0.0, "rental_uris": {"android": "https://dc.lft.to/lastmile_qr_scan", "ios": "https://dc.lft.to/lastmile_qr_scan"}, "type": "electric_scooter", "name": "f1493920a55ac5a6749a972908c92f50"}, {"bike_id": "d51d79bed13881d249e8925e9c50ff2f", "lat": 38.85725683333333, "is_disabled": 0, "lon": -76.97771616666667, "fusion_lon": 0.0, "is_reserved": 0, "fusion_lat": 0.0, "rental_uris": {"android": "https://dc.lft.to/lastmile_qr_scan", "ios": "https://dc.lft.to/lastmile_qr_scan"}, "type": "electric_bike", "name": "d51d79bed13881d249e8925e9c50ff2f"}, {"bike_id": "01ceec1c2e72bfeaf28182d61170f87e", "lat": 38.897267666666664, "is_disabled": 0, "lon": -77.02692116666667, "fusion_lon": 0.0, "is_reserved": 0, "fusion_lat": 0.0, "rental_uris": {"android": "https://dc.lft.to/lastmile_qr_scan", "ios": "https://dc.lft.to/lastmile_qr_scan"}, "type": "electric_scooter", "name": "01ceec1c2e72bfeaf28182d61170f87e"}, {"bike_id": "1bb1b9e59edc0296d5ad5b97861cbfe4", "lat": 38.9265985, "is_disabled": 0, "lon": -77.04317966666666, "fusion_lon": 0.0, "is_reserved": 0, "fusion_lat": 0.0, "rental_uris": {"android": "https://dc.lft.to/lastmile_qr_scan", "ios": "https://dc.lft.to/lastmile_qr_scan"}, "type": "electric_scooter", "name": "1bb1b9e59edc0296d5ad5b97861cbfe4"}, {"bike_id": "e00d9c9ecd67bf659fd0736fa9ce4ad9", "lat": 38.9223555, "is_disabled": 0, "lon": -77.04704433333333, "fusion_lon": 0.0, "is_reserved": 0, "fusion_lat": 0.0, "rental_uris": {"android": "https://dc.lft.to/lastmile_qr_scan", "ios": "https://dc.lft.to/lastmile_qr_scan"}, "type": "electric_scooter", "name": "e00d9c9ecd67bf659fd0736fa9ce4ad9"}, {"bike_id": "4bad0a87f3c97826de494afbcba51281", "lat": 38.91266383333333, "is_disabled": 0, "lon": -77.022525, "fusion_lon": 0.0, "is_reserved": 0, "fusion_lat": 0.0, "rental_uris": {"android": "https://dc.lft.to/lastmile_qr_scan", "ios": "https://dc.lft.to/lastmile_qr_scan"}, "type": "electric_scooter", "name": "4bad0a87f3c97826de494afbcba51281"}, {"bike_id": "87678676b105c275ad46ab75e659ecaf", "lat": 38.935570166666665, "is_disabled": 0, "lon": -77.0370475, "fusion_lon": 0.0, "is_reserved": 0, "fusion_lat": 0.0, "rental_uris": {"android": "https://dc.lft.to/lastmile_qr_scan", "ios": "https://dc.lft.to/lastmile_qr_scan"}, "type": "electric_bike", "name": "87678676b105c275ad46ab75e659ecaf"}, {"bike_id": "78adb18fb406802e9032b5d9fb3fb3a9", "lat": 38.88539383333333, "is_disabled": 0, "lon": -77.01101316666667, "fusion_lon": 0.0, "is_reserved": 0, "fusion_lat": 0.0, "rental_uris": {"android": "https://dc.lft.to/lastmile_qr_scan", "ios": "https://dc.lft.to/lastmile_qr_scan"}, "type": "electric_scooter", "name": "78adb18fb406802e9032b5d9fb3fb3a9"}, {"bike_id": "fcc4ad2fb30b6747e436daa88597c232", "lat": 38.919941666666666, "is_disabled": 0, "lon": -77.0322, "fusion_lon": 0.0, "is_reserved": 0, "fusion_lat": 0.0, "rental_uris": {"android": "https://dc.lft.to/lastmile_qr_scan", "ios": "https://dc.lft.to/lastmile_qr_scan"}, "type": "electric_scooter", "name": "fcc4ad2fb30b6747e436daa88597c232"}, {"bike_id": "6b6bc8b8b7e89212bac81bdae4482d37", "lat": 38.90791516666667, "is_disabled": 0, "lon": -77.03436566666667, "fusion_lon": 0.0, "is_reserved": 0, "fusion_lat": 0.0, "rental_uris": {"android": "https://dc.lft.to/lastmile_qr_scan", "ios": "https://dc.lft.to/lastmile_qr_scan"}, "type": "electric_scooter", "name": "6b6bc8b8b7e89212bac81bdae4482d37"}, {"bike_id": "638bd3c159c85771f42296ca1f17ef5b", "lat": 38.92567866666667, "is_disabled": 0, "lon": -76.95982366666667, "fusion_lon": 0.0, "is_reserved": 0, "fusion_lat": 0.0, "rental_uris": {"android": "https://dc.lft.to/lastmile_qr_scan", "ios": "https://dc.lft.to/lastmile_qr_scan"}, "type": "electric_bike", "name": "638bd3c159c85771f42296ca1f17ef5b"}, {"bike_id": "9aec7ed2a8cc3d3445458c76526b271b", "lat": 38.88146716666667, "is_disabled": 0, "lon": -77.02713116666666, "fusion_lon": 0.0, "is_reserved": 0, "fusion_lat": 0.0, "rental_uris": {"android": "https://dc.lft.to/lastmile_qr_scan", "ios": "https://dc.lft.to/lastmile_qr_scan"}, "type": "electric_scooter", "name": "9aec7ed2a8cc3d3445458c76526b271b"}, {"bike_id": "e40cbcb6f37a4d1b6a35f8ae28bd2768", "lat": 38.88519216666667, "is_disabled": 0, "lon": -77.00573383333334, "fusion_lon": 0.0, "is_reserved": 0, "fusion_lat": 0.0, "rental_uris": {"android": "https://dc.lft.to/lastmile_qr_scan", "ios": "https://dc.lft.to/lastmile_qr_scan"}, "type": "electric_scooter", "name": "e40cbcb6f37a4d1b6a35f8ae28bd2768"}, {"bike_id": "21bd308715d09ea023641d7c978cace0", "lat": 38.91839016666667, "is_disabled": 0, "lon": -77.00918383333334, "fusion_lon": 0.0, "is_reserved": 0, "fusion_lat": 0.0, "rental_uris": {"android": "https://dc.lft.to/lastmile_qr_scan", "ios": "https://dc.lft.to/lastmile_qr_scan"}, "type": "electric_scooter", "name": "21bd308715d09ea023641d7c978cace0"}, {"bike_id": "579aa62a1252f1af6f880b13cb946995", "lat": 38.9059545, "is_disabled": 0, "lon": -77.00654683333333, "fusion_lon": 0.0, "is_reserved": 0, "fusion_lat": 0.0, "rental_uris": {"android": "https://dc.lft.to/lastmile_qr_scan", "ios": "https://dc.lft.to/lastmile_qr_scan"}, "type": "electric_scooter", "name": "579aa62a1252f1af6f880b13cb946995"}, {"bike_id": "5ffce3a47a30dd415d41a5e2061d14c7", "lat": 38.8839585, "is_disabled": 0, "lon": -77.02945883333334, "fusion_lon": 0.0, "is_reserved": 0, "fusion_lat": 0.0, "rental_uris": {"android": "https://dc.lft.to/lastmile_qr_scan", "ios": "https://dc.lft.to/lastmile_qr_scan"}, "type": "electric_scooter", "name": "5ffce3a47a30dd415d41a5e2061d14c7"}, {"bike_id": "8b3512fbc1abb09cfb34759db3476c34", "lat": 38.9133665, "is_disabled": 0, "lon": -77.03325266666667, "fusion_lon": 0.0, "is_reserved": 0, "fusion_lat": 0.0, "rental_uris": {"android": "https://dc.lft.to/lastmile_qr_scan", "ios": "https://dc.lft.to/lastmile_qr_scan"}, "type": "electric_scooter", "name": "8b3512fbc1abb09cfb34759db3476c34"}, {"bike_id": "1b7f2d7ec625f6e98b0591b0d1b9ff48", "lat": 38.903886, "is_disabled": 0, "lon": -77.0480325, "fusion_lon": 0.0, "is_reserved": 0, "fusion_lat": 0.0, "rental_uris": {"android": "https://dc.lft.to/lastmile_qr_scan", "ios": "https://dc.lft.to/lastmile_qr_scan"}, "type": "electric_scooter", "name": "1b7f2d7ec625f6e98b0591b0d1b9ff48"}, {"bike_id": "a0d800de91a92896cadd9401106e1528", "lat": 38.88740466666667, "is_disabled": 0, "lon": -77.01524183333333, "fusion_lon": 0.0, "is_reserved": 0, "fusion_lat": 0.0, "rental_uris": {"android": "https://dc.lft.to/lastmile_qr_scan", "ios": "https://dc.lft.to/lastmile_qr_scan"}, "type": "electric_scooter", "name": "a0d800de91a92896cadd9401106e1528"}, {"bike_id": "11d0fbcbed61e1f77260ac96e0af5472", "lat": 38.83992666666666, "is_disabled": 0, "lon": -76.9769825, "fusion_lon": 0.0, "is_reserved": 0, "fusion_lat": 0.0, "rental_uris": {"android": "https://dc.lft.to/lastmile_qr_scan", "ios": "https://dc.lft.to/lastmile_qr_scan"}, "type": "electric_bike", "name": "11d0fbcbed61e1f77260ac96e0af5472"}, {"bike_id": "9c5d54d5b948f4c586110e284ae35e44", "lat": 38.898839333333335, "is_disabled": 0, "lon": -77.00919166666667, "fusion_lon": 0.0, "is_reserved": 0, "fusion_lat": 0.0, "rental_uris": {"android": "https://dc.lft.to/lastmile_qr_scan", "ios": "https://dc.lft.to/lastmile_qr_scan"}, "type": "electric_scooter", "name": "9c5d54d5b948f4c586110e284ae35e44"}, {"bike_id": "cb858749e823d7d2d511aa6e6a146941", "lat": 38.8718035, "is_disabled": 0, "lon": -77.006093, "fusion_lon": 0.0, "is_reserved": 0, "fusion_lat": 0.0, "rental_uris": {"android": "https://dc.lft.to/lastmile_qr_scan", "ios": "https://dc.lft.to/lastmile_qr_scan"}, "type": "electric_scooter", "name": "cb858749e823d7d2d511aa6e6a146941"}, {"bike_id": "3c56dc80ceb72ffe8b7061f82240b09b", "lat": 38.9065945, "is_disabled": 0, "lon": -76.9794065, "fusion_lon": 0.0, "is_reserved": 0, "fusion_lat": 0.0, "rental_uris": {"android": "https://dc.lft.to/lastmile_qr_scan", "ios": "https://dc.lft.to/lastmile_qr_scan"}, "type": "electric_scooter", "name": "3c56dc80ceb72ffe8b7061f82240b09b"}, {"bike_id": "b17cd544bf8626954eddd95790e3be51", "lat": 38.922548, "is_disabled": 0, "lon": -77.02055466666667, "fusion_lon": 0.0, "is_reserved": 0, "fusion_lat": 0.0, "rental_uris": {"android": "https://dc.lft.to/lastmile_qr_scan", "ios": "https://dc.lft.to/lastmile_qr_scan"}, "type": "electric_scooter", "name": "b17cd544bf8626954eddd95790e3be51"}, {"bike_id": "d2df6d375da01dbf20dc5d918e564491", "lat": 38.916982833333336, "is_disabled": 0, "lon": -77.03333066666667, "fusion_lon": 0.0, "is_reserved": 0, "fusion_lat": 0.0, "rental_uris": {"android": "https://dc.lft.to/lastmile_qr_scan", "ios": "https://dc.lft.to/lastmile_qr_scan"}, "type": "electric_scooter", "name": "d2df6d375da01dbf20dc5d918e564491"}, {"bike_id": "c533dde0d28d52aadb6d25741f610fdb", "lat": 38.877857166666665, "is_disabled": 0, "lon": -76.994086, "fusion_lon": 0.0, "is_reserved": 0, "fusion_lat": 0.0, "rental_uris": {"android": "https://dc.lft.to/lastmile_qr_scan", "ios": "https://dc.lft.to/lastmile_qr_scan"}, "type": "electric_scooter", "name": "c533dde0d28d52aadb6d25741f610fdb"}, {"bike_id": "fdf0d70baf71fa4357013c6936b8614b", "lat": 38.900331333333334, "is_disabled": 0, "lon": -77.02426033333333, "fusion_lon": 0.0, "is_reserved": 0, "fusion_lat": 0.0, "rental_uris": {"android": "https://dc.lft.to/lastmile_qr_scan", "ios": "https://dc.lft.to/lastmile_qr_scan"}, "type": "electric_scooter", "name": "fdf0d70baf71fa4357013c6936b8614b"}, {"bike_id": "45e0b6c6004cd9548b6b2f0c32ebee76", "lat": 38.87673566666667, "is_disabled": 0, "lon": -77.0093625, "fusion_lon": 0.0, "is_reserved": 0, "fusion_lat": 0.0, "rental_uris": {"android": "https://dc.lft.to/lastmile_qr_scan", "ios": "https://dc.lft.to/lastmile_qr_scan"}, "type": "electric_scooter", "name": "45e0b6c6004cd9548b6b2f0c32ebee76"}, {"bike_id": "b7996f89edbb5ac43cfac0a5cf68246b", "lat": 38.909747833333334, "is_disabled": 0, "lon": -76.99707216666667, "fusion_lon": 0.0, "is_reserved": 0, "fusion_lat": 0.0, "rental_uris": {"android": "https://dc.lft.to/lastmile_qr_scan", "ios": "https://dc.lft.to/lastmile_qr_scan"}, "type": "electric_scooter", "name": "b7996f89edbb5ac43cfac0a5cf68246b"}, {"bike_id": "4f9534be321fc579ede1d719369ef735", "lat": 38.88555, "is_disabled": 0, "lon": -76.9979625, "fusion_lon": 0.0, "is_reserved": 0, "fusion_lat": 0.0, "rental_uris": {"android": "https://dc.lft.to/lastmile_qr_scan", "ios": "https://dc.lft.to/lastmile_qr_scan"}, "type": "electric_scooter", "name": "4f9534be321fc579ede1d719369ef735"}, {"bike_id": "d56d092eaf6b7823c8d0da75984dc64f", "lat": 38.918005, "is_disabled": 0, "lon": -77.02954366666667, "fusion_lon": 0.0, "is_reserved": 0, "fusion_lat": 0.0, "rental_uris": {"android": "https://dc.lft.to/lastmile_qr_scan", "ios": "https://dc.lft.to/lastmile_qr_scan"}, "type": "electric_scooter", "name": "d56d092eaf6b7823c8d0da75984dc64f"}, {"bike_id": "0977270c80f8bbc00af723627454b590", "lat": 38.862610333333336, "is_disabled": 0, "lon": -76.98350566666667, "fusion_lon": 0.0, "is_reserved": 0, "fusion_lat": 0.0, "rental_uris": {"android": "https://dc.lft.to/lastmile_qr_scan", "ios": "https://dc.lft.to/lastmile_qr_scan"}, "type": "electric_bike", "name": "0977270c80f8bbc00af723627454b590"}, {"bike_id": "090210e7e293aa5a2d103bc6cffdcd13", "lat": 38.897440833333334, "is_disabled": 0, "lon": -77.0397355, "fusion_lon": 0.0, "is_reserved": 0, "fusion_lat": 0.0, "rental_uris": {"android": "https://dc.lft.to/lastmile_qr_scan", "ios": "https://dc.lft.to/lastmile_qr_scan"}, "type": "electric_scooter", "name": "090210e7e293aa5a2d103bc6cffdcd13"}, {"bike_id": "0563d597e9f95acd235ace638ec3719e", "lat": 38.906681, "is_disabled": 0, "lon": -77.03864166666666, "fusion_lon": 0.0, "is_reserved": 0, "fusion_lat": 0.0, "rental_uris": {"android": "https://dc.lft.to/lastmile_qr_scan", "ios": "https://dc.lft.to/lastmile_qr_scan"}, "type": "electric_scooter", "name": "0563d597e9f95acd235ace638ec3719e"}, {"bike_id": "14951b9dbd6295989c920687d94ad3c3", "lat": 38.905742833333335, "is_disabled": 0, "lon": -77.04603416666667, "fusion_lon": 0.0, "is_reserved": 0, "fusion_lat": 0.0, "rental_uris": {"android": "https://dc.lft.to/lastmile_qr_scan", "ios": "https://dc.lft.to/lastmile_qr_scan"}, "type": "electric_scooter", "name": "14951b9dbd6295989c920687d94ad3c3"}, {"bike_id": "ac7b50f27986b32e1d083d6f7b9b77df", "lat": 38.862344666666665, "is_disabled": 0, "lon": -76.99593566666667, "fusion_lon": 0.0, "is_reserved": 0, "fusion_lat": 0.0, "rental_uris": {"android": "https://dc.lft.to/lastmile_qr_scan", "ios": "https://dc.lft.to/lastmile_qr_scan"}, "type": "electric_bike", "name": "ac7b50f27986b32e1d083d6f7b9b77df"}, {"bike_id": "8415049ff3897eb2ca798a4366529a37", "lat": 38.917593, "is_disabled": 0, "lon": -77.02337733333333, "fusion_lon": 0.0, "is_reserved": 0, "fusion_lat": 0.0, "rental_uris": {"android": "https://dc.lft.to/lastmile_qr_scan", "ios": "https://dc.lft.to/lastmile_qr_scan"}, "type": "electric_scooter", "name": "8415049ff3897eb2ca798a4366529a37"}, {"bike_id": "946297b195e1f3357b61a86bccf4516d", "lat": 38.920299, "is_disabled": 0, "lon": -77.029714, "fusion_lon": 0.0, "is_reserved": 0, "fusion_lat": 0.0, "rental_uris": {"android": "https://dc.lft.to/lastmile_qr_scan", "ios": "https://dc.lft.to/lastmile_qr_scan"}, "type": "electric_scooter", "name": "946297b195e1f3357b61a86bccf4516d"}, {"bike_id": "8fc208b333799aa78656d6cfd85b25ef", "lat": 38.89624283333333, "is_disabled": 0, "lon": -77.03215216666666, "fusion_lon": 0.0, "is_reserved": 0, "fusion_lat": 0.0, "rental_uris": {"android": "https://dc.lft.to/lastmile_qr_scan", "ios": "https://dc.lft.to/lastmile_qr_scan"}, "type": "electric_scooter", "name": "8fc208b333799aa78656d6cfd85b25ef"}, {"bike_id": "516893039533a01102850735a2fe59ce", "lat": 38.900018333333335, "is_disabled": 0, "lon": -77.02218033333334, "fusion_lon": 0.0, "is_reserved": 0, "fusion_lat": 0.0, "rental_uris": {"android": "https://dc.lft.to/lastmile_qr_scan", "ios": "https://dc.lft.to/lastmile_qr_scan"}, "type": "electric_scooter", "name": "516893039533a01102850735a2fe59ce"}, {"bike_id": "86a94e76c85aa8eb0396ad9d3713c4fc", "lat": 38.92064516666667, "is_disabled": 0, "lon": -77.01695966666666, "fusion_lon": 0.0, "is_reserved": 0, "fusion_lat": 0.0, "rental_uris": {"android": "https://dc.lft.to/lastmile_qr_scan", "ios": "https://dc.lft.to/lastmile_qr_scan"}, "type": "electric_scooter", "name": "86a94e76c85aa8eb0396ad9d3713c4fc"}, {"bike_id": "e407c0fb4f3f54ad4e47ef5ca9fe7680", "lat": 38.8871975, "is_disabled": 0, "lon": -77.0198105, "fusion_lon": 0.0, "is_reserved": 0, "fusion_lat": 0.0, "rental_uris": {"android": "https://dc.lft.to/lastmile_qr_scan", "ios": "https://dc.lft.to/lastmile_qr_scan"}, "type": "electric_scooter", "name": "e407c0fb4f3f54ad4e47ef5ca9fe7680"}, {"bike_id": "8f3b0c76e09dce813863ae19a12aee11", "lat": 38.9072945, "is_disabled": 0, "lon": -77.04775733333334, "fusion_lon": 0.0, "is_reserved": 0, "fusion_lat": 0.0, "rental_uris": {"android": "https://dc.lft.to/lastmile_qr_scan", "ios": "https://dc.lft.to/lastmile_qr_scan"}, "type": "electric_scooter", "name": "8f3b0c76e09dce813863ae19a12aee11"}, {"bike_id": "a201d0375aab52e7f4c03134fcf0d8cc", "lat": 38.899059666666666, "is_disabled": 0, "lon": -77.031953, "fusion_lon": 0.0, "is_reserved": 0, "fusion_lat": 0.0, "rental_uris": {"android": "https://dc.lft.to/lastmile_qr_scan", "ios": "https://dc.lft.to/lastmile_qr_scan"}, "type": "electric_scooter", "name": "a201d0375aab52e7f4c03134fcf0d8cc"}, {"bike_id": "0629f0db092bad7570a091338d03efca", "lat": 38.912633666666665, "is_disabled": 0, "lon": -77.03907333333333, "fusion_lon": 0.0, "is_reserved": 0, "fusion_lat": 0.0, "rental_uris": {"android": "https://dc.lft.to/lastmile_qr_scan", "ios": "https://dc.lft.to/lastmile_qr_scan"}, "type": "electric_scooter", "name": "0629f0db092bad7570a091338d03efca"}, {"bike_id": "5a4ac81784d0c46490434fcefaf913f6", "lat": 38.911777666666666, "is_disabled": 0, "lon": -77.0019145, "fusion_lon": 0.0, "is_reserved": 0, "fusion_lat": 0.0, "rental_uris": {"android": "https://dc.lft.to/lastmile_qr_scan", "ios": "https://dc.lft.to/lastmile_qr_scan"}, "type": "electric_scooter", "name": "5a4ac81784d0c46490434fcefaf913f6"}, {"bike_id": "bc87ce4c42f602f6821f11508ac06403", "lat": 38.899674833333336, "is_disabled": 0, "lon": -76.98679066666666, "fusion_lon": 0.0, "is_reserved": 0, "fusion_lat": 0.0, "rental_uris": {"android": "https://dc.lft.to/lastmile_qr_scan", "ios": "https://dc.lft.to/lastmile_qr_scan"}, "type": "electric_bike", "name": "bc87ce4c42f602f6821f11508ac06403"}, {"bike_id": "94825c2e2101229841f53d804f4855cb", "lat": 38.918397166666665, "is_disabled": 0, "lon": -77.06885833333334, "fusion_lon": 0.0, "is_reserved": 0, "fusion_lat": 0.0, "rental_uris": {"android": "https://dc.lft.to/lastmile_qr_scan", "ios": "https://dc.lft.to/lastmile_qr_scan"}, "type": "electric_scooter", "name": "94825c2e2101229841f53d804f4855cb"}, {"bike_id": "3c84aee2136498258c66d2ef6183a3c9", "lat": 38.9036545, "is_disabled": 0, "lon": -77.01622933333333, "fusion_lon": 0.0, "is_reserved": 0, "fusion_lat": 0.0, "rental_uris": {"android": "https://dc.lft.to/lastmile_qr_scan", "ios": "https://dc.lft.to/lastmile_qr_scan"}, "type": "electric_scooter", "name": "3c84aee2136498258c66d2ef6183a3c9"}, {"bike_id": "4b4dfa21a9a753434c3bc6cd8cf0018d", "lat": 38.92456683333333, "is_disabled": 0, "lon": -77.04037883333334, "fusion_lon": 0.0, "is_reserved": 0, "fusion_lat": 0.0, "rental_uris": {"android": "https://dc.lft.to/lastmile_qr_scan", "ios": "https://dc.lft.to/lastmile_qr_scan"}, "type": "electric_scooter", "name": "4b4dfa21a9a753434c3bc6cd8cf0018d"}, {"bike_id": "f67ff27f090b0805cff3696b8681798d", "lat": 38.923466, "is_disabled": 0, "lon": -77.019078, "fusion_lon": 0.0, "is_reserved": 0, "fusion_lat": 0.0, "rental_uris": {"android": "https://dc.lft.to/lastmile_qr_scan", "ios": "https://dc.lft.to/lastmile_qr_scan"}, "type": "electric_scooter", "name": "f67ff27f090b0805cff3696b8681798d"}, {"bike_id": "b2ad48d97c49525a85cec5844761dff2", "lat": 38.91697583333333, "is_disabled": 0, "lon": -77.0267395, "fusion_lon": 0.0, "is_reserved": 0, "fusion_lat": 0.0, "rental_uris": {"android": "https://dc.lft.to/lastmile_qr_scan", "ios": "https://dc.lft.to/lastmile_qr_scan"}, "type": "electric_scooter", "name": "b2ad48d97c49525a85cec5844761dff2"}, {"bike_id": "7161c94fe988c6faa975b6aeacdc0d94", "lat": 38.89200683333333, "is_disabled": 0, "lon": -76.956948, "fusion_lon": 0.0, "is_reserved": 0, "fusion_lat": 0.0, "rental_uris": {"android": "https://dc.lft.to/lastmile_qr_scan", "ios": "https://dc.lft.to/lastmile_qr_scan"}, "type": "electric_scooter", "name": "7161c94fe988c6faa975b6aeacdc0d94"}, {"bike_id": "bc1a5315de98101cc069c1d619f24694", "lat": 38.87456366666667, "is_disabled": 0, "lon": -77.00583283333333, "fusion_lon": 0.0, "is_reserved": 0, "fusion_lat": 0.0, "rental_uris": {"android": "https://dc.lft.to/lastmile_qr_scan", "ios": "https://dc.lft.to/lastmile_qr_scan"}, "type": "electric_scooter", "name": "bc1a5315de98101cc069c1d619f24694"}, {"bike_id": "2c2485039e136724259335985b6fd72e", "lat": 38.87459916666667, "is_disabled": 0, "lon": -77.00406516666666, "fusion_lon": 0.0, "is_reserved": 0, "fusion_lat": 0.0, "rental_uris": {"android": "https://dc.lft.to/lastmile_qr_scan", "ios": "https://dc.lft.to/lastmile_qr_scan"}, "type": "electric_scooter", "name": "2c2485039e136724259335985b6fd72e"}, {"bike_id": "bc1c61227e82788e0ee002d43123c28f", "lat": 38.90042016666666, "is_disabled": 0, "lon": -76.99752416666666, "fusion_lon": 0.0, "is_reserved": 0, "fusion_lat": 0.0, "rental_uris": {"android": "https://dc.lft.to/lastmile_qr_scan", "ios": "https://dc.lft.to/lastmile_qr_scan"}, "type": "electric_scooter", "name": "bc1c61227e82788e0ee002d43123c28f"}, {"bike_id": "5c6ddcfa4b74122839ad66232ca27bbf", "lat": 38.904736666666665, "is_disabled": 0, "lon": -77.00593933333333, "fusion_lon": 0.0, "is_reserved": 0, "fusion_lat": 0.0, "rental_uris": {"android": "https://dc.lft.to/lastmile_qr_scan", "ios": "https://dc.lft.to/lastmile_qr_scan"}, "type": "electric_scooter", "name": "5c6ddcfa4b74122839ad66232ca27bbf"}, {"bike_id": "dd6d9325b6e24ee51948a63bce2e7c70", "lat": 38.87575283333334, "is_disabled": 0, "lon": -77.005957, "fusion_lon": 0.0, "is_reserved": 0, "fusion_lat": 0.0, "rental_uris": {"android": "https://dc.lft.to/lastmile_qr_scan", "ios": "https://dc.lft.to/lastmile_qr_scan"}, "type": "electric_scooter", "name": "dd6d9325b6e24ee51948a63bce2e7c70"}, {"bike_id": "f82f373c8dc3c6b5ff9bee52ed0e134c", "lat": 38.91817066666667, "is_disabled": 0, "lon": -77.03167833333333, "fusion_lon": 0.0, "is_reserved": 0, "fusion_lat": 0.0, "rental_uris": {"android": "https://dc.lft.to/lastmile_qr_scan", "ios": "https://dc.lft.to/lastmile_qr_scan"}, "type": "electric_scooter", "name": "f82f373c8dc3c6b5ff9bee52ed0e134c"},