{"data": {"bikes": [{"lon": -77.0515295, "fusion_lon": 0.0, "bike_id": "6190de913f09607d4a9946b0768975bd", "type": "electric_scooter", "name": "6190de913f09607d4a9946b0768975bd", "rental_uris": {"android": "https://dc.lft.to/lastmile_qr_scan", "ios": "https://dc.lft.to/lastmile_qr_scan"}, "is_disabled": 0, "fusion_lat": 0.0, "lat": 38.9237605, "is_reserved": 0}, {"lon": -77.02824383333333, "fusion_lon": 0.0, "bike_id": "bd84ce6e3b866cacf8998aa1270918b6", "type": "electric_scooter", "name": "bd84ce6e3b866cacf8998aa1270918b6", "rental_uris": {"android": "https://dc.lft.to/lastmile_qr_scan", "ios": "https://dc.lft.to/lastmile_qr_scan"}, "is_disabled": 0, "fusion_lat": 0.0, "lat": 38.89342333333333, "is_reserved": 0}, {"lon": -77.09963433333333, "fusion_lon": 0.0, "bike_id": "2f7e1965751228797e180cc7ca9aafb5", "type": "electric_bike", "name": "2f7e1965751228797e180cc7ca9aafb5", "rental_uris": {"android": "https://dc.lft.to/lastmile_qr_scan", "ios": "https://dc.lft.to/lastmile_qr_scan"}, "is_disabled": 0, "fusion_lat": 0.0, "lat": 38.857914666666666, "is_reserved": 0}, {"lon": -76.9724035, "fusion_lon": 0.0, "bike_id": "a71cd81fc480ad3c0c3814c4b5bb74c6", "type": "electric_bike", "name": "a71cd81fc480ad3c0c3814c4b5bb74c6", "rental_uris": {"android": "https://dc.lft.to/lastmile_qr_scan", "ios": "https://dc.lft.to/lastmile_qr_scan"}, "is_disabled": 0, "fusion_lat": 0.0, "lat": 38.90425116666667, "is_reserved": 0}, {"lon": -76.98764183333333, "fusion_lon": 0.0, "bike_id": "012522cecede3d664a6c8b9eb1449987", "type": "electric_scooter", "name": "012522cecede3d664a6c8b9eb1449987", "rental_uris": {"android": "https://dc.lft.to/lastmile_qr_scan", "ios": "https://dc.lft.to/lastmile_qr_scan"}, "is_disabled": 0, "fusion_lat": 0.0, "lat": 38.900284666666664, "is_reserved": 0}, {"lon": -77.03126316666666, "fusion_lon": 0.0, "bike_id": "ea77e990efaf4c7408dd4735950bfdb3", "type": "electric_scooter", "name": "ea77e990efaf4c7408dd4735950bfdb3", "rental_uris": {"android": "https://dc.lft.to/lastmile_qr_scan", "ios": "https://dc.lft.to/lastmile_qr_scan"}, "is_disabled": 0, "fusion_lat": 0.0, "lat": 38.9169735, "is_reserved": 0}, {"lon": -77.00609483333334, "fusion_lon": 0.0, "bike_id": "2dbc91ebaa09e58d307f056105bd7aa4", "type": "electric_scooter", "name": "2dbc91ebaa09e58d307f056105bd7aa4", "rental_uris": {"android": "https://dc.lft.to/lastmile_qr_scan", "ios": "https://dc.lft.to/lastmile_qr_scan"}, "is_disabled": 0, "fusion_lat": 0.0, "lat": 38.87176616666667, "is_reserved": 0}, {"lon": -77.04532933333333, "fusion_lon": 0.0, "bike_id": "c7117282ae5dac0287cd0dcb9d80605b", "type": "electric_bike", "name": "c7117282ae5dac0287cd0dcb9d80605b", "rental_uris": {"android": "https://dc.lft.to/lastmile_qr_scan", "ios": "https://dc.lft.to/lastmile_qr_scan"}, "is_disabled": 0, "fusion_lat": 0.0, "lat": 39.033081333333335, "is_reserved": 0}, {"lon": -77.02093183333334, "fusion_lon": 0.0, "bike_id": "186bf67a7ff500da06324ab903bf97ce", "type": "electric_scooter", "name": "186bf67a7ff500da06324ab903bf97ce", "rental_uris": {"android": "https://dc.lft.to/lastmile_qr_scan", "ios": "https://dc.lft.to/lastmile_qr_scan"}, "is_disabled": 0, "fusion_lat": 0.0, "lat": 38.96645633333333, "is_reserved": 0}, {"lon": -77.039505, "fusion_lon": 0.0, "bike_id": "e8ad90a6bb76406887b502f1cc8632c0", "type": "electric_scooter", "name": "e8ad90a6bb76406887b502f1cc8632c0", "rental_uris": {"android": "https://dc.lft.to/lastmile_qr_scan", "ios": "https://dc.lft.to/lastmile_qr_scan"}, "is_disabled": 0, "fusion_lat": 0.0, "lat": 38.90388266666667, "is_reserved": 0}, {"lon": -77.04226716666666, "fusion_lon": 0.0, "bike_id": "7481c544880f7f39da3a5bda62a71d68", "type": "electric_scooter", "name": "7481c544880f7f39da3a5bda62a71d68", "rental_uris": {"android": "https://dc.lft.to/lastmile_qr_scan", "ios": "https://dc.lft.to/lastmile_qr_scan"}, "is_disabled": 0, "fusion_lat": 0.0, "lat": 38.9141145, "is_reserved": 0}, {"lon": -76.95835633333333, "fusion_lon": 0.0, "bike_id": "30987861539df88dbe1f371a96a4b7b5", "type": "electric_bike", "name": "30987861539df88dbe1f371a96a4b7b5", "rental_uris": {"android": "https://dc.lft.to/lastmile_qr_scan", "ios": "https://dc.lft.to/lastmile_qr_scan"}, "is_disabled": 0, "fusion_lat": 0.0, "lat": 38.93045633333333, "is_reserved": 0}, {"lon": -77.0591985, "fusion_lon": 0.0, "bike_id": "81d91eb660e3fecdf83dc1b79360d941", "type": "electric_scooter", "name": "81d91eb660e3fecdf83dc1b79360d941", "rental_uris": {"android": "https://dc.lft.to/lastmile_qr_scan", "ios": "https://dc.lft.to/lastmile_qr_scan"}, "is_disabled": 0, "fusion_lat": 0.0, "lat": 38.9027235, "is_reserved": 0}, {"lon": -77.02846966666667, "fusion_lon": 0.0, "bike_id": "93ba18da197c41a4966c0d05e35902e7", "type": "electric_scooter", "name": "93ba18da197c41a4966c0d05e35902e7", "rental_uris": {"android": "https://dc.lft.to/lastmile_qr_scan", "ios": "https://dc.lft.to/lastmile_qr_scan"}, "is_disabled": 0, "fusion_lat": 0.0, "lat": 38.893441833333334, "is_reserved": 0}, {"lon": -77.03184966666667, "fusion_lon": 0.0, "bike_id": "3c9e2e8e3c2a9197d95fc8e9f3e6a716", "type": "electric_scooter", "name": "3c9e2e8e3c2a9197d95fc8e9f3e6a716", "rental_uris": {"android": "https://dc.lft.to/lastmile_qr_scan", "ios": "https://dc.lft.to/lastmile_qr_scan"}, "is_disabled": 0, "fusion_lat": 0.0, "lat": 38.918467166666666, "is_reserved": 0}, {"lon": -77.01459683333333, "fusion_lon": 0.0, "bike_id": "439d7442621b2a4cebf1a6f92168fdce", "type": "electric_scooter", "name": "439d7442621b2a4cebf1a6f92168fdce", "rental_uris": {"android": "https://dc.lft.to/lastmile_qr_scan", "ios": "https://dc.lft.to/lastmile_qr_scan"}, "is_disabled": 0, "fusion_lat": 0.0, "lat": 38.9158475, "is_reserved": 0}, {"lon": -77.00199683333334, "fusion_lon": 0.0, "bike_id": "2c3d99a296238878700a514f3f7ec48f", "type": "electric_scooter", "name": "2c3d99a296238878700a514f3f7ec48f", "rental_uris": {"android": "https://dc.lft.to/lastmile_qr_scan", "ios": "https://dc.lft.to/lastmile_qr_scan"}, "is_disabled": 0, "fusion_lat": 0.0, "lat": 38.9023265, "is_reserved": 0}, {"lon": -77.022277, "fusion_lon": 0.0, "bike_id": "a615d3816f2b1e3bea1b83387a593520", "type": "electric_scooter", "name": "a615d3816f2b1e3bea1b83387a593520", "rental_uris": {"android": "https://dc.lft.to/lastmile_qr_scan", "ios": "https://dc.lft.to/lastmile_qr_scan"}, "is_disabled": 0, "fusion_lat": 0.0, "lat": 38.892213, "is_reserved": 0}, {"lon": -77.0391905, "fusion_lon": 0.0, "bike_id": "6dde3e5f4ae5e22d129021e7444e02fa", "type": "electric_scooter", "name": "6dde3e5f4ae5e22d129021e7444e02fa", "rental_uris": {"android": "https://dc.lft.to/lastmile_qr_scan", "ios": "https://dc.lft.to/lastmile_qr_scan"}, "is_disabled": 0, "fusion_lat": 0.0, "lat": 38.912669333333334, "is_reserved": 0}, {"lon": -77.03840416666667, "fusion_lon": 0.0, "bike_id": "35039463cb74037c92da99d8efc114d0", "type": "electric_scooter", "name": "35039463cb74037c92da99d8efc114d0", "rental_uris": {"android": "https://dc.lft.to/lastmile_qr_scan", "ios": "https://dc.lft.to/lastmile_qr_scan"}, "is_disabled": 0, "fusion_lat": 0.0, "lat": 38.941912, "is_reserved": 0}, {"lon": -77.00000216666666, "fusion_lon": 0.0, "bike_id": "0cb1061f1f3931ad385e04a22ad378d7", "type": "electric_scooter", "name": "0cb1061f1f3931ad385e04a22ad378d7", "rental_uris": {"android": "https://dc.lft.to/lastmile_qr_scan", "ios": "https://dc.lft.to/lastmile_qr_scan"}, "is_disabled": 0, "fusion_lat": 0.0, "lat": 38.90677633333333, "is_reserved": 0}, {"lon": -77.0297485, "fusion_lon": 0.0, "bike_id": "13a9ef48bf0050d6bf3e71388288be66", "type": "electric_scooter", "name": "13a9ef48bf0050d6bf3e71388288be66", "rental_uris": {"android": "https://dc.lft.to/lastmile_qr_scan", "ios": "https://dc.lft.to/lastmile_qr_scan"}, "is_disabled": 0, "fusion_lat": 0.0, "lat": 38.890368333333335, "is_reserved": 0}, {"lon": -77.04700083333333, "fusion_lon": 0.0, "bike_id": "50ffad7b3fa45b40664ffaef4e11a322", "type": "electric_scooter", "name": "50ffad7b3fa45b40664ffaef4e11a322", "rental_uris": {"android": "https://dc.lft.to/lastmile_qr_scan", "ios": "https://dc.lft.to/lastmile_qr_scan"}, "is_disabled": 0, "fusion_lat": 0.0, "lat": 38.921855, "is_reserved": 0}, {"lon": -77.00567466666666, "fusion_lon": 0.0, "bike_id": "e09b29e1d576fbf8ebd75ebdd1773576", "type": "electric_scooter", "name": "e09b29e1d576fbf8ebd75ebdd1773576", "rental_uris": {"android": "https://dc.lft.to/lastmile_qr_scan", "ios": "https://dc.lft.to/lastmile_qr_scan"}, "is_disabled": 0, "fusion_lat": 0.0, "lat": 38.876634, "is_reserved": 0}, {"lon": -77.007768, "fusion_lon": 0.0, "bike_id": "25a0d692ca221a5ffd9ee3690b4eff81", "type": "electric_scooter", "name": "25a0d692ca221a5ffd9ee3690b4eff81", "rental_uris": {"android": "https://dc.lft.to/lastmile_qr_scan", "ios": "https://dc.lft.to/lastmile_qr_scan"}, "is_disabled": 0, "fusion_lat": 0.0, "lat": 38.90722133333333, "is_reserved": 0}, {"lon": -76.98085366666666, "fusion_lon": 0.0, "bike_id": "1d1869577b1d949e558c5cd97e4f2b18", "type": "electric_scooter", "name": "1d1869577b1d949e558c5cd97e4f2b18", "rental_uris": {"android": "https://dc.lft.to/lastmile_qr_scan", "ios": "https://dc.lft.to/lastmile_qr_scan"}, "is_disabled": 0, "fusion_lat": 0.0, "lat": 38.922449666666665, "is_reserved": 0}, {"lon": -76.995018, "fusion_lon": 0.0, "bike_id": "daf06e59609d438c770fbb48a24a5ab7", "type": "electric_scooter", "name": "daf06e59609d438c770fbb48a24a5ab7", "rental_uris": {"android": "https://dc.lft.to/lastmile_qr_scan", "ios": "https://dc.lft.to/lastmile_qr_scan"}, "is_disabled": 0, "fusion_lat": 0.0, "lat": 38.9098065, "is_reserved": 0}, {"lon": -77.0338905, "fusion_lon": 0.0, "bike_id": "fa1f04535f2b9cb07d0d6dcd022d7935", "type": "electric_scooter", "name": "fa1f04535f2b9cb07d0d6dcd022d7935", "rental_uris": {"android": "https://dc.lft.to/lastmile_qr_scan", "ios": "https://dc.lft.to/lastmile_qr_scan"}, "is_disabled": 0, "fusion_lat": 0.0, "lat": 38.92158383333334, "is_reserved": 0}, {"lon": -77.03442166666666, "fusion_lon": 0.0, "bike_id": "570cf2fba23d88e9bac5f5b6253a8ff7", "type": "electric_scooter", "name": "570cf2fba23d88e9bac5f5b6253a8ff7", "rental_uris": {"android": "https://dc.lft.to/lastmile_qr_scan", "ios": "https://dc.lft.to/lastmile_qr_scan"}, "is_disabled": 0, "fusion_lat": 0.0, "lat": 38.902694833333335, "is_reserved": 0}, {"lon": -77.03176433333333, "fusion_lon": 0.0, "bike_id": "311901c1af7d9dd016317ae50e91c89e", "type": "electric_scooter", "name": "311901c1af7d9dd016317ae50e91c89e", "rental_uris": {"android": "https://dc.lft.to/lastmile_qr_scan", "ios": "https://dc.lft.to/lastmile_qr_scan"}, "is_disabled": 0, "fusion_lat": 0.0, "lat": 38.90992166666667, "is_reserved": 0}, {"lon": -77.03262516666666, "fusion_lon": 0.0, "bike_id": "5a6e8e04b15c82c8712d30b15cb558e9", "type": "electric_scooter", "name": "5a6e8e04b15c82c8712d30b15cb558e9", "rental_uris": {"android": "https://dc.lft.to/lastmile_qr_scan", "ios": "https://dc.lft.to/lastmile_qr_scan"}, "is_disabled": 0, "fusion_lat": 0.0, "lat": 38.9015215, "is_reserved": 0}, {"lon": -76.99604583333333, "fusion_lon": 0.0, "bike_id": "79afb53fe13e56b8fc61e04bf2e4a68d", "type": "electric_scooter", "name": "79afb53fe13e56b8fc61e04bf2e4a68d", "rental_uris": {"android": "https://dc.lft.to/lastmile_qr_scan", "ios": "https://dc.lft.to/lastmile_qr_scan"}, "is_disabled": 0, "fusion_lat": 0.0, "lat": 38.856927666666664, "is_reserved": 0}, {"lon": -76.93364833333334, "fusion_lon": 0.0, "bike_id": "32317ed576dd7bf417e639dfa28bf719", "type": "electric_scooter", "name": "32317ed576dd7bf417e639dfa28bf719", "rental_uris": {"android": "https://dc.lft.to/lastmile_qr_scan", "ios": "https://dc.lft.to/lastmile_qr_scan"}, "is_disabled": 0, "fusion_lat": 0.0, "lat": 38.899038833333336, "is_reserved": 0}, {"lon": -77.02347916666666, "fusion_lon": 0.0, "bike_id": "9828b6ab6aebd582951064a4078bb48f", "type": "electric_scooter", "name": "9828b6ab6aebd582951064a4078bb48f", "rental_uris": {"android": "https://dc.lft.to/lastmile_qr_scan", "ios": "https://dc.lft.to/lastmile_qr_scan"}, "is_disabled": 0, "fusion_lat": 0.0, "lat": 38.893876166666665, "is_reserved": 0}, {"lon": -77.00446833333334, "fusion_lon": 0.0, "bike_id": "84350a16005e8a2333c83f397b2afea2", "type": "electric_bike", "name": "84350a16005e8a2333c83f397b2afea2", "rental_uris": {"android": "https://dc.lft.to/lastmile_qr_scan", "ios": "https://dc.lft.to/lastmile_qr_scan"}, "is_disabled": 0, "fusion_lat": 0.0, "lat": 38.912, "is_reserved": 0}, {"lon": -77.00267166666667, "fusion_lon": 0.0, "bike_id": "3a3656083fef9eb171109a5b56fa2951", "type": "electric_scooter", "name": "3a3656083fef9eb171109a5b56fa2951", "rental_uris": {"android": "https://dc.lft.to/lastmile_qr_scan", "ios": "https://dc.lft.to/lastmile_qr_scan"}, "is_disabled": 0, "fusion_lat": 0.0, "lat": 38.90582766666667, "is_reserved": 0}, {"lon": -77.0153615, "fusion_lon": 0.0, "bike_id": "05fa6790774e6afdf7cbc6dace4072a3", "type": "electric_scooter", "name": "05fa6790774e6afdf7cbc6dace4072a3", "rental_uris": {"android": "https://dc.lft.to/lastmile_qr_scan", "ios": "https://dc.lft.to/lastmile_qr_scan"}, "is_disabled": 0, "fusion_lat": 0.0, "lat": 38.887403, "is_reserved": 0}, {"lon": -77.0213305, "fusion_lon": 0.0, "bike_id": "99a792bbfd25b6a982a77524123dacd6", "type": "electric_scooter", "name": "99a792bbfd25b6a982a77524123dacd6", "rental_uris": {"android": "https://dc.lft.to/lastmile_qr_scan", "ios": "https://dc.lft.to/lastmile_qr_scan"}, "is_disabled": 0, "fusion_lat": 0.0, "lat": 38.92336866666667, "is_reserved": 0}, {"lon": -76.96913466666666, "fusion_lon": 0.0, "bike_id": "fb4131cb909ae442021170c7645ee2b8", "type": "electric_bike", "name": "fb4131cb909ae442021170c7645ee2b8", "rental_uris": {"android": "https://dc.lft.to/lastmile_qr_scan", "ios": "https://dc.lft.to/lastmile_qr_scan"}, "is_disabled": 0, "fusion_lat": 0.0, "lat": 38.8461135, "is_reserved": 0}, {"lon": -77.014278, "fusion_lon": 0.0, "bike_id": "21e7888e13b3f3fd1232efed64a8b52b", "type": "electric_scooter", "name": "21e7888e13b3f3fd1232efed64a8b52b", "rental_uris": {"android": "https://dc.lft.to/lastmile_qr_scan", "ios": "https://dc.lft.to/lastmile_qr_scan"}, "is_disabled": 0, "fusion_lat": 0.0, "lat": 38.909622666666664, "is_reserved": 0}, {"lon": -77.0198355, "fusion_lon": 0.0, "bike_id": "07fe0857fc38c674c8c3a9962212c671", "type": "electric_scooter", "name": "07fe0857fc38c674c8c3a9962212c671", "rental_uris": {"android": "https://dc.lft.to/lastmile_qr_scan", "ios": "https://dc.lft.to/lastmile_qr_scan"}, "is_disabled": 0, "fusion_lat": 0.0, "lat": 38.88031, "is_reserved": 0}, {"lon": -77.048993, "fusion_lon": 0.0, "bike_id": "aa9025acfda50296f6d596a409755a05", "type": "electric_scooter", "name": "aa9025acfda50296f6d596a409755a05", "rental_uris": {"android": "https://dc.lft.to/lastmile_qr_scan", "ios": "https://dc.lft.to/lastmile_qr_scan"}, "is_disabled": 0, "fusion_lat": 0.0, "lat": 38.90302066666667, "is_reserved": 0}, {"lon": -77.03634683333334, "fusion_lon": 0.0, "bike_id": "014a4efd91552b0ed0388385b9e39338", "type": "electric_scooter", "name": "014a4efd91552b0ed0388385b9e39338", "rental_uris": {"android": "https://dc.lft.to/lastmile_qr_scan", "ios": "https://dc.lft.to/lastmile_qr_scan"}, "is_disabled": 0, "fusion_lat": 0.0, "lat": 38.93067933333333, "is_reserved": 0}, {"lon": -77.03592416666666, "fusion_lon": 0.0, "bike_id": "a23aa2294aecccb164011749c5fc9052", "type": "electric_scooter", "name": "a23aa2294aecccb164011749c5fc9052", "rental_uris": {"android": "https://dc.lft.to/lastmile_qr_scan", "ios": "https://dc.lft.to/lastmile_qr_scan"}, "is_disabled": 0, "fusion_lat": 0.0, "lat": 38.93672516666667, "is_reserved": 0}, {"lon": -77.01775983333333, "fusion_lon": 0.0, "bike_id": "d52f9e9c58e54c1fbc717d1038ed3334", "type": "electric_scooter", "name": "d52f9e9c58e54c1fbc717d1038ed3334", "rental_uris": {"android": "https://dc.lft.to/lastmile_qr_scan", "ios": "https://dc.lft.to/lastmile_qr_scan"}, "is_disabled": 0, "fusion_lat": 0.0, "lat": 38.8870985, "is_reserved": 0}, {"lon": -77.02719833333333, "fusion_lon": 0.0, "bike_id": "d2090c49852662c2371cfdf97aace7d3", "type": "electric_scooter", "name": "d2090c49852662c2371cfdf97aace7d3", "rental_uris": {"android": "https://dc.lft.to/lastmile_qr_scan", "ios": "https://dc.lft.to/lastmile_qr_scan"}, "is_disabled": 0, "fusion_lat": 0.0, "lat": 38.906704, "is_reserved": 0}, {"lon": -76.96048166666667, "fusion_lon": 0.0, "bike_id": "411e4d315539d3a35b9781d8d29d94b6", "type": "electric_bike", "name": "411e4d315539d3a35b9781d8d29d94b6", "rental_uris": {"android": "https://dc.lft.to/lastmile_qr_scan", "ios": "https://dc.lft.to/lastmile_qr_scan"}, "is_disabled": 0, "fusion_lat": 0.0, "lat": 38.967384833333334, "is_reserved": 0}, {"lon": -77.00608, "fusion_lon": 0.0, "bike_id": "0e3f1f74c787a6c35e71f44f494dcdb2", "type": "electric_scooter", "name": "0e3f1f74c787a6c35e71f44f494dcdb2", "rental_uris": {"android": "https://dc.lft.to/lastmile_qr_scan", "ios": "https://dc.lft.to/lastmile_qr_scan"}, "is_disabled": 0, "fusion_lat": 0.0, "lat": 38.8756685, "is_reserved": 0}, {"lon": -76.99063066666666, "fusion_lon": 0.0, "bike_id": "7135266fe0288c25f1766de95549e20a", "type": "electric_scooter", "name": "7135266fe0288c25f1766de95549e20a", "rental_uris": {"android": "https://dc.lft.to/lastmile_qr_scan", "ios": "https://dc.lft.to/lastmile_qr_scan"}, "is_disabled": 0, "fusion_lat": 0.0, "lat": 38.8637235, "is_reserved": 0}, {"lon": -77.019484, "fusion_lon": 0.0, "bike_id": "6217ad27c38102465dc52adac2b27bb6", "type": "electric_scooter", "name": "6217ad27c38102465dc52adac2b27bb6", "rental_uris": {"android": "https://dc.lft.to/lastmile_qr_scan", "ios": "https://dc.lft.to/lastmile_qr_scan"}, "is_disabled": 0, "fusion_lat": 0.0, "lat": 38.924199333333334, "is_reserved": 0}, {"lon": -77.03827283333334, "fusion_lon": 0.0, "bike_id": "e4edc7c37e2a9d8e767a4d0cddd42c48", "type": "electric_scooter", "name": "e4edc7c37e2a9d8e767a4d0cddd42c48", "rental_uris": {"android": "https://dc.lft.to/lastmile_qr_scan", "ios": "https://dc.lft.to/lastmile_qr_scan"}, "is_disabled": 0, "fusion_lat": 0.0, "lat": 38.907943, "is_reserved": 0}, {"lon": -77.0334805, "fusion_lon": 0.0, "bike_id": "50d3121acaa2289ff17590e057465876", "type": "electric_scooter", "name": "50d3121acaa2289ff17590e057465876", "rental_uris": {"android": "https://dc.lft.to/lastmile_qr_scan", "ios": "https://dc.lft.to/lastmile_qr_scan"}, "is_disabled": 0, "fusion_lat": 0.0, "lat": 38.921662166666664, "is_reserved": 0}, {"lon": -77.0216325, "fusion_lon": 0.0, "bike_id": "1fdc18cde52e7178aac0d2765a0f39f3", "type": "electric_scooter", "name": "1fdc18cde52e7178aac0d2765a0f39f3", "rental_uris": {"android": "https://dc.lft.to/lastmile_qr_scan", "ios": "https://dc.lft.to/lastmile_qr_scan"}, "is_disabled": 0, "fusion_lat": 0.0, "lat": 38.926121, "is_reserved": 0}, {"lon": -77.0400355, "fusion_lon": 0.0, "bike_id": "ac35567703dad4d73e7e21c3df593c86", "type": "electric_scooter", "name": "ac35567703dad4d73e7e21c3df593c86", "rental_uris": {"android": "https://dc.lft.to/lastmile_qr_scan", "ios": "https://dc.lft.to/lastmile_qr_scan"}, "is_disabled": 0, "fusion_lat": 0.0, "lat": 38.918174666666665, "is_reserved": 0}, {"lon": -76.9576245, "fusion_lon": 0.0, "bike_id": "d6ee17ba73a76279fd27b9fadb7cbb51", "type": "electric_scooter", "name": "d6ee17ba73a76279fd27b9fadb7cbb51", "rental_uris": {"android": "https://dc.lft.to/lastmile_qr_scan", "ios": "https://dc.lft.to/lastmile_qr_scan"}, "is_disabled": 0, "fusion_lat": 0.0, "lat": 38.884253666666666, "is_reserved": 0}, {"lon": -77.03854233333334, "fusion_lon": 0.0, "bike_id": "745c7d4bbee043fed5769ecdf141c5ec", "type": "electric_scooter", "name": "745c7d4bbee043fed5769ecdf141c5ec", "rental_uris": {"android": "https://dc.lft.to/lastmile_qr_scan", "ios": "https://dc.lft.to/lastmile_qr_scan"}, "is_disabled": 0, "fusion_lat": 0.0, "lat": 38.91016116666667, "is_reserved": 0}, {"lon": -77.00664633333334, "fusion_lon": 0.0, "bike_id": "0d04bca7f14a7dad2b239ff19fd11326", "type": "electric_scooter", "name": "0d04bca7f14a7dad2b239ff19fd11326", "rental_uris": {"android": "https://dc.lft.to/lastmile_qr_scan", "ios": "https://dc.lft.to/lastmile_qr_scan"}, "is_disabled": 0, "fusion_lat": 0.0, "lat": 38.89996033333333, "is_reserved": 0}, {"lon": -77.02240983333333, "fusion_lon": 0.0, "bike_id": "394890455c90caf32521ce35bd650368", "type": "electric_scooter", "name": "394890455c90caf32521ce35bd650368", "rental_uris": {"android": "https://dc.lft.to/lastmile_qr_scan", "ios": "https://dc.lft.to/lastmile_qr_scan"}, "is_disabled": 0, "fusion_lat": 0.0, "lat": 38.896183666666666, "is_reserved": 0}, {"lon": -77.07184516666666, "fusion_lon": 0.0, "bike_id": "583a84aa21cd6125539e697640b34a15", "type": "electric_scooter", "name": "583a84aa21cd6125539e697640b34a15", "rental_uris": {"android": "https://dc.lft.to/lastmile_qr_scan", "ios": "https://dc.lft.to/lastmile_qr_scan"}, "is_disabled": 0, "fusion_lat": 0.0, "lat": 38.909061333333334, "is_reserved": 0}, {"lon": -77.02670533333334, "fusion_lon": 0.0, "bike_id": "b4357511d9a60798e464a978aab3cc2b", "type": "electric_scooter", "name": "b4357511d9a60798e464a978aab3cc2b", "rental_uris": {"android": "https://dc.lft.to/lastmile_qr_scan", "ios": "https://dc.lft.to/lastmile_qr_scan"}, "is_disabled": 0, "fusion_lat": 0.0, "lat": 38.89844166666666, "is_reserved": 0}, {"lon": -77.03874766666667, "fusion_lon": 0.0, "bike_id": "eccef43660d97eb7c644a52c5d003ab9", "type": "electric_scooter", "name": "eccef43660d97eb7c644a52c5d003ab9", "rental_uris": {"android": "https://dc.lft.to/lastmile_qr_scan", "ios": "https://dc.lft.to/lastmile_qr_scan"}, "is_disabled": 0, "fusion_lat": 0.0, "lat": 38.91266233333333, "is_reserved": 0}, {"lon": -77.017682, "fusion_lon": 0.0, "bike_id": "31a3dc3952981fd3c1e90d808adb7e97", "type": "electric_scooter", "name": "31a3dc3952981fd3c1e90d808adb7e97", "rental_uris": {"android": "https://dc.lft.to/lastmile_qr_scan", "ios": "https://dc.lft.to/lastmile_qr_scan"}, "is_disabled": 0, "fusion_lat": 0.0, "lat": 38.872202333333334, "is_reserved": 0}, {"lon": -77.004884, "fusion_lon": 0.0, "bike_id": "23ea99af0a5f4778609f4dc7dea91187", "type": "electric_scooter", "name": "23ea99af0a5f4778609f4dc7dea91187", "rental_uris": {"android": "https://dc.lft.to/lastmile_qr_scan", "ios": "https://dc.lft.to/lastmile_qr_scan"}, "is_disabled": 0, "fusion_lat": 0.0, "lat": 38.874569666666666, "is_reserved": 0}, {"lon": -77.02286433333333, "fusion_lon": 0.0, "bike_id": "5b2142c001c9ca526651dc58c2bf660f", "type": "electric_scooter", "name": "5b2142c001c9ca526651dc58c2bf660f", "rental_uris": {"android": "https://dc.lft.to/lastmile_qr_scan", "ios": "https://dc.lft.to/lastmile_qr_scan"}, "is_disabled": 0, "fusion_lat": 0.0, "lat": 38.908747, "is_reserved": 0}, {"lon": -76.99712233333334, "fusion_lon": 0.0, "bike_id": "1d41e90a1e3c790da48ab6a5265844a7", "type": "electric_bike", "name": "1d41e90a1e3c790da48ab6a5265844a7", "rental_uris": {"android": "https://dc.lft.to/lastmile_qr_scan", "ios": "https://dc.lft.to/lastmile_qr_scan"}, "is_disabled": 0, "fusion_lat": 0.0, "lat": 38.907874166666666, "is_reserved": 0}, {"lon": -77.04851333333333, "fusion_lon": 0.0, "bike_id": "dbd59c487ecacce84e33b1810be05f09", "type": "electric_scooter", "name": "dbd59c487ecacce84e33b1810be05f09", "rental_uris": {"android": "https://dc.lft.to/lastmile_qr_scan", "ios": "https://dc.lft.to/lastmile_qr_scan"}, "is_disabled": 0, "fusion_lat": 0.0, "lat": 38.915255333333334, "is_reserved": 0}, {"lon": -77.03033983333333, "fusion_lon": 0.0, "bike_id": "aebde72c93622c594b2f5903b423e663", "type": "electric_scooter", "name": "aebde72c93622c594b2f5903b423e663", "rental_uris": {"android": "https://dc.lft.to/lastmile_qr_scan", "ios": "https://dc.lft.to/lastmile_qr_scan"}, "is_disabled": 0, "fusion_lat": 0.0, "lat": 38.922543166666664, "is_reserved": 0}, {"lon": -77.01194033333333, "fusion_lon": 0.0, "bike_id": "df03ee63be43d6120bb1fec536528dde", "type": "electric_scooter", "name": "df03ee63be43d6120bb1fec536528dde", "rental_uris": {"android": "https://dc.lft.to/lastmile_qr_scan", "ios": "https://dc.lft.to/lastmile_qr_scan"}, "is_disabled": 0, "fusion_lat": 0.0, "lat": 38.900263, "is_reserved": 0}, {"lon": -76.98335983333334, "fusion_lon": 0.0, "bike_id": "d17498e46053bbe0f0bc5dc5badf7193", "type": "electric_scooter", "name": "d17498e46053bbe0f0bc5dc5badf7193", "rental_uris": {"android": "https://dc.lft.to/lastmile_qr_scan", "ios": "https://dc.lft.to/lastmile_qr_scan"}, "is_disabled": 0, "fusion_lat": 0.0, "lat": 38.865606666666665, "is_reserved": 0}, {"lon": -77.0353675, "fusion_lon": 0.0, "bike_id": "bfa2d4ba4f492f33ade0522192eb9f42", "type": "electric_scooter", "name": "bfa2d4ba4f492f33ade0522192eb9f42", "rental_uris": {"android": "https://dc.lft.to/lastmile_qr_scan", "ios": "https://dc.lft.to/lastmile_qr_scan"}, "is_disabled": 0, "fusion_lat": 0.0, "lat": 38.90283483333333, "is_reserved": 0}, {"lon": -77.0775535, "fusion_lon": 0.0, "bike_id": "e788858a4170c4007b0607df71e206d4", "type": "electric_scooter", "name": "e788858a4170c4007b0607df71e206d4", "rental_uris": {"android": "https://dc.lft.to/lastmile_qr_scan", "ios": "https://dc.lft.to/lastmile_qr_scan"}, "is_disabled": 0, "fusion_lat": 0.0, "lat": 38.91998133333333, "is_reserved": 0}, {"lon": -77.03703666666667, "fusion_lon": 0.0, "bike_id": "19554d1b5eeed83953108491e67fbae2", "type": "electric_bike", "name": "19554d1b5eeed83953108491e67fbae2", "rental_uris": {"android": "https://dc.lft.to/lastmile_qr_scan", "ios": "https://dc.lft.to/lastmile_qr_scan"}, "is_disabled": 0, "fusion_lat": 0.0, "lat": 38.9355785, "is_reserved": 0}, {"lon": -77.03894133333333, "fusion_lon": 0.0, "bike_id": "bd5959067bb07113bf0586983a4a175d", "type": "electric_scooter", "name": "bd5959067bb07113bf0586983a4a175d", "rental_uris": {"android": "https://dc.lft.to/lastmile_qr_scan", "ios": "https://dc.lft.to/lastmile_qr_scan"}, "is_disabled": 0, "fusion_lat": 0.0, "lat": 38.922169333333336, "is_reserved": 0}, {"lon": -77.03183933333334, "fusion_lon": 0.0, "bike_id": "003e5d89ce101edced3efc379c1abaf1", "type": "electric_scooter", "name": "003e5d89ce101edced3efc379c1abaf1", "rental_uris": {"android": "https://dc.lft.to/lastmile_qr_scan", "ios": "https://dc.lft.to/lastmile_qr_scan"}, "is_disabled": 0, "fusion_lat": 0.0, "lat": 38.919611333333336, "is_reserved": 0}, {"lon": -77.03429283333334, "fusion_lon": 0.0, "bike_id": "1ca364778a12309aa79e6823eeb47d2d", "type": "electric_scooter", "name": "1ca364778a12309aa79e6823eeb47d2d", "rental_uris": {"android": "https://dc.lft.to/lastmile_qr_scan", "ios": "https://dc.lft.to/lastmile_qr_scan"}, "is_disabled": 0, "fusion_lat": 0.0, "lat": 38.90837483333333, "is_reserved": 0}, {"lon": -77.00776266666666, "fusion_lon": 0.0, "bike_id": "e5a4374610558710ae3794134b499625", "type": "electric_scooter", "name": "e5a4374610558710ae3794134b499625", "rental_uris": {"android": "https://dc.lft.to/lastmile_qr_scan", "ios": "https://dc.lft.to/lastmile_qr_scan"}, "is_disabled": 0, "fusion_lat": 0.0, "lat": 38.91731266666667, "is_reserved": 0}, {"lon": -76.98339683333333, "fusion_lon": 0.0, "bike_id": "fcf0af7b60df61d84665a7ba4b154f8b", "type": "electric_scooter", "name": "fcf0af7b60df61d84665a7ba4b154f8b", "rental_uris": {"android": "https://dc.lft.to/lastmile_qr_scan", "ios": "https://dc.lft.to/lastmile_qr_scan"}, "is_disabled": 0, "fusion_lat": 0.0, "lat": 38.865643666666664, "is_reserved": 0}, {"lon": -77.1297955, "fusion_lon": 0.0, "bike_id": "cc6a81ee03ac6a9c268531122d67999d", "type": "electric_bike", "name": "cc6a81ee03ac6a9c268531122d67999d", "rental_uris": {"android": "https://dc.lft.to/lastmile_qr_scan", "ios": "https://dc.lft.to/lastmile_qr_scan"}, "is_disabled": 0, "fusion_lat": 0.0, "lat": 38.79982433333333, "is_reserved": 0}, {"lon": -77.01987283333334, "fusion_lon": 0.0, "bike_id": "254ea5464f2aa9739f957ba75bc9ee1a", "type": "electric_scooter", "name": "254ea5464f2aa9739f957ba75bc9ee1a", "rental_uris": {"android": "https://dc.lft.to/lastmile_qr_scan", "ios": "https://dc.lft.to/lastmile_qr_scan"}, "is_disabled": 0, "fusion_lat": 0.0, "lat": 38.9308, "is_reserved": 0}, {"lon": -77.02166716666666, "fusion_lon": 0.0, "bike_id": "e3d96565030186d54e6f88519b9c183f", "type": "electric_scooter", "name": "e3d96565030186d54e6f88519b9c183f", "rental_uris": {"android": "https://dc.lft.to/lastmile_qr_scan", "ios": "https://dc.lft.to/lastmile_qr_scan"}, "is_disabled": 0, "fusion_lat": 0.0, "lat": 38.9259635, "is_reserved": 0}, {"lon": -77.0295525, "fusion_lon": 0.0, "bike_id": "78a8ca526fcf65dbe52d784bd3cb1b1d", "type": "electric_scooter", "name": "78a8ca526fcf65dbe52d784bd3cb1b1d", "rental_uris": {"android": "https://dc.lft.to/lastmile_qr_scan", "ios": "https://dc.lft.to/lastmile_qr_scan"}, "is_disabled": 0, "fusion_lat": 0.0, "lat": 38.917107666666666, "is_reserved": 0}, {"lon": -77.02170066666666, "fusion_lon": 0.0, "bike_id": "588febaf35b60aeb3d666d4d1fcb8472", "type": "electric_scooter", "name": "588febaf35b60aeb3d666d4d1fcb8472", "rental_uris": {"android": "https://dc.lft.to/lastmile_qr_scan", "ios": "https://dc.lft.to/lastmile_qr_scan"}, "is_disabled": 0, "fusion_lat": 0.0, "lat": 38.94287516666667, "is_reserved": 0}, {"lon": -77.063502, "fusion_lon": 0.0, "bike_id": "6b7c7dba697573b987db3b35258c32fc", "type": "electric_scooter", "name": "6b7c7dba697573b987db3b35258c32fc", "rental_uris": {"android": "https://dc.lft.to/lastmile_qr_scan", "ios": "https://dc.lft.to/lastmile_qr_scan"}, "is_disabled": 0, "fusion_lat": 0.0, "lat": 38.944364666666665, "is_reserved": 0}, {"lon": -77.04556766666667, "fusion_lon": 0.0, "bike_id": "1fcc7d1953c6c70b2e5735065ccf9d11", "type": "electric_scooter", "name": "1fcc7d1953c6c70b2e5735065ccf9d11", "rental_uris": {"android": "https://dc.lft.to/lastmile_qr_scan", "ios": "https://dc.lft.to/lastmile_qr_scan"}, "is_disabled": 0, "fusion_lat": 0.0, "lat": 38.9176605, "is_reserved": 0}, {"lon": -77.0411825, "fusion_lon": 0.0, "bike_id": "0d7feb3a1752be9dd83cf0252b1a5be5", "type": "electric_scooter", "name": "0d7feb3a1752be9dd83cf0252b1a5be5", "rental_uris": {"android": "https://dc.lft.to/lastmile_qr_scan", "ios": "https://dc.lft.to/lastmile_qr_scan"}, "is_disabled": 0, "fusion_lat": 0.0, "lat": 38.93355583333334, "is_reserved": 0}, {"lon": -77.025769, "fusion_lon": 0.0, "bike_id": "a5c2feaa9a6a833f0edc8df3fdf54380", "type": "electric_scooter", "name": "a5c2feaa9a6a833f0edc8df3fdf54380", "rental_uris": {"android": "https://dc.lft.to/lastmile_qr_scan", "ios": "https://dc.lft.to/lastmile_qr_scan"}, "is_disabled": 0, "fusion_lat": 0.0, "lat": 38.92518316666666, "is_reserved": 0}, {"lon": -76.97827666666667, "fusion_lon": 0.0, "bike_id": "aafe457f217727aba94da1c0a207f547", "type": "electric_scooter", "name": "aafe457f217727aba94da1c0a207f547", "rental_uris": {"android": "https://dc.lft.to/lastmile_qr_scan", "ios": "https://dc.lft.to/lastmile_qr_scan"}, "is_disabled": 0, "fusion_lat": 0.0, "lat": 38.8984735, "is_reserved": 0}, {"lon": -76.98879583333333, "fusion_lon": 0.0, "bike_id": "aae8fa51b95e063e62a4e99a29be789a", "type": "electric_scooter", "name": "aae8fa51b95e063e62a4e99a29be789a", "rental_uris": {"android": "https://dc.lft.to/lastmile_qr_scan", "ios": "https://dc.lft.to/lastmile_qr_scan"}, "is_disabled": 0, "fusion_lat": 0.0, "lat": 38.866574, "is_reserved": 0}, {"lon": -77.22892433333334, "fusion_lon": 0.0, "bike_id": "4f7209c057462b0949fb78f391b313e6", "type": "electric_bike", "name": "4f7209c057462b0949fb78f391b313e6", "rental_uris": {"android": "https://dc.lft.to/lastmile_qr_scan", "ios": "https://dc.lft.to/lastmile_qr_scan"}, "is_disabled": 0, "fusion_lat": 0.0, "lat": 38.9096275, "is_reserved": 0}, {"lon": -77.0296895, "fusion_lon": 0.0, "bike_id": "db48eca7d8cb737345fbddab327169dd", "type": "electric_scooter", "name": "db48eca7d8cb737345fbddab327169dd", "rental_uris": {"android": "https://dc.lft.to/lastmile_qr_scan", "ios": "https://dc.lft.to/lastmile_qr_scan"}, "is_disabled": 0, "fusion_lat": 0.0, "lat": 38.9234235, "is_reserved": 0}, {"lon": -77.03284033333334, "fusion_lon": 0.0, "bike_id": "b11f1ce7d7477e571bb4617d3ec1ebe7", "type": "electric_scooter", "name": "b11f1ce7d7477e571bb4617d3ec1ebe7", "rental_uris": {"android": "https://dc.lft.to/lastmile_qr_scan", "ios": "https://dc.lft.to/lastmile_qr_scan"}, "is_disabled": 0, "fusion_lat": 0.0, "lat": 38.93774766666667, "is_reserved": 0}, {"lon": -77.0235895, "fusion_lon": 0.0, "bike_id": "9c4115ce6fdecab829f454a3952847a7", "type": "electric_scooter", "name": "9c4115ce6fdecab829f454a3952847a7", "rental_uris": {"android": "https://dc.lft.to/lastmile_qr_scan", "ios": "https://dc.lft.to/lastmile_qr_scan"}, "is_disabled": 0, "fusion_lat": 0.0, "lat": 38.90847766666667, "is_reserved": 0}, {"lon": -77.03391133333334, "fusion_lon": 0.0, "bike_id": "8c53725db84e5656305c83d84741a12e", "type": "electric_scooter", "name": "8c53725db84e5656305c83d84741a12e", "rental_uris": {"android": "https://dc.lft.to/lastmile_qr_scan", "ios": "https://dc.lft.to/lastmile_qr_scan"}, "is_disabled": 0, "fusion_lat": 0.0, "lat": 38.923573, "is_reserved": 0}, {"lon": -77.03334033333333, "fusion_lon": 0.0, "bike_id": "05d8135a4d7fbd85e94e79f16224500d", "type": "electric_scooter", "name": "05d8135a4d7fbd85e94e79f16224500d", "rental_uris": {"android": "https://dc.lft.to/lastmile_qr_scan", "ios": "https://dc.lft.to/lastmile_qr_scan"}, "is_disabled": 0, "fusion_lat": 0.0, "lat": 38.93895666666667, "is_reserved": 0}, {"lon": -77.007091, "fusion_lon": 0.0, "bike_id": "9d9fbe723835929e95535ee3337a935c", "type": "electric_scooter", "name": "9d9fbe723835929e95535ee3337a935c", "rental_uris": {"android": "https://dc.lft.to/lastmile_qr_scan", "ios": "https://dc.lft.to/lastmile_qr_scan"}, "is_disabled": 0, "fusion_lat": 0.0, "lat": 38.8849165, "is_reserved": 0}, {"lon": -77.0441035, "fusion_lon": 0.0, "bike_id": "c8bcf415542e372def253f5fd38d6471", "type": "electric_scooter", "name": "c8bcf415542e372def253f5fd38d6471", "rental_uris": {"android": "https://dc.lft.to/lastmile_qr_scan", "ios": "https://dc.lft.to/lastmile_qr_scan"}, "is_disabled": 0, "fusion_lat": 0.0, "lat": 38.93420583333333, "is_reserved": 0}, {"lon": -77.0336355, "fusion_lon": 0.0, "bike_id": "7953d19a9c5cfa9f3be42c91ee803b22", "type": "electric_scooter", "name": "7953d19a9c5cfa9f3be42c91ee803b22", "rental_uris": {"android": "https://dc.lft.to/lastmile_qr_scan", "ios": "https://dc.lft.to/lastmile_qr_scan"}, "is_disabled": 0, "fusion_lat": 0.0, "lat": 38.89853466666667, "is_reserved": 0}, {"lon": -77.019802, "fusion_lon": 0.0, "bike_id": "a9dc8897d289439dae9cf91afac8feee", "type": "electric_scooter", "name": "a9dc8897d289439dae9cf91afac8feee", "rental_uris": {"android": "https://dc.lft.to/lastmile_qr_scan", "ios": "https://dc.lft.to/lastmile_qr_scan"}, "is_disabled": 0, "fusion_lat": 0.0, "lat": 38.905064, "is_reserved": 0}, {"lon": -77.02050366666667, "fusion_lon": 0.0, "bike_id": "323c92fe4d1b7801cc5b990aa54dda1f", "type": "electric_scooter", "name": "323c92fe4d1b7801cc5b990aa54dda1f", "rental_uris": {"android": "https://dc.lft.to/lastmile_qr_scan", "ios": "https://dc.lft.to/lastmile_qr_scan"}, "is_disabled": 0, "fusion_lat": 0.0, "lat": 38.923248666666666, "is_reserved": 0}, {"lon": -77.03284533333333, "fusion_lon": 0.0, "bike_id": "3b528352d1eb54c73904b29201e65937", "type": "electric_scooter", "name": "3b528352d1eb54c73904b29201e65937", "rental_uris": {"android": "https://dc.lft.to/lastmile_qr_scan", "ios": "https://dc.lft.to/lastmile_qr_scan"}, "is_disabled": 0, "fusion_lat": 0.0, "lat": 38.90145616666667, "is_reserved": 0}, {"lon": -77.0322155, "fusion_lon": 0.0, "bike_id": "340ed2a8ec163386a52a7a26ad425146", "type": "electric_scooter", "name": "340ed2a8ec163386a52a7a26ad425146", "rental_uris": {"android": "https://dc.lft.to/lastmile_qr_scan", "ios": "https://dc.lft.to/lastmile_qr_scan"}, "is_disabled": 0, "fusion_lat": 0.0, "lat": 38.914068666666665, "is_reserved": 0}, {"lon": -77.01405933333334, "fusion_lon": 0.0, "bike_id": "123a451fbdca8a569ae5da565bb216f5", "type": "electric_scooter", "name": "123a451fbdca8a569ae5da565bb216f5", "rental_uris": {"android": "https://dc.lft.to/lastmile_qr_scan", "ios": "https://dc.lft.to/lastmile_qr_scan"}, "is_disabled": 0, "fusion_lat": 0.0, "lat": 38.928487833333335, "is_reserved": 0}, {"lon": -77.0310055, "fusion_lon": 0.0, "bike_id": "5a60d72d8ca2a395b13dfe89a4bb0b81", "type": "electric_scooter", "name": "5a60d72d8ca2a395b13dfe89a4bb0b81", "rental_uris": {"android": "https://dc.lft.to/lastmile_qr_scan", "ios": "https://dc.lft.to/lastmile_qr_scan"}, "is_disabled": 0, "fusion_lat": 0.0, "lat": 38.92383983333333, "is_reserved": 0}, {"lon": -77.02712466666667, "fusion_lon": 0.0, "bike_id": "c03f53e0cdce1307b7a854e2ced08637", "type": "electric_scooter", "name": "c03f53e0cdce1307b7a854e2ced08637", "rental_uris": {"android": "https://dc.lft.to/lastmile_qr_scan", "ios": "https://dc.lft.to/lastmile_qr_scan"}, "is_disabled": 0, "fusion_lat": 0.0, "lat": 38.924602666666665, "is_reserved": 0}, {"lon": -77.02325083333334, "fusion_lon": 0.0, "bike_id": "b55b035754ac04d93960c4f96bc5e5f9", "type": "electric_bike", "name": "b55b035754ac04d93960c4f96bc5e5f9", "rental_uris": {"android": "https://dc.lft.to/lastmile_qr_scan", "ios": "https://dc.lft.to/lastmile_qr_scan"}, "is_disabled": 0, "fusion_lat": 0.0, "lat": 38.90222816666667, "is_reserved": 0}, {"lon": -76.9652635, "fusion_lon": 0.0, "bike_id": "e989e008173b5d46a74b15a631aa485e", "type": "electric_scooter", "name": "e989e008173b5d46a74b15a631aa485e", "rental_uris": {"android": "https://dc.lft.to/lastmile_qr_scan", "ios": "https://dc.lft.to/lastmile_qr_scan"}, "is_disabled": 0, "fusion_lat": 0.0, "lat": 38.8762585, "is_reserved": 0}, {"lon": -76.97548283333333, "fusion_lon": 0.0, "bike_id": "d12b1db4ae6077e80c350febc1cd21a1", "type": "electric_scooter", "name": "d12b1db4ae6077e80c350febc1cd21a1", "rental_uris": {"android": "https://dc.lft.to/lastmile_qr_scan", "ios": "https://dc.lft.to/lastmile_qr_scan"}, "is_disabled": 0, "fusion_lat": 0.0, "lat": 38.9031995, "is_reserved": 0}, {"lon": -77.02366083333334, "fusion_lon": 0.0, "bike_id": "e1d004fff633c66a94f59bb3d0270c61", "type": "electric_scooter", "name": "e1d004fff633c66a94f59bb3d0270c61", "rental_uris": {"android": "https://dc.lft.to/lastmile_qr_scan", "ios": "https://dc.lft.to/lastmile_qr_scan"}, "is_disabled": 0, "fusion_lat": 0.0, "lat": 38.90203866666667, "is_reserved": 0}, {"lon": -76.98562716666666, "fusion_lon": 0.0, "bike_id": "86c8798a8cfa1a9d6d6f9a089cc13ce1", "type": "electric_scooter", "name": "86c8798a8cfa1a9d6d6f9a089cc13ce1", "rental_uris": {"android": "https://dc.lft.to/lastmile_qr_scan", "ios": "https://dc.lft.to/lastmile_qr_scan"}, "is_disabled": 0, "fusion_lat": 0.0, "lat": 38.86679783333334, "is_reserved": 0}, {"lon": -76.987672, "fusion_lon": 0.0, "bike_id": "6b00f3a4f3e29a5e19f736365d750858", "type": "electric_scooter", "name": "6b00f3a4f3e29a5e19f736365d750858", "rental_uris": {"android": "https://dc.lft.to/lastmile_qr_scan", "ios": "https://dc.lft.to/lastmile_qr_scan"}, "is_disabled": 0, "fusion_lat": 0.0, "lat": 38.9002605, "is_reserved": 0}, {"lon": -77.02952083333334, "fusion_lon": 0.0, "bike_id": "62492b2ec7288736254bb77cdb0e56fb", "type": "electric_scooter", "name": "62492b2ec7288736254bb77cdb0e56fb", "rental_uris": {"android": "https://dc.lft.to/lastmile_qr_scan", "ios": "https://dc.lft.to/lastmile_qr_scan"}, "is_disabled": 0, "fusion_lat": 0.0, "lat": 38.90503666666667, "is_reserved": 0}, {"lon": -76.98626633333333, "fusion_lon": 0.0, "bike_id": "8ca1bbc2f14bda57a68a1ddcc282d955", "type": "electric_scooter", "name": "8ca1bbc2f14bda57a68a1ddcc282d955", "rental_uris": {"android": "https://dc.lft.to/lastmile_qr_scan", "ios": "https://dc.lft.to/lastmile_qr_scan"}, "is_disabled": 0, "fusion_lat": 0.0, "lat": 38.882780333333336, "is_reserved": 0}, {"lon": -77.02087966666667, "fusion_lon": 0.0, "bike_id": "43e46f1123ad16d9aa2de930d685c7d5", "type": "electric_scooter", "name": "43e46f1123ad16d9aa2de930d685c7d5", "rental_uris": {"android": "https://dc.lft.to/lastmile_qr_scan", "ios": "https://dc.lft.to/lastmile_qr_scan"}, "is_disabled": 0, "fusion_lat": 0.0, "lat": 38.8818365, "is_reserved": 0}, {"lon": -76.98609966666666, "fusion_lon": 0.0, "bike_id": "045224f6bfa09ba329a67373b50bf407", "type": "electric_scooter", "name": "045224f6bfa09ba329a67373b50bf407", "rental_uris": {"android": "https://dc.lft.to/lastmile_qr_scan", "ios": "https://dc.lft.to/lastmile_qr_scan"}, "is_disabled": 0, "fusion_lat": 0.0, "lat": 38.90019933333333, "is_reserved": 0}, {"lon": -77.04008966666666, "fusion_lon": 0.0, "bike_id": "d6170e43a1d4055a864d75daffeb0985", "type": "electric_scooter", "name": "d6170e43a1d4055a864d75daffeb0985", "rental_uris": {"android": "https://dc.lft.to/lastmile_qr_scan", "ios": "https://dc.lft.to/lastmile_qr_scan"}, "is_disabled": 0, "fusion_lat": 0.0, "lat": 38.9216585, "is_reserved": 0}, {"lon": -77.03079616666666, "fusion_lon": 0.0, "bike_id": "5ef0c60f75e1ece0f091c685f2db19fd", "type": "electric_scooter", "name": "5ef0c60f75e1ece0f091c685f2db19fd", "rental_uris": {"android": "https://dc.lft.to/lastmile_qr_scan", "ios": "https://dc.lft.to/lastmile_qr_scan"}, "is_disabled": 0, "fusion_lat": 0.0, "lat": 38.917048666666666, "is_reserved": 0}, {"lon": -77.03211633333333, "fusion_lon": 0.0, "bike_id": "8002693064f5600ec2943673bc73ea31", "type": "electric_scooter", "name": "8002693064f5600ec2943673bc73ea31", "rental_uris": {"android": "https://dc.lft.to/lastmile_qr_scan", "ios": "https://dc.lft.to/lastmile_qr_scan"}, "is_disabled": 0, "fusion_lat": 0.0, "lat": 38.918285, "is_reserved": 0}, {"lon": -77.038364, "fusion_lon": 0.0, "bike_id": "8093fc9b0771187c027fbf74b54d2186", "type": "electric_scooter", "name": "8093fc9b0771187c027fbf74b54d2186", "rental_uris": {"android": "https://dc.lft.to/lastmile_qr_scan", "ios": "https://dc.lft.to/lastmile_qr_scan"}, "is_disabled": 0, "fusion_lat": 0.0, "lat": 38.902937666666666, "is_reserved": 0}, {"lon": -76.94641183333333, "fusion_lon": 0.0, "bike_id": "daed4428e1e8991f2d2ce0b1127e23ac", "type": "electric_scooter", "name": "daed4428e1e8991f2d2ce0b1127e23ac", "rental_uris": {"android": "https://dc.lft.to/lastmile_qr_scan", "ios": "https://dc.lft.to/lastmile_qr_scan"}, "is_disabled": 0, "fusion_lat": 0.0, "lat": 38.898598166666666, "is_reserved": 0}, {"lon": -77.0156285, "fusion_lon": 0.0, "bike_id": "8c3282ddf2615942852c562a6c99e0ed", "type": "electric_scooter", "name": "8c3282ddf2615942852c562a6c99e0ed", "rental_uris": {"android": "https://dc.lft.to/lastmile_qr_scan", "ios": "https://dc.lft.to/lastmile_qr_scan"}, "is_disabled": 0, "fusion_lat": 0.0, "lat": 38.91406083333333, "is_reserved": 0}, {"lon": -77.04307283333333, "fusion_lon": 0.0, "bike_id": "cb1e8eb28adf54e3e29c767e2d3ed5a9", "type": "electric_scooter", "name": "cb1e8eb28adf54e3e29c767e2d3ed5a9", "rental_uris": {"android": "https://dc.lft.to/lastmile_qr_scan", "ios": "https://dc.lft.to/lastmile_qr_scan"}, "is_disabled": 0, "fusion_lat": 0.0, "lat": 38.931854666666666, "is_reserved": 0}, {"lon": -77.04554816666666, "fusion_lon": 0.0, "bike_id": "329ae87c56c54a598225aa0c909d497e", "type": "electric_scooter", "name": "329ae87c56c54a598225aa0c909d497e", "rental_uris": {"android": "https://dc.lft.to/lastmile_qr_scan", "ios": "https://dc.lft.to/lastmile_qr_scan"}, "is_disabled": 0, "fusion_lat": 0.0, "lat": 38.8974705, "is_reserved": 0}, {"lon": -77.0279335, "fusion_lon": 0.0, "bike_id": "281fb55265ee89712c7bbb3768de538a", "type": "electric_scooter", "name": "281fb55265ee89712c7bbb3768de538a", "rental_uris": {"android": "https://dc.lft.to/lastmile_qr_scan", "ios": "https://dc.lft.to/lastmile_qr_scan"}, "is_disabled": 0, "fusion_lat": 0.0, "lat": 38.960379333333336, "is_reserved": 0}, {"lon": -77.07283083333333, "fusion_lon": 0.0, "bike_id": "287589dc91405adf24380de784e245dc", "type": "electric_scooter", "name": "287589dc91405adf24380de784e245dc", "rental_uris": {"android": "https://dc.lft.to/lastmile_qr_scan", "ios": "https://dc.lft.to/lastmile_qr_scan"}, "is_disabled": 0, "fusion_lat": 0.0, "lat": 38.934746, "is_reserved": 0}, {"lon": -76.95099633333334, "fusion_lon": 0.0, "bike_id": "65524180f3375193c0f461848f97874b", "type": "electric_scooter", "name": "65524180f3375193c0f461848f97874b", "rental_uris": {"android": "https://dc.lft.to/lastmile_qr_scan", "ios": "https://dc.lft.to/lastmile_qr_scan"}, "is_disabled": 0, "fusion_lat": 0.0, "lat": 38.88452433333333, "is_reserved": 0}, {"lon": -77.04477883333334, "fusion_lon": 0.0, "bike_id": "cab2f1e9883233074dc72a222543210d", "type": "electric_scooter", "name": "cab2f1e9883233074dc72a222543210d", "rental_uris": {"android": "https://dc.lft.to/lastmile_qr_scan", "ios": "https://dc.lft.to/lastmile_qr_scan"}, "is_disabled": 0, "fusion_lat": 0.0, "lat": 38.8995675, "is_reserved": 0}, {"lon": -76.9337495, "fusion_lon": 0.0, "bike_id": "dd985d1916b134fb12ca94bf322e178c", "type": "electric_scooter", "name": "dd985d1916b134fb12ca94bf322e178c", "rental_uris": {"android": "https://dc.lft.to/lastmile_qr_scan", "ios": "https://dc.lft.to/lastmile_qr_scan"}, "is_disabled": 0, "fusion_lat": 0.0, "lat": 38.89913383333333, "is_reserved": 0}, {"lon": -77.0228465, "fusion_lon": 0.0, "bike_id": "7030860ce1bcc6dc8e8b8d88bd563a1e", "type": "electric_scooter", "name": "7030860ce1bcc6dc8e8b8d88bd563a1e", "rental_uris": {"android": "https://dc.lft.to/lastmile_qr_scan", "ios": "https://dc.lft.to/lastmile_qr_scan"}, "is_disabled": 0, "fusion_lat": 0.0, "lat": 38.917020666666666, "is_reserved": 0}, {"lon": -77.03641066666667, "fusion_lon": 0.0, "bike_id": "b19dc3a2da2a8370ddcc31d0294f7f48", "type": "electric_scooter", "name": "b19dc3a2da2a8370ddcc31d0294f7f48", "rental_uris": {"android": "https://dc.lft.to/lastmile_qr_scan", "ios": "https://dc.lft.to/lastmile_qr_scan"}, "is_disabled": 0, "fusion_lat": 0.0, "lat": 38.924127166666665, "is_reserved": 0}, {"lon": -77.02719966666666, "fusion_lon": 0.0, "bike_id": "a792e5b5f7c0592852568157e12252bd", "type": "electric_scooter", "name": "a792e5b5f7c0592852568157e12252bd", "rental_uris": {"android": "https://dc.lft.to/lastmile_qr_scan", "ios": "https://dc.lft.to/lastmile_qr_scan"}, "is_disabled": 0, "fusion_lat": 0.0, "lat": 38.91816016666667, "is_reserved": 0}, {"lon": -77.00384533333333, "fusion_lon": 0.0, "bike_id": "c7f18e9c1abc2313f041bcb5ea2038cd", "type": "electric_scooter", "name": "c7f18e9c1abc2313f041bcb5ea2038cd", "rental_uris": {"android": "https://dc.lft.to/lastmile_qr_scan", "ios": "https://dc.lft.to/lastmile_qr_scan"}, "is_disabled": 0, "fusion_lat": 0.0, "lat": 38.876381, "is_reserved": 0}, {"lon": -77.0255995, "fusion_lon": 0.0, "bike_id": "17a2093e0d525ba175aa8d582a08d041", "type": "electric_scooter", "name": "17a2093e0d525ba175aa8d582a08d041", "rental_uris": {"android": "https://dc.lft.to/lastmile_qr_scan", "ios": "https://dc.lft.to/lastmile_qr_scan"}, "is_disabled": 0, "fusion_lat": 0.0, "lat": 38.9191595, "is_reserved": 0}, {"lon": -76.99754283333333, "fusion_lon": 0.0, "bike_id": "200eec4860a4cdd5d29f6d0594861eb5", "type": "electric_scooter", "name": "200eec4860a4cdd5d29f6d0594861eb5", "rental_uris": {"android": "https://dc.lft.to/lastmile_qr_scan", "ios": "https://dc.lft.to/lastmile_qr_scan"}, "is_disabled": 0, "fusion_lat": 0.0, "lat": 38.9004875, "is_reserved": 0}, {"lon": -77.00210683333333, "fusion_lon": 0.0, "bike_id": "d07029b5590850350ddf614a021fc56c", "type": "electric_scooter", "name": "d07029b5590850350ddf614a021fc56c", "rental_uris": {"android": "https://dc.lft.to/lastmile_qr_scan", "ios": "https://dc.lft.to/lastmile_qr_scan"}, "is_disabled": 0, "fusion_lat": 0.0, "lat": 38.91106083333333, "is_reserved": 0}, {"lon": -77.0017915, "fusion_lon": 0.0, "bike_id": "9de00544587ad9c17bb8c71c187022b3", "type": "electric_bike", "name": "9de00544587ad9c17bb8c71c187022b3", "rental_uris": {"android": "https://dc.lft.to/lastmile_qr_scan", "ios": "https://dc.lft.to/lastmile_qr_scan"}, "is_disabled": 0, "fusion_lat": 0.0, "lat": 38.84455716666667, "is_reserved": 0}, {"lon": -77.02695583333333, "fusion_lon": 0.0, "bike_id": "7dd2053265831159e93577b0e951dd3b", "type": "electric_scooter", "name": "7dd2053265831159e93577b0e951dd3b", "rental_uris": {"android": "https://dc.lft.to/lastmile_qr_scan", "ios": "https://dc.lft.to/lastmile_qr_scan"}, "is_disabled": 0, "fusion_lat": 0.0, "lat": 38.90706183333333, "is_reserved": 0}, {"lon": -77.01549566666667, "fusion_lon": 0.0, "bike_id": "01b8cc7356e1f0c60c816947bd8cad78", "type": "electric_scooter", "name": "01b8cc7356e1f0c60c816947bd8cad78", "rental_uris": {"android": "https://dc.lft.to/lastmile_qr_scan", "ios": "https://dc.lft.to/lastmile_qr_scan"}, "is_disabled": 0, "fusion_lat": 0.0, "lat": 38.88570716666667, "is_reserved": 0}, {"lon": -77.01072766666667, "fusion_lon": 0.0, "bike_id": "db7973ee5cc9e5fa113ae0a596fe16c3", "type": "electric_scooter", "name": "db7973ee5cc9e5fa113ae0a596fe16c3", "rental_uris": {"android": "https://dc.lft.to/lastmile_qr_scan", "ios": "https://dc.lft.to/lastmile_qr_scan"}, "is_disabled": 0, "fusion_lat": 0.0, "lat": 38.916281833333336, "is_reserved": 0}, {"lon": -77.04908866666666, "fusion_lon": 0.0, "bike_id": "766a9ac3c54ca3c61fae687da132867b", "type": "electric_scooter", "name": "766a9ac3c54ca3c61fae687da132867b", "rental_uris": {"android": "https://dc.lft.to/lastmile_qr_scan", "ios": "https://dc.lft.to/lastmile_qr_scan"}, "is_disabled": 0, "fusion_lat": 0.0, "lat": 38.915996166666666, "is_reserved": 0}, {"lon": -77.01810733333333, "fusion_lon": 0.0, "bike_id": "b9c6c4acfa8ae21d9d2b92c3931932f6", "type": "electric_scooter", "name": "b9c6c4acfa8ae21d9d2b92c3931932f6", "rental_uris": {"android": "https://dc.lft.to/lastmile_qr_scan", "ios": "https://dc.lft.to/lastmile_qr_scan"}, "is_disabled": 0, "fusion_lat": 0.0, "lat": 38.90422866666667, "is_reserved": 0}, {"lon": -77.06006066666667, "fusion_lon": 0.0, "bike_id": "a36653f317f1a4183d0cd19632e318cf", "type": "electric_scooter", "name": "a36653f317f1a4183d0cd19632e318cf", "rental_uris": {"android": "https://dc.lft.to/lastmile_qr_scan", "ios": "https://dc.lft.to/lastmile_qr_scan"}, "is_disabled": 0, "fusion_lat": 0.0, "lat": 38.9363425, "is_reserved": 0}, {"lon": -76.97955766666666, "fusion_lon": 0.0, "bike_id": "2035e0ed72692655c66f36d036742e76", "type": "electric_scooter", "name": "2035e0ed72692655c66f36d036742e76", "rental_uris": {"android": "https://dc.lft.to/lastmile_qr_scan", "ios": "https://dc.lft.to/lastmile_qr_scan"}, "is_disabled": 0, "fusion_lat": 0.0, "lat": 38.905005, "is_reserved": 0}, {"lon": -77.02165733333334, "fusion_lon": 0.0, "bike_id": "3186e05e3dfd8e42c77349830c6bac4e", "type": "electric_scooter", "name": "3186e05e3dfd8e42c77349830c6bac4e", "rental_uris": {"android": "https://dc.lft.to/lastmile_qr_scan", "ios": "https://dc.lft.to/lastmile_qr_scan"}, "is_disabled": 0, "fusion_lat": 0.0, "lat": 38.926122166666666, "is_reserved": 0}, {"lon": -77.11078833333333, "fusion_lon": 0.0, "bike_id": "a0c5a9d7e45143ccf981df790856b793", "type": "electric_bike", "name": "a0c5a9d7e45143ccf981df790856b793", "rental_uris": {"android": "https://dc.lft.to/lastmile_qr_scan", "ios": "https://dc.lft.to/lastmile_qr_scan"}, "is_disabled": 0, "fusion_lat": 0.0, "lat": 39.012269833333335, "is_reserved": 0}, {"lon": -77.04258983333334, "fusion_lon": 0.0, "bike_id": "d48f2aff2b3b921d8e90b73eb72b0e6a", "type": "electric_scooter", "name": "d48f2aff2b3b921d8e90b73eb72b0e6a", "rental_uris": {"android": "https://dc.lft.to/lastmile_qr_scan", "ios": "https://dc.lft.to/lastmile_qr_scan"}, "is_disabled": 0, "fusion_lat": 0.0, "lat": 38.908557333333334, "is_reserved": 0}, {"lon": -77.02534183333333, "fusion_lon": 0.0, "bike_id": "b7d03339f849887d092c87b98e9f1859", "type": "electric_scooter", "name": "b7d03339f849887d092c87b98e9f1859", "rental_uris": {"android": "https://dc.lft.to/lastmile_qr_scan", "ios": "https://dc.lft.to/lastmile_qr_scan"}, "is_disabled": 0, "fusion_lat": 0.0, "lat": 38.94551116666667, "is_reserved": 0}, {"lon": -77.0369255, "fusion_lon": 0.0, "bike_id": "68208d53754db3f814143e2819bdafd7", "type": "electric_scooter", "name": "68208d53754db3f814143e2819bdafd7", "rental_uris": {"android": "https://dc.lft.to/lastmile_qr_scan", "ios": "https://dc.lft.to/lastmile_qr_scan"}, "is_disabled": 0, "fusion_lat": 0.0, "lat": 38.93640283333333, "is_reserved": 0}, {"lon": -77.027885, "fusion_lon": 0.0, "bike_id": "786c0135483425fde7fbdde6ac038740", "type": "electric_scooter", "name": "786c0135483425fde7fbdde6ac038740", "rental_uris": {"android": "https://dc.lft.to/lastmile_qr_scan", "ios": "https://dc.lft.to/lastmile_qr_scan"}, "is_disabled": 0, "fusion_lat": 0.0, "lat": 38.93057316666667, "is_reserved": 0}, {"lon": -76.99472483333334, "fusion_lon": 0.0, "bike_id": "78c5248d30d02db79eab235a446e5a08", "type": "electric_scooter", "name": "78c5248d30d02db79eab235a446e5a08", "rental_uris": {"android": "https://dc.lft.to/lastmile_qr_scan", "ios": "https://dc.lft.to/lastmile_qr_scan"}, "is_disabled": 0, "fusion_lat": 0.0, "lat": 38.9051595, "is_reserved": 0}, {"lon": -77.03407333333334, "fusion_lon": 0.0, "bike_id": "e305b4587f3bd58ea12af757914cf3fd", "type": "electric_scooter", "name": "e305b4587f3bd58ea12af757914cf3fd", "rental_uris": {"android": "https://dc.lft.to/lastmile_qr_scan", "ios": "https://dc.lft.to/lastmile_qr_scan"}, "is_disabled": 0, "fusion_lat": 0.0, "lat": 38.924413333333334, "is_reserved": 0}, {"lon": -77.04329316666667, "fusion_lon": 0.0, "bike_id": "07cef2c6921521bd4ae4193447c20783", "type": "electric_scooter", "name": "07cef2c6921521bd4ae4193447c20783", "rental_uris": {"android": "https://dc.lft.to/lastmile_qr_scan", "ios": "https://dc.lft.to/lastmile_qr_scan"}, "is_disabled": 0, "fusion_lat": 0.0, "lat": 38.89685683333333, "is_reserved": 0}, {"lon": -77.02421933333333, "fusion_lon": 0.0, "bike_id": "f4abe80b1c59ef500cc95a858b60ab87", "type": "electric_scooter", "name": "f4abe80b1c59ef500cc95a858b60ab87", "rental_uris": {"android": "https://dc.lft.to/lastmile_qr_scan", "ios": "https://dc.lft.to/lastmile_qr_scan"}, "is_disabled": 0, "fusion_lat": 0.0, "lat": 38.87979283333333, "is_reserved": 0}, {"lon": -76.97440866666666, "fusion_lon": 0.0, "bike_id": "78030bf4000c40dca50e82aa68024882", "type": "electric_scooter", "name": "78030bf4000c40dca50e82aa68024882", "rental_uris": {"android": "https://dc.lft.to/lastmile_qr_scan", "ios": "https://dc.lft.to/lastmile_qr_scan"}, "is_disabled": 0, "fusion_lat": 0.0, "lat": 38.902414666666665, "is_reserved": 0}, {"lon": -76.9856285, "fusion_lon": 0.0, "bike_id": "d0a35046f8373be28264945e0938df4d", "type": "electric_scooter", "name": "d0a35046f8373be28264945e0938df4d", "rental_uris": {"android": "https://dc.lft.to/lastmile_qr_scan", "ios": "https://dc.lft.to/lastmile_qr_scan"}, "is_disabled": 0, "fusion_lat": 0.0, "lat": 38.86676383333333, "is_reserved": 0}, {"lon": -76.9837095, "fusion_lon": 0.0, "bike_id": "87361b0ca744e5c23cf5abc0ba812c0e", "type": "electric_scooter", "name": "87361b0ca744e5c23cf5abc0ba812c0e", "rental_uris": {"android": "https://dc.lft.to/lastmile_qr_scan", "ios": "https://dc.lft.to/lastmile_qr_scan"}, "is_disabled": 0, "fusion_lat": 0.0, "lat": 38.915006166666664, "is_reserved": 0}, {"lon": -77.02759433333334, "fusion_lon": 0.0, "bike_id": "37f5d1e58710bc75327dfd035102f3b7", "type": "electric_scooter", "name": "37f5d1e58710bc75327dfd035102f3b7", "rental_uris": {"android": "https://dc.lft.to/lastmile_qr_scan", "ios": "https://dc.lft.to/lastmile_qr_scan"}, "is_disabled": 0, "fusion_lat": 0.0, "lat": 38.91342316666667, "is_reserved": 0}, {"lon": -76.99950566666666, "fusion_lon": 0.0, "bike_id": "80e7da772d70c53a62329ebb98e97539", "type": "electric_scooter", "name": "80e7da772d70c53a62329ebb98e97539", "rental_uris": {"android": "https://dc.lft.to/lastmile_qr_scan", "ios": "https://dc.lft.to/lastmile_qr_scan"}, "is_disabled": 0, "fusion_lat": 0.0, "lat": 38.8429335, "is_reserved": 0}, {"lon": -77.04855616666667, "fusion_lon": 0.0, "bike_id": "1c09bef1569c807b444e15db40b792a0", "type": "electric_scooter", "name": "1c09bef1569c807b444e15db40b792a0", "rental_uris": {"android": "https://dc.lft.to/lastmile_qr_scan", "ios": "https://dc.lft.to/lastmile_qr_scan"}, "is_disabled": 0, "fusion_lat": 0.0, "lat": 38.899309, "is_reserved": 0}, {"lon": -76.98545233333333, "fusion_lon": 0.0, "bike_id": "990dbb9ed9e1bf5841bf04c593d9609a", "type": "electric_bike", "name": "990dbb9ed9e1bf5841bf04c593d9609a", "rental_uris": {"android": "https://dc.lft.to/lastmile_qr_scan", "ios": "https://dc.lft.to/lastmile_qr_scan"}, "is_disabled": 0, "fusion_lat": 0.0, "lat": 38.892455, "is_reserved": 0}, {"lon": -77.00600466666667, "fusion_lon": 0.0, "bike_id": "ea2f6fb1e92c2d6b16901fcfa2bb5136", "type": "electric_scooter", "name": "ea2f6fb1e92c2d6b16901fcfa2bb5136", "rental_uris": {"android": "https://dc.lft.to/lastmile_qr_scan", "ios": "https://dc.lft.to/lastmile_qr_scan"}, "is_disabled": 0, "fusion_lat": 0.0, "lat": 38.87641966666666, "is_reserved": 0}, {"lon": -77.05162883333334, "fusion_lon": 0.0, "bike_id": "c858e4218ab2bd5cbe517d37e7ebf4c9", "type": "electric_scooter", "name": "c858e4218ab2bd5cbe517d37e7ebf4c9", "rental_uris": {"android": "https://dc.lft.to/lastmile_qr_scan", "ios": "https://dc.lft.to/lastmile_qr_scan"}, "is_disabled": 0, "fusion_lat": 0.0, "lat": 38.90107166666667, "is_reserved": 0}, {"lon": -77.02367366666667, "fusion_lon": 0.0, "bike_id": "882cf46479bd95497301c5219fae4bd5", "type": "electric_scooter", "name": "882cf46479bd95497301c5219fae4bd5", "rental_uris": {"android": "https://dc.lft.to/lastmile_qr_scan", "ios": "https://dc.lft.to/lastmile_qr_scan"}, "is_disabled": 0, "fusion_lat": 0.0, "lat": 38.9250285, "is_reserved": 0}, {"lon": -77.03956733333334, "fusion_lon": 0.0, "bike_id": "f265c216a5c6fef4e79ed5be70fcd015", "type": "electric_scooter", "name": "f265c216a5c6fef4e79ed5be70fcd015", "rental_uris": {"android": "https://dc.lft.to/lastmile_qr_scan", "ios": "https://dc.lft.to/lastmile_qr_scan"}, "is_disabled": 0, "fusion_lat": 0.0, "lat": 38.89624, "is_reserved": 0}, {"lon": -77.18743633333334, "fusion_lon": 0.0, "bike_id": "1b0f0b2656471ad47bf0f19a270fab7f", "type": "electric_bike", "name": "1b0f0b2656471ad47bf0f19a270fab7f", "rental_uris": {"android": "https://dc.lft.to/lastmile_qr_scan", "ios": "https://dc.lft.to/lastmile_qr_scan"}, "is_disabled": 0, "fusion_lat": 0.0, "lat": 38.89354616666667, "is_reserved": 0}, {"lon": -77.03612933333334, "fusion_lon": 0.0, "bike_id": "c6f0a94dba1a4e306dbb5ef87a0d467a", "type": "electric_scooter", "name": "c6f0a94dba1a4e306dbb5ef87a0d467a", "rental_uris": {"android": "https://dc.lft.to/lastmile_qr_scan", "ios": "https://dc.lft.to/lastmile_qr_scan"}, "is_disabled": 0, "fusion_lat": 0.0, "lat": 38.917306333333336, "is_reserved": 0}, {"lon": -76.99823716666667, "fusion_lon": 0.0, "bike_id": "50063bbb607fd78da53b08287ca31a9f", "type": "electric_scooter", "name": "50063bbb607fd78da53b08287ca31a9f", "rental_uris": {"android": "https://dc.lft.to/lastmile_qr_scan", "ios": "https://dc.lft.to/lastmile_qr_scan"}, "is_disabled": 0, "fusion_lat": 0.0, "lat": 38.9002255, "is_reserved": 0}, {"lon": -77.03224616666667, "fusion_lon": 0.0, "bike_id": "fca867cb66f83e1057bb0fe257321930", "type": "electric_scooter", "name": "fca867cb66f83e1057bb0fe257321930", "rental_uris": {"android": "https://dc.lft.to/lastmile_qr_scan", "ios": "https://dc.lft.to/lastmile_qr_scan"}, "is_disabled": 0, "fusion_lat": 0.0, "lat": 38.9258975, "is_reserved": 0}, {"lon": -77.00303933333333, "fusion_lon": 0.0, "bike_id": "34a089b1b0b80a9916f522906c538fe7", "type": "electric_scooter", "name": "34a089b1b0b80a9916f522906c538fe7", "rental_uris": {"android": "https://dc.lft.to/lastmile_qr_scan", "ios": "https://dc.lft.to/lastmile_qr_scan"}, "is_disabled": 0, "fusion_lat": 0.0, "lat": 38.894904833333335, "is_reserved": 0}, {"lon": -77.02724833333333, "fusion_lon": 0.0, "bike_id": "5532741fde925d2081934200cd3985e2", "type": "electric_scooter", "name": "5532741fde925d2081934200cd3985e2", "rental_uris": {"android": "https://dc.lft.to/lastmile_qr_scan", "ios": "https://dc.lft.to/lastmile_qr_scan"}, "is_disabled": 0, "fusion_lat": 0.0, "lat": 38.924721166666664, "is_reserved": 0}, {"lon": -77.0027445, "fusion_lon": 0.0, "bike_id": "f5e7ea363e1cccf2b20a45e83f24227a", "type": "electric_scooter", "name": "f5e7ea363e1cccf2b20a45e83f24227a", "rental_uris": {"android": "https://dc.lft.to/lastmile_qr_scan", "ios": "https://dc.lft.to/lastmile_qr_scan"}, "is_disabled": 0, "fusion_lat": 0.0, "lat": 38.87723283333333, "is_reserved": 0}, {"lon": -77.01195316666667, "fusion_lon": 0.0, "bike_id": "a0f16778a855f25381c715b79c6848d6", "type": "electric_scooter", "name": "a0f16778a855f25381c715b79c6848d6", "rental_uris": {"android": "https://dc.lft.to/lastmile_qr_scan", "ios": "https://dc.lft.to/lastmile_qr_scan"}, "is_disabled": 0, "fusion_lat": 0.0, "lat": 38.900261, "is_reserved": 0}, {"lon": -77.03525233333333, "fusion_lon": 0.0, "bike_id": "a615a5f486e3d60d9509871cda0fdc2d", "type": "electric_scooter", "name": "a615a5f486e3d60d9509871cda0fdc2d", "rental_uris": {"android": "https://dc.lft.to/lastmile_qr_scan", "ios": "https://dc.lft.to/lastmile_qr_scan"}, "is_disabled": 0, "fusion_lat": 0.0, "lat": 38.9359095, "is_reserved": 0}, {"lon": -76.99016016666667, "fusion_lon": 0.0, "bike_id": "0f28f0176c7221c4e6f27ef29988413f", "type": "electric_scooter", "name": "0f28f0176c7221c4e6f27ef29988413f", "rental_uris": {"android": "https://dc.lft.to/lastmile_qr_scan", "ios": "https://dc.lft.to/lastmile_qr_scan"}, "is_disabled": 0, "fusion_lat": 0.0, "lat": 38.86501283333333, "is_reserved": 0}, {"lon": -77.0241005, "fusion_lon": 0.0, "bike_id": "aa130519c25ad417459bdea716889e8b", "type": "electric_scooter", "name": "aa130519c25ad417459bdea716889e8b", "rental_uris": {"android": "https://dc.lft.to/lastmile_qr_scan", "ios": "https://dc.lft.to/lastmile_qr_scan"}, "is_disabled": 0, "fusion_lat": 0.0, "lat": 38.89689116666667, "is_reserved": 0}, {"lon": -77.00202383333334, "fusion_lon": 0.0, "bike_id": "3b2bf7f7fdb1514af1b798a6e9221211", "type": "electric_scooter", "name": "3b2bf7f7fdb1514af1b798a6e9221211", "rental_uris": {"android": "https://dc.lft.to/lastmile_qr_scan", "ios": "https://dc.lft.to/lastmile_qr_scan"}, "is_disabled": 0, "fusion_lat": 0.0, "lat": 38.902442666666666, "is_reserved": 0}, {"lon": -76.9837575, "fusion_lon": 0.0, "bike_id": "2f3d8b38ad48a644f8e8f4386a0d13de", "type": "electric_bike", "name": "2f3d8b38ad48a644f8e8f4386a0d13de", "rental_uris": {"android": "https://dc.lft.to/lastmile_qr_scan", "ios": "https://dc.lft.to/lastmile_qr_scan"}, "is_disabled": 0, "fusion_lat": 0.0, "lat": 38.91475416666667, "is_reserved": 0}, {"lon": -77.06043666666666, "fusion_lon": 0.0, "bike_id": "596280aa8d467df1158eee620d0af6d9", "type": "electric_scooter", "name": "596280aa8d467df1158eee620d0af6d9", "rental_uris": {"android": "https://dc.lft.to/lastmile_qr_scan", "ios": "https://dc.lft.to/lastmile_qr_scan"}, "is_disabled": 0, "fusion_lat": 0.0, "lat": 38.939189666666664, "is_reserved": 0}, {"lon": -77.04530066666666, "fusion_lon": 0.0, "bike_id": "570521d38a69fe1021b635145671dcf1", "type": "electric_scooter", "name": "570521d38a69fe1021b635145671dcf1", "rental_uris": {"android": "https://dc.lft.to/lastmile_qr_scan", "ios": "https://dc.lft.to/lastmile_qr_scan"}, "is_disabled": 0, "fusion_lat": 0.0, "lat": 38.90386816666667, "is_reserved": 0}, {"lon": -76.952884, "fusion_lon": 0.0, "bike_id": "cb48c6480f92b8d35dc053b7fb15615b", "type": "electric_bike", "name": "cb48c6480f92b8d35dc053b7fb15615b", "rental_uris": {"android": "https://dc.lft.to/lastmile_qr_scan", "ios": "https://dc.lft.to/lastmile_qr_scan"}, "is_disabled": 0, "fusion_lat": 0.0, "lat": 38.86233816666667, "is_reserved": 0}, {"lon": -77.00346783333333, "fusion_lon": 0.0, "bike_id": "df0453962fd66800d15ff2da12b8f1e5", "type": "electric_scooter", "name": "df0453962fd66800d15ff2da12b8f1e5", "rental_uris": {"android": "https://dc.lft.to/lastmile_qr_scan", "ios": "https://dc.lft.to/lastmile_qr_scan"}, "is_disabled": 0, "fusion_lat": 0.0, "lat": 38.884388, "is_reserved": 0}, {"lon": -77.03322033333333, "fusion_lon": 0.0, "bike_id": "097abb1d7d3b69555a3264ad457be094", "type": "electric_scooter", "name": "097abb1d7d3b69555a3264ad457be094", "rental_uris": {"android": "https://dc.lft.to/lastmile_qr_scan", "ios": "https://dc.lft.to/lastmile_qr_scan"}, "is_disabled": 0, "fusion_lat": 0.0, "lat": 38.913194833333336, "is_reserved": 0}, {"lon": -77.02716533333333, "fusion_lon": 0.0, "bike_id": "ef8c4a90e72914b59bdc6a759f9c2754", "type": "electric_scooter", "name": "ef8c4a90e72914b59bdc6a759f9c2754", "rental_uris": {"android": "https://dc.lft.to/lastmile_qr_scan", "ios": "https://dc.lft.to/lastmile_qr_scan"}, "is_disabled": 0, "fusion_lat": 0.0, "lat": 38.90671533333333, "is_reserved": 0}, {"lon": -77.04161333333333, "fusion_lon": 0.0, "bike_id": "9e0fbf3d36c0e82f0e71a4ea772a5ebc", "type": "electric_scooter", "name": "9e0fbf3d36c0e82f0e71a4ea772a5ebc", "rental_uris": {"android": "https://dc.lft.to/lastmile_qr_scan", "ios": "https://dc.lft.to/lastmile_qr_scan"}, "is_disabled": 0, "fusion_lat": 0.0, "lat": 38.918664666666665, "is_reserved": 0}, {"lon": -76.976995, "fusion_lon": 0.0, "bike_id": "64d3b0d1eafac28ff95910b8b14568a0", "type": "electric_bike", "name": "64d3b0d1eafac28ff95910b8b14568a0", "rental_uris": {"android": "https://dc.lft.to/lastmile_qr_scan", "ios": "https://dc.lft.to/lastmile_qr_scan"}, "is_disabled": 0, "fusion_lat": 0.0, "lat": 38.90157166666667, "is_reserved": 0}, {"lon": -77.02450616666667, "fusion_lon": 0.0, "bike_id": "26a9807588c17619252371d3cd6d1e29", "type": "electric_scooter", "name": "26a9807588c17619252371d3cd6d1e29", "rental_uris": {"android": "https://dc.lft.to/lastmile_qr_scan", "ios": "https://dc.lft.to/lastmile_qr_scan"}, "is_disabled": 0, "fusion_lat": 0.0, "lat": 38.938507333333334, "is_reserved": 0}, {"lon": -77.05261233333333, "fusion_lon": 0.0, "bike_id": "e7d10d11673a8b3a9e6320fcd2449174", "type": "electric_scooter", "name": "e7d10d11673a8b3a9e6320fcd2449174", "rental_uris": {"android": "https://dc.lft.to/lastmile_qr_scan", "ios": "https://dc.lft.to/lastmile_qr_scan"}, "is_disabled": 0, "fusion_lat": 0.0, "lat": 38.92779066666667, "is_reserved": 0}, {"lon": -77.034395, "fusion_lon": 0.0, "bike_id": "267e77a564146eefda11baa7ad2d19ff", "type": "electric_scooter", "name": "267e77a564146eefda11baa7ad2d19ff", "rental_uris": {"android": "https://dc.lft.to/lastmile_qr_scan", "ios": "https://dc.lft.to/lastmile_qr_scan"}, "is_disabled": 0, "fusion_lat": 0.0, "lat": 38.90315733333333, "is_reserved": 0}, {"lon": -77.00304916666667, "fusion_lon": 0.0, "bike_id": "266c39c0b47dea8fa8dfd9b73d020046", "type": "electric_bike", "name": "266c39c0b47dea8fa8dfd9b73d020046", "rental_uris": {"android": "https://dc.lft.to/lastmile_qr_scan", "ios": "https://dc.lft.to/lastmile_qr_scan"}, "is_disabled": 0, "fusion_lat": 0.0, "lat": 38.833644166666666, "is_reserved": 0}, {"lon": -77.03171883333333, "fusion_lon": 0.0, "bike_id": "d2f55adb8787b4e28674802263b65406", "type": "electric_scooter", "name": "d2f55adb8787b4e28674802263b65406", "rental_uris": {"android": "https://dc.lft.to/lastmile_qr_scan", "ios": "https://dc.lft.to/lastmile_qr_scan"}, "is_disabled": 0, "fusion_lat": 0.0, "lat": 38.901048, "is_reserved": 0}, {"lon": -77.00051816666667, "fusion_lon": 0.0, "bike_id": "59cf90659346453122cef5d2bda802ba", "type": "electric_scooter", "name": "59cf90659346453122cef5d2bda802ba", "rental_uris": {"android": "https://dc.lft.to/lastmile_qr_scan", "ios": "https://dc.lft.to/lastmile_qr_scan"}, "is_disabled": 0, "fusion_lat": 0.0, "lat": 38.8943155, "is_reserved": 0}, {"lon": -76.99376233333334, "fusion_lon": 0.0, "bike_id": "0ba78699de40ffe7ce8728d4e7e9ba47", "type": "electric_bike", "name": "0ba78699de40ffe7ce8728d4e7e9ba47", "rental_uris": {"android": "https://dc.lft.to/lastmile_qr_scan", "ios": "https://dc.lft.to/lastmile_qr_scan"}, "is_disabled": 0, "fusion_lat": 0.0, "lat": 38.990958166666665, "is_reserved": 0}, {"lon": -77.02811316666667, "fusion_lon": 0.0, "bike_id": "8bd3964add64de9b52bda0ba535849bf", "type": "electric_scooter", "name": "8bd3964add64de9b52bda0ba535849bf", "rental_uris": {"android": "https://dc.lft.to/lastmile_qr_scan", "ios": "https://dc.lft.to/lastmile_qr_scan"}, "is_disabled": 0, "fusion_lat": 0.0, "lat": 38.930774666666665, "is_reserved": 0}, {"lon": -77.03359316666666, "fusion_lon": 0.0, "bike_id": "f958ece26ea7bc46cb02f79048a2966e", "type": "electric_scooter", "name": "f958ece26ea7bc46cb02f79048a2966e", "rental_uris": {"android": "https://dc.lft.to/lastmile_qr_scan", "ios": "https://dc.lft.to/lastmile_qr_scan"}, "is_disabled": 0, "fusion_lat": 0.0, "lat": 38.898356, "is_reserved": 0}, {"lon": -76.985686, "fusion_lon": 0.0, "bike_id": "7e4965026aa6096449c77eb05af2880d", "type": "electric_scooter", "name": "7e4965026aa6096449c77eb05af2880d", "rental_uris": {"android": "https://dc.lft.to/lastmile_qr_scan", "ios": "https://dc.lft.to/lastmile_qr_scan"}, "is_disabled": 0, "fusion_lat": 0.0, "lat": 38.866766, "is_reserved": 0}, {"lon": -77.02061133333333, "fusion_lon": 0.0, "bike_id": "093620882795c520b1c9539c01d33035", "type": "electric_bike", "name": "093620882795c520b1c9539c01d33035", "rental_uris": {"android": "https://dc.lft.to/lastmile_qr_scan", "ios": "https://dc.lft.to/lastmile_qr_scan"}, "is_disabled": 0, "fusion_lat": 0.0, "lat": 38.9329385, "is_reserved": 0}, {"lon": -76.93733416666667, "fusion_lon": 0.0, "bike_id": "e82cb3483076d4938660ba95c529bc80", "type": "electric_scooter", "name": "e82cb3483076d4938660ba95c529bc80", "rental_uris": {"android": "https://dc.lft.to/lastmile_qr_scan", "ios": "https://dc.lft.to/lastmile_qr_scan"}, "is_disabled": 0, "fusion_lat": 0.0, "lat": 38.890135, "is_reserved": 0}, {"lon": -76.98194366666667, "fusion_lon": 0.0, "bike_id": "8c30efa80dba0b5a58b78545f9b979f0", "type": "electric_scooter", "name": "8c30efa80dba0b5a58b78545f9b979f0", "rental_uris": {"android": "https://dc.lft.to/lastmile_qr_scan", "ios": "https://dc.lft.to/lastmile_qr_scan"}, "is_disabled": 0, "fusion_lat": 0.0, "lat": 38.920599333333335, "is_reserved": 0}, {"lon": -77.04355216666667, "fusion_lon": 0.0, "bike_id": "f44a9b80dea52abd59b90e2355c7df94", "type": "electric_scooter", "name": "f44a9b80dea52abd59b90e2355c7df94", "rental_uris": {"android": "https://dc.lft.to/lastmile_qr_scan", "ios": "https://dc.lft.to/lastmile_qr_scan"}, "is_disabled": 0, "fusion_lat": 0.0, "lat": 38.903687, "is_reserved": 0}, {"lon": -77.02530666666667, "fusion_lon": 0.0, "bike_id": "ffc26f85fdf47f1b6f0b8e3c0e38344e", "type": "electric_scooter", "name": "ffc26f85fdf47f1b6f0b8e3c0e38344e", "rental_uris": {"android": "https://dc.lft.to/lastmile_qr_scan", "ios": "https://dc.lft.to/lastmile_qr_scan"}, "is_disabled": 0, "fusion_lat": 0.0, "lat": 38.91947416666667, "is_reserved": 0}, {"lon": -77.03327783333333, "fusion_lon": 0.0, "bike_id": "7ece23f3b7f7c4287f316bfa50766da1", "type": "electric_scooter", "name": "7ece23f3b7f7c4287f316bfa50766da1", "rental_uris": {"android": "https://dc.lft.to/lastmile_qr_scan", "ios": "https://dc.lft.to/lastmile_qr_scan"}, "is_disabled": 0, "fusion_lat": 0.0, "lat": 38.92151, "is_reserved": 0}, {"lon": -77.0342725, "fusion_lon": 0.0, "bike_id": "b4eb39f794ec8ea6d57d6ca647b57e56", "type": "electric_bike", "name": "b4eb39f794ec8ea6d57d6ca647b57e56", "rental_uris": {"android": "https://dc.lft.to/lastmile_qr_scan", "ios": "https://dc.lft.to/lastmile_qr_scan"}, "is_disabled": 0, "fusion_lat": 0.0, "lat": 38.966137833333335, "is_reserved": 0}, {"lon": -77.019504, "fusion_lon": 0.0, "bike_id": "71e2494c7a7f3a63d021e544e0373c4c", "type": "electric_scooter", "name": "71e2494c7a7f3a63d021e544e0373c4c", "rental_uris": {"android": "https://dc.lft.to/lastmile_qr_scan", "ios": "https://dc.lft.to/lastmile_qr_scan"}, "is_disabled": 0, "fusion_lat": 0.0, "lat": 38.902323833333334, "is_reserved": 0}, {"lon": -77.0271255, "fusion_lon": 0.0, "bike_id": "79db52d3bba34896ee0c49809d64ddc1", "type": "electric_scooter", "name": "79db52d3bba34896ee0c49809d64ddc1", "rental_uris": {"android": "https://dc.lft.to/lastmile_qr_scan", "ios": "https://dc.lft.to/lastmile_qr_scan"}, "is_disabled": 0, "fusion_lat": 0.0, "lat": 38.928769, "is_reserved": 0}, {"lon": -77.1085855, "fusion_lon": 0.0, "bike_id": "6eb7dcbe8111be57a17ba672f2e597df", "type": "electric_bike", "name": "6eb7dcbe8111be57a17ba672f2e597df", "rental_uris": {"android": "https://dc.lft.to/lastmile_qr_scan", "ios": "https://dc.lft.to/lastmile_qr_scan"}, "is_disabled": 0, "fusion_lat": 0.0, "lat": 38.872369666666664, "is_reserved": 0}, {"lon": -77.01642583333333, "fusion_lon": 0.0, "bike_id": "14b0aacec92c7ee68d5e271f2aea5f66", "type": "electric_scooter", "name": "14b0aacec92c7ee68d5e271f2aea5f66", "rental_uris": {"android": "https://dc.lft.to/lastmile_qr_scan", "ios": "https://dc.lft.to/lastmile_qr_scan"}, "is_disabled": 0, "fusion_lat": 0.0, "lat": 38.903668, "is_reserved": 0}, {"lon": -77.036615, "fusion_lon": 0.0, "bike_id": "f759ab2c727efde52aa9fb9c69e91471", "type": "electric_scooter", "name": "f759ab2c727efde52aa9fb9c69e91471", "rental_uris": {"android": "https://dc.lft.to/lastmile_qr_scan", "ios": "https://dc.lft.to/lastmile_qr_scan"}, "is_disabled": 0, "fusion_lat": 0.0, "lat": 38.921262, "is_reserved": 0}, {"lon": -77.0610445, "fusion_lon": 0.0, "bike_id": "2edb862251785f1334a612708864cc5e", "type": "electric_scooter", "name": "2edb862251785f1334a612708864cc5e", "rental_uris": {"android": "https://dc.lft.to/lastmile_qr_scan", "ios": "https://dc.lft.to/lastmile_qr_scan"}, "is_disabled": 0, "fusion_lat": 0.0, "lat": 38.937047166666666, "is_reserved": 0}, {"lon": -77.008882, "fusion_lon": 0.0, "bike_id": "ddf689926e4eb53eaff5f183151b92a9", "type": "electric_scooter", "name": "ddf689926e4eb53eaff5f183151b92a9", "rental_uris": {"android": "https://dc.lft.to/lastmile_qr_scan", "ios": "https://dc.lft.to/lastmile_qr_scan"}, "is_disabled": 0, "fusion_lat": 0.0, "lat": 38.96840533333334, "is_reserved": 0}, {"lon": -77.05022916666667, "fusion_lon": 0.0, "bike_id": "abd2db423dc44abdf7368316b103447a", "type": "electric_scooter", "name": "abd2db423dc44abdf7368316b103447a", "rental_uris": {"android": "https://dc.lft.to/lastmile_qr_scan", "ios": "https://dc.lft.to/lastmile_qr_scan"}, "is_disabled": 0, "fusion_lat": 0.0, "lat": 38.906791, "is_reserved": 0}, {"lon": -77.02798966666667, "fusion_lon": 0.0, "bike_id": "dae97396502e4676d751aa769d0eceda", "type": "electric_scooter", "name": "dae97396502e4676d751aa769d0eceda", "rental_uris": {"android": "https://dc.lft.to/lastmile_qr_scan", "ios": "https://dc.lft.to/lastmile_qr_scan"}, "is_disabled": 0, "fusion_lat": 0.0, "lat": 38.960525833333335, "is_reserved": 0}, {"lon": -77.03601316666666, "fusion_lon": 0.0, "bike_id": "b94c85f8546ba1903e38a0f8a2d4978c", "type": "electric_scooter", "name": "b94c85f8546ba1903e38a0f8a2d4978c", "rental_uris": {"android": "https://dc.lft.to/lastmile_qr_scan", "ios": "https://dc.lft.to/lastmile_qr_scan"}, "is_disabled": 0, "fusion_lat": 0.0, "lat": 38.903815, "is_reserved": 0}, {"lon": -77.03411133333333, "fusion_lon": 0.0, "bike_id": "393b93256286e00c6fdc6b5ed210e150", "type": "electric_scooter", "name": "393b93256286e00c6fdc6b5ed210e150", "rental_uris": {"android": "https://dc.lft.to/lastmile_qr_scan", "ios": "https://dc.lft.to/lastmile_qr_scan"}, "is_disabled": 0, "fusion_lat": 0.0, "lat": 38.9244305, "is_reserved": 0}, {"lon": -77.0326385, "fusion_lon": 0.0, "bike_id": "1003e8a412eab54e2dbe67aefc9c88c9", "type": "electric_scooter", "name": "1003e8a412eab54e2dbe67aefc9c88c9", "rental_uris": {"android": "https://dc.lft.to/lastmile_qr_scan", "ios": "https://dc.lft.to/lastmile_qr_scan"}, "is_disabled": 0, "fusion_lat": 0.0, "lat": 38.93771483333333, "is_reserved": 0}, {"lon": -77.0319195, "fusion_lon": 0.0, "bike_id": "f206d842b06f36e12a37bf2dc69bbf3d", "type": "electric_scooter", "name": "f206d842b06f36e12a37bf2dc69bbf3d", "rental_uris": {"android": "https://dc.lft.to/lastmile_qr_scan", "ios": "https://dc.lft.to/lastmile_qr_scan"}, "is_disabled": 0, "fusion_lat": 0.0, "lat": 38.89751866666667, "is_reserved": 0}, {"lon": -77.03379416666667, "fusion_lon": 0.0, "bike_id": "7422498044585435a146ad0e4b1f8e39", "type": "electric_scooter", "name": "7422498044585435a146ad0e4b1f8e39", "rental_uris": {"android": "https://dc.lft.to/lastmile_qr_scan", "ios": "https://dc.lft.to/lastmile_qr_scan"}, "is_disabled": 0, "fusion_lat": 0.0, "lat": 38.923559, "is_reserved": 0}, {"lon": -77.026909, "fusion_lon": 0.0, "bike_id": "da5997648a7b68f12b433b6469c08c3f", "type": "electric_scooter", "name": "da5997648a7b68f12b433b6469c08c3f", "rental_uris": {"android": "https://dc.lft.to/lastmile_qr_scan", "ios": "https://dc.lft.to/lastmile_qr_scan"}, "is_disabled": 0, "fusion_lat": 0.0, "lat": 38.90706516666667, "is_reserved": 0}, {"lon": -77.03362583333333, "fusion_lon": 0.0, "bike_id": "2405660690b05e87ded05bddff8be458", "type": "electric_scooter", "name": "2405660690b05e87ded05bddff8be458", "rental_uris": {"android": "https://dc.lft.to/lastmile_qr_scan", "ios": "https://dc.lft.to/lastmile_qr_scan"}, "is_disabled": 0, "fusion_lat": 0.0, "lat": 38.886904666666666, "is_reserved": 0}, {"lon": -77.01744933333333, "fusion_lon": 0.0, "bike_id": "05073e76d9c84e47df87228388cef62b", "type": "electric_scooter", "name": "05073e76d9c84e47df87228388cef62b", "rental_uris": {"android": "https://dc.lft.to/lastmile_qr_scan", "ios": "https://dc.lft.to/lastmile_qr_scan"}, "is_disabled": 0, "fusion_lat": 0.0, "lat": 38.90255033333333, "is_reserved": 0}, {"lon": -77.003058, "fusion_lon": 0.0, "bike_id": "c5bb8c7bee05ddb1040a1d380f7d42b8", "type": "electric_scooter", "name": "c5bb8c7bee05ddb1040a1d380f7d42b8", "rental_uris": {"android": "https://dc.lft.to/lastmile_qr_scan", "ios": "https://dc.lft.to/lastmile_qr_scan"}, "is_disabled": 0, "fusion_lat": 0.0, "lat": 38.877149, "is_reserved": 0}, {"lon": -77.00328216666666, "fusion_lon": 0.0, "bike_id": "b6b500a9f6e8c7cfcecf030216c721fb", "type": "electric_scooter", "name": "b6b500a9f6e8c7cfcecf030216c721fb", "rental_uris": {"android": "https://dc.lft.to/lastmile_qr_scan", "ios": "https://dc.lft.to/lastmile_qr_scan"}, "is_disabled": 0, "fusion_lat": 0.0, "lat": 38.885008666666664, "is_reserved": 0}, {"lon": -77.03459066666667, "fusion_lon": 0.0, "bike_id": "d36256236f11a927df78319a769c7475", "type": "electric_scooter", "name": "d36256236f11a927df78319a769c7475", "rental_uris": {"android": "https://dc.lft.to/lastmile_qr_scan", "ios": "https://dc.lft.to/lastmile_qr_scan"}, "is_disabled": 0, "fusion_lat": 0.0, "lat": 38.90369883333334, "is_reserved": 0}, {"lon": -77.049785, "fusion_lon": 0.0, "bike_id": "54df342120a008da090d35588ba913e3", "type": "electric_scooter", "name": "54df342120a008da090d35588ba913e3", "rental_uris": {"android": "https://dc.lft.to/lastmile_qr_scan", "ios": "https://dc.lft.to/lastmile_qr_scan"}, "is_disabled": 0, "fusion_lat": 0.0, "lat": 38.9179, "is_reserved": 0}, {"lon": -77.02483983333333, "fusion_lon": 0.0, "bike_id": "1232a82c3652bd8e191953beb5b6d4e6", "type": "electric_scooter", "name": "1232a82c3652bd8e191953beb5b6d4e6", "rental_uris": {"android": "https://dc.lft.to/lastmile_qr_scan", "ios": "https://dc.lft.to/lastmile_qr_scan"}, "is_disabled": 0, "fusion_lat": 0.0, "lat": 38.931028833333336, "is_reserved": 0}, {"lon": -77.0295625, "fusion_lon": 0.0, "bike_id": "ba4da34f0df4f6a89fa3bca4328c6619", "type": "electric_scooter", "name": "ba4da34f0df4f6a89fa3bca4328c6619", "rental_uris": {"android": "https://dc.lft.to/lastmile_qr_scan", "ios": "https://dc.lft.to/lastmile_qr_scan"}, "is_disabled": 0, "fusion_lat": 0.0, "lat": 38.922742, "is_reserved": 0}, {"lon": -77.03304483333334, "fusion_lon": 0.0, "bike_id": "b499e0ef1380e86d8f6e6735d0caf666", "type": "electric_scooter", "name": "b499e0ef1380e86d8f6e6735d0caf666", "rental_uris": {"android": "https://dc.lft.to/lastmile_qr_scan", "ios": "https://dc.lft.to/lastmile_qr_scan"}, "is_disabled": 0, "fusion_lat": 0.0, "lat": 38.956334, "is_reserved": 0}, {"lon": -77.0196815, "fusion_lon": 0.0, "bike_id": "aa743b5be29011f04560d7028e223928", "type": "electric_scooter", "name": "aa743b5be29011f04560d7028e223928", "rental_uris": {"android": "https://dc.lft.to/lastmile_qr_scan", "ios": "https://dc.lft.to/lastmile_qr_scan"}, "is_disabled": 0, "fusion_lat": 0.0, "lat": 38.893545, "is_reserved": 0}, {"lon": -76.98697, "fusion_lon": 0.0, "bike_id": "730c0093e05f0c166b2f36dc3ae9350b", "type": "electric_scooter", "name": "730c0093e05f0c166b2f36dc3ae9350b", "rental_uris": {"android": "https://dc.lft.to/lastmile_qr_scan", "ios": "https://dc.lft.to/lastmile_qr_scan"}, "is_disabled": 0, "fusion_lat": 0.0, "lat": 38.86723083333333, "is_reserved": 0}, {"lon": -77.0270455, "fusion_lon": 0.0, "bike_id": "16f885dd79cbef201c6abfbf5a61b0ec", "type": "electric_scooter", "name": "16f885dd79cbef201c6abfbf5a61b0ec", "rental_uris": {"android": "https://dc.lft.to/lastmile_qr_scan", "ios": "https://dc.lft.to/lastmile_qr_scan"}, "is_disabled": 0, "fusion_lat": 0.0, "lat": 38.881603, "is_reserved": 0}, {"lon": -77.02885083333334, "fusion_lon": 0.0, "bike_id": "56b33a799292f54b53791c0e8471cfcd", "type": "electric_scooter", "name": "56b33a799292f54b53791c0e8471cfcd", "rental_uris": {"android": "https://dc.lft.to/lastmile_qr_scan", "ios": "https://dc.lft.to/lastmile_qr_scan"}, "is_disabled": 0, "fusion_lat": 0.0, "lat": 38.90464166666667, "is_reserved": 0}, {"lon": -77.03588233333333, "fusion_lon": 0.0, "bike_id": "f765fd49f8051dce06d589f77bb841c9", "type": "electric_scooter", "name": "f765fd49f8051dce06d589f77bb841c9", "rental_uris": {"android": "https://dc.lft.to/lastmile_qr_scan", "ios": "https://dc.lft.to/lastmile_qr_scan"}, "is_disabled": 0, "fusion_lat": 0.0, "lat": 38.992266, "is_reserved": 0}, {"lon": -77.04404416666667, "fusion_lon": 0.0, "bike_id": "bfd41f6f4cecc84beafaf9771864df56", "type": "electric_scooter", "name": "bfd41f6f4cecc84beafaf9771864df56", "rental_uris": {"android": "https://dc.lft.to/lastmile_qr_scan", "ios": "https://dc.lft.to/lastmile_qr_scan"}, "is_disabled": 0, "fusion_lat": 0.0, "lat": 38.92950716666667, "is_reserved": 0}, {"lon": -76.99041016666666, "fusion_lon": 0.0, "bike_id": "f251b25416df61edd625b56088af13b8", "type": "electric_scooter", "name": "f251b25416df61edd625b56088af13b8", "rental_uris": {"android": "https://dc.lft.to/lastmile_qr_scan", "ios": "https://dc.lft.to/lastmile_qr_scan"}, "is_disabled": 0, "fusion_lat": 0.0, "lat": 38.86388766666666, "is_reserved": 0}, {"lon": -77.025989, "fusion_lon": 0.0, "bike_id": "ac9757e01beb0339a28808e2932ee63f", "type": "electric_scooter", "name": "ac9757e01beb0339a28808e2932ee63f", "rental_uris": {"android": "https://dc.lft.to/lastmile_qr_scan", "ios": "https://dc.lft.to/lastmile_qr_scan"}, "is_disabled": 0, "fusion_lat": 0.0, "lat": 38.90419083333333, "is_reserved": 0}, {"lon": -76.96057333333333, "fusion_lon": 0.0, "bike_id": "e624b79c5ceebac6f9fc6da0ddaa931a", "type": "electric_bike", "name": "e624b79c5ceebac6f9fc6da0ddaa931a", "rental_uris": {"android": "https://dc.lft.to/lastmile_qr_scan", "ios": "https://dc.lft.to/lastmile_qr_scan"}, "is_disabled": 0, "fusion_lat": 0.0, "lat": 38.88399483333333, "is_reserved": 0}, {"lon": -77.11743166666666, "fusion_lon": 0.0, "bike_id": "defc195011c3048692d636770c17e197", "type": "electric_bike", "name": "defc195011c3048692d636770c17e197", "rental_uris": {"android": "https://dc.lft.to/lastmile_qr_scan", "ios": "https://dc.lft.to/lastmile_qr_scan"}, "is_disabled": 0, "fusion_lat": 0.0, "lat": 39.050988833333335, "is_reserved": 0}, {"lon": -77.03832733333333, "fusion_lon": 0.0, "bike_id": "eed9905a72231871d50e56bcc1b57875", "type": "electric_scooter", "name": "eed9905a72231871d50e56bcc1b57875", "rental_uris": {"android": "https://dc.lft.to/lastmile_qr_scan", "ios": "https://dc.lft.to/lastmile_qr_scan"}, "is_disabled": 0, "fusion_lat": 0.0, "lat": 38.9027455, "is_reserved": 0}, {"lon": -77.04899466666667, "fusion_lon": 0.0, "bike_id": "02001230fcde35fd8a4c2ab5dc4cca5a", "type": "electric_scooter", "name": "02001230fcde35fd8a4c2ab5dc4cca5a", "rental_uris": {"android": "https://dc.lft.to/lastmile_qr_scan", "ios": "https://dc.lft.to/lastmile_qr_scan"}, "is_disabled": 0, "fusion_lat": 0.0, "lat": 38.890006666666665, "is_reserved": 0}, {"lon": -77.03980366666667, "fusion_lon": 0.0, "bike_id": "ea536e3f416949d951735ca726ea90b6", "type": "electric_scooter", "name": "ea536e3f416949d951735ca726ea90b6", "rental_uris": {"android": "https://dc.lft.to/lastmile_qr_scan", "ios": "https://dc.lft.to/lastmile_qr_scan"}, "is_disabled": 0, "fusion_lat": 0.0, "lat": 38.91809683333334, "is_reserved": 0}, {"lon": -76.94701216666667, "fusion_lon": 0.0, "bike_id": "1e77da5ee45de415239e700b2f3d5da2", "type": "electric_scooter", "name": "1e77da5ee45de415239e700b2f3d5da2", "rental_uris": {"android": "https://dc.lft.to/lastmile_qr_scan", "ios": "https://dc.lft.to/lastmile_qr_scan"}, "is_disabled": 0, "fusion_lat": 0.0, "lat": 38.897293, "is_reserved": 0}, {"lon": -77.0546985, "fusion_lon": 0.0, "bike_id": "4960e14a001f38b5e5dc8ff281fab041", "type": "electric_scooter", "name": "4960e14a001f38b5e5dc8ff281fab041", "rental_uris": {"android": "https://dc.lft.to/lastmile_qr_scan", "ios": "https://dc.lft.to/lastmile_qr_scan"}, "is_disabled": 0, "fusion_lat": 0.0, "lat": 38.90949483333333, "is_reserved": 0}, {"lon": -76.99038733333333, "fusion_lon": 0.0, "bike_id": "88314c6548919199090d143fb68ada06", "type": "electric_scooter", "name": "88314c6548919199090d143fb68ada06", "rental_uris": {"android": "https://dc.lft.to/lastmile_qr_scan", "ios": "https://dc.lft.to/lastmile_qr_scan"}, "is_disabled": 0, "fusion_lat": 0.0, "lat": 38.863891833333334, "is_reserved": 0}, {"lon": -77.0217855, "fusion_lon": 0.0, "bike_id": "1b72f6a6bc9a88968115f448c8bc1f40", "type": "electric_scooter", "name": "1b72f6a6bc9a88968115f448c8bc1f40", "rental_uris": {"android": "https://dc.lft.to/lastmile_qr_scan", "ios": "https://dc.lft.to/lastmile_qr_scan"}, "is_disabled": 0, "fusion_lat": 0.0, "lat": 38.89624533333333, "is_reserved": 0}, {"lon": -77.05075483333333, "fusion_lon": 0.0, "bike_id": "756df6494bbdc32e54349d8259a614ac", "type": "electric_scooter", "name": "756df6494bbdc32e54349d8259a614ac", "rental_uris": {"android": "https://dc.lft.to/lastmile_qr_scan", "ios": "https://dc.lft.to/lastmile_qr_scan"}, "is_disabled": 0, "fusion_lat": 0.0, "lat": 38.925293833333335, "is_reserved": 0}, {"lon": -77.0466895, "fusion_lon": 0.0, "bike_id": "9b51b3954e0356d31a99bc27833f1331", "type": "electric_scooter", "name": "9b51b3954e0356d31a99bc27833f1331", "rental_uris": {"android": "https://dc.lft.to/lastmile_qr_scan", "ios": "https://dc.lft.to/lastmile_qr_scan"}, "is_disabled": 0, "fusion_lat": 0.0, "lat": 38.901372, "is_reserved": 0}, {"lon": -77.0345215, "fusion_lon": 0.0, "bike_id": "7c84c9435e31c36084e3d3b07355c745", "type": "electric_scooter", "name": "7c84c9435e31c36084e3d3b07355c745", "rental_uris": {"android": "https://dc.lft.to/lastmile_qr_scan", "ios": "https://dc.lft.to/lastmile_qr_scan"}, "is_disabled": 0, "fusion_lat": 0.0, "lat": 38.90728583333333, "is_reserved": 0}, {"lon": -77.05320133333333, "fusion_lon": 0.0, "bike_id": "35cd76ba757841d484acb62a2d05abf3", "type": "electric_scooter", "name": "35cd76ba757841d484acb62a2d05abf3", "rental_uris": {"android": "https://dc.lft.to/lastmile_qr_scan", "ios": "https://dc.lft.to/lastmile_qr_scan"}, "is_disabled": 0, "fusion_lat": 0.0, "lat": 38.902294166666664, "is_reserved": 0}, {"lon": -77.02716716666667, "fusion_lon": 0.0, "bike_id": "4c22f57ae10cb9420f77a519a1fe137e", "type": "electric_scooter", "name": "4c22f57ae10cb9420f77a519a1fe137e", "rental_uris": {"android": "https://dc.lft.to/lastmile_qr_scan", "ios": "https://dc.lft.to/lastmile_qr_scan"}, "is_disabled": 0, "fusion_lat": 0.0, "lat": 38.906689166666666, "is_reserved": 0}, {"lon": -76.985747, "fusion_lon": 0.0, "bike_id": "f45d8596edcb68d750af430fc1328d89", "type": "electric_scooter", "name": "f45d8596edcb68d750af430fc1328d89", "rental_uris": {"android": "https://dc.lft.to/lastmile_qr_scan", "ios": "https://dc.lft.to/lastmile_qr_scan"}, "is_disabled": 0, "fusion_lat": 0.0, "lat": 38.86679566666667, "is_reserved": 0}, {"lon": -77.00770983333334, "fusion_lon": 0.0, "bike_id": "2710386581728bedd266043fbd8f0ca3", "type": "electric_scooter", "name": "2710386581728bedd266043fbd8f0ca3", "rental_uris": {"android": "https://dc.lft.to/lastmile_qr_scan", "ios": "https://dc.lft.to/lastmile_qr_scan"}, "is_disabled": 0, "fusion_lat": 0.0, "lat": 38.904818666666664, "is_reserved": 0}, {"lon": -76.97978333333333, "fusion_lon": 0.0, "bike_id": "2af8907bf8554fb4f7ea4fc984314aa6", "type": "electric_scooter", "name": "2af8907bf8554fb4f7ea4fc984314aa6", "rental_uris": {"android": "https://dc.lft.to/lastmile_qr_scan", "ios": "https://dc.lft.to/lastmile_qr_scan"}, "is_disabled": 0, "fusion_lat": 0.0, "lat": 38.897422666666664, "is_reserved": 0}, {"lon": -77.02712683333333, "fusion_lon": 0.0, "bike_id": "d18813e4b660202e6849b4cc7b4bf6c1", "type": "electric_scooter", "name": "d18813e4b660202e6849b4cc7b4bf6c1", "rental_uris": {"android": "https://dc.lft.to/lastmile_qr_scan", "ios": "https://dc.lft.to/lastmile_qr_scan"}, "is_disabled": 0, "fusion_lat": 0.0, "lat": 38.91718133333333, "is_reserved": 0}, {"lon": -77.034595, "fusion_lon": 0.0, "bike_id": "c3ec4207676ee85c0f2599c48f86a814", "type": "electric_scooter", "name": "c3ec4207676ee85c0f2599c48f86a814", "rental_uris": {"android": "https://dc.lft.to/lastmile_qr_scan", "ios": "https://dc.lft.to/lastmile_qr_scan"}, "is_disabled": 0, "fusion_lat": 0.0, "lat": 38.90841666666667, "is_reserved": 0}, {"lon": -77.0819075, "fusion_lon": 0.0, "bike_id": "290b06401c18872d6208252f6efe395a", "type": "electric_scooter", "name": "290b06401c18872d6208252f6efe395a", "rental_uris": {"android": "https://dc.lft.to/lastmile_qr_scan", "ios": "https://dc.lft.to/lastmile_qr_scan"}, "is_disabled": 0, "fusion_lat": 0.0, "lat": 38.935520333333336, "is_reserved": 0}, {"lon": -77.041633, "fusion_lon": 0.0, "bike_id": "3d1d40d789a92fefd4bc3463c0a8c1bc", "type": "electric_scooter", "name": "3d1d40d789a92fefd4bc3463c0a8c1bc", "rental_uris": {"android": "https://dc.lft.to/lastmile_qr_scan", "ios": "https://dc.lft.to/lastmile_qr_scan"}, "is_disabled": 0, "fusion_lat": 0.0, "lat": 38.918658666666666, "is_reserved": 0}, {"lon": -77.03090366666666, "fusion_lon": 0.0, "bike_id": "21ca510bf4e0462078dd007d10bc5143", "type": "electric_scooter", "name": "21ca510bf4e0462078dd007d10bc5143", "rental_uris": {"android": "https://dc.lft.to/lastmile_qr_scan", "ios": "https://dc.lft.to/lastmile_qr_scan"}, "is_disabled": 0, "fusion_lat": 0.0, "lat": 38.910621166666665, "is_reserved": 0}, {"lon": -77.036254, "fusion_lon": 0.0, "bike_id": "ff71bfc73435af7ce162c9c118482349", "type": "electric_scooter", "name": "ff71bfc73435af7ce162c9c118482349", "rental_uris": {"android": "https://dc.lft.to/lastmile_qr_scan", "ios": "https://dc.lft.to/lastmile_qr_scan"}, "is_disabled": 0, "fusion_lat": 0.0, "lat": 38.91699766666667, "is_reserved": 0}, {"lon": -77.03442133333333, "fusion_lon": 0.0, "bike_id": "b3b654d78841f070a2a9c59e97c2167a", "type": "electric_scooter", "name": "b3b654d78841f070a2a9c59e97c2167a", "rental_uris": {"android": "https://dc.lft.to/lastmile_qr_scan", "ios": "https://dc.lft.to/lastmile_qr_scan"}, "is_disabled": 0, "fusion_lat": 0.0, "lat": 38.907298833333336, "is_reserved": 0}, {"lon": -77.03620883333333, "fusion_lon": 0.0, "bike_id": "969046eda377038bf7c64c83d41748a9", "type": "electric_scooter", "name": "969046eda377038bf7c64c83d41748a9", "rental_uris": {"android": "https://dc.lft.to/lastmile_qr_scan", "ios": "https://dc.lft.to/lastmile_qr_scan"}, "is_disabled": 0, "fusion_lat": 0.0, "lat": 38.937356666666666, "is_reserved": 0}, {"lon": -76.97610166666666, "fusion_lon": 0.0, "bike_id": "d336036d1f82896d7e913c5ec4d419c2", "type": "electric_scooter", "name": "d336036d1f82896d7e913c5ec4d419c2", "rental_uris": {"android": "https://dc.lft.to/lastmile_qr_scan", "ios": "https://dc.lft.to/lastmile_qr_scan"}, "is_disabled": 0, "fusion_lat": 0.0, "lat": 38.9401885, "is_reserved": 0}, {"lon": -77.005296, "fusion_lon": 0.0, "bike_id": "1f806c383b43551b8c42414aa840653f", "type": "electric_scooter", "name": "1f806c383b43551b8c42414aa840653f", "rental_uris": {"android": "https://dc.lft.to/lastmile_qr_scan", "ios": "https://dc.lft.to/lastmile_qr_scan"}, "is_disabled": 0, "fusion_lat": 0.0, "lat": 38.877173666666664, "is_reserved": 0}, {"lon": -77.02181933333334, "fusion_lon": 0.0, "bike_id": "07e51b45a6ba1bbdf52ff5a5c2a26a3b", "type": "electric_scooter", "name": "07e51b45a6ba1bbdf52ff5a5c2a26a3b", "rental_uris": {"android": "https://dc.lft.to/lastmile_qr_scan", "ios": "https://dc.lft.to/lastmile_qr_scan"}, "is_disabled": 0, "fusion_lat": 0.0, "lat": 38.9098125, "is_reserved": 0}, {"lon": -77.07742866666666, "fusion_lon": 0.0, "bike_id": "1f85b0d0a08081cc79701fdba7266aa0", "type": "electric_scooter", "name": "1f85b0d0a08081cc79701fdba7266aa0", "rental_uris": {"android": "https://dc.lft.to/lastmile_qr_scan", "ios": "https://dc.lft.to/lastmile_qr_scan"}, "is_disabled": 0, "fusion_lat": 0.0, "lat": 38.9116855, "is_reserved": 0}, {"lon": -76.94861583333333, "fusion_lon": 0.0, "bike_id": "a3b3f581222277fe9700dfac2d2c486d", "type": "electric_scooter", "name": "a3b3f581222277fe9700dfac2d2c486d", "rental_uris": {"android": "https://dc.lft.to/lastmile_qr_scan", "ios": "https://dc.lft.to/lastmile_qr_scan"}, "is_disabled": 0, "fusion_lat": 0.0, "lat": 38.894793666666665, "is_reserved": 0}, {"lon": -77.03184033333334, "fusion_lon": 0.0, "bike_id": "4f3f05b470fe34db1b027b0fc717910e", "type": "electric_scooter", "name": "4f3f05b470fe34db1b027b0fc717910e", "rental_uris": {"android": "https://dc.lft.to/lastmile_qr_scan", "ios": "https://dc.lft.to/lastmile_qr_scan"}, "is_disabled": 0, "fusion_lat": 0.0, "lat": 38.924875, "is_reserved": 0}, {"lon": -76.980134, "fusion_lon": 0.0, "bike_id": "82cd5983104640470d3523c8073a95cf", "type": "electric_scooter", "name": "82cd5983104640470d3523c8073a95cf", "rental_uris": {"android": "https://dc.lft.to/lastmile_qr_scan", "ios": "https://dc.lft.to/lastmile_qr_scan"}, "is_disabled": 0, "fusion_lat": 0.0, "lat": 38.8643105, "is_reserved": 0}, {"lon": -77.0401455, "fusion_lon": 0.0, "bike_id": "4cbac1d8456d75b2a637417502df034b", "type": "electric_scooter", "name": "4cbac1d8456d75b2a637417502df034b", "rental_uris": {"android": "https://dc.lft.to/lastmile_qr_scan", "ios": "https://dc.lft.to/lastmile_qr_scan"}, "is_disabled": 0, "fusion_lat": 0.0, "lat": 38.896297, "is_reserved": 0}, {"lon": -77.01602566666666, "fusion_lon": 0.0, "bike_id": "93516e2c2c8c76b2f48f19af64d8a1ba", "type": "electric_scooter", "name": "93516e2c2c8c76b2f48f19af64d8a1ba", "rental_uris": {"android": "https://dc.lft.to/lastmile_qr_scan", "ios": "https://dc.lft.to/lastmile_qr_scan"}, "is_disabled": 0, "fusion_lat": 0.0, "lat": 38.901705166666666, "is_reserved": 0}, {"lon": -77.03844483333333, "fusion_lon": 0.0, "bike_id": "75301542555f1403720ff2fdf6030796", "type": "electric_scooter", "name": "75301542555f1403720ff2fdf6030796", "rental_uris": {"android": "https://dc.lft.to/lastmile_qr_scan", "ios": "https://dc.lft.to/lastmile_qr_scan"}, "is_disabled": 0, "fusion_lat": 0.0, "lat": 38.9027775, "is_reserved": 0}, {"lon": -77.00012566666666, "fusion_lon": 0.0, "bike_id": "7387fec9d539293c2273d7d56122409f", "type": "electric_scooter", "name": "7387fec9d539293c2273d7d56122409f", "rental_uris": {"android": "https://dc.lft.to/lastmile_qr_scan", "ios": "https://dc.lft.to/lastmile_qr_scan"}, "is_disabled": 0, "fusion_lat": 0.0, "lat": 38.87478266666667, "is_reserved": 0}, {"lon": -77.00136366666666, "fusion_lon": 0.0, "bike_id": "09e3590db50c33beb12acd47aacf2668", "type": "electric_scooter", "name": "09e3590db50c33beb12acd47aacf2668", "rental_uris": {"android": "https://dc.lft.to/lastmile_qr_scan", "ios": "https://dc.lft.to/lastmile_qr_scan"}, "is_disabled": 0, "fusion_lat": 0.0, "lat": 38.892729, "is_reserved": 0}, {"lon": -77.02560566666666, "fusion_lon": 0.0, "bike_id": "31e2173a477348df28cc0f6fd4c36fa4", "type": "electric_scooter", "name": "31e2173a477348df28cc0f6fd4c36fa4", "rental_uris": {"android": "https://dc.lft.to/lastmile_qr_scan", "ios": "https://dc.lft.to/lastmile_qr_scan"}, "is_disabled": 0, "fusion_lat": 0.0, "lat": 38.941766666666666, "is_reserved": 0}, {"lon": -77.02299166666667, "fusion_lon": 0.0, "bike_id": "b71b6ba34ceec783a6ae46dc9ca614b1", "type": "electric_scooter", "name": "b71b6ba34ceec783a6ae46dc9ca614b1", "rental_uris": {"android": "https://dc.lft.to/lastmile_qr_scan", "ios": "https://dc.lft.to/lastmile_qr_scan"}, "is_disabled": 0, "fusion_lat": 0.0, "lat": 38.917175, "is_reserved": 0}, {"lon": -77.0005245, "fusion_lon": 0.0, "bike_id": "5af4c9e409b9b01d3c6c727236c7702e", "type": "electric_scooter", "name": "5af4c9e409b9b01d3c6c727236c7702e", "rental_uris": {"android": "https://dc.lft.to/lastmile_qr_scan", "ios": "https://dc.lft.to/lastmile_qr_scan"}, "is_disabled": 0, "fusion_lat": 0.0, "lat": 38.9235845, "is_reserved": 0}, {"lon": -77.00661416666667, "fusion_lon": 0.0, "bike_id": "883dce9fc6cbc6378588b3c694e7f58d", "type": "electric_scooter", "name": "883dce9fc6cbc6378588b3c694e7f58d", "rental_uris": {"android": "https://dc.lft.to/lastmile_qr_scan", "ios": "https://dc.lft.to/lastmile_qr_scan"}, "is_disabled": 0, "fusion_lat": 0.0, "lat": 38.8999715, "is_reserved": 0}, {"lon": -77.033001, "fusion_lon": 0.0, "bike_id": "ee17eebb45b0d3be803c3371dd1107af", "type": "electric_scooter", "name": "ee17eebb45b0d3be803c3371dd1107af", "rental_uris": {"android": "https://dc.lft.to/lastmile_qr_scan", "ios": "https://dc.lft.to/lastmile_qr_scan"}, "is_disabled": 0, "fusion_lat": 0.0, "lat": 38.956359166666665, "is_reserved": 0}, {"lon": -76.99038083333333, "fusion_lon": 0.0, "bike_id": "1971b5b3a5652499c8e10457a0a4995a", "type": "electric_scooter", "name": "1971b5b3a5652499c8e10457a0a4995a", "rental_uris": {"android": "https://dc.lft.to/lastmile_qr_scan", "ios": "https://dc.lft.to/lastmile_qr_scan"}, "is_disabled": 0, "fusion_lat": 0.0, "lat": 38.863885333333336, "is_reserved": 0}, {"lon": -77.07294866666666, "fusion_lon": 0.0, "bike_id": "04b889b08998bf1d104afd7b9a6e822f", "type": "electric_bike", "name": "04b889b08998bf1d104afd7b9a6e822f", "rental_uris": {"android": "https://dc.lft.to/lastmile_qr_scan", "ios": "https://dc.lft.to/lastmile_qr_scan"}, "is_disabled": 0, "fusion_lat": 0.0, "lat": 38.935438166666664, "is_reserved": 0}, {"lon": -77.02971583333333, "fusion_lon": 0.0, "bike_id": "4fdcb4a70cf526d3511fb522e854effb", "type": "electric_scooter", "name": "4fdcb4a70cf526d3511fb522e854effb", "rental_uris": {"android": "https://dc.lft.to/lastmile_qr_scan", "ios": "https://dc.lft.to/lastmile_qr_scan"}, "is_disabled": 0, "fusion_lat": 0.0, "lat": 38.912914666666666, "is_reserved": 0}, {"lon": -76.98339916666667, "fusion_lon": 0.0, "bike_id": "e6185935c340326cd4797956b72db861", "type": "electric_scooter", "name": "e6185935c340326cd4797956b72db861", "rental_uris": {"android": "https://dc.lft.to/lastmile_qr_scan", "ios": "https://dc.lft.to/lastmile_qr_scan"}, "is_disabled": 0, "fusion_lat": 0.0, "lat": 38.86562816666667, "is_reserved": 0}, {"lon": -76.99995066666666, "fusion_lon": 0.0, "bike_id": "c8464847076f875ba290013f0de0643e", "type": "electric_scooter", "name": "c8464847076f875ba290013f0de0643e", "rental_uris": {"android": "https://dc.lft.to/lastmile_qr_scan", "ios": "https://dc.lft.to/lastmile_qr_scan"}, "is_disabled": 0, "fusion_lat": 0.0, "lat": 38.87515616666666, "is_reserved": 0}, {"lon": -77.0373795, "fusion_lon": 0.0, "bike_id": "2b3752b5508bd6f0668bc4700a4a37d4", "type": "electric_scooter", "name": "2b3752b5508bd6f0668bc4700a4a37d4", "rental_uris": {"android": "https://dc.lft.to/lastmile_qr_scan", "ios": "https://dc.lft.to/lastmile_qr_scan"}, "is_disabled": 0, "fusion_lat": 0.0, "lat": 38.90238816666667, "is_reserved": 0}, {"lon": -77.05861416666667, "fusion_lon": 0.0, "bike_id": "e2e21a4399186c09e015f75f66d60c0f", "type": "electric_scooter", "name": "e2e21a4399186c09e015f75f66d60c0f", "rental_uris": {"android": "https://dc.lft.to/lastmile_qr_scan", "ios": "https://dc.lft.to/lastmile_qr_scan"}, "is_disabled": 0, "fusion_lat": 0.0, "lat": 38.9360985, "is_reserved": 0},