{"data": {"bikes": [{"is_reserved": 0, "fusion_lon": 0.0, "lon": -77.02396183333333, "fusion_lat": 0.0, "rental_uris": {"ios": "https://dc.lft.to/lastmile_qr_scan", "android": "https://dc.lft.to/lastmile_qr_scan"}, "bike_id": "75bda408c527ba77af16499d04e958ca", "lat": 38.90689183333333, "type": "electric_scooter", "name": "75bda408c527ba77af16499d04e958ca", "is_disabled": 0}, {"is_reserved": 0, "fusion_lon": 0.0, "lon": -77.04135583333333, "fusion_lat": 0.0, "rental_uris": {"ios": "https://dc.lft.to/lastmile_qr_scan", "android": "https://dc.lft.to/lastmile_qr_scan"}, "bike_id": "9987f345ccb2c4ee8fc763f1d48878b0", "lat": 38.92178216666667, "type": "electric_scooter", "name": "9987f345ccb2c4ee8fc763f1d48878b0", "is_disabled": 0}, {"is_reserved": 0, "fusion_lon": 0.0, "lon": -76.948258, "fusion_lat": 0.0, "rental_uris": {"ios": "https://dc.lft.to/lastmile_qr_scan", "android": "https://dc.lft.to/lastmile_qr_scan"}, "bike_id": "9b4e643465f06e0284778f5e9890bd69", "lat": 38.8840995, "type": "electric_scooter", "name": "9b4e643465f06e0284778f5e9890bd69", "is_disabled": 0}, {"is_reserved": 0, "fusion_lon": 0.0, "lon": -77.042704, "fusion_lat": 0.0, "rental_uris": {"ios": "https://dc.lft.to/lastmile_qr_scan", "android": "https://dc.lft.to/lastmile_qr_scan"}, "bike_id": "c39cfce996e8c3d7f094b282880e2139", "lat": 38.83094666666667, "type": "electric_bike", "name": "c39cfce996e8c3d7f094b282880e2139", "is_disabled": 0}, {"is_reserved": 0, "fusion_lon": 0.0, "lon": -77.02382483333334, "fusion_lat": 0.0, "rental_uris": {"ios": "https://dc.lft.to/lastmile_qr_scan", "android": "https://dc.lft.to/lastmile_qr_scan"}, "bike_id": "71f4dee1ab1138b644cd2a38920ce1bd", "lat": 38.891934, "type": "electric_scooter", "name": "71f4dee1ab1138b644cd2a38920ce1bd", "is_disabled": 0}, {"is_reserved": 0, "fusion_lon": 0.0, "lon": -77.0238315, "fusion_lat": 0.0, "rental_uris": {"ios": "https://dc.lft.to/lastmile_qr_scan", "android": "https://dc.lft.to/lastmile_qr_scan"}, "bike_id": "93c011780c760818d871a92854a98989", "lat": 38.892238666666664, "type": "electric_scooter", "name": "93c011780c760818d871a92854a98989", "is_disabled": 0}, {"is_reserved": 0, "fusion_lon": 0.0, "lon": -77.003474, "fusion_lat": 0.0, "rental_uris": {"ios": "https://dc.lft.to/lastmile_qr_scan", "android": "https://dc.lft.to/lastmile_qr_scan"}, "bike_id": "f88a1b84ac0b589185c1c707687d82e4", "lat": 38.886948833333335, "type": "electric_scooter", "name": "f88a1b84ac0b589185c1c707687d82e4", "is_disabled": 0}, {"is_reserved": 0, "fusion_lon": 0.0, "lon": -77.029843, "fusion_lat": 0.0, "rental_uris": {"ios": "https://dc.lft.to/lastmile_qr_scan", "android": "https://dc.lft.to/lastmile_qr_scan"}, "bike_id": "ac392eab5d6be4ad61b166d55751aa63", "lat": 38.897463333333334, "type": "electric_scooter", "name": "ac392eab5d6be4ad61b166d55751aa63", "is_disabled": 0}, {"is_reserved": 0, "fusion_lon": 0.0, "lon": -77.021112, "fusion_lat": 0.0, "rental_uris": {"ios": "https://dc.lft.to/lastmile_qr_scan", "android": "https://dc.lft.to/lastmile_qr_scan"}, "bike_id": "a3b6e811ebb1b13c5bde4d7b0758f6d5", "lat": 38.9275455, "type": "electric_scooter", "name": "a3b6e811ebb1b13c5bde4d7b0758f6d5", "is_disabled": 0}, {"is_reserved": 0, "fusion_lon": 0.0, "lon": -76.928988, "fusion_lat": 0.0, "rental_uris": {"ios": "https://dc.lft.to/lastmile_qr_scan", "android": "https://dc.lft.to/lastmile_qr_scan"}, "bike_id": "4c940ab6d82f3dc8c5143d89fd7564f4", "lat": 38.901828333333334, "type": "electric_scooter", "name": "4c940ab6d82f3dc8c5143d89fd7564f4", "is_disabled": 0}, {"is_reserved": 0, "fusion_lon": 0.0, "lon": -77.01151433333334, "fusion_lat": 0.0, "rental_uris": {"ios": "https://dc.lft.to/lastmile_qr_scan", "android": "https://dc.lft.to/lastmile_qr_scan"}, "bike_id": "f6b5b18d1aefe3203bb6b20f83dd8114", "lat": 38.8985585, "type": "electric_scooter", "name": "f6b5b18d1aefe3203bb6b20f83dd8114", "is_disabled": 0}, {"is_reserved": 0, "fusion_lon": 0.0, "lon": -76.93972, "fusion_lat": 0.0, "rental_uris": {"ios": "https://dc.lft.to/lastmile_qr_scan", "android": "https://dc.lft.to/lastmile_qr_scan"}, "bike_id": "bcbe5b300ce5cbeeee7cb66d84a14b9b", "lat": 38.89341016666667, "type": "electric_scooter", "name": "bcbe5b300ce5cbeeee7cb66d84a14b9b", "is_disabled": 0}, {"is_reserved": 0, "fusion_lon": 0.0, "lon": -76.98356733333334, "fusion_lat": 0.0, "rental_uris": {"ios": "https://dc.lft.to/lastmile_qr_scan", "android": "https://dc.lft.to/lastmile_qr_scan"}, "bike_id": "9a27e4d623b9e7c5155a80be523f1412", "lat": 38.914938666666664, "type": "electric_scooter", "name": "9a27e4d623b9e7c5155a80be523f1412", "is_disabled": 0}, {"is_reserved": 0, "fusion_lon": 0.0, "lon": -77.03408866666666, "fusion_lat": 0.0, "rental_uris": {"ios": "https://dc.lft.to/lastmile_qr_scan", "android": "https://dc.lft.to/lastmile_qr_scan"}, "bike_id": "362f07040333818a9e7880e3286487e6", "lat": 38.92265016666666, "type": "electric_scooter", "name": "362f07040333818a9e7880e3286487e6", "is_disabled": 0}, {"is_reserved": 0, "fusion_lon": 0.0, "lon": -77.03825916666666, "fusion_lat": 0.0, "rental_uris": {"ios": "https://dc.lft.to/lastmile_qr_scan", "android": "https://dc.lft.to/lastmile_qr_scan"}, "bike_id": "b5c98be0f28d68da60ec5cd568bfb6ac", "lat": 38.904754833333335, "type": "electric_scooter", "name": "b5c98be0f28d68da60ec5cd568bfb6ac", "is_disabled": 0}, {"is_reserved": 0, "fusion_lon": 0.0, "lon": -77.01140516666666, "fusion_lat": 0.0, "rental_uris": {"ios": "https://dc.lft.to/lastmile_qr_scan", "android": "https://dc.lft.to/lastmile_qr_scan"}, "bike_id": "40c5822a0713748c286ff07d14c07a7f", "lat": 38.907231333333335, "type": "electric_scooter", "name": "40c5822a0713748c286ff07d14c07a7f", "is_disabled": 0}, {"is_reserved": 0, "fusion_lon": 0.0, "lon": -77.0151445, "fusion_lat": 0.0, "rental_uris": {"ios": "https://dc.lft.to/lastmile_qr_scan", "android": "https://dc.lft.to/lastmile_qr_scan"}, "bike_id": "a47016dadb25c201df9b5d772561a2c1", "lat": 38.913224166666666, "type": "electric_scooter", "name": "a47016dadb25c201df9b5d772561a2c1", "is_disabled": 0}, {"is_reserved": 0, "fusion_lon": 0.0, "lon": -77.024127, "fusion_lat": 0.0, "rental_uris": {"ios": "https://dc.lft.to/lastmile_qr_scan", "android": "https://dc.lft.to/lastmile_qr_scan"}, "bike_id": "a9a810fc04e4e2c449e84b2f33cdf443", "lat": 38.892159166666666, "type": "electric_scooter", "name": "a9a810fc04e4e2c449e84b2f33cdf443", "is_disabled": 0}, {"is_reserved": 0, "fusion_lon": 0.0, "lon": -77.04289416666667, "fusion_lat": 0.0, "rental_uris": {"ios": "https://dc.lft.to/lastmile_qr_scan", "android": "https://dc.lft.to/lastmile_qr_scan"}, "bike_id": "beea440023eb303fc5fc078aedf8d4fb", "lat": 38.90800483333334, "type": "electric_scooter", "name": "beea440023eb303fc5fc078aedf8d4fb", "is_disabled": 0}, {"is_reserved": 0, "fusion_lon": 0.0, "lon": -77.0068055, "fusion_lat": 0.0, "rental_uris": {"ios": "https://dc.lft.to/lastmile_qr_scan", "android": "https://dc.lft.to/lastmile_qr_scan"}, "bike_id": "2d7c952ad76c003f81dfbd266337ac9e", "lat": 38.871685166666666, "type": "electric_scooter", "name": "2d7c952ad76c003f81dfbd266337ac9e", "is_disabled": 0}, {"is_reserved": 0, "fusion_lon": 0.0, "lon": -77.042673, "fusion_lat": 0.0, "rental_uris": {"ios": "https://dc.lft.to/lastmile_qr_scan", "android": "https://dc.lft.to/lastmile_qr_scan"}, "bike_id": "52c4d87aa85dc5461cdd6f6c91451d91", "lat": 38.89950616666667, "type": "electric_scooter", "name": "52c4d87aa85dc5461cdd6f6c91451d91", "is_disabled": 0}, {"is_reserved": 0, "fusion_lon": 0.0, "lon": -77.03861916666666, "fusion_lat": 0.0, "rental_uris": {"ios": "https://dc.lft.to/lastmile_qr_scan", "android": "https://dc.lft.to/lastmile_qr_scan"}, "bike_id": "ea958e14dec35ede352095c3a22ef354", "lat": 38.932683833333336, "type": "electric_scooter", "name": "ea958e14dec35ede352095c3a22ef354", "is_disabled": 0}, {"is_reserved": 0, "fusion_lon": 0.0, "lon": -77.02480233333333, "fusion_lat": 0.0, "rental_uris": {"ios": "https://dc.lft.to/lastmile_qr_scan", "android": "https://dc.lft.to/lastmile_qr_scan"}, "bike_id": "f0f3faa9bc7d8eb61c0f637a4493dab3", "lat": 38.918733, "type": "electric_scooter", "name": "f0f3faa9bc7d8eb61c0f637a4493dab3", "is_disabled": 0}, {"is_reserved": 0, "fusion_lon": 0.0, "lon": -77.005151, "fusion_lat": 0.0, "rental_uris": {"ios": "https://dc.lft.to/lastmile_qr_scan", "android": "https://dc.lft.to/lastmile_qr_scan"}, "bike_id": "8ce7a263baa44be8888ca7fe64d71b9f", "lat": 38.87472133333333, "type": "electric_scooter", "name": "8ce7a263baa44be8888ca7fe64d71b9f", "is_disabled": 0}, {"is_reserved": 0, "fusion_lon": 0.0, "lon": -77.06406666666666, "fusion_lat": 0.0, "rental_uris": {"ios": "https://dc.lft.to/lastmile_qr_scan", "android": "https://dc.lft.to/lastmile_qr_scan"}, "bike_id": "2f5598d4c34b0044c3d2ca9b541efe2a", "lat": 38.9443885, "type": "electric_scooter", "name": "2f5598d4c34b0044c3d2ca9b541efe2a", "is_disabled": 0}, {"is_reserved": 0, "fusion_lon": 0.0, "lon": -76.91806283333334, "fusion_lat": 0.0, "rental_uris": {"ios": "https://dc.lft.to/lastmile_qr_scan", "android": "https://dc.lft.to/lastmile_qr_scan"}, "bike_id": "e078901fcc0078cb83bdc2c3f8f4c42d", "lat": 38.9999695, "type": "electric_bike", "name": "e078901fcc0078cb83bdc2c3f8f4c42d", "is_disabled": 0}, {"is_reserved": 0, "fusion_lon": 0.0, "lon": -77.02834033333333, "fusion_lat": 0.0, "rental_uris": {"ios": "https://dc.lft.to/lastmile_qr_scan", "android": "https://dc.lft.to/lastmile_qr_scan"}, "bike_id": "0686f1620f77ab04edb5b7b5b7e01882", "lat": 38.887315, "type": "electric_scooter", "name": "0686f1620f77ab04edb5b7b5b7e01882", "is_disabled": 0}, {"is_reserved": 0, "fusion_lon": 0.0, "lon": -77.03410316666667, "fusion_lat": 0.0, "rental_uris": {"ios": "https://dc.lft.to/lastmile_qr_scan", "android": "https://dc.lft.to/lastmile_qr_scan"}, "bike_id": "9bdd47bb9a72001faf8712ede1d046de", "lat": 38.9243205, "type": "electric_scooter", "name": "9bdd47bb9a72001faf8712ede1d046de", "is_disabled": 0}, {"is_reserved": 0, "fusion_lon": 0.0, "lon": -77.0279675, "fusion_lat": 0.0, "rental_uris": {"ios": "https://dc.lft.to/lastmile_qr_scan", "android": "https://dc.lft.to/lastmile_qr_scan"}, "bike_id": "2d97ba0b21cbf3437ce7f8bcb82ec069", "lat": 38.96046833333333, "type": "electric_scooter", "name": "2d97ba0b21cbf3437ce7f8bcb82ec069", "is_disabled": 0}, {"is_reserved": 0, "fusion_lon": 0.0, "lon": -77.02171216666666, "fusion_lat": 0.0, "rental_uris": {"ios": "https://dc.lft.to/lastmile_qr_scan", "android": "https://dc.lft.to/lastmile_qr_scan"}, "bike_id": "b4835e2b22718be0ed6f41dbd04a7b9e", "lat": 38.897286, "type": "electric_scooter", "name": "b4835e2b22718be0ed6f41dbd04a7b9e", "is_disabled": 0}, {"is_reserved": 0, "fusion_lon": 0.0, "lon": -77.031956, "fusion_lat": 0.0, "rental_uris": {"ios": "https://dc.lft.to/lastmile_qr_scan", "android": "https://dc.lft.to/lastmile_qr_scan"}, "bike_id": "8f3c31130c380614a20990e04be917c5", "lat": 38.9170815, "type": "electric_scooter", "name": "8f3c31130c380614a20990e04be917c5", "is_disabled": 0}, {"is_reserved": 0, "fusion_lon": 0.0, "lon": -77.02390666666666, "fusion_lat": 0.0, "rental_uris": {"ios": "https://dc.lft.to/lastmile_qr_scan", "android": "https://dc.lft.to/lastmile_qr_scan"}, "bike_id": "92af73f378fea686f9f21432d681a525", "lat": 38.91962216666667, "type": "electric_scooter", "name": "92af73f378fea686f9f21432d681a525", "is_disabled": 0}, {"is_reserved": 0, "fusion_lon": 0.0, "lon": -77.03181533333333, "fusion_lat": 0.0, "rental_uris": {"ios": "https://dc.lft.to/lastmile_qr_scan", "android": "https://dc.lft.to/lastmile_qr_scan"}, "bike_id": "bdc7c1f818c15c2950c7e0b770809633", "lat": 38.9107375, "type": "electric_scooter", "name": "bdc7c1f818c15c2950c7e0b770809633", "is_disabled": 0}, {"is_reserved": 0, "fusion_lon": 0.0, "lon": -77.032563, "fusion_lat": 0.0, "rental_uris": {"ios": "https://dc.lft.to/lastmile_qr_scan", "android": "https://dc.lft.to/lastmile_qr_scan"}, "bike_id": "2761cc1f605b12d17f835ddad6c9d0e4", "lat": 38.929837666666664, "type": "electric_bike", "name": "2761cc1f605b12d17f835ddad6c9d0e4", "is_disabled": 0}, {"is_reserved": 0, "fusion_lon": 0.0, "lon": -77.00010783333333, "fusion_lat": 0.0, "rental_uris": {"ios": "https://dc.lft.to/lastmile_qr_scan", "android": "https://dc.lft.to/lastmile_qr_scan"}, "bike_id": "a555e4986f4f4d2d4c746faa67367075", "lat": 38.9239325, "type": "electric_bike", "name": "a555e4986f4f4d2d4c746faa67367075", "is_disabled": 0}, {"is_reserved": 0, "fusion_lon": 0.0, "lon": -77.02386616666666, "fusion_lat": 0.0, "rental_uris": {"ios": "https://dc.lft.to/lastmile_qr_scan", "android": "https://dc.lft.to/lastmile_qr_scan"}, "bike_id": "4b109bb1a866803bc94d806666216615", "lat": 38.892243666666666, "type": "electric_scooter", "name": "4b109bb1a866803bc94d806666216615", "is_disabled": 0}, {"is_reserved": 0, "fusion_lon": 0.0, "lon": -77.0510755, "fusion_lat": 0.0, "rental_uris": {"ios": "https://dc.lft.to/lastmile_qr_scan", "android": "https://dc.lft.to/lastmile_qr_scan"}, "bike_id": "8bc1ad5490c48a0ae2e7967b224232eb", "lat": 38.923614666666666, "type": "electric_scooter", "name": "8bc1ad5490c48a0ae2e7967b224232eb", "is_disabled": 0}, {"is_reserved": 0, "fusion_lon": 0.0, "lon": -77.0531385, "fusion_lat": 0.0, "rental_uris": {"ios": "https://dc.lft.to/lastmile_qr_scan", "android": "https://dc.lft.to/lastmile_qr_scan"}, "bike_id": "bc29e9d7c6c5a0f15c59d5d3782d4e40", "lat": 38.910608333333336, "type": "electric_scooter", "name": "bc29e9d7c6c5a0f15c59d5d3782d4e40", "is_disabled": 0}, {"is_reserved": 0, "fusion_lon": 0.0, "lon": -77.00893633333334, "fusion_lat": 0.0, "rental_uris": {"ios": "https://dc.lft.to/lastmile_qr_scan", "android": "https://dc.lft.to/lastmile_qr_scan"}, "bike_id": "33b4c883337a7942a8c62d3a8a60adfa", "lat": 38.96816783333333, "type": "electric_scooter", "name": "33b4c883337a7942a8c62d3a8a60adfa", "is_disabled": 0}, {"is_reserved": 0, "fusion_lon": 0.0, "lon": -77.00216716666667, "fusion_lat": 0.0, "rental_uris": {"ios": "https://dc.lft.to/lastmile_qr_scan", "android": "https://dc.lft.to/lastmile_qr_scan"}, "bike_id": "b77fa15a859720a0b0b78ca625612e85", "lat": 38.90017016666667, "type": "electric_scooter", "name": "b77fa15a859720a0b0b78ca625612e85", "is_disabled": 0}, {"is_reserved": 0, "fusion_lon": 0.0, "lon": -77.033829, "fusion_lat": 0.0, "rental_uris": {"ios": "https://dc.lft.to/lastmile_qr_scan", "android": "https://dc.lft.to/lastmile_qr_scan"}, "bike_id": "2df0f89f09e9ececaa0935037b06ad59", "lat": 38.9095535, "type": "electric_scooter", "name": "2df0f89f09e9ececaa0935037b06ad59", "is_disabled": 0}, {"is_reserved": 0, "fusion_lon": 0.0, "lon": -77.03266083333334, "fusion_lat": 0.0, "rental_uris": {"ios": "https://dc.lft.to/lastmile_qr_scan", "android": "https://dc.lft.to/lastmile_qr_scan"}, "bike_id": "e9ab5a4db14ef01daf9d30bfa0733ef9", "lat": 38.937695, "type": "electric_scooter", "name": "e9ab5a4db14ef01daf9d30bfa0733ef9", "is_disabled": 0}, {"is_reserved": 0, "fusion_lon": 0.0, "lon": -77.00931566666667, "fusion_lat": 0.0, "rental_uris": {"ios": "https://dc.lft.to/lastmile_qr_scan", "android": "https://dc.lft.to/lastmile_qr_scan"}, "bike_id": "aab123ac0f1102cdbe98e3f608c4f5cf", "lat": 38.896085166666666, "type": "electric_scooter", "name": "aab123ac0f1102cdbe98e3f608c4f5cf", "is_disabled": 0}, {"is_reserved": 0, "fusion_lon": 0.0, "lon": -77.0221375, "fusion_lat": 0.0, "rental_uris": {"ios": "https://dc.lft.to/lastmile_qr_scan", "android": "https://dc.lft.to/lastmile_qr_scan"}, "bike_id": "e7118e1088b229f5cdf9323d6a23a6d8", "lat": 38.89587216666666, "type": "electric_scooter", "name": "e7118e1088b229f5cdf9323d6a23a6d8", "is_disabled": 0}, {"is_reserved": 0, "fusion_lon": 0.0, "lon": -77.03425366666667, "fusion_lat": 0.0, "rental_uris": {"ios": "https://dc.lft.to/lastmile_qr_scan", "android": "https://dc.lft.to/lastmile_qr_scan"}, "bike_id": "a57524ca67c56edaf2fed15730e7b06d", "lat": 38.9024, "type": "electric_scooter", "name": "a57524ca67c56edaf2fed15730e7b06d", "is_disabled": 0}, {"is_reserved": 0, "fusion_lon": 0.0, "lon": -76.988839, "fusion_lat": 0.0, "rental_uris": {"ios": "https://dc.lft.to/lastmile_qr_scan", "android": "https://dc.lft.to/lastmile_qr_scan"}, "bike_id": "1c97235fc2988d4b1f3980decdadc362", "lat": 38.86658166666667, "type": "electric_scooter", "name": "1c97235fc2988d4b1f3980decdadc362", "is_disabled": 0}, {"is_reserved": 0, "fusion_lon": 0.0, "lon": -77.01027316666666, "fusion_lat": 0.0, "rental_uris": {"ios": "https://dc.lft.to/lastmile_qr_scan", "android": "https://dc.lft.to/lastmile_qr_scan"}, "bike_id": "971bd1f77701852eb680d75845b6a51f", "lat": 38.920286, "type": "electric_scooter", "name": "971bd1f77701852eb680d75845b6a51f", "is_disabled": 0}, {"is_reserved": 0, "fusion_lon": 0.0, "lon": -76.95246633333333, "fusion_lat": 0.0, "rental_uris": {"ios": "https://dc.lft.to/lastmile_qr_scan", "android": "https://dc.lft.to/lastmile_qr_scan"}, "bike_id": "7e937e94fd67a1d59b659ea551ab47b1", "lat": 38.89041783333333, "type": "electric_scooter", "name": "7e937e94fd67a1d59b659ea551ab47b1", "is_disabled": 0}, {"is_reserved": 0, "fusion_lon": 0.0, "lon": -77.02528166666667, "fusion_lat": 0.0, "rental_uris": {"ios": "https://dc.lft.to/lastmile_qr_scan", "android": "https://dc.lft.to/lastmile_qr_scan"}, "bike_id": "3ef725bfd065d6660822825a04840f69", "lat": 38.9374765, "type": "electric_scooter", "name": "3ef725bfd065d6660822825a04840f69", "is_disabled": 0}, {"is_reserved": 0, "fusion_lon": 0.0, "lon": -77.03648566666666, "fusion_lat": 0.0, "rental_uris": {"ios": "https://dc.lft.to/lastmile_qr_scan", "android": "https://dc.lft.to/lastmile_qr_scan"}, "bike_id": "92f3ded5e8f4ceb708b4de07c4b6d69e", "lat": 38.90973783333333, "type": "electric_scooter", "name": "92f3ded5e8f4ceb708b4de07c4b6d69e", "is_disabled": 0}, {"is_reserved": 0, "fusion_lon": 0.0, "lon": -77.02252916666667, "fusion_lat": 0.0, "rental_uris": {"ios": "https://dc.lft.to/lastmile_qr_scan", "android": "https://dc.lft.to/lastmile_qr_scan"}, "bike_id": "273d3c7b1238ba109ac6b4b63a01b8cb", "lat": 38.923054, "type": "electric_scooter", "name": "273d3c7b1238ba109ac6b4b63a01b8cb", "is_disabled": 0}, {"is_reserved": 0, "fusion_lon": 0.0, "lon": -77.01362566666667, "fusion_lat": 0.0, "rental_uris": {"ios": "https://dc.lft.to/lastmile_qr_scan", "android": "https://dc.lft.to/lastmile_qr_scan"}, "bike_id": "a16d50ebc3044475a3cd003df6bccd79", "lat": 38.89781816666667, "type": "electric_scooter", "name": "a16d50ebc3044475a3cd003df6bccd79", "is_disabled": 0}, {"is_reserved": 0, "fusion_lon": 0.0, "lon": -77.02393616666667, "fusion_lat": 0.0, "rental_uris": {"ios": "https://dc.lft.to/lastmile_qr_scan", "android": "https://dc.lft.to/lastmile_qr_scan"}, "bike_id": "f81e2063a1dd585cfe866662d0a3be5d", "lat": 38.919552833333334, "type": "electric_scooter", "name": "f81e2063a1dd585cfe866662d0a3be5d", "is_disabled": 0}, {"is_reserved": 0, "fusion_lon": 0.0, "lon": -76.92659466666667, "fusion_lat": 0.0, "rental_uris": {"ios": "https://dc.lft.to/lastmile_qr_scan", "android": "https://dc.lft.to/lastmile_qr_scan"}, "bike_id": "f9651c846c1544cd1d0e276cdcfc7f34", "lat": 38.901698, "type": "electric_scooter", "name": "f9651c846c1544cd1d0e276cdcfc7f34", "is_disabled": 0}, {"is_reserved": 0, "fusion_lon": 0.0, "lon": -77.02828333333333, "fusion_lat": 0.0, "rental_uris": {"ios": "https://dc.lft.to/lastmile_qr_scan", "android": "https://dc.lft.to/lastmile_qr_scan"}, "bike_id": "aa92c3314e6a325a8f92a50ecd483ae9", "lat": 38.89913716666667, "type": "electric_scooter", "name": "aa92c3314e6a325a8f92a50ecd483ae9", "is_disabled": 0}, {"is_reserved": 0, "fusion_lon": 0.0, "lon": -77.026392, "fusion_lat": 0.0, "rental_uris": {"ios": "https://dc.lft.to/lastmile_qr_scan", "android": "https://dc.lft.to/lastmile_qr_scan"}, "bike_id": "81e79100d1638854c64fc6bbaf39fb4c", "lat": 38.904229, "type": "electric_scooter", "name": "81e79100d1638854c64fc6bbaf39fb4c", "is_disabled": 0}, {"is_reserved": 0, "fusion_lon": 0.0, "lon": -77.0282775, "fusion_lat": 0.0, "rental_uris": {"ios": "https://dc.lft.to/lastmile_qr_scan", "android": "https://dc.lft.to/lastmile_qr_scan"}, "bike_id": "78e1858bf79a7e50a31397d27e6f9e97", "lat": 38.93186733333334, "type": "electric_scooter", "name": "78e1858bf79a7e50a31397d27e6f9e97", "is_disabled": 0}, {"is_reserved": 0, "fusion_lon": 0.0, "lon": -77.027128, "fusion_lat": 0.0, "rental_uris": {"ios": "https://dc.lft.to/lastmile_qr_scan", "android": "https://dc.lft.to/lastmile_qr_scan"}, "bike_id": "e1328a04d06de87b2e696fda0f967167", "lat": 38.90791333333333, "type": "electric_scooter", "name": "e1328a04d06de87b2e696fda0f967167", "is_disabled": 0}, {"is_reserved": 0, "fusion_lon": 0.0, "lon": -77.03301716666667, "fusion_lat": 0.0, "rental_uris": {"ios": "https://dc.lft.to/lastmile_qr_scan", "android": "https://dc.lft.to/lastmile_qr_scan"}, "bike_id": "993b110ec5b76c9e623ec8960014455b", "lat": 38.899037, "type": "electric_scooter", "name": "993b110ec5b76c9e623ec8960014455b", "is_disabled": 0}, {"is_reserved": 0, "fusion_lon": 0.0, "lon": -76.98136, "fusion_lat": 0.0, "rental_uris": {"ios": "https://dc.lft.to/lastmile_qr_scan", "android": "https://dc.lft.to/lastmile_qr_scan"}, "bike_id": "a2f59785e89d1a4fae0e8c4f940dc68e", "lat": 38.89992766666667, "type": "electric_scooter", "name": "a2f59785e89d1a4fae0e8c4f940dc68e", "is_disabled": 0}, {"is_reserved": 0, "fusion_lon": 0.0, "lon": -77.02849183333333, "fusion_lat": 0.0, "rental_uris": {"ios": "https://dc.lft.to/lastmile_qr_scan", "android": "https://dc.lft.to/lastmile_qr_scan"}, "bike_id": "dbf944854ba53d0e2607747ace83c3d5", "lat": 38.95614533333333, "type": "electric_scooter", "name": "dbf944854ba53d0e2607747ace83c3d5", "is_disabled": 0}, {"is_reserved": 0, "fusion_lon": 0.0, "lon": -77.02381933333334, "fusion_lat": 0.0, "rental_uris": {"ios": "https://dc.lft.to/lastmile_qr_scan", "android": "https://dc.lft.to/lastmile_qr_scan"}, "bike_id": "1c330ff39afbd77cd30adc1a43f47457", "lat": 38.907111, "type": "electric_scooter", "name": "1c330ff39afbd77cd30adc1a43f47457", "is_disabled": 0}, {"is_reserved": 0, "fusion_lon": 0.0, "lon": -77.03858166666667, "fusion_lat": 0.0, "rental_uris": {"ios": "https://dc.lft.to/lastmile_qr_scan", "android": "https://dc.lft.to/lastmile_qr_scan"}, "bike_id": "6168e7cf1f98950f75f1b5e96381f2ce", "lat": 38.911732, "type": "electric_scooter", "name": "6168e7cf1f98950f75f1b5e96381f2ce", "is_disabled": 0}, {"is_reserved": 0, "fusion_lon": 0.0, "lon": -76.9929735, "fusion_lat": 0.0, "rental_uris": {"ios": "https://dc.lft.to/lastmile_qr_scan", "android": "https://dc.lft.to/lastmile_qr_scan"}, "bike_id": "107ddc52eced6da0c3817b0729fa8123", "lat": 38.857549, "type": "electric_scooter", "name": "107ddc52eced6da0c3817b0729fa8123", "is_disabled": 0}, {"is_reserved": 0, "fusion_lon": 0.0, "lon": -76.99778916666666, "fusion_lat": 0.0, "rental_uris": {"ios": "https://dc.lft.to/lastmile_qr_scan", "android": "https://dc.lft.to/lastmile_qr_scan"}, "bike_id": "99fbd8a680c538e269c647f78c79bb7c", "lat": 38.8443875, "type": "electric_scooter", "name": "99fbd8a680c538e269c647f78c79bb7c", "is_disabled": 0}, {"is_reserved": 0, "fusion_lon": 0.0, "lon": -77.05374216666667, "fusion_lat": 0.0, "rental_uris": {"ios": "https://dc.lft.to/lastmile_qr_scan", "android": "https://dc.lft.to/lastmile_qr_scan"}, "bike_id": "852b4fe141fac21b07956f91ad4bfa98", "lat": 38.92711116666667, "type": "electric_scooter", "name": "852b4fe141fac21b07956f91ad4bfa98", "is_disabled": 0}, {"is_reserved": 0, "fusion_lon": 0.0, "lon": -76.95194883333333, "fusion_lat": 0.0, "rental_uris": {"ios": "https://dc.lft.to/lastmile_qr_scan", "android": "https://dc.lft.to/lastmile_qr_scan"}, "bike_id": "01464231eb459d06d60424d6ba931c32", "lat": 39.084428, "type": "electric_bike", "name": "01464231eb459d06d60424d6ba931c32", "is_disabled": 0}, {"is_reserved": 0, "fusion_lon": 0.0, "lon": -77.02925933333333, "fusion_lat": 0.0, "rental_uris": {"ios": "https://dc.lft.to/lastmile_qr_scan", "android": "https://dc.lft.to/lastmile_qr_scan"}, "bike_id": "c79a458ace7abdb414b75dadaa80a93d", "lat": 38.927704, "type": "electric_scooter", "name": "c79a458ace7abdb414b75dadaa80a93d", "is_disabled": 0}, {"is_reserved": 0, "fusion_lon": 0.0, "lon": -77.02317, "fusion_lat": 0.0, "rental_uris": {"ios": "https://dc.lft.to/lastmile_qr_scan", "android": "https://dc.lft.to/lastmile_qr_scan"}, "bike_id": "2f1132fefebee618f2892a8f5c45a611", "lat": 38.92516166666667, "type": "electric_scooter", "name": "2f1132fefebee618f2892a8f5c45a611", "is_disabled": 0}, {"is_reserved": 0, "fusion_lon": 0.0, "lon": -77.187449, "fusion_lat": 0.0, "rental_uris": {"ios": "https://dc.lft.to/lastmile_qr_scan", "android": "https://dc.lft.to/lastmile_qr_scan"}, "bike_id": "ba679fd2060a2668e10f3871ab0b60f7", "lat": 38.89342883333333, "type": "electric_bike", "name": "ba679fd2060a2668e10f3871ab0b60f7", "is_disabled": 0}, {"is_reserved": 0, "fusion_lon": 0.0, "lon": -77.04999483333333, "fusion_lat": 0.0, "rental_uris": {"ios": "https://dc.lft.to/lastmile_qr_scan", "android": "https://dc.lft.to/lastmile_qr_scan"}, "bike_id": "06dc61c160e83c0112b6d50d5f95c12c", "lat": 38.89227783333333, "type": "electric_scooter", "name": "06dc61c160e83c0112b6d50d5f95c12c", "is_disabled": 0}, {"is_reserved": 0, "fusion_lon": 0.0, "lon": -77.0423805, "fusion_lat": 0.0, "rental_uris": {"ios": "https://dc.lft.to/lastmile_qr_scan", "android": "https://dc.lft.to/lastmile_qr_scan"}, "bike_id": "3f45304aaa9cb9e940b6a0fd1a70644f", "lat": 38.922259, "type": "electric_scooter", "name": "3f45304aaa9cb9e940b6a0fd1a70644f", "is_disabled": 0}, {"is_reserved": 0, "fusion_lon": 0.0, "lon": -77.06310416666666, "fusion_lat": 0.0, "rental_uris": {"ios": "https://dc.lft.to/lastmile_qr_scan", "android": "https://dc.lft.to/lastmile_qr_scan"}, "bike_id": "730d8203522c426f6a5c0019b2956acc", "lat": 38.94375316666667, "type": "electric_scooter", "name": "730d8203522c426f6a5c0019b2956acc", "is_disabled": 0}, {"is_reserved": 0, "fusion_lon": 0.0, "lon": -77.04285333333333, "fusion_lat": 0.0, "rental_uris": {"ios": "https://dc.lft.to/lastmile_qr_scan", "android": "https://dc.lft.to/lastmile_qr_scan"}, "bike_id": "a3f25f6135120cbb5bdc75ff37924a1a", "lat": 38.926723333333335, "type": "electric_scooter", "name": "a3f25f6135120cbb5bdc75ff37924a1a", "is_disabled": 0}, {"is_reserved": 0, "fusion_lon": 0.0, "lon": -77.02377133333333, "fusion_lat": 0.0, "rental_uris": {"ios": "https://dc.lft.to/lastmile_qr_scan", "android": "https://dc.lft.to/lastmile_qr_scan"}, "bike_id": "6910a2c57e29b89a1d02c36283e8bf97", "lat": 38.916769, "type": "electric_scooter", "name": "6910a2c57e29b89a1d02c36283e8bf97", "is_disabled": 0}, {"is_reserved": 0, "fusion_lon": 0.0, "lon": -77.023846, "fusion_lat": 0.0, "rental_uris": {"ios": "https://dc.lft.to/lastmile_qr_scan", "android": "https://dc.lft.to/lastmile_qr_scan"}, "bike_id": "e533ae420bc182f69f60fa2c516b68a2", "lat": 38.9320865, "type": "electric_scooter", "name": "e533ae420bc182f69f60fa2c516b68a2", "is_disabled": 0}, {"is_reserved": 0, "fusion_lon": 0.0, "lon": -77.02251016666666, "fusion_lat": 0.0, "rental_uris": {"ios": "https://dc.lft.to/lastmile_qr_scan", "android": "https://dc.lft.to/lastmile_qr_scan"}, "bike_id": "18f30c25f97bd6c11ba0fa5cfa286868", "lat": 38.89604683333334, "type": "electric_scooter", "name": "18f30c25f97bd6c11ba0fa5cfa286868", "is_disabled": 0}, {"is_reserved": 0, "fusion_lon": 0.0, "lon": -77.0272135, "fusion_lat": 0.0, "rental_uris": {"ios": "https://dc.lft.to/lastmile_qr_scan", "android": "https://dc.lft.to/lastmile_qr_scan"}, "bike_id": "d037e3725db66baa5fc456b4a1e49b25", "lat": 38.95193966666667, "type": "electric_scooter", "name": "d037e3725db66baa5fc456b4a1e49b25", "is_disabled": 0}, {"is_reserved": 0, "fusion_lon": 0.0, "lon": -76.94922066666666, "fusion_lat": 0.0, "rental_uris": {"ios": "https://dc.lft.to/lastmile_qr_scan", "android": "https://dc.lft.to/lastmile_qr_scan"}, "bike_id": "31f9ff02d77bb593101e45b2e682dc35", "lat": 38.8934125, "type": "electric_scooter", "name": "31f9ff02d77bb593101e45b2e682dc35", "is_disabled": 0}, {"is_reserved": 0, "fusion_lon": 0.0, "lon": -77.04521283333334, "fusion_lat": 0.0, "rental_uris": {"ios": "https://dc.lft.to/lastmile_qr_scan", "android": "https://dc.lft.to/lastmile_qr_scan"}, "bike_id": "8c52e1a1e5168bd6eb625937011e8dfc", "lat": 38.923125666666664, "type": "electric_scooter", "name": "8c52e1a1e5168bd6eb625937011e8dfc", "is_disabled": 0}, {"is_reserved": 0, "fusion_lon": 0.0, "lon": -77.0238885, "fusion_lat": 0.0, "rental_uris": {"ios": "https://dc.lft.to/lastmile_qr_scan", "android": "https://dc.lft.to/lastmile_qr_scan"}, "bike_id": "7ae71dbe7b482c25c12be292281e57c5", "lat": 38.911421, "type": "electric_scooter", "name": "7ae71dbe7b482c25c12be292281e57c5", "is_disabled": 0}, {"is_reserved": 0, "fusion_lon": 0.0, "lon": -77.071894, "fusion_lat": 0.0, "rental_uris": {"ios": "https://dc.lft.to/lastmile_qr_scan", "android": "https://dc.lft.to/lastmile_qr_scan"}, "bike_id": "4c00f84b958335b28479953c3300cd06", "lat": 38.90905883333333, "type": "electric_scooter", "name": "4c00f84b958335b28479953c3300cd06", "is_disabled": 0}, {"is_reserved": 0, "fusion_lon": 0.0, "lon": -77.02870666666666, "fusion_lat": 0.0, "rental_uris": {"ios": "https://dc.lft.to/lastmile_qr_scan", "android": "https://dc.lft.to/lastmile_qr_scan"}, "bike_id": "fb63311aaf7537d20972119c621d1a86", "lat": 38.91686166666667, "type": "electric_scooter", "name": "fb63311aaf7537d20972119c621d1a86", "is_disabled": 0}, {"is_reserved": 0, "fusion_lon": 0.0, "lon": -77.0186405, "fusion_lat": 0.0, "rental_uris": {"ios": "https://dc.lft.to/lastmile_qr_scan", "android": "https://dc.lft.to/lastmile_qr_scan"}, "bike_id": "4544f041e7c15dfe4fa4dc4554ffe590", "lat": 38.902638, "type": "electric_scooter", "name": "4544f041e7c15dfe4fa4dc4554ffe590", "is_disabled": 0}, {"is_reserved": 0, "fusion_lon": 0.0, "lon": -77.00486783333334, "fusion_lat": 0.0, "rental_uris": {"ios": "https://dc.lft.to/lastmile_qr_scan", "android": "https://dc.lft.to/lastmile_qr_scan"}, "bike_id": "a4655b1183725b39fcdf74f2f63d4c33", "lat": 38.87465133333333, "type": "electric_scooter", "name": "a4655b1183725b39fcdf74f2f63d4c33", "is_disabled": 0}, {"is_reserved": 0, "fusion_lon": 0.0, "lon": -77.034666, "fusion_lat": 0.0, "rental_uris": {"ios": "https://dc.lft.to/lastmile_qr_scan", "android": "https://dc.lft.to/lastmile_qr_scan"}, "bike_id": "677ade6b0674c06a25b2c5585559f379", "lat": 38.902849, "type": "electric_scooter", "name": "677ade6b0674c06a25b2c5585559f379", "is_disabled": 0}, {"is_reserved": 0, "fusion_lon": 0.0, "lon": -77.0437185, "fusion_lat": 0.0, "rental_uris": {"ios": "https://dc.lft.to/lastmile_qr_scan", "android": "https://dc.lft.to/lastmile_qr_scan"}, "bike_id": "42e84c53eea6f8cda5ea40e7878627c3", "lat": 38.90451816666667, "type": "electric_scooter", "name": "42e84c53eea6f8cda5ea40e7878627c3", "is_disabled": 0}, {"is_reserved": 0, "fusion_lon": 0.0, "lon": -77.02134416666667, "fusion_lat": 0.0, "rental_uris": {"ios": "https://dc.lft.to/lastmile_qr_scan", "android": "https://dc.lft.to/lastmile_qr_scan"}, "bike_id": "2c1cc39812aecc29a08e8748f3f0bcf5", "lat": 38.92251016666667, "type": "electric_scooter", "name": "2c1cc39812aecc29a08e8748f3f0bcf5", "is_disabled": 0}, {"is_reserved": 0, "fusion_lon": 0.0, "lon": -77.02413683333333, "fusion_lat": 0.0, "rental_uris": {"ios": "https://dc.lft.to/lastmile_qr_scan", "android": "https://dc.lft.to/lastmile_qr_scan"}, "bike_id": "8e66373a9e6ad5952c8f11c6da836aee", "lat": 38.89220616666667, "type": "electric_scooter", "name": "8e66373a9e6ad5952c8f11c6da836aee", "is_disabled": 0}, {"is_reserved": 0, "fusion_lon": 0.0, "lon": -77.01766566666667, "fusion_lat": 0.0, "rental_uris": {"ios": "https://dc.lft.to/lastmile_qr_scan", "android": "https://dc.lft.to/lastmile_qr_scan"}, "bike_id": "46d186e4bc31f0123dd719587eca38ef", "lat": 38.87215716666667, "type": "electric_scooter", "name": "46d186e4bc31f0123dd719587eca38ef", "is_disabled": 0}, {"is_reserved": 0, "fusion_lon": 0.0, "lon": -77.03666516666667, "fusion_lat": 0.0, "rental_uris": {"ios": "https://dc.lft.to/lastmile_qr_scan", "android": "https://dc.lft.to/lastmile_qr_scan"}, "bike_id": "96434a8502c8fe6bdde741efc0521894", "lat": 38.92128916666667, "type": "electric_scooter", "name": "96434a8502c8fe6bdde741efc0521894", "is_disabled": 0}, {"is_reserved": 0, "fusion_lon": 0.0, "lon": -76.95751183333333, "fusion_lat": 0.0, "rental_uris": {"ios": "https://dc.lft.to/lastmile_qr_scan", "android": "https://dc.lft.to/lastmile_qr_scan"}, "bike_id": "8b16b576aff42b2e15baf1393f4c33a0", "lat": 38.884229500000004, "type": "electric_scooter", "name": "8b16b576aff42b2e15baf1393f4c33a0", "is_disabled": 0}, {"is_reserved": 0, "fusion_lon": 0.0, "lon": -77.04023666666667, "fusion_lat": 0.0, "rental_uris": {"ios": "https://dc.lft.to/lastmile_qr_scan", "android": "https://dc.lft.to/lastmile_qr_scan"}, "bike_id": "2d4cfcffba354a0d2e46a5604685623f", "lat": 38.91843216666667, "type": "electric_scooter", "name": "2d4cfcffba354a0d2e46a5604685623f", "is_disabled": 0}, {"is_reserved": 0, "fusion_lon": 0.0, "lon": -77.02281383333333, "fusion_lat": 0.0, "rental_uris": {"ios": "https://dc.lft.to/lastmile_qr_scan", "android": "https://dc.lft.to/lastmile_qr_scan"}, "bike_id": "b444b5829ed0b87a6aca844d49ae0e61", "lat": 38.9271825, "type": "electric_scooter", "name": "b444b5829ed0b87a6aca844d49ae0e61", "is_disabled": 0}, {"is_reserved": 0, "fusion_lon": 0.0, "lon": -76.9872735, "fusion_lat": 0.0, "rental_uris": {"ios": "https://dc.lft.to/lastmile_qr_scan", "android": "https://dc.lft.to/lastmile_qr_scan"}, "bike_id": "4b385f7e72ad5458522504885c86925f", "lat": 38.85596816666666, "type": "electric_scooter", "name": "4b385f7e72ad5458522504885c86925f", "is_disabled": 0}, {"is_reserved": 0, "fusion_lon": 0.0, "lon": -77.0449325, "fusion_lat": 0.0, "rental_uris": {"ios": "https://dc.lft.to/lastmile_qr_scan", "android": "https://dc.lft.to/lastmile_qr_scan"}, "bike_id": "b4d002a12e922348abe461717120fa2e", "lat": 38.913493, "type": "electric_scooter", "name": "b4d002a12e922348abe461717120fa2e", "is_disabled": 0}, {"is_reserved": 0, "fusion_lon": 0.0, "lon": -77.01754983333333, "fusion_lat": 0.0, "rental_uris": {"ios": "https://dc.lft.to/lastmile_qr_scan", "android": "https://dc.lft.to/lastmile_qr_scan"}, "bike_id": "c8d80f44934364bfd204c2a348ba2b4c", "lat": 38.88630366666667, "type": "electric_scooter", "name": "c8d80f44934364bfd204c2a348ba2b4c", "is_disabled": 0}, {"is_reserved": 0, "fusion_lon": 0.0, "lon": -77.03637183333333, "fusion_lat": 0.0, "rental_uris": {"ios": "https://dc.lft.to/lastmile_qr_scan", "android": "https://dc.lft.to/lastmile_qr_scan"}, "bike_id": "24ac4b566c1219d4d69ce751cbe8f564", "lat": 38.930650666666665, "type": "electric_scooter", "name": "24ac4b566c1219d4d69ce751cbe8f564", "is_disabled": 0}, {"is_reserved": 0, "fusion_lon": 0.0, "lon": -76.9604625, "fusion_lat": 0.0, "rental_uris": {"ios": "https://dc.lft.to/lastmile_qr_scan", "android": "https://dc.lft.to/lastmile_qr_scan"}, "bike_id": "043c746ee2b0aec43e55531dcaacaa28", "lat": 38.9673475, "type": "electric_bike", "name": "043c746ee2b0aec43e55531dcaacaa28", "is_disabled": 0}, {"is_reserved": 0, "fusion_lon": 0.0, "lon": -77.02198516666667, "fusion_lat": 0.0, "rental_uris": {"ios": "https://dc.lft.to/lastmile_qr_scan", "android": "https://dc.lft.to/lastmile_qr_scan"}, "bike_id": "be5b32e1ec3acb2d376159403fba6ab4", "lat": 38.92480916666667, "type": "electric_scooter", "name": "be5b32e1ec3acb2d376159403fba6ab4", "is_disabled": 0}, {"is_reserved": 0, "fusion_lon": 0.0, "lon": -77.0253475, "fusion_lat": 0.0, "rental_uris": {"ios": "https://dc.lft.to/lastmile_qr_scan", "android": "https://dc.lft.to/lastmile_qr_scan"}, "bike_id": "99d0d872461f938461d131cf2527616d", "lat": 38.9208425, "type": "electric_scooter", "name": "99d0d872461f938461d131cf2527616d", "is_disabled": 0}, {"is_reserved": 0, "fusion_lon": 0.0, "lon": -77.01160466666667, "fusion_lat": 0.0, "rental_uris": {"ios": "https://dc.lft.to/lastmile_qr_scan", "android": "https://dc.lft.to/lastmile_qr_scan"}, "bike_id": "e153e4c314ac80e1df61f4d7509f8934", "lat": 38.896180333333334, "type": "electric_scooter", "name": "e153e4c314ac80e1df61f4d7509f8934", "is_disabled": 0}, {"is_reserved": 0, "fusion_lon": 0.0, "lon": -76.96917283333333, "fusion_lat": 0.0, "rental_uris": {"ios": "https://dc.lft.to/lastmile_qr_scan", "android": "https://dc.lft.to/lastmile_qr_scan"}, "bike_id": "828ced9cddef8d57fb0b2623fc3668e6", "lat": 38.8460765, "type": "electric_bike", "name": "828ced9cddef8d57fb0b2623fc3668e6", "is_disabled": 0}, {"is_reserved": 0, "fusion_lon": 0.0, "lon": -77.03194233333333, "fusion_lat": 0.0, "rental_uris": {"ios": "https://dc.lft.to/lastmile_qr_scan", "android": "https://dc.lft.to/lastmile_qr_scan"}, "bike_id": "2e5bbebdaeaab63e02e5c7e3fe5021f9", "lat": 38.907486666666664, "type": "electric_scooter", "name": "2e5bbebdaeaab63e02e5c7e3fe5021f9", "is_disabled": 0}, {"is_reserved": 0, "fusion_lon": 0.0, "lon": -77.023022, "fusion_lat": 0.0, "rental_uris": {"ios": "https://dc.lft.to/lastmile_qr_scan", "android": "https://dc.lft.to/lastmile_qr_scan"}, "bike_id": "318754aa9547a1e5567f5bbe6659b95b", "lat": 38.9122595, "type": "electric_scooter", "name": "318754aa9547a1e5567f5bbe6659b95b", "is_disabled": 0}, {"is_reserved": 0, "fusion_lon": 0.0, "lon": -77.02861933333334, "fusion_lat": 0.0, "rental_uris": {"ios": "https://dc.lft.to/lastmile_qr_scan", "android": "https://dc.lft.to/lastmile_qr_scan"}, "bike_id": "ee5ec10058b8d65daecfb803bfe7b419", "lat": 38.8874055, "type": "electric_scooter", "name": "ee5ec10058b8d65daecfb803bfe7b419", "is_disabled": 0}, {"is_reserved": 0, "fusion_lon": 0.0, "lon": -77.00604833333334, "fusion_lat": 0.0, "rental_uris": {"ios": "https://dc.lft.to/lastmile_qr_scan", "android": "https://dc.lft.to/lastmile_qr_scan"}, "bike_id": "eeb14360d7d6a0623cdf4509ff0dff6b", "lat": 38.8755995, "type": "electric_scooter", "name": "eeb14360d7d6a0623cdf4509ff0dff6b", "is_disabled": 0}, {"is_reserved": 0, "fusion_lon": 0.0, "lon": -77.0217385, "fusion_lat": 0.0, "rental_uris": {"ios": "https://dc.lft.to/lastmile_qr_scan", "android": "https://dc.lft.to/lastmile_qr_scan"}, "bike_id": "e40f8fc74715034ac1b9279ae5003270", "lat": 38.89926833333333, "type": "electric_scooter", "name": "e40f8fc74715034ac1b9279ae5003270", "is_disabled": 0}, {"is_reserved": 0, "fusion_lon": 0.0, "lon": -77.02149233333333, "fusion_lat": 0.0, "rental_uris": {"ios": "https://dc.lft.to/lastmile_qr_scan", "android": "https://dc.lft.to/lastmile_qr_scan"}, "bike_id": "707050604eb52fa406129a0a4a712fe6", "lat": 38.92334316666667, "type": "electric_scooter", "name": "707050604eb52fa406129a0a4a712fe6", "is_disabled": 0}, {"is_reserved": 0, "fusion_lon": 0.0, "lon": -77.01571966666667, "fusion_lat": 0.0, "rental_uris": {"ios": "https://dc.lft.to/lastmile_qr_scan", "android": "https://dc.lft.to/lastmile_qr_scan"}, "bike_id": "57d9b5938044b1125e94e1a6edfa0b48", "lat": 38.926830333333335, "type": "electric_scooter", "name": "57d9b5938044b1125e94e1a6edfa0b48", "is_disabled": 0}, {"is_reserved": 0, "fusion_lon": 0.0, "lon": -77.05903016666667, "fusion_lat": 0.0, "rental_uris": {"ios": "https://dc.lft.to/lastmile_qr_scan", "android": "https://dc.lft.to/lastmile_qr_scan"}, "bike_id": "049d8ad32862def6f9acfe573c9a64f0", "lat": 38.904712333333336, "type": "electric_scooter", "name": "049d8ad32862def6f9acfe573c9a64f0", "is_disabled": 0}, {"is_reserved": 0, "fusion_lon": 0.0, "lon": -77.02353, "fusion_lat": 0.0, "rental_uris": {"ios": "https://dc.lft.to/lastmile_qr_scan", "android": "https://dc.lft.to/lastmile_qr_scan"}, "bike_id": "794445c69b4928ce8f2fab047fd19ff1", "lat": 38.908717333333335, "type": "electric_scooter", "name": "794445c69b4928ce8f2fab047fd19ff1", "is_disabled": 0}, {"is_reserved": 0, "fusion_lon": 0.0, "lon": -77.0172135, "fusion_lat": 0.0, "rental_uris": {"ios": "https://dc.lft.to/lastmile_qr_scan", "android": "https://dc.lft.to/lastmile_qr_scan"}, "bike_id": "6329b3875a37be5ee4ba2d02b198abbf", "lat": 38.892291666666665, "type": "electric_scooter", "name": "6329b3875a37be5ee4ba2d02b198abbf", "is_disabled": 0}, {"is_reserved": 0, "fusion_lon": 0.0, "lon": -76.98575383333333, "fusion_lat": 0.0, "rental_uris": {"ios": "https://dc.lft.to/lastmile_qr_scan", "android": "https://dc.lft.to/lastmile_qr_scan"}, "bike_id": "2998fd226c535158ae0f6a39aa8de976", "lat": 38.86676833333333, "type": "electric_scooter", "name": "2998fd226c535158ae0f6a39aa8de976", "is_disabled": 0}, {"is_reserved": 0, "fusion_lon": 0.0, "lon": -76.98658983333334, "fusion_lat": 0.0, "rental_uris": {"ios": "https://dc.lft.to/lastmile_qr_scan", "android": "https://dc.lft.to/lastmile_qr_scan"}, "bike_id": "792641449124339c41693a22a9be17c5", "lat": 38.858014833333336, "type": "electric_scooter", "name": "792641449124339c41693a22a9be17c5", "is_disabled": 0}, {"is_reserved": 0, "fusion_lon": 0.0, "lon": -76.98717266666667, "fusion_lat": 0.0, "rental_uris": {"ios": "https://dc.lft.to/lastmile_qr_scan", "android": "https://dc.lft.to/lastmile_qr_scan"}, "bike_id": "f1df55ba9db49bca9cc9b0e300d8b5d9", "lat": 38.86625083333333, "type": "electric_scooter", "name": "f1df55ba9db49bca9cc9b0e300d8b5d9", "is_disabled": 0}, {"is_reserved": 0, "fusion_lon": 0.0, "lon": -77.012525, "fusion_lat": 0.0, "rental_uris": {"ios": "https://dc.lft.to/lastmile_qr_scan", "android": "https://dc.lft.to/lastmile_qr_scan"}, "bike_id": "5598bcaabb878770e6261648da15f01c", "lat": 38.886075, "type": "electric_scooter", "name": "5598bcaabb878770e6261648da15f01c", "is_disabled": 0}, {"is_reserved": 0, "fusion_lon": 0.0, "lon": -77.0365815, "fusion_lat": 0.0, "rental_uris": {"ios": "https://dc.lft.to/lastmile_qr_scan", "android": "https://dc.lft.to/lastmile_qr_scan"}, "bike_id": "bb3316a85ec70ce4af946dd00345722e", "lat": 38.93598983333333, "type": "electric_scooter", "name": "bb3316a85ec70ce4af946dd00345722e", "is_disabled": 0}, {"is_reserved": 0, "fusion_lon": 0.0, "lon": -76.975252, "fusion_lat": 0.0, "rental_uris": {"ios": "https://dc.lft.to/lastmile_qr_scan", "android": "https://dc.lft.to/lastmile_qr_scan"}, "bike_id": "311ff92529a209ac76ec1885208691a3", "lat": 38.92206383333333, "type": "electric_scooter", "name": "311ff92529a209ac76ec1885208691a3", "is_disabled": 0}, {"is_reserved": 0, "fusion_lon": 0.0, "lon": -77.03244333333333, "fusion_lat": 0.0, "rental_uris": {"ios": "https://dc.lft.to/lastmile_qr_scan", "android": "https://dc.lft.to/lastmile_qr_scan"}, "bike_id": "c4e6e0c6b009867ec16bb1c6f9febf23", "lat": 38.9272265, "type": "electric_scooter", "name": "c4e6e0c6b009867ec16bb1c6f9febf23", "is_disabled": 0}, {"is_reserved": 0, "fusion_lon": 0.0, "lon": -77.024856, "fusion_lat": 0.0, "rental_uris": {"ios": "https://dc.lft.to/lastmile_qr_scan", "android": "https://dc.lft.to/lastmile_qr_scan"}, "bike_id": "079fc8572f7d20e5d095061d840c6c03", "lat": 38.938729, "type": "electric_scooter", "name": "079fc8572f7d20e5d095061d840c6c03", "is_disabled": 0}, {"is_reserved": 0, "fusion_lon": 0.0, "lon": -77.03558433333333, "fusion_lat": 0.0, "rental_uris": {"ios": "https://dc.lft.to/lastmile_qr_scan", "android": "https://dc.lft.to/lastmile_qr_scan"}, "bike_id": "2f9cd31bc2c6237cf0273441cef87c4d", "lat": 38.908291166666665, "type": "electric_scooter", "name": "2f9cd31bc2c6237cf0273441cef87c4d", "is_disabled": 0}, {"is_reserved": 0, "fusion_lon": 0.0, "lon": -77.007593, "fusion_lat": 0.0, "rental_uris": {"ios": "https://dc.lft.to/lastmile_qr_scan", "android": "https://dc.lft.to/lastmile_qr_scan"}, "bike_id": "77d063ad824d1d3fb7da5c77ca478935", "lat": 38.8794875, "type": "electric_scooter", "name": "77d063ad824d1d3fb7da5c77ca478935", "is_disabled": 0}, {"is_reserved": 0, "fusion_lon": 0.0, "lon": -76.98716366666666, "fusion_lat": 0.0, "rental_uris": {"ios": "https://dc.lft.to/lastmile_qr_scan", "android": "https://dc.lft.to/lastmile_qr_scan"}, "bike_id": "6bb445082f3b2a83645af1697f9c9849", "lat": 38.86623, "type": "electric_scooter", "name": "6bb445082f3b2a83645af1697f9c9849", "is_disabled": 0}, {"is_reserved": 0, "fusion_lon": 0.0, "lon": -76.99834966666667, "fusion_lat": 0.0, "rental_uris": {"ios": "https://dc.lft.to/lastmile_qr_scan", "android": "https://dc.lft.to/lastmile_qr_scan"}, "bike_id": "b82b3a1664520374ccff35deb3e94497", "lat": 38.90003133333333, "type": "electric_bike", "name": "b82b3a1664520374ccff35deb3e94497", "is_disabled": 0}, {"is_reserved": 0, "fusion_lon": 0.0, "lon": -77.0327705, "fusion_lat": 0.0, "rental_uris": {"ios": "https://dc.lft.to/lastmile_qr_scan", "android": "https://dc.lft.to/lastmile_qr_scan"}, "bike_id": "7860a6ce691e6f30e7d7743a660bc4b6", "lat": 38.932453833333334, "type": "electric_scooter", "name": "7860a6ce691e6f30e7d7743a660bc4b6", "is_disabled": 0}, {"is_reserved": 0, "fusion_lon": 0.0, "lon": -77.049918, "fusion_lat": 0.0, "rental_uris": {"ios": "https://dc.lft.to/lastmile_qr_scan", "android": "https://dc.lft.to/lastmile_qr_scan"}, "bike_id": "fe291b378ea5f8b1e4fbc66d07ae161b", "lat": 38.89225833333333, "type": "electric_scooter", "name": "fe291b378ea5f8b1e4fbc66d07ae161b", "is_disabled": 0}, {"is_reserved": 0, "fusion_lon": 0.0, "lon": -77.00305483333334, "fusion_lat": 0.0, "rental_uris": {"ios": "https://dc.lft.to/lastmile_qr_scan", "android": "https://dc.lft.to/lastmile_qr_scan"}, "bike_id": "03fa0c1a15b425baad2e0753e9727b9e", "lat": 38.9203, "type": "electric_scooter", "name": "03fa0c1a15b425baad2e0753e9727b9e", "is_disabled": 0}, {"is_reserved": 0, "fusion_lon": 0.0, "lon": -77.04697683333333, "fusion_lat": 0.0, "rental_uris": {"ios": "https://dc.lft.to/lastmile_qr_scan", "android": "https://dc.lft.to/lastmile_qr_scan"}, "bike_id": "950b1de71a08b69fc1aa56d13f5c596d", "lat": 38.92155866666667, "type": "electric_scooter", "name": "950b1de71a08b69fc1aa56d13f5c596d", "is_disabled": 0}, {"is_reserved": 0, "fusion_lon": 0.0, "lon": -76.9870465, "fusion_lat": 0.0, "rental_uris": {"ios": "https://dc.lft.to/lastmile_qr_scan", "android": "https://dc.lft.to/lastmile_qr_scan"}, "bike_id": "ab515fbbedfb164ff1ee1060094301ba", "lat": 38.86719766666667, "type": "electric_scooter", "name": "ab515fbbedfb164ff1ee1060094301ba", "is_disabled": 0}, {"is_reserved": 0, "fusion_lon": 0.0, "lon": -77.00715033333333, "fusion_lat": 0.0, "rental_uris": {"ios": "https://dc.lft.to/lastmile_qr_scan", "android": "https://dc.lft.to/lastmile_qr_scan"}, "bike_id": "4d1504e1b138c4d6404f924043558d9c", "lat": 38.8848465, "type": "electric_scooter", "name": "4d1504e1b138c4d6404f924043558d9c", "is_disabled": 0}, {"is_reserved": 0, "fusion_lon": 0.0, "lon": -77.03132483333333, "fusion_lat": 0.0, "rental_uris": {"ios": "https://dc.lft.to/lastmile_qr_scan", "android": "https://dc.lft.to/lastmile_qr_scan"}, "bike_id": "220788293e726bf743e426edc32f9c47", "lat": 38.89965816666667, "type": "electric_scooter", "name": "220788293e726bf743e426edc32f9c47", "is_disabled": 0}, {"is_reserved": 0, "fusion_lon": 0.0, "lon": -77.03283333333333, "fusion_lat": 0.0, "rental_uris": {"ios": "https://dc.lft.to/lastmile_qr_scan", "android": "https://dc.lft.to/lastmile_qr_scan"}, "bike_id": "57b0551debef3452582866ab7d4719a3", "lat": 38.937598666666666, "type": "electric_scooter", "name": "57b0551debef3452582866ab7d4719a3", "is_disabled": 0}, {"is_reserved": 0, "fusion_lon": 0.0, "lon": -77.03990283333333, "fusion_lat": 0.0, "rental_uris": {"ios": "https://dc.lft.to/lastmile_qr_scan", "android": "https://dc.lft.to/lastmile_qr_scan"}, "bike_id": "cecf84565cc90c2f489ce2fb4b9ea0e7", "lat": 38.924389833333336, "type": "electric_scooter", "name": "cecf84565cc90c2f489ce2fb4b9ea0e7", "is_disabled": 0}, {"is_reserved": 0, "fusion_lon": 0.0, "lon": -77.002134, "fusion_lat": 0.0, "rental_uris": {"ios": "https://dc.lft.to/lastmile_qr_scan", "android": "https://dc.lft.to/lastmile_qr_scan"}, "bike_id": "5c30ec07986aff1435f3434c6d58262f", "lat": 38.914585833333334, "type": "electric_scooter", "name": "5c30ec07986aff1435f3434c6d58262f", "is_disabled": 0}, {"is_reserved": 0, "fusion_lon": 0.0, "lon": -77.140587, "fusion_lat": 0.0, "rental_uris": {"ios": "https://dc.lft.to/lastmile_qr_scan", "android": "https://dc.lft.to/lastmile_qr_scan"}, "bike_id": "cb1f99a87f781f2a339e6d13c61c8be9", "lat": 38.987657, "type": "electric_bike", "name": "cb1f99a87f781f2a339e6d13c61c8be9", "is_disabled": 0}, {"is_reserved": 0, "fusion_lon": 0.0, "lon": -76.98144283333333, "fusion_lat": 0.0, "rental_uris": {"ios": "https://dc.lft.to/lastmile_qr_scan", "android": "https://dc.lft.to/lastmile_qr_scan"}, "bike_id": "60e14a56301b8453f883065d508febda", "lat": 38.8974465, "type": "electric_scooter", "name": "60e14a56301b8453f883065d508febda", "is_disabled": 0}, {"is_reserved": 0, "fusion_lon": 0.0, "lon": -77.03473116666666, "fusion_lat": 0.0, "rental_uris": {"ios": "https://dc.lft.to/lastmile_qr_scan", "android": "https://dc.lft.to/lastmile_qr_scan"}, "bike_id": "a544b115f1823348bac5375e5f43594f", "lat": 38.9057365, "type": "electric_scooter", "name": "a544b115f1823348bac5375e5f43594f", "is_disabled": 0}, {"is_reserved": 0, "fusion_lon": 0.0, "lon": -77.03234383333333, "fusion_lat": 0.0, "rental_uris": {"ios": "https://dc.lft.to/lastmile_qr_scan", "android": "https://dc.lft.to/lastmile_qr_scan"}, "bike_id": "fb93c70fa52c0e003af6fa2c26233bae", "lat": 38.9268855, "type": "electric_scooter", "name": "fb93c70fa52c0e003af6fa2c26233bae", "is_disabled": 0}, {"is_reserved": 0, "fusion_lon": 0.0, "lon": -77.03847316666666, "fusion_lat": 0.0, "rental_uris": {"ios": "https://dc.lft.to/lastmile_qr_scan", "android": "https://dc.lft.to/lastmile_qr_scan"}, "bike_id": "4d3f54f4a696dba5dbd925e73cb0f0f8", "lat": 38.90266966666667, "type": "electric_scooter", "name": "4d3f54f4a696dba5dbd925e73cb0f0f8", "is_disabled": 0}, {"is_reserved": 0, "fusion_lon": 0.0, "lon": -77.049515, "fusion_lat": 0.0, "rental_uris": {"ios": "https://dc.lft.to/lastmile_qr_scan", "android": "https://dc.lft.to/lastmile_qr_scan"}, "bike_id": "bf8e7d931b290761a50b61be7e4c354f", "lat": 38.89724283333334, "type": "electric_scooter", "name": "bf8e7d931b290761a50b61be7e4c354f", "is_disabled": 0}, {"is_reserved": 0, "fusion_lon": 0.0, "lon": -77.04014033333333, "fusion_lat": 0.0, "rental_uris": {"ios": "https://dc.lft.to/lastmile_qr_scan", "android": "https://dc.lft.to/lastmile_qr_scan"}, "bike_id": "53b2bc7ccd0f9832d50b92431d3d7d9d", "lat": 38.9031065, "type": "electric_scooter", "name": "53b2bc7ccd0f9832d50b92431d3d7d9d", "is_disabled": 0}, {"is_reserved": 0, "fusion_lon": 0.0, "lon": -77.0400395, "fusion_lat": 0.0, "rental_uris": {"ios": "https://dc.lft.to/lastmile_qr_scan", "android": "https://dc.lft.to/lastmile_qr_scan"}, "bike_id": "99b2a10ff611b382258fd8fefbb05b84", "lat": 38.934233166666665, "type": "electric_scooter", "name": "99b2a10ff611b382258fd8fefbb05b84", "is_disabled": 0}, {"is_reserved": 0, "fusion_lon": 0.0, "lon": -76.96833333333333, "fusion_lat": 0.0, "rental_uris": {"ios": "https://dc.lft.to/lastmile_qr_scan", "android": "https://dc.lft.to/lastmile_qr_scan"}, "bike_id": "f5f0271a5ba8c85df20df92165e2fcc7", "lat": 38.87335216666666, "type": "electric_scooter", "name": "f5f0271a5ba8c85df20df92165e2fcc7", "is_disabled": 0}, {"is_reserved": 0, "fusion_lon": 0.0, "lon": -77.02726833333334, "fusion_lat": 0.0, "rental_uris": {"ios": "https://dc.lft.to/lastmile_qr_scan", "android": "https://dc.lft.to/lastmile_qr_scan"}, "bike_id": "10572012956a8f504ff1b7193c397172", "lat": 38.951907, "type": "electric_scooter", "name": "10572012956a8f504ff1b7193c397172", "is_disabled": 0}, {"is_reserved": 0, "fusion_lon": 0.0, "lon": -77.0262845, "fusion_lat": 0.0, "rental_uris": {"ios": "https://dc.lft.to/lastmile_qr_scan", "android": "https://dc.lft.to/lastmile_qr_scan"}, "bike_id": "0bb830dcc7e37b563086ef711616369c", "lat": 38.88765383333333, "type": "electric_scooter", "name": "0bb830dcc7e37b563086ef711616369c", "is_disabled": 0}, {"is_reserved": 0, "fusion_lon": 0.0, "lon": -77.0414395, "fusion_lat": 0.0, "rental_uris": {"ios": "https://dc.lft.to/lastmile_qr_scan", "android": "https://dc.lft.to/lastmile_qr_scan"}, "bike_id": "55cd2351ce768e26d1ffe6b4461db9d5", "lat": 38.90252533333334, "type": "electric_scooter", "name": "55cd2351ce768e26d1ffe6b4461db9d5", "is_disabled": 0}, {"is_reserved": 0, "fusion_lon": 0.0, "lon": -77.04196066666667, "fusion_lat": 0.0, "rental_uris": {"ios": "https://dc.lft.to/lastmile_qr_scan", "android": "https://dc.lft.to/lastmile_qr_scan"}, "bike_id": "b88d8784aaa294afb1e8c0abe019ae41", "lat": 38.920444, "type": "electric_scooter", "name": "b88d8784aaa294afb1e8c0abe019ae41", "is_disabled": 0}, {"is_reserved": 0, "fusion_lon": 0.0, "lon": -77.034515, "fusion_lat": 0.0, "rental_uris": {"ios": "https://dc.lft.to/lastmile_qr_scan", "android": "https://dc.lft.to/lastmile_qr_scan"}, "bike_id": "d16e16414b4aa1ecaac415d520fbf1ad", "lat": 38.9054325, "type": "electric_scooter", "name": "d16e16414b4aa1ecaac415d520fbf1ad", "is_disabled": 0}, {"is_reserved": 0, "fusion_lon": 0.0, "lon": -77.02337966666667, "fusion_lat": 0.0, "rental_uris": {"ios": "https://dc.lft.to/lastmile_qr_scan", "android": "https://dc.lft.to/lastmile_qr_scan"}, "bike_id": "73bfd41aa48c94e7a1609f5550c0f4d2", "lat": 38.930181833333336, "type": "electric_scooter", "name": "73bfd41aa48c94e7a1609f5550c0f4d2", "is_disabled": 0}, {"is_reserved": 0, "fusion_lon": 0.0, "lon": -77.013698, "fusion_lat": 0.0, "rental_uris": {"ios": "https://dc.lft.to/lastmile_qr_scan", "android": "https://dc.lft.to/lastmile_qr_scan"}, "bike_id": "48cfa7d7517f415bcffaae1f2b9d16f7", "lat": 38.91111216666667, "type": "electric_scooter", "name": "48cfa7d7517f415bcffaae1f2b9d16f7", "is_disabled": 0}, {"is_reserved": 0, "fusion_lon": 0.0, "lon": -77.00608516666667, "fusion_lat": 0.0, "rental_uris": {"ios": "https://dc.lft.to/lastmile_qr_scan", "android": "https://dc.lft.to/lastmile_qr_scan"}, "bike_id": "ee3b3f9fa623bbdccab9a444402eb331", "lat": 38.90636816666667, "type": "electric_scooter", "name": "ee3b3f9fa623bbdccab9a444402eb331", "is_disabled": 0}, {"is_reserved": 0, "fusion_lon": 0.0, "lon": -77.02329266666666, "fusion_lat": 0.0, "rental_uris": {"ios": "https://dc.lft.to/lastmile_qr_scan", "android": "https://dc.lft.to/lastmile_qr_scan"}, "bike_id": "fa036e2fa1f510d87d743d19f227ba4a", "lat": 38.9287225, "type": "electric_scooter", "name": "fa036e2fa1f510d87d743d19f227ba4a", "is_disabled": 0}, {"is_reserved": 0, "fusion_lon": 0.0, "lon": -77.065435, "fusion_lat": 0.0, "rental_uris": {"ios": "https://dc.lft.to/lastmile_qr_scan", "android": "https://dc.lft.to/lastmile_qr_scan"}, "bike_id": "b2db47227d71ff917e2e6837a7936c98", "lat": 38.9471655, "type": "electric_scooter", "name": "b2db47227d71ff917e2e6837a7936c98", "is_disabled": 0}, {"is_reserved": 0, "fusion_lon": 0.0, "lon": -77.03228666666666, "fusion_lat": 0.0, "rental_uris": {"ios": "https://dc.lft.to/lastmile_qr_scan", "android": "https://dc.lft.to/lastmile_qr_scan"}, "bike_id": "2b15510bcf97c96679a19f608f44c7a6", "lat": 38.908730166666665, "type": "electric_scooter", "name": "2b15510bcf97c96679a19f608f44c7a6", "is_disabled": 0}, {"is_reserved": 0, "fusion_lon": 0.0, "lon": -76.94982516666667, "fusion_lat": 0.0, "rental_uris": {"ios": "https://dc.lft.to/lastmile_qr_scan", "android": "https://dc.lft.to/lastmile_qr_scan"}, "bike_id": "af621f406d64b00dba7fcd1a6cc393f7", "lat": 38.88461433333333, "type": "electric_scooter", "name": "af621f406d64b00dba7fcd1a6cc393f7", "is_disabled": 0}, {"is_reserved": 0, "fusion_lon": 0.0, "lon": -76.99810783333334, "fusion_lat": 0.0, "rental_uris": {"ios": "https://dc.lft.to/lastmile_qr_scan", "android": "https://dc.lft.to/lastmile_qr_scan"}, "bike_id": "53bc09f55cd589f07f95cfe3bb9443c4", "lat": 38.93233166666667, "type": "electric_scooter", "name": "53bc09f55cd589f07f95cfe3bb9443c4", "is_disabled": 0}, {"is_reserved": 0, "fusion_lon": 0.0, "lon": -77.02826916666666, "fusion_lat": 0.0, "rental_uris": {"ios": "https://dc.lft.to/lastmile_qr_scan", "android": "https://dc.lft.to/lastmile_qr_scan"}, "bike_id": "6dac3059ad4c7ab50c3db77f83376be3", "lat": 38.91736133333333, "type": "electric_scooter", "name": "6dac3059ad4c7ab50c3db77f83376be3", "is_disabled": 0}, {"is_reserved": 0, "fusion_lon": 0.0, "lon": -77.023817, "fusion_lat": 0.0, "rental_uris": {"ios": "https://dc.lft.to/lastmile_qr_scan", "android": "https://dc.lft.to/lastmile_qr_scan"}, "bike_id": "dfca672924f77439f91a9c17f02e4f60", "lat": 38.919871666666666, "type": "electric_scooter", "name": "dfca672924f77439f91a9c17f02e4f60", "is_disabled": 0}, {"is_reserved": 0, "fusion_lon": 0.0, "lon": -77.028252, "fusion_lat": 0.0, "rental_uris": {"ios": "https://dc.lft.to/lastmile_qr_scan", "android": "https://dc.lft.to/lastmile_qr_scan"}, "bike_id": "58adcc8196ea8d93b7ca5407d94f2f57", "lat": 38.8989905, "type": "electric_scooter", "name": "58adcc8196ea8d93b7ca5407d94f2f57", "is_disabled": 0}, {"is_reserved": 0, "fusion_lon": 0.0, "lon": -77.072266, "fusion_lat": 0.0, "rental_uris": {"ios": "https://dc.lft.to/lastmile_qr_scan", "android": "https://dc.lft.to/lastmile_qr_scan"}, "bike_id": "1867e93ba3fa1c23ebad6b362a063faf", "lat": 38.913621, "type": "electric_scooter", "name": "1867e93ba3fa1c23ebad6b362a063faf", "is_disabled": 0}, {"is_reserved": 0, "fusion_lon": 0.0, "lon": -77.0121615, "fusion_lat": 0.0, "rental_uris": {"ios": "https://dc.lft.to/lastmile_qr_scan", "android": "https://dc.lft.to/lastmile_qr_scan"}, "bike_id": "14fd4fe80c926a74e9f149e97f9548e5", "lat": 38.89690016666667, "type": "electric_scooter", "name": "14fd4fe80c926a74e9f149e97f9548e5", "is_disabled": 0}, {"is_reserved": 0, "fusion_lon": 0.0, "lon": -76.99518533333334, "fusion_lat": 0.0, "rental_uris": {"ios": "https://dc.lft.to/lastmile_qr_scan", "android": "https://dc.lft.to/lastmile_qr_scan"}, "bike_id": "5ee3e61456f2f0ebce88c8bb07962057", "lat": 38.87921583333333, "type": "electric_scooter", "name": "5ee3e61456f2f0ebce88c8bb07962057", "is_disabled": 0}, {"is_reserved": 0, "fusion_lon": 0.0, "lon": -76.97855883333334, "fusion_lat": 0.0, "rental_uris": {"ios": "https://dc.lft.to/lastmile_qr_scan", "android": "https://dc.lft.to/lastmile_qr_scan"}, "bike_id": "ebeef2731c859229bb28710d1a32bd10", "lat": 38.8446375, "type": "electric_bike", "name": "ebeef2731c859229bb28710d1a32bd10", "is_disabled": 0}, {"is_reserved": 0, "fusion_lon": 0.0, "lon": -77.0229565, "fusion_lat": 0.0, "rental_uris": {"ios": "https://dc.lft.to/lastmile_qr_scan", "android": "https://dc.lft.to/lastmile_qr_scan"}, "bike_id": "19132e4c5cae3c15e768a81f09d9a9fa", "lat": 38.8971005, "type": "electric_scooter", "name": "19132e4c5cae3c15e768a81f09d9a9fa", "is_disabled": 0}, {"is_reserved": 0, "fusion_lon": 0.0, "lon": -77.026123, "fusion_lat": 0.0, "rental_uris": {"ios": "https://dc.lft.to/lastmile_qr_scan", "android": "https://dc.lft.to/lastmile_qr_scan"}, "bike_id": "95d1cbb197370fa145be21818f796b61", "lat": 38.90000233333333, "type": "electric_scooter", "name": "95d1cbb197370fa145be21818f796b61", "is_disabled": 0}, {"is_reserved": 0, "fusion_lon": 0.0, "lon": -77.00339433333333, "fusion_lat": 0.0, "rental_uris": {"ios": "https://dc.lft.to/lastmile_qr_scan", "android": "https://dc.lft.to/lastmile_qr_scan"}, "bike_id": "69974c7827d183f7cab44a3f7460def7", "lat": 38.894607666666666, "type": "electric_scooter", "name": "69974c7827d183f7cab44a3f7460def7", "is_disabled": 0}, {"is_reserved": 0, "fusion_lon": 0.0, "lon": -77.030296, "fusion_lat": 0.0, "rental_uris": {"ios": "https://dc.lft.to/lastmile_qr_scan", "android": "https://dc.lft.to/lastmile_qr_scan"}, "bike_id": "d7c802d37ced2feba31a9b308629ac11", "lat": 38.931052666666666, "type": "electric_scooter", "name": "d7c802d37ced2feba31a9b308629ac11", "is_disabled": 0}, {"is_reserved": 0, "fusion_lon": 0.0, "lon": -77.0235275, "fusion_lat": 0.0, "rental_uris": {"ios": "https://dc.lft.to/lastmile_qr_scan", "android": "https://dc.lft.to/lastmile_qr_scan"}, "bike_id": "12f7627832043bc802595dbaf6d26bef", "lat": 38.87930883333333, "type": "electric_bike", "name": "12f7627832043bc802595dbaf6d26bef", "is_disabled": 0}, {"is_reserved": 0, "fusion_lon": 0.0, "lon": -76.9668455, "fusion_lat": 0.0, "rental_uris": {"ios": "https://dc.lft.to/lastmile_qr_scan", "android": "https://dc.lft.to/lastmile_qr_scan"}, "bike_id": "335351d80f8dbc4aa79efe5ba01aaf26", "lat": 38.855951833333336, "type": "electric_scooter", "name": "335351d80f8dbc4aa79efe5ba01aaf26", "is_disabled": 0}, {"is_reserved": 0, "fusion_lon": 0.0, "lon": -77.03196266666667, "fusion_lat": 0.0, "rental_uris": {"ios": "https://dc.lft.to/lastmile_qr_scan", "android": "https://dc.lft.to/lastmile_qr_scan"}, "bike_id": "f96bfee09a03ae8a78f94077b64e1380", "lat": 38.91343883333333, "type": "electric_scooter", "name": "f96bfee09a03ae8a78f94077b64e1380", "is_disabled": 0}, {"is_reserved": 0, "fusion_lon": 0.0, "lon": -77.02658283333334, "fusion_lat": 0.0, "rental_uris": {"ios": "https://dc.lft.to/lastmile_qr_scan", "android": "https://dc.lft.to/lastmile_qr_scan"}, "bike_id": "1d4c2e35bf6e7955d6ae212e99e10588", "lat": 38.91701833333333, "type": "electric_scooter", "name": "1d4c2e35bf6e7955d6ae212e99e10588", "is_disabled": 0}, {"is_reserved": 0, "fusion_lon": 0.0, "lon": -77.03175266666666, "fusion_lat": 0.0, "rental_uris": {"ios": "https://dc.lft.to/lastmile_qr_scan", "android": "https://dc.lft.to/lastmile_qr_scan"}, "bike_id": "c771c6345915500c6bf0231c562e7cc7", "lat": 38.91411733333333, "type": "electric_scooter", "name": "c771c6345915500c6bf0231c562e7cc7", "is_disabled": 0}, {"is_reserved": 0, "fusion_lon": 0.0, "lon": -77.03880183333334, "fusion_lat": 0.0, "rental_uris": {"ios": "https://dc.lft.to/lastmile_qr_scan", "android": "https://dc.lft.to/lastmile_qr_scan"}, "bike_id": "86bfc594ed451ded4f661aaa402605e8", "lat": 38.903306, "type": "electric_scooter", "name": "86bfc594ed451ded4f661aaa402605e8", "is_disabled": 0}, {"is_reserved": 0, "fusion_lon": 0.0, "lon": -76.951693, "fusion_lat": 0.0, "rental_uris": {"ios": "https://dc.lft.to/lastmile_qr_scan", "android": "https://dc.lft.to/lastmile_qr_scan"}, "bike_id": "631890ee26199d271e17b3723638a63b", "lat": 38.8851325, "type": "electric_bike", "name": "631890ee26199d271e17b3723638a63b", "is_disabled": 0}, {"is_reserved": 0, "fusion_lon": 0.0, "lon": -77.04698416666666, "fusion_lat": 0.0, "rental_uris": {"ios": "https://dc.lft.to/lastmile_qr_scan", "android": "https://dc.lft.to/lastmile_qr_scan"}, "bike_id": "1b175a06a4e18e90a081a0b34945fda1", "lat": 38.92104883333333, "type": "electric_scooter", "name": "1b175a06a4e18e90a081a0b34945fda1", "is_disabled": 0}, {"is_reserved": 0, "fusion_lon": 0.0, "lon": -76.99005033333333, "fusion_lat": 0.0, "rental_uris": {"ios": "https://dc.lft.to/lastmile_qr_scan", "android": "https://dc.lft.to/lastmile_qr_scan"}, "bike_id": "0cb755b4243e4a53d345fcb6d9c7521d", "lat": 38.864999833333336, "type": "electric_scooter", "name": "0cb755b4243e4a53d345fcb6d9c7521d", "is_disabled": 0}, {"is_reserved": 0, "fusion_lon": 0.0, "lon": -76.94782233333333, "fusion_lat": 0.0, "rental_uris": {"ios": "https://dc.lft.to/lastmile_qr_scan", "android": "https://dc.lft.to/lastmile_qr_scan"}, "bike_id": "f387050ef6be04f8b26a94331a90067a", "lat": 38.896141166666666, "type": "electric_scooter", "name": "f387050ef6be04f8b26a94331a90067a", "is_disabled": 0}, {"is_reserved": 0, "fusion_lon": 0.0, "lon": -77.032068, "fusion_lat": 0.0, "rental_uris": {"ios": "https://dc.lft.to/lastmile_qr_scan", "android": "https://dc.lft.to/lastmile_qr_scan"}, "bike_id": "328d97625b0f53af9e9b35fe70cfd075", "lat": 38.892202833333336, "type": "electric_scooter", "name": "328d97625b0f53af9e9b35fe70cfd075", "is_disabled": 0}, {"is_reserved": 0, "fusion_lon": 0.0, "lon": -77.027881, "fusion_lat": 0.0, "rental_uris": {"ios": "https://dc.lft.to/lastmile_qr_scan", "android": "https://dc.lft.to/lastmile_qr_scan"}, "bike_id": "f874fc4992166577fdf66d951fcf778c", "lat": 38.917019333333336, "type": "electric_scooter", "name": "f874fc4992166577fdf66d951fcf778c", "is_disabled": 0}, {"is_reserved": 0, "fusion_lon": 0.0, "lon": -76.91095183333333, "fusion_lat": 0.0, "rental_uris": {"ios": "https://dc.lft.to/lastmile_qr_scan", "android": "https://dc.lft.to/lastmile_qr_scan"}, "bike_id": "57eb6e16ee97fcdfc5a0390ed12389c5", "lat": 38.883159, "type": "electric_bike", "name": "57eb6e16ee97fcdfc5a0390ed12389c5", "is_disabled": 0}, {"is_reserved": 0, "fusion_lon": 0.0, "lon": -77.041635, "fusion_lat": 0.0, "rental_uris": {"ios": "https://dc.lft.to/lastmile_qr_scan", "android": "https://dc.lft.to/lastmile_qr_scan"}, "bike_id": "ccacf814f0cddd7c6a84af3e05601336", "lat": 38.892332333333336, "type": "electric_scooter", "name": "ccacf814f0cddd7c6a84af3e05601336", "is_disabled": 0}, {"is_reserved": 0, "fusion_lon": 0.0, "lon": -77.032471, "fusion_lat": 0.0, "rental_uris": {"ios": "https://dc.lft.to/lastmile_qr_scan", "android": "https://dc.lft.to/lastmile_qr_scan"}, "bike_id": "f2601bfe7ca8f2630afddba06c9168d2", "lat": 38.9012045, "type": "electric_scooter", "name": "f2601bfe7ca8f2630afddba06c9168d2", "is_disabled": 0}, {"is_reserved": 0, "fusion_lon": 0.0, "lon": -76.98843016666666, "fusion_lat": 0.0, "rental_uris": {"ios": "https://dc.lft.to/lastmile_qr_scan", "android": "https://dc.lft.to/lastmile_qr_scan"}, "bike_id": "c395b77b7300b818d97b599136f72389", "lat": 38.842745666666666, "type": "electric_bike", "name": "c395b77b7300b818d97b599136f72389", "is_disabled": 0}, {"is_reserved": 0, "fusion_lon": 0.0, "lon": -77.0280865, "fusion_lat": 0.0, "rental_uris": {"ios": "https://dc.lft.to/lastmile_qr_scan", "android": "https://dc.lft.to/lastmile_qr_scan"}, "bike_id": "fa9321a6bc53cf49f2c63c8ea944e2ab", "lat": 38.916773, "type": "electric_scooter", "name": "fa9321a6bc53cf49f2c63c8ea944e2ab", "is_disabled": 0}, {"is_reserved": 0, "fusion_lon": 0.0, "lon": -77.03127933333333, "fusion_lat": 0.0, "rental_uris": {"ios": "https://dc.lft.to/lastmile_qr_scan", "android": "https://dc.lft.to/lastmile_qr_scan"}, "bike_id": "509d691bd308f15bf9b9bea4a232d533", "lat": 38.95928983333334, "type": "electric_scooter", "name": "509d691bd308f15bf9b9bea4a232d533", "is_disabled": 0}, {"is_reserved": 0, "fusion_lon": 0.0, "lon": -77.0483585, "fusion_lat": 0.0, "rental_uris": {"ios": "https://dc.lft.to/lastmile_qr_scan", "android": "https://dc.lft.to/lastmile_qr_scan"}, "bike_id": "d0e6e7a382f520f25431976d8139c243", "lat": 38.918447666666665, "type": "electric_scooter", "name": "d0e6e7a382f520f25431976d8139c243", "is_disabled": 0}, {"is_reserved": 0, "fusion_lon": 0.0, "lon": -77.0054685, "fusion_lat": 0.0, "rental_uris": {"ios": "https://dc.lft.to/lastmile_qr_scan", "android": "https://dc.lft.to/lastmile_qr_scan"}, "bike_id": "ff36d6e9e651bf96a6a44dedcff2a86d", "lat": 38.876936666666666, "type": "electric_scooter", "name": "ff36d6e9e651bf96a6a44dedcff2a86d", "is_disabled": 0}, {"is_reserved": 0, "fusion_lon": 0.0, "lon": -77.032545, "fusion_lat": 0.0, "rental_uris": {"ios": "https://dc.lft.to/lastmile_qr_scan", "android": "https://dc.lft.to/lastmile_qr_scan"}, "bike_id": "18f1f42206b7b65f4ba1ff42aa561e7a", "lat": 38.92857466666667, "type": "electric_scooter", "name": "18f1f42206b7b65f4ba1ff42aa561e7a", "is_disabled": 0}, {"is_reserved": 0, "fusion_lon": 0.0, "lon": -76.94862733333333, "fusion_lat": 0.0, "rental_uris": {"ios": "https://dc.lft.to/lastmile_qr_scan", "android": "https://dc.lft.to/lastmile_qr_scan"}, "bike_id": "4601bc32a7bebc99771e82ced515d1b8", "lat": 38.894763833333336, "type": "electric_scooter", "name": "4601bc32a7bebc99771e82ced515d1b8", "is_disabled": 0}, {"is_reserved": 0, "fusion_lon": 0.0, "lon": -77.07752366666666, "fusion_lat": 0.0, "rental_uris": {"ios": "https://dc.lft.to/lastmile_qr_scan", "android": "https://dc.lft.to/lastmile_qr_scan"}, "bike_id": "3bd3850c2bdc2a3834a0e815cbbbf936", "lat": 38.911642666666665, "type": "electric_scooter", "name": "3bd3850c2bdc2a3834a0e815cbbbf936", "is_disabled": 0}, {"is_reserved": 0, "fusion_lon": 0.0, "lon": -76.97614016666667, "fusion_lat": 0.0, "rental_uris": {"ios": "https://dc.lft.to/lastmile_qr_scan", "android": "https://dc.lft.to/lastmile_qr_scan"}, "bike_id": "231510455f8b452c0d516f8e41adf8cd", "lat": 38.940125, "type": "electric_scooter", "name": "231510455f8b452c0d516f8e41adf8cd", "is_disabled": 0}, {"is_reserved": 0, "fusion_lon": 0.0, "lon": -77.0398805, "fusion_lat": 0.0, "rental_uris": {"ios": "https://dc.lft.to/lastmile_qr_scan", "android": "https://dc.lft.to/lastmile_qr_scan"}, "bike_id": "49e9eebff74de989d26cac7d1325fdba", "lat": 38.91409383333333, "type": "electric_scooter", "name": "49e9eebff74de989d26cac7d1325fdba", "is_disabled": 0}, {"is_reserved": 0, "fusion_lon": 0.0, "lon": -77.01459083333333, "fusion_lat": 0.0, "rental_uris": {"ios": "https://dc.lft.to/lastmile_qr_scan", "android": "https://dc.lft.to/lastmile_qr_scan"}, "bike_id": "1e83762a61315fd0f1496377f3244cfe", "lat": 38.975073, "type": "electric_scooter", "name": "1e83762a61315fd0f1496377f3244cfe", "is_disabled": 0}, {"is_reserved": 0, "fusion_lon": 0.0, "lon": -77.00052266666667, "fusion_lat": 0.0, "rental_uris": {"ios": "https://dc.lft.to/lastmile_qr_scan", "android": "https://dc.lft.to/lastmile_qr_scan"}, "bike_id": "6a3431e3b64f8be0df898529a0268023", "lat": 38.8943375, "type": "electric_scooter", "name": "6a3431e3b64f8be0df898529a0268023", "is_disabled": 0}, {"is_reserved": 0, "fusion_lon": 0.0, "lon": -76.98193866666666, "fusion_lat": 0.0, "rental_uris": {"ios": "https://dc.lft.to/lastmile_qr_scan", "android": "https://dc.lft.to/lastmile_qr_scan"}, "bike_id": "2fb56f82606df97cb980ae5aa8ff9c87", "lat": 38.920612166666665, "type": "electric_scooter", "name": "2fb56f82606df97cb980ae5aa8ff9c87", "is_disabled": 0}, {"is_reserved": 0, "fusion_lon": 0.0, "lon": -76.9936415, "fusion_lat": 0.0, "rental_uris": {"ios": "https://dc.lft.to/lastmile_qr_scan", "android": "https://dc.lft.to/lastmile_qr_scan"}, "bike_id": "f35de6fc62f48d514ee05db113bf0f20", "lat": 38.990962333333336, "type": "electric_bike", "name": "f35de6fc62f48d514ee05db113bf0f20", "is_disabled": 0}, {"is_reserved": 0, "fusion_lon": 0.0, "lon": -76.98360416666667, "fusion_lat": 0.0, "rental_uris": {"ios": "https://dc.lft.to/lastmile_qr_scan", "android": "https://dc.lft.to/lastmile_qr_scan"}, "bike_id": "685ff03ab1b71ead956543cb2642ef35", "lat": 38.887427, "type": "electric_scooter", "name": "685ff03ab1b71ead956543cb2642ef35", "is_disabled": 0}, {"is_reserved": 0, "fusion_lon": 0.0, "lon": -76.98568583333333, "fusion_lat": 0.0, "rental_uris": {"ios": "https://dc.lft.to/lastmile_qr_scan", "android": "https://dc.lft.to/lastmile_qr_scan"}, "bike_id": "fbddbd185d3097ee1099d4fe66934b53", "lat": 38.866764833333335, "type": "electric_scooter", "name": "fbddbd185d3097ee1099d4fe66934b53", "is_disabled": 0}, {"is_reserved": 0, "fusion_lon": 0.0, "lon": -77.04372366666666, "fusion_lat": 0.0, "rental_uris": {"ios": "https://dc.lft.to/lastmile_qr_scan", "android": "https://dc.lft.to/lastmile_qr_scan"}, "bike_id": "b9fcc0242354beab6c2cf4d3f1a16a1f", "lat": 38.91661233333333, "type": "electric_scooter", "name": "b9fcc0242354beab6c2cf4d3f1a16a1f", "is_disabled": 0}, {"is_reserved": 0, "fusion_lon": 0.0, "lon": -77.03322766666666, "fusion_lat": 0.0, "rental_uris": {"ios": "https://dc.lft.to/lastmile_qr_scan", "android": "https://dc.lft.to/lastmile_qr_scan"}, "bike_id": "821b3b900836c8fb6610c440a9b6ea02", "lat": 38.898366833333334, "type": "electric_scooter", "name": "821b3b900836c8fb6610c440a9b6ea02", "is_disabled": 0}, {"is_reserved": 0, "fusion_lon": 0.0, "lon": -76.98345616666667, "fusion_lat": 0.0, "rental_uris": {"ios": "https://dc.lft.to/lastmile_qr_scan", "android": "https://dc.lft.to/lastmile_qr_scan"}, "bike_id": "60a186864a164e502054b1ff5dc8c65f", "lat": 38.935210833333336, "type": "electric_bike", "name": "60a186864a164e502054b1ff5dc8c65f", "is_disabled": 0}, {"is_reserved": 0, "fusion_lon": 0.0, "lon": -77.03658933333334, "fusion_lat": 0.0, "rental_uris": {"ios": "https://dc.lft.to/lastmile_qr_scan", "android": "https://dc.lft.to/lastmile_qr_scan"}, "bike_id": "3f375a85f3980506091e6d066e1884e9", "lat": 38.936240166666664, "type": "electric_bike", "name": "3f375a85f3980506091e6d066e1884e9", "is_disabled": 0}, {"is_reserved": 0, "fusion_lon": 0.0, "lon": -76.96559033333334, "fusion_lat": 0.0, "rental_uris": {"ios": "https://dc.lft.to/lastmile_qr_scan", "android": "https://dc.lft.to/lastmile_qr_scan"}, "bike_id": "db116cded40cb325cfbbc2f95ac70a79", "lat": 38.918327, "type": "electric_scooter", "name": "db116cded40cb325cfbbc2f95ac70a79", "is_disabled": 0}, {"is_reserved": 0, "fusion_lon": 0.0, "lon": -77.03577383333334, "fusion_lat": 0.0, "rental_uris": {"ios": "https://dc.lft.to/lastmile_qr_scan", "android": "https://dc.lft.to/lastmile_qr_scan"}, "bike_id": "adc7b7cbc4163b5465ba0b6bf7b2da86", "lat": 38.907590166666665, "type": "electric_scooter", "name": "adc7b7cbc4163b5465ba0b6bf7b2da86", "is_disabled": 0}, {"is_reserved": 0, "fusion_lon": 0.0, "lon": -77.0320685, "fusion_lat": 0.0, "rental_uris": {"ios": "https://dc.lft.to/lastmile_qr_scan", "android": "https://dc.lft.to/lastmile_qr_scan"}, "bike_id": "f218e46e553c368d9b3fc29ebd27b5d2", "lat": 38.9001725, "type": "electric_scooter", "name": "f218e46e553c368d9b3fc29ebd27b5d2", "is_disabled": 0}, {"is_reserved": 0, "fusion_lon": 0.0, "lon": -77.046942, "fusion_lat": 0.0, "rental_uris": {"ios": "https://dc.lft.to/lastmile_qr_scan", "android": "https://dc.lft.to/lastmile_qr_scan"}, "bike_id": "80611fa6fa9f3669314e997920588aaf", "lat": 38.89218116666667, "type": "electric_scooter", "name": "80611fa6fa9f3669314e997920588aaf", "is_disabled": 0}, {"is_reserved": 0, "fusion_lon": 0.0, "lon": -77.0463705, "fusion_lat": 0.0, "rental_uris": {"ios": "https://dc.lft.to/lastmile_qr_scan", "android": "https://dc.lft.to/lastmile_qr_scan"}, "bike_id": "bee3b38722e4a438640614cf46b6bcab", "lat": 38.91803316666667, "type": "electric_scooter", "name": "bee3b38722e4a438640614cf46b6bcab", "is_disabled": 0}, {"is_reserved": 0, "fusion_lon": 0.0, "lon": -77.01140516666666, "fusion_lat": 0.0, "rental_uris": {"ios": "https://dc.lft.to/lastmile_qr_scan", "android": "https://dc.lft.to/lastmile_qr_scan"}, "bike_id": "40d534f4925a0e03be2db7a26482b145", "lat": 38.90009116666667, "type": "electric_scooter", "name": "40d534f4925a0e03be2db7a26482b145", "is_disabled": 0}, {"is_reserved": 0, "fusion_lon": 0.0, "lon": -77.0033065, "fusion_lat": 0.0, "rental_uris": {"ios": "https://dc.lft.to/lastmile_qr_scan", "android": "https://dc.lft.to/lastmile_qr_scan"}, "bike_id": "ed3887c54b1db2ba8afe3eeb2878caa8", "lat": 38.9194925, "type": "electric_scooter", "name": "ed3887c54b1db2ba8afe3eeb2878caa8", "is_disabled": 0}, {"is_reserved": 0, "fusion_lon": 0.0, "lon": -76.942538, "fusion_lat": 0.0, "rental_uris": {"ios": "https://dc.lft.to/lastmile_qr_scan", "android": "https://dc.lft.to/lastmile_qr_scan"}, "bike_id": "b4a8507b7c606a2dac7d8505275f9fb6", "lat": 38.89843783333333, "type": "electric_scooter", "name": "b4a8507b7c606a2dac7d8505275f9fb6", "is_disabled": 0}, {"is_reserved": 0, "fusion_lon": 0.0, "lon": -77.03412583333333, "fusion_lat": 0.0, "rental_uris": {"ios": "https://dc.lft.to/lastmile_qr_scan", "android": "https://dc.lft.to/lastmile_qr_scan"}, "bike_id": "028b7dbb8a1ec97b3aa956bc5107f447", "lat": 38.92859883333333, "type": "electric_scooter", "name": "028b7dbb8a1ec97b3aa956bc5107f447", "is_disabled": 0}, {"is_reserved": 0, "fusion_lon": 0.0, "lon": -77.03285816666667, "fusion_lat": 0.0, "rental_uris": {"ios": "https://dc.lft.to/lastmile_qr_scan", "android": "https://dc.lft.to/lastmile_qr_scan"}, "bike_id": "bd5f2902a3f1a9f3171813c37658cc68", "lat": 38.92844766666666, "type": "electric_scooter", "name": "bd5f2902a3f1a9f3171813c37658cc68", "is_disabled": 0}, {"is_reserved": 0, "fusion_lon": 0.0, "lon": -77.06985433333334, "fusion_lat": 0.0, "rental_uris": {"ios": "https://dc.lft.to/lastmile_qr_scan", "android": "https://dc.lft.to/lastmile_qr_scan"}, "bike_id": "ebde6f1cc6d50401cc9eb5197a5c8ba9", "lat": 38.95525966666666, "type": "electric_bike", "name": "ebde6f1cc6d50401cc9eb5197a5c8ba9", "is_disabled": 0}, {"is_reserved": 0, "fusion_lon": 0.0, "lon": -76.9914475, "fusion_lat": 0.0, "rental_uris": {"ios": "https://dc.lft.to/lastmile_qr_scan", "android": "https://dc.lft.to/lastmile_qr_scan"}, "bike_id": "80e6328d7d70012a4556b8846ad1d3e7", "lat": 38.88527783333333, "type": "electric_scooter", "name": "80e6328d7d70012a4556b8846ad1d3e7", "is_disabled": 0}, {"is_reserved": 0, "fusion_lon": 0.0, "lon": -76.92683433333333, "fusion_lat": 0.0, "rental_uris": {"ios": "https://dc.lft.to/lastmile_qr_scan", "android": "https://dc.lft.to/lastmile_qr_scan"}, "bike_id": "19eca2c5c326eae6a5615824fc06e210", "lat": 38.8884845, "type": "electric_scooter", "name": "19eca2c5c326eae6a5615824fc06e210", "is_disabled": 0}, {"is_reserved": 0, "fusion_lon": 0.0, "lon": -77.00886416666667, "fusion_lat": 0.0, "rental_uris": {"ios": "https://dc.lft.to/lastmile_qr_scan", "android": "https://dc.lft.to/lastmile_qr_scan"}, "bike_id": "588e71f9adbfcb397a5b1bb75deb7573", "lat": 38.876738833333334, "type": "electric_scooter", "name": "588e71f9adbfcb397a5b1bb75deb7573", "is_disabled": 0}, {"is_reserved": 0, "fusion_lon": 0.0, "lon": -77.000676, "fusion_lat": 0.0, "rental_uris": {"ios": "https://dc.lft.to/lastmile_qr_scan", "android": "https://dc.lft.to/lastmile_qr_scan"}, "bike_id": "97be53ef0b6b435b9f769cc32bd88989", "lat": 38.886783, "type": "electric_scooter", "name": "97be53ef0b6b435b9f769cc32bd88989", "is_disabled": 0}, {"is_reserved": 0, "fusion_lon": 0.0, "lon": -76.96987016666667, "fusion_lat": 0.0, "rental_uris": {"ios": "https://dc.lft.to/lastmile_qr_scan", "android": "https://dc.lft.to/lastmile_qr_scan"}, "bike_id": "49cd207c198e6b7c11c4388399618854", "lat": 38.8786705, "type": "electric_scooter", "name": "49cd207c198e6b7c11c4388399618854", "is_disabled": 0}, {"is_reserved": 0, "fusion_lon": 0.0, "lon": -77.03425433333334, "fusion_lat": 0.0, "rental_uris": {"ios": "https://dc.lft.to/lastmile_qr_scan", "android": "https://dc.lft.to/lastmile_qr_scan"}, "bike_id": "493fa55eff0d7f9fb488eeb3f75b58d8", "lat": 38.919119, "type": "electric_scooter", "name": "493fa55eff0d7f9fb488eeb3f75b58d8", "is_disabled": 0}, {"is_reserved": 0, "fusion_lon": 0.0, "lon": -77.03268466666667, "fusion_lat": 0.0, "rental_uris": {"ios": "https://dc.lft.to/lastmile_qr_scan", "android": "https://dc.lft.to/lastmile_qr_scan"}, "bike_id": "16d230b70c92f7b8f5440b8347c2b2e5", "lat": 38.9398375, "type": "electric_scooter", "name": "16d230b70c92f7b8f5440b8347c2b2e5", "is_disabled": 0}, {"is_reserved": 0, "fusion_lon": 0.0, "lon": -77.0371105, "fusion_lat": 0.0, "rental_uris": {"ios": "https://dc.lft.to/lastmile_qr_scan", "android": "https://dc.lft.to/lastmile_qr_scan"}, "bike_id": "265c59f4423c33c3c8bd82a2a8907442", "lat": 38.902428, "type": "electric_scooter", "name": "265c59f4423c33c3c8bd82a2a8907442", "is_disabled": 0}, {"is_reserved": 0, "fusion_lon": 0.0, "lon": -76.98336966666666, "fusion_lat": 0.0, "rental_uris": {"ios": "https://dc.lft.to/lastmile_qr_scan", "android": "https://dc.lft.to/lastmile_qr_scan"}, "bike_id": "70efd1df9432ab7cfe56c10509b00fe4", "lat": 38.865671166666665, "type": "electric_scooter", "name": "70efd1df9432ab7cfe56c10509b00fe4", "is_disabled": 0}, {"is_reserved": 0, "fusion_lon": 0.0, "lon": -77.033099, "fusion_lat": 0.0, "rental_uris": {"ios": "https://dc.lft.to/lastmile_qr_scan", "android": "https://dc.lft.to/lastmile_qr_scan"}, "bike_id": "832778ca5f5dbc43efaf63c4c33e92f1", "lat": 38.92876166666667, "type": "electric_scooter", "name": "832778ca5f5dbc43efaf63c4c33e92f1", "is_disabled": 0}, {"is_reserved": 0, "fusion_lon": 0.0, "lon": -76.99981666666666, "fusion_lat": 0.0, "rental_uris": {"ios": "https://dc.lft.to/lastmile_qr_scan", "android": "https://dc.lft.to/lastmile_qr_scan"}, "bike_id": "03e44473b27cf9293d7824687ff41f23", "lat": 38.874746333333334, "type": "electric_scooter", "name": "03e44473b27cf9293d7824687ff41f23", "is_disabled": 0}, {"is_reserved": 0, "fusion_lon": 0.0, "lon": -77.0522685, "fusion_lat": 0.0, "rental_uris": {"ios": "https://dc.lft.to/lastmile_qr_scan", "android": "https://dc.lft.to/lastmile_qr_scan"}, "bike_id": "a837a2ac3206f1abececf0df73c3ae5f", "lat": 38.92440833333333, "type": "electric_scooter", "name": "a837a2ac3206f1abececf0df73c3ae5f", "is_disabled": 0}, {"is_reserved": 0, "fusion_lon": 0.0, "lon": -77.036097, "fusion_lat": 0.0, "rental_uris": {"ios": "https://dc.lft.to/lastmile_qr_scan", "android": "https://dc.lft.to/lastmile_qr_scan"}, "bike_id": "b561757a5b6739565be369d00e46b950", "lat": 38.92855433333333, "type": "electric_scooter", "name": "b561757a5b6739565be369d00e46b950", "is_disabled": 0}, {"is_reserved": 0, "fusion_lon": 0.0, "lon": -77.04509833333333, "fusion_lat": 0.0, "rental_uris": {"ios": "https://dc.lft.to/lastmile_qr_scan", "android": "https://dc.lft.to/lastmile_qr_scan"}, "bike_id": "c685f4b86e13cd4adb1d79340b7857f3", "lat": 38.892232166666666, "type": "electric_scooter", "name": "c685f4b86e13cd4adb1d79340b7857f3", "is_disabled": 0}, {"is_reserved": 0, "fusion_lon": 0.0, "lon": -77.03291366666667, "fusion_lat": 0.0, "rental_uris": {"ios": "https://dc.lft.to/lastmile_qr_scan", "android": "https://dc.lft.to/lastmile_qr_scan"}, "bike_id": "70d1b4fcd8e931081cfd33d14efba63b", "lat": 38.93781083333333, "type": "electric_scooter", "name": "70d1b4fcd8e931081cfd33d14efba63b", "is_disabled": 0}, {"is_reserved": 0, "fusion_lon": 0.0, "lon": -76.9833865, "fusion_lat": 0.0, "rental_uris": {"ios": "https://dc.lft.to/lastmile_qr_scan", "android": "https://dc.lft.to/lastmile_qr_scan"}, "bike_id": "7ac350c2cb77aa5e7ab0cf10fc94dd9c", "lat": 38.865616, "type": "electric_scooter", "name": "7ac350c2cb77aa5e7ab0cf10fc94dd9c", "is_disabled": 0}, {"is_reserved": 0, "fusion_lon": 0.0, "lon": -77.02426383333334, "fusion_lat": 0.0, "rental_uris": {"ios": "https://dc.lft.to/lastmile_qr_scan", "android": "https://dc.lft.to/lastmile_qr_scan"}, "bike_id": "ad10ab6da98d558c776bbd73e755ff14", "lat": 38.92238716666667, "type": "electric_scooter", "name": "ad10ab6da98d558c776bbd73e755ff14", "is_disabled": 0}, {"is_reserved": 0, "fusion_lon": 0.0, "lon": -77.12984966666667, "fusion_lat": 0.0, "rental_uris": {"ios": "https://dc.lft.to/lastmile_qr_scan", "android": "https://dc.lft.to/lastmile_qr_scan"}, "bike_id": "1fa42b47027dd84b7ee685c521758ba7", "lat": 38.79977383333333, "type": "electric_bike", "name": "1fa42b47027dd84b7ee685c521758ba7", "is_disabled": 0}, {"is_reserved": 0, "fusion_lon": 0.0, "lon": -77.03191866666667, "fusion_lat": 0.0, "rental_uris": {"ios": "https://dc.lft.to/lastmile_qr_scan", "android": "https://dc.lft.to/lastmile_qr_scan"}, "bike_id": "daa67cae6f2012e0db927c9a51f25942", "lat": 38.93069283333333, "type": "electric_scooter", "name": "daa67cae6f2012e0db927c9a51f25942", "is_disabled": 0}, {"is_reserved": 0, "fusion_lon": 0.0, "lon": -77.0489155, "fusion_lat": 0.0, "rental_uris": {"ios": "https://dc.lft.to/lastmile_qr_scan", "android": "https://dc.lft.to/lastmile_qr_scan"}, "bike_id": "690d76738bb5c7107cfdafd6eff8ff62", "lat": 38.9038845, "type": "electric_scooter", "name": "690d76738bb5c7107cfdafd6eff8ff62", "is_disabled": 0}, {"is_reserved": 0, "fusion_lon": 0.0, "lon": -77.022391, "fusion_lat": 0.0, "rental_uris": {"ios": "https://dc.lft.to/lastmile_qr_scan", "android": "https://dc.lft.to/lastmile_qr_scan"}, "bike_id": "1d0bf5778c10eb8ec02e66a9c4f37b79", "lat": 38.9246675, "type": "electric_scooter", "name": "1d0bf5778c10eb8ec02e66a9c4f37b79", "is_disabled": 0}, {"is_reserved": 0, "fusion_lon": 0.0, "lon": -77.026341, "fusion_lat": 0.0, "rental_uris": {"ios": "https://dc.lft.to/lastmile_qr_scan", "android": "https://dc.lft.to/lastmile_qr_scan"}, "bike_id": "30d8af94ddee6c3d0fd40fc398035aec", "lat": 38.89221466666667, "type": "electric_scooter", "name": "30d8af94ddee6c3d0fd40fc398035aec", "is_disabled": 0}, {"is_reserved": 0, "fusion_lon": 0.0, "lon": -77.0384195, "fusion_lat": 0.0, "rental_uris": {"ios": "https://dc.lft.to/lastmile_qr_scan", "android": "https://dc.lft.to/lastmile_qr_scan"}, "bike_id": "c3bd64716a1efea26e0555af31be9bb1", "lat": 38.90261983333333, "type": "electric_scooter", "name": "c3bd64716a1efea26e0555af31be9bb1", "is_disabled": 0}, {"is_reserved": 0, "fusion_lon": 0.0, "lon": -77.022047, "fusion_lat": 0.0, "rental_uris": {"ios": "https://dc.lft.to/lastmile_qr_scan", "android": "https://dc.lft.to/lastmile_qr_scan"}, "bike_id": "7d360354b206e674b6636656b08ca88a", "lat": 38.915856, "type": "electric_scooter", "name": "7d360354b206e674b6636656b08ca88a", "is_disabled": 0}, {"is_reserved": 0, "fusion_lon": 0.0, "lon": -77.04117, "fusion_lat": 0.0, "rental_uris": {"ios": "https://dc.lft.to/lastmile_qr_scan", "android": "https://dc.lft.to/lastmile_qr_scan"}, "bike_id": "f01b64d2cf0b5937182baa0b20c4c047", "lat": 38.933484, "type": "electric_scooter", "name": "f01b64d2cf0b5937182baa0b20c4c047", "is_disabled": 0}, {"is_reserved": 0, "fusion_lon": 0.0, "lon": -77.02173883333333, "fusion_lat": 0.0, "rental_uris": {"ios": "https://dc.lft.to/lastmile_qr_scan", "android": "https://dc.lft.to/lastmile_qr_scan"}, "bike_id": "fbcf4c223c593256b86b6c4c7cf3e635", "lat": 38.94287333333333, "type": "electric_scooter", "name": "fbcf4c223c593256b86b6c4c7cf3e635", "is_disabled": 0}, {"is_reserved": 0, "fusion_lon": 0.0, "lon": -77.040626, "fusion_lat": 0.0, "rental_uris": {"ios": "https://dc.lft.to/lastmile_qr_scan", "android": "https://dc.lft.to/lastmile_qr_scan"}, "bike_id": "c24c7a1421ce3a142423f6cda60f9605", "lat": 38.93136533333333, "type": "electric_scooter", "name": "c24c7a1421ce3a142423f6cda60f9605", "is_disabled": 0}, {"is_reserved": 0, "fusion_lon": 0.0, "lon": -77.03067683333333, "fusion_lat": 0.0, "rental_uris": {"ios": "https://dc.lft.to/lastmile_qr_scan", "android": "https://dc.lft.to/lastmile_qr_scan"}, "bike_id": "7c0e1f0f9b6b5c80ede0bc57fe96c757", "lat": 38.92246866666667, "type": "electric_scooter", "name": "7c0e1f0f9b6b5c80ede0bc57fe96c757", "is_disabled": 0}, {"is_reserved": 0, "fusion_lon": 0.0, "lon": -77.02619783333333, "fusion_lat": 0.0, "rental_uris": {"ios": "https://dc.lft.to/lastmile_qr_scan", "android": "https://dc.lft.to/lastmile_qr_scan"}, "bike_id": "a26aa8d180e5bd245555ee6cc3eddf46", "lat": 38.8965055, "type": "electric_scooter", "name": "a26aa8d180e5bd245555ee6cc3eddf46", "is_disabled": 0}, {"is_reserved": 0, "fusion_lon": 0.0, "lon": -77.006007, "fusion_lat": 0.0, "rental_uris": {"ios": "https://dc.lft.to/lastmile_qr_scan", "android": "https://dc.lft.to/lastmile_qr_scan"}, "bike_id": "b618f6b67cc804cf2c8a26a60d7d71e8", "lat": 38.8755885, "type": "electric_scooter", "name": "b618f6b67cc804cf2c8a26a60d7d71e8", "is_disabled": 0}, {"is_reserved": 0, "fusion_lon": 0.0, "lon": -77.04753133333334, "fusion_lat": 0.0, "rental_uris": {"ios": "https://dc.lft.to/lastmile_qr_scan", "android": "https://dc.lft.to/lastmile_qr_scan"}, "bike_id": "bb93fc8fcc38690953a7409015470740", "lat": 38.90247016666667, "type": "electric_scooter", "name": "bb93fc8fcc38690953a7409015470740", "is_disabled": 0}, {"is_reserved": 0, "fusion_lon": 0.0, "lon": -77.02211733333333, "fusion_lat": 0.0, "rental_uris": {"ios": "https://dc.lft.to/lastmile_qr_scan", "android": "https://dc.lft.to/lastmile_qr_scan"}, "bike_id": "bd47de2760a6f86d83f7c0f0b4341a27", "lat": 38.91269783333333, "type": "electric_scooter", "name": "bd47de2760a6f86d83f7c0f0b4341a27", "is_disabled": 0}, {"is_reserved": 0, "fusion_lon": 0.0, "lon": -77.02087616666667, "fusion_lat": 0.0, "rental_uris": {"ios": "https://dc.lft.to/lastmile_qr_scan", "android": "https://dc.lft.to/lastmile_qr_scan"}, "bike_id": "eb9ee57ca669eb69a5579bc53225adc6", "lat": 38.92107266666667, "type": "electric_scooter", "name": "eb9ee57ca669eb69a5579bc53225adc6", "is_disabled": 0}, {"is_reserved": 0, "fusion_lon": 0.0, "lon": -77.027065, "fusion_lat": 0.0, "rental_uris": {"ios": "https://dc.lft.to/lastmile_qr_scan", "android": "https://dc.lft.to/lastmile_qr_scan"}, "bike_id": "5438677679c90f3bfb85a9f238f44b84", "lat": 38.919629, "type": "electric_scooter", "name": "5438677679c90f3bfb85a9f238f44b84", "is_disabled": 0}, {"is_reserved": 0, "fusion_lon": 0.0, "lon": -77.05757066666666, "fusion_lat": 0.0, "rental_uris": {"ios": "https://dc.lft.to/lastmile_qr_scan", "android": "https://dc.lft.to/lastmile_qr_scan"}, "bike_id": "439a4a348479c53095509bd3be05932f", "lat": 38.9242, "type": "electric_scooter", "name": "439a4a348479c53095509bd3be05932f", "is_disabled": 0}, {"is_reserved": 0, "fusion_lon": 0.0, "lon": -77.01159283333334, "fusion_lat": 0.0, "rental_uris": {"ios": "https://dc.lft.to/lastmile_qr_scan", "android": "https://dc.lft.to/lastmile_qr_scan"}, "bike_id": "601cef1732b4704626028bf23042ab80", "lat": 38.92022216666667, "type": "electric_scooter", "name": "601cef1732b4704626028bf23042ab80", "is_disabled": 0}, {"is_reserved": 0, "fusion_lon": 0.0, "lon": -77.00240766666667, "fusion_lat": 0.0, "rental_uris": {"ios": "https://dc.lft.to/lastmile_qr_scan", "android": "https://dc.lft.to/lastmile_qr_scan"}, "bike_id": "a307e358edb916415d423fb54054d406", "lat": 38.87479316666666, "type": "electric_scooter", "name": "a307e358edb916415d423fb54054d406", "is_disabled": 0}, {"is_reserved": 0, "fusion_lon": 0.0, "lon": -77.036369, "fusion_lat": 0.0, "rental_uris": {"ios": "https://dc.lft.to/lastmile_qr_scan", "android": "https://dc.lft.to/lastmile_qr_scan"}, "bike_id": "706535c144ffe86c2b2e73cca8347958", "lat": 38.927361166666664, "type": "electric_scooter", "name": "706535c144ffe86c2b2e73cca8347958", "is_disabled": 0}, {"is_reserved": 0, "fusion_lon": 0.0, "lon": -77.05134016666666, "fusion_lat": 0.0, "rental_uris": {"ios": "https://dc.lft.to/lastmile_qr_scan", "android": "https://dc.lft.to/lastmile_qr_scan"}, "bike_id": "55081cb8b070e389f8430e1d3b74343b", "lat": 38.89759133333333, "type": "electric_scooter", "name": "55081cb8b070e389f8430e1d3b74343b", "is_disabled": 0}, {"is_reserved": 0, "fusion_lon": 0.0, "lon": -77.03475333333333, "fusion_lat": 0.0, "rental_uris": {"ios": "https://dc.lft.to/lastmile_qr_scan", "android": "https://dc.lft.to/lastmile_qr_scan"}, "bike_id": "54ecac8a431103596887c6d6c22ee5bf", "lat": 38.905493166666666, "type": "electric_scooter", "name": "54ecac8a431103596887c6d6c22ee5bf", "is_disabled": 0}, {"is_reserved": 0, "fusion_lon": 0.0, "lon": -76.9857615, "fusion_lat": 0.0, "rental_uris": {"ios": "https://dc.lft.to/lastmile_qr_scan", "android": "https://dc.lft.to/lastmile_qr_scan"}, "bike_id": "f03119f4779f1213d5741ef01489b835", "lat": 38.866793, "type": "electric_scooter", "name": "f03119f4779f1213d5741ef01489b835", "is_disabled": 0}, {"is_reserved": 0, "fusion_lon": 0.0, "lon": -77.02078266666666, "fusion_lat": 0.0, "rental_uris": {"ios": "https://dc.lft.to/lastmile_qr_scan", "android": "https://dc.lft.to/lastmile_qr_scan"}, "bike_id": "af6685b0b71d6c8fe47898db0e209dbf", "lat": 38.9020585, "type": "electric_scooter", "name": "af6685b0b71d6c8fe47898db0e209dbf", "is_disabled": 0}, {"is_reserved": 0, "fusion_lon": 0.0, "lon": -77.04513733333333, "fusion_lat": 0.0, "rental_uris": {"ios": "https://dc.lft.to/lastmile_qr_scan", "android": "https://dc.lft.to/lastmile_qr_scan"}, "bike_id": "49e9624707d9ba774dde0b7a9b07c4de", "lat": 38.892224166666665, "type": "electric_scooter", "name": "49e9624707d9ba774dde0b7a9b07c4de", "is_disabled": 0}, {"is_reserved": 0, "fusion_lon": 0.0, "lon": -77.03555166666666, "fusion_lat": 0.0, "rental_uris": {"ios": "https://dc.lft.to/lastmile_qr_scan", "android": "https://dc.lft.to/lastmile_qr_scan"}, "bike_id": "8fb4aa23180430a826257de8bed21151", "lat": 38.901432, "type": "electric_scooter", "name": "8fb4aa23180430a826257de8bed21151", "is_disabled": 0}, {"is_reserved": 0, "fusion_lon": 0.0, "lon": -77.03955, "fusion_lat": 0.0, "rental_uris": {"ios": "https://dc.lft.to/lastmile_qr_scan", "android": "https://dc.lft.to/lastmile_qr_scan"}, "bike_id": "e9bda2d7102f585f0d5fdce19e2fe14d", "lat": 38.90806283333333, "type": "electric_scooter", "name": "e9bda2d7102f585f0d5fdce19e2fe14d", "is_disabled": 0}, {"is_reserved": 0, "fusion_lon": 0.0, "lon": -77.027054, "fusion_lat": 0.0, "rental_uris": {"ios": "https://dc.lft.to/lastmile_qr_scan", "android": "https://dc.lft.to/lastmile_qr_scan"}, "bike_id": "15a4b0b44f1d6dfc727b9db87cdcc42b", "lat": 38.90667766666667, "type": "electric_scooter", "name": "15a4b0b44f1d6dfc727b9db87cdcc42b", "is_disabled": 0}, {"is_reserved": 0, "fusion_lon": 0.0, "lon": -77.009194, "fusion_lat": 0.0, "rental_uris": {"ios": "https://dc.lft.to/lastmile_qr_scan", "android": "https://dc.lft.to/lastmile_qr_scan"}, "bike_id": "e825235ffdb638ab68cfe7a969ebca93", "lat": 38.89645133333333, "type": "electric_scooter", "name": "e825235ffdb638ab68cfe7a969ebca93", "is_disabled": 0}, {"is_reserved": 0, "fusion_lon": 0.0, "lon": -76.979729, "fusion_lat": 0.0, "rental_uris": {"ios": "https://dc.lft.to/lastmile_qr_scan", "android": "https://dc.lft.to/lastmile_qr_scan"}, "bike_id": "54382ed5bfec4b6bca4421853c62737c", "lat": 38.89742016666667, "type": "electric_scooter", "name": "54382ed5bfec4b6bca4421853c62737c", "is_disabled": 0}, {"is_reserved": 0, "fusion_lon": 0.0, "lon": -77.050713, "fusion_lat": 0.0, "rental_uris": {"ios": "https://dc.lft.to/lastmile_qr_scan", "android": "https://dc.lft.to/lastmile_qr_scan"}, "bike_id": "d96154ca04f602fb31e632354793d2c5", "lat": 38.925296833333334, "type": "electric_scooter", "name": "d96154ca04f602fb31e632354793d2c5", "is_disabled": 0}, {"is_reserved": 0, "fusion_lon": 0.0, "lon": -77.08193966666667, "fusion_lat": 0.0, "rental_uris": {"ios": "https://dc.lft.to/lastmile_qr_scan", "android": "https://dc.lft.to/lastmile_qr_scan"}, "bike_id": "ef6904fa69ee99b5392e9bb0805d5e81", "lat": 38.935524666666666, "type": "electric_scooter", "name": "ef6904fa69ee99b5392e9bb0805d5e81", "is_disabled": 0}, {"is_reserved": 0, "fusion_lon": 0.0, "lon": -77.02992816666666, "fusion_lat": 0.0, "rental_uris": {"ios": "https://dc.lft.to/lastmile_qr_scan", "android": "https://dc.lft.to/lastmile_qr_scan"}, "bike_id": "d530023dacec315c66719c21916b0e48", "lat": 38.89942816666667, "type": "electric_scooter", "name": "d530023dacec315c66719c21916b0e48", "is_disabled": 0}, {"is_reserved": 0, "fusion_lon": 0.0, "lon": -77.02982766666666, "fusion_lat": 0.0, "rental_uris": {"ios": "https://dc.lft.to/lastmile_qr_scan", "android": "https://dc.lft.to/lastmile_qr_scan"}, "bike_id": "5abdee38f30f0ed469c3f74e99cadd24", "lat": 38.946018333333335, "type": "electric_scooter", "name": "5abdee38f30f0ed469c3f74e99cadd24", "is_disabled": 0}, {"is_reserved": 0, "fusion_lon": 0.0, "lon": -77.04269733333334, "fusion_lat": 0.0, "rental_uris": {"ios": "https://dc.lft.to/lastmile_qr_scan", "android": "https://dc.lft.to/lastmile_qr_scan"}, "bike_id": "2761094d191cc520b66f40ee1edff462", "lat": 38.90727616666667, "type": "electric_scooter", "name": "2761094d191cc520b66f40ee1edff462", "is_disabled": 0}, {"is_reserved": 0, "fusion_lon": 0.0, "lon": -77.03562683333334, "fusion_lat": 0.0, "rental_uris": {"ios": "https://dc.lft.to/lastmile_qr_scan", "android": "https://dc.lft.to/lastmile_qr_scan"}, "bike_id": "c2dfa3895324c0c7d2db579ce241ea1c", "lat": 38.926947166666665, "type": "electric_scooter", "name": "c2dfa3895324c0c7d2db579ce241ea1c", "is_disabled": 0}, {"is_reserved": 0, "fusion_lon": 0.0, "lon": -77.07885183333333, "fusion_lat": 0.0, "rental_uris": {"ios": "https://dc.lft.to/lastmile_qr_scan", "android": "https://dc.lft.to/lastmile_qr_scan"}, "bike_id": "d075b25569279b9a38a0af178eb165b6", "lat": 38.842513833333335, "type": "electric_bike", "name": "d075b25569279b9a38a0af178eb165b6", "is_disabled": 0}, {"is_reserved": 0, "fusion_lon": 0.0, "lon": -76.98375083333333, "fusion_lat": 0.0, "rental_uris": {"ios": "https://dc.lft.to/lastmile_qr_scan", "android": "https://dc.lft.to/lastmile_qr_scan"}, "bike_id": "a835d6f54731a9b1f6afebf98d21501f", "lat": 38.906451833333335, "type": "electric_scooter", "name": "a835d6f54731a9b1f6afebf98d21501f", "is_disabled": 0}, {"is_reserved": 0, "fusion_lon": 0.0, "lon": -76.98657616666667, "fusion_lat": 0.0, "rental_uris": {"ios": "https://dc.lft.to/lastmile_qr_scan", "android": "https://dc.lft.to/lastmile_qr_scan"}, "bike_id": "2e03b7dbd052d193814557a0ed6a3615", "lat": 38.858040333333335, "type": "electric_scooter", "name": "2e03b7dbd052d193814557a0ed6a3615", "is_disabled": 0}, {"is_reserved": 0, "fusion_lon": 0.0, "lon": -77.03191183333334, "fusion_lat": 0.0, "rental_uris": {"ios": "https://dc.lft.to/lastmile_qr_scan", "android": "https://dc.lft.to/lastmile_qr_scan"}, "bike_id": "4351439cdefeed722ac35213eb0d4a4b", "lat": 38.9175545, "type": "electric_scooter", "name": "4351439cdefeed722ac35213eb0d4a4b", "is_disabled": 0}, {"is_reserved": 0, "fusion_lon": 0.0, "lon": -77.0198415, "fusion_lat": 0.0, "rental_uris": {"ios": "https://dc.lft.to/lastmile_qr_scan", "android": "https://dc.lft.to/lastmile_qr_scan"}, "bike_id": "66097f25370013c1e50cb1ec53f787f3", "lat": 38.91518033333333, "type": "electric_scooter", "name": "66097f25370013c1e50cb1ec53f787f3", "is_disabled": 0}, {"is_reserved": 0, "fusion_lon": 0.0, "lon": -77.02208116666667, "fusion_lat": 0.0, "rental_uris": {"ios": "https://dc.lft.to/lastmile_qr_scan", "android": "https://dc.lft.to/lastmile_qr_scan"}, "bike_id": "5546a63c163da2f7db3dcdd7d548a6e3", "lat": 38.91270633333333, "type": "electric_scooter", "name": "5546a63c163da2f7db3dcdd7d548a6e3", "is_disabled": 0}, {"is_reserved": 0, "fusion_lon": 0.0, "lon": -77.0320615, "fusion_lat": 0.0, "rental_uris": {"ios": "https://dc.lft.to/lastmile_qr_scan", "android": "https://dc.lft.to/lastmile_qr_scan"}, "bike_id": "d68a4d16ac193690f707347d8964bad3", "lat": 38.917014333333334, "type": "electric_scooter", "name": "d68a4d16ac193690f707347d8964bad3", "is_disabled": 0}, {"is_reserved": 0, "fusion_lon": 0.0, "lon": -77.0502025, "fusion_lat": 0.0, "rental_uris": {"ios": "https://dc.lft.to/lastmile_qr_scan", "android": "https://dc.lft.to/lastmile_qr_scan"}, "bike_id": "b121b9a6afa06ba63387309d2e979c4f", "lat": 38.897406833333335, "type": "electric_scooter", "name": "b121b9a6afa06ba63387309d2e979c4f", "is_disabled": 0}, {"is_reserved": 0, "fusion_lon": 0.0, "lon": -77.03192083333333, "fusion_lat": 0.0, "rental_uris": {"ios": "https://dc.lft.to/lastmile_qr_scan", "android": "https://dc.lft.to/lastmile_qr_scan"}, "bike_id": "135493c1d5f47574727839e5d7cbe12b", "lat": 38.913338, "type": "electric_scooter", "name": "135493c1d5f47574727839e5d7cbe12b", "is_disabled": 0}, {"is_reserved": 0, "fusion_lon": 0.0, "lon": -77.00410016666666, "fusion_lat": 0.0, "rental_uris": {"ios": "https://dc.lft.to/lastmile_qr_scan", "android": "https://dc.lft.to/lastmile_qr_scan"}, "bike_id": "f877baa5a3332cbb9d1988080ade893e", "lat": 38.877102666666666, "type": "electric_scooter", "name": "f877baa5a3332cbb9d1988080ade893e", "is_disabled": 0}, {"is_reserved": 0, "fusion_lon": 0.0, "lon": -77.071523, "fusion_lat": 0.0, "rental_uris": {"ios": "https://dc.lft.to/lastmile_qr_scan", "android": "https://dc.lft.to/lastmile_qr_scan"}, "bike_id": "9b6902493412d80a0e69f11c6bfd1d29", "lat": 38.90866066666667, "type": "electric_scooter", "name": "9b6902493412d80a0e69f11c6bfd1d29", "is_disabled": 0}, {"is_reserved": 0, "fusion_lon": 0.0, "lon": -77.02613866666667, "fusion_lat": 0.0, "rental_uris": {"ios": "https://dc.lft.to/lastmile_qr_scan", "android": "https://dc.lft.to/lastmile_qr_scan"}, "bike_id": "5be074d2658c86d7d6b9d17ede5a63e2", "lat": 38.9002355, "type": "electric_scooter", "name": "5be074d2658c86d7d6b9d17ede5a63e2", "is_disabled": 0}, {"is_reserved": 0, "fusion_lon": 0.0, "lon": -76.97400183333333, "fusion_lat": 0.0, "rental_uris": {"ios": "https://dc.lft.to/lastmile_qr_scan", "android": "https://dc.lft.to/lastmile_qr_scan"}, "bike_id": "b70a95047ee7bb9bfca0cf53fc700934", "lat": 38.8452325, "type": "electric_bike", "name": "b70a95047ee7bb9bfca0cf53fc700934", "is_disabled": 0}, {"is_reserved": 0, "fusion_lon": 0.0, "lon": -76.999774, "fusion_lat": 0.0, "rental_uris": {"ios": "https://dc.lft.to/lastmile_qr_scan", "android": "https://dc.lft.to/lastmile_qr_scan"}, "bike_id": "140cd90510ca85d7056452fd90e881e2", "lat": 38.90832566666667, "type": "electric_scooter", "name": "140cd90510ca85d7056452fd90e881e2", "is_disabled": 0}, {"is_reserved": 0, "fusion_lon": 0.0, "lon": -76.94652116666667, "fusion_lat": 0.0, "rental_uris": {"ios": "https://dc.lft.to/lastmile_qr_scan", "android": "https://dc.lft.to/lastmile_qr_scan"},