{"data": {"bikes": [{"type": "electric_scooter", "fusion_lon": 0.0, "bike_id": "f5ed4fbdf2e0832cbceeb9d0b81edad0", "is_disabled": 0, "lat": 38.909733, "rental_uris": {"ios": "https://dc.lft.to/lastmile_qr_scan", "android": "https://dc.lft.to/lastmile_qr_scan"}, "is_reserved": 0, "lon": -77.0387335, "fusion_lat": 0.0, "name": "f5ed4fbdf2e0832cbceeb9d0b81edad0"}, {"type": "electric_scooter", "fusion_lon": 0.0, "bike_id": "884c20e765513d0dccfcd2f7dbfbf6e6", "is_disabled": 0, "lat": 38.92052483333333, "rental_uris": {"ios": "https://dc.lft.to/lastmile_qr_scan", "android": "https://dc.lft.to/lastmile_qr_scan"}, "is_reserved": 0, "lon": -77.0418835, "fusion_lat": 0.0, "name": "884c20e765513d0dccfcd2f7dbfbf6e6"}, {"type": "electric_scooter", "fusion_lon": 0.0, "bike_id": "9e34a8693bddf3c5c392d4a2fad27905", "is_disabled": 0, "lat": 38.942046500000004, "rental_uris": {"ios": "https://dc.lft.to/lastmile_qr_scan", "android": "https://dc.lft.to/lastmile_qr_scan"}, "is_reserved": 0, "lon": -77.0259635, "fusion_lat": 0.0, "name": "9e34a8693bddf3c5c392d4a2fad27905"}, {"type": "electric_scooter", "fusion_lon": 0.0, "bike_id": "4389961aeac1cbdc3d1c27bf5985017b", "is_disabled": 0, "lat": 38.900254333333336, "rental_uris": {"ios": "https://dc.lft.to/lastmile_qr_scan", "android": "https://dc.lft.to/lastmile_qr_scan"}, "is_reserved": 0, "lon": -77.04812883333334, "fusion_lat": 0.0, "name": "4389961aeac1cbdc3d1c27bf5985017b"}, {"type": "electric_scooter", "fusion_lon": 0.0, "bike_id": "3080a2186ad90b6cc3796ec7ce429f23", "is_disabled": 0, "lat": 38.894959, "rental_uris": {"ios": "https://dc.lft.to/lastmile_qr_scan", "android": "https://dc.lft.to/lastmile_qr_scan"}, "is_reserved": 0, "lon": -77.0094435, "fusion_lat": 0.0, "name": "3080a2186ad90b6cc3796ec7ce429f23"}, {"type": "electric_scooter", "fusion_lon": 0.0, "bike_id": "9b1b19278475a53d4a99cf1f6ac91c2f", "is_disabled": 0, "lat": 38.92588583333333, "rental_uris": {"ios": "https://dc.lft.to/lastmile_qr_scan", "android": "https://dc.lft.to/lastmile_qr_scan"}, "is_reserved": 0, "lon": -77.02583816666667, "fusion_lat": 0.0, "name": "9b1b19278475a53d4a99cf1f6ac91c2f"}, {"type": "electric_scooter", "fusion_lon": 0.0, "bike_id": "72fb23ea6868c505d10c316436707bd3", "is_disabled": 0, "lat": 38.92758583333333, "rental_uris": {"ios": "https://dc.lft.to/lastmile_qr_scan", "android": "https://dc.lft.to/lastmile_qr_scan"}, "is_reserved": 0, "lon": -77.02836, "fusion_lat": 0.0, "name": "72fb23ea6868c505d10c316436707bd3"}, {"type": "electric_scooter", "fusion_lon": 0.0, "bike_id": "c9ef68648bcc91a6bf8d0db9e422df65", "is_disabled": 0, "lat": 38.908190166666664, "rental_uris": {"ios": "https://dc.lft.to/lastmile_qr_scan", "android": "https://dc.lft.to/lastmile_qr_scan"}, "is_reserved": 0, "lon": -77.043466, "fusion_lat": 0.0, "name": "c9ef68648bcc91a6bf8d0db9e422df65"}, {"type": "electric_scooter", "fusion_lon": 0.0, "bike_id": "979838cb242fa429c3a8e2909dacd3b9", "is_disabled": 0, "lat": 38.9140175, "rental_uris": {"ios": "https://dc.lft.to/lastmile_qr_scan", "android": "https://dc.lft.to/lastmile_qr_scan"}, "is_reserved": 0, "lon": -77.06419866666667, "fusion_lat": 0.0, "name": "979838cb242fa429c3a8e2909dacd3b9"}, {"type": "electric_scooter", "fusion_lon": 0.0, "bike_id": "b7072ef3a190ebe067555f3a8879ee72", "is_disabled": 0, "lat": 38.930902333333336, "rental_uris": {"ios": "https://dc.lft.to/lastmile_qr_scan", "android": "https://dc.lft.to/lastmile_qr_scan"}, "is_reserved": 0, "lon": -77.02456866666667, "fusion_lat": 0.0, "name": "b7072ef3a190ebe067555f3a8879ee72"}, {"type": "electric_scooter", "fusion_lon": 0.0, "bike_id": "8c6886be6af86fbb26ee131471006748", "is_disabled": 0, "lat": 38.91820333333333, "rental_uris": {"ios": "https://dc.lft.to/lastmile_qr_scan", "android": "https://dc.lft.to/lastmile_qr_scan"}, "is_reserved": 0, "lon": -77.03663516666667, "fusion_lat": 0.0, "name": "8c6886be6af86fbb26ee131471006748"}, {"type": "electric_scooter", "fusion_lon": 0.0, "bike_id": "92daedfa51fd7c679b8bac654d1fe033", "is_disabled": 0, "lat": 38.922651333333334, "rental_uris": {"ios": "https://dc.lft.to/lastmile_qr_scan", "android": "https://dc.lft.to/lastmile_qr_scan"}, "is_reserved": 0, "lon": -77.02960833333333, "fusion_lat": 0.0, "name": "92daedfa51fd7c679b8bac654d1fe033"}, {"type": "electric_scooter", "fusion_lon": 0.0, "bike_id": "9186bbacc81346a9cfd2a0fb9989a0a7", "is_disabled": 0, "lat": 38.912716, "rental_uris": {"ios": "https://dc.lft.to/lastmile_qr_scan", "android": "https://dc.lft.to/lastmile_qr_scan"}, "is_reserved": 0, "lon": -77.02215433333333, "fusion_lat": 0.0, "name": "9186bbacc81346a9cfd2a0fb9989a0a7"}, {"type": "electric_scooter", "fusion_lon": 0.0, "bike_id": "507e073ff5fab3043d1346ec5268d516", "is_disabled": 0, "lat": 38.94827883333333, "rental_uris": {"ios": "https://dc.lft.to/lastmile_qr_scan", "android": "https://dc.lft.to/lastmile_qr_scan"}, "is_reserved": 0, "lon": -77.0245775, "fusion_lat": 0.0, "name": "507e073ff5fab3043d1346ec5268d516"}, {"type": "electric_scooter", "fusion_lon": 0.0, "bike_id": "c74f848910670db2f57265983edb8878", "is_disabled": 0, "lat": 38.915319, "rental_uris": {"ios": "https://dc.lft.to/lastmile_qr_scan", "android": "https://dc.lft.to/lastmile_qr_scan"}, "is_reserved": 0, "lon": -77.04447083333334, "fusion_lat": 0.0, "name": "c74f848910670db2f57265983edb8878"}, {"type": "electric_scooter", "fusion_lon": 0.0, "bike_id": "72171e5a0d5cbcae83c52a84823b19c4", "is_disabled": 0, "lat": 38.90147283333334, "rental_uris": {"ios": "https://dc.lft.to/lastmile_qr_scan", "android": "https://dc.lft.to/lastmile_qr_scan"}, "is_reserved": 0, "lon": -77.0407145, "fusion_lat": 0.0, "name": "72171e5a0d5cbcae83c52a84823b19c4"}, {"type": "electric_scooter", "fusion_lon": 0.0, "bike_id": "d179c5d26e77b1881c42ce3564031a84", "is_disabled": 0, "lat": 38.90709616666667, "rental_uris": {"ios": "https://dc.lft.to/lastmile_qr_scan", "android": "https://dc.lft.to/lastmile_qr_scan"}, "is_reserved": 0, "lon": -77.03583033333334, "fusion_lat": 0.0, "name": "d179c5d26e77b1881c42ce3564031a84"}, {"type": "electric_scooter", "fusion_lon": 0.0, "bike_id": "062d9167851f69f3d46833d6efda6bfa", "is_disabled": 0, "lat": 38.9235485, "rental_uris": {"ios": "https://dc.lft.to/lastmile_qr_scan", "android": "https://dc.lft.to/lastmile_qr_scan"}, "is_reserved": 0, "lon": -77.0364035, "fusion_lat": 0.0, "name": "062d9167851f69f3d46833d6efda6bfa"}, {"type": "electric_scooter", "fusion_lon": 0.0, "bike_id": "8c13bff3c937fe09249ac51a97b78e77", "is_disabled": 0, "lat": 38.905195666666664, "rental_uris": {"ios": "https://dc.lft.to/lastmile_qr_scan", "android": "https://dc.lft.to/lastmile_qr_scan"}, "is_reserved": 0, "lon": -77.064647, "fusion_lat": 0.0, "name": "8c13bff3c937fe09249ac51a97b78e77"}, {"type": "electric_scooter", "fusion_lon": 0.0, "bike_id": "4b81e47cc894bde11aba41833d8e2908", "is_disabled": 0, "lat": 38.899584833333336, "rental_uris": {"ios": "https://dc.lft.to/lastmile_qr_scan", "android": "https://dc.lft.to/lastmile_qr_scan"}, "is_reserved": 0, "lon": -77.01598616666666, "fusion_lat": 0.0, "name": "4b81e47cc894bde11aba41833d8e2908"}, {"type": "electric_scooter", "fusion_lon": 0.0, "bike_id": "ab72c62873d634c5e44f4445b9bc64fc", "is_disabled": 0, "lat": 38.947586, "rental_uris": {"ios": "https://dc.lft.to/lastmile_qr_scan", "android": "https://dc.lft.to/lastmile_qr_scan"}, "is_reserved": 0, "lon": -77.0797565, "fusion_lat": 0.0, "name": "ab72c62873d634c5e44f4445b9bc64fc"}, {"type": "electric_scooter", "fusion_lon": 0.0, "bike_id": "a7fe6039075748bea66c1fbe66e6d5dd", "is_disabled": 0, "lat": 38.854526666666665, "rental_uris": {"ios": "https://dc.lft.to/lastmile_qr_scan", "android": "https://dc.lft.to/lastmile_qr_scan"}, "is_reserved": 0, "lon": -76.97241166666667, "fusion_lat": 0.0, "name": "a7fe6039075748bea66c1fbe66e6d5dd"}, {"type": "electric_scooter", "fusion_lon": 0.0, "bike_id": "6b23c62406546196d20797df8f290486", "is_disabled": 0, "lat": 38.92791316666667, "rental_uris": {"ios": "https://dc.lft.to/lastmile_qr_scan", "android": "https://dc.lft.to/lastmile_qr_scan"}, "is_reserved": 0, "lon": -77.03149316666666, "fusion_lat": 0.0, "name": "6b23c62406546196d20797df8f290486"}, {"type": "electric_scooter", "fusion_lon": 0.0, "bike_id": "8539b88328d7dd4af4296fd5404ef1b6", "is_disabled": 0, "lat": 38.920824333333336, "rental_uris": {"ios": "https://dc.lft.to/lastmile_qr_scan", "android": "https://dc.lft.to/lastmile_qr_scan"}, "is_reserved": 0, "lon": -77.0230255, "fusion_lat": 0.0, "name": "8539b88328d7dd4af4296fd5404ef1b6"}, {"type": "electric_scooter", "fusion_lon": 0.0, "bike_id": "e2f8deca0dd75bfcf5eb200631df1d16", "is_disabled": 0, "lat": 38.936893166666664, "rental_uris": {"ios": "https://dc.lft.to/lastmile_qr_scan", "android": "https://dc.lft.to/lastmile_qr_scan"}, "is_reserved": 0, "lon": -77.06010916666666, "fusion_lat": 0.0, "name": "e2f8deca0dd75bfcf5eb200631df1d16"}, {"type": "electric_scooter", "fusion_lon": 0.0, "bike_id": "6e8c386ed9b0e2de3c53a527db9935de", "is_disabled": 0, "lat": 38.9041155, "rental_uris": {"ios": "https://dc.lft.to/lastmile_qr_scan", "android": "https://dc.lft.to/lastmile_qr_scan"}, "is_reserved": 0, "lon": -77.06817933333333, "fusion_lat": 0.0, "name": "6e8c386ed9b0e2de3c53a527db9935de"}, {"type": "electric_scooter", "fusion_lon": 0.0, "bike_id": "5a6b2bd9ad7bce618ee803bd9ecb7d62", "is_disabled": 0, "lat": 38.90833, "rental_uris": {"ios": "https://dc.lft.to/lastmile_qr_scan", "android": "https://dc.lft.to/lastmile_qr_scan"}, "is_reserved": 0, "lon": -77.04338066666666, "fusion_lat": 0.0, "name": "5a6b2bd9ad7bce618ee803bd9ecb7d62"}, {"type": "electric_scooter", "fusion_lon": 0.0, "bike_id": "a3ea32b1aa0bd3e8a3cec764d361706a", "is_disabled": 0, "lat": 38.93530783333333, "rental_uris": {"ios": "https://dc.lft.to/lastmile_qr_scan", "android": "https://dc.lft.to/lastmile_qr_scan"}, "is_reserved": 0, "lon": -77.03493233333333, "fusion_lat": 0.0, "name": "a3ea32b1aa0bd3e8a3cec764d361706a"}, {"type": "electric_scooter", "fusion_lon": 0.0, "bike_id": "e3ebdef76939cad988f0d9da95b869ab", "is_disabled": 0, "lat": 38.935326, "rental_uris": {"ios": "https://dc.lft.to/lastmile_qr_scan", "android": "https://dc.lft.to/lastmile_qr_scan"}, "is_reserved": 0, "lon": -77.02355483333334, "fusion_lat": 0.0, "name": "e3ebdef76939cad988f0d9da95b869ab"}, {"type": "electric_scooter", "fusion_lon": 0.0, "bike_id": "6a66a650f57da301096a7cc0689c87b3", "is_disabled": 0, "lat": 38.9001255, "rental_uris": {"ios": "https://dc.lft.to/lastmile_qr_scan", "android": "https://dc.lft.to/lastmile_qr_scan"}, "is_reserved": 0, "lon": -76.98894983333334, "fusion_lat": 0.0, "name": "6a66a650f57da301096a7cc0689c87b3"}, {"type": "electric_scooter", "fusion_lon": 0.0, "bike_id": "7f63209fb98883a9b277fb0419bb01b5", "is_disabled": 0, "lat": 38.91875483333333, "rental_uris": {"ios": "https://dc.lft.to/lastmile_qr_scan", "android": "https://dc.lft.to/lastmile_qr_scan"}, "is_reserved": 0, "lon": -77.0436955, "fusion_lat": 0.0, "name": "7f63209fb98883a9b277fb0419bb01b5"}, {"type": "electric_scooter", "fusion_lon": 0.0, "bike_id": "3b8466435fc448879250e34438328879", "is_disabled": 0, "lat": 38.92030966666667, "rental_uris": {"ios": "https://dc.lft.to/lastmile_qr_scan", "android": "https://dc.lft.to/lastmile_qr_scan"}, "is_reserved": 0, "lon": -77.0103265, "fusion_lat": 0.0, "name": "3b8466435fc448879250e34438328879"}, {"type": "electric_scooter", "fusion_lon": 0.0, "bike_id": "1063ed0947964feed733fd4419776b57", "is_disabled": 0, "lat": 38.9371925, "rental_uris": {"ios": "https://dc.lft.to/lastmile_qr_scan", "android": "https://dc.lft.to/lastmile_qr_scan"}, "is_reserved": 0, "lon": -77.019083, "fusion_lat": 0.0, "name": "1063ed0947964feed733fd4419776b57"}, {"type": "electric_scooter", "fusion_lon": 0.0, "bike_id": "b1a7194516888d82a09a620d5928764d", "is_disabled": 0, "lat": 38.920879666666664, "rental_uris": {"ios": "https://dc.lft.to/lastmile_qr_scan", "android": "https://dc.lft.to/lastmile_qr_scan"}, "is_reserved": 0, "lon": -77.04198483333333, "fusion_lat": 0.0, "name": "b1a7194516888d82a09a620d5928764d"}, {"type": "electric_scooter", "fusion_lon": 0.0, "bike_id": "824ff7b97a16388c4eb9c02191eb942a", "is_disabled": 0, "lat": 38.90014433333333, "rental_uris": {"ios": "https://dc.lft.to/lastmile_qr_scan", "android": "https://dc.lft.to/lastmile_qr_scan"}, "is_reserved": 0, "lon": -77.00580033333334, "fusion_lat": 0.0, "name": "824ff7b97a16388c4eb9c02191eb942a"}, {"type": "electric_scooter", "fusion_lon": 0.0, "bike_id": "f4364bab3b67caa6ff5ffa0dcd81cfbe", "is_disabled": 0, "lat": 38.940990666666664, "rental_uris": {"ios": "https://dc.lft.to/lastmile_qr_scan", "android": "https://dc.lft.to/lastmile_qr_scan"}, "is_reserved": 0, "lon": -77.0264515, "fusion_lat": 0.0, "name": "f4364bab3b67caa6ff5ffa0dcd81cfbe"}, {"type": "electric_scooter", "fusion_lon": 0.0, "bike_id": "91f83e42fd1ac45648d11a1ff552c03e", "is_disabled": 0, "lat": 38.892188, "rental_uris": {"ios": "https://dc.lft.to/lastmile_qr_scan", "android": "https://dc.lft.to/lastmile_qr_scan"}, "is_reserved": 0, "lon": -77.02371833333333, "fusion_lat": 0.0, "name": "91f83e42fd1ac45648d11a1ff552c03e"}, {"type": "electric_scooter", "fusion_lon": 0.0, "bike_id": "f0d7932acffb7a5d3b9d43ab8e1310cf", "is_disabled": 0, "lat": 38.91547383333333, "rental_uris": {"ios": "https://dc.lft.to/lastmile_qr_scan", "android": "https://dc.lft.to/lastmile_qr_scan"}, "is_reserved": 0, "lon": -77.03850016666667, "fusion_lat": 0.0, "name": "f0d7932acffb7a5d3b9d43ab8e1310cf"}, {"type": "electric_scooter", "fusion_lon": 0.0, "bike_id": "5f954677dbfc28a5166cc4af8f5be4f4", "is_disabled": 0, "lat": 38.972190166666664, "rental_uris": {"ios": "https://dc.lft.to/lastmile_qr_scan", "android": "https://dc.lft.to/lastmile_qr_scan"}, "is_reserved": 0, "lon": -77.0271685, "fusion_lat": 0.0, "name": "5f954677dbfc28a5166cc4af8f5be4f4"}, {"type": "electric_scooter", "fusion_lon": 0.0, "bike_id": "02cb483155aab12ab8d50331efe2f7d9", "is_disabled": 0, "lat": 38.892226666666666, "rental_uris": {"ios": "https://dc.lft.to/lastmile_qr_scan", "android": "https://dc.lft.to/lastmile_qr_scan"}, "is_reserved": 0, "lon": -77.03341, "fusion_lat": 0.0, "name": "02cb483155aab12ab8d50331efe2f7d9"}, {"type": "electric_scooter", "fusion_lon": 0.0, "bike_id": "c75fc6700130dc6d33e8277fec7cd39c", "is_disabled": 0, "lat": 38.91106416666667, "rental_uris": {"ios": "https://dc.lft.to/lastmile_qr_scan", "android": "https://dc.lft.to/lastmile_qr_scan"}, "is_reserved": 0, "lon": -77.021368, "fusion_lat": 0.0, "name": "c75fc6700130dc6d33e8277fec7cd39c"}, {"type": "electric_scooter", "fusion_lon": 0.0, "bike_id": "d1e332bb66867a26852187df8e2e9379", "is_disabled": 0, "lat": 38.91742766666667, "rental_uris": {"ios": "https://dc.lft.to/lastmile_qr_scan", "android": "https://dc.lft.to/lastmile_qr_scan"}, "is_reserved": 0, "lon": -77.02281783333333, "fusion_lat": 0.0, "name": "d1e332bb66867a26852187df8e2e9379"}, {"type": "electric_scooter", "fusion_lon": 0.0, "bike_id": "095233d3397db858187c4a401b60d963", "is_disabled": 0, "lat": 38.89191266666667, "rental_uris": {"ios": "https://dc.lft.to/lastmile_qr_scan", "android": "https://dc.lft.to/lastmile_qr_scan"}, "is_reserved": 0, "lon": -76.95279316666667, "fusion_lat": 0.0, "name": "095233d3397db858187c4a401b60d963"}, {"type": "electric_scooter", "fusion_lon": 0.0, "bike_id": "91b6603f8446af81e76ee83d6d8f26ea", "is_disabled": 0, "lat": 38.893457, "rental_uris": {"ios": "https://dc.lft.to/lastmile_qr_scan", "android": "https://dc.lft.to/lastmile_qr_scan"}, "is_reserved": 0, "lon": -76.9342815, "fusion_lat": 0.0, "name": "91b6603f8446af81e76ee83d6d8f26ea"}, {"type": "electric_scooter", "fusion_lon": 0.0, "bike_id": "1b0bd567988147897b6c649f9bc7972e", "is_disabled": 0, "lat": 38.90556183333333, "rental_uris": {"ios": "https://dc.lft.to/lastmile_qr_scan", "android": "https://dc.lft.to/lastmile_qr_scan"}, "is_reserved": 0, "lon": -77.00719066666667, "fusion_lat": 0.0, "name": "1b0bd567988147897b6c649f9bc7972e"}, {"type": "electric_bike", "fusion_lon": 0.0, "bike_id": "6661592b278770558190553f74419ca9", "is_disabled": 0, "lat": 38.953363333333336, "rental_uris": {"ios": "https://dc.lft.to/lastmile_qr_scan", "android": "https://dc.lft.to/lastmile_qr_scan"}, "is_reserved": 0, "lon": -76.9826235, "fusion_lat": 0.0, "name": "6661592b278770558190553f74419ca9"}, {"type": "electric_scooter", "fusion_lon": 0.0, "bike_id": "677aca875b528058adf5104a9ac3c2d6", "is_disabled": 0, "lat": 38.930479166666665, "rental_uris": {"ios": "https://dc.lft.to/lastmile_qr_scan", "android": "https://dc.lft.to/lastmile_qr_scan"}, "is_reserved": 0, "lon": -77.024827, "fusion_lat": 0.0, "name": "677aca875b528058adf5104a9ac3c2d6"}, {"type": "electric_bike", "fusion_lon": 0.0, "bike_id": "67cd344b37e490cb5595fb377c3017ea", "is_disabled": 0, "lat": 38.9507745, "rental_uris": {"ios": "https://dc.lft.to/lastmile_qr_scan", "android": "https://dc.lft.to/lastmile_qr_scan"}, "is_reserved": 0, "lon": -77.01222183333333, "fusion_lat": 0.0, "name": "67cd344b37e490cb5595fb377c3017ea"}, {"type": "electric_scooter", "fusion_lon": 0.0, "bike_id": "86f167cf77b1921839dec564e24e53fb", "is_disabled": 0, "lat": 38.892224, "rental_uris": {"ios": "https://dc.lft.to/lastmile_qr_scan", "android": "https://dc.lft.to/lastmile_qr_scan"}, "is_reserved": 0, "lon": -77.04686683333334, "fusion_lat": 0.0, "name": "86f167cf77b1921839dec564e24e53fb"}, {"type": "electric_scooter", "fusion_lon": 0.0, "bike_id": "1192c6bccb5d38d67865db220d398798", "is_disabled": 0, "lat": 38.905934, "rental_uris": {"ios": "https://dc.lft.to/lastmile_qr_scan", "android": "https://dc.lft.to/lastmile_qr_scan"}, "is_reserved": 0, "lon": -77.06556983333333, "fusion_lat": 0.0, "name": "1192c6bccb5d38d67865db220d398798"}, {"type": "electric_bike", "fusion_lon": 0.0, "bike_id": "edc31b9909338b8113fbaa17f27cfc96", "is_disabled": 0, "lat": 38.83837666666667, "rental_uris": {"ios": "https://dc.lft.to/lastmile_qr_scan", "android": "https://dc.lft.to/lastmile_qr_scan"}, "is_reserved": 0, "lon": -76.99655366666667, "fusion_lat": 0.0, "name": "edc31b9909338b8113fbaa17f27cfc96"}, {"type": "electric_scooter", "fusion_lon": 0.0, "bike_id": "be1fc3e19a8c3dac3d9a75b2ea55ceb5", "is_disabled": 0, "lat": 38.90423533333333, "rental_uris": {"ios": "https://dc.lft.to/lastmile_qr_scan", "android": "https://dc.lft.to/lastmile_qr_scan"}, "is_reserved": 0, "lon": -77.02599166666667, "fusion_lat": 0.0, "name": "be1fc3e19a8c3dac3d9a75b2ea55ceb5"}, {"type": "electric_scooter", "fusion_lon": 0.0, "bike_id": "a982f3661df4243c1d5251d6d8141388", "is_disabled": 0, "lat": 38.9205635, "rental_uris": {"ios": "https://dc.lft.to/lastmile_qr_scan", "android": "https://dc.lft.to/lastmile_qr_scan"}, "is_reserved": 0, "lon": -77.029454, "fusion_lat": 0.0, "name": "a982f3661df4243c1d5251d6d8141388"}, {"type": "electric_scooter", "fusion_lon": 0.0, "bike_id": "8f4a745e1f51ab3d3a73087ee3b041a4", "is_disabled": 0, "lat": 38.9193215, "rental_uris": {"ios": "https://dc.lft.to/lastmile_qr_scan", "android": "https://dc.lft.to/lastmile_qr_scan"}, "is_reserved": 0, "lon": -77.03374216666667, "fusion_lat": 0.0, "name": "8f4a745e1f51ab3d3a73087ee3b041a4"}, {"type": "electric_scooter", "fusion_lon": 0.0, "bike_id": "6250f2ee609e84d61397c9d796ef985f", "is_disabled": 0, "lat": 38.92805216666667, "rental_uris": {"ios": "https://dc.lft.to/lastmile_qr_scan", "android": "https://dc.lft.to/lastmile_qr_scan"}, "is_reserved": 0, "lon": -77.02388716666667, "fusion_lat": 0.0, "name": "6250f2ee609e84d61397c9d796ef985f"}, {"type": "electric_scooter", "fusion_lon": 0.0, "bike_id": "19ed26fd2b98de58fdd8870d11377ef4", "is_disabled": 0, "lat": 38.89221216666667, "rental_uris": {"ios": "https://dc.lft.to/lastmile_qr_scan", "android": "https://dc.lft.to/lastmile_qr_scan"}, "is_reserved": 0, "lon": -77.0201475, "fusion_lat": 0.0, "name": "19ed26fd2b98de58fdd8870d11377ef4"}, {"type": "electric_scooter", "fusion_lon": 0.0, "bike_id": "a808f78deecf19ee0515767f520e3b0f", "is_disabled": 0, "lat": 38.920717333333336, "rental_uris": {"ios": "https://dc.lft.to/lastmile_qr_scan", "android": "https://dc.lft.to/lastmile_qr_scan"}, "is_reserved": 0, "lon": -77.02503966666667, "fusion_lat": 0.0, "name": "a808f78deecf19ee0515767f520e3b0f"}, {"type": "electric_scooter", "fusion_lon": 0.0, "bike_id": "ef8a335ef17c12212ad54f58a332f78f", "is_disabled": 0, "lat": 38.917517333333336, "rental_uris": {"ios": "https://dc.lft.to/lastmile_qr_scan", "android": "https://dc.lft.to/lastmile_qr_scan"}, "is_reserved": 0, "lon": -77.04056116666666, "fusion_lat": 0.0, "name": "ef8a335ef17c12212ad54f58a332f78f"}, {"type": "electric_bike", "fusion_lon": 0.0, "bike_id": "c241c8b3cfb527ea8b81d7e0abf64849", "is_disabled": 0, "lat": 38.86333116666667, "rental_uris": {"ios": "https://dc.lft.to/lastmile_qr_scan", "android": "https://dc.lft.to/lastmile_qr_scan"}, "is_reserved": 0, "lon": -76.98725516666667, "fusion_lat": 0.0, "name": "c241c8b3cfb527ea8b81d7e0abf64849"}, {"type": "electric_scooter", "fusion_lon": 0.0, "bike_id": "aaf0e23d3eb6417d37b6c16feeccf67b", "is_disabled": 0, "lat": 38.90386, "rental_uris": {"ios": "https://dc.lft.to/lastmile_qr_scan", "android": "https://dc.lft.to/lastmile_qr_scan"}, "is_reserved": 0, "lon": -77.01848516666666, "fusion_lat": 0.0, "name": "aaf0e23d3eb6417d37b6c16feeccf67b"}, {"type": "electric_scooter", "fusion_lon": 0.0, "bike_id": "b73de314e81f30af294fcd4c6ba23f91", "is_disabled": 0, "lat": 38.938499, "rental_uris": {"ios": "https://dc.lft.to/lastmile_qr_scan", "android": "https://dc.lft.to/lastmile_qr_scan"}, "is_reserved": 0, "lon": -77.03391016666667, "fusion_lat": 0.0, "name": "b73de314e81f30af294fcd4c6ba23f91"}, {"type": "electric_scooter", "fusion_lon": 0.0, "bike_id": "70214afaf1ea7363403b85209df7b4de", "is_disabled": 0, "lat": 38.91565883333333, "rental_uris": {"ios": "https://dc.lft.to/lastmile_qr_scan", "android": "https://dc.lft.to/lastmile_qr_scan"}, "is_reserved": 0, "lon": -77.04175316666667, "fusion_lat": 0.0, "name": "70214afaf1ea7363403b85209df7b4de"}, {"type": "electric_scooter", "fusion_lon": 0.0, "bike_id": "e14823c304b2071707487603502d4d28", "is_disabled": 0, "lat": 38.918159333333335, "rental_uris": {"ios": "https://dc.lft.to/lastmile_qr_scan", "android": "https://dc.lft.to/lastmile_qr_scan"}, "is_reserved": 0, "lon": -77.005694, "fusion_lat": 0.0, "name": "e14823c304b2071707487603502d4d28"}, {"type": "electric_scooter", "fusion_lon": 0.0, "bike_id": "01aa5b8ab6aff867a1734506b23da81f", "is_disabled": 0, "lat": 38.8851245, "rental_uris": {"ios": "https://dc.lft.to/lastmile_qr_scan", "android": "https://dc.lft.to/lastmile_qr_scan"}, "is_reserved": 0, "lon": -77.02814283333333, "fusion_lat": 0.0, "name": "01aa5b8ab6aff867a1734506b23da81f"}, {"type": "electric_scooter", "fusion_lon": 0.0, "bike_id": "b15fbbde2aaf69bdda928ffedc264d76", "is_disabled": 0, "lat": 38.90764766666667, "rental_uris": {"ios": "https://dc.lft.to/lastmile_qr_scan", "android": "https://dc.lft.to/lastmile_qr_scan"}, "is_reserved": 0, "lon": -77.00915466666666, "fusion_lat": 0.0, "name": "b15fbbde2aaf69bdda928ffedc264d76"}, {"type": "electric_scooter", "fusion_lon": 0.0, "bike_id": "4fb2543b94fa0ab18b22c3759105e799", "is_disabled": 0, "lat": 38.93530066666667, "rental_uris": {"ios": "https://dc.lft.to/lastmile_qr_scan", "android": "https://dc.lft.to/lastmile_qr_scan"}, "is_reserved": 0, "lon": -77.0235555, "fusion_lat": 0.0, "name": "4fb2543b94fa0ab18b22c3759105e799"}, {"type": "electric_scooter", "fusion_lon": 0.0, "bike_id": "d89609bbaeef78e3a56f9fee54d8e075", "is_disabled": 0, "lat": 38.92483216666667, "rental_uris": {"ios": "https://dc.lft.to/lastmile_qr_scan", "android": "https://dc.lft.to/lastmile_qr_scan"}, "is_reserved": 0, "lon": -77.02554533333333, "fusion_lat": 0.0, "name": "d89609bbaeef78e3a56f9fee54d8e075"}, {"type": "electric_scooter", "fusion_lon": 0.0, "bike_id": "00f2f77bee90d34b9f200bfa350a86f1", "is_disabled": 0, "lat": 38.893957666666665, "rental_uris": {"ios": "https://dc.lft.to/lastmile_qr_scan", "android": "https://dc.lft.to/lastmile_qr_scan"}, "is_reserved": 0, "lon": -77.0212625, "fusion_lat": 0.0, "name": "00f2f77bee90d34b9f200bfa350a86f1"}, {"type": "electric_scooter", "fusion_lon": 0.0, "bike_id": "cd3ca8307a5dbfba232bf0d403ac4b74", "is_disabled": 0, "lat": 38.9193115, "rental_uris": {"ios": "https://dc.lft.to/lastmile_qr_scan", "android": "https://dc.lft.to/lastmile_qr_scan"}, "is_reserved": 0, "lon": -77.03032583333334, "fusion_lat": 0.0, "name": "cd3ca8307a5dbfba232bf0d403ac4b74"}, {"type": "electric_scooter", "fusion_lon": 0.0, "bike_id": "0bff6f726314ba3e42837b59f86f46d1", "is_disabled": 0, "lat": 38.90037516666666, "rental_uris": {"ios": "https://dc.lft.to/lastmile_qr_scan", "android": "https://dc.lft.to/lastmile_qr_scan"}, "is_reserved": 0, "lon": -77.04336033333334, "fusion_lat": 0.0, "name": "0bff6f726314ba3e42837b59f86f46d1"}, {"type": "electric_scooter", "fusion_lon": 0.0, "bike_id": "1001ebbf1c5cb17ac3e9785bbd013149", "is_disabled": 0, "lat": 38.92090116666667, "rental_uris": {"ios": "https://dc.lft.to/lastmile_qr_scan", "android": "https://dc.lft.to/lastmile_qr_scan"}, "is_reserved": 0, "lon": -77.02598133333333, "fusion_lat": 0.0, "name": "1001ebbf1c5cb17ac3e9785bbd013149"}, {"type": "electric_scooter", "fusion_lon": 0.0, "bike_id": "b93d829cb54c5c5e825ee277d8d61119", "is_disabled": 0, "lat": 38.919698833333335, "rental_uris": {"ios": "https://dc.lft.to/lastmile_qr_scan", "android": "https://dc.lft.to/lastmile_qr_scan"}, "is_reserved": 0, "lon": -77.0386375, "fusion_lat": 0.0, "name": "b93d829cb54c5c5e825ee277d8d61119"}, {"type": "electric_scooter", "fusion_lon": 0.0, "bike_id": "ae7a70aa33dcb11fc9645164e5f9463d", "is_disabled": 0, "lat": 38.91424083333333, "rental_uris": {"ios": "https://dc.lft.to/lastmile_qr_scan", "android": "https://dc.lft.to/lastmile_qr_scan"}, "is_reserved": 0, "lon": -77.03906016666667, "fusion_lat": 0.0, "name": "ae7a70aa33dcb11fc9645164e5f9463d"}, {"type": "electric_scooter", "fusion_lon": 0.0, "bike_id": "3b31381d63518f51e86dd724229e904c", "is_disabled": 0, "lat": 38.89409033333333, "rental_uris": {"ios": "https://dc.lft.to/lastmile_qr_scan", "android": "https://dc.lft.to/lastmile_qr_scan"}, "is_reserved": 0, "lon": -77.02154066666667, "fusion_lat": 0.0, "name": "3b31381d63518f51e86dd724229e904c"}, {"type": "electric_scooter", "fusion_lon": 0.0, "bike_id": "298860c8bfbf98a119374531ae20d8a2", "is_disabled": 0, "lat": 38.90663383333333, "rental_uris": {"ios": "https://dc.lft.to/lastmile_qr_scan", "android": "https://dc.lft.to/lastmile_qr_scan"}, "is_reserved": 0, "lon": -77.0296065, "fusion_lat": 0.0, "name": "298860c8bfbf98a119374531ae20d8a2"}, {"type": "electric_scooter", "fusion_lon": 0.0, "bike_id": "99c98ca136510d07ef56793f3ed8ec9d", "is_disabled": 0, "lat": 38.916839, "rental_uris": {"ios": "https://dc.lft.to/lastmile_qr_scan", "android": "https://dc.lft.to/lastmile_qr_scan"}, "is_reserved": 0, "lon": -77.0252455, "fusion_lat": 0.0, "name": "99c98ca136510d07ef56793f3ed8ec9d"}, {"type": "electric_scooter", "fusion_lon": 0.0, "bike_id": "6a525b129c5bcd926d56f786f4a0809a", "is_disabled": 0, "lat": 38.883493333333334, "rental_uris": {"ios": "https://dc.lft.to/lastmile_qr_scan", "android": "https://dc.lft.to/lastmile_qr_scan"}, "is_reserved": 0, "lon": -77.0244345, "fusion_lat": 0.0, "name": "6a525b129c5bcd926d56f786f4a0809a"}, {"type": "electric_scooter", "fusion_lon": 0.0, "bike_id": "ead43f141ba285764b71302c85753762", "is_disabled": 0, "lat": 38.89269933333333, "rental_uris": {"ios": "https://dc.lft.to/lastmile_qr_scan", "android": "https://dc.lft.to/lastmile_qr_scan"}, "is_reserved": 0, "lon": -77.04210733333333, "fusion_lat": 0.0, "name": "ead43f141ba285764b71302c85753762"}, {"type": "electric_bike", "fusion_lon": 0.0, "bike_id": "bf71051d6fd9e135ef058bc7f6cd21b7", "is_disabled": 0, "lat": 39.01565383333333, "rental_uris": {"ios": "https://dc.lft.to/lastmile_qr_scan", "android": "https://dc.lft.to/lastmile_qr_scan"}, "is_reserved": 0, "lon": -77.04426183333334, "fusion_lat": 0.0, "name": "bf71051d6fd9e135ef058bc7f6cd21b7"}, {"type": "electric_scooter", "fusion_lon": 0.0, "bike_id": "3f6f3eea7e369206d008b9e41afd91ea", "is_disabled": 0, "lat": 38.91562416666667, "rental_uris": {"ios": "https://dc.lft.to/lastmile_qr_scan", "android": "https://dc.lft.to/lastmile_qr_scan"}, "is_reserved": 0, "lon": -77.020023, "fusion_lat": 0.0, "name": "3f6f3eea7e369206d008b9e41afd91ea"}, {"type": "electric_scooter", "fusion_lon": 0.0, "bike_id": "e039acef9e2589356a4b042ed4ee3b0f", "is_disabled": 0, "lat": 38.91351616666667, "rental_uris": {"ios": "https://dc.lft.to/lastmile_qr_scan", "android": "https://dc.lft.to/lastmile_qr_scan"}, "is_reserved": 0, "lon": -77.0318475, "fusion_lat": 0.0, "name": "e039acef9e2589356a4b042ed4ee3b0f"}, {"type": "electric_scooter", "fusion_lon": 0.0, "bike_id": "2f2700c5392e41acd21ada908e742195", "is_disabled": 0, "lat": 38.8833785, "rental_uris": {"ios": "https://dc.lft.to/lastmile_qr_scan", "android": "https://dc.lft.to/lastmile_qr_scan"}, "is_reserved": 0, "lon": -77.0114445, "fusion_lat": 0.0, "name": "2f2700c5392e41acd21ada908e742195"}, {"type": "electric_scooter", "fusion_lon": 0.0, "bike_id": "e68459eca839a54ab57624afcb946880", "is_disabled": 0, "lat": 38.9057015, "rental_uris": {"ios": "https://dc.lft.to/lastmile_qr_scan", "android": "https://dc.lft.to/lastmile_qr_scan"}, "is_reserved": 0, "lon": -77.00246833333334, "fusion_lat": 0.0, "name": "e68459eca839a54ab57624afcb946880"}, {"type": "electric_scooter", "fusion_lon": 0.0, "bike_id": "8f5a6ea73902b31ee39656f2ba6f275c", "is_disabled": 0, "lat": 38.933631, "rental_uris": {"ios": "https://dc.lft.to/lastmile_qr_scan", "android": "https://dc.lft.to/lastmile_qr_scan"}, "is_reserved": 0, "lon": -77.03661566666666, "fusion_lat": 0.0, "name": "8f5a6ea73902b31ee39656f2ba6f275c"}, {"type": "electric_scooter", "fusion_lon": 0.0, "bike_id": "43a6cb136dd03b0422349708407f662a", "is_disabled": 0, "lat": 38.919024, "rental_uris": {"ios": "https://dc.lft.to/lastmile_qr_scan", "android": "https://dc.lft.to/lastmile_qr_scan"}, "is_reserved": 0, "lon": -77.019702, "fusion_lat": 0.0, "name": "43a6cb136dd03b0422349708407f662a"}, {"type": "electric_scooter", "fusion_lon": 0.0, "bike_id": "3a2a504e130f8733fe985f8f6b383ecd", "is_disabled": 0, "lat": 38.973505, "rental_uris": {"ios": "https://dc.lft.to/lastmile_qr_scan", "android": "https://dc.lft.to/lastmile_qr_scan"}, "is_reserved": 0, "lon": -77.0278315, "fusion_lat": 0.0, "name": "3a2a504e130f8733fe985f8f6b383ecd"}, {"type": "electric_scooter", "fusion_lon": 0.0, "bike_id": "735a1a085d3066a7534ddbaccc3c508b", "is_disabled": 0, "lat": 38.90412116666667, "rental_uris": {"ios": "https://dc.lft.to/lastmile_qr_scan", "android": "https://dc.lft.to/lastmile_qr_scan"}, "is_reserved": 0, "lon": -76.99961666666667, "fusion_lat": 0.0, "name": "735a1a085d3066a7534ddbaccc3c508b"}, {"type": "electric_scooter", "fusion_lon": 0.0, "bike_id": "11e8db76718c1e5b1f7cdacc896dbe7a", "is_disabled": 0, "lat": 38.90616383333333, "rental_uris": {"ios": "https://dc.lft.to/lastmile_qr_scan", "android": "https://dc.lft.to/lastmile_qr_scan"}, "is_reserved": 0, "lon": -77.05042666666667, "fusion_lat": 0.0, "name": "11e8db76718c1e5b1f7cdacc896dbe7a"}, {"type": "electric_scooter", "fusion_lon": 0.0, "bike_id": "4a2511d20889ee856fed23e901abf9e3", "is_disabled": 0, "lat": 38.91145683333333, "rental_uris": {"ios": "https://dc.lft.to/lastmile_qr_scan", "android": "https://dc.lft.to/lastmile_qr_scan"}, "is_reserved": 0, "lon": -77.00459533333333, "fusion_lat": 0.0, "name": "4a2511d20889ee856fed23e901abf9e3"}, {"type": "electric_scooter", "fusion_lon": 0.0, "bike_id": "08a919554ed7ea710e7675c2c49f2894", "is_disabled": 0, "lat": 38.9178165, "rental_uris": {"ios": "https://dc.lft.to/lastmile_qr_scan", "android": "https://dc.lft.to/lastmile_qr_scan"}, "is_reserved": 0, "lon": -77.03210116666666, "fusion_lat": 0.0, "name": "08a919554ed7ea710e7675c2c49f2894"}, {"type": "electric_scooter", "fusion_lon": 0.0, "bike_id": "b0c5abc2719d0859ba671ae8854176fa", "is_disabled": 0, "lat": 38.9017525, "rental_uris": {"ios": "https://dc.lft.to/lastmile_qr_scan", "android": "https://dc.lft.to/lastmile_qr_scan"}, "is_reserved": 0, "lon": -76.98069466666666, "fusion_lat": 0.0, "name": "b0c5abc2719d0859ba671ae8854176fa"}, {"type": "electric_scooter", "fusion_lon": 0.0, "bike_id": "0dbcdd36cf08d49db89d3a52c6036ad8", "is_disabled": 0, "lat": 38.90356633333333, "rental_uris": {"ios": "https://dc.lft.to/lastmile_qr_scan", "android": "https://dc.lft.to/lastmile_qr_scan"}, "is_reserved": 0, "lon": -76.987308, "fusion_lat": 0.0, "name": "0dbcdd36cf08d49db89d3a52c6036ad8"}, {"type": "electric_scooter", "fusion_lon": 0.0, "bike_id": "821c28d92610664631664a1107a63c59", "is_disabled": 0, "lat": 38.94505066666667, "rental_uris": {"ios": "https://dc.lft.to/lastmile_qr_scan", "android": "https://dc.lft.to/lastmile_qr_scan"}, "is_reserved": 0, "lon": -77.0383165, "fusion_lat": 0.0, "name": "821c28d92610664631664a1107a63c59"}, {"type": "electric_scooter", "fusion_lon": 0.0, "bike_id": "9147e959a3e736c631b22825f4e5fa0f", "is_disabled": 0, "lat": 38.91114816666666, "rental_uris": {"ios": "https://dc.lft.to/lastmile_qr_scan", "android": "https://dc.lft.to/lastmile_qr_scan"}, "is_reserved": 0, "lon": -77.00747233333334, "fusion_lat": 0.0, "name": "9147e959a3e736c631b22825f4e5fa0f"}, {"type": "electric_scooter", "fusion_lon": 0.0, "bike_id": "696c1eec6a4833a47809c773ec312e61", "is_disabled": 0, "lat": 38.909558, "rental_uris": {"ios": "https://dc.lft.to/lastmile_qr_scan", "android": "https://dc.lft.to/lastmile_qr_scan"}, "is_reserved": 0, "lon": -77.0186095, "fusion_lat": 0.0, "name": "696c1eec6a4833a47809c773ec312e61"}, {"type": "electric_scooter", "fusion_lon": 0.0, "bike_id": "4b681ab5ce51b210280cea6f20633fd1", "is_disabled": 0, "lat": 38.887266833333335, "rental_uris": {"ios": "https://dc.lft.to/lastmile_qr_scan", "android": "https://dc.lft.to/lastmile_qr_scan"}, "is_reserved": 0, "lon": -77.0283145, "fusion_lat": 0.0, "name": "4b681ab5ce51b210280cea6f20633fd1"}, {"type": "electric_scooter", "fusion_lon": 0.0, "bike_id": "c5d0fabe416b4d09a2a54473ff7fce75", "is_disabled": 0, "lat": 38.90448333333333, "rental_uris": {"ios": "https://dc.lft.to/lastmile_qr_scan", "android": "https://dc.lft.to/lastmile_qr_scan"}, "is_reserved": 0, "lon": -77.0579955, "fusion_lat": 0.0, "name": "c5d0fabe416b4d09a2a54473ff7fce75"}, {"type": "electric_scooter", "fusion_lon": 0.0, "bike_id": "272892bf7bb89d420adb1b55e58d2461", "is_disabled": 0, "lat": 38.899918166666666, "rental_uris": {"ios": "https://dc.lft.to/lastmile_qr_scan", "android": "https://dc.lft.to/lastmile_qr_scan"}, "is_reserved": 0, "lon": -77.0192415, "fusion_lat": 0.0, "name": "272892bf7bb89d420adb1b55e58d2461"}, {"type": "electric_bike", "fusion_lon": 0.0, "bike_id": "2f5fd9a3e7b471d5e2e3c7de3d7bc8ac", "is_disabled": 0, "lat": 38.846875833333335, "rental_uris": {"ios": "https://dc.lft.to/lastmile_qr_scan", "android": "https://dc.lft.to/lastmile_qr_scan"}, "is_reserved": 0, "lon": -76.982852, "fusion_lat": 0.0, "name": "2f5fd9a3e7b471d5e2e3c7de3d7bc8ac"}, {"type": "electric_scooter", "fusion_lon": 0.0, "bike_id": "91e3dabd191841c39f5db7876f4300a9", "is_disabled": 0, "lat": 38.89343383333333, "rental_uris": {"ios": "https://dc.lft.to/lastmile_qr_scan", "android": "https://dc.lft.to/lastmile_qr_scan"}, "is_reserved": 0, "lon": -76.95227783333333, "fusion_lat": 0.0, "name": "91e3dabd191841c39f5db7876f4300a9"}, {"type": "electric_scooter", "fusion_lon": 0.0, "bike_id": "80a6896d9ee29b928c6485dfd2f54d1d", "is_disabled": 0, "lat": 38.900346666666664, "rental_uris": {"ios": "https://dc.lft.to/lastmile_qr_scan", "android": "https://dc.lft.to/lastmile_qr_scan"}, "is_reserved": 0, "lon": -77.002021, "fusion_lat": 0.0, "name": "80a6896d9ee29b928c6485dfd2f54d1d"}, {"type": "electric_scooter", "fusion_lon": 0.0, "bike_id": "5925b4ee5e8a0c23a0f169a1b84057d4", "is_disabled": 0, "lat": 38.90823983333333, "rental_uris": {"ios": "https://dc.lft.to/lastmile_qr_scan", "android": "https://dc.lft.to/lastmile_qr_scan"}, "is_reserved": 0, "lon": -77.0336775, "fusion_lat": 0.0, "name": "5925b4ee5e8a0c23a0f169a1b84057d4"}, {"type": "electric_scooter", "fusion_lon": 0.0, "bike_id": "f52950a8a6b30012de76719cacba27cc", "is_disabled": 0, "lat": 38.913494166666666, "rental_uris": {"ios": "https://dc.lft.to/lastmile_qr_scan", "android": "https://dc.lft.to/lastmile_qr_scan"}, "is_reserved": 0, "lon": -77.03210233333333, "fusion_lat": 0.0, "name": "f52950a8a6b30012de76719cacba27cc"}, {"type": "electric_scooter", "fusion_lon": 0.0, "bike_id": "517887c5993811b4f3c8886c742ba0fe", "is_disabled": 0, "lat": 38.972134, "rental_uris": {"ios": "https://dc.lft.to/lastmile_qr_scan", "android": "https://dc.lft.to/lastmile_qr_scan"}, "is_reserved": 0, "lon": -77.03335483333333, "fusion_lat": 0.0, "name": "517887c5993811b4f3c8886c742ba0fe"}, {"type": "electric_bike", "fusion_lon": 0.0, "bike_id": "109e0040e23a7f8b30913589558b5e18", "is_disabled": 0, "lat": 38.93574266666667, "rental_uris": {"ios": "https://dc.lft.to/lastmile_qr_scan", "android": "https://dc.lft.to/lastmile_qr_scan"}, "is_reserved": 0, "lon": -77.10620666666667, "fusion_lat": 0.0, "name": "109e0040e23a7f8b30913589558b5e18"}, {"type": "electric_scooter", "fusion_lon": 0.0, "bike_id": "d65bfa2a608cf6aec1eab6168940b991", "is_disabled": 0, "lat": 38.876613166666665, "rental_uris": {"ios": "https://dc.lft.to/lastmile_qr_scan", "android": "https://dc.lft.to/lastmile_qr_scan"}, "is_reserved": 0, "lon": -76.996247, "fusion_lat": 0.0, "name": "d65bfa2a608cf6aec1eab6168940b991"}, {"type": "electric_scooter", "fusion_lon": 0.0, "bike_id": "ca20fa49ae156fdd4b386820c94e3236", "is_disabled": 0, "lat": 38.8799035, "rental_uris": {"ios": "https://dc.lft.to/lastmile_qr_scan", "android": "https://dc.lft.to/lastmile_qr_scan"}, "is_reserved": 0, "lon": -76.98687183333334, "fusion_lat": 0.0, "name": "ca20fa49ae156fdd4b386820c94e3236"}, {"type": "electric_scooter", "fusion_lon": 0.0, "bike_id": "2eeb1cc1c558ddfda82ffc56a02d0d3c", "is_disabled": 0, "lat": 38.90402666666667, "rental_uris": {"ios": "https://dc.lft.to/lastmile_qr_scan", "android": "https://dc.lft.to/lastmile_qr_scan"}, "is_reserved": 0, "lon": -77.017334, "fusion_lat": 0.0, "name": "2eeb1cc1c558ddfda82ffc56a02d0d3c"}, {"type": "electric_scooter", "fusion_lon": 0.0, "bike_id": "f7ced26524628f3de6831d337d5633b0", "is_disabled": 0, "lat": 38.904187, "rental_uris": {"ios": "https://dc.lft.to/lastmile_qr_scan", "android": "https://dc.lft.to/lastmile_qr_scan"}, "is_reserved": 0, "lon": -77.01852583333333, "fusion_lat": 0.0, "name": "f7ced26524628f3de6831d337d5633b0"}, {"type": "electric_scooter", "fusion_lon": 0.0, "bike_id": "ba03319d24884caa549f48f08626cf4c", "is_disabled": 0, "lat": 38.89221416666667, "rental_uris": {"ios": "https://dc.lft.to/lastmile_qr_scan", "android": "https://dc.lft.to/lastmile_qr_scan"}, "is_reserved": 0, "lon": -77.03220783333333, "fusion_lat": 0.0, "name": "ba03319d24884caa549f48f08626cf4c"}, {"type": "electric_scooter", "fusion_lon": 0.0, "bike_id": "ce1fedd61d49670d1a239fb84ba8e976", "is_disabled": 0, "lat": 38.878668833333336, "rental_uris": {"ios": "https://dc.lft.to/lastmile_qr_scan", "android": "https://dc.lft.to/lastmile_qr_scan"}, "is_reserved": 0, "lon": -76.96258883333333, "fusion_lat": 0.0, "name": "ce1fedd61d49670d1a239fb84ba8e976"}, {"type": "electric_scooter", "fusion_lon": 0.0, "bike_id": "fcd16f9ade6801c07daa8349fe2e7adb", "is_disabled": 0, "lat": 38.905722833333336, "rental_uris": {"ios": "https://dc.lft.to/lastmile_qr_scan", "android": "https://dc.lft.to/lastmile_qr_scan"}, "is_reserved": 0, "lon": -77.04343533333333, "fusion_lat": 0.0, "name": "fcd16f9ade6801c07daa8349fe2e7adb"}, {"type": "electric_scooter", "fusion_lon": 0.0, "bike_id": "579d61580bf7f1deea3f446faea62caf", "is_disabled": 0, "lat": 38.9118135, "rental_uris": {"ios": "https://dc.lft.to/lastmile_qr_scan", "android": "https://dc.lft.to/lastmile_qr_scan"}, "is_reserved": 0, "lon": -77.0428655, "fusion_lat": 0.0, "name": "579d61580bf7f1deea3f446faea62caf"}, {"type": "electric_scooter", "fusion_lon": 0.0, "bike_id": "e6bda5a846dce97491bc9541c328e8ac", "is_disabled": 0, "lat": 38.91821433333333, "rental_uris": {"ios": "https://dc.lft.to/lastmile_qr_scan", "android": "https://dc.lft.to/lastmile_qr_scan"}, "is_reserved": 0, "lon": -77.03131833333333, "fusion_lat": 0.0, "name": "e6bda5a846dce97491bc9541c328e8ac"}, {"type": "electric_scooter", "fusion_lon": 0.0, "bike_id": "e47b755378d7ff3f8e95461d0080feb5", "is_disabled": 0, "lat": 38.907348166666665, "rental_uris": {"ios": "https://dc.lft.to/lastmile_qr_scan", "android": "https://dc.lft.to/lastmile_qr_scan"}, "is_reserved": 0, "lon": -76.9798295, "fusion_lat": 0.0, "name": "e47b755378d7ff3f8e95461d0080feb5"}, {"type": "electric_scooter", "fusion_lon": 0.0, "bike_id": "79db9421dd66fe1766c8b45a96a0b87c", "is_disabled": 0, "lat": 38.935033, "rental_uris": {"ios": "https://dc.lft.to/lastmile_qr_scan", "android": "https://dc.lft.to/lastmile_qr_scan"}, "is_reserved": 0, "lon": -77.0241755, "fusion_lat": 0.0, "name": "79db9421dd66fe1766c8b45a96a0b87c"}, {"type": "electric_scooter", "fusion_lon": 0.0, "bike_id": "a3b905724e46df41920c0bf31a8d92b0", "is_disabled": 0, "lat": 38.90981983333333, "rental_uris": {"ios": "https://dc.lft.to/lastmile_qr_scan", "android": "https://dc.lft.to/lastmile_qr_scan"}, "is_reserved": 0, "lon": -77.034403, "fusion_lat": 0.0, "name": "a3b905724e46df41920c0bf31a8d92b0"}, {"type": "electric_scooter", "fusion_lon": 0.0, "bike_id": "820d2db15b16f2b4bf5cf6559ed0fdc1", "is_disabled": 0, "lat": 38.929955166666666, "rental_uris": {"ios": "https://dc.lft.to/lastmile_qr_scan", "android": "https://dc.lft.to/lastmile_qr_scan"}, "is_reserved": 0, "lon": -77.02352083333334, "fusion_lat": 0.0, "name": "820d2db15b16f2b4bf5cf6559ed0fdc1"}, {"type": "electric_bike", "fusion_lon": 0.0, "bike_id": "2da905ce45bfca0a9f4bd4002e1752cc", "is_disabled": 0, "lat": 38.946338, "rental_uris": {"ios": "https://dc.lft.to/lastmile_qr_scan", "android": "https://dc.lft.to/lastmile_qr_scan"}, "is_reserved": 0, "lon": -76.99310716666666, "fusion_lat": 0.0, "name": "2da905ce45bfca0a9f4bd4002e1752cc"}, {"type": "electric_scooter", "fusion_lon": 0.0, "bike_id": "16421d55a8c4ee797bcd1bdff2fabc74", "is_disabled": 0, "lat": 38.904093333333336, "rental_uris": {"ios": "https://dc.lft.to/lastmile_qr_scan", "android": "https://dc.lft.to/lastmile_qr_scan"}, "is_reserved": 0, "lon": -76.97333483333334, "fusion_lat": 0.0, "name": "16421d55a8c4ee797bcd1bdff2fabc74"}, {"type": "electric_scooter", "fusion_lon": 0.0, "bike_id": "a6fce36d7f1cc78e6267c332aa942cca", "is_disabled": 0, "lat": 38.920689833333334, "rental_uris": {"ios": "https://dc.lft.to/lastmile_qr_scan", "android": "https://dc.lft.to/lastmile_qr_scan"}, "is_reserved": 0, "lon": -77.02297533333333, "fusion_lat": 0.0, "name": "a6fce36d7f1cc78e6267c332aa942cca"}, {"type": "electric_scooter", "fusion_lon": 0.0, "bike_id": "ebcd45f4ea71e01fd14d250eab10d521", "is_disabled": 0, "lat": 38.874723833333334, "rental_uris": {"ios": "https://dc.lft.to/lastmile_qr_scan", "android": "https://dc.lft.to/lastmile_qr_scan"}, "is_reserved": 0, "lon": -77.00552, "fusion_lat": 0.0, "name": "ebcd45f4ea71e01fd14d250eab10d521"}, {"type": "electric_scooter", "fusion_lon": 0.0, "bike_id": "ce27b9c143350a31ed7594bd68635f67", "is_disabled": 0, "lat": 38.8986375, "rental_uris": {"ios": "https://dc.lft.to/lastmile_qr_scan", "android": "https://dc.lft.to/lastmile_qr_scan"}, "is_reserved": 0, "lon": -77.02584633333333, "fusion_lat": 0.0, "name": "ce27b9c143350a31ed7594bd68635f67"}, {"type": "electric_scooter", "fusion_lon": 0.0, "bike_id": "2b8c2a942fdc6b4a420f721aace12058", "is_disabled": 0, "lat": 38.9271435, "rental_uris": {"ios": "https://dc.lft.to/lastmile_qr_scan", "android": "https://dc.lft.to/lastmile_qr_scan"}, "is_reserved": 0, "lon": -77.0209505, "fusion_lat": 0.0, "name": "2b8c2a942fdc6b4a420f721aace12058"}, {"type": "electric_bike", "fusion_lon": 0.0, "bike_id": "be2f39b2e2a3aba30277a08107d64df8", "is_disabled": 0, "lat": 38.920003, "rental_uris": {"ios": "https://dc.lft.to/lastmile_qr_scan", "android": "https://dc.lft.to/lastmile_qr_scan"}, "is_reserved": 0, "lon": -76.9582335, "fusion_lat": 0.0, "name": "be2f39b2e2a3aba30277a08107d64df8"}, {"type": "electric_scooter", "fusion_lon": 0.0, "bike_id": "ea247343fe50406007446cbb85d561f8", "is_disabled": 0, "lat": 38.9249805, "rental_uris": {"ios": "https://dc.lft.to/lastmile_qr_scan", "android": "https://dc.lft.to/lastmile_qr_scan"}, "is_reserved": 0, "lon": -77.02404033333333, "fusion_lat": 0.0, "name": "ea247343fe50406007446cbb85d561f8"}, {"type": "electric_scooter", "fusion_lon": 0.0, "bike_id": "1c6ed5700713b36e28c676a1a4722b13", "is_disabled": 0, "lat": 38.905649333333336, "rental_uris": {"ios": "https://dc.lft.to/lastmile_qr_scan", "android": "https://dc.lft.to/lastmile_qr_scan"}, "is_reserved": 0, "lon": -77.01764183333333, "fusion_lat": 0.0, "name": "1c6ed5700713b36e28c676a1a4722b13"}, {"type": "electric_scooter", "fusion_lon": 0.0, "bike_id": "0b3f0379678f15a455b27c64dd481529", "is_disabled": 0, "lat": 38.90430333333333, "rental_uris": {"ios": "https://dc.lft.to/lastmile_qr_scan", "android": "https://dc.lft.to/lastmile_qr_scan"}, "is_reserved": 0, "lon": -77.02592083333333, "fusion_lat": 0.0, "name": "0b3f0379678f15a455b27c64dd481529"}, {"type": "electric_scooter", "fusion_lon": 0.0, "bike_id": "8fc910e0b51a5c0aee4a0b82b947cf14", "is_disabled": 0, "lat": 38.892191333333336, "rental_uris": {"ios": "https://dc.lft.to/lastmile_qr_scan", "android": "https://dc.lft.to/lastmile_qr_scan"}, "is_reserved": 0, "lon": -77.02628, "fusion_lat": 0.0, "name": "8fc910e0b51a5c0aee4a0b82b947cf14"}, {"type": "electric_scooter", "fusion_lon": 0.0, "bike_id": "d7ef8ff7432c60909ac888cc4e9fa6e7", "is_disabled": 0, "lat": 38.90841066666667, "rental_uris": {"ios": "https://dc.lft.to/lastmile_qr_scan", "android": "https://dc.lft.to/lastmile_qr_scan"}, "is_reserved": 0, "lon": -77.026958, "fusion_lat": 0.0, "name": "d7ef8ff7432c60909ac888cc4e9fa6e7"}, {"type": "electric_scooter", "fusion_lon": 0.0, "bike_id": "6bcc37ca3d0d2243d67e9fa862e6fc80", "is_disabled": 0, "lat": 38.930899, "rental_uris": {"ios": "https://dc.lft.to/lastmile_qr_scan", "android": "https://dc.lft.to/lastmile_qr_scan"}, "is_reserved": 0, "lon": -77.0349385, "fusion_lat": 0.0, "name": "6bcc37ca3d0d2243d67e9fa862e6fc80"}, {"type": "electric_scooter", "fusion_lon": 0.0, "bike_id": "4347afb198e7d4e26dd0275ad3bf32c1", "is_disabled": 0, "lat": 38.90699733333334, "rental_uris": {"ios": "https://dc.lft.to/lastmile_qr_scan", "android": "https://dc.lft.to/lastmile_qr_scan"}, "is_reserved": 0, "lon": -77.03590816666667, "fusion_lat": 0.0, "name": "4347afb198e7d4e26dd0275ad3bf32c1"}, {"type": "electric_scooter", "fusion_lon": 0.0, "bike_id": "5d49085c8025f97f8877b5143bb9f462", "is_disabled": 0, "lat": 38.895451666666666, "rental_uris": {"ios": "https://dc.lft.to/lastmile_qr_scan", "android": "https://dc.lft.to/lastmile_qr_scan"}, "is_reserved": 0, "lon": -76.98189966666666, "fusion_lat": 0.0, "name": "5d49085c8025f97f8877b5143bb9f462"}, {"type": "electric_scooter", "fusion_lon": 0.0, "bike_id": "aa6677223e6dca88f7f373946c600b20", "is_disabled": 0, "lat": 38.912645833333336, "rental_uris": {"ios": "https://dc.lft.to/lastmile_qr_scan", "android": "https://dc.lft.to/lastmile_qr_scan"}, "is_reserved": 0, "lon": -77.04707, "fusion_lat": 0.0, "name": "aa6677223e6dca88f7f373946c600b20"}, {"type": "electric_scooter", "fusion_lon": 0.0, "bike_id": "7f6e54095a12d4106f1092327232a769", "is_disabled": 0, "lat": 38.8833635, "rental_uris": {"ios": "https://dc.lft.to/lastmile_qr_scan", "android": "https://dc.lft.to/lastmile_qr_scan"}, "is_reserved": 0, "lon": -77.017445, "fusion_lat": 0.0, "name": "7f6e54095a12d4106f1092327232a769"}, {"type": "electric_scooter", "fusion_lon": 0.0, "bike_id": "4486be84abdfbfe975b4f7025cfc8380", "is_disabled": 0, "lat": 38.94834683333333, "rental_uris": {"ios": "https://dc.lft.to/lastmile_qr_scan", "android": "https://dc.lft.to/lastmile_qr_scan"}, "is_reserved": 0, "lon": -77.02556033333333, "fusion_lat": 0.0, "name": "4486be84abdfbfe975b4f7025cfc8380"}, {"type": "electric_scooter", "fusion_lon": 0.0, "bike_id": "ce09b20eb438a19fc9ab29bce72bafda", "is_disabled": 0, "lat": 38.866587333333335, "rental_uris": {"ios": "https://dc.lft.to/lastmile_qr_scan", "android": "https://dc.lft.to/lastmile_qr_scan"}, "is_reserved": 0, "lon": -76.98887033333334, "fusion_lat": 0.0, "name": "ce09b20eb438a19fc9ab29bce72bafda"}, {"type": "electric_scooter", "fusion_lon": 0.0, "bike_id": "e229bd3eba85c075237f16bcec57e5c5", "is_disabled": 0, "lat": 38.917976333333336, "rental_uris": {"ios": "https://dc.lft.to/lastmile_qr_scan", "android": "https://dc.lft.to/lastmile_qr_scan"}, "is_reserved": 0, "lon": -77.02709616666667, "fusion_lat": 0.0, "name": "e229bd3eba85c075237f16bcec57e5c5"}, {"type": "electric_scooter", "fusion_lon": 0.0, "bike_id": "87f90c47c0b1acc7273420749e250a4d", "is_disabled": 0, "lat": 38.92886883333333, "rental_uris": {"ios": "https://dc.lft.to/lastmile_qr_scan", "android": "https://dc.lft.to/lastmile_qr_scan"}, "is_reserved": 0, "lon": -77.026628, "fusion_lat": 0.0, "name": "87f90c47c0b1acc7273420749e250a4d"}, {"type": "electric_scooter", "fusion_lon": 0.0, "bike_id": "8b02a917f0700382f75b8dbe4433037b", "is_disabled": 0, "lat": 38.914114833333336, "rental_uris": {"ios": "https://dc.lft.to/lastmile_qr_scan", "android": "https://dc.lft.to/lastmile_qr_scan"}, "is_reserved": 0, "lon": -77.0355625, "fusion_lat": 0.0, "name": "8b02a917f0700382f75b8dbe4433037b"}, {"type": "electric_scooter", "fusion_lon": 0.0, "bike_id": "67df26e9f58e8333ff96e08baef19173", "is_disabled": 0, "lat": 38.90474666666667, "rental_uris": {"ios": "https://dc.lft.to/lastmile_qr_scan", "android": "https://dc.lft.to/lastmile_qr_scan"}, "is_reserved": 0, "lon": -77.05325316666666, "fusion_lat": 0.0, "name": "67df26e9f58e8333ff96e08baef19173"}, {"type": "electric_scooter", "fusion_lon": 0.0, "bike_id": "181e6f22e8aca76a2ac8237ff33ea2d8", "is_disabled": 0, "lat": 38.9294135, "rental_uris": {"ios": "https://dc.lft.to/lastmile_qr_scan", "android": "https://dc.lft.to/lastmile_qr_scan"}, "is_reserved": 0, "lon": -77.01637716666667, "fusion_lat": 0.0, "name": "181e6f22e8aca76a2ac8237ff33ea2d8"}, {"type": "electric_scooter", "fusion_lon": 0.0, "bike_id": "44ef41364589647060b801c9570149b7", "is_disabled": 0, "lat": 38.91499316666667, "rental_uris": {"ios": "https://dc.lft.to/lastmile_qr_scan", "android": "https://dc.lft.to/lastmile_qr_scan"}, "is_reserved": 0, "lon": -77.01220233333333, "fusion_lat": 0.0, "name": "44ef41364589647060b801c9570149b7"}, {"type": "electric_scooter", "fusion_lon": 0.0, "bike_id": "af510186f7d17eba307376e4d17a7e16", "is_disabled": 0, "lat": 38.906043333333336, "rental_uris": {"ios": "https://dc.lft.to/lastmile_qr_scan", "android": "https://dc.lft.to/lastmile_qr_scan"}, "is_reserved": 0, "lon": -77.04339666666667, "fusion_lat": 0.0, "name": "af510186f7d17eba307376e4d17a7e16"}, {"type": "electric_scooter", "fusion_lon": 0.0, "bike_id": "344d530c7c766ee0b924de8b1ddf5433", "is_disabled": 0, "lat": 38.907104833333335, "rental_uris": {"ios": "https://dc.lft.to/lastmile_qr_scan", "android": "https://dc.lft.to/lastmile_qr_scan"}, "is_reserved": 0, "lon": -77.04964783333334, "fusion_lat": 0.0, "name": "344d530c7c766ee0b924de8b1ddf5433"}, {"type": "electric_scooter", "fusion_lon": 0.0, "bike_id": "e5612e865e7135a0556df6e281585c3a", "is_disabled": 0, "lat": 38.90549433333333, "rental_uris": {"ios": "https://dc.lft.to/lastmile_qr_scan", "android": "https://dc.lft.to/lastmile_qr_scan"}, "is_reserved": 0, "lon": -77.0473465, "fusion_lat": 0.0, "name": "e5612e865e7135a0556df6e281585c3a"}, {"type": "electric_bike", "fusion_lon": 0.0, "bike_id": "d627af4592403437c5a63012db89edc2", "is_disabled": 0, "lat": 38.9447205, "rental_uris": {"ios": "https://dc.lft.to/lastmile_qr_scan", "android": "https://dc.lft.to/lastmile_qr_scan"}, "is_reserved": 0, "lon": -76.98691016666666, "fusion_lat": 0.0, "name": "d627af4592403437c5a63012db89edc2"}, {"type": "electric_scooter", "fusion_lon": 0.0, "bike_id": "9baea1caeaf270ddceb7788356a26680", "is_disabled": 0, "lat": 38.90506033333333, "rental_uris": {"ios": "https://dc.lft.to/lastmile_qr_scan", "android": "https://dc.lft.to/lastmile_qr_scan"}, "is_reserved": 0, "lon": -76.9918115, "fusion_lat": 0.0, "name": "9baea1caeaf270ddceb7788356a26680"}, {"type": "electric_scooter", "fusion_lon": 0.0, "bike_id": "c889f034e6c6565279922fdc1438846f", "is_disabled": 0, "lat": 38.88770316666667, "rental_uris": {"ios": "https://dc.lft.to/lastmile_qr_scan", "android": "https://dc.lft.to/lastmile_qr_scan"}, "is_reserved": 0, "lon": -77.0284295, "fusion_lat": 0.0, "name": "c889f034e6c6565279922fdc1438846f"}, {"type": "electric_bike", "fusion_lon": 0.0, "bike_id": "7cbf161d2b7fa3f9ae132688dd2b729a", "is_disabled": 0, "lat": 38.87307066666666, "rental_uris": {"ios": "https://dc.lft.to/lastmile_qr_scan", "android": "https://dc.lft.to/lastmile_qr_scan"}, "is_reserved": 0, "lon": -77.01097983333334, "fusion_lat": 0.0, "name": "7cbf161d2b7fa3f9ae132688dd2b729a"}, {"type": "electric_scooter", "fusion_lon": 0.0, "bike_id": "45396e65c8c5e69b7b0ea35d33eec04d", "is_disabled": 0, "lat": 38.93672483333334, "rental_uris": {"ios": "https://dc.lft.to/lastmile_qr_scan", "android": "https://dc.lft.to/lastmile_qr_scan"}, "is_reserved": 0, "lon": -77.03624116666667, "fusion_lat": 0.0, "name": "45396e65c8c5e69b7b0ea35d33eec04d"}, {"type": "electric_scooter", "fusion_lon": 0.0, "bike_id": "0b3cbb5feaa60aa757a3cc229d28d965", "is_disabled": 0, "lat": 38.901257666666666, "rental_uris": {"ios": "https://dc.lft.to/lastmile_qr_scan", "android": "https://dc.lft.to/lastmile_qr_scan"}, "is_reserved": 0, "lon": -76.94569616666666, "fusion_lat": 0.0, "name": "0b3cbb5feaa60aa757a3cc229d28d965"}, {"type": "electric_scooter", "fusion_lon": 0.0, "bike_id": "07938085e3489b853683897a64aef924", "is_disabled": 0, "lat": 38.88653016666667, "rental_uris": {"ios": "https://dc.lft.to/lastmile_qr_scan", "android": "https://dc.lft.to/lastmile_qr_scan"}, "is_reserved": 0, "lon": -77.02838233333334, "fusion_lat": 0.0, "name": "07938085e3489b853683897a64aef924"}, {"type": "electric_scooter", "fusion_lon": 0.0, "bike_id": "0e07b9744b503938c014817afa3a6b04", "is_disabled": 0, "lat": 38.92447266666667, "rental_uris": {"ios": "https://dc.lft.to/lastmile_qr_scan", "android": "https://dc.lft.to/lastmile_qr_scan"}, "is_reserved": 0, "lon": -77.002106, "fusion_lat": 0.0, "name": "0e07b9744b503938c014817afa3a6b04"}, {"type": "electric_scooter", "fusion_lon": 0.0, "bike_id": "f0171ad50cec94e7e8d0d969a27ea08b", "is_disabled": 0, "lat": 38.909705333333335, "rental_uris": {"ios": "https://dc.lft.to/lastmile_qr_scan", "android": "https://dc.lft.to/lastmile_qr_scan"}, "is_reserved": 0, "lon": -77.03869766666666, "fusion_lat": 0.0, "name": "f0171ad50cec94e7e8d0d969a27ea08b"}, {"type": "electric_scooter", "fusion_lon": 0.0, "bike_id": "6771e0aabcde111a9a5748d95b3823d5", "is_disabled": 0, "lat": 38.897418, "rental_uris": {"ios": "https://dc.lft.to/lastmile_qr_scan", "android": "https://dc.lft.to/lastmile_qr_scan"}, "is_reserved": 0, "lon": -77.0435065, "fusion_lat": 0.0, "name": "6771e0aabcde111a9a5748d95b3823d5"}, {"type": "electric_bike", "fusion_lon": 0.0, "bike_id": "528591a036006afa35955ef8a9f91096", "is_disabled": 0, "lat": 38.93389533333333, "rental_uris": {"ios": "https://dc.lft.to/lastmile_qr_scan", "android": "https://dc.lft.to/lastmile_qr_scan"}, "is_reserved": 0, "lon": -77.02210766666667, "fusion_lat": 0.0, "name": "528591a036006afa35955ef8a9f91096"}, {"type": "electric_bike", "fusion_lon": 0.0, "bike_id": "7769a50edeb6d3d299ab4b1d1d6a76dc", "is_disabled": 0, "lat": 38.8428485, "rental_uris": {"ios": "https://dc.lft.to/lastmile_qr_scan", "android": "https://dc.lft.to/lastmile_qr_scan"}, "is_reserved": 0, "lon": -77.07526283333333, "fusion_lat": 0.0, "name": "7769a50edeb6d3d299ab4b1d1d6a76dc"}, {"type": "electric_bike", "fusion_lon": 0.0, "bike_id": "6d90e3109fc6a1264b9acefefbb6487c", "is_disabled": 0, "lat": 38.842709, "rental_uris": {"ios": "https://dc.lft.to/lastmile_qr_scan", "android": "https://dc.lft.to/lastmile_qr_scan"}, "is_reserved": 0, "lon": -76.98821716666667, "fusion_lat": 0.0, "name": "6d90e3109fc6a1264b9acefefbb6487c"}, {"type": "electric_scooter", "fusion_lon": 0.0, "bike_id": "3496442d23e8ebe5f1bed279707f5afb", "is_disabled": 0, "lat": 38.923847, "rental_uris": {"ios": "https://dc.lft.to/lastmile_qr_scan", "android": "https://dc.lft.to/lastmile_qr_scan"}, "is_reserved": 0, "lon": -77.03655583333334, "fusion_lat": 0.0, "name": "3496442d23e8ebe5f1bed279707f5afb"}, {"type": "electric_scooter", "fusion_lon": 0.0, "bike_id": "d2e4a12ff2cebbb7f8da77d0cecc1e2b", "is_disabled": 0, "lat": 38.883354, "rental_uris": {"ios": "https://dc.lft.to/lastmile_qr_scan", "android": "https://dc.lft.to/lastmile_qr_scan"}, "is_reserved": 0, "lon": -77.00648433333333, "fusion_lat": 0.0, "name": "d2e4a12ff2cebbb7f8da77d0cecc1e2b"}, {"type": "electric_scooter", "fusion_lon": 0.0, "bike_id": "21dfe25ef4589d492176721dd53608a0", "is_disabled": 0, "lat": 38.87572633333333, "rental_uris": {"ios": "https://dc.lft.to/lastmile_qr_scan", "android": "https://dc.lft.to/lastmile_qr_scan"}, "is_reserved": 0, "lon": -77.00568516666667, "fusion_lat": 0.0, "name": "21dfe25ef4589d492176721dd53608a0"}, {"type": "electric_scooter", "fusion_lon": 0.0, "bike_id": "aef0b066357b12c783d8bf1579235516", "is_disabled": 0, "lat": 38.908007166666664, "rental_uris": {"ios": "https://dc.lft.to/lastmile_qr_scan", "android": "https://dc.lft.to/lastmile_qr_scan"}, "is_reserved": 0, "lon": -77.04231233333333, "fusion_lat": 0.0, "name": "aef0b066357b12c783d8bf1579235516"}, {"type": "electric_scooter", "fusion_lon": 0.0, "bike_id": "7bb2fec8a991f391ff17b18572868e7d", "is_disabled": 0, "lat": 38.91252516666667, "rental_uris": {"ios": "https://dc.lft.to/lastmile_qr_scan", "android": "https://dc.lft.to/lastmile_qr_scan"}, "is_reserved": 0, "lon": -77.03846933333334, "fusion_lat": 0.0, "name": "7bb2fec8a991f391ff17b18572868e7d"}, {"type": "electric_scooter", "fusion_lon": 0.0, "bike_id": "5081d7ba47723d4d4fe2e6ea71f99b20", "is_disabled": 0, "lat": 38.89412683333333, "rental_uris": {"ios": "https://dc.lft.to/lastmile_qr_scan", "android": "https://dc.lft.to/lastmile_qr_scan"}, "is_reserved": 0, "lon": -77.022082, "fusion_lat": 0.0, "name": "5081d7ba47723d4d4fe2e6ea71f99b20"}, {"type": "electric_scooter", "fusion_lon": 0.0, "bike_id": "38362a47637f987b9ece4b3e2a062e1f", "is_disabled": 0, "lat": 38.90408216666667, "rental_uris": {"ios": "https://dc.lft.to/lastmile_qr_scan", "android": "https://dc.lft.to/lastmile_qr_scan"}, "is_reserved": 0, "lon": -76.97331866666667, "fusion_lat": 0.0, "name": "38362a47637f987b9ece4b3e2a062e1f"}, {"type": "electric_scooter", "fusion_lon": 0.0, "bike_id": "15af74362342a453c72a8a5edeac0c08", "is_disabled": 0, "lat": 38.91109483333334, "rental_uris": {"ios": "https://dc.lft.to/lastmile_qr_scan", "android": "https://dc.lft.to/lastmile_qr_scan"}, "is_reserved": 0, "lon": -77.04533966666666, "fusion_lat": 0.0, "name": "15af74362342a453c72a8a5edeac0c08"}, {"type": "electric_scooter", "fusion_lon": 0.0, "bike_id": "c4e0aa4d8486fe3c73f4bc85d2d24426", "is_disabled": 0, "lat": 38.90192033333334, "rental_uris": {"ios": "https://dc.lft.to/lastmile_qr_scan", "android": "https://dc.lft.to/lastmile_qr_scan"}, "is_reserved": 0, "lon": -77.02187933333333, "fusion_lat": 0.0, "name": "c4e0aa4d8486fe3c73f4bc85d2d24426"}, {"type": "electric_scooter", "fusion_lon": 0.0, "bike_id": "fa6fba87ecd92cbc5069d834fec7eb6d", "is_disabled": 0, "lat": 38.913332, "rental_uris": {"ios": "https://dc.lft.to/lastmile_qr_scan", "android": "https://dc.lft.to/lastmile_qr_scan"}, "is_reserved": 0, "lon": -77.02540633333334, "fusion_lat": 0.0, "name": "fa6fba87ecd92cbc5069d834fec7eb6d"}, {"type": "electric_scooter", "fusion_lon": 0.0, "bike_id": "ab2ede05801eaaa2601479c2ba23ce65", "is_disabled": 0, "lat": 38.89607633333333, "rental_uris": {"ios": "https://dc.lft.to/lastmile_qr_scan", "android": "https://dc.lft.to/lastmile_qr_scan"}, "is_reserved": 0, "lon": -77.0093055, "fusion_lat": 0.0, "name": "ab2ede05801eaaa2601479c2ba23ce65"}, {"type": "electric_scooter", "fusion_lon": 0.0, "bike_id": "97037ad4cba0a66fd50cb25474d4cd37", "is_disabled": 0, "lat": 38.899551, "rental_uris": {"ios": "https://dc.lft.to/lastmile_qr_scan", "android": "https://dc.lft.to/lastmile_qr_scan"}, "is_reserved": 0, "lon": -77.05098633333333, "fusion_lat": 0.0, "name": "97037ad4cba0a66fd50cb25474d4cd37"}, {"type": "electric_scooter", "fusion_lon": 0.0, "bike_id": "b4bfd7337f37b7cbf1a9b2536114b145", "is_disabled": 0, "lat": 38.8999035, "rental_uris": {"ios": "https://dc.lft.to/lastmile_qr_scan", "android": "https://dc.lft.to/lastmile_qr_scan"}, "is_reserved": 0, "lon": -76.99484066666666, "fusion_lat": 0.0, "name": "b4bfd7337f37b7cbf1a9b2536114b145"}, {"type": "electric_scooter", "fusion_lon": 0.0, "bike_id": "08ca9800006728780df3293e85f03e52", "is_disabled": 0, "lat": 38.926291166666665, "rental_uris": {"ios": "https://dc.lft.to/lastmile_qr_scan", "android": "https://dc.lft.to/lastmile_qr_scan"}, "is_reserved": 0, "lon": -77.0421495, "fusion_lat": 0.0, "name": "08ca9800006728780df3293e85f03e52"}, {"type": "electric_scooter", "fusion_lon": 0.0, "bike_id": "f2bc6d81f673fef2787690f852faa9ac", "is_disabled": 0, "lat": 38.838392999999996, "rental_uris": {"ios": "https://dc.lft.to/lastmile_qr_scan", "android": "https://dc.lft.to/lastmile_qr_scan"}, "is_reserved": 0, "lon": -76.9984095, "fusion_lat": 0.0, "name": "f2bc6d81f673fef2787690f852faa9ac"}, {"type": "electric_scooter", "fusion_lon": 0.0, "bike_id": "53955a6aa02b794fb67c47c14f3c8a48", "is_disabled": 0, "lat": 38.90591716666667, "rental_uris": {"ios": "https://dc.lft.to/lastmile_qr_scan", "android": "https://dc.lft.to/lastmile_qr_scan"}, "is_reserved": 0, "lon": -77.0161285, "fusion_lat": 0.0, "name": "53955a6aa02b794fb67c47c14f3c8a48"}, {"type": "electric_scooter", "fusion_lon": 0.0, "bike_id": "8879e074b7dc48fd846bfc32c6fb590f", "is_disabled": 0, "lat": 38.916335833333335, "rental_uris": {"ios": "https://dc.lft.to/lastmile_qr_scan", "android": "https://dc.lft.to/lastmile_qr_scan"}, "is_reserved": 0, "lon": -77.03193583333334, "fusion_lat": 0.0, "name": "8879e074b7dc48fd846bfc32c6fb590f"}, {"type": "electric_bike", "fusion_lon": 0.0, "bike_id": "c1c84a3fc012023f5ab765c7280bb83c", "is_disabled": 0, "lat": 38.896195166666665, "rental_uris": {"ios": "https://dc.lft.to/lastmile_qr_scan", "android": "https://dc.lft.to/lastmile_qr_scan"}, "is_reserved": 0, "lon": -76.90741716666666, "fusion_lat": 0.0, "name": "c1c84a3fc012023f5ab765c7280bb83c"}, {"type": "electric_scooter", "fusion_lon": 0.0, "bike_id": "f7e56499703ba01cd377266f9a4b5e8f", "is_disabled": 0, "lat": 38.89223166666667, "rental_uris": {"ios": "https://dc.lft.to/lastmile_qr_scan", "android": "https://dc.lft.to/lastmile_qr_scan"}, "is_reserved": 0, "lon": -77.04336033333334, "fusion_lat": 0.0, "name": "f7e56499703ba01cd377266f9a4b5e8f"}, {"type": "electric_scooter", "fusion_lon": 0.0, "bike_id": "907a15149af1034c1750842c1af4083d", "is_disabled": 0, "lat": 38.92340566666667, "rental_uris": {"ios": "https://dc.lft.to/lastmile_qr_scan", "android": "https://dc.lft.to/lastmile_qr_scan"}, "is_reserved": 0, "lon": -77.03644866666667, "fusion_lat": 0.0, "name": "907a15149af1034c1750842c1af4083d"}, {"type": "electric_scooter", "fusion_lon": 0.0, "bike_id": "6368408aab59c0326f852c31148469a0", "is_disabled": 0, "lat": 38.92149766666667, "rental_uris": {"ios": "https://dc.lft.to/lastmile_qr_scan", "android": "https://dc.lft.to/lastmile_qr_scan"}, "is_reserved": 0, "lon": -77.0351645, "fusion_lat": 0.0, "name": "6368408aab59c0326f852c31148469a0"}, {"type": "electric_scooter", "fusion_lon": 0.0, "bike_id": "7a3130c659ff0a0a395ab7041968e267", "is_disabled": 0, "lat": 38.9287805, "rental_uris": {"ios": "https://dc.lft.to/lastmile_qr_scan", "android": "https://dc.lft.to/lastmile_qr_scan"}, "is_reserved": 0, "lon": -77.03261433333333, "fusion_lat": 0.0, "name": "7a3130c659ff0a0a395ab7041968e267"}, {"type": "electric_bike", "fusion_lon": 0.0, "bike_id": "47cda0b6137223d7c22db8138d0e9e7e", "is_disabled": 0, "lat": 38.92650833333333, "rental_uris": {"ios": "https://dc.lft.to/lastmile_qr_scan", "android": "https://dc.lft.to/lastmile_qr_scan"}, "is_reserved": 0, "lon": -77.0331955, "fusion_lat": 0.0, "name": "47cda0b6137223d7c22db8138d0e9e7e"}, {"type": "electric_scooter", "fusion_lon": 0.0, "bike_id": "69f7a95e0213b019b7ef5fe007a29cf0", "is_disabled": 0, "lat": 38.96082533333333, "rental_uris": {"ios": "https://dc.lft.to/lastmile_qr_scan", "android": "https://dc.lft.to/lastmile_qr_scan"}, "is_reserved": 0, "lon": -77.02887616666666, "fusion_lat": 0.0, "name": "69f7a95e0213b019b7ef5fe007a29cf0"}, {"type": "electric_scooter", "fusion_lon": 0.0, "bike_id": "ab0b0596e7cac2be63ada7497b7bac56", "is_disabled": 0, "lat": 38.9156395, "rental_uris": {"ios": "https://dc.lft.to/lastmile_qr_scan", "android": "https://dc.lft.to/lastmile_qr_scan"}, "is_reserved": 0, "lon": -77.020061, "fusion_lat": 0.0, "name": "ab0b0596e7cac2be63ada7497b7bac56"}, {"type": "electric_scooter", "fusion_lon": 0.0, "bike_id": "d5c95d2c06193751afdd43231fb51ecf", "is_disabled": 0, "lat": 38.91814316666667, "rental_uris": {"ios": "https://dc.lft.to/lastmile_qr_scan", "android": "https://dc.lft.to/lastmile_qr_scan"}, "is_reserved": 0, "lon": -77.027061, "fusion_lat": 0.0, "name": "d5c95d2c06193751afdd43231fb51ecf"}, {"type": "electric_scooter", "fusion_lon": 0.0, "bike_id": "19127afaa1efff18695575005491cee9", "is_disabled": 0, "lat": 38.920420666666665, "rental_uris": {"ios": "https://dc.lft.to/lastmile_qr_scan", "android": "https://dc.lft.to/lastmile_qr_scan"}, "is_reserved": 0, "lon": -77.032611, "fusion_lat": 0.0, "name": "19127afaa1efff18695575005491cee9"}, {"type": "electric_bike", "fusion_lon": 0.0, "bike_id": "c86f22175731cf157b6301d2182ba223", "is_disabled": 0, "lat": 38.853179833333336, "rental_uris": {"ios": "https://dc.lft.to/lastmile_qr_scan", "android": "https://dc.lft.to/lastmile_qr_scan"}, "is_reserved": 0, "lon": -76.98016383333334, "fusion_lat": 0.0, "name": "c86f22175731cf157b6301d2182ba223"}, {"type": "electric_scooter", "fusion_lon": 0.0, "bike_id": "7cc7130f25c2a7d4d4b32c55c2c29b8d", "is_disabled": 0, "lat": 38.923641833333335, "rental_uris": {"ios": "https://dc.lft.to/lastmile_qr_scan", "android": "https://dc.lft.to/lastmile_qr_scan"}, "is_reserved": 0, "lon": -77.01923116666667, "fusion_lat": 0.0, "name": "7cc7130f25c2a7d4d4b32c55c2c29b8d"}, {"type": "electric_scooter", "fusion_lon": 0.0, "bike_id": "c07223e9d3366876ad957bbacdc417cd", "is_disabled": 0, "lat": 38.877221166666665, "rental_uris": {"ios": "https://dc.lft.to/lastmile_qr_scan", "android": "https://dc.lft.to/lastmile_qr_scan"}, "is_reserved": 0, "lon": -77.0093075, "fusion_lat": 0.0, "name": "c07223e9d3366876ad957bbacdc417cd"}, {"type": "electric_scooter", "fusion_lon": 0.0, "bike_id": "8446801996414969d8815c0a1f596f36", "is_disabled": 0, "lat": 38.92675366666667, "rental_uris": {"ios": "https://dc.lft.to/lastmile_qr_scan", "android": "https://dc.lft.to/lastmile_qr_scan"}, "is_reserved": 0, "lon": -77.0278835, "fusion_lat": 0.0, "name": "8446801996414969d8815c0a1f596f36"}, {"type": "electric_scooter", "fusion_lon": 0.0, "bike_id": "7766c4a2af1cdeaa4dd474cc39e9d5e5", "is_disabled": 0, "lat": 38.894014, "rental_uris": {"ios": "https://dc.lft.to/lastmile_qr_scan", "android": "https://dc.lft.to/lastmile_qr_scan"}, "is_reserved": 0, "lon": -77.01085016666667, "fusion_lat": 0.0, "name": "7766c4a2af1cdeaa4dd474cc39e9d5e5"}, {"type": "electric_scooter", "fusion_lon": 0.0, "bike_id": "4e5c3f6fb3b6aa2ce9b3bc7b8e0557c2", "is_disabled": 0, "lat": 38.9171615, "rental_uris": {"ios": "https://dc.lft.to/lastmile_qr_scan", "android": "https://dc.lft.to/lastmile_qr_scan"}, "is_reserved": 0, "lon": -77.0240545, "fusion_lat": 0.0, "name": "4e5c3f6fb3b6aa2ce9b3bc7b8e0557c2"}, {"type": "electric_scooter", "fusion_lon": 0.0, "bike_id": "d9aad09b1963f0f49df30500cf130a3a", "is_disabled": 0, "lat": 38.92794833333333, "rental_uris": {"ios": "https://dc.lft.to/lastmile_qr_scan", "android": "https://dc.lft.to/lastmile_qr_scan"}, "is_reserved": 0, "lon": -77.02723233333333, "fusion_lat": 0.0, "name": "d9aad09b1963f0f49df30500cf130a3a"}, {"type": "electric_scooter", "fusion_lon": 0.0, "bike_id": "ae412e40f28e66c49e004b411bf81584", "is_disabled": 0, "lat": 38.94788233333333, "rental_uris": {"ios": "https://dc.lft.to/lastmile_qr_scan", "android": "https://dc.lft.to/lastmile_qr_scan"}, "is_reserved": 0, "lon": -77.04081983333333, "fusion_lat": 0.0, "name": "ae412e40f28e66c49e004b411bf81584"}, {"type": "electric_scooter", "fusion_lon": 0.0, "bike_id": "87c5b64b96683026db159c1ddf46b032", "is_disabled": 0, "lat": 38.90864916666666, "rental_uris": {"ios": "https://dc.lft.to/lastmile_qr_scan", "android": "https://dc.lft.to/lastmile_qr_scan"}, "is_reserved": 0, "lon": -77.00392183333334, "fusion_lat": 0.0, "name": "87c5b64b96683026db159c1ddf46b032"}, {"type": "electric_scooter", "fusion_lon": 0.0, "bike_id": "eca701cf90bcb061907d01cef36a430e", "is_disabled": 0, "lat": 38.89223283333333, "rental_uris": {"ios": "https://dc.lft.to/lastmile_qr_scan", "android": "https://dc.lft.to/lastmile_qr_scan"}, "is_reserved": 0, "lon": -77.024182, "fusion_lat": 0.0, "name": "eca701cf90bcb061907d01cef36a430e"}, {"type": "electric_scooter", "fusion_lon": 0.0, "bike_id": "8135304975ecf8f5f7ff9ffdb22f102d", "is_disabled": 0, "lat": 38.940854333333334, "rental_uris": {"ios": "https://dc.lft.to/lastmile_qr_scan", "android": "https://dc.lft.to/lastmile_qr_scan"}, "is_reserved": 0, "lon": -77.02537, "fusion_lat": 0.0, "name": "8135304975ecf8f5f7ff9ffdb22f102d"}, {"type": "electric_scooter", "fusion_lon": 0.0, "bike_id": "47e230530e4c552662abe5fe53f543ef", "is_disabled": 0, "lat": 38.9278165, "rental_uris": {"ios": "https://dc.lft.to/lastmile_qr_scan", "android": "https://dc.lft.to/lastmile_qr_scan"}, "is_reserved": 0, "lon": -77.0285665, "fusion_lat": 0.0, "name": "47e230530e4c552662abe5fe53f543ef"}, {"type": "electric_bike", "fusion_lon": 0.0, "bike_id": "10e77fe931731c737111a73dedbbe249", "is_disabled": 0, "lat": 38.96615166666667, "rental_uris": {"ios": "https://dc.lft.to/lastmile_qr_scan", "android": "https://dc.lft.to/lastmile_qr_scan"}, "is_reserved": 0, "lon": -77.034315, "fusion_lat": 0.0, "name": "10e77fe931731c737111a73dedbbe249"}, {"type": "electric_scooter", "fusion_lon": 0.0, "bike_id": "a43c51ffbc64583978438357321aaf7f", "is_disabled": 0, "lat": 38.922554166666664, "rental_uris": {"ios": "https://dc.lft.to/lastmile_qr_scan", "android": "https://dc.lft.to/lastmile_qr_scan"}, "is_reserved": 0, "lon": -77.03666933333334, "fusion_lat": 0.0, "name": "a43c51ffbc64583978438357321aaf7f"}, {"type": "electric_scooter", "fusion_lon": 0.0, "bike_id": "3b9eb1e79b438b3d55326287fbef2939", "is_disabled": 0, "lat": 38.93072766666667, "rental_uris": {"ios": "https://dc.lft.to/lastmile_qr_scan", "android": "https://dc.lft.to/lastmile_qr_scan"}, "is_reserved": 0, "lon": -77.02916933333333, "fusion_lat": 0.0, "name": "3b9eb1e79b438b3d55326287fbef2939"}, {"type": "electric_scooter", "fusion_lon": 0.0, "bike_id": "588143fd569969fd601a460cc812478e", "is_disabled": 0, "lat": 38.884267, "rental_uris": {"ios": "https://dc.lft.to/lastmile_qr_scan", "android": "https://dc.lft.to/lastmile_qr_scan"}, "is_reserved": 0, "lon": -77.02589466666667, "fusion_lat": 0.0, "name": "588143fd569969fd601a460cc812478e"}, {"type": "electric_scooter", "fusion_lon": 0.0, "bike_id": "9c98948c54b1afd639848edcbdc6cc75", "is_disabled": 0, "lat": 38.93509483333333, "rental_uris": {"ios": "https://dc.lft.to/lastmile_qr_scan", "android": "https://dc.lft.to/lastmile_qr_scan"}, "is_reserved": 0, "lon": -77.03284066666667, "fusion_lat": 0.0, "name": "9c98948c54b1afd639848edcbdc6cc75"}, {"type": "electric_scooter", "fusion_lon": 0.0, "bike_id": "272f9a6e11341065c6b4c753e264dab0", "is_disabled": 0, "lat": 38.91188133333333, "rental_uris": {"ios": "https://dc.lft.to/lastmile_qr_scan", "android": "https://dc.lft.to/lastmile_qr_scan"}, "is_reserved": 0, "lon": -77.042227, "fusion_lat": 0.0, "name": "272f9a6e11341065c6b4c753e264dab0"}, {"type": "electric_scooter", "fusion_lon": 0.0, "bike_id": "77912dfd401f0a1de8e45da57d7dd555", "is_disabled": 0, "lat": 38.93189916666667, "rental_uris": {"ios": "https://dc.lft.to/lastmile_qr_scan", "android": "https://dc.lft.to/lastmile_qr_scan"}, "is_reserved": 0, "lon": -77.07261116666666, "fusion_lat": 0.0, "name": "77912dfd401f0a1de8e45da57d7dd555"}, {"type": "electric_bike", "fusion_lon": 0.0, "bike_id": "ebd5929fca6b0a9620d5ec23919c1990", "is_disabled": 0, "lat": 38.8572505, "rental_uris": {"ios": "https://dc.lft.to/lastmile_qr_scan", "android": "https://dc.lft.to/lastmile_qr_scan"}, "is_reserved": 0, "lon": -76.97776516666667, "fusion_lat": 0.0, "name": "ebd5929fca6b0a9620d5ec23919c1990"}, {"type": "electric_scooter", "fusion_lon": 0.0, "bike_id": "daab52aaae15a7dba25bd50d4e32cca6", "is_disabled": 0, "lat": 38.900476833333336, "rental_uris": {"ios": "https://dc.lft.to/lastmile_qr_scan", "android": "https://dc.lft.to/lastmile_qr_scan"}, "is_reserved": 0, "lon": -77.04170066666667, "fusion_lat": 0.0, "name": "daab52aaae15a7dba25bd50d4e32cca6"}, {"type": "electric_scooter", "fusion_lon": 0.0, "bike_id": "5e44e050e1c43232c845c6871e47d6d8", "is_disabled": 0, "lat": 38.905750166666664, "rental_uris": {"ios": "https://dc.lft.to/lastmile_qr_scan", "android": "https://dc.lft.to/lastmile_qr_scan"}, "is_reserved": 0, "lon": -77.005413, "fusion_lat": 0.0, "name": "5e44e050e1c43232c845c6871e47d6d8"}, {"type": "electric_scooter", "fusion_lon": 0.0, "bike_id": "fc4e9eadf0da07c15a8e332054a76a5f", "is_disabled": 0, "lat": 38.918154666666666, "rental_uris": {"ios": "https://dc.lft.to/lastmile_qr_scan", "android": "https://dc.lft.to/lastmile_qr_scan"}, "is_reserved": 0, "lon": -77.02711883333333, "fusion_lat": 0.0, "name": "fc4e9eadf0da07c15a8e332054a76a5f"}, {"type": "electric_scooter", "fusion_lon": 0.0, "bike_id": "a57cd28aa0070068a6eefd7d18971fe7", "is_disabled": 0, "lat": 38.918093166666665, "rental_uris": {"ios": "https://dc.lft.to/lastmile_qr_scan", "android": "https://dc.lft.to/lastmile_qr_scan"}, "is_reserved": 0, "lon": -77.0392755, "fusion_lat": 0.0, "name": "a57cd28aa0070068a6eefd7d18971fe7"}, {"type": "electric_scooter", "fusion_lon": 0.0, "bike_id": "18afab73917c64c852692a14281bce5f", "is_disabled": 0, "lat": 38.904992166666666, "rental_uris": {"ios": "https://dc.lft.to/lastmile_qr_scan", "android": "https://dc.lft.to/lastmile_qr_scan"}, "is_reserved": 0, "lon": -77.019931, "fusion_lat": 0.0, "name": "18afab73917c64c852692a14281bce5f"}, {"type": "electric_scooter", "fusion_lon": 0.0, "bike_id": "5d35bcf73cc26d3e054530b3426483e0", "is_disabled": 0, "lat": 38.892251, "rental_uris": {"ios": "https://dc.lft.to/lastmile_qr_scan", "android": "https://dc.lft.to/lastmile_qr_scan"}, "is_reserved": 0, "lon": -77.0450345, "fusion_lat": 0.0, "name": "5d35bcf73cc26d3e054530b3426483e0"}, {"type": "electric_scooter", "fusion_lon": 0.0, "bike_id": "ba47c52e41e394d2d061dbd9d1961347", "is_disabled": 0, "lat": 38.90120866666667, "rental_uris": {"ios": "https://dc.lft.to/lastmile_qr_scan", "android": "https://dc.lft.to/lastmile_qr_scan"}, "is_reserved": 0, "lon": -77.03443366666667, "fusion_lat": 0.0, "name": "ba47c52e41e394d2d061dbd9d1961347"}, {"type": "electric_scooter", "fusion_lon": 0.0, "bike_id": "ee7686dcba29877c54d63f20c2d63471", "is_disabled": 0, "lat": 38.87921683333333, "rental_uris": {"ios": "https://dc.lft.to/lastmile_qr_scan", "android": "https://dc.lft.to/lastmile_qr_scan"}, "is_reserved": 0, "lon": -76.9954725, "fusion_lat": 0.0, "name": "ee7686dcba29877c54d63f20c2d63471"}, {"type": "electric_scooter", "fusion_lon": 0.0, "bike_id": "62f9dd07b0b559393eeaa474542cd46b", "is_disabled": 0, "lat": 38.892203333333335, "rental_uris": {"ios": "https://dc.lft.to/lastmile_qr_scan", "android": "https://dc.lft.to/lastmile_qr_scan"}, "is_reserved": 0, "lon": -77.02626816666667, "fusion_lat": 0.0, "name": "62f9dd07b0b559393eeaa474542cd46b"}, {"type": "electric_scooter", "fusion_lon": 0.0, "bike_id": "41b589ee32aed5cdb9a78d1a456ecbd8", "is_disabled": 0, "lat": 38.8861145, "rental_uris": {"ios": "https://dc.lft.to/lastmile_qr_scan", "android": "https://dc.lft.to/lastmile_qr_scan"}, "is_reserved": 0, "lon": -76.98558233333333, "fusion_lat": 0.0, "name": "41b589ee32aed5cdb9a78d1a456ecbd8"}, {"type": "electric_scooter", "fusion_lon": 0.0, "bike_id": "861f361766c6f5e7f0a9f7de7ffbb7df", "is_disabled": 0, "lat": 38.90850416666667, "rental_uris": {"ios": "https://dc.lft.to/lastmile_qr_scan", "android": "https://dc.lft.to/lastmile_qr_scan"}, "is_reserved": 0, "lon": -76.99689, "fusion_lat": 0.0, "name": "861f361766c6f5e7f0a9f7de7ffbb7df"}, {"type": "electric_scooter", "fusion_lon": 0.0, "bike_id": "6380994757dafb2e70292677c054f882", "is_disabled": 0, "lat": 38.89221233333333, "rental_uris": {"ios": "https://dc.lft.to/lastmile_qr_scan", "android": "https://dc.lft.to/lastmile_qr_scan"}, "is_reserved": 0, "lon": -77.02219233333334, "fusion_lat": 0.0, "name": "6380994757dafb2e70292677c054f882"}, {"type": "electric_scooter", "fusion_lon": 0.0, "bike_id": "fb1610bdc0f7143d0d1c41c7e68e6213", "is_disabled": 0, "lat": 38.9369715, "rental_uris": {"ios": "https://dc.lft.to/lastmile_qr_scan", "android": "https://dc.lft.to/lastmile_qr_scan"}, "is_reserved": 0, "lon": -77.02407583333333, "fusion_lat": 0.0, "name": "fb1610bdc0f7143d0d1c41c7e68e6213"}, {"type": "electric_scooter", "fusion_lon": 0.0, "bike_id": "4153c0591ff7d71da80fe149cbe993e1", "is_disabled": 0, "lat": 38.91875233333333, "rental_uris": {"ios": "https://dc.lft.to/lastmile_qr_scan", "android": "https://dc.lft.to/lastmile_qr_scan"}, "is_reserved": 0, "lon": -77.02592916666667, "fusion_lat": 0.0, "name": "4153c0591ff7d71da80fe149cbe993e1"}, {"type": "electric_scooter", "fusion_lon": 0.0, "bike_id": "ca1f167e52014217b060e682cec2e2a9", "is_disabled": 0, "lat": 38.891967, "rental_uris": {"ios": "https://dc.lft.to/lastmile_qr_scan", "android": "https://dc.lft.to/lastmile_qr_scan"}, "is_reserved": 0, "lon": -77.02378133333333, "fusion_lat": 0.0, "name": "ca1f167e52014217b060e682cec2e2a9"}, {"type": "electric_scooter", "fusion_lon": 0.0, "bike_id": "3c88bb37542be5515811699ea3c17484", "is_disabled": 0, "lat": 38.95651483333333, "rental_uris": {"ios": "https://dc.lft.to/lastmile_qr_scan", "android": "https://dc.lft.to/lastmile_qr_scan"}, "is_reserved": 0, "lon": -77.01970566666667, "fusion_lat": 0.0, "name": "3c88bb37542be5515811699ea3c17484"}, {"type": "electric_scooter", "fusion_lon": 0.0, "bike_id": "fc2317aa6309e4ae235ffac3379c7356", "is_disabled": 0, "lat": 38.93120366666667, "rental_uris": {"ios": "https://dc.lft.to/lastmile_qr_scan", "android": "https://dc.lft.to/lastmile_qr_scan"}, "is_reserved": 0, "lon": -77.02070216666667, "fusion_lat": 0.0, "name": "fc2317aa6309e4ae235ffac3379c7356"}, {"type": "electric_scooter", "fusion_lon": 0.0, "bike_id": "b1ac1c9e034a2b5f796e6a88ca4f04f7", "is_disabled": 0, "lat": 38.92013166666667, "rental_uris": {"ios": "https://dc.lft.to/lastmile_qr_scan", "android": "https://dc.lft.to/lastmile_qr_scan"}, "is_reserved": 0, "lon": -77.0246945, "fusion_lat": 0.0, "name": "b1ac1c9e034a2b5f796e6a88ca4f04f7"}, {"type": "electric_scooter", "fusion_lon": 0.0, "bike_id": "5a1157e87d5a8c19882cf2a1afcaf71e", "is_disabled": 0, "lat": 38.8791115, "rental_uris": {"ios": "https://dc.lft.to/lastmile_qr_scan", "android": "https://dc.lft.to/lastmile_qr_scan"}, "is_reserved": 0, "lon": -76.94324283333333, "fusion_lat": 0.0, "name": "5a1157e87d5a8c19882cf2a1afcaf71e"}, {"type": "electric_scooter", "fusion_lon": 0.0, "bike_id": "bdf617f1e3f5c2ea6d6f49f125848eca", "is_disabled": 0, "lat": 38.9306435, "rental_uris": {"ios": "https://dc.lft.to/lastmile_qr_scan", "android": "https://dc.lft.to/lastmile_qr_scan"}, "is_reserved": 0, "lon": -77.03992833333334, "fusion_lat": 0.0, "name": "bdf617f1e3f5c2ea6d6f49f125848eca"}, {"type": "electric_scooter", "fusion_lon": 0.0, "bike_id": "c6f6d6408225ee82b673f16534c747e7", "is_disabled": 0, "lat": 38.9003185, "rental_uris": {"ios": "https://dc.lft.to/lastmile_qr_scan", "android": "https://dc.lft.to/lastmile_qr_scan"}, "is_reserved": 0, "lon": -76.98551683333334, "fusion_lat": 0.0, "name": "c6f6d6408225ee82b673f16534c747e7"}, {"type": "electric_scooter", "fusion_lon": 0.0, "bike_id": "fc81fe87fbfbc861f8f0e05bc1bb09cd", "is_disabled": 0, "lat": 38.91768583333333, "rental_uris": {"ios": "https://dc.lft.to/lastmile_qr_scan", "android": "https://dc.lft.to/lastmile_qr_scan"}, "is_reserved": 0, "lon": -77.028143, "fusion_lat": 0.0, "name": "fc81fe87fbfbc861f8f0e05bc1bb09cd"}, {"type": "electric_scooter", "fusion_lon": 0.0, "bike_id": "6bf3ca88763576ca259a15fe47523729", "is_disabled": 0, "lat": 38.89219883333333, "rental_uris": {"ios": "https://dc.lft.to/lastmile_qr_scan", "android": "https://dc.lft.to/lastmile_qr_scan"}, "is_reserved": 0, "lon": -77.02220666666666, "fusion_lat": 0.0, "name": "6bf3ca88763576ca259a15fe47523729"}, {"type": "electric_scooter", "fusion_lon": 0.0, "bike_id": "4c75143b9858579c0704d7756c8ff187", "is_disabled": 0, "lat": 38.922840666666666, "rental_uris": {"ios": "https://dc.lft.to/lastmile_qr_scan", "android": "https://dc.lft.to/lastmile_qr_scan"}, "is_reserved": 0, "lon": -76.99461716666667, "fusion_lat": 0.0, "name": "4c75143b9858579c0704d7756c8ff187"}, {"type": "electric_scooter", "fusion_lon": 0.0, "bike_id": "8534b2226607af78cd2b5d6fad9ccfb6", "is_disabled": 0, "lat": 38.926963, "rental_uris": {"ios": "https://dc.lft.to/lastmile_qr_scan", "android": "https://dc.lft.to/lastmile_qr_scan"}, "is_reserved": 0, "lon": -76.99551083333333, "fusion_lat": 0.0, "name": "8534b2226607af78cd2b5d6fad9ccfb6"}, {"type": "electric_scooter", "fusion_lon": 0.0, "bike_id": "49d698b9f8bbe3dc66cabdf3352f0c43", "is_disabled": 0, "lat": 38.90256616666667, "rental_uris": {"ios": "https://dc.lft.to/lastmile_qr_scan", "android": "https://dc.lft.to/lastmile_qr_scan"}, "is_reserved": 0, "lon": -77.03581716666666, "fusion_lat": 0.0, "name": "49d698b9f8bbe3dc66cabdf3352f0c43"}, {"type": "electric_scooter", "fusion_lon": 0.0, "bike_id": "e30dda2c99c912766ef188a4312218ce", "is_disabled": 0, "lat": 38.918111333333336, "rental_uris": {"ios": "https://dc.lft.to/lastmile_qr_scan", "android": "https://dc.lft.to/lastmile_qr_scan"}, "is_reserved": 0, "lon": -77.03997366666667, "fusion_lat": 0.0, "name": "e30dda2c99c912766ef188a4312218ce"}, {"type": "electric_scooter", "fusion_lon": 0.0, "bike_id": "8070b497ec401a03b3a7b01aeca2802d", "is_disabled": 0, "lat": 38.907200333333336, "rental_uris": {"ios": "https://dc.lft.to/lastmile_qr_scan", "android": "https://dc.lft.to/lastmile_qr_scan"}, "is_reserved": 0, "lon": -77.02544333333333, "fusion_lat": 0.0, "name": "8070b497ec401a03b3a7b01aeca2802d"}, {"type": "electric_scooter", "fusion_lon": 0.0, "bike_id": "92c0705b962d5f41e06507eb0e605018", "is_disabled": 0, "lat": 38.91673866666667, "rental_uris": {"ios": "https://dc.lft.to/lastmile_qr_scan", "android": "https://dc.lft.to/lastmile_qr_scan"}, "is_reserved": 0, "lon": -77.02392266666666, "fusion_lat": 0.0, "name": "92c0705b962d5f41e06507eb0e605018"}, {"type": "electric_scooter", "fusion_lon": 0.0, "bike_id": "438c89c5e6d12d99f9ebd4b387bfcdb7", "is_disabled": 0, "lat": 38.916444, "rental_uris": {"ios": "https://dc.lft.to/lastmile_qr_scan", "android": "https://dc.lft.to/lastmile_qr_scan"}, "is_reserved": 0, "lon": -77.02382366666667, "fusion_lat": 0.0, "name": "438c89c5e6d12d99f9ebd4b387bfcdb7"}, {"type": "electric_scooter", "fusion_lon": 0.0, "bike_id": "4c11d2113b8a1f9a2e423b47ff91ed10", "is_disabled": 0, "lat": 38.92456583333333, "rental_uris": {"ios": "https://dc.lft.to/lastmile_qr_scan", "android": "https://dc.lft.to/lastmile_qr_scan"}, "is_reserved": 0, "lon": -77.04039416666667, "fusion_lat": 0.0, "name": "4c11d2113b8a1f9a2e423b47ff91ed10"}, {"type": "electric_scooter", "fusion_lon": 0.0, "bike_id": "350a8ec49c293a1124d8904d06913287", "is_disabled": 0, "lat": 38.91656116666667, "rental_uris": {"ios": "https://dc.lft.to/lastmile_qr_scan", "android": "https://dc.lft.to/lastmile_qr_scan"}, "is_reserved": 0, "lon": -77.0385805, "fusion_lat": 0.0, "name": "350a8ec49c293a1124d8904d06913287"}, {"type": "electric_scooter", "fusion_lon": 0.0, "bike_id": "d2e74768c1fad922ec87871281b0ba01", "is_disabled": 0, "lat": 38.91879133333333, "rental_uris": {"ios": "https://dc.lft.to/lastmile_qr_scan", "android": "https://dc.lft.to/lastmile_qr_scan"}, "is_reserved": 0, "lon": -77.03504866666667, "fusion_lat": 0.0, "name": "d2e74768c1fad922ec87871281b0ba01"}, {"type": "electric_scooter", "fusion_lon": 0.0, "bike_id": "6c4c91152bff984e8e6520e667d5b2ea", "is_disabled": 0, "lat": 38.90520133333333, "rental_uris": {"ios": "https://dc.lft.to/lastmile_qr_scan", "android": "https://dc.lft.to/lastmile_qr_scan"}, "is_reserved": 0, "lon": -77.06338116666667, "fusion_lat": 0.0, "name": "6c4c91152bff984e8e6520e667d5b2ea"}, {"type": "electric_scooter", "fusion_lon": 0.0, "bike_id": "550deb7f4300f4bd6169a91d880b00da", "is_disabled": 0, "lat": 38.90034933333333, "rental_uris": {"ios": "https://dc.lft.to/lastmile_qr_scan", "android": "https://dc.lft.to/lastmile_qr_scan"}, "is_reserved": 0, "lon": -76.99150783333333, "fusion_lat": 0.0, "name": "550deb7f4300f4bd6169a91d880b00da"}, {"type": "electric_scooter", "fusion_lon": 0.0, "bike_id": "95a471f63a64246e3b09b66447b6b526", "is_disabled": 0, "lat": 38.92958616666667, "rental_uris": {"ios": "https://dc.lft.to/lastmile_qr_scan", "android": "https://dc.lft.to/lastmile_qr_scan"}, "is_reserved": 0, "lon": -77.03102133333333, "fusion_lat": 0.0, "name": "95a471f63a64246e3b09b66447b6b526"}, {"type": "electric_scooter", "fusion_lon": 0.0, "bike_id": "68e6c524df3280d5ec38b6efc79e73a0", "is_disabled": 0, "lat": 38.8929255, "rental_uris": {"ios": "https://dc.lft.to/lastmile_qr_scan", "android": "https://dc.lft.to/lastmile_qr_scan"}, "is_reserved": 0, "lon": -77.00201683333333, "fusion_lat": 0.0, "name": "68e6c524df3280d5ec38b6efc79e73a0"}, {"type": "electric_scooter", "fusion_lon": 0.0, "bike_id": "ce334e2e065030ea19ef5b896a65d553", "is_disabled": 0, "lat": 38.94278633333333, "rental_uris": {"ios": "https://dc.lft.to/lastmile_qr_scan", "android": "https://dc.lft.to/lastmile_qr_scan"}, "is_reserved": 0, "lon": -77.029254, "fusion_lat": 0.0, "name": "ce334e2e065030ea19ef5b896a65d553"}, {"type": "electric_scooter", "fusion_lon": 0.0, "bike_id": "6f247a2077c0023acc50185168692aea", "is_disabled": 0, "lat": 38.899136, "rental_uris": {"ios": "https://dc.lft.to/lastmile_qr_scan", "android": "https://dc.lft.to/lastmile_qr_scan"}, "is_reserved": 0, "lon": -76.933854, "fusion_lat": 0.0, "name": "6f247a2077c0023acc50185168692aea"}, {"type": "electric_scooter", "fusion_lon": 0.0, "bike_id": "5b903972eae459e6518f6a010da0271c", "is_disabled": 0, "lat": 38.91125066666667, "rental_uris": {"ios": "https://dc.lft.to/lastmile_qr_scan", "android": "https://dc.lft.to/lastmile_qr_scan"}, "is_reserved": 0, "lon": -77.02200133333334, "fusion_lat": 0.0, "name": "5b903972eae459e6518f6a010da0271c"}, {"type": "electric_bike", "fusion_lon": 0.0, "bike_id": "8536c72e3332ba6491a35801435c667c", "is_disabled": 0, "lat": 38.8530215, "rental_uris": {"ios": "https://dc.lft.to/lastmile_qr_scan", "android": "https://dc.lft.to/lastmile_qr_scan"}, "is_reserved": 0, "lon": -77.04601016666666, "fusion_lat": 0.0, "name": "8536c72e3332ba6491a35801435c667c"}, {"type": "electric_scooter", "fusion_lon": 0.0, "bike_id": "9fa13c29dc13c946265b4965c039e451", "is_disabled": 0, "lat": 38.92569966666667, "rental_uris": {"ios": "https://dc.lft.to/lastmile_qr_scan", "android": "https://dc.lft.to/lastmile_qr_scan"}, "is_reserved": 0, "lon": -77.02844316666666, "fusion_lat": 0.0, "name": "9fa13c29dc13c946265b4965c039e451"}, {"type": "electric_scooter", "fusion_lon": 0.0, "bike_id": "b571969ac97352a28d5f614f3ba46581", "is_disabled": 0, "lat": 38.88538883333333, "rental_uris": {"ios": "https://dc.lft.to/lastmile_qr_scan", "android": "https://dc.lft.to/lastmile_qr_scan"}, "is_reserved": 0, "lon": -76.9789225, "fusion_lat": 0.0, "name": "b571969ac97352a28d5f614f3ba46581"}, {"type": "electric_bike", "fusion_lon": 0.0, "bike_id": "3bbc4285b52c87af8bc2105ab007cc6e", "is_disabled": 0, "lat": 38.86622633333333, "rental_uris": {"ios": "https://dc.lft.to/lastmile_qr_scan", "android": "https://dc.lft.to/lastmile_qr_scan"}, "is_reserved": 0, "lon": -76.9457065, "fusion_lat": 0.0, "name": "3bbc4285b52c87af8bc2105ab007cc6e"}, {"type": "electric_scooter", "fusion_lon": 0.0, "bike_id": "91822191859fa21ff2f9decde0ea749c", "is_disabled": 0, "lat": 38.899502, "rental_uris": {"ios": "https://dc.lft.to/lastmile_qr_scan", "android": "https://dc.lft.to/lastmile_qr_scan"}, "is_reserved": 0, "lon": -77.016249, "fusion_lat": 0.0, "name": "91822191859fa21ff2f9decde0ea749c"}, {"type": "electric_scooter", "fusion_lon": 0.0, "bike_id": "7b5be43cacc05f45bca92386a5202b02", "is_disabled": 0, "lat": 38.89469066666667, "rental_uris": {"ios": "https://dc.lft.to/lastmile_qr_scan", "android": "https://dc.lft.to/lastmile_qr_scan"}, "is_reserved": 0, "lon": -77.0185985, "fusion_lat": 0.0, "name": "7b5be43cacc05f45bca92386a5202b02"}, {"type": "electric_scooter", "fusion_lon": 0.0, "bike_id": "d1d9fa07ea39d690883f9de00dd01a5a", "is_disabled": 0, "lat": 38.909592333333336, "rental_uris": {"ios": "https://dc.lft.to/lastmile_qr_scan", "android": "https://dc.lft.to/lastmile_qr_scan"}, "is_reserved": 0, "lon": -77.04649033333334, "fusion_lat": 0.0, "name": "d1d9fa07ea39d690883f9de00dd01a5a"}, {"type": "electric_bike", "fusion_lon": 0.0, "bike_id": "22c507adc3ddeb901051119a426fca56", "is_disabled": 0, "lat": 38.9977775, "rental_uris": {"ios": "https://dc.lft.to/lastmile_qr_scan", "android": "https://dc.lft.to/lastmile_qr_scan"}, "is_reserved": 0, "lon": -77.00761266666666, "fusion_lat": 0.0, "name": "22c507adc3ddeb901051119a426fca56"}, {"type": "electric_scooter", "fusion_lon": 0.0, "bike_id": "2dfa3ab82f6bdcc2cbbb36162aec376a", "is_disabled": 0, "lat": 38.928974333333336, "rental_uris": {"ios": "https://dc.lft.to/lastmile_qr_scan", "android": "https://dc.lft.to/lastmile_qr_scan"}, "is_reserved": 0, "lon": -77.0580815, "fusion_lat": 0.0, "name": "2dfa3ab82f6bdcc2cbbb36162aec376a"}, {"type": "electric_scooter", "fusion_lon": 0.0, "bike_id": "0d3572d8974d89d1d8d631ee2a490851", "is_disabled": 0, "lat": 38.92462716666667, "rental_uris": {"ios": "https://dc.lft.to/lastmile_qr_scan", "android": "https://dc.lft.to/lastmile_qr_scan"}, "is_reserved": 0, "lon": -77.032925, "fusion_lat": 0.0, "name": "0d3572d8974d89d1d8d631ee2a490851"}, {"type": "electric_scooter", "fusion_lon": 0.0, "bike_id": "cbecc5e82aa4c51c9bee5ee00ad07fb2", "is_disabled": 0, "lat": 38.9086365, "rental_uris": {"ios": "https://dc.lft.to/lastmile_qr_scan", "android": "https://dc.lft.to/lastmile_qr_scan"}, "is_reserved": 0, "lon": -77.03502833333333, "fusion_lat": 0.0, "name": "cbecc5e82aa4c51c9bee5ee00ad07fb2"}, {"type": "electric_bike", "fusion_lon": 0.0, "bike_id": "2e58ecbbba2bd10246a3172f8d895f71", "is_disabled": 0, "lat": 38.831035, "rental_uris": {"ios": "https://dc.lft.to/lastmile_qr_scan", "android": "https://dc.lft.to/lastmile_qr_scan"}, "is_reserved": 0, "lon": -77.112901, "fusion_lat": 0.0, "name": "2e58ecbbba2bd10246a3172f8d895f71"}, {"type": "electric_scooter", "fusion_lon": 0.0, "bike_id": "ef66ddea441fb289fe80af4ac22a093d", "is_disabled": 0, "lat": 38.913394333333336, "rental_uris": {"ios": "https://dc.lft.to/lastmile_qr_scan", "android": "https://dc.lft.to/lastmile_qr_scan"}, "is_reserved": 0, "lon": -77.06322166666666, "fusion_lat": 0.0, "name": "ef66ddea441fb289fe80af4ac22a093d"}, {"type": "electric_bike", "fusion_lon": 0.0, "bike_id": "45e9382671fb3bee6606692bc280304c", "is_disabled": 0, "lat": 38.935813, "rental_uris": {"ios": "https://dc.lft.to/lastmile_qr_scan", "android": "https://dc.lft.to/lastmile_qr_scan"}, "is_reserved": 0, "lon": -77.03758983333333, "fusion_lat": 0.0, "name": "45e9382671fb3bee6606692bc280304c"}, {"type": "electric_scooter", "fusion_lon": 0.0, "bike_id": "c34f671b7d0ea4b6ba5726f3ab26807b", "is_disabled": 0, "lat": 38.909737666666665, "rental_uris": {"ios": "https://dc.lft.to/lastmile_qr_scan", "android": "https://dc.lft.to/lastmile_qr_scan"}, "is_reserved": 0, "lon": -77.038437, "fusion_lat": 0.0, "name": "c34f671b7d0ea4b6ba5726f3ab26807b"}, {"type": "electric_bike", "fusion_lon": 0.0, "bike_id": "372f1b724f9a839341fabea05f50f61b", "is_disabled": 0, "lat": 38.900091333333336, "rental_uris": {"ios": "https://dc.lft.to/lastmile_qr_scan", "android": "https://dc.lft.to/lastmile_qr_scan"}, "is_reserved": 0, "lon": -77.0054695, "fusion_lat": 0.0, "name": "372f1b724f9a839341fabea05f50f61b"}, {"type": "electric_scooter", "fusion_lon": 0.0, "bike_id": "e147cd4afdbced8d81b49cafaa9bf65a", "is_disabled": 0, "lat": 38.9032965, "rental_uris": {"ios": "https://dc.lft.to/lastmile_qr_scan", "android": "https://dc.lft.to/lastmile_qr_scan"}, "is_reserved": 0, "lon": -77.0492475, "fusion_lat": 0.0, "name": "e147cd4afdbced8d81b49cafaa9bf65a"}, {"type": "electric_scooter", "fusion_lon": 0.0, "bike_id": "09b57b173222f4bdc2e4460ded7867a4", "is_disabled": 0, "lat": 38.90776833333334, "rental_uris": {"ios": "https://dc.lft.to/lastmile_qr_scan", "android": "https://dc.lft.to/lastmile_qr_scan"}, "is_reserved": 0, "lon": -77.02977166666666, "fusion_lat": 0.0, "name": "09b57b173222f4bdc2e4460ded7867a4"}, {"type": "electric_scooter", "fusion_lon": 0.0, "bike_id": "f74a04e672e6560f14b612eaade43e56", "is_disabled": 0, "lat": 38.913475, "rental_uris": {"ios": "https://dc.lft.to/lastmile_qr_scan", "android": "https://dc.lft.to/lastmile_qr_scan"}, "is_reserved": 0, "lon": -77.02946866666667, "fusion_lat": 0.0, "name": "f74a04e672e6560f14b612eaade43e56"}, {"type": "electric_scooter", "fusion_lon": 0.0, "bike_id": "ccaf83541c8bfed3c53f24c59f3d9ed2", "is_disabled": 0, "lat": 38.924022666666666, "rental_uris": {"ios": "https://dc.lft.to/lastmile_qr_scan", "android": "https://dc.lft.to/lastmile_qr_scan"}, "is_reserved": 0, "lon": -77.02488966666667, "fusion_lat": 0.0, "name": "ccaf83541c8bfed3c53f24c59f3d9ed2"}, {"type": "electric_scooter", "fusion_lon": 0.0, "bike_id": "79aa7b537b339af6840eecb1cf2c1274", "is_disabled": 0, "lat": 38.899447333333335, "rental_uris": {"ios": "https://dc.lft.to/lastmile_qr_scan", "android": "https://dc.lft.to/lastmile_qr_scan"}, "is_reserved": 0, "lon": -77.045008, "fusion_lat": 0.0, "name": "79aa7b537b339af6840eecb1cf2c1274"}, {"type": "electric_bike", "fusion_lon": 0.0, "bike_id": "c070416823e2be72c09aea83375788f7", "is_disabled": 0, "lat": 38.8229535, "rental_uris": {"ios": "https://dc.lft.to/lastmile_qr_scan", "android": "https://dc.lft.to/lastmile_qr_scan"}, "is_reserved": 0, "lon": -77.081441, "fusion_lat": 0.0, "name": "c070416823e2be72c09aea83375788f7"}, {"type": "electric_scooter", "fusion_lon": 0.0, "bike_id": "bc8d18f1400545c7230b00a1839b6ed5", "is_disabled": 0, "lat": 38.892215666666665, "rental_uris": {"ios": "https://dc.lft.to/lastmile_qr_scan", "android": "https://dc.lft.to/lastmile_qr_scan"}, "is_reserved": 0, "lon": -77.044677, "fusion_lat": 0.0, "name": "bc8d18f1400545c7230b00a1839b6ed5"}, {"type": "electric_scooter", "fusion_lon": 0.0, "bike_id": "f3ebfcf927848dfe58c98c5c58f45604", "is_disabled": 0, "lat": 38.92063133333333, "rental_uris": {"ios": "https://dc.lft.to/lastmile_qr_scan", "android": "https://dc.lft.to/lastmile_qr_scan"}, "is_reserved": 0, "lon": -77.04253283333334, "fusion_lat": 0.0, "name": "f3ebfcf927848dfe58c98c5c58f45604"}, {"type": "electric_scooter", "fusion_lon": 0.0, "bike_id": "912cd965bbfa88cf2d62f29f2e857d22", "is_disabled": 0, "lat": 38.899601833333335, "rental_uris": {"ios": "https://dc.lft.to/lastmile_qr_scan", "android": "https://dc.lft.to/lastmile_qr_scan"}, "is_reserved": 0, "lon": -77.01581566666667, "fusion_lat": 0.0, "name": "912cd965bbfa88cf2d62f29f2e857d22"}, {"type": "electric_scooter", "fusion_lon": 0.0, "bike_id": "382e5dbb42c16efade7399fa9664d43d", "is_disabled": 0, "lat": 38.923853666666666, "rental_uris": {"ios": "https://dc.lft.to/lastmile_qr_scan", "android": "https://dc.lft.to/lastmile_qr_scan"}, "is_reserved": 0, "lon": -77.03642233333333, "fusion_lat": 0.0, "name": "382e5dbb42c16efade7399fa9664d43d"}, {"type": "electric_bike", "fusion_lon": 0.0, "bike_id": "4d84f330747fe90a6983f5f6d1b89f84", "is_disabled": 0, "lat": 38.966882166666664, "rental_uris": {"ios": "https://dc.lft.to/lastmile_qr_scan", "android": "https://dc.lft.to/lastmile_qr_scan"}, "is_reserved": 0, "lon": -77.02273966666667, "fusion_lat": 0.0, "name": "4d84f330747fe90a6983f5f6d1b89f84"}, {"type": "electric_scooter", "fusion_lon": 0.0, "bike_id": "95afd59b9fe223d59fac876f4c758306", "is_disabled": 0, "lat": 38.91940783333333, "rental_uris": {"ios": "https://dc.lft.to/lastmile_qr_scan", "android": "https://dc.lft.to/lastmile_qr_scan"}, "is_reserved": 0, "lon": -77.0488805, "fusion_lat": 0.0, "name": "95afd59b9fe223d59fac876f4c758306"}, {"type": "electric_scooter", "fusion_lon": 0.0, "bike_id": "5ca6b9cc60a547406c476a319dee53e3", "is_disabled": 0, "lat": 38.92572216666667, "rental_uris": {"ios": "https://dc.lft.to/lastmile_qr_scan", "android": "https://dc.lft.to/lastmile_qr_scan"}, "is_reserved": 0, "lon": -77.07880966666667, "fusion_lat": 0.0, "name": "5ca6b9cc60a547406c476a319dee53e3"}, {"type": "electric_bike", "fusion_lon": 0.0, "bike_id": "edc310dbde39dfd762185394e52b183d", "is_disabled": 0, "lat": 38.94035266666667, "rental_uris": {"ios": "https://dc.lft.to/lastmile_qr_scan", "android": "https://dc.lft.to/lastmile_qr_scan"}, "is_reserved": 0, "lon": -76.994707, "fusion_lat": 0.0, "name": "edc310dbde39dfd762185394e52b183d"}, {"type": "electric_scooter", "fusion_lon": 0.0, "bike_id": "f4168020a63de4c2d11d74831728d13f", "is_disabled": 0, "lat": 38.91933383333333, "rental_uris": {"ios": "https://dc.lft.to/lastmile_qr_scan", "android": "https://dc.lft.to/lastmile_qr_scan"}, "is_reserved": 0, "lon": -77.0247225, "fusion_lat": 0.0, "name": "f4168020a63de4c2d11d74831728d13f"}, {"type": "electric_scooter", "fusion_lon": 0.0, "bike_id": "3bd56f28559dccd918a0b8ea7cfe08f2", "is_disabled": 0, "lat": 38.93300383333333, "rental_uris": {"ios": "https://dc.lft.to/lastmile_qr_scan", "android": "https://dc.lft.to/lastmile_qr_scan"}, "is_reserved": 0, "lon": -77.07236966666666, "fusion_lat": 0.0, "name": "3bd56f28559dccd918a0b8ea7cfe08f2"}, {"type": "electric_scooter", "fusion_lon": 0.0, "bike_id": "d59609c82902458957b146b612a183d8", "is_disabled": 0, "lat": 38.9203445, "rental_uris": {"ios": "https://dc.lft.to/lastmile_qr_scan", "android": "https://dc.lft.to/lastmile_qr_scan"}, "is_reserved": 0, "lon": -77.0439515, "fusion_lat": 0.0, "name": "d59609c82902458957b146b612a183d8"}, {"type": "electric_scooter", "fusion_lon": 0.0, "bike_id": "30210e7474fcececd6370c7ef10a9b83", "is_disabled": 0, "lat": 38.892231833333334, "rental_uris": {"ios": "https://dc.lft.to/lastmile_qr_scan", "android": "https://dc.lft.to/lastmile_qr_scan"}, "is_reserved": 0, "lon": -77.0480715, "fusion_lat": 0.0, "name": "30210e7474fcececd6370c7ef10a9b83"}, {"type": "electric_scooter", "fusion_lon": 0.0, "bike_id": "168a8c015e1afc712334c90a9128f93d", "is_disabled": 0, "lat": 38.892665666666666, "rental_uris": {"ios": "https://dc.lft.to/lastmile_qr_scan", "android": "https://dc.lft.to/lastmile_qr_scan"}, "is_reserved": 0, "lon": -77.042069, "fusion_lat": 0.0, "name": "168a8c015e1afc712334c90a9128f93d"}, {"type": "electric_scooter", "fusion_lon": 0.0, "bike_id": "e8461adee5cace14d7f9ef6984b146fe", "is_disabled": 0, "lat": 38.893246833333336, "rental_uris": {"ios": "https://dc.lft.to/lastmile_qr_scan", "android": "https://dc.lft.to/lastmile_qr_scan"}, "is_reserved": 0, "lon": -77.03174466666667, "fusion_lat": 0.0, "name": "e8461adee5cace14d7f9ef6984b146fe"},