{"data": {"bikes": [{"fusion_lat": 0.0, "lat": 38.90285566666667, "rental_uris": {"ios": "https://dc.lft.to/lastmile_qr_scan", "android": "https://dc.lft.to/lastmile_qr_scan"}, "name": "251ca9bae8cd2a9b107195bd61d16159", "type": "electric_scooter", "fusion_lon": 0.0, "is_disabled": 0, "is_reserved": 0, "bike_id": "251ca9bae8cd2a9b107195bd61d16159", "lon": -77.04656366666667}, {"fusion_lat": 0.0, "lat": 38.89332433333333, "rental_uris": {"ios": "https://dc.lft.to/lastmile_qr_scan", "android": "https://dc.lft.to/lastmile_qr_scan"}, "name": "b16ba56fb0892a0a8019c5edd78e7780", "type": "electric_scooter", "fusion_lon": 0.0, "is_disabled": 0, "is_reserved": 0, "bike_id": "b16ba56fb0892a0a8019c5edd78e7780", "lon": -76.93929833333334}, {"fusion_lat": 0.0, "lat": 38.914229166666665, "rental_uris": {"ios": "https://dc.lft.to/lastmile_qr_scan", "android": "https://dc.lft.to/lastmile_qr_scan"}, "name": "5511bac012aa76984d5ee04c46233084", "type": "electric_scooter", "fusion_lon": 0.0, "is_disabled": 0, "is_reserved": 0, "bike_id": "5511bac012aa76984d5ee04c46233084", "lon": -77.03170833333333}, {"fusion_lat": 0.0, "lat": 38.88813966666667, "rental_uris": {"ios": "https://dc.lft.to/lastmile_qr_scan", "android": "https://dc.lft.to/lastmile_qr_scan"}, "name": "dcf99f5055424c9d55c2e12a691b23b3", "type": "electric_scooter", "fusion_lon": 0.0, "is_disabled": 0, "is_reserved": 0, "bike_id": "dcf99f5055424c9d55c2e12a691b23b3", "lon": -76.9835895}, {"fusion_lat": 0.0, "lat": 38.874763333333334, "rental_uris": {"ios": "https://dc.lft.to/lastmile_qr_scan", "android": "https://dc.lft.to/lastmile_qr_scan"}, "name": "490196994c2a7479a643754d350334c8", "type": "electric_scooter", "fusion_lon": 0.0, "is_disabled": 0, "is_reserved": 0, "bike_id": "490196994c2a7479a643754d350334c8", "lon": -77.00827883333334}, {"fusion_lat": 0.0, "lat": 38.91662566666667, "rental_uris": {"ios": "https://dc.lft.to/lastmile_qr_scan", "android": "https://dc.lft.to/lastmile_qr_scan"}, "name": "34633522e632d34a81332ed5ff89a9f8", "type": "electric_scooter", "fusion_lon": 0.0, "is_disabled": 0, "is_reserved": 0, "bike_id": "34633522e632d34a81332ed5ff89a9f8", "lon": -77.03188783333333}, {"fusion_lat": 0.0, "lat": 38.8969785, "rental_uris": {"ios": "https://dc.lft.to/lastmile_qr_scan", "android": "https://dc.lft.to/lastmile_qr_scan"}, "name": "1846589d8954b5bb0671685fadc01aba", "type": "electric_scooter", "fusion_lon": 0.0, "is_disabled": 0, "is_reserved": 0, "bike_id": "1846589d8954b5bb0671685fadc01aba", "lon": -77.016146}, {"fusion_lat": 0.0, "lat": 38.95356566666667, "rental_uris": {"ios": "https://dc.lft.to/lastmile_qr_scan", "android": "https://dc.lft.to/lastmile_qr_scan"}, "name": "be756a596297cbde74a87cf118ad6bca", "type": "electric_bike", "fusion_lon": 0.0, "is_disabled": 0, "is_reserved": 0, "bike_id": "be756a596297cbde74a87cf118ad6bca", "lon": -76.98088583333333}, {"fusion_lat": 0.0, "lat": 38.90808616666666, "rental_uris": {"ios": "https://dc.lft.to/lastmile_qr_scan", "android": "https://dc.lft.to/lastmile_qr_scan"}, "name": "48b62c50224f1cd26ca7850adfd61fd1", "type": "electric_scooter", "fusion_lon": 0.0, "is_disabled": 0, "is_reserved": 0, "bike_id": "48b62c50224f1cd26ca7850adfd61fd1", "lon": -77.00615816666667}, {"fusion_lat": 0.0, "lat": 38.9059405, "rental_uris": {"ios": "https://dc.lft.to/lastmile_qr_scan", "android": "https://dc.lft.to/lastmile_qr_scan"}, "name": "17bc863c241c265f8ff6a2565e5161ad", "type": "electric_bike", "fusion_lon": 0.0, "is_disabled": 0, "is_reserved": 0, "bike_id": "17bc863c241c265f8ff6a2565e5161ad", "lon": -77.04346283333334}, {"fusion_lat": 0.0, "lat": 38.8812965, "rental_uris": {"ios": "https://dc.lft.to/lastmile_qr_scan", "android": "https://dc.lft.to/lastmile_qr_scan"}, "name": "3fe53337547874c817e1ebeb76603c5b", "type": "electric_scooter", "fusion_lon": 0.0, "is_disabled": 0, "is_reserved": 0, "bike_id": "3fe53337547874c817e1ebeb76603c5b", "lon": -77.02712583333333}, {"fusion_lat": 0.0, "lat": 38.857204333333335, "rental_uris": {"ios": "https://dc.lft.to/lastmile_qr_scan", "android": "https://dc.lft.to/lastmile_qr_scan"}, "name": "ff0f74383ef3462513a615d09c7cefb9", "type": "electric_scooter", "fusion_lon": 0.0, "is_disabled": 0, "is_reserved": 0, "bike_id": "ff0f74383ef3462513a615d09c7cefb9", "lon": -76.980985}, {"fusion_lat": 0.0, "lat": 38.9023515, "rental_uris": {"ios": "https://dc.lft.to/lastmile_qr_scan", "android": "https://dc.lft.to/lastmile_qr_scan"}, "name": "b26bd99fcec68acbe2a853e29a913ecf", "type": "electric_scooter", "fusion_lon": 0.0, "is_disabled": 0, "is_reserved": 0, "bike_id": "b26bd99fcec68acbe2a853e29a913ecf", "lon": -77.00199283333333}, {"fusion_lat": 0.0, "lat": 38.927253, "rental_uris": {"ios": "https://dc.lft.to/lastmile_qr_scan", "android": "https://dc.lft.to/lastmile_qr_scan"}, "name": "bffbe5c51dd6387f2144b51186ce3915", "type": "electric_scooter", "fusion_lon": 0.0, "is_disabled": 0, "is_reserved": 0, "bike_id": "bffbe5c51dd6387f2144b51186ce3915", "lon": -77.02319066666666}, {"fusion_lat": 0.0, "lat": 38.9033855, "rental_uris": {"ios": "https://dc.lft.to/lastmile_qr_scan", "android": "https://dc.lft.to/lastmile_qr_scan"}, "name": "3e208dcb95b8604bc14f7c54c4b0de5a", "type": "electric_scooter", "fusion_lon": 0.0, "is_disabled": 0, "is_reserved": 0, "bike_id": "3e208dcb95b8604bc14f7c54c4b0de5a", "lon": -77.020105}, {"fusion_lat": 0.0, "lat": 38.907232, "rental_uris": {"ios": "https://dc.lft.to/lastmile_qr_scan", "android": "https://dc.lft.to/lastmile_qr_scan"}, "name": "2c48eeba38977cf628fb1da0505959b2", "type": "electric_scooter", "fusion_lon": 0.0, "is_disabled": 0, "is_reserved": 0, "bike_id": "2c48eeba38977cf628fb1da0505959b2", "lon": -77.042787}, {"fusion_lat": 0.0, "lat": 38.9083945, "rental_uris": {"ios": "https://dc.lft.to/lastmile_qr_scan", "android": "https://dc.lft.to/lastmile_qr_scan"}, "name": "13b5d3ced37fdf8f2e28121765126cab", "type": "electric_scooter", "fusion_lon": 0.0, "is_disabled": 0, "is_reserved": 0, "bike_id": "13b5d3ced37fdf8f2e28121765126cab", "lon": -77.04348133333333}, {"fusion_lat": 0.0, "lat": 38.9260605, "rental_uris": {"ios": "https://dc.lft.to/lastmile_qr_scan", "android": "https://dc.lft.to/lastmile_qr_scan"}, "name": "c958a416bb9378ad6384f6088dee8156", "type": "electric_scooter", "fusion_lon": 0.0, "is_disabled": 0, "is_reserved": 0, "bike_id": "c958a416bb9378ad6384f6088dee8156", "lon": -77.02592883333334}, {"fusion_lat": 0.0, "lat": 38.87846366666667, "rental_uris": {"ios": "https://dc.lft.to/lastmile_qr_scan", "android": "https://dc.lft.to/lastmile_qr_scan"}, "name": "b0d23d1cc3b7e0ce958b2591f83cf533", "type": "electric_scooter", "fusion_lon": 0.0, "is_disabled": 0, "is_reserved": 0, "bike_id": "b0d23d1cc3b7e0ce958b2591f83cf533", "lon": -77.0227115}, {"fusion_lat": 0.0, "lat": 38.92857266666667, "rental_uris": {"ios": "https://dc.lft.to/lastmile_qr_scan", "android": "https://dc.lft.to/lastmile_qr_scan"}, "name": "f760dc7d4f77dc3122d7e391c138b965", "type": "electric_scooter", "fusion_lon": 0.0, "is_disabled": 0, "is_reserved": 0, "bike_id": "f760dc7d4f77dc3122d7e391c138b965", "lon": -77.0332095}, {"fusion_lat": 0.0, "lat": 38.879559, "rental_uris": {"ios": "https://dc.lft.to/lastmile_qr_scan", "android": "https://dc.lft.to/lastmile_qr_scan"}, "name": "d3cf0fe7e50d66bb23fa319729829606", "type": "electric_scooter", "fusion_lon": 0.0, "is_disabled": 0, "is_reserved": 0, "bike_id": "d3cf0fe7e50d66bb23fa319729829606", "lon": -76.98378883333334}, {"fusion_lat": 0.0, "lat": 38.901927666666666, "rental_uris": {"ios": "https://dc.lft.to/lastmile_qr_scan", "android": "https://dc.lft.to/lastmile_qr_scan"}, "name": "f428eb6bb4c40881457d7d7db63bea7b", "type": "electric_scooter", "fusion_lon": 0.0, "is_disabled": 0, "is_reserved": 0, "bike_id": "f428eb6bb4c40881457d7d7db63bea7b", "lon": -76.92891933333334}, {"fusion_lat": 0.0, "lat": 38.90237, "rental_uris": {"ios": "https://dc.lft.to/lastmile_qr_scan", "android": "https://dc.lft.to/lastmile_qr_scan"}, "name": "6cc0426b3560d9d281ef273715c2e1fb", "type": "electric_scooter", "fusion_lon": 0.0, "is_disabled": 0, "is_reserved": 0, "bike_id": "6cc0426b3560d9d281ef273715c2e1fb", "lon": -77.00202883333333}, {"fusion_lat": 0.0, "lat": 38.877567666666664, "rental_uris": {"ios": "https://dc.lft.to/lastmile_qr_scan", "android": "https://dc.lft.to/lastmile_qr_scan"}, "name": "9fd5ee1ce56d1887bf451a7f68b732ca", "type": "electric_bike", "fusion_lon": 0.0, "is_disabled": 0, "is_reserved": 0, "bike_id": "9fd5ee1ce56d1887bf451a7f68b732ca", "lon": -77.00002066666667}, {"fusion_lat": 0.0, "lat": 38.88749983333334, "rental_uris": {"ios": "https://dc.lft.to/lastmile_qr_scan", "android": "https://dc.lft.to/lastmile_qr_scan"}, "name": "5042ad5136682be9648414f4c01ac579", "type": "electric_scooter", "fusion_lon": 0.0, "is_disabled": 0, "is_reserved": 0, "bike_id": "5042ad5136682be9648414f4c01ac579", "lon": -77.01799783333334}, {"fusion_lat": 0.0, "lat": 38.88269833333333, "rental_uris": {"ios": "https://dc.lft.to/lastmile_qr_scan", "android": "https://dc.lft.to/lastmile_qr_scan"}, "name": "acaeea2ffab2171a73f95b55a827c507", "type": "electric_scooter", "fusion_lon": 0.0, "is_disabled": 0, "is_reserved": 0, "bike_id": "acaeea2ffab2171a73f95b55a827c507", "lon": -76.994825}, {"fusion_lat": 0.0, "lat": 38.91774183333333, "rental_uris": {"ios": "https://dc.lft.to/lastmile_qr_scan", "android": "https://dc.lft.to/lastmile_qr_scan"}, "name": "d2cf79310ad00b8e7398734fa6f8cef5", "type": "electric_scooter", "fusion_lon": 0.0, "is_disabled": 0, "is_reserved": 0, "bike_id": "d2cf79310ad00b8e7398734fa6f8cef5", "lon": -77.04106283333333}, {"fusion_lat": 0.0, "lat": 38.892255666666664, "rental_uris": {"ios": "https://dc.lft.to/lastmile_qr_scan", "android": "https://dc.lft.to/lastmile_qr_scan"}, "name": "2874eeef4d13c35351774c18d02c6263", "type": "electric_scooter", "fusion_lon": 0.0, "is_disabled": 0, "is_reserved": 0, "bike_id": "2874eeef4d13c35351774c18d02c6263", "lon": -77.0480635}, {"fusion_lat": 0.0, "lat": 38.9111895, "rental_uris": {"ios": "https://dc.lft.to/lastmile_qr_scan", "android": "https://dc.lft.to/lastmile_qr_scan"}, "name": "3367ec9d883eea7884e6a17f24ab173e", "type": "electric_scooter", "fusion_lon": 0.0, "is_disabled": 0, "is_reserved": 0, "bike_id": "3367ec9d883eea7884e6a17f24ab173e", "lon": -77.03149133333334}, {"fusion_lat": 0.0, "lat": 38.924973, "rental_uris": {"ios": "https://dc.lft.to/lastmile_qr_scan", "android": "https://dc.lft.to/lastmile_qr_scan"}, "name": "83e56183ead5aae7e599cb3547e483a3", "type": "electric_scooter", "fusion_lon": 0.0, "is_disabled": 0, "is_reserved": 0, "bike_id": "83e56183ead5aae7e599cb3547e483a3", "lon": -77.0252705}, {"fusion_lat": 0.0, "lat": 38.898395, "rental_uris": {"ios": "https://dc.lft.to/lastmile_qr_scan", "android": "https://dc.lft.to/lastmile_qr_scan"}, "name": "328e91d9237d873ef7420bb83284e6f8", "type": "electric_scooter", "fusion_lon": 0.0, "is_disabled": 0, "is_reserved": 0, "bike_id": "328e91d9237d873ef7420bb83284e6f8", "lon": -77.012745}, {"fusion_lat": 0.0, "lat": 38.92814083333333, "rental_uris": {"ios": "https://dc.lft.to/lastmile_qr_scan", "android": "https://dc.lft.to/lastmile_qr_scan"}, "name": "3261ccaca3caf77fdd080737b9d59458", "type": "electric_scooter", "fusion_lon": 0.0, "is_disabled": 0, "is_reserved": 0, "bike_id": "3261ccaca3caf77fdd080737b9d59458", "lon": -77.03243166666667}, {"fusion_lat": 0.0, "lat": 38.90990333333333, "rental_uris": {"ios": "https://dc.lft.to/lastmile_qr_scan", "android": "https://dc.lft.to/lastmile_qr_scan"}, "name": "bb17b4060507d23033fd90b37b2b63af", "type": "electric_scooter", "fusion_lon": 0.0, "is_disabled": 0, "is_reserved": 0, "bike_id": "bb17b4060507d23033fd90b37b2b63af", "lon": -77.00499283333333}, {"fusion_lat": 0.0, "lat": 38.9444245, "rental_uris": {"ios": "https://dc.lft.to/lastmile_qr_scan", "android": "https://dc.lft.to/lastmile_qr_scan"}, "name": "3af49516c652aefd92978b6a714e9209", "type": "electric_scooter", "fusion_lon": 0.0, "is_disabled": 0, "is_reserved": 0, "bike_id": "3af49516c652aefd92978b6a714e9209", "lon": -77.06406216666667}, {"fusion_lat": 0.0, "lat": 38.908768, "rental_uris": {"ios": "https://dc.lft.to/lastmile_qr_scan", "android": "https://dc.lft.to/lastmile_qr_scan"}, "name": "7d04479f50a7f604320621842df2d558", "type": "electric_scooter", "fusion_lon": 0.0, "is_disabled": 0, "is_reserved": 0, "bike_id": "7d04479f50a7f604320621842df2d558", "lon": -77.04418716666666}, {"fusion_lat": 0.0, "lat": 38.911113666666665, "rental_uris": {"ios": "https://dc.lft.to/lastmile_qr_scan", "android": "https://dc.lft.to/lastmile_qr_scan"}, "name": "ee5688ce006b21736c8a2ff1fa66f860", "type": "electric_scooter", "fusion_lon": 0.0, "is_disabled": 0, "is_reserved": 0, "bike_id": "ee5688ce006b21736c8a2ff1fa66f860", "lon": -77.038335}, {"fusion_lat": 0.0, "lat": 38.88665616666667, "rental_uris": {"ios": "https://dc.lft.to/lastmile_qr_scan", "android": "https://dc.lft.to/lastmile_qr_scan"}, "name": "305a3e90f4b9e4dacaa2ca859e2e705d", "type": "electric_scooter", "fusion_lon": 0.0, "is_disabled": 0, "is_reserved": 0, "bike_id": "305a3e90f4b9e4dacaa2ca859e2e705d", "lon": -76.951947}, {"fusion_lat": 0.0, "lat": 38.89848533333333, "rental_uris": {"ios": "https://dc.lft.to/lastmile_qr_scan", "android": "https://dc.lft.to/lastmile_qr_scan"}, "name": "080f6773a4ae27f92342b3ccd3f43fc7", "type": "electric_scooter", "fusion_lon": 0.0, "is_disabled": 0, "is_reserved": 0, "bike_id": "080f6773a4ae27f92342b3ccd3f43fc7", "lon": -77.01885116666666}, {"fusion_lat": 0.0, "lat": 38.916312833333336, "rental_uris": {"ios": "https://dc.lft.to/lastmile_qr_scan", "android": "https://dc.lft.to/lastmile_qr_scan"}, "name": "48980ff44233f1b2b9cdeb87f4eab1ad", "type": "electric_scooter", "fusion_lon": 0.0, "is_disabled": 0, "is_reserved": 0, "bike_id": "48980ff44233f1b2b9cdeb87f4eab1ad", "lon": -77.0317995}, {"fusion_lat": 0.0, "lat": 38.87682433333333, "rental_uris": {"ios": "https://dc.lft.to/lastmile_qr_scan", "android": "https://dc.lft.to/lastmile_qr_scan"}, "name": "8fec7b18ae1e63c27f4da5ec22d80d19", "type": "electric_scooter", "fusion_lon": 0.0, "is_disabled": 0, "is_reserved": 0, "bike_id": "8fec7b18ae1e63c27f4da5ec22d80d19", "lon": -77.01785783333334}, {"fusion_lat": 0.0, "lat": 38.8816405, "rental_uris": {"ios": "https://dc.lft.to/lastmile_qr_scan", "android": "https://dc.lft.to/lastmile_qr_scan"}, "name": "39a6e11335b3d3855cd0d2afcd7234cd", "type": "electric_scooter", "fusion_lon": 0.0, "is_disabled": 0, "is_reserved": 0, "bike_id": "39a6e11335b3d3855cd0d2afcd7234cd", "lon": -77.02765566666666}, {"fusion_lat": 0.0, "lat": 38.902310166666666, "rental_uris": {"ios": "https://dc.lft.to/lastmile_qr_scan", "android": "https://dc.lft.to/lastmile_qr_scan"}, "name": "70b5a181f3283154e423d3acaf3220d0", "type": "electric_scooter", "fusion_lon": 0.0, "is_disabled": 0, "is_reserved": 0, "bike_id": "70b5a181f3283154e423d3acaf3220d0", "lon": -77.03953783333333}, {"fusion_lat": 0.0, "lat": 38.91682733333333, "rental_uris": {"ios": "https://dc.lft.to/lastmile_qr_scan", "android": "https://dc.lft.to/lastmile_qr_scan"}, "name": "6fe69a2a03bacf106bbb33ec5d072297", "type": "electric_scooter", "fusion_lon": 0.0, "is_disabled": 0, "is_reserved": 0, "bike_id": "6fe69a2a03bacf106bbb33ec5d072297", "lon": -77.02968966666667}, {"fusion_lat": 0.0, "lat": 38.91859766666666, "rental_uris": {"ios": "https://dc.lft.to/lastmile_qr_scan", "android": "https://dc.lft.to/lastmile_qr_scan"}, "name": "d549e5e419e778219b335a40e2bfa360", "type": "electric_scooter", "fusion_lon": 0.0, "is_disabled": 0, "is_reserved": 0, "bike_id": "d549e5e419e778219b335a40e2bfa360", "lon": -77.04178916666666}, {"fusion_lat": 0.0, "lat": 38.923718, "rental_uris": {"ios": "https://dc.lft.to/lastmile_qr_scan", "android": "https://dc.lft.to/lastmile_qr_scan"}, "name": "ead35c2bac50e4b70bb24ac8443e7bc4", "type": "electric_scooter", "fusion_lon": 0.0, "is_disabled": 0, "is_reserved": 0, "bike_id": "ead35c2bac50e4b70bb24ac8443e7bc4", "lon": -77.019028}, {"fusion_lat": 0.0, "lat": 38.923670666666666, "rental_uris": {"ios": "https://dc.lft.to/lastmile_qr_scan", "android": "https://dc.lft.to/lastmile_qr_scan"}, "name": "498678756ab8e25d554e3fea7a8f8065", "type": "electric_scooter", "fusion_lon": 0.0, "is_disabled": 0, "is_reserved": 0, "bike_id": "498678756ab8e25d554e3fea7a8f8065", "lon": -77.05026033333333}, {"fusion_lat": 0.0, "lat": 38.94482383333333, "rental_uris": {"ios": "https://dc.lft.to/lastmile_qr_scan", "android": "https://dc.lft.to/lastmile_qr_scan"}, "name": "7751b6b2eb16fe2e3185aaf898b988ee", "type": "electric_scooter", "fusion_lon": 0.0, "is_disabled": 0, "is_reserved": 0, "bike_id": "7751b6b2eb16fe2e3185aaf898b988ee", "lon": -77.06397516666667}, {"fusion_lat": 0.0, "lat": 38.92212766666667, "rental_uris": {"ios": "https://dc.lft.to/lastmile_qr_scan", "android": "https://dc.lft.to/lastmile_qr_scan"}, "name": "f6625bdf6cfe79a9ddc947048961a80c", "type": "electric_scooter", "fusion_lon": 0.0, "is_disabled": 0, "is_reserved": 0, "bike_id": "f6625bdf6cfe79a9ddc947048961a80c", "lon": -77.036573}, {"fusion_lat": 0.0, "lat": 38.896074166666665, "rental_uris": {"ios": "https://dc.lft.to/lastmile_qr_scan", "android": "https://dc.lft.to/lastmile_qr_scan"}, "name": "b706cf1c9af09cc90f2db7469b23ae78", "type": "electric_scooter", "fusion_lon": 0.0, "is_disabled": 0, "is_reserved": 0, "bike_id": "b706cf1c9af09cc90f2db7469b23ae78", "lon": -77.01488133333334}, {"fusion_lat": 0.0, "lat": 39.003866333333335, "rental_uris": {"ios": "https://dc.lft.to/lastmile_qr_scan", "android": "https://dc.lft.to/lastmile_qr_scan"}, "name": "77d9258b9b9ef944e44ff8181de3077e", "type": "electric_bike", "fusion_lon": 0.0, "is_disabled": 0, "is_reserved": 0, "bike_id": "77d9258b9b9ef944e44ff8181de3077e", "lon": -77.01283433333333}, {"fusion_lat": 0.0, "lat": 38.898601666666664, "rental_uris": {"ios": "https://dc.lft.to/lastmile_qr_scan", "android": "https://dc.lft.to/lastmile_qr_scan"}, "name": "3e7fd6c474cffbb07515935eaee5ef25", "type": "electric_scooter", "fusion_lon": 0.0, "is_disabled": 0, "is_reserved": 0, "bike_id": "3e7fd6c474cffbb07515935eaee5ef25", "lon": -77.028734}, {"fusion_lat": 0.0, "lat": 38.8847465, "rental_uris": {"ios": "https://dc.lft.to/lastmile_qr_scan", "android": "https://dc.lft.to/lastmile_qr_scan"}, "name": "b9aa15271b7ed8c99d458e17cb74d63b", "type": "electric_scooter", "fusion_lon": 0.0, "is_disabled": 0, "is_reserved": 0, "bike_id": "b9aa15271b7ed8c99d458e17cb74d63b", "lon": -77.015203}, {"fusion_lat": 0.0, "lat": 38.9352695, "rental_uris": {"ios": "https://dc.lft.to/lastmile_qr_scan", "android": "https://dc.lft.to/lastmile_qr_scan"}, "name": "fc49c0e2d36c7723dc4e4d22e02b7366", "type": "electric_scooter", "fusion_lon": 0.0, "is_disabled": 0, "is_reserved": 0, "bike_id": "fc49c0e2d36c7723dc4e4d22e02b7366", "lon": -77.07294683333333}, {"fusion_lat": 0.0, "lat": 38.919344, "rental_uris": {"ios": "https://dc.lft.to/lastmile_qr_scan", "android": "https://dc.lft.to/lastmile_qr_scan"}, "name": "714e56bdad013003dbcc2e353b87c917", "type": "electric_scooter", "fusion_lon": 0.0, "is_disabled": 0, "is_reserved": 0, "bike_id": "714e56bdad013003dbcc2e353b87c917", "lon": -77.02067033333333}, {"fusion_lat": 0.0, "lat": 39.0122885, "rental_uris": {"ios": "https://dc.lft.to/lastmile_qr_scan", "android": "https://dc.lft.to/lastmile_qr_scan"}, "name": "963512fbc5809b1cb9f5b6829c1c50ae", "type": "electric_bike", "fusion_lon": 0.0, "is_disabled": 0, "is_reserved": 0, "bike_id": "963512fbc5809b1cb9f5b6829c1c50ae", "lon": -77.11084516666666}, {"fusion_lat": 0.0, "lat": 38.9127685, "rental_uris": {"ios": "https://dc.lft.to/lastmile_qr_scan", "android": "https://dc.lft.to/lastmile_qr_scan"}, "name": "29901aa356cd39815ae6d34597e4074b", "type": "electric_scooter", "fusion_lon": 0.0, "is_disabled": 0, "is_reserved": 0, "bike_id": "29901aa356cd39815ae6d34597e4074b", "lon": -76.98471683333334}, {"fusion_lat": 0.0, "lat": 38.91339716666667, "rental_uris": {"ios": "https://dc.lft.to/lastmile_qr_scan", "android": "https://dc.lft.to/lastmile_qr_scan"}, "name": "3eefedda371a7e8d2a56080f7059de08", "type": "electric_scooter", "fusion_lon": 0.0, "is_disabled": 0, "is_reserved": 0, "bike_id": "3eefedda371a7e8d2a56080f7059de08", "lon": -77.03710316666667}, {"fusion_lat": 0.0, "lat": 38.94604433333333, "rental_uris": {"ios": "https://dc.lft.to/lastmile_qr_scan", "android": "https://dc.lft.to/lastmile_qr_scan"}, "name": "8e96bdc6e32790cb81cfee7b682c4216", "type": "electric_scooter", "fusion_lon": 0.0, "is_disabled": 0, "is_reserved": 0, "bike_id": "8e96bdc6e32790cb81cfee7b682c4216", "lon": -77.09633533333333}, {"fusion_lat": 0.0, "lat": 38.92399483333333, "rental_uris": {"ios": "https://dc.lft.to/lastmile_qr_scan", "android": "https://dc.lft.to/lastmile_qr_scan"}, "name": "6ff642d3ecaf20c86c993c7af75d4fe2", "type": "electric_scooter", "fusion_lon": 0.0, "is_disabled": 0, "is_reserved": 0, "bike_id": "6ff642d3ecaf20c86c993c7af75d4fe2", "lon": -77.02553316666666}, {"fusion_lat": 0.0, "lat": 38.91704583333333, "rental_uris": {"ios": "https://dc.lft.to/lastmile_qr_scan", "android": "https://dc.lft.to/lastmile_qr_scan"}, "name": "2c8f1f6a857fa211497ff46a857244d0", "type": "electric_scooter", "fusion_lon": 0.0, "is_disabled": 0, "is_reserved": 0, "bike_id": "2c8f1f6a857fa211497ff46a857244d0", "lon": -77.03177033333333}, {"fusion_lat": 0.0, "lat": 38.929184666666664, "rental_uris": {"ios": "https://dc.lft.to/lastmile_qr_scan", "android": "https://dc.lft.to/lastmile_qr_scan"}, "name": "00cebba14291a798eb4fe47ff718dddf", "type": "electric_scooter", "fusion_lon": 0.0, "is_disabled": 0, "is_reserved": 0, "bike_id": "00cebba14291a798eb4fe47ff718dddf", "lon": -77.020403}, {"fusion_lat": 0.0, "lat": 38.9247115, "rental_uris": {"ios": "https://dc.lft.to/lastmile_qr_scan", "android": "https://dc.lft.to/lastmile_qr_scan"}, "name": "7a772e16d85c0e6feae83623231930d3", "type": "electric_scooter", "fusion_lon": 0.0, "is_disabled": 0, "is_reserved": 0, "bike_id": "7a772e16d85c0e6feae83623231930d3", "lon": -77.02200833333333}, {"fusion_lat": 0.0, "lat": 38.90567183333334, "rental_uris": {"ios": "https://dc.lft.to/lastmile_qr_scan", "android": "https://dc.lft.to/lastmile_qr_scan"}, "name": "fa3c102a9ebf5dbd275b80ff21d756ab", "type": "electric_scooter", "fusion_lon": 0.0, "is_disabled": 0, "is_reserved": 0, "bike_id": "fa3c102a9ebf5dbd275b80ff21d756ab", "lon": -77.04023483333333}, {"fusion_lat": 0.0, "lat": 38.923597, "rental_uris": {"ios": "https://dc.lft.to/lastmile_qr_scan", "android": "https://dc.lft.to/lastmile_qr_scan"}, "name": "890a9610d76ddc2a8cf98729983b4afc", "type": "electric_scooter", "fusion_lon": 0.0, "is_disabled": 0, "is_reserved": 0, "bike_id": "890a9610d76ddc2a8cf98729983b4afc", "lon": -77.05123533333334}, {"fusion_lat": 0.0, "lat": 38.92286516666667, "rental_uris": {"ios": "https://dc.lft.to/lastmile_qr_scan", "android": "https://dc.lft.to/lastmile_qr_scan"}, "name": "eb62b0310275fd930dfc42e0e46c73ab", "type": "electric_scooter", "fusion_lon": 0.0, "is_disabled": 0, "is_reserved": 0, "bike_id": "eb62b0310275fd930dfc42e0e46c73ab", "lon": -76.99385766666667}, {"fusion_lat": 0.0, "lat": 38.89845416666667, "rental_uris": {"ios": "https://dc.lft.to/lastmile_qr_scan", "android": "https://dc.lft.to/lastmile_qr_scan"}, "name": "58eda745bffe18b5dd30deeeee4e34bd", "type": "electric_scooter", "fusion_lon": 0.0, "is_disabled": 0, "is_reserved": 0, "bike_id": "58eda745bffe18b5dd30deeeee4e34bd", "lon": -77.01338066666666}, {"fusion_lat": 0.0, "lat": 38.884312333333334, "rental_uris": {"ios": "https://dc.lft.to/lastmile_qr_scan", "android": "https://dc.lft.to/lastmile_qr_scan"}, "name": "770e4e0e0aa356d9a71b4de339dc5e9b", "type": "electric_scooter", "fusion_lon": 0.0, "is_disabled": 0, "is_reserved": 0, "bike_id": "770e4e0e0aa356d9a71b4de339dc5e9b", "lon": -76.957523}, {"fusion_lat": 0.0, "lat": 38.9105765, "rental_uris": {"ios": "https://dc.lft.to/lastmile_qr_scan", "android": "https://dc.lft.to/lastmile_qr_scan"}, "name": "cc4a6268511294679f6f0bf2c6b2e792", "type": "electric_scooter", "fusion_lon": 0.0, "is_disabled": 0, "is_reserved": 0, "bike_id": "cc4a6268511294679f6f0bf2c6b2e792", "lon": -77.05393816666667}, {"fusion_lat": 0.0, "lat": 38.886052666666664, "rental_uris": {"ios": "https://dc.lft.to/lastmile_qr_scan", "android": "https://dc.lft.to/lastmile_qr_scan"}, "name": "6fe6a9fdd8efefb5349056a16189ba39", "type": "electric_scooter", "fusion_lon": 0.0, "is_disabled": 0, "is_reserved": 0, "bike_id": "6fe6a9fdd8efefb5349056a16189ba39", "lon": -76.990128}, {"fusion_lat": 0.0, "lat": 38.9593655, "rental_uris": {"ios": "https://dc.lft.to/lastmile_qr_scan", "android": "https://dc.lft.to/lastmile_qr_scan"}, "name": "6328075ea5fbb110e189e626c21685fb", "type": "electric_scooter", "fusion_lon": 0.0, "is_disabled": 0, "is_reserved": 0, "bike_id": "6328075ea5fbb110e189e626c21685fb", "lon": -77.03115083333333}, {"fusion_lat": 0.0, "lat": 38.92113, "rental_uris": {"ios": "https://dc.lft.to/lastmile_qr_scan", "android": "https://dc.lft.to/lastmile_qr_scan"}, "name": "bac30ce111a9143129255faaac8714ef", "type": "electric_scooter", "fusion_lon": 0.0, "is_disabled": 0, "is_reserved": 0, "bike_id": "bac30ce111a9143129255faaac8714ef", "lon": -77.02503933333334}, {"fusion_lat": 0.0, "lat": 38.90993566666667, "rental_uris": {"ios": "https://dc.lft.to/lastmile_qr_scan", "android": "https://dc.lft.to/lastmile_qr_scan"}, "name": "1501f8a65bceb2146dfec30fae9a16cc", "type": "electric_scooter", "fusion_lon": 0.0, "is_disabled": 0, "is_reserved": 0, "bike_id": "1501f8a65bceb2146dfec30fae9a16cc", "lon": -77.04659766666667}, {"fusion_lat": 0.0, "lat": 38.914246166666665, "rental_uris": {"ios": "https://dc.lft.to/lastmile_qr_scan", "android": "https://dc.lft.to/lastmile_qr_scan"}, "name": "243b23ac9c0b9fdfc4282369dc47bc5f", "type": "electric_scooter", "fusion_lon": 0.0, "is_disabled": 0, "is_reserved": 0, "bike_id": "243b23ac9c0b9fdfc4282369dc47bc5f", "lon": -77.03208966666666}, {"fusion_lat": 0.0, "lat": 38.8450965, "rental_uris": {"ios": "https://dc.lft.to/lastmile_qr_scan", "android": "https://dc.lft.to/lastmile_qr_scan"}, "name": "eb2aadc00d4044a100c0e790084a1fda", "type": "electric_bike", "fusion_lon": 0.0, "is_disabled": 0, "is_reserved": 0, "bike_id": "eb2aadc00d4044a100c0e790084a1fda", "lon": -76.9935275}, {"fusion_lat": 0.0, "lat": 38.90254616666667, "rental_uris": {"ios": "https://dc.lft.to/lastmile_qr_scan", "android": "https://dc.lft.to/lastmile_qr_scan"}, "name": "78f7c15ab68809f92338fa822806031b", "type": "electric_scooter", "fusion_lon": 0.0, "is_disabled": 0, "is_reserved": 0, "bike_id": "78f7c15ab68809f92338fa822806031b", "lon": -77.016325}, {"fusion_lat": 0.0, "lat": 38.91939633333333, "rental_uris": {"ios": "https://dc.lft.to/lastmile_qr_scan", "android": "https://dc.lft.to/lastmile_qr_scan"}, "name": "073bd17626f96fdda9ec0984f4e32075", "type": "electric_scooter", "fusion_lon": 0.0, "is_disabled": 0, "is_reserved": 0, "bike_id": "073bd17626f96fdda9ec0984f4e32075", "lon": -77.0237895}, {"fusion_lat": 0.0, "lat": 38.984628, "rental_uris": {"ios": "https://dc.lft.to/lastmile_qr_scan", "android": "https://dc.lft.to/lastmile_qr_scan"}, "name": "da837782eacdae78b614ce44c1f227aa", "type": "electric_bike", "fusion_lon": 0.0, "is_disabled": 0, "is_reserved": 0, "bike_id": "da837782eacdae78b614ce44c1f227aa", "lon": -76.9705545}, {"fusion_lat": 0.0, "lat": 38.88257816666667, "rental_uris": {"ios": "https://dc.lft.to/lastmile_qr_scan", "android": "https://dc.lft.to/lastmile_qr_scan"}, "name": "0124d837c0f2af6ebc7272da25816a81", "type": "electric_bike", "fusion_lon": 0.0, "is_disabled": 0, "is_reserved": 0, "bike_id": "0124d837c0f2af6ebc7272da25816a81", "lon": -76.910362}, {"fusion_lat": 0.0, "lat": 38.93989083333334, "rental_uris": {"ios": "https://dc.lft.to/lastmile_qr_scan", "android": "https://dc.lft.to/lastmile_qr_scan"}, "name": "8fe32db1e83608cd485c1bf9230bc6fc", "type": "electric_scooter", "fusion_lon": 0.0, "is_disabled": 0, "is_reserved": 0, "bike_id": "8fe32db1e83608cd485c1bf9230bc6fc", "lon": -77.03266133333334}, {"fusion_lat": 0.0, "lat": 38.922528166666666, "rental_uris": {"ios": "https://dc.lft.to/lastmile_qr_scan", "android": "https://dc.lft.to/lastmile_qr_scan"}, "name": "159a34422552e8bd282ddbfe387f3c0a", "type": "electric_scooter", "fusion_lon": 0.0, "is_disabled": 0, "is_reserved": 0, "bike_id": "159a34422552e8bd282ddbfe387f3c0a", "lon": -77.02100533333333}, {"fusion_lat": 0.0, "lat": 38.89134133333334, "rental_uris": {"ios": "https://dc.lft.to/lastmile_qr_scan", "android": "https://dc.lft.to/lastmile_qr_scan"}, "name": "216e8daf45d48c4cbfb541b20e6b73fc", "type": "electric_scooter", "fusion_lon": 0.0, "is_disabled": 0, "is_reserved": 0, "bike_id": "216e8daf45d48c4cbfb541b20e6b73fc", "lon": -76.990887}, {"fusion_lat": 0.0, "lat": 38.84920733333333, "rental_uris": {"ios": "https://dc.lft.to/lastmile_qr_scan", "android": "https://dc.lft.to/lastmile_qr_scan"}, "name": "e27d1506a69190fff5591ead5a65cbfc", "type": "electric_bike", "fusion_lon": 0.0, "is_disabled": 0, "is_reserved": 0, "bike_id": "e27d1506a69190fff5591ead5a65cbfc", "lon": -77.07929}, {"fusion_lat": 0.0, "lat": 38.853181666666664, "rental_uris": {"ios": "https://dc.lft.to/lastmile_qr_scan", "android": "https://dc.lft.to/lastmile_qr_scan"}, "name": "343142c1aa5526503003e7c7445343f9", "type": "electric_bike", "fusion_lon": 0.0, "is_disabled": 0, "is_reserved": 0, "bike_id": "343142c1aa5526503003e7c7445343f9", "lon": -76.9800835}, {"fusion_lat": 0.0, "lat": 38.931133333333335, "rental_uris": {"ios": "https://dc.lft.to/lastmile_qr_scan", "android": "https://dc.lft.to/lastmile_qr_scan"}, "name": "1d9b6c949abc7c66487d83580a8cb07b", "type": "electric_scooter", "fusion_lon": 0.0, "is_disabled": 0, "is_reserved": 0, "bike_id": "1d9b6c949abc7c66487d83580a8cb07b", "lon": -77.03813283333334}, {"fusion_lat": 0.0, "lat": 38.93861966666667, "rental_uris": {"ios": "https://dc.lft.to/lastmile_qr_scan", "android": "https://dc.lft.to/lastmile_qr_scan"}, "name": "cd3daae3e687ccd2b6d00418dc59dfce", "type": "electric_scooter", "fusion_lon": 0.0, "is_disabled": 0, "is_reserved": 0, "bike_id": "cd3daae3e687ccd2b6d00418dc59dfce", "lon": -77.02628683333333}, {"fusion_lat": 0.0, "lat": 38.9231805, "rental_uris": {"ios": "https://dc.lft.to/lastmile_qr_scan", "android": "https://dc.lft.to/lastmile_qr_scan"}, "name": "566ab8a877fec626c86449a27f3c347a", "type": "electric_scooter", "fusion_lon": 0.0, "is_disabled": 0, "is_reserved": 0, "bike_id": "566ab8a877fec626c86449a27f3c347a", "lon": -77.03408833333333}, {"fusion_lat": 0.0, "lat": 38.90973183333333, "rental_uris": {"ios": "https://dc.lft.to/lastmile_qr_scan", "android": "https://dc.lft.to/lastmile_qr_scan"}, "name": "2910770b5840a1397f786d42e67e4914", "type": "electric_scooter", "fusion_lon": 0.0, "is_disabled": 0, "is_reserved": 0, "bike_id": "2910770b5840a1397f786d42e67e4914", "lon": -77.04517166666666}, {"fusion_lat": 0.0, "lat": 38.910618166666666, "rental_uris": {"ios": "https://dc.lft.to/lastmile_qr_scan", "android": "https://dc.lft.to/lastmile_qr_scan"}, "name": "37a7721041b33e5e83050910b6bc2692", "type": "electric_scooter", "fusion_lon": 0.0, "is_disabled": 0, "is_reserved": 0, "bike_id": "37a7721041b33e5e83050910b6bc2692", "lon": -77.0218145}, {"fusion_lat": 0.0, "lat": 38.9274585, "rental_uris": {"ios": "https://dc.lft.to/lastmile_qr_scan", "android": "https://dc.lft.to/lastmile_qr_scan"}, "name": "9f46d560b095505cd8ba36b7f9aefb6e", "type": "electric_scooter", "fusion_lon": 0.0, "is_disabled": 0, "is_reserved": 0, "bike_id": "9f46d560b095505cd8ba36b7f9aefb6e", "lon": -77.02489166666666}, {"fusion_lat": 0.0, "lat": 38.90384733333333, "rental_uris": {"ios": "https://dc.lft.to/lastmile_qr_scan", "android": "https://dc.lft.to/lastmile_qr_scan"}, "name": "e7d6b818a144a919e72ca4a1081396df", "type": "electric_scooter", "fusion_lon": 0.0, "is_disabled": 0, "is_reserved": 0, "bike_id": "e7d6b818a144a919e72ca4a1081396df", "lon": -77.040248}, {"fusion_lat": 0.0, "lat": 38.9124225, "rental_uris": {"ios": "https://dc.lft.to/lastmile_qr_scan", "android": "https://dc.lft.to/lastmile_qr_scan"}, "name": "af7650432f36b016f48628a114fdd8c0", "type": "electric_scooter", "fusion_lon": 0.0, "is_disabled": 0, "is_reserved": 0, "bike_id": "af7650432f36b016f48628a114fdd8c0", "lon": -77.04523416666666}, {"fusion_lat": 0.0, "lat": 38.92313733333334, "rental_uris": {"ios": "https://dc.lft.to/lastmile_qr_scan", "android": "https://dc.lft.to/lastmile_qr_scan"}, "name": "b27ec86221708ebe69c93323ea56562d", "type": "electric_scooter", "fusion_lon": 0.0, "is_disabled": 0, "is_reserved": 0, "bike_id": "b27ec86221708ebe69c93323ea56562d", "lon": -77.04180716666667}, {"fusion_lat": 0.0, "lat": 38.908422, "rental_uris": {"ios": "https://dc.lft.to/lastmile_qr_scan", "android": "https://dc.lft.to/lastmile_qr_scan"}, "name": "50adf811f12404f5c63d787ae18b02ab", "type": "electric_scooter", "fusion_lon": 0.0, "is_disabled": 0, "is_reserved": 0, "bike_id": "50adf811f12404f5c63d787ae18b02ab", "lon": -77.01885366666667}, {"fusion_lat": 0.0, "lat": 38.86565616666667, "rental_uris": {"ios": "https://dc.lft.to/lastmile_qr_scan", "android": "https://dc.lft.to/lastmile_qr_scan"}, "name": "5f2035385e9f98ba91780039907bef9f", "type": "electric_scooter", "fusion_lon": 0.0, "is_disabled": 0, "is_reserved": 0, "bike_id": "5f2035385e9f98ba91780039907bef9f", "lon": -76.9833595}, {"fusion_lat": 0.0, "lat": 38.917756833333335, "rental_uris": {"ios": "https://dc.lft.to/lastmile_qr_scan", "android": "https://dc.lft.to/lastmile_qr_scan"}, "name": "2efb273fdf42d2c1d70482b267cbcff9", "type": "electric_scooter", "fusion_lon": 0.0, "is_disabled": 0, "is_reserved": 0, "bike_id": "2efb273fdf42d2c1d70482b267cbcff9", "lon": -77.01920983333333}, {"fusion_lat": 0.0, "lat": 38.89785166666667, "rental_uris": {"ios": "https://dc.lft.to/lastmile_qr_scan", "android": "https://dc.lft.to/lastmile_qr_scan"}, "name": "c0022356cee69e2afa17988c7ef1e10e", "type": "electric_scooter", "fusion_lon": 0.0, "is_disabled": 0, "is_reserved": 0, "bike_id": "c0022356cee69e2afa17988c7ef1e10e", "lon": -77.02187783333333}, {"fusion_lat": 0.0, "lat": 38.892211, "rental_uris": {"ios": "https://dc.lft.to/lastmile_qr_scan", "android": "https://dc.lft.to/lastmile_qr_scan"}, "name": "a750f11279debafe5d0e93187e21b3c5", "type": "electric_scooter", "fusion_lon": 0.0, "is_disabled": 0, "is_reserved": 0, "bike_id": "a750f11279debafe5d0e93187e21b3c5", "lon": -77.04518433333334}, {"fusion_lat": 0.0, "lat": 38.915951, "rental_uris": {"ios": "https://dc.lft.to/lastmile_qr_scan", "android": "https://dc.lft.to/lastmile_qr_scan"}, "name": "ab9949b01a86364e3f6e5929b0141fab", "type": "electric_scooter", "fusion_lon": 0.0, "is_disabled": 0, "is_reserved": 0, "bike_id": "ab9949b01a86364e3f6e5929b0141fab", "lon": -77.021939}, {"fusion_lat": 0.0, "lat": 38.89222316666667, "rental_uris": {"ios": "https://dc.lft.to/lastmile_qr_scan", "android": "https://dc.lft.to/lastmile_qr_scan"}, "name": "1b21794a5225cf1c1e021573048c8950", "type": "electric_scooter", "fusion_lon": 0.0, "is_disabled": 0, "is_reserved": 0, "bike_id": "1b21794a5225cf1c1e021573048c8950", "lon": -77.04773133333333}, {"fusion_lat": 0.0, "lat": 38.898156166666666, "rental_uris": {"ios": "https://dc.lft.to/lastmile_qr_scan", "android": "https://dc.lft.to/lastmile_qr_scan"}, "name": "da1fb70378fc9293d20b70ee6e2dd4a5", "type": "electric_bike", "fusion_lon": 0.0, "is_disabled": 0, "is_reserved": 0, "bike_id": "da1fb70378fc9293d20b70ee6e2dd4a5", "lon": -77.0246215}, {"fusion_lat": 0.0, "lat": 38.87894266666667, "rental_uris": {"ios": "https://dc.lft.to/lastmile_qr_scan", "android": "https://dc.lft.to/lastmile_qr_scan"}, "name": "5f94cb644a7b8a97cf55ac9636ed7a14", "type": "electric_scooter", "fusion_lon": 0.0, "is_disabled": 0, "is_reserved": 0, "bike_id": "5f94cb644a7b8a97cf55ac9636ed7a14", "lon": -77.02192066666667}, {"fusion_lat": 0.0, "lat": 38.90480683333333, "rental_uris": {"ios": "https://dc.lft.to/lastmile_qr_scan", "android": "https://dc.lft.to/lastmile_qr_scan"}, "name": "9bbfd605cd4058285bc9a7ea862d5a2a", "type": "electric_scooter", "fusion_lon": 0.0, "is_disabled": 0, "is_reserved": 0, "bike_id": "9bbfd605cd4058285bc9a7ea862d5a2a", "lon": -77.04366883333333}, {"fusion_lat": 0.0, "lat": 38.89988616666667, "rental_uris": {"ios": "https://dc.lft.to/lastmile_qr_scan", "android": "https://dc.lft.to/lastmile_qr_scan"}, "name": "02c5c9b55ad94473118c9eb874e10422", "type": "electric_scooter", "fusion_lon": 0.0, "is_disabled": 0, "is_reserved": 0, "bike_id": "02c5c9b55ad94473118c9eb874e10422", "lon": -77.0068305}, {"fusion_lat": 0.0, "lat": 38.903711333333334, "rental_uris": {"ios": "https://dc.lft.to/lastmile_qr_scan", "android": "https://dc.lft.to/lastmile_qr_scan"}, "name": "3f6e7fb01364c015fdc232907835c221", "type": "electric_scooter", "fusion_lon": 0.0, "is_disabled": 0, "is_reserved": 0, "bike_id": "3f6e7fb01364c015fdc232907835c221", "lon": -77.0363985}, {"fusion_lat": 0.0, "lat": 38.90852816666667, "rental_uris": {"ios": "https://dc.lft.to/lastmile_qr_scan", "android": "https://dc.lft.to/lastmile_qr_scan"}, "name": "f403ef2181bfd809d06792ac4a079247", "type": "electric_scooter", "fusion_lon": 0.0, "is_disabled": 0, "is_reserved": 0, "bike_id": "f403ef2181bfd809d06792ac4a079247", "lon": -77.00208583333334}, {"fusion_lat": 0.0, "lat": 38.898157833333336, "rental_uris": {"ios": "https://dc.lft.to/lastmile_qr_scan", "android": "https://dc.lft.to/lastmile_qr_scan"}, "name": "dd7aff11aacc4fe79083215f5ee295f7", "type": "electric_scooter", "fusion_lon": 0.0, "is_disabled": 0, "is_reserved": 0, "bike_id": "dd7aff11aacc4fe79083215f5ee295f7", "lon": -77.033303}, {"fusion_lat": 0.0, "lat": 38.905299, "rental_uris": {"ios": "https://dc.lft.to/lastmile_qr_scan", "android": "https://dc.lft.to/lastmile_qr_scan"}, "name": "72121b8f6718930acd2920b0d7483225", "type": "electric_scooter", "fusion_lon": 0.0, "is_disabled": 0, "is_reserved": 0, "bike_id": "72121b8f6718930acd2920b0d7483225", "lon": -76.99633833333333}, {"fusion_lat": 0.0, "lat": 38.9042095, "rental_uris": {"ios": "https://dc.lft.to/lastmile_qr_scan", "android": "https://dc.lft.to/lastmile_qr_scan"}, "name": "99e412126b555931f4ab61a73897887f", "type": "electric_scooter", "fusion_lon": 0.0, "is_disabled": 0, "is_reserved": 0, "bike_id": "99e412126b555931f4ab61a73897887f", "lon": -77.053168}, {"fusion_lat": 0.0, "lat": 38.905790333333336, "rental_uris": {"ios": "https://dc.lft.to/lastmile_qr_scan", "android": "https://dc.lft.to/lastmile_qr_scan"}, "name": "66e870e4032e3fd482082c4eb6775664", "type": "electric_scooter", "fusion_lon": 0.0, "is_disabled": 0, "is_reserved": 0, "bike_id": "66e870e4032e3fd482082c4eb6775664", "lon": -77.00778516666666}, {"fusion_lat": 0.0, "lat": 38.93417916666667, "rental_uris": {"ios": "https://dc.lft.to/lastmile_qr_scan", "android": "https://dc.lft.to/lastmile_qr_scan"}, "name": "172e7f2a4f04bc7f1b3c262ff3d63ace", "type": "electric_scooter", "fusion_lon": 0.0, "is_disabled": 0, "is_reserved": 0, "bike_id": "172e7f2a4f04bc7f1b3c262ff3d63ace", "lon": -77.04402783333333}, {"fusion_lat": 0.0, "lat": 38.8966955, "rental_uris": {"ios": "https://dc.lft.to/lastmile_qr_scan", "android": "https://dc.lft.to/lastmile_qr_scan"}, "name": "db69a2cb746a4c3db4b437d125ed5fd9", "type": "electric_scooter", "fusion_lon": 0.0, "is_disabled": 0, "is_reserved": 0, "bike_id": "db69a2cb746a4c3db4b437d125ed5fd9", "lon": -77.05465766666667}, {"fusion_lat": 0.0, "lat": 38.90266833333333, "rental_uris": {"ios": "https://dc.lft.to/lastmile_qr_scan", "android": "https://dc.lft.to/lastmile_qr_scan"}, "name": "1c86381b59405ea387cec721f97e7fbe", "type": "electric_scooter", "fusion_lon": 0.0, "is_disabled": 0, "is_reserved": 0, "bike_id": "1c86381b59405ea387cec721f97e7fbe", "lon": -77.03142066666666}, {"fusion_lat": 0.0, "lat": 38.921117333333335, "rental_uris": {"ios": "https://dc.lft.to/lastmile_qr_scan", "android": "https://dc.lft.to/lastmile_qr_scan"}, "name": "42b61a4f6d4b832ae1c15271b118515c", "type": "electric_scooter", "fusion_lon": 0.0, "is_disabled": 0, "is_reserved": 0, "bike_id": "42b61a4f6d4b832ae1c15271b118515c", "lon": -77.00916316666667}, {"fusion_lat": 0.0, "lat": 38.935362833333336, "rental_uris": {"ios": "https://dc.lft.to/lastmile_qr_scan", "android": "https://dc.lft.to/lastmile_qr_scan"}, "name": "246c4a0d334feb6a28b7b645610ff7fe", "type": "electric_scooter", "fusion_lon": 0.0, "is_disabled": 0, "is_reserved": 0, "bike_id": "246c4a0d334feb6a28b7b645610ff7fe", "lon": -77.023509}, {"fusion_lat": 0.0, "lat": 38.901529333333336, "rental_uris": {"ios": "https://dc.lft.to/lastmile_qr_scan", "android": "https://dc.lft.to/lastmile_qr_scan"}, "name": "0f312d7888a05812da03de385522a19b", "type": "electric_scooter", "fusion_lon": 0.0, "is_disabled": 0, "is_reserved": 0, "bike_id": "0f312d7888a05812da03de385522a19b", "lon": -76.99024416666667}, {"fusion_lat": 0.0, "lat": 38.90956583333333, "rental_uris": {"ios": "https://dc.lft.to/lastmile_qr_scan", "android": "https://dc.lft.to/lastmile_qr_scan"}, "name": "1bf120dcde3bc3bb0c3bd0411a2941a1", "type": "electric_bike", "fusion_lon": 0.0, "is_disabled": 0, "is_reserved": 0, "bike_id": "1bf120dcde3bc3bb0c3bd0411a2941a1", "lon": -77.22890566666666}, {"fusion_lat": 0.0, "lat": 38.87673916666667, "rental_uris": {"ios": "https://dc.lft.to/lastmile_qr_scan", "android": "https://dc.lft.to/lastmile_qr_scan"}, "name": "9c5a10bbd781b19c131339d0bf316b80", "type": "electric_scooter", "fusion_lon": 0.0, "is_disabled": 0, "is_reserved": 0, "bike_id": "9c5a10bbd781b19c131339d0bf316b80", "lon": -77.01763}, {"fusion_lat": 0.0, "lat": 38.92457483333333, "rental_uris": {"ios": "https://dc.lft.to/lastmile_qr_scan", "android": "https://dc.lft.to/lastmile_qr_scan"}, "name": "1fd84f33452cda2e4c30d58810e46767", "type": "electric_scooter", "fusion_lon": 0.0, "is_disabled": 0, "is_reserved": 0, "bike_id": "1fd84f33452cda2e4c30d58810e46767", "lon": -77.0522465}, {"fusion_lat": 0.0, "lat": 38.9200545, "rental_uris": {"ios": "https://dc.lft.to/lastmile_qr_scan", "android": "https://dc.lft.to/lastmile_qr_scan"}, "name": "0671bcde47499d95e92f76f30b7aa0b1", "type": "electric_scooter", "fusion_lon": 0.0, "is_disabled": 0, "is_reserved": 0, "bike_id": "0671bcde47499d95e92f76f30b7aa0b1", "lon": -77.0246465}, {"fusion_lat": 0.0, "lat": 38.86657366666667, "rental_uris": {"ios": "https://dc.lft.to/lastmile_qr_scan", "android": "https://dc.lft.to/lastmile_qr_scan"}, "name": "ccb9659c091e3c1a74b1281176c2bfa5", "type": "electric_scooter", "fusion_lon": 0.0, "is_disabled": 0, "is_reserved": 0, "bike_id": "ccb9659c091e3c1a74b1281176c2bfa5", "lon": -76.98881433333334}, {"fusion_lat": 0.0, "lat": 38.9430165, "rental_uris": {"ios": "https://dc.lft.to/lastmile_qr_scan", "android": "https://dc.lft.to/lastmile_qr_scan"}, "name": "2fb14b3d9e9f7628442258aba2a3bf62", "type": "electric_scooter", "fusion_lon": 0.0, "is_disabled": 0, "is_reserved": 0, "bike_id": "2fb14b3d9e9f7628442258aba2a3bf62", "lon": -77.02951416666667}, {"fusion_lat": 0.0, "lat": 38.919980333333335, "rental_uris": {"ios": "https://dc.lft.to/lastmile_qr_scan", "android": "https://dc.lft.to/lastmile_qr_scan"}, "name": "83919f0e98009297c0563a302760f70f", "type": "electric_scooter", "fusion_lon": 0.0, "is_disabled": 0, "is_reserved": 0, "bike_id": "83919f0e98009297c0563a302760f70f", "lon": -77.04171916666667}, {"fusion_lat": 0.0, "lat": 38.9114095, "rental_uris": {"ios": "https://dc.lft.to/lastmile_qr_scan", "android": "https://dc.lft.to/lastmile_qr_scan"}, "name": "33c69ab71c72640fe8fe2592272ead5a", "type": "electric_scooter", "fusion_lon": 0.0, "is_disabled": 0, "is_reserved": 0, "bike_id": "33c69ab71c72640fe8fe2592272ead5a", "lon": -77.03837183333333}, {"fusion_lat": 0.0, "lat": 38.90341383333333, "rental_uris": {"ios": "https://dc.lft.to/lastmile_qr_scan", "android": "https://dc.lft.to/lastmile_qr_scan"}, "name": "8b88ed4d9c9a4d1e29f52817eabc5756", "type": "electric_scooter", "fusion_lon": 0.0, "is_disabled": 0, "is_reserved": 0, "bike_id": "8b88ed4d9c9a4d1e29f52817eabc5756", "lon": -77.04343683333333}, {"fusion_lat": 0.0, "lat": 38.916794833333334, "rental_uris": {"ios": "https://dc.lft.to/lastmile_qr_scan", "android": "https://dc.lft.to/lastmile_qr_scan"}, "name": "91b14a9a83601d97f599b54d43740134", "type": "electric_scooter", "fusion_lon": 0.0, "is_disabled": 0, "is_reserved": 0, "bike_id": "91b14a9a83601d97f599b54d43740134", "lon": -77.0034315}, {"fusion_lat": 0.0, "lat": 38.88486783333333, "rental_uris": {"ios": "https://dc.lft.to/lastmile_qr_scan", "android": "https://dc.lft.to/lastmile_qr_scan"}, "name": "c196f4a3c8c47dcd85f01d99d60d2cab", "type": "electric_scooter", "fusion_lon": 0.0, "is_disabled": 0, "is_reserved": 0, "bike_id": "c196f4a3c8c47dcd85f01d99d60d2cab", "lon": -77.007103}, {"fusion_lat": 0.0, "lat": 38.95232433333334, "rental_uris": {"ios": "https://dc.lft.to/lastmile_qr_scan", "android": "https://dc.lft.to/lastmile_qr_scan"}, "name": "09ddb418375f8fe5a7ed6dea52d88832", "type": "electric_scooter", "fusion_lon": 0.0, "is_disabled": 0, "is_reserved": 0, "bike_id": "09ddb418375f8fe5a7ed6dea52d88832", "lon": -77.01379866666667}, {"fusion_lat": 0.0, "lat": 38.867591, "rental_uris": {"ios": "https://dc.lft.to/lastmile_qr_scan", "android": "https://dc.lft.to/lastmile_qr_scan"}, "name": "dc1fd867279dcd61f7c38b160f1eb1a7", "type": "electric_scooter", "fusion_lon": 0.0, "is_disabled": 0, "is_reserved": 0, "bike_id": "dc1fd867279dcd61f7c38b160f1eb1a7", "lon": -76.982825}, {"fusion_lat": 0.0, "lat": 38.90466633333333, "rental_uris": {"ios": "https://dc.lft.to/lastmile_qr_scan", "android": "https://dc.lft.to/lastmile_qr_scan"}, "name": "770d9f1a2a3546953e0a8cb5d390f613", "type": "electric_scooter", "fusion_lon": 0.0, "is_disabled": 0, "is_reserved": 0, "bike_id": "770d9f1a2a3546953e0a8cb5d390f613", "lon": -77.0435255}, {"fusion_lat": 0.0, "lat": 38.924840333333336, "rental_uris": {"ios": "https://dc.lft.to/lastmile_qr_scan", "android": "https://dc.lft.to/lastmile_qr_scan"}, "name": "b0ee6ce16ecd9d30a2afcd9b5344dd12", "type": "electric_scooter", "fusion_lon": 0.0, "is_disabled": 0, "is_reserved": 0, "bike_id": "b0ee6ce16ecd9d30a2afcd9b5344dd12", "lon": -77.02652083333334}, {"fusion_lat": 0.0, "lat": 38.89633466666667, "rental_uris": {"ios": "https://dc.lft.to/lastmile_qr_scan", "android": "https://dc.lft.to/lastmile_qr_scan"}, "name": "fe59af8cfbcfc948b3a314445f6bb582", "type": "electric_scooter", "fusion_lon": 0.0, "is_disabled": 0, "is_reserved": 0, "bike_id": "fe59af8cfbcfc948b3a314445f6bb582", "lon": -77.04006683333333}, {"fusion_lat": 0.0, "lat": 38.9084505, "rental_uris": {"ios": "https://dc.lft.to/lastmile_qr_scan", "android": "https://dc.lft.to/lastmile_qr_scan"}, "name": "7f0d72680bbc4b4ecece614030655534", "type": "electric_scooter", "fusion_lon": 0.0, "is_disabled": 0, "is_reserved": 0, "bike_id": "7f0d72680bbc4b4ecece614030655534", "lon": -77.026953}, {"fusion_lat": 0.0, "lat": 38.917243166666665, "rental_uris": {"ios": "https://dc.lft.to/lastmile_qr_scan", "android": "https://dc.lft.to/lastmile_qr_scan"}, "name": "9b3995df12accdc5b9167c7f3cc86c7c", "type": "electric_scooter", "fusion_lon": 0.0, "is_disabled": 0, "is_reserved": 0, "bike_id": "9b3995df12accdc5b9167c7f3cc86c7c", "lon": -77.02587516666667}, {"fusion_lat": 0.0, "lat": 38.916373166666666, "rental_uris": {"ios": "https://dc.lft.to/lastmile_qr_scan", "android": "https://dc.lft.to/lastmile_qr_scan"}, "name": "d4cf02d6ef4c8c8cdfa4d02efb4d9e6a", "type": "electric_scooter", "fusion_lon": 0.0, "is_disabled": 0, "is_reserved": 0, "bike_id": "d4cf02d6ef4c8c8cdfa4d02efb4d9e6a", "lon": -77.04568166666667}, {"fusion_lat": 0.0, "lat": 38.91413433333334, "rental_uris": {"ios": "https://dc.lft.to/lastmile_qr_scan", "android": "https://dc.lft.to/lastmile_qr_scan"}, "name": "1fec5545fa296bc709edc1407839658e", "type": "electric_scooter", "fusion_lon": 0.0, "is_disabled": 0, "is_reserved": 0, "bike_id": "1fec5545fa296bc709edc1407839658e", "lon": -77.02333133333333}, {"fusion_lat": 0.0, "lat": 38.93400316666666, "rental_uris": {"ios": "https://dc.lft.to/lastmile_qr_scan", "android": "https://dc.lft.to/lastmile_qr_scan"}, "name": "c613db49a4329ba3897ce3c3899c0aa7", "type": "electric_scooter", "fusion_lon": 0.0, "is_disabled": 0, "is_reserved": 0, "bike_id": "c613db49a4329ba3897ce3c3899c0aa7", "lon": -77.05746633333334}, {"fusion_lat": 0.0, "lat": 38.92681866666667, "rental_uris": {"ios": "https://dc.lft.to/lastmile_qr_scan", "android": "https://dc.lft.to/lastmile_qr_scan"}, "name": "57311974b05828dfbb1df985e918b075", "type": "electric_scooter", "fusion_lon": 0.0, "is_disabled": 0, "is_reserved": 0, "bike_id": "57311974b05828dfbb1df985e918b075", "lon": -77.0379045}, {"fusion_lat": 0.0, "lat": 38.91590166666667, "rental_uris": {"ios": "https://dc.lft.to/lastmile_qr_scan", "android": "https://dc.lft.to/lastmile_qr_scan"}, "name": "2dc98b1ba93f1eaaa209317c64d4abd4", "type": "electric_scooter", "fusion_lon": 0.0, "is_disabled": 0, "is_reserved": 0, "bike_id": "2dc98b1ba93f1eaaa209317c64d4abd4", "lon": -77.031856}, {"fusion_lat": 0.0, "lat": 38.92252883333333, "rental_uris": {"ios": "https://dc.lft.to/lastmile_qr_scan", "android": "https://dc.lft.to/lastmile_qr_scan"}, "name": "d6ddd93863b02ca9783ec97bc4ddd729", "type": "electric_scooter", "fusion_lon": 0.0, "is_disabled": 0, "is_reserved": 0, "bike_id": "d6ddd93863b02ca9783ec97bc4ddd729", "lon": -77.03092083333334}, {"fusion_lat": 0.0, "lat": 38.88444066666667, "rental_uris": {"ios": "https://dc.lft.to/lastmile_qr_scan", "android": "https://dc.lft.to/lastmile_qr_scan"}, "name": "7bf2035da3a7468304b3ebdb81976ffd", "type": "electric_scooter", "fusion_lon": 0.0, "is_disabled": 0, "is_reserved": 0, "bike_id": "7bf2035da3a7468304b3ebdb81976ffd", "lon": -77.0281245}, {"fusion_lat": 0.0, "lat": 38.897269333333334, "rental_uris": {"ios": "https://dc.lft.to/lastmile_qr_scan", "android": "https://dc.lft.to/lastmile_qr_scan"}, "name": "2ea115cab0fff53f1e3275ca27bef9bc", "type": "electric_scooter", "fusion_lon": 0.0, "is_disabled": 0, "is_reserved": 0, "bike_id": "2ea115cab0fff53f1e3275ca27bef9bc", "lon": -77.00373116666667}, {"fusion_lat": 0.0, "lat": 38.924859833333336, "rental_uris": {"ios": "https://dc.lft.to/lastmile_qr_scan", "android": "https://dc.lft.to/lastmile_qr_scan"}, "name": "1e4ff271b31ef78caafb205e0602209c", "type": "electric_scooter", "fusion_lon": 0.0, "is_disabled": 0, "is_reserved": 0, "bike_id": "1e4ff271b31ef78caafb205e0602209c", "lon": -77.02141333333333}, {"fusion_lat": 0.0, "lat": 38.922565166666665, "rental_uris": {"ios": "https://dc.lft.to/lastmile_qr_scan", "android": "https://dc.lft.to/lastmile_qr_scan"}, "name": "1c0eebaa8a0ed9bbea950c5ed0ae6ea8", "type": "electric_scooter", "fusion_lon": 0.0, "is_disabled": 0, "is_reserved": 0, "bike_id": "1c0eebaa8a0ed9bbea950c5ed0ae6ea8", "lon": -77.00916166666667}, {"fusion_lat": 0.0, "lat": 38.900330333333336, "rental_uris": {"ios": "https://dc.lft.to/lastmile_qr_scan", "android": "https://dc.lft.to/lastmile_qr_scan"}, "name": "ad4d797836328cc0e6f27c2aecebf812", "type": "electric_bike", "fusion_lon": 0.0, "is_disabled": 0, "is_reserved": 0, "bike_id": "ad4d797836328cc0e6f27c2aecebf812", "lon": -76.9722065}, {"fusion_lat": 0.0, "lat": 38.90969316666666, "rental_uris": {"ios": "https://dc.lft.to/lastmile_qr_scan", "android": "https://dc.lft.to/lastmile_qr_scan"}, "name": "0a44ce87422199d4bfed98ba676f6eac", "type": "electric_scooter", "fusion_lon": 0.0, "is_disabled": 0, "is_reserved": 0, "bike_id": "0a44ce87422199d4bfed98ba676f6eac", "lon": -77.044742}, {"fusion_lat": 0.0, "lat": 38.905683, "rental_uris": {"ios": "https://dc.lft.to/lastmile_qr_scan", "android": "https://dc.lft.to/lastmile_qr_scan"}, "name": "d6d853190c09337fba75cfcecc26cbbb", "type": "electric_scooter", "fusion_lon": 0.0, "is_disabled": 0, "is_reserved": 0, "bike_id": "d6d853190c09337fba75cfcecc26cbbb", "lon": -77.034774}, {"fusion_lat": 0.0, "lat": 38.877142, "rental_uris": {"ios": "https://dc.lft.to/lastmile_qr_scan", "android": "https://dc.lft.to/lastmile_qr_scan"}, "name": "27c0c863fc09858361349de5199e2ab6", "type": "electric_scooter", "fusion_lon": 0.0, "is_disabled": 0, "is_reserved": 0, "bike_id": "27c0c863fc09858361349de5199e2ab6", "lon": -77.00406333333333}, {"fusion_lat": 0.0, "lat": 38.885986833333334, "rental_uris": {"ios": "https://dc.lft.to/lastmile_qr_scan", "android": "https://dc.lft.to/lastmile_qr_scan"}, "name": "d27424e620aed1f7f2e828758deee861", "type": "electric_scooter", "fusion_lon": 0.0, "is_disabled": 0, "is_reserved": 0, "bike_id": "d27424e620aed1f7f2e828758deee861", "lon": -76.9952465}, {"fusion_lat": 0.0, "lat": 38.92541633333333, "rental_uris": {"ios": "https://dc.lft.to/lastmile_qr_scan", "android": "https://dc.lft.to/lastmile_qr_scan"}, "name": "ead2faafe6a6f927360548b46181cb53", "type": "electric_scooter", "fusion_lon": 0.0, "is_disabled": 0, "is_reserved": 0, "bike_id": "ead2faafe6a6f927360548b46181cb53", "lon": -77.0352915}, {"fusion_lat": 0.0, "lat": 38.9052795, "rental_uris": {"ios": "https://dc.lft.to/lastmile_qr_scan", "android": "https://dc.lft.to/lastmile_qr_scan"}, "name": "80212c95bd747610a0a34695d61ef023", "type": "electric_scooter", "fusion_lon": 0.0, "is_disabled": 0, "is_reserved": 0, "bike_id": "80212c95bd747610a0a34695d61ef023", "lon": -77.06038416666667}, {"fusion_lat": 0.0, "lat": 38.916892833333335, "rental_uris": {"ios": "https://dc.lft.to/lastmile_qr_scan", "android": "https://dc.lft.to/lastmile_qr_scan"}, "name": "f1fc774f0562e7d03abcdf8a7c39cea4", "type": "electric_scooter", "fusion_lon": 0.0, "is_disabled": 0, "is_reserved": 0, "bike_id": "f1fc774f0562e7d03abcdf8a7c39cea4", "lon": -77.037745}, {"fusion_lat": 0.0, "lat": 38.9047205, "rental_uris": {"ios": "https://dc.lft.to/lastmile_qr_scan", "android": "https://dc.lft.to/lastmile_qr_scan"}, "name": "8a70c8d2213e1e8acfa30cf7fd67c719", "type": "electric_scooter", "fusion_lon": 0.0, "is_disabled": 0, "is_reserved": 0, "bike_id": "8a70c8d2213e1e8acfa30cf7fd67c719", "lon": -77.03268583333333}, {"fusion_lat": 0.0, "lat": 38.833698166666665, "rental_uris": {"ios": "https://dc.lft.to/lastmile_qr_scan", "android": "https://dc.lft.to/lastmile_qr_scan"}, "name": "56353111d18799511292b88a80025cd0", "type": "electric_bike", "fusion_lon": 0.0, "is_disabled": 0, "is_reserved": 0, "bike_id": "56353111d18799511292b88a80025cd0", "lon": -77.003039}, {"fusion_lat": 0.0, "lat": 38.91695683333333, "rental_uris": {"ios": "https://dc.lft.to/lastmile_qr_scan", "android": "https://dc.lft.to/lastmile_qr_scan"}, "name": "fea23585ca9bb578dcd9e383c0fbc0c6", "type": "electric_scooter", "fusion_lon": 0.0, "is_disabled": 0, "is_reserved": 0, "bike_id": "fea23585ca9bb578dcd9e383c0fbc0c6", "lon": -77.02514616666667}, {"fusion_lat": 0.0, "lat": 38.90947, "rental_uris": {"ios": "https://dc.lft.to/lastmile_qr_scan", "android": "https://dc.lft.to/lastmile_qr_scan"}, "name": "9588cf47fb0784e29b7f8455ff4fa4e4", "type": "electric_scooter", "fusion_lon": 0.0, "is_disabled": 0, "is_reserved": 0, "bike_id": "9588cf47fb0784e29b7f8455ff4fa4e4", "lon": -76.99884866666666}, {"fusion_lat": 0.0, "lat": 38.927461, "rental_uris": {"ios": "https://dc.lft.to/lastmile_qr_scan", "android": "https://dc.lft.to/lastmile_qr_scan"}, "name": "e40152719c54b07e8b3da3c74fc94bc2", "type": "electric_scooter", "fusion_lon": 0.0, "is_disabled": 0, "is_reserved": 0, "bike_id": "e40152719c54b07e8b3da3c74fc94bc2", "lon": -77.02130733333334}, {"fusion_lat": 0.0, "lat": 38.89725333333333, "rental_uris": {"ios": "https://dc.lft.to/lastmile_qr_scan", "android": "https://dc.lft.to/lastmile_qr_scan"}, "name": "81306e3a890ab0d5f334786113a15174", "type": "electric_scooter", "fusion_lon": 0.0, "is_disabled": 0, "is_reserved": 0, "bike_id": "81306e3a890ab0d5f334786113a15174", "lon": -77.05523616666666}, {"fusion_lat": 0.0, "lat": 38.89520916666667, "rental_uris": {"ios": "https://dc.lft.to/lastmile_qr_scan", "android": "https://dc.lft.to/lastmile_qr_scan"}, "name": "8b345609973411c54af5b7b48ec2b91c", "type": "electric_scooter", "fusion_lon": 0.0, "is_disabled": 0, "is_reserved": 0, "bike_id": "8b345609973411c54af5b7b48ec2b91c", "lon": -77.02829333333334}, {"fusion_lat": 0.0, "lat": 38.89554783333333, "rental_uris": {"ios": "https://dc.lft.to/lastmile_qr_scan", "android": "https://dc.lft.to/lastmile_qr_scan"}, "name": "585960fc5c59c45e5bf96000eff1ac8f", "type": "electric_scooter", "fusion_lon": 0.0, "is_disabled": 0, "is_reserved": 0, "bike_id": "585960fc5c59c45e5bf96000eff1ac8f", "lon": -77.0396235}, {"fusion_lat": 0.0, "lat": 38.9096135, "rental_uris": {"ios": "https://dc.lft.to/lastmile_qr_scan", "android": "https://dc.lft.to/lastmile_qr_scan"}, "name": "9459cd9899c2bfd5b625e4ef3cc569b3", "type": "electric_scooter", "fusion_lon": 0.0, "is_disabled": 0, "is_reserved": 0, "bike_id": "9459cd9899c2bfd5b625e4ef3cc569b3", "lon": -77.039446}, {"fusion_lat": 0.0, "lat": 38.905365833333335, "rental_uris": {"ios": "https://dc.lft.to/lastmile_qr_scan", "android": "https://dc.lft.to/lastmile_qr_scan"}, "name": "38bed8d7f8bad10044bd49e882fd639d", "type": "electric_scooter", "fusion_lon": 0.0, "is_disabled": 0, "is_reserved": 0, "bike_id": "38bed8d7f8bad10044bd49e882fd639d", "lon": -77.05591066666666}, {"fusion_lat": 0.0, "lat": 38.90382433333333, "rental_uris": {"ios": "https://dc.lft.to/lastmile_qr_scan", "android": "https://dc.lft.to/lastmile_qr_scan"}, "name": "75b7e852b16fcf350a937ac31c47cbad", "type": "electric_scooter", "fusion_lon": 0.0, "is_disabled": 0, "is_reserved": 0, "bike_id": "75b7e852b16fcf350a937ac31c47cbad", "lon": -77.00192516666667}, {"fusion_lat": 0.0, "lat": 38.898383333333335, "rental_uris": {"ios": "https://dc.lft.to/lastmile_qr_scan", "android": "https://dc.lft.to/lastmile_qr_scan"}, "name": "774a3acb1e27e0720c87307e51f9386d", "type": "electric_scooter", "fusion_lon": 0.0, "is_disabled": 0, "is_reserved": 0, "bike_id": "774a3acb1e27e0720c87307e51f9386d", "lon": -77.031805}, {"fusion_lat": 0.0, "lat": 38.903986833333335, "rental_uris": {"ios": "https://dc.lft.to/lastmile_qr_scan", "android": "https://dc.lft.to/lastmile_qr_scan"}, "name": "63d14595a76f9d2b8c1be922024a605c", "type": "electric_scooter", "fusion_lon": 0.0, "is_disabled": 0, "is_reserved": 0, "bike_id": "63d14595a76f9d2b8c1be922024a605c", "lon": -77.06510666666667}, {"fusion_lat": 0.0, "lat": 38.8959815, "rental_uris": {"ios": "https://dc.lft.to/lastmile_qr_scan", "android": "https://dc.lft.to/lastmile_qr_scan"}, "name": "1ddd94762cc656cca98c5fddee434a1d", "type": "electric_scooter", "fusion_lon": 0.0, "is_disabled": 0, "is_reserved": 0, "bike_id": "1ddd94762cc656cca98c5fddee434a1d", "lon": -77.04091333333334}, {"fusion_lat": 0.0, "lat": 38.927271833333336, "rental_uris": {"ios": "https://dc.lft.to/lastmile_qr_scan", "android": "https://dc.lft.to/lastmile_qr_scan"}, "name": "61c5b8da0f748da3369fac1de1504a7c", "type": "electric_scooter", "fusion_lon": 0.0, "is_disabled": 0, "is_reserved": 0, "bike_id": "61c5b8da0f748da3369fac1de1504a7c", "lon": -77.03242766666666}, {"fusion_lat": 0.0, "lat": 38.92535916666667, "rental_uris": {"ios": "https://dc.lft.to/lastmile_qr_scan", "android": "https://dc.lft.to/lastmile_qr_scan"}, "name": "220709daea61cffc2a27529dcc646b99", "type": "electric_scooter", "fusion_lon": 0.0, "is_disabled": 0, "is_reserved": 0, "bike_id": "220709daea61cffc2a27529dcc646b99", "lon": -77.0338215}, {"fusion_lat": 0.0, "lat": 38.897261666666665, "rental_uris": {"ios": "https://dc.lft.to/lastmile_qr_scan", "android": "https://dc.lft.to/lastmile_qr_scan"}, "name": "2b10ee99a46efeebc16c0018a8a5e3d4", "type": "electric_scooter", "fusion_lon": 0.0, "is_disabled": 0, "is_reserved": 0, "bike_id": "2b10ee99a46efeebc16c0018a8a5e3d4", "lon": -77.055265}, {"fusion_lat": 0.0, "lat": 38.905159166666664, "rental_uris": {"ios": "https://dc.lft.to/lastmile_qr_scan", "android": "https://dc.lft.to/lastmile_qr_scan"}, "name": "77488a8cf191b17a43cb79cd4f9d896e", "type": "electric_scooter", "fusion_lon": 0.0, "is_disabled": 0, "is_reserved": 0, "bike_id": "77488a8cf191b17a43cb79cd4f9d896e", "lon": -77.0613755}, {"fusion_lat": 0.0, "lat": 38.950738333333334, "rental_uris": {"ios": "https://dc.lft.to/lastmile_qr_scan", "android": "https://dc.lft.to/lastmile_qr_scan"}, "name": "a20265a301745fd2f60c79f8e3665c61", "type": "electric_scooter", "fusion_lon": 0.0, "is_disabled": 0, "is_reserved": 0, "bike_id": "a20265a301745fd2f60c79f8e3665c61", "lon": -76.99617566666667}, {"fusion_lat": 0.0, "lat": 39.034227, "rental_uris": {"ios": "https://dc.lft.to/lastmile_qr_scan", "android": "https://dc.lft.to/lastmile_qr_scan"}, "name": "4660df32ff983d13ab59d3f53b31f970", "type": "electric_bike", "fusion_lon": 0.0, "is_disabled": 0, "is_reserved": 0, "bike_id": "4660df32ff983d13ab59d3f53b31f970", "lon": -77.04314983333333}, {"fusion_lat": 0.0, "lat": 38.9351325, "rental_uris": {"ios": "https://dc.lft.to/lastmile_qr_scan", "android": "https://dc.lft.to/lastmile_qr_scan"}, "name": "a6ef7f4b96044a43ca0a8ec35cbdb6e0", "type": "electric_scooter", "fusion_lon": 0.0, "is_disabled": 0, "is_reserved": 0, "bike_id": "a6ef7f4b96044a43ca0a8ec35cbdb6e0", "lon": -77.024088}, {"fusion_lat": 0.0, "lat": 38.97258383333333, "rental_uris": {"ios": "https://dc.lft.to/lastmile_qr_scan", "android": "https://dc.lft.to/lastmile_qr_scan"}, "name": "289a823f2afbae29f6d83d155923f7b5", "type": "electric_bike", "fusion_lon": 0.0, "is_disabled": 0, "is_reserved": 0, "bike_id": "289a823f2afbae29f6d83d155923f7b5", "lon": -76.99277233333333}, {"fusion_lat": 0.0, "lat": 38.915588666666665, "rental_uris": {"ios": "https://dc.lft.to/lastmile_qr_scan", "android": "https://dc.lft.to/lastmile_qr_scan"}, "name": "4fd2a057d3afdba27b651b40e3a857e7", "type": "electric_scooter", "fusion_lon": 0.0, "is_disabled": 0, "is_reserved": 0, "bike_id": "4fd2a057d3afdba27b651b40e3a857e7", "lon": -77.03959533333334}, {"fusion_lat": 0.0, "lat": 38.9191615, "rental_uris": {"ios": "https://dc.lft.to/lastmile_qr_scan", "android": "https://dc.lft.to/lastmile_qr_scan"}, "name": "b946c9d5921d12b76a1986202d86570d", "type": "electric_scooter", "fusion_lon": 0.0, "is_disabled": 0, "is_reserved": 0, "bike_id": "b946c9d5921d12b76a1986202d86570d", "lon": -77.02393533333333}, {"fusion_lat": 0.0, "lat": 38.918339, "rental_uris": {"ios": "https://dc.lft.to/lastmile_qr_scan", "android": "https://dc.lft.to/lastmile_qr_scan"}, "name": "726af8bde281be97011e997b42cd7cbd", "type": "electric_scooter", "fusion_lon": 0.0, "is_disabled": 0, "is_reserved": 0, "bike_id": "726af8bde281be97011e997b42cd7cbd", "lon": -77.0120095}, {"fusion_lat": 0.0, "lat": 38.8788505, "rental_uris": {"ios": "https://dc.lft.to/lastmile_qr_scan", "android": "https://dc.lft.to/lastmile_qr_scan"}, "name": "2d2fc522ec0a0c814fd8980b63cea818", "type": "electric_scooter", "fusion_lon": 0.0, "is_disabled": 0, "is_reserved": 0, "bike_id": "2d2fc522ec0a0c814fd8980b63cea818", "lon": -77.00137383333333}, {"fusion_lat": 0.0, "lat": 38.91225883333333, "rental_uris": {"ios": "https://dc.lft.to/lastmile_qr_scan", "android": "https://dc.lft.to/lastmile_qr_scan"}, "name": "af9634dbc28e5753491f13c5d04c0dcf", "type": "electric_scooter", "fusion_lon": 0.0, "is_disabled": 0, "is_reserved": 0, "bike_id": "af9634dbc28e5753491f13c5d04c0dcf", "lon": -77.07687083333333}, {"fusion_lat": 0.0, "lat": 38.914033333333336, "rental_uris": {"ios": "https://dc.lft.to/lastmile_qr_scan", "android": "https://dc.lft.to/lastmile_qr_scan"}, "name": "278080d635b6829cf1ddd89d766e4dbc", "type": "electric_scooter", "fusion_lon": 0.0, "is_disabled": 0, "is_reserved": 0, "bike_id": "278080d635b6829cf1ddd89d766e4dbc", "lon": -77.032242}, {"fusion_lat": 0.0, "lat": 38.898896, "rental_uris": {"ios": "https://dc.lft.to/lastmile_qr_scan", "android": "https://dc.lft.to/lastmile_qr_scan"}, "name": "662eb38ded8bd096c2de70785cd065ab", "type": "electric_scooter", "fusion_lon": 0.0, "is_disabled": 0, "is_reserved": 0, "bike_id": "662eb38ded8bd096c2de70785cd065ab", "lon": -77.02725583333333}, {"fusion_lat": 0.0, "lat": 38.89901316666667, "rental_uris": {"ios": "https://dc.lft.to/lastmile_qr_scan", "android": "https://dc.lft.to/lastmile_qr_scan"}, "name": "e2b782218f0ff65e161aa2795b4d9789", "type": "electric_scooter", "fusion_lon": 0.0, "is_disabled": 0, "is_reserved": 0, "bike_id": "e2b782218f0ff65e161aa2795b4d9789", "lon": -77.032283}, {"fusion_lat": 0.0, "lat": 38.886453833333334, "rental_uris": {"ios": "https://dc.lft.to/lastmile_qr_scan", "android": "https://dc.lft.to/lastmile_qr_scan"}, "name": "05b41c725530e41de67fae5f92d470d8", "type": "electric_scooter", "fusion_lon": 0.0, "is_disabled": 0, "is_reserved": 0, "bike_id": "05b41c725530e41de67fae5f92d470d8", "lon": -77.00087966666666}, {"fusion_lat": 0.0, "lat": 38.908231666666666, "rental_uris": {"ios": "https://dc.lft.to/lastmile_qr_scan", "android": "https://dc.lft.to/lastmile_qr_scan"}, "name": "0876b34196e49e0d73f6218da148687d", "type": "electric_scooter", "fusion_lon": 0.0, "is_disabled": 0, "is_reserved": 0, "bike_id": "0876b34196e49e0d73f6218da148687d", "lon": -76.99204066666667}, {"fusion_lat": 0.0, "lat": 38.9078975, "rental_uris": {"ios": "https://dc.lft.to/lastmile_qr_scan", "android": "https://dc.lft.to/lastmile_qr_scan"}, "name": "df786f60def4178eb0869eb008b1ae11", "type": "electric_scooter", "fusion_lon": 0.0, "is_disabled": 0, "is_reserved": 0, "bike_id": "df786f60def4178eb0869eb008b1ae11", "lon": -77.00021}, {"fusion_lat": 0.0, "lat": 38.92497633333333, "rental_uris": {"ios": "https://dc.lft.to/lastmile_qr_scan", "android": "https://dc.lft.to/lastmile_qr_scan"}, "name": "0849d9e5e18ebafc34baeff3d69ddce1", "type": "electric_scooter", "fusion_lon": 0.0, "is_disabled": 0, "is_reserved": 0, "bike_id": "0849d9e5e18ebafc34baeff3d69ddce1", "lon": -77.05109783333333}, {"fusion_lat": 0.0, "lat": 38.904474666666665, "rental_uris": {"ios": "https://dc.lft.to/lastmile_qr_scan", "android": "https://dc.lft.to/lastmile_qr_scan"}, "name": "a3cf33c6a76673bc88553b951740f20e", "type": "electric_scooter", "fusion_lon": 0.0, "is_disabled": 0, "is_reserved": 0, "bike_id": "a3cf33c6a76673bc88553b951740f20e", "lon": -76.97417866666666}, {"fusion_lat": 0.0, "lat": 38.902114, "rental_uris": {"ios": "https://dc.lft.to/lastmile_qr_scan", "android": "https://dc.lft.to/lastmile_qr_scan"}, "name": "67b4b13d5a83ad269bd10c2843893604", "type": "electric_scooter", "fusion_lon": 0.0, "is_disabled": 0, "is_reserved": 0, "bike_id": "67b4b13d5a83ad269bd10c2843893604", "lon": -77.02209916666666}, {"fusion_lat": 0.0, "lat": 38.93259966666667, "rental_uris": {"ios": "https://dc.lft.to/lastmile_qr_scan", "android": "https://dc.lft.to/lastmile_qr_scan"}, "name": "43335e3e191f05bc65bb6e9b2c4a8fd5", "type": "electric_scooter", "fusion_lon": 0.0, "is_disabled": 0, "is_reserved": 0, "bike_id": "43335e3e191f05bc65bb6e9b2c4a8fd5", "lon": -77.031046}, {"fusion_lat": 0.0, "lat": 38.908736, "rental_uris": {"ios": "https://dc.lft.to/lastmile_qr_scan", "android": "https://dc.lft.to/lastmile_qr_scan"}, "name": "0a23ec38e227d4e58a1acac1a9b0d637", "type": "electric_scooter", "fusion_lon": 0.0, "is_disabled": 0, "is_reserved": 0, "bike_id": "0a23ec38e227d4e58a1acac1a9b0d637", "lon": -77.07163316666667}, {"fusion_lat": 0.0, "lat": 38.887409, "rental_uris": {"ios": "https://dc.lft.to/lastmile_qr_scan", "android": "https://dc.lft.to/lastmile_qr_scan"}, "name": "45b271ec2f7e8703e03e79011a7ec6a2", "type": "electric_scooter", "fusion_lon": 0.0, "is_disabled": 0, "is_reserved": 0, "bike_id": "45b271ec2f7e8703e03e79011a7ec6a2", "lon": -77.03174366666667}, {"fusion_lat": 0.0, "lat": 38.90727783333333, "rental_uris": {"ios": "https://dc.lft.to/lastmile_qr_scan", "android": "https://dc.lft.to/lastmile_qr_scan"}, "name": "2a6c779137db1bd8cb04c7f008c24cfe", "type": "electric_scooter", "fusion_lon": 0.0, "is_disabled": 0, "is_reserved": 0, "bike_id": "2a6c779137db1bd8cb04c7f008c24cfe", "lon": -77.02508883333333}, {"fusion_lat": 0.0, "lat": 38.86629083333333, "rental_uris": {"ios": "https://dc.lft.to/lastmile_qr_scan", "android": "https://dc.lft.to/lastmile_qr_scan"}, "name": "899eb474732039b89dda3c41bb10a469", "type": "electric_scooter", "fusion_lon": 0.0, "is_disabled": 0, "is_reserved": 0, "bike_id": "899eb474732039b89dda3c41bb10a469", "lon": -76.98716883333333}, {"fusion_lat": 0.0, "lat": 38.8710505, "rental_uris": {"ios": "https://dc.lft.to/lastmile_qr_scan", "android": "https://dc.lft.to/lastmile_qr_scan"}, "name": "bd79faed2a00c74ebd722ef66fdd547b", "type": "electric_scooter", "fusion_lon": 0.0, "is_disabled": 0, "is_reserved": 0, "bike_id": "bd79faed2a00c74ebd722ef66fdd547b", "lon": -77.00780416666667}, {"fusion_lat": 0.0, "lat": 38.924116, "rental_uris": {"ios": "https://dc.lft.to/lastmile_qr_scan", "android": "https://dc.lft.to/lastmile_qr_scan"}, "name": "aca03406b92d3e66fb7ba791b433f1fb", "type": "electric_scooter", "fusion_lon": 0.0, "is_disabled": 0, "is_reserved": 0, "bike_id": "aca03406b92d3e66fb7ba791b433f1fb", "lon": -77.02007283333333}, {"fusion_lat": 0.0, "lat": 38.93138316666667, "rental_uris": {"ios": "https://dc.lft.to/lastmile_qr_scan", "android": "https://dc.lft.to/lastmile_qr_scan"}, "name": "d0f898948d48ca4eb5f27fc6b0a32b60", "type": "electric_scooter", "fusion_lon": 0.0, "is_disabled": 0, "is_reserved": 0, "bike_id": "d0f898948d48ca4eb5f27fc6b0a32b60", "lon": -77.07841716666667}, {"fusion_lat": 0.0, "lat": 38.92582383333333, "rental_uris": {"ios": "https://dc.lft.to/lastmile_qr_scan", "android": "https://dc.lft.to/lastmile_qr_scan"}, "name": "1cbde9ec3a66a1da956e655feda45325", "type": "electric_scooter", "fusion_lon": 0.0, "is_disabled": 0, "is_reserved": 0, "bike_id": "1cbde9ec3a66a1da956e655feda45325", "lon": -77.02758566666667}, {"fusion_lat": 0.0, "lat": 38.892235166666666, "rental_uris": {"ios": "https://dc.lft.to/lastmile_qr_scan", "android": "https://dc.lft.to/lastmile_qr_scan"}, "name": "a4a9b383f1055cc5c1bc94c523c06486", "type": "electric_scooter", "fusion_lon": 0.0, "is_disabled": 0, "is_reserved": 0, "bike_id": "a4a9b383f1055cc5c1bc94c523c06486", "lon": -77.0468975}, {"fusion_lat": 0.0, "lat": 38.95688216666667, "rental_uris": {"ios": "https://dc.lft.to/lastmile_qr_scan", "android": "https://dc.lft.to/lastmile_qr_scan"}, "name": "0c38578c7a98f91029fe60c32c18c8ba", "type": "electric_scooter", "fusion_lon": 0.0, "is_disabled": 0, "is_reserved": 0, "bike_id": "0c38578c7a98f91029fe60c32c18c8ba", "lon": -77.01927633333334}, {"fusion_lat": 0.0, "lat": 38.90358466666667, "rental_uris": {"ios": "https://dc.lft.to/lastmile_qr_scan", "android": "https://dc.lft.to/lastmile_qr_scan"}, "name": "43a7a956a265fb53faf8bd94f66fcba5", "type": "electric_scooter", "fusion_lon": 0.0, "is_disabled": 0, "is_reserved": 0, "bike_id": "43a7a956a265fb53faf8bd94f66fcba5", "lon": -77.00744233333333}, {"fusion_lat": 0.0, "lat": 38.95643416666667, "rental_uris": {"ios": "https://dc.lft.to/lastmile_qr_scan", "android": "https://dc.lft.to/lastmile_qr_scan"}, "name": "848f65e2b9a72778ca37fa46d1406cd3", "type": "electric_scooter", "fusion_lon": 0.0, "is_disabled": 0, "is_reserved": 0, "bike_id": "848f65e2b9a72778ca37fa46d1406cd3", "lon": -76.99793983333333}, {"fusion_lat": 0.0, "lat": 38.897364333333336, "rental_uris": {"ios": "https://dc.lft.to/lastmile_qr_scan", "android": "https://dc.lft.to/lastmile_qr_scan"}, "name": "aa97887f485f1b79c22b9369af581738", "type": "electric_bike", "fusion_lon": 0.0, "is_disabled": 0, "is_reserved": 0, "bike_id": "aa97887f485f1b79c22b9369af581738", "lon": -76.92045116666667}, {"fusion_lat": 0.0, "lat": 38.9154465, "rental_uris": {"ios": "https://dc.lft.to/lastmile_qr_scan", "android": "https://dc.lft.to/lastmile_qr_scan"}, "name": "8b56859c96dc4794e3ea5151aecc7e7d", "type": "electric_scooter", "fusion_lon": 0.0, "is_disabled": 0, "is_reserved": 0, "bike_id": "8b56859c96dc4794e3ea5151aecc7e7d", "lon": -76.98362616666667}, {"fusion_lat": 0.0, "lat": 38.923636333333334, "rental_uris": {"ios": "https://dc.lft.to/lastmile_qr_scan", "android": "https://dc.lft.to/lastmile_qr_scan"}, "name": "41910b9b6066e022746b5d81faffd5e7", "type": "electric_scooter", "fusion_lon": 0.0, "is_disabled": 0, "is_reserved": 0, "bike_id": "41910b9b6066e022746b5d81faffd5e7", "lon": -77.05056316666666}, {"fusion_lat": 0.0, "lat": 38.85648616666667, "rental_uris": {"ios": "https://dc.lft.to/lastmile_qr_scan", "android": "https://dc.lft.to/lastmile_qr_scan"}, "name": "6a8f20437b546342f3db77a3c501e6c2", "type": "electric_scooter", "fusion_lon": 0.0, "is_disabled": 0, "is_reserved": 0, "bike_id": "6a8f20437b546342f3db77a3c501e6c2", "lon": -76.99677783333334}, {"fusion_lat": 0.0, "lat": 38.908302166666665, "rental_uris": {"ios": "https://dc.lft.to/lastmile_qr_scan", "android": "https://dc.lft.to/lastmile_qr_scan"}, "name": "28277b729e0f7d2abe7f8d7057149946", "type": "electric_scooter", "fusion_lon": 0.0, "is_disabled": 0, "is_reserved": 0, "bike_id": "28277b729e0f7d2abe7f8d7057149946", "lon": -77.0320945}, {"fusion_lat": 0.0, "lat": 38.846376, "rental_uris": {"ios": "https://dc.lft.to/lastmile_qr_scan", "android": "https://dc.lft.to/lastmile_qr_scan"}, "name": "04ccf34f700df934e3e28b8bc4cf6df3", "type": "electric_scooter", "fusion_lon": 0.0, "is_disabled": 0, "is_reserved": 0, "bike_id": "04ccf34f700df934e3e28b8bc4cf6df3", "lon": -77.00387916666666}, {"fusion_lat": 0.0, "lat": 38.90113766666666, "rental_uris": {"ios": "https://dc.lft.to/lastmile_qr_scan", "android": "https://dc.lft.to/lastmile_qr_scan"}, "name": "2357a4e039d5aa57a8c069908a4bfa2a", "type": "electric_scooter", "fusion_lon": 0.0, "is_disabled": 0, "is_reserved": 0, "bike_id": "2357a4e039d5aa57a8c069908a4bfa2a", "lon": -77.04485533333333}, {"fusion_lat": 0.0, "lat": 38.897357, "rental_uris": {"ios": "https://dc.lft.to/lastmile_qr_scan", "android": "https://dc.lft.to/lastmile_qr_scan"}, "name": "63f104a76352bf4cf5c1c8be5d448864", "type": "electric_scooter", "fusion_lon": 0.0, "is_disabled": 0, "is_reserved": 0, "bike_id": "63f104a76352bf4cf5c1c8be5d448864", "lon": -77.00372866666666}, {"fusion_lat": 0.0, "lat": 38.874711166666664, "rental_uris": {"ios": "https://dc.lft.to/lastmile_qr_scan", "android": "https://dc.lft.to/lastmile_qr_scan"}, "name": "d69f7208aa9e9ff01f625034198d6e67", "type": "electric_scooter", "fusion_lon": 0.0, "is_disabled": 0, "is_reserved": 0, "bike_id": "d69f7208aa9e9ff01f625034198d6e67", "lon": -77.0055835}, {"fusion_lat": 0.0, "lat": 38.899099166666666, "rental_uris": {"ios": "https://dc.lft.to/lastmile_qr_scan", "android": "https://dc.lft.to/lastmile_qr_scan"}, "name": "73b8fccb716c13feb66b4d2bbaa157e1", "type": "electric_scooter", "fusion_lon": 0.0, "is_disabled": 0, "is_reserved": 0, "bike_id": "73b8fccb716c13feb66b4d2bbaa157e1", "lon": -76.93364966666667}, {"fusion_lat": 0.0, "lat": 38.914630833333334, "rental_uris": {"ios": "https://dc.lft.to/lastmile_qr_scan", "android": "https://dc.lft.to/lastmile_qr_scan"}, "name": "549a27f62f391a036e10a3326319af1b", "type": "electric_scooter", "fusion_lon": 0.0, "is_disabled": 0, "is_reserved": 0, "bike_id": "549a27f62f391a036e10a3326319af1b", "lon": -77.031832}, {"fusion_lat": 0.0, "lat": 38.873845, "rental_uris": {"ios": "https://dc.lft.to/lastmile_qr_scan", "android": "https://dc.lft.to/lastmile_qr_scan"}, "name": "5f7aa95deb5e5ce201f40cd4336d4592", "type": "electric_scooter", "fusion_lon": 0.0, "is_disabled": 0, "is_reserved": 0, "bike_id": "5f7aa95deb5e5ce201f40cd4336d4592", "lon": -77.00025483333333}, {"fusion_lat": 0.0, "lat": 38.93353616666667, "rental_uris": {"ios": "https://dc.lft.to/lastmile_qr_scan", "android": "https://dc.lft.to/lastmile_qr_scan"}, "name": "73c5d886b377f0c5a7f9578492317504", "type": "electric_bike", "fusion_lon": 0.0, "is_disabled": 0, "is_reserved": 0, "bike_id": "73c5d886b377f0c5a7f9578492317504", "lon": -77.0710435}, {"fusion_lat": 0.0, "lat": 38.92174633333333, "rental_uris": {"ios": "https://dc.lft.to/lastmile_qr_scan", "android": "https://dc.lft.to/lastmile_qr_scan"}, "name": "3aa42d74bc516b2db4a8a26d2ebec4b2", "type": "electric_scooter", "fusion_lon": 0.0, "is_disabled": 0, "is_reserved": 0, "bike_id": "3aa42d74bc516b2db4a8a26d2ebec4b2", "lon": -77.01923683333334}, {"fusion_lat": 0.0, "lat": 38.87671816666667, "rental_uris": {"ios": "https://dc.lft.to/lastmile_qr_scan", "android": "https://dc.lft.to/lastmile_qr_scan"}, "name": "d76c0d374579599aaf286474bc70519f", "type": "electric_scooter", "fusion_lon": 0.0, "is_disabled": 0, "is_reserved": 0, "bike_id": "d76c0d374579599aaf286474bc70519f", "lon": -77.00894133333334}, {"fusion_lat": 0.0, "lat": 38.90061883333333, "rental_uris": {"ios": "https://dc.lft.to/lastmile_qr_scan", "android": "https://dc.lft.to/lastmile_qr_scan"}, "name": "6e6723c59efc85119633c8cfbb4ff300", "type": "electric_scooter", "fusion_lon": 0.0, "is_disabled": 0, "is_reserved": 0, "bike_id": "6e6723c59efc85119633c8cfbb4ff300", "lon": -77.04536783333333}, {"fusion_lat": 0.0, "lat": 38.9100455, "rental_uris": {"ios": "https://dc.lft.to/lastmile_qr_scan", "android": "https://dc.lft.to/lastmile_qr_scan"}, "name": "41258028c6d99c40b6f9a3937a39ab0a", "type": "electric_scooter", "fusion_lon": 0.0, "is_disabled": 0, "is_reserved": 0, "bike_id": "41258028c6d99c40b6f9a3937a39ab0a", "lon": -76.99408266666667}, {"fusion_lat": 0.0, "lat": 38.9023495, "rental_uris": {"ios": "https://dc.lft.to/lastmile_qr_scan", "android": "https://dc.lft.to/lastmile_qr_scan"}, "name": "1adb9bbc360f40d8cb40f0b226fe6270", "type": "electric_scooter", "fusion_lon": 0.0, "is_disabled": 0, "is_reserved": 0, "bike_id": "1adb9bbc360f40d8cb40f0b226fe6270", "lon": -77.059371}, {"fusion_lat": 0.0, "lat": 38.91736933333333, "rental_uris": {"ios": "https://dc.lft.to/lastmile_qr_scan", "android": "https://dc.lft.to/lastmile_qr_scan"}, "name": "e0ac11855ec3f10e3da23d8215f95ebe", "type": "electric_scooter", "fusion_lon": 0.0, "is_disabled": 0, "is_reserved": 0, "bike_id": "e0ac11855ec3f10e3da23d8215f95ebe", "lon": -77.03440433333333}, {"fusion_lat": 0.0, "lat": 38.920863, "rental_uris": {"ios": "https://dc.lft.to/lastmile_qr_scan", "android": "https://dc.lft.to/lastmile_qr_scan"}, "name": "a123a6da5156d326909aba45850619ea", "type": "electric_scooter", "fusion_lon": 0.0, "is_disabled": 0, "is_reserved": 0, "bike_id": "a123a6da5156d326909aba45850619ea", "lon": -77.01390533333333}, {"fusion_lat": 0.0, "lat": 38.898621, "rental_uris": {"ios": "https://dc.lft.to/lastmile_qr_scan", "android": "https://dc.lft.to/lastmile_qr_scan"}, "name": "aaf72bba2f3f7fc5420aa174eaac10bf", "type": "electric_scooter", "fusion_lon": 0.0, "is_disabled": 0, "is_reserved": 0, "bike_id": "aaf72bba2f3f7fc5420aa174eaac10bf", "lon": -77.03914183333333}, {"fusion_lat": 0.0, "lat": 38.885305833333334, "rental_uris": {"ios": "https://dc.lft.to/lastmile_qr_scan", "android": "https://dc.lft.to/lastmile_qr_scan"}, "name": "129499a5746a087f358dad39c2ff8957", "type": "electric_scooter", "fusion_lon": 0.0, "is_disabled": 0, "is_reserved": 0, "bike_id": "129499a5746a087f358dad39c2ff8957", "lon": -77.01518083333333}, {"fusion_lat": 0.0, "lat": 38.88719916666667, "rental_uris": {"ios": "https://dc.lft.to/lastmile_qr_scan", "android": "https://dc.lft.to/lastmile_qr_scan"}, "name": "94a17bf436a5b952f5c1b959a8f62c19", "type": "electric_scooter", "fusion_lon": 0.0, "is_disabled": 0, "is_reserved": 0, "bike_id": "94a17bf436a5b952f5c1b959a8f62c19", "lon": -76.99692716666667}, {"fusion_lat": 0.0, "lat": 38.90264766666667, "rental_uris": {"ios": "https://dc.lft.to/lastmile_qr_scan", "android": "https://dc.lft.to/lastmile_qr_scan"}, "name": "1538653e17a780f3996add88e8166f3c", "type": "electric_scooter", "fusion_lon": 0.0, "is_disabled": 0, "is_reserved": 0, "bike_id": "1538653e17a780f3996add88e8166f3c", "lon": -77.01999366666666}, {"fusion_lat": 0.0, "lat": 38.9205165, "rental_uris": {"ios": "https://dc.lft.to/lastmile_qr_scan", "android": "https://dc.lft.to/lastmile_qr_scan"}, "name": "b90f15a46477af4e71996fb885599ff3", "type": "electric_scooter", "fusion_lon": 0.0, "is_disabled": 0, "is_reserved": 0, "bike_id": "b90f15a46477af4e71996fb885599ff3", "lon": -77.03444483333334}, {"fusion_lat": 0.0, "lat": 38.90163016666666, "rental_uris": {"ios": "https://dc.lft.to/lastmile_qr_scan", "android": "https://dc.lft.to/lastmile_qr_scan"}, "name": "0a4a59eb192b156975d8e68aa40ecd13", "type": "electric_scooter", "fusion_lon": 0.0, "is_disabled": 0, "is_reserved": 0, "bike_id": "0a4a59eb192b156975d8e68aa40ecd13", "lon": -77.05928083333333}, {"fusion_lat": 0.0, "lat": 38.892387, "rental_uris": {"ios": "https://dc.lft.to/lastmile_qr_scan", "android": "https://dc.lft.to/lastmile_qr_scan"}, "name": "4bd73d05b54a43bfc7ee81810fd160a6", "type": "electric_scooter", "fusion_lon": 0.0, "is_disabled": 0, "is_reserved": 0, "bike_id": "4bd73d05b54a43bfc7ee81810fd160a6", "lon": -77.04877516666667}, {"fusion_lat": 0.0, "lat": 38.877837166666666, "rental_uris": {"ios": "https://dc.lft.to/lastmile_qr_scan", "android": "https://dc.lft.to/lastmile_qr_scan"}, "name": "cc3956d075a093ad74bae431f00a6cd6", "type": "electric_scooter", "fusion_lon": 0.0, "is_disabled": 0, "is_reserved": 0, "bike_id": "cc3956d075a093ad74bae431f00a6cd6", "lon": -76.994118}, {"fusion_lat": 0.0, "lat": 38.8995025, "rental_uris": {"ios": "https://dc.lft.to/lastmile_qr_scan", "android": "https://dc.lft.to/lastmile_qr_scan"}, "name": "b7519ed4ffea224f1ac1a4f4b9f36a3d", "type": "electric_scooter", "fusion_lon": 0.0, "is_disabled": 0, "is_reserved": 0, "bike_id": "b7519ed4ffea224f1ac1a4f4b9f36a3d", "lon": -77.04163533333333}, {"fusion_lat": 0.0, "lat": 38.933819166666666, "rental_uris": {"ios": "https://dc.lft.to/lastmile_qr_scan", "android": "https://dc.lft.to/lastmile_qr_scan"}, "name": "cc4a98b66e8531a651bf3e4333bc395d", "type": "electric_scooter", "fusion_lon": 0.0, "is_disabled": 0, "is_reserved": 0, "bike_id": "cc4a98b66e8531a651bf3e4333bc395d", "lon": -77.03681716666667}, {"fusion_lat": 0.0, "lat": 38.9107105, "rental_uris": {"ios": "https://dc.lft.to/lastmile_qr_scan", "android": "https://dc.lft.to/lastmile_qr_scan"}, "name": "8a69104ac2934a65671207147617f85c", "type": "electric_scooter", "fusion_lon": 0.0, "is_disabled": 0, "is_reserved": 0, "bike_id": "8a69104ac2934a65671207147617f85c", "lon": -77.004541}, {"fusion_lat": 0.0, "lat": 38.94918283333333, "rental_uris": {"ios": "https://dc.lft.to/lastmile_qr_scan", "android": "https://dc.lft.to/lastmile_qr_scan"}, "name": "7b3dbc87d99d6f9adbe038d0318f3a67", "type": "electric_bike", "fusion_lon": 0.0, "is_disabled": 0, "is_reserved": 0, "bike_id": "7b3dbc87d99d6f9adbe038d0318f3a67", "lon": -77.07844466666667}, {"fusion_lat": 0.0, "lat": 38.89919183333333, "rental_uris": {"ios": "https://dc.lft.to/lastmile_qr_scan", "android": "https://dc.lft.to/lastmile_qr_scan"}, "name": "d5fe1371669799c2212d82486a2a7d00", "type": "electric_scooter", "fusion_lon": 0.0, "is_disabled": 0, "is_reserved": 0, "bike_id": "d5fe1371669799c2212d82486a2a7d00", "lon": -77.02812616666667}, {"fusion_lat": 0.0, "lat": 38.918517, "rental_uris": {"ios": "https://dc.lft.to/lastmile_qr_scan", "android": "https://dc.lft.to/lastmile_qr_scan"}, "name": "5e4613f55f9561978a134a84421ce392", "type": "electric_scooter", "fusion_lon": 0.0, "is_disabled": 0, "is_reserved": 0, "bike_id": "5e4613f55f9561978a134a84421ce392", "lon": -77.03204916666667}, {"fusion_lat": 0.0, "lat": 38.9076985, "rental_uris": {"ios": "https://dc.lft.to/lastmile_qr_scan", "android": "https://dc.lft.to/lastmile_qr_scan"}, "name": "5014b92384322c54c82dee47b3a1957c", "type": "electric_scooter", "fusion_lon": 0.0, "is_disabled": 0, "is_reserved": 0, "bike_id": "5014b92384322c54c82dee47b3a1957c", "lon": -77.071401}, {"fusion_lat": 0.0, "lat": 38.90787383333333, "rental_uris": {"ios": "https://dc.lft.to/lastmile_qr_scan", "android": "https://dc.lft.to/lastmile_qr_scan"}, "name": "f49166bfb3aa44817f763071e1f5bc2d", "type": "electric_scooter", "fusion_lon": 0.0, "is_disabled": 0, "is_reserved": 0, "bike_id": "f49166bfb3aa44817f763071e1f5bc2d", "lon": -77.0387175}, {"fusion_lat": 0.0, "lat": 38.954542333333336, "rental_uris": {"ios": "https://dc.lft.to/lastmile_qr_scan", "android": "https://dc.lft.to/lastmile_qr_scan"}, "name": "ee98188e74446e7844cfb88755ed10b0", "type": "electric_scooter", "fusion_lon": 0.0, "is_disabled": 0, "is_reserved": 0, "bike_id": "ee98188e74446e7844cfb88755ed10b0", "lon": -77.022188}, {"fusion_lat": 0.0, "lat": 38.904089166666665, "rental_uris": {"ios": "https://dc.lft.to/lastmile_qr_scan", "android": "https://dc.lft.to/lastmile_qr_scan"}, "name": "a3c3590ed40d8cb7e7d1b9a9c5bd9644", "type": "electric_scooter", "fusion_lon": 0.0, "is_disabled": 0, "is_reserved": 0, "bike_id": "a3c3590ed40d8cb7e7d1b9a9c5bd9644", "lon": -76.97330916666667}, {"fusion_lat": 0.0, "lat": 38.91709983333333, "rental_uris": {"ios": "https://dc.lft.to/lastmile_qr_scan", "android": "https://dc.lft.to/lastmile_qr_scan"}, "name": "6cd2f2872b133c421bfaf56d4a1b0542", "type": "electric_scooter", "fusion_lon": 0.0, "is_disabled": 0, "is_reserved": 0, "bike_id": "6cd2f2872b133c421bfaf56d4a1b0542", "lon": -77.02783933333333}, {"fusion_lat": 0.0, "lat": 38.903658666666665, "rental_uris": {"ios": "https://dc.lft.to/lastmile_qr_scan", "android": "https://dc.lft.to/lastmile_qr_scan"}, "name": "f77787d051536db65ac547a65826f3df", "type": "electric_scooter", "fusion_lon": 0.0, "is_disabled": 0, "is_reserved": 0, "bike_id": "f77787d051536db65ac547a65826f3df", "lon": -77.00344333333334}, {"fusion_lat": 0.0, "lat": 38.892493, "rental_uris": {"ios": "https://dc.lft.to/lastmile_qr_scan", "android": "https://dc.lft.to/lastmile_qr_scan"}, "name": "432efef8514649538e7f6df9e39a60b5", "type": "electric_bike", "fusion_lon": 0.0, "is_disabled": 0, "is_reserved": 0, "bike_id": "432efef8514649538e7f6df9e39a60b5", "lon": -76.98538383333333}, {"fusion_lat": 0.0, "lat": 38.917699166666665, "rental_uris": {"ios": "https://dc.lft.to/lastmile_qr_scan", "android": "https://dc.lft.to/lastmile_qr_scan"}, "name": "c05e696663290e7856ae65d55c4329c6", "type": "electric_scooter", "fusion_lon": 0.0, "is_disabled": 0, "is_reserved": 0, "bike_id": "c05e696663290e7856ae65d55c4329c6", "lon": -77.04058583333334}, {"fusion_lat": 0.0, "lat": 38.90682283333334, "rental_uris": {"ios": "https://dc.lft.to/lastmile_qr_scan", "android": "https://dc.lft.to/lastmile_qr_scan"}, "name": "c6255820467010991965185367a07a7a", "type": "electric_scooter", "fusion_lon": 0.0, "is_disabled": 0, "is_reserved": 0, "bike_id": "c6255820467010991965185367a07a7a", "lon": -77.048943}, {"fusion_lat": 0.0, "lat": 38.9364045, "rental_uris": {"ios": "https://dc.lft.to/lastmile_qr_scan", "android": "https://dc.lft.to/lastmile_qr_scan"}, "name": "d35d7f71d190624086cf5f1a6aab79bb", "type": "electric_scooter", "fusion_lon": 0.0, "is_disabled": 0, "is_reserved": 0, "bike_id": "d35d7f71d190624086cf5f1a6aab79bb", "lon": -77.03265283333333}, {"fusion_lat": 0.0, "lat": 38.88746533333333, "rental_uris": {"ios": "https://dc.lft.to/lastmile_qr_scan", "android": "https://dc.lft.to/lastmile_qr_scan"}, "name": "b9711d4a117b173cbbd5677a764c827f", "type": "electric_scooter", "fusion_lon": 0.0, "is_disabled": 0, "is_reserved": 0, "bike_id": "b9711d4a117b173cbbd5677a764c827f", "lon": -77.01729116666667}, {"fusion_lat": 0.0, "lat": 38.9267595, "rental_uris": {"ios": "https://dc.lft.to/lastmile_qr_scan", "android": "https://dc.lft.to/lastmile_qr_scan"}, "name": "b908e0934df3c7f00f136ab6254420e7", "type": "electric_scooter", "fusion_lon": 0.0, "is_disabled": 0, "is_reserved": 0, "bike_id": "b908e0934df3c7f00f136ab6254420e7", "lon": -77.02293766666666}, {"fusion_lat": 0.0, "lat": 38.916175833333334, "rental_uris": {"ios": "https://dc.lft.to/lastmile_qr_scan", "android": "https://dc.lft.to/lastmile_qr_scan"}, "name": "dff0023c9d51df5b1550ab36e3aba542", "type": "electric_scooter", "fusion_lon": 0.0, "is_disabled": 0, "is_reserved": 0, "bike_id": "dff0023c9d51df5b1550ab36e3aba542", "lon": -77.04156566666667}, {"fusion_lat": 0.0, "lat": 38.9171035, "rental_uris": {"ios": "https://dc.lft.to/lastmile_qr_scan", "android": "https://dc.lft.to/lastmile_qr_scan"}, "name": "3d71ff7189b0a0dfb01d3b682fa037a3", "type": "electric_scooter", "fusion_lon": 0.0, "is_disabled": 0, "is_reserved": 0, "bike_id": "3d71ff7189b0a0dfb01d3b682fa037a3", "lon": -77.038672}, {"fusion_lat": 0.0, "lat": 38.88466583333334, "rental_uris": {"ios": "https://dc.lft.to/lastmile_qr_scan", "android": "https://dc.lft.to/lastmile_qr_scan"}, "name": "bd6825773ae279a77cbf390c56f1f65a", "type": "electric_scooter", "fusion_lon": 0.0, "is_disabled": 0, "is_reserved": 0, "bike_id": "bd6825773ae279a77cbf390c56f1f65a", "lon": -76.94986033333333}, {"fusion_lat": 0.0, "lat": 38.936732, "rental_uris": {"ios": "https://dc.lft.to/lastmile_qr_scan", "android": "https://dc.lft.to/lastmile_qr_scan"}, "name": "93830e7eaf3fb5f3b69e3d69928e5929", "type": "electric_scooter", "fusion_lon": 0.0, "is_disabled": 0, "is_reserved": 0, "bike_id": "93830e7eaf3fb5f3b69e3d69928e5929", "lon": -77.0359025}, {"fusion_lat": 0.0, "lat": 38.90033616666667, "rental_uris": {"ios": "https://dc.lft.to/lastmile_qr_scan", "android": "https://dc.lft.to/lastmile_qr_scan"}, "name": "8714ba72f35e37eaa755b2c114233981", "type": "electric_scooter", "fusion_lon": 0.0, "is_disabled": 0, "is_reserved": 0, "bike_id": "8714ba72f35e37eaa755b2c114233981", "lon": -77.046837}, {"fusion_lat": 0.0, "lat": 38.883270333333336, "rental_uris": {"ios": "https://dc.lft.to/lastmile_qr_scan", "android": "https://dc.lft.to/lastmile_qr_scan"}, "name": "c50d388e441a650be3e60cf4c93fb0a3", "type": "electric_scooter", "fusion_lon": 0.0, "is_disabled": 0, "is_reserved": 0, "bike_id": "c50d388e441a650be3e60cf4c93fb0a3", "lon": -77.01762333333333}, {"fusion_lat": 0.0, "lat": 38.924865, "rental_uris": {"ios": "https://dc.lft.to/lastmile_qr_scan", "android": "https://dc.lft.to/lastmile_qr_scan"}, "name": "1cb3d29718fa703ed29f6b47a66a18bd", "type": "electric_scooter", "fusion_lon": 0.0, "is_disabled": 0, "is_reserved": 0, "bike_id": "1cb3d29718fa703ed29f6b47a66a18bd", "lon": -77.02142116666667}, {"fusion_lat": 0.0, "lat": 38.8990105, "rental_uris": {"ios": "https://dc.lft.to/lastmile_qr_scan", "android": "https://dc.lft.to/lastmile_qr_scan"}, "name": "12a8f2db7581c99361ab3bab62b591ed", "type": "electric_scooter", "fusion_lon": 0.0, "is_disabled": 0, "is_reserved": 0, "bike_id": "12a8f2db7581c99361ab3bab62b591ed", "lon": -77.028049}, {"fusion_lat": 0.0, "lat": 38.9233725, "rental_uris": {"ios": "https://dc.lft.to/lastmile_qr_scan", "android": "https://dc.lft.to/lastmile_qr_scan"}, "name": "255be654f803cf7e713543331eefb987", "type": "electric_scooter", "fusion_lon": 0.0, "is_disabled": 0, "is_reserved": 0, "bike_id": "255be654f803cf7e713543331eefb987", "lon": -77.00043016666666}, {"fusion_lat": 0.0, "lat": 38.920419, "rental_uris": {"ios": "https://dc.lft.to/lastmile_qr_scan", "android": "https://dc.lft.to/lastmile_qr_scan"}, "name": "34b5ceb16d67e1aaca3c7f6d406f4a85", "type": "electric_scooter", "fusion_lon": 0.0, "is_disabled": 0, "is_reserved": 0, "bike_id": "34b5ceb16d67e1aaca3c7f6d406f4a85", "lon": -77.01675933333334}, {"fusion_lat": 0.0, "lat": 38.907220333333335, "rental_uris": {"ios": "https://dc.lft.to/lastmile_qr_scan", "android": "https://dc.lft.to/lastmile_qr_scan"}, "name": "42f46185574301d472c64a36c4618656", "type": "electric_scooter", "fusion_lon": 0.0, "is_disabled": 0, "is_reserved": 0, "bike_id": "42f46185574301d472c64a36c4618656", "lon": -77.02563383333333}, {"fusion_lat": 0.0, "lat": 38.9130025, "rental_uris": {"ios": "https://dc.lft.to/lastmile_qr_scan", "android": "https://dc.lft.to/lastmile_qr_scan"}, "name": "cdc8f8238ea94cc2fae2fba8ff2bd0f2", "type": "electric_scooter", "fusion_lon": 0.0, "is_disabled": 0, "is_reserved": 0, "bike_id": "cdc8f8238ea94cc2fae2fba8ff2bd0f2", "lon": -77.0487185}, {"fusion_lat": 0.0, "lat": 38.90197833333333, "rental_uris": {"ios": "https://dc.lft.to/lastmile_qr_scan", "android": "https://dc.lft.to/lastmile_qr_scan"}, "name": "19933b5efbb08cf8712396d7612fdb1d", "type": "electric_scooter", "fusion_lon": 0.0, "is_disabled": 0, "is_reserved": 0, "bike_id": "19933b5efbb08cf8712396d7612fdb1d", "lon": -76.98206433333333}, {"fusion_lat": 0.0, "lat": 38.88450433333333, "rental_uris": {"ios": "https://dc.lft.to/lastmile_qr_scan", "android": "https://dc.lft.to/lastmile_qr_scan"}, "name": "828ef197d6aaef98a1af79c848946108", "type": "electric_scooter", "fusion_lon": 0.0, "is_disabled": 0, "is_reserved": 0, "bike_id": "828ef197d6aaef98a1af79c848946108", "lon": -76.95099166666667}, {"fusion_lat": 0.0, "lat": 38.914093, "rental_uris": {"ios": "https://dc.lft.to/lastmile_qr_scan", "android": "https://dc.lft.to/lastmile_qr_scan"}, "name": "c0f90bf8cfe2f36ba3b4bc921e713887", "type": "electric_scooter", "fusion_lon": 0.0, "is_disabled": 0, "is_reserved": 0, "bike_id": "c0f90bf8cfe2f36ba3b4bc921e713887", "lon": -77.0156415}, {"fusion_lat": 0.0, "lat": 38.93189816666667, "rental_uris": {"ios": "https://dc.lft.to/lastmile_qr_scan", "android": "https://dc.lft.to/lastmile_qr_scan"}, "name": "ddbfc98b2ebe1d7c45b7d55ad00e808a", "type": "electric_scooter", "fusion_lon": 0.0, "is_disabled": 0, "is_reserved": 0, "bike_id": "ddbfc98b2ebe1d7c45b7d55ad00e808a", "lon": -77.04303316666666}, {"fusion_lat": 0.0, "lat": 38.90269216666667, "rental_uris": {"ios": "https://dc.lft.to/lastmile_qr_scan", "android": "https://dc.lft.to/lastmile_qr_scan"}, "name": "9c00f54da123ae65dcff578d7b8ddad1", "type": "electric_scooter", "fusion_lon": 0.0, "is_disabled": 0, "is_reserved": 0, "bike_id": "9c00f54da123ae65dcff578d7b8ddad1", "lon": -77.0314425}, {"fusion_lat": 0.0, "lat": 38.943280666666666, "rental_uris": {"ios": "https://dc.lft.to/lastmile_qr_scan", "android": "https://dc.lft.to/lastmile_qr_scan"}, "name": "4fd28c5e75e81de4e3e9094c8ed6f35c", "type": "electric_scooter", "fusion_lon": 0.0, "is_disabled": 0, "is_reserved": 0, "bike_id": "4fd28c5e75e81de4e3e9094c8ed6f35c", "lon": -77.0131675}, {"fusion_lat": 0.0, "lat": 38.961394166666665, "rental_uris": {"ios": "https://dc.lft.to/lastmile_qr_scan", "android": "https://dc.lft.to/lastmile_qr_scan"}, "name": "5e075006987fa82f7a3ddfe2ee37245b", "type": "electric_scooter", "fusion_lon": 0.0, "is_disabled": 0, "is_reserved": 0, "bike_id": "5e075006987fa82f7a3ddfe2ee37245b", "lon": -77.02816283333334}, {"fusion_lat": 0.0, "lat": 38.8961545, "rental_uris": {"ios": "https://dc.lft.to/lastmile_qr_scan", "android": "https://dc.lft.to/lastmile_qr_scan"}, "name": "b1d0b1f91c21545e643949042d09a6ce", "type": "electric_scooter", "fusion_lon": 0.0, "is_disabled": 0, "is_reserved": 0, "bike_id": "b1d0b1f91c21545e643949042d09a6ce", "lon": -77.0196985}, {"fusion_lat": 0.0, "lat": 38.94104983333333, "rental_uris": {"ios": "https://dc.lft.to/lastmile_qr_scan", "android": "https://dc.lft.to/lastmile_qr_scan"}, "name": "c9d3eba9aac437d77dcdbfce326c7909", "type": "electric_scooter", "fusion_lon": 0.0, "is_disabled": 0, "is_reserved": 0, "bike_id": "c9d3eba9aac437d77dcdbfce326c7909", "lon": -77.07601266666667}, {"fusion_lat": 0.0, "lat": 38.919108333333334, "rental_uris": {"ios": "https://dc.lft.to/lastmile_qr_scan", "android": "https://dc.lft.to/lastmile_qr_scan"}, "name": "25c714bcbd0830d27bb847b89545770c", "type": "electric_scooter", "fusion_lon": 0.0, "is_disabled": 0, "is_reserved": 0, "bike_id": "25c714bcbd0830d27bb847b89545770c", "lon": -77.03442783333334}, {"fusion_lat": 0.0, "lat": 38.94124883333333, "rental_uris": {"ios": "https://dc.lft.to/lastmile_qr_scan", "android": "https://dc.lft.to/lastmile_qr_scan"}, "name": "aba11b81f627acd43d374fe066b9c5fa", "type": "electric_scooter", "fusion_lon": 0.0, "is_disabled": 0, "is_reserved": 0, "bike_id": "aba11b81f627acd43d374fe066b9c5fa", "lon": -77.01538233333333}, {"fusion_lat": 0.0, "lat": 38.900870833333336, "rental_uris": {"ios": "https://dc.lft.to/lastmile_qr_scan", "android": "https://dc.lft.to/lastmile_qr_scan"}, "name": "02b7850896ccbde49886d2fef6ecd0d0", "type": "electric_scooter", "fusion_lon": 0.0, "is_disabled": 0, "is_reserved": 0, "bike_id": "02b7850896ccbde49886d2fef6ecd0d0", "lon": -77.04348183333333}, {"fusion_lat": 0.0, "lat": 38.883814666666666, "rental_uris": {"ios": "https://dc.lft.to/lastmile_qr_scan", "android": "https://dc.lft.to/lastmile_qr_scan"}, "name": "75ad74945c0e92fc5219008f11c14e4d", "type": "electric_scooter", "fusion_lon": 0.0, "is_disabled": 0, "is_reserved": 0, "bike_id": "75ad74945c0e92fc5219008f11c14e4d", "lon": -77.01920816666667}, {"fusion_lat": 0.0, "lat": 38.861687833333335, "rental_uris": {"ios": "https://dc.lft.to/lastmile_qr_scan", "android": "https://dc.lft.to/lastmile_qr_scan"}, "name": "7f95260e6b2ee3a36f230c01ad179c84", "type": "electric_scooter", "fusion_lon": 0.0, "is_disabled": 0, "is_reserved": 0, "bike_id": "7f95260e6b2ee3a36f230c01ad179c84", "lon": -76.98369133333334}, {"fusion_lat": 0.0, "lat": 38.90171816666667, "rental_uris": {"ios": "https://dc.lft.to/lastmile_qr_scan", "android": "https://dc.lft.to/lastmile_qr_scan"}, "name": "47707f68f088803f66b18233398d2cd5", "type": "electric_scooter", "fusion_lon": 0.0, "is_disabled": 0, "is_reserved": 0, "bike_id": "47707f68f088803f66b18233398d2cd5", "lon": -77.01331066666667}, {"fusion_lat": 0.0, "lat": 38.915523, "rental_uris": {"ios": "https://dc.lft.to/lastmile_qr_scan", "android": "https://dc.lft.to/lastmile_qr_scan"}, "name": "d3715a6b19c1d655817d877cc82c2ddb", "type": "electric_scooter", "fusion_lon": 0.0, "is_disabled": 0, "is_reserved": 0, "bike_id": "d3715a6b19c1d655817d877cc82c2ddb", "lon": -77.0416015}, {"fusion_lat": 0.0, "lat": 38.87632416666667, "rental_uris": {"ios": "https://dc.lft.to/lastmile_qr_scan", "android": "https://dc.lft.to/lastmile_qr_scan"}, "name": "fd141c2e6bbe0b0dff64fd85c4780aa9", "type": "electric_scooter", "fusion_lon": 0.0, "is_disabled": 0, "is_reserved": 0, "bike_id": "fd141c2e6bbe0b0dff64fd85c4780aa9", "lon": -77.005993}, {"fusion_lat": 0.0, "lat": 38.94065233333333, "rental_uris": {"ios": "https://dc.lft.to/lastmile_qr_scan", "android": "https://dc.lft.to/lastmile_qr_scan"}, "name": "f7680e79a75180fbd15018633209614a", "type": "electric_scooter", "fusion_lon": 0.0, "is_disabled": 0, "is_reserved": 0, "bike_id": "f7680e79a75180fbd15018633209614a", "lon": -76.99946216666666}, {"fusion_lat": 0.0, "lat": 38.89812666666667, "rental_uris": {"ios": "https://dc.lft.to/lastmile_qr_scan", "android": "https://dc.lft.to/lastmile_qr_scan"}, "name": "ef08efa568df88e9864caa1183d6d531", "type": "electric_scooter", "fusion_lon": 0.0, "is_disabled": 0, "is_reserved": 0, "bike_id": "ef08efa568df88e9864caa1183d6d531", "lon": -77.03335333333334}, {"fusion_lat": 0.0, "lat": 38.91622066666667, "rental_uris": {"ios": "https://dc.lft.to/lastmile_qr_scan", "android": "https://dc.lft.to/lastmile_qr_scan"}, "name": "bdf608fb0dd6d71b0805b08aa35c97d7", "type": "electric_scooter", "fusion_lon": 0.0, "is_disabled": 0, "is_reserved": 0, "bike_id": "bdf608fb0dd6d71b0805b08aa35c97d7", "lon": -77.0429745}, {"fusion_lat": 0.0, "lat": 38.9184325, "rental_uris": {"ios": "https://dc.lft.to/lastmile_qr_scan", "android": "https://dc.lft.to/lastmile_qr_scan"}, "name": "7f464158b46c63fa9edcd2b5f8bb020e", "type": "electric_scooter", "fusion_lon": 0.0, "is_disabled": 0, "is_reserved": 0, "bike_id": "7f464158b46c63fa9edcd2b5f8bb020e", "lon": -77.04020866666667}, {"fusion_lat": 0.0, "lat": 38.921378, "rental_uris": {"ios": "https://dc.lft.to/lastmile_qr_scan", "android": "https://dc.lft.to/lastmile_qr_scan"}, "name": "897fc7d8d2107f8dc8c1ce36e66b0b55", "type": "electric_scooter", "fusion_lon": 0.0, "is_disabled": 0, "is_reserved": 0, "bike_id": "897fc7d8d2107f8dc8c1ce36e66b0b55", "lon": -77.01170283333333}, {"fusion_lat": 0.0, "lat": 38.964765166666666, "rental_uris": {"ios": "https://dc.lft.to/lastmile_qr_scan", "android": "https://dc.lft.to/lastmile_qr_scan"}, "name": "8a10e2f91345b21f24ab739cd8d8066f", "type": "electric_scooter", "fusion_lon": 0.0, "is_disabled": 0, "is_reserved": 0, "bike_id": "8a10e2f91345b21f24ab739cd8d8066f", "lon": -77.01192616666667}, {"fusion_lat": 0.0, "lat": 38.992320666666664, "rental_uris": {"ios": "https://dc.lft.to/lastmile_qr_scan", "android": "https://dc.lft.to/lastmile_qr_scan"}, "name": "a617e5ae26bf22eaad7d3d7c2b1ea53d", "type": "electric_bike", "fusion_lon": 0.0, "is_disabled": 0, "is_reserved": 0, "bike_id": "a617e5ae26bf22eaad7d3d7c2b1ea53d", "lon": -76.94417116666666},