{"data": {"bikes": [{"bike_id": "23e333ca6e4d69fc8db6a1a9e22a8c84", "type": "electric_bike", "is_disabled": 0, "lat": 38.85788433333333, "rental_uris": {"ios": "https://dc.lft.to/lastmile_qr_scan", "android": "https://dc.lft.to/lastmile_qr_scan"}, "is_reserved": 0, "fusion_lon": 0.0, "fusion_lat": 0.0, "lon": -77.12019233333334, "name": "23e333ca6e4d69fc8db6a1a9e22a8c84"}, {"bike_id": "84b8940c7a6e9ae7f0d5feb5092bbff6", "type": "electric_scooter", "is_disabled": 0, "lat": 38.905658333333335, "rental_uris": {"ios": "https://dc.lft.to/lastmile_qr_scan", "android": "https://dc.lft.to/lastmile_qr_scan"}, "is_reserved": 0, "fusion_lon": 0.0, "fusion_lat": 0.0, "lon": -76.98147916666667, "name": "84b8940c7a6e9ae7f0d5feb5092bbff6"}, {"bike_id": "85037e45f666823baeb54a8ddb4d2300", "type": "electric_scooter", "is_disabled": 0, "lat": 38.8842065, "rental_uris": {"ios": "https://dc.lft.to/lastmile_qr_scan", "android": "https://dc.lft.to/lastmile_qr_scan"}, "is_reserved": 0, "fusion_lon": 0.0, "fusion_lat": 0.0, "lon": -77.0314945, "name": "85037e45f666823baeb54a8ddb4d2300"}, {"bike_id": "2fab403943abd03d2e9406aee1f5fe25", "type": "electric_scooter", "is_disabled": 0, "lat": 38.932945333333336, "rental_uris": {"ios": "https://dc.lft.to/lastmile_qr_scan", "android": "https://dc.lft.to/lastmile_qr_scan"}, "is_reserved": 0, "fusion_lon": 0.0, "fusion_lat": 0.0, "lon": -77.04124316666666, "name": "2fab403943abd03d2e9406aee1f5fe25"}, {"bike_id": "1112c112798fb194f022bf48cc7c1886", "type": "electric_scooter", "is_disabled": 0, "lat": 38.926785, "rental_uris": {"ios": "https://dc.lft.to/lastmile_qr_scan", "android": "https://dc.lft.to/lastmile_qr_scan"}, "is_reserved": 0, "fusion_lon": 0.0, "fusion_lat": 0.0, "lon": -77.04358116666667, "name": "1112c112798fb194f022bf48cc7c1886"}, {"bike_id": "49441cd6954d5e5df287e92b2f6803d5", "type": "electric_scooter", "is_disabled": 0, "lat": 38.89549016666667, "rental_uris": {"ios": "https://dc.lft.to/lastmile_qr_scan", "android": "https://dc.lft.to/lastmile_qr_scan"}, "is_reserved": 0, "fusion_lon": 0.0, "fusion_lat": 0.0, "lon": -76.92955033333334, "name": "49441cd6954d5e5df287e92b2f6803d5"}, {"bike_id": "e294fd589790dd14447c50a30328508c", "type": "electric_scooter", "is_disabled": 0, "lat": 38.920438, "rental_uris": {"ios": "https://dc.lft.to/lastmile_qr_scan", "android": "https://dc.lft.to/lastmile_qr_scan"}, "is_reserved": 0, "fusion_lon": 0.0, "fusion_lat": 0.0, "lon": -77.033865, "name": "e294fd589790dd14447c50a30328508c"}, {"bike_id": "24a5d6dd792466521ae07997418e07c4", "type": "electric_scooter", "is_disabled": 0, "lat": 38.87293783333333, "rental_uris": {"ios": "https://dc.lft.to/lastmile_qr_scan", "android": "https://dc.lft.to/lastmile_qr_scan"}, "is_reserved": 0, "fusion_lon": 0.0, "fusion_lat": 0.0, "lon": -76.97728733333334, "name": "24a5d6dd792466521ae07997418e07c4"}, {"bike_id": "c321248ad97d26a1949ff00fae107f0b", "type": "electric_scooter", "is_disabled": 0, "lat": 38.895012666666666, "rental_uris": {"ios": "https://dc.lft.to/lastmile_qr_scan", "android": "https://dc.lft.to/lastmile_qr_scan"}, "is_reserved": 0, "fusion_lon": 0.0, "fusion_lat": 0.0, "lon": -77.000519, "name": "c321248ad97d26a1949ff00fae107f0b"}, {"bike_id": "7e825b7a18a54e62b901d406debbf904", "type": "electric_scooter", "is_disabled": 0, "lat": 38.91134916666667, "rental_uris": {"ios": "https://dc.lft.to/lastmile_qr_scan", "android": "https://dc.lft.to/lastmile_qr_scan"}, "is_reserved": 0, "fusion_lon": 0.0, "fusion_lat": 0.0, "lon": -77.06532566666667, "name": "7e825b7a18a54e62b901d406debbf904"}, {"bike_id": "4f44b9a46e16a52ef96e5f4bceea41b7", "type": "electric_scooter", "is_disabled": 0, "lat": 38.86249933333333, "rental_uris": {"ios": "https://dc.lft.to/lastmile_qr_scan", "android": "https://dc.lft.to/lastmile_qr_scan"}, "is_reserved": 0, "fusion_lon": 0.0, "fusion_lat": 0.0, "lon": -76.99504866666666, "name": "4f44b9a46e16a52ef96e5f4bceea41b7"}, {"bike_id": "b25d0b4311662128bf1428234d439735", "type": "electric_scooter", "is_disabled": 0, "lat": 38.905300833333335, "rental_uris": {"ios": "https://dc.lft.to/lastmile_qr_scan", "android": "https://dc.lft.to/lastmile_qr_scan"}, "is_reserved": 0, "fusion_lon": 0.0, "fusion_lat": 0.0, "lon": -77.0629925, "name": "b25d0b4311662128bf1428234d439735"}, {"bike_id": "507c669f76e1035373905ddc7019c05a", "type": "electric_bike", "is_disabled": 0, "lat": 38.92354183333333, "rental_uris": {"ios": "https://dc.lft.to/lastmile_qr_scan", "android": "https://dc.lft.to/lastmile_qr_scan"}, "is_reserved": 0, "fusion_lon": 0.0, "fusion_lat": 0.0, "lon": -76.97131766666666, "name": "507c669f76e1035373905ddc7019c05a"}, {"bike_id": "ad08b90ad58b2d4e361afab19a878e57", "type": "electric_scooter", "is_disabled": 0, "lat": 38.96209433333333, "rental_uris": {"ios": "https://dc.lft.to/lastmile_qr_scan", "android": "https://dc.lft.to/lastmile_qr_scan"}, "is_reserved": 0, "fusion_lon": 0.0, "fusion_lat": 0.0, "lon": -77.02226883333333, "name": "ad08b90ad58b2d4e361afab19a878e57"}, {"bike_id": "50c3b4b9dae18a32051d48c88c2c27c3", "type": "electric_bike", "is_disabled": 0, "lat": 38.934922, "rental_uris": {"ios": "https://dc.lft.to/lastmile_qr_scan", "android": "https://dc.lft.to/lastmile_qr_scan"}, "is_reserved": 0, "fusion_lon": 0.0, "fusion_lat": 0.0, "lon": -76.991364, "name": "50c3b4b9dae18a32051d48c88c2c27c3"}, {"bike_id": "9a5551b2d985a1111e8ab52042bb066b", "type": "electric_scooter", "is_disabled": 0, "lat": 38.927501, "rental_uris": {"ios": "https://dc.lft.to/lastmile_qr_scan", "android": "https://dc.lft.to/lastmile_qr_scan"}, "is_reserved": 0, "fusion_lon": 0.0, "fusion_lat": 0.0, "lon": -77.02536466666666, "name": "9a5551b2d985a1111e8ab52042bb066b"}, {"bike_id": "ee0a7db6243b3dfa65d04ec42f0f5999", "type": "electric_bike", "is_disabled": 0, "lat": 38.983810166666665, "rental_uris": {"ios": "https://dc.lft.to/lastmile_qr_scan", "android": "https://dc.lft.to/lastmile_qr_scan"}, "is_reserved": 0, "fusion_lon": 0.0, "fusion_lat": 0.0, "lon": -76.97218333333333, "name": "ee0a7db6243b3dfa65d04ec42f0f5999"}, {"bike_id": "71be813119649cb52560743182b068de", "type": "electric_bike", "is_disabled": 0, "lat": 38.943676833333335, "rental_uris": {"ios": "https://dc.lft.to/lastmile_qr_scan", "android": "https://dc.lft.to/lastmile_qr_scan"}, "is_reserved": 0, "fusion_lon": 0.0, "fusion_lat": 0.0, "lon": -76.96779433333333, "name": "71be813119649cb52560743182b068de"}, {"bike_id": "00aad2ad0878c9880223607ee0a7fefc", "type": "electric_bike", "is_disabled": 0, "lat": 38.91654616666667, "rental_uris": {"ios": "https://dc.lft.to/lastmile_qr_scan", "android": "https://dc.lft.to/lastmile_qr_scan"}, "is_reserved": 0, "fusion_lon": 0.0, "fusion_lat": 0.0, "lon": -77.06811433333333, "name": "00aad2ad0878c9880223607ee0a7fefc"}, {"bike_id": "69ddafa518c1c33aaf8b3215a02d5335", "type": "electric_scooter", "is_disabled": 0, "lat": 38.90366816666667, "rental_uris": {"ios": "https://dc.lft.to/lastmile_qr_scan", "android": "https://dc.lft.to/lastmile_qr_scan"}, "is_reserved": 0, "fusion_lon": 0.0, "fusion_lat": 0.0, "lon": -77.04861483333333, "name": "69ddafa518c1c33aaf8b3215a02d5335"}, {"bike_id": "bb811987e3cb3e74258ff1c4a63314f9", "type": "electric_scooter", "is_disabled": 0, "lat": 38.89299283333333, "rental_uris": {"ios": "https://dc.lft.to/lastmile_qr_scan", "android": "https://dc.lft.to/lastmile_qr_scan"}, "is_reserved": 0, "fusion_lon": 0.0, "fusion_lat": 0.0, "lon": -77.0124075, "name": "bb811987e3cb3e74258ff1c4a63314f9"}, {"bike_id": "55aed28a7c8bd6ac176e9b84d3a9af6e", "type": "electric_scooter", "is_disabled": 0, "lat": 38.936771, "rental_uris": {"ios": "https://dc.lft.to/lastmile_qr_scan", "android": "https://dc.lft.to/lastmile_qr_scan"}, "is_reserved": 0, "fusion_lon": 0.0, "fusion_lat": 0.0, "lon": -77.03567216666667, "name": "55aed28a7c8bd6ac176e9b84d3a9af6e"}, {"bike_id": "1f7e16262226ce18b429a2d969f4672f", "type": "electric_scooter", "is_disabled": 0, "lat": 38.85015766666667, "rental_uris": {"ios": "https://dc.lft.to/lastmile_qr_scan", "android": "https://dc.lft.to/lastmile_qr_scan"}, "is_reserved": 0, "fusion_lon": 0.0, "fusion_lat": 0.0, "lon": -76.97535083333334, "name": "1f7e16262226ce18b429a2d969f4672f"}, {"bike_id": "16978309f266fa563d856657503404b0", "type": "electric_scooter", "is_disabled": 0, "lat": 38.887459, "rental_uris": {"ios": "https://dc.lft.to/lastmile_qr_scan", "android": "https://dc.lft.to/lastmile_qr_scan"}, "is_reserved": 0, "fusion_lon": 0.0, "fusion_lat": 0.0, "lon": -76.996229, "name": "16978309f266fa563d856657503404b0"}, {"bike_id": "06147009169f58b89312c2576d6881c1", "type": "electric_scooter", "is_disabled": 0, "lat": 38.9166335, "rental_uris": {"ios": "https://dc.lft.to/lastmile_qr_scan", "android": "https://dc.lft.to/lastmile_qr_scan"}, "is_reserved": 0, "fusion_lon": 0.0, "fusion_lat": 0.0, "lon": -77.02893033333334, "name": "06147009169f58b89312c2576d6881c1"}, {"bike_id": "0add2f577f2e141502a8233c415f4d76", "type": "electric_scooter", "is_disabled": 0, "lat": 38.91506966666667, "rental_uris": {"ios": "https://dc.lft.to/lastmile_qr_scan", "android": "https://dc.lft.to/lastmile_qr_scan"}, "is_reserved": 0, "fusion_lon": 0.0, "fusion_lat": 0.0, "lon": -77.02197633333333, "name": "0add2f577f2e141502a8233c415f4d76"}, {"bike_id": "0486e9c88c6dfd26bb7b6a447e035aae", "type": "electric_scooter", "is_disabled": 0, "lat": 38.88851783333333, "rental_uris": {"ios": "https://dc.lft.to/lastmile_qr_scan", "android": "https://dc.lft.to/lastmile_qr_scan"}, "is_reserved": 0, "fusion_lon": 0.0, "fusion_lat": 0.0, "lon": -77.00052983333333, "name": "0486e9c88c6dfd26bb7b6a447e035aae"}, {"bike_id": "951043ff748775096c3c90e86d67171d", "type": "electric_scooter", "is_disabled": 0, "lat": 38.92406233333333, "rental_uris": {"ios": "https://dc.lft.to/lastmile_qr_scan", "android": "https://dc.lft.to/lastmile_qr_scan"}, "is_reserved": 0, "fusion_lon": 0.0, "fusion_lat": 0.0, "lon": -77.04293366666667, "name": "951043ff748775096c3c90e86d67171d"}, {"bike_id": "fe9a68477196c2447f84dbe7416a0e4f", "type": "electric_scooter", "is_disabled": 0, "lat": 38.9227865, "rental_uris": {"ios": "https://dc.lft.to/lastmile_qr_scan", "android": "https://dc.lft.to/lastmile_qr_scan"}, "is_reserved": 0, "fusion_lon": 0.0, "fusion_lat": 0.0, "lon": -77.0419565, "name": "fe9a68477196c2447f84dbe7416a0e4f"}, {"bike_id": "2ab8325e8b8d05c35bfd4918321dc9d9", "type": "electric_scooter", "is_disabled": 0, "lat": 38.92481816666667, "rental_uris": {"ios": "https://dc.lft.to/lastmile_qr_scan", "android": "https://dc.lft.to/lastmile_qr_scan"}, "is_reserved": 0, "fusion_lon": 0.0, "fusion_lat": 0.0, "lon": -77.0519985, "name": "2ab8325e8b8d05c35bfd4918321dc9d9"}, {"bike_id": "1f21eb9755cc866297ea1359d765d89a", "type": "electric_bike", "is_disabled": 0, "lat": 38.8910235, "rental_uris": {"ios": "https://dc.lft.to/lastmile_qr_scan", "android": "https://dc.lft.to/lastmile_qr_scan"}, "is_reserved": 0, "fusion_lon": 0.0, "fusion_lat": 0.0, "lon": -76.93481666666666, "name": "1f21eb9755cc866297ea1359d765d89a"}, {"bike_id": "2cef7eacb50b108b9a7a2cfb4af6b244", "type": "electric_scooter", "is_disabled": 0, "lat": 38.91183566666667, "rental_uris": {"ios": "https://dc.lft.to/lastmile_qr_scan", "android": "https://dc.lft.to/lastmile_qr_scan"}, "is_reserved": 0, "fusion_lon": 0.0, "fusion_lat": 0.0, "lon": -77.06554316666667, "name": "2cef7eacb50b108b9a7a2cfb4af6b244"}, {"bike_id": "b1c705973d52a3798bcb3e90410c1734", "type": "electric_scooter", "is_disabled": 0, "lat": 38.915687166666665, "rental_uris": {"ios": "https://dc.lft.to/lastmile_qr_scan", "android": "https://dc.lft.to/lastmile_qr_scan"}, "is_reserved": 0, "fusion_lon": 0.0, "fusion_lat": 0.0, "lon": -77.04283366666667, "name": "b1c705973d52a3798bcb3e90410c1734"}, {"bike_id": "92df57049dc9e150be862e84107294f0", "type": "electric_scooter", "is_disabled": 0, "lat": 38.91421483333333, "rental_uris": {"ios": "https://dc.lft.to/lastmile_qr_scan", "android": "https://dc.lft.to/lastmile_qr_scan"}, "is_reserved": 0, "fusion_lon": 0.0, "fusion_lat": 0.0, "lon": -77.03905483333334, "name": "92df57049dc9e150be862e84107294f0"}, {"bike_id": "a1371fc7f8c328c08d6d42fea189106d", "type": "electric_scooter", "is_disabled": 0, "lat": 38.880600333333334, "rental_uris": {"ios": "https://dc.lft.to/lastmile_qr_scan", "android": "https://dc.lft.to/lastmile_qr_scan"}, "is_reserved": 0, "fusion_lon": 0.0, "fusion_lat": 0.0, "lon": -76.93211166666667, "name": "a1371fc7f8c328c08d6d42fea189106d"}, {"bike_id": "be124c54d4f7dbde66deeef55f456431", "type": "electric_scooter", "is_disabled": 0, "lat": 38.956938, "rental_uris": {"ios": "https://dc.lft.to/lastmile_qr_scan", "android": "https://dc.lft.to/lastmile_qr_scan"}, "is_reserved": 0, "fusion_lon": 0.0, "fusion_lat": 0.0, "lon": -77.02400066666667, "name": "be124c54d4f7dbde66deeef55f456431"}, {"bike_id": "523f2ee2311d128184d09c00eff434c3", "type": "electric_scooter", "is_disabled": 0, "lat": 38.907324333333335, "rental_uris": {"ios": "https://dc.lft.to/lastmile_qr_scan", "android": "https://dc.lft.to/lastmile_qr_scan"}, "is_reserved": 0, "fusion_lon": 0.0, "fusion_lat": 0.0, "lon": -77.05327066666666, "name": "523f2ee2311d128184d09c00eff434c3"}, {"bike_id": "c4b3212997d8803ef443879473dda9a6", "type": "electric_scooter", "is_disabled": 0, "lat": 38.9143555, "rental_uris": {"ios": "https://dc.lft.to/lastmile_qr_scan", "android": "https://dc.lft.to/lastmile_qr_scan"}, "is_reserved": 0, "fusion_lon": 0.0, "fusion_lat": 0.0, "lon": -77.018814, "name": "c4b3212997d8803ef443879473dda9a6"}, {"bike_id": "4433ce3a3d52eb96c7339135ad5dc639", "type": "electric_scooter", "is_disabled": 0, "lat": 38.93239583333333, "rental_uris": {"ios": "https://dc.lft.to/lastmile_qr_scan", "android": "https://dc.lft.to/lastmile_qr_scan"}, "is_reserved": 0, "fusion_lon": 0.0, "fusion_lat": 0.0, "lon": -77.03587216666666, "name": "4433ce3a3d52eb96c7339135ad5dc639"}, {"bike_id": "74313c89e33858f99ac72edfd792db15", "type": "electric_scooter", "is_disabled": 0, "lat": 38.93099616666667, "rental_uris": {"ios": "https://dc.lft.to/lastmile_qr_scan", "android": "https://dc.lft.to/lastmile_qr_scan"}, "is_reserved": 0, "fusion_lon": 0.0, "fusion_lat": 0.0, "lon": -77.02478366666666, "name": "74313c89e33858f99ac72edfd792db15"}, {"bike_id": "c442c1f9633cbc3e546e5d6f5b24bdee", "type": "electric_scooter", "is_disabled": 0, "lat": 38.92065866666667, "rental_uris": {"ios": "https://dc.lft.to/lastmile_qr_scan", "android": "https://dc.lft.to/lastmile_qr_scan"}, "is_reserved": 0, "fusion_lon": 0.0, "fusion_lat": 0.0, "lon": -77.0345005, "name": "c442c1f9633cbc3e546e5d6f5b24bdee"}, {"bike_id": "1fd42e9b72b6447bf883dfabef087a66", "type": "electric_scooter", "is_disabled": 0, "lat": 38.917084333333335, "rental_uris": {"ios": "https://dc.lft.to/lastmile_qr_scan", "android": "https://dc.lft.to/lastmile_qr_scan"}, "is_reserved": 0, "fusion_lon": 0.0, "fusion_lat": 0.0, "lon": -77.04124783333333, "name": "1fd42e9b72b6447bf883dfabef087a66"}, {"bike_id": "8464d71fafb085ed0ee8a327d2b848ad", "type": "electric_scooter", "is_disabled": 0, "lat": 38.884943, "rental_uris": {"ios": "https://dc.lft.to/lastmile_qr_scan", "android": "https://dc.lft.to/lastmile_qr_scan"}, "is_reserved": 0, "fusion_lon": 0.0, "fusion_lat": 0.0, "lon": -77.015057, "name": "8464d71fafb085ed0ee8a327d2b848ad"}, {"bike_id": "c71f91cc369026bcbcb547751b45bda8", "type": "electric_scooter", "is_disabled": 0, "lat": 38.92686833333333, "rental_uris": {"ios": "https://dc.lft.to/lastmile_qr_scan", "android": "https://dc.lft.to/lastmile_qr_scan"}, "is_reserved": 0, "fusion_lon": 0.0, "fusion_lat": 0.0, "lon": -77.02157183333334, "name": "c71f91cc369026bcbcb547751b45bda8"}, {"bike_id": "3a51eecbc1567fe2df9b9db66a12e00c", "type": "electric_scooter", "is_disabled": 0, "lat": 38.92450983333333, "rental_uris": {"ios": "https://dc.lft.to/lastmile_qr_scan", "android": "https://dc.lft.to/lastmile_qr_scan"}, "is_reserved": 0, "fusion_lon": 0.0, "fusion_lat": 0.0, "lon": -77.03343066666666, "name": "3a51eecbc1567fe2df9b9db66a12e00c"}, {"bike_id": "b5f693f6968d3d85cbe6051aa085a266", "type": "electric_bike", "is_disabled": 0, "lat": 38.796143666666666, "rental_uris": {"ios": "https://dc.lft.to/lastmile_qr_scan", "android": "https://dc.lft.to/lastmile_qr_scan"}, "is_reserved": 0, "fusion_lon": 0.0, "fusion_lat": 0.0, "lon": -76.99742116666667, "name": "b5f693f6968d3d85cbe6051aa085a266"}, {"bike_id": "e30fbf6af05bde24ca760f61f4c54dd3", "type": "electric_scooter", "is_disabled": 0, "lat": 38.886811333333334, "rental_uris": {"ios": "https://dc.lft.to/lastmile_qr_scan", "android": "https://dc.lft.to/lastmile_qr_scan"}, "is_reserved": 0, "fusion_lon": 0.0, "fusion_lat": 0.0, "lon": -76.99142116666667, "name": "e30fbf6af05bde24ca760f61f4c54dd3"}, {"bike_id": "765710684260c91d509b6407d8e28a7d", "type": "electric_scooter", "is_disabled": 0, "lat": 38.865514166666664, "rental_uris": {"ios": "https://dc.lft.to/lastmile_qr_scan", "android": "https://dc.lft.to/lastmile_qr_scan"}, "is_reserved": 0, "fusion_lon": 0.0, "fusion_lat": 0.0, "lon": -76.97037516666667, "name": "765710684260c91d509b6407d8e28a7d"}, {"bike_id": "47a2f9cb57c0e911b4bfd7257851b846", "type": "electric_scooter", "is_disabled": 0, "lat": 38.892322666666665, "rental_uris": {"ios": "https://dc.lft.to/lastmile_qr_scan", "android": "https://dc.lft.to/lastmile_qr_scan"}, "is_reserved": 0, "fusion_lon": 0.0, "fusion_lat": 0.0, "lon": -77.02914066666666, "name": "47a2f9cb57c0e911b4bfd7257851b846"}, {"bike_id": "29c40c55169339ff524c49f8603f3aed", "type": "electric_scooter", "is_disabled": 0, "lat": 38.9052985, "rental_uris": {"ios": "https://dc.lft.to/lastmile_qr_scan", "android": "https://dc.lft.to/lastmile_qr_scan"}, "is_reserved": 0, "fusion_lon": 0.0, "fusion_lat": 0.0, "lon": -77.05678516666667, "name": "29c40c55169339ff524c49f8603f3aed"}, {"bike_id": "1c8ef2cdc569b0f5b798533b5d4200b5", "type": "electric_scooter", "is_disabled": 0, "lat": 38.918714666666666, "rental_uris": {"ios": "https://dc.lft.to/lastmile_qr_scan", "android": "https://dc.lft.to/lastmile_qr_scan"}, "is_reserved": 0, "fusion_lon": 0.0, "fusion_lat": 0.0, "lon": -77.04448733333334, "name": "1c8ef2cdc569b0f5b798533b5d4200b5"}, {"bike_id": "70f13e90c8afef64e11a37a7eb1824c3", "type": "electric_scooter", "is_disabled": 0, "lat": 38.912153833333335, "rental_uris": {"ios": "https://dc.lft.to/lastmile_qr_scan", "android": "https://dc.lft.to/lastmile_qr_scan"}, "is_reserved": 0, "fusion_lon": 0.0, "fusion_lat": 0.0, "lon": -77.00190166666667, "name": "70f13e90c8afef64e11a37a7eb1824c3"}, {"bike_id": "8e72c89077ef9b4457e507f73f333259", "type": "electric_scooter", "is_disabled": 0, "lat": 38.8922555, "rental_uris": {"ios": "https://dc.lft.to/lastmile_qr_scan", "android": "https://dc.lft.to/lastmile_qr_scan"}, "is_reserved": 0, "fusion_lon": 0.0, "fusion_lat": 0.0, "lon": -77.04871016666667, "name": "8e72c89077ef9b4457e507f73f333259"}, {"bike_id": "803bf1864b307615050e46baebdc1a00", "type": "electric_scooter", "is_disabled": 0, "lat": 38.901442833333334, "rental_uris": {"ios": "https://dc.lft.to/lastmile_qr_scan", "android": "https://dc.lft.to/lastmile_qr_scan"}, "is_reserved": 0, "fusion_lon": 0.0, "fusion_lat": 0.0, "lon": -77.02408333333334, "name": "803bf1864b307615050e46baebdc1a00"}, {"bike_id": "04e73117069380ddd28b7d41b4ba70cc", "type": "electric_scooter", "is_disabled": 0, "lat": 38.9244725, "rental_uris": {"ios": "https://dc.lft.to/lastmile_qr_scan", "android": "https://dc.lft.to/lastmile_qr_scan"}, "is_reserved": 0, "fusion_lon": 0.0, "fusion_lat": 0.0, "lon": -77.0410785, "name": "04e73117069380ddd28b7d41b4ba70cc"}, {"bike_id": "bb741c4174cfb24aebbe37b8276518bb", "type": "electric_scooter", "is_disabled": 0, "lat": 38.8998715, "rental_uris": {"ios": "https://dc.lft.to/lastmile_qr_scan", "android": "https://dc.lft.to/lastmile_qr_scan"}, "is_reserved": 0, "fusion_lon": 0.0, "fusion_lat": 0.0, "lon": -77.007257, "name": "bb741c4174cfb24aebbe37b8276518bb"}, {"bike_id": "afffbdc1c5ff58806ca857ae2f397bdd", "type": "electric_bike", "is_disabled": 0, "lat": 38.943662833333335, "rental_uris": {"ios": "https://dc.lft.to/lastmile_qr_scan", "android": "https://dc.lft.to/lastmile_qr_scan"}, "is_reserved": 0, "fusion_lon": 0.0, "fusion_lat": 0.0, "lon": -76.96776183333333, "name": "afffbdc1c5ff58806ca857ae2f397bdd"}, {"bike_id": "9b1f685ef7011e64077800113ce671f1", "type": "electric_scooter", "is_disabled": 0, "lat": 38.90615583333334, "rental_uris": {"ios": "https://dc.lft.to/lastmile_qr_scan", "android": "https://dc.lft.to/lastmile_qr_scan"}, "is_reserved": 0, "fusion_lon": 0.0, "fusion_lat": 0.0, "lon": -77.0058165, "name": "9b1f685ef7011e64077800113ce671f1"}, {"bike_id": "7f98454549ebf4c77e9c24e649ef1e2a", "type": "electric_scooter", "is_disabled": 0, "lat": 38.924518, "rental_uris": {"ios": "https://dc.lft.to/lastmile_qr_scan", "android": "https://dc.lft.to/lastmile_qr_scan"}, "is_reserved": 0, "fusion_lon": 0.0, "fusion_lat": 0.0, "lon": -77.0327245, "name": "7f98454549ebf4c77e9c24e649ef1e2a"}, {"bike_id": "daa81e75274cfa2e5ce998f366c1fdd9", "type": "electric_scooter", "is_disabled": 0, "lat": 38.895471, "rental_uris": {"ios": "https://dc.lft.to/lastmile_qr_scan", "android": "https://dc.lft.to/lastmile_qr_scan"}, "is_reserved": 0, "fusion_lon": 0.0, "fusion_lat": 0.0, "lon": -76.94946283333333, "name": "daa81e75274cfa2e5ce998f366c1fdd9"}, {"bike_id": "0377f110b05b609cc910acb351d8b530", "type": "electric_scooter", "is_disabled": 0, "lat": 38.9228935, "rental_uris": {"ios": "https://dc.lft.to/lastmile_qr_scan", "android": "https://dc.lft.to/lastmile_qr_scan"}, "is_reserved": 0, "fusion_lon": 0.0, "fusion_lat": 0.0, "lon": -77.02245016666667, "name": "0377f110b05b609cc910acb351d8b530"}, {"bike_id": "4bdc42d5f699ec8111f6d0c9b1dd8eda", "type": "electric_scooter", "is_disabled": 0, "lat": 38.923178, "rental_uris": {"ios": "https://dc.lft.to/lastmile_qr_scan", "android": "https://dc.lft.to/lastmile_qr_scan"}, "is_reserved": 0, "fusion_lon": 0.0, "fusion_lat": 0.0, "lon": -77.042098, "name": "4bdc42d5f699ec8111f6d0c9b1dd8eda"}, {"bike_id": "580bb15d402908dca88b87a5cf7f61cd", "type": "electric_scooter", "is_disabled": 0, "lat": 38.91361166666667, "rental_uris": {"ios": "https://dc.lft.to/lastmile_qr_scan", "android": "https://dc.lft.to/lastmile_qr_scan"}, "is_reserved": 0, "fusion_lon": 0.0, "fusion_lat": 0.0, "lon": -77.04552733333334, "name": "580bb15d402908dca88b87a5cf7f61cd"}, {"bike_id": "56607bc7fafd9664dd85bd38a98156e5", "type": "electric_scooter", "is_disabled": 0, "lat": 38.86661016666667, "rental_uris": {"ios": "https://dc.lft.to/lastmile_qr_scan", "android": "https://dc.lft.to/lastmile_qr_scan"}, "is_reserved": 0, "fusion_lon": 0.0, "fusion_lat": 0.0, "lon": -76.98885083333333, "name": "56607bc7fafd9664dd85bd38a98156e5"}, {"bike_id": "f048f2060f2e4fb66c97ade366206eb2", "type": "electric_scooter", "is_disabled": 0, "lat": 38.92337283333333, "rental_uris": {"ios": "https://dc.lft.to/lastmile_qr_scan", "android": "https://dc.lft.to/lastmile_qr_scan"}, "is_reserved": 0, "fusion_lon": 0.0, "fusion_lat": 0.0, "lon": -77.03613383333334, "name": "f048f2060f2e4fb66c97ade366206eb2"}, {"bike_id": "3df85046f43d7b67c4e378023514358d", "type": "electric_scooter", "is_disabled": 0, "lat": 38.90392383333333, "rental_uris": {"ios": "https://dc.lft.to/lastmile_qr_scan", "android": "https://dc.lft.to/lastmile_qr_scan"}, "is_reserved": 0, "fusion_lon": 0.0, "fusion_lat": 0.0, "lon": -77.0687645, "name": "3df85046f43d7b67c4e378023514358d"}, {"bike_id": "36a60782dd42dc0140bf1a1b5c87ce5f", "type": "electric_scooter", "is_disabled": 0, "lat": 38.929125666666664, "rental_uris": {"ios": "https://dc.lft.to/lastmile_qr_scan", "android": "https://dc.lft.to/lastmile_qr_scan"}, "is_reserved": 0, "fusion_lon": 0.0, "fusion_lat": 0.0, "lon": -77.02272183333334, "name": "36a60782dd42dc0140bf1a1b5c87ce5f"}, {"bike_id": "b006231fa3a712ce92499a777677572f", "type": "electric_bike", "is_disabled": 0, "lat": 38.944785333333336, "rental_uris": {"ios": "https://dc.lft.to/lastmile_qr_scan", "android": "https://dc.lft.to/lastmile_qr_scan"}, "is_reserved": 0, "fusion_lon": 0.0, "fusion_lat": 0.0, "lon": -76.98688733333333, "name": "b006231fa3a712ce92499a777677572f"}, {"bike_id": "2fe75913ef70c8b7f4629b5769f8437a", "type": "electric_scooter", "is_disabled": 0, "lat": 38.9103145, "rental_uris": {"ios": "https://dc.lft.to/lastmile_qr_scan", "android": "https://dc.lft.to/lastmile_qr_scan"}, "is_reserved": 0, "fusion_lon": 0.0, "fusion_lat": 0.0, "lon": -76.9866825, "name": "2fe75913ef70c8b7f4629b5769f8437a"}, {"bike_id": "812ebb0f20da53a32971dc2090b1f5aa", "type": "electric_scooter", "is_disabled": 0, "lat": 38.904158, "rental_uris": {"ios": "https://dc.lft.to/lastmile_qr_scan", "android": "https://dc.lft.to/lastmile_qr_scan"}, "is_reserved": 0, "fusion_lon": 0.0, "fusion_lat": 0.0, "lon": -76.973383, "name": "812ebb0f20da53a32971dc2090b1f5aa"}, {"bike_id": "11a663d2ca564a961971708f8388972d", "type": "electric_scooter", "is_disabled": 0, "lat": 38.9096035, "rental_uris": {"ios": "https://dc.lft.to/lastmile_qr_scan", "android": "https://dc.lft.to/lastmile_qr_scan"}, "is_reserved": 0, "fusion_lon": 0.0, "fusion_lat": 0.0, "lon": -77.04479966666666, "name": "11a663d2ca564a961971708f8388972d"}, {"bike_id": "1b161d59cbc65b0520af8b7819861778", "type": "electric_scooter", "is_disabled": 0, "lat": 38.93431433333333, "rental_uris": {"ios": "https://dc.lft.to/lastmile_qr_scan", "android": "https://dc.lft.to/lastmile_qr_scan"}, "is_reserved": 0, "fusion_lon": 0.0, "fusion_lat": 0.0, "lon": -77.07256716666667, "name": "1b161d59cbc65b0520af8b7819861778"}, {"bike_id": "3c434a01e338d69926497e328b49cd29", "type": "electric_scooter", "is_disabled": 0, "lat": 38.920959333333336, "rental_uris": {"ios": "https://dc.lft.to/lastmile_qr_scan", "android": "https://dc.lft.to/lastmile_qr_scan"}, "is_reserved": 0, "fusion_lon": 0.0, "fusion_lat": 0.0, "lon": -77.0170125, "name": "3c434a01e338d69926497e328b49cd29"}, {"bike_id": "fce5264611106a6c6be0ed98659e833b", "type": "electric_scooter", "is_disabled": 0, "lat": 38.9197335, "rental_uris": {"ios": "https://dc.lft.to/lastmile_qr_scan", "android": "https://dc.lft.to/lastmile_qr_scan"}, "is_reserved": 0, "fusion_lon": 0.0, "fusion_lat": 0.0, "lon": -77.04226, "name": "fce5264611106a6c6be0ed98659e833b"}, {"bike_id": "6d2e6f26c5ac17079ad492be12d7b49e", "type": "electric_scooter", "is_disabled": 0, "lat": 38.88256533333333, "rental_uris": {"ios": "https://dc.lft.to/lastmile_qr_scan", "android": "https://dc.lft.to/lastmile_qr_scan"}, "is_reserved": 0, "fusion_lon": 0.0, "fusion_lat": 0.0, "lon": -76.9950855, "name": "6d2e6f26c5ac17079ad492be12d7b49e"}, {"bike_id": "b64d5fc2a2d3ae42eecebc5cc96de145", "type": "electric_scooter", "is_disabled": 0, "lat": 38.92236416666667, "rental_uris": {"ios": "https://dc.lft.to/lastmile_qr_scan", "android": "https://dc.lft.to/lastmile_qr_scan"}, "is_reserved": 0, "fusion_lon": 0.0, "fusion_lat": 0.0, "lon": -76.97527516666666, "name": "b64d5fc2a2d3ae42eecebc5cc96de145"}, {"bike_id": "ee28db7ccda39af734a8adfa6b4c690a", "type": "electric_bike", "is_disabled": 0, "lat": 39.051248666666666, "rental_uris": {"ios": "https://dc.lft.to/lastmile_qr_scan", "android": "https://dc.lft.to/lastmile_qr_scan"}, "is_reserved": 0, "fusion_lon": 0.0, "fusion_lat": 0.0, "lon": -77.11725883333334, "name": "ee28db7ccda39af734a8adfa6b4c690a"}, {"bike_id": "d489355f64d6fb6773249831cfb9a8aa", "type": "electric_scooter", "is_disabled": 0, "lat": 38.87661266666667, "rental_uris": {"ios": "https://dc.lft.to/lastmile_qr_scan", "android": "https://dc.lft.to/lastmile_qr_scan"}, "is_reserved": 0, "fusion_lon": 0.0, "fusion_lat": 0.0, "lon": -76.99644333333333, "name": "d489355f64d6fb6773249831cfb9a8aa"}, {"bike_id": "6f04753fdf5b31c53976b0d6605b97b8", "type": "electric_scooter", "is_disabled": 0, "lat": 38.933188, "rental_uris": {"ios": "https://dc.lft.to/lastmile_qr_scan", "android": "https://dc.lft.to/lastmile_qr_scan"}, "is_reserved": 0, "fusion_lon": 0.0, "fusion_lat": 0.0, "lon": -77.02752483333333, "name": "6f04753fdf5b31c53976b0d6605b97b8"}, {"bike_id": "816396be324ebdb029bc9df4e33cb558", "type": "electric_scooter", "is_disabled": 0, "lat": 38.93542466666667, "rental_uris": {"ios": "https://dc.lft.to/lastmile_qr_scan", "android": "https://dc.lft.to/lastmile_qr_scan"}, "is_reserved": 0, "fusion_lon": 0.0, "fusion_lat": 0.0, "lon": -77.058268, "name": "816396be324ebdb029bc9df4e33cb558"}, {"bike_id": "f18519eee29e350e01b371bfafc3f317", "type": "electric_scooter", "is_disabled": 0, "lat": 38.9026085, "rental_uris": {"ios": "https://dc.lft.to/lastmile_qr_scan", "android": "https://dc.lft.to/lastmile_qr_scan"}, "is_reserved": 0, "fusion_lon": 0.0, "fusion_lat": 0.0, "lon": -77.018146, "name": "f18519eee29e350e01b371bfafc3f317"}, {"bike_id": "d1c99e331e5743dfdcf218b254e97bf8", "type": "electric_scooter", "is_disabled": 0, "lat": 38.90263233333334, "rental_uris": {"ios": "https://dc.lft.to/lastmile_qr_scan", "android": "https://dc.lft.to/lastmile_qr_scan"}, "is_reserved": 0, "fusion_lon": 0.0, "fusion_lat": 0.0, "lon": -77.0346895, "name": "d1c99e331e5743dfdcf218b254e97bf8"}, {"bike_id": "38888cb056cd90e285d85dfd92d9bb05", "type": "electric_scooter", "is_disabled": 0, "lat": 38.89935716666667, "rental_uris": {"ios": "https://dc.lft.to/lastmile_qr_scan", "android": "https://dc.lft.to/lastmile_qr_scan"}, "is_reserved": 0, "fusion_lon": 0.0, "fusion_lat": 0.0, "lon": -77.04777516666667, "name": "38888cb056cd90e285d85dfd92d9bb05"}, {"bike_id": "8c29af0f0fa1181188a14e0fe1bdfb5d", "type": "electric_scooter", "is_disabled": 0, "lat": 38.900881166666665, "rental_uris": {"ios": "https://dc.lft.to/lastmile_qr_scan", "android": "https://dc.lft.to/lastmile_qr_scan"}, "is_reserved": 0, "fusion_lon": 0.0, "fusion_lat": 0.0, "lon": -77.03084816666667, "name": "8c29af0f0fa1181188a14e0fe1bdfb5d"}, {"bike_id": "282977d1a481afcd6c5fd26d14caf441", "type": "electric_scooter", "is_disabled": 0, "lat": 38.891114, "rental_uris": {"ios": "https://dc.lft.to/lastmile_qr_scan", "android": "https://dc.lft.to/lastmile_qr_scan"}, "is_reserved": 0, "fusion_lon": 0.0, "fusion_lat": 0.0, "lon": -77.01507416666666, "name": "282977d1a481afcd6c5fd26d14caf441"}, {"bike_id": "ef51154db2ec30a10a3ae069676963ab", "type": "electric_scooter", "is_disabled": 0, "lat": 38.914020666666666, "rental_uris": {"ios": "https://dc.lft.to/lastmile_qr_scan", "android": "https://dc.lft.to/lastmile_qr_scan"}, "is_reserved": 0, "fusion_lon": 0.0, "fusion_lat": 0.0, "lon": -77.03146666666666, "name": "ef51154db2ec30a10a3ae069676963ab"}, {"bike_id": "4349a8500d7a7fa11abcbd9378fe2f76", "type": "electric_scooter", "is_disabled": 0, "lat": 38.91247383333334, "rental_uris": {"ios": "https://dc.lft.to/lastmile_qr_scan", "android": "https://dc.lft.to/lastmile_qr_scan"}, "is_reserved": 0, "fusion_lon": 0.0, "fusion_lat": 0.0, "lon": -77.03863633333333, "name": "4349a8500d7a7fa11abcbd9378fe2f76"}, {"bike_id": "56f8018bbd27f90cadaf27dca814923f", "type": "electric_bike", "is_disabled": 0, "lat": 38.83672, "rental_uris": {"ios": "https://dc.lft.to/lastmile_qr_scan", "android": "https://dc.lft.to/lastmile_qr_scan"}, "is_reserved": 0, "fusion_lon": 0.0, "fusion_lat": 0.0, "lon": -76.99362216666667, "name": "56f8018bbd27f90cadaf27dca814923f"}, {"bike_id": "bb4a73da3167b948682387796f9e3b87", "type": "electric_scooter", "is_disabled": 0, "lat": 38.927473666666664, "rental_uris": {"ios": "https://dc.lft.to/lastmile_qr_scan", "android": "https://dc.lft.to/lastmile_qr_scan"}, "is_reserved": 0, "fusion_lon": 0.0, "fusion_lat": 0.0, "lon": -77.03388333333334, "name": "bb4a73da3167b948682387796f9e3b87"}, {"bike_id": "212f154dafe4ae9a361faf9461338384", "type": "electric_scooter", "is_disabled": 0, "lat": 38.9065035, "rental_uris": {"ios": "https://dc.lft.to/lastmile_qr_scan", "android": "https://dc.lft.to/lastmile_qr_scan"}, "is_reserved": 0, "fusion_lon": 0.0, "fusion_lat": 0.0, "lon": -77.017329, "name": "212f154dafe4ae9a361faf9461338384"}, {"bike_id": "a3a7f683cf368df089b653bb845452da", "type": "electric_bike", "is_disabled": 0, "lat": 38.8944005, "rental_uris": {"ios": "https://dc.lft.to/lastmile_qr_scan", "android": "https://dc.lft.to/lastmile_qr_scan"}, "is_reserved": 0, "fusion_lon": 0.0, "fusion_lat": 0.0, "lon": -77.1883625, "name": "a3a7f683cf368df089b653bb845452da"}, {"bike_id": "67a0dff8aefa7711c27b24518a80028e", "type": "electric_scooter", "is_disabled": 0, "lat": 38.910402500000004, "rental_uris": {"ios": "https://dc.lft.to/lastmile_qr_scan", "android": "https://dc.lft.to/lastmile_qr_scan"}, "is_reserved": 0, "fusion_lon": 0.0, "fusion_lat": 0.0, "lon": -77.03798566666667, "name": "67a0dff8aefa7711c27b24518a80028e"}, {"bike_id": "e3d71cb56e2bafec2568af6c16056b7a", "type": "electric_scooter", "is_disabled": 0, "lat": 38.929035666666664, "rental_uris": {"ios": "https://dc.lft.to/lastmile_qr_scan", "android": "https://dc.lft.to/lastmile_qr_scan"}, "is_reserved": 0, "fusion_lon": 0.0, "fusion_lat": 0.0, "lon": -77.03264866666666, "name": "e3d71cb56e2bafec2568af6c16056b7a"}, {"bike_id": "0b171fb4f618c1d1076c7653dbae51ca", "type": "electric_scooter", "is_disabled": 0, "lat": 38.91915633333333, "rental_uris": {"ios": "https://dc.lft.to/lastmile_qr_scan", "android": "https://dc.lft.to/lastmile_qr_scan"}, "is_reserved": 0, "fusion_lon": 0.0, "fusion_lat": 0.0, "lon": -77.0341785, "name": "0b171fb4f618c1d1076c7653dbae51ca"}, {"bike_id": "3da100afda2fa26ae178a1270d15a404", "type": "electric_scooter", "is_disabled": 0, "lat": 38.908835, "rental_uris": {"ios": "https://dc.lft.to/lastmile_qr_scan", "android": "https://dc.lft.to/lastmile_qr_scan"}, "is_reserved": 0, "fusion_lon": 0.0, "fusion_lat": 0.0, "lon": -77.04354366666666, "name": "3da100afda2fa26ae178a1270d15a404"}, {"bike_id": "eb25227bb9870a99ac225d713c1cdbe6", "type": "electric_scooter", "is_disabled": 0, "lat": 38.8826725, "rental_uris": {"ios": "https://dc.lft.to/lastmile_qr_scan", "android": "https://dc.lft.to/lastmile_qr_scan"}, "is_reserved": 0, "fusion_lon": 0.0, "fusion_lat": 0.0, "lon": -76.99250216666667, "name": "eb25227bb9870a99ac225d713c1cdbe6"}, {"bike_id": "6f76820ac18bc6323a1c16642577c4f1", "type": "electric_scooter", "is_disabled": 0, "lat": 38.9052335, "rental_uris": {"ios": "https://dc.lft.to/lastmile_qr_scan", "android": "https://dc.lft.to/lastmile_qr_scan"}, "is_reserved": 0, "fusion_lon": 0.0, "fusion_lat": 0.0, "lon": -77.06374833333334, "name": "6f76820ac18bc6323a1c16642577c4f1"}, {"bike_id": "2d359f2a9e07e7c2d119b5e9c9a00b6d", "type": "electric_scooter", "is_disabled": 0, "lat": 38.908271, "rental_uris": {"ios": "https://dc.lft.to/lastmile_qr_scan", "android": "https://dc.lft.to/lastmile_qr_scan"}, "is_reserved": 0, "fusion_lon": 0.0, "fusion_lat": 0.0, "lon": -77.02388666666667, "name": "2d359f2a9e07e7c2d119b5e9c9a00b6d"}, {"bike_id": "d097a40516bc692cef7f9cb4a8a1d754", "type": "electric_scooter", "is_disabled": 0, "lat": 38.90683883333333, "rental_uris": {"ios": "https://dc.lft.to/lastmile_qr_scan", "android": "https://dc.lft.to/lastmile_qr_scan"}, "is_reserved": 0, "fusion_lon": 0.0, "fusion_lat": 0.0, "lon": -77.0634075, "name": "d097a40516bc692cef7f9cb4a8a1d754"}, {"bike_id": "9581dfbdea4464b8b5489d9c4d4803d9", "type": "electric_scooter", "is_disabled": 0, "lat": 38.9085135, "rental_uris": {"ios": "https://dc.lft.to/lastmile_qr_scan", "android": "https://dc.lft.to/lastmile_qr_scan"}, "is_reserved": 0, "fusion_lon": 0.0, "fusion_lat": 0.0, "lon": -77.05566083333333, "name": "9581dfbdea4464b8b5489d9c4d4803d9"}, {"bike_id": "5ccf3c301a8a19ae6892436c4b3a211e", "type": "electric_scooter", "is_disabled": 0, "lat": 38.91534683333333, "rental_uris": {"ios": "https://dc.lft.to/lastmile_qr_scan", "android": "https://dc.lft.to/lastmile_qr_scan"}, "is_reserved": 0, "fusion_lon": 0.0, "fusion_lat": 0.0, "lon": -77.01990216666667, "name": "5ccf3c301a8a19ae6892436c4b3a211e"}, {"bike_id": "d16e9129bda0721a6513e6af99c6f01c", "type": "electric_scooter", "is_disabled": 0, "lat": 38.903908333333334, "rental_uris": {"ios": "https://dc.lft.to/lastmile_qr_scan", "android": "https://dc.lft.to/lastmile_qr_scan"}, "is_reserved": 0, "fusion_lon": 0.0, "fusion_lat": 0.0, "lon": -77.06857933333333, "name": "d16e9129bda0721a6513e6af99c6f01c"}, {"bike_id": "9aa34cec641b6c75c0d5c0bb834925fe", "type": "electric_scooter", "is_disabled": 0, "lat": 38.92380266666667, "rental_uris": {"ios": "https://dc.lft.to/lastmile_qr_scan", "android": "https://dc.lft.to/lastmile_qr_scan"}, "is_reserved": 0, "fusion_lon": 0.0, "fusion_lat": 0.0, "lon": -77.04083316666667, "name": "9aa34cec641b6c75c0d5c0bb834925fe"}, {"bike_id": "d7170a6d8dbcb85bce104ec2f25edff2", "type": "electric_scooter", "is_disabled": 0, "lat": 38.921504666666664, "rental_uris": {"ios": "https://dc.lft.to/lastmile_qr_scan", "android": "https://dc.lft.to/lastmile_qr_scan"}, "is_reserved": 0, "fusion_lon": 0.0, "fusion_lat": 0.0, "lon": -77.04347166666666, "name": "d7170a6d8dbcb85bce104ec2f25edff2"}, {"bike_id": "2b5cacf743ee61596015da5dc0e8c3db", "type": "electric_scooter", "is_disabled": 0, "lat": 38.9433215, "rental_uris": {"ios": "https://dc.lft.to/lastmile_qr_scan", "android": "https://dc.lft.to/lastmile_qr_scan"}, "is_reserved": 0, "fusion_lon": 0.0, "fusion_lat": 0.0, "lon": -77.01476633333333, "name": "2b5cacf743ee61596015da5dc0e8c3db"}, {"bike_id": "bf178e532c8a149f43c2691a92c9eaca", "type": "electric_scooter", "is_disabled": 0, "lat": 38.8718535, "rental_uris": {"ios": "https://dc.lft.to/lastmile_qr_scan", "android": "https://dc.lft.to/lastmile_qr_scan"}, "is_reserved": 0, "fusion_lon": 0.0, "fusion_lat": 0.0, "lon": -77.00613233333333, "name": "bf178e532c8a149f43c2691a92c9eaca"}, {"bike_id": "2ec28f8d9569af31efe16bec5bc906cd", "type": "electric_scooter", "is_disabled": 0, "lat": 38.9130295, "rental_uris": {"ios": "https://dc.lft.to/lastmile_qr_scan", "android": "https://dc.lft.to/lastmile_qr_scan"}, "is_reserved": 0, "fusion_lon": 0.0, "fusion_lat": 0.0, "lon": -77.01689016666667, "name": "2ec28f8d9569af31efe16bec5bc906cd"}, {"bike_id": "8ed95286a63c29c06111dc7043312123", "type": "electric_scooter", "is_disabled": 0, "lat": 38.929216833333335, "rental_uris": {"ios": "https://dc.lft.to/lastmile_qr_scan", "android": "https://dc.lft.to/lastmile_qr_scan"}, "is_reserved": 0, "fusion_lon": 0.0, "fusion_lat": 0.0, "lon": -77.03303316666667, "name": "8ed95286a63c29c06111dc7043312123"}, {"bike_id": "2772c5da25c9ceab609b6bb54e13c7b0", "type": "electric_scooter", "is_disabled": 0, "lat": 38.91650116666667, "rental_uris": {"ios": "https://dc.lft.to/lastmile_qr_scan", "android": "https://dc.lft.to/lastmile_qr_scan"}, "is_reserved": 0, "fusion_lon": 0.0, "fusion_lat": 0.0, "lon": -77.0227655, "name": "2772c5da25c9ceab609b6bb54e13c7b0"}, {"bike_id": "29a5891f3b41ddbb91daaf6be3f822f5", "type": "electric_scooter", "is_disabled": 0, "lat": 38.914297, "rental_uris": {"ios": "https://dc.lft.to/lastmile_qr_scan", "android": "https://dc.lft.to/lastmile_qr_scan"}, "is_reserved": 0, "fusion_lon": 0.0, "fusion_lat": 0.0, "lon": -77.03217233333334, "name": "29a5891f3b41ddbb91daaf6be3f822f5"}, {"bike_id": "a2dbc59ec5da707223e08e0d160e5e02", "type": "electric_scooter", "is_disabled": 0, "lat": 38.93420016666666, "rental_uris": {"ios": "https://dc.lft.to/lastmile_qr_scan", "android": "https://dc.lft.to/lastmile_qr_scan"}, "is_reserved": 0, "fusion_lon": 0.0, "fusion_lat": 0.0, "lon": -77.04147383333333, "name": "a2dbc59ec5da707223e08e0d160e5e02"}, {"bike_id": "bf4e1c7169e7f665c0b48c9648e88103", "type": "electric_scooter", "is_disabled": 0, "lat": 38.90045666666666, "rental_uris": {"ios": "https://dc.lft.to/lastmile_qr_scan", "android": "https://dc.lft.to/lastmile_qr_scan"}, "is_reserved": 0, "fusion_lon": 0.0, "fusion_lat": 0.0, "lon": -77.00391483333334, "name": "bf4e1c7169e7f665c0b48c9648e88103"}, {"bike_id": "277f9b72fb8a7c146ca74ea0dcfb2cd4", "type": "electric_scooter", "is_disabled": 0, "lat": 38.90498616666667, "rental_uris": {"ios": "https://dc.lft.to/lastmile_qr_scan", "android": "https://dc.lft.to/lastmile_qr_scan"}, "is_reserved": 0, "fusion_lon": 0.0, "fusion_lat": 0.0, "lon": -77.0572955, "name": "277f9b72fb8a7c146ca74ea0dcfb2cd4"}, {"bike_id": "ee3b64ba32afb551840b48dffb3a8213", "type": "electric_scooter", "is_disabled": 0, "lat": 38.904721333333335, "rental_uris": {"ios": "https://dc.lft.to/lastmile_qr_scan", "android": "https://dc.lft.to/lastmile_qr_scan"}, "is_reserved": 0, "fusion_lon": 0.0, "fusion_lat": 0.0, "lon": -76.97611483333333, "name": "ee3b64ba32afb551840b48dffb3a8213"}, {"bike_id": "6dc14f1fcfb5bc6d2fd94f3659c07baf", "type": "electric_scooter", "is_disabled": 0, "lat": 38.94447266666667, "rental_uris": {"ios": "https://dc.lft.to/lastmile_qr_scan", "android": "https://dc.lft.to/lastmile_qr_scan"}, "is_reserved": 0, "fusion_lon": 0.0, "fusion_lat": 0.0, "lon": -77.06351316666667, "name": "6dc14f1fcfb5bc6d2fd94f3659c07baf"}, {"bike_id": "9b3d098b58e1f3d069529a8ca360e70d", "type": "electric_bike", "is_disabled": 0, "lat": 38.882464166666665, "rental_uris": {"ios": "https://dc.lft.to/lastmile_qr_scan", "android": "https://dc.lft.to/lastmile_qr_scan"}, "is_reserved": 0, "fusion_lon": 0.0, "fusion_lat": 0.0, "lon": -76.9625725, "name": "9b3d098b58e1f3d069529a8ca360e70d"}, {"bike_id": "567a17fc644d3bf994f93aca479a0cb2", "type": "electric_bike", "is_disabled": 0, "lat": 38.9344815, "rental_uris": {"ios": "https://dc.lft.to/lastmile_qr_scan", "android": "https://dc.lft.to/lastmile_qr_scan"}, "is_reserved": 0, "fusion_lon": 0.0, "fusion_lat": 0.0, "lon": -77.04126516666666, "name": "567a17fc644d3bf994f93aca479a0cb2"}, {"bike_id": "7fdbcdaa498887feff812f9e7b32f527", "type": "electric_bike", "is_disabled": 0, "lat": 38.932260666666664, "rental_uris": {"ios": "https://dc.lft.to/lastmile_qr_scan", "android": "https://dc.lft.to/lastmile_qr_scan"}, "is_reserved": 0, "fusion_lon": 0.0, "fusion_lat": 0.0, "lon": -77.18118183333333, "name": "7fdbcdaa498887feff812f9e7b32f527"}, {"bike_id": "bb0d1daf0f2a95a8a9a634e55089de5a", "type": "electric_scooter", "is_disabled": 0, "lat": 38.922541333333335, "rental_uris": {"ios": "https://dc.lft.to/lastmile_qr_scan", "android": "https://dc.lft.to/lastmile_qr_scan"}, "is_reserved": 0, "fusion_lon": 0.0, "fusion_lat": 0.0, "lon": -77.0419865, "name": "bb0d1daf0f2a95a8a9a634e55089de5a"}, {"bike_id": "1081dd8677eb800c03a10d8d1e554fe4", "type": "electric_scooter", "is_disabled": 0, "lat": 38.9295825, "rental_uris": {"ios": "https://dc.lft.to/lastmile_qr_scan", "android": "https://dc.lft.to/lastmile_qr_scan"}, "is_reserved": 0, "fusion_lon": 0.0, "fusion_lat": 0.0, "lon": -77.043935, "name": "1081dd8677eb800c03a10d8d1e554fe4"}, {"bike_id": "5ef018ca59ba4e9d1f2fe6571f76b770", "type": "electric_scooter", "is_disabled": 0, "lat": 38.93460983333333, "rental_uris": {"ios": "https://dc.lft.to/lastmile_qr_scan", "android": "https://dc.lft.to/lastmile_qr_scan"}, "is_reserved": 0, "fusion_lon": 0.0, "fusion_lat": 0.0, "lon": -77.027969, "name": "5ef018ca59ba4e9d1f2fe6571f76b770"}, {"bike_id": "9473afa26388c7a4ef881af60674d292", "type": "electric_bike", "is_disabled": 0, "lat": 38.875646833333334, "rental_uris": {"ios": "https://dc.lft.to/lastmile_qr_scan", "android": "https://dc.lft.to/lastmile_qr_scan"}, "is_reserved": 0, "fusion_lon": 0.0, "fusion_lat": 0.0, "lon": -76.9649755, "name": "9473afa26388c7a4ef881af60674d292"}, {"bike_id": "06fde27af0ee9493b3b00e0b251a13d3", "type": "electric_scooter", "is_disabled": 0, "lat": 38.92346416666667, "rental_uris": {"ios": "https://dc.lft.to/lastmile_qr_scan", "android": "https://dc.lft.to/lastmile_qr_scan"}, "is_reserved": 0, "fusion_lon": 0.0, "fusion_lat": 0.0, "lon": -77.03355233333333, "name": "06fde27af0ee9493b3b00e0b251a13d3"}, {"bike_id": "c3a990ccf95a5739cbe88cf543c38688", "type": "electric_scooter", "is_disabled": 0, "lat": 38.919414833333335, "rental_uris": {"ios": "https://dc.lft.to/lastmile_qr_scan", "android": "https://dc.lft.to/lastmile_qr_scan"}, "is_reserved": 0, "fusion_lon": 0.0, "fusion_lat": 0.0, "lon": -77.045645, "name": "c3a990ccf95a5739cbe88cf543c38688"}, {"bike_id": "7bd65586c5bbd20449ee988514a2a5fd", "type": "electric_scooter", "is_disabled": 0, "lat": 38.917165, "rental_uris": {"ios": "https://dc.lft.to/lastmile_qr_scan", "android": "https://dc.lft.to/lastmile_qr_scan"}, "is_reserved": 0, "fusion_lon": 0.0, "fusion_lat": 0.0, "lon": -77.04215883333333, "name": "7bd65586c5bbd20449ee988514a2a5fd"}, {"bike_id": "928de4c93cffcb338f0580d5247e1eee", "type": "electric_scooter", "is_disabled": 0, "lat": 38.90726433333333, "rental_uris": {"ios": "https://dc.lft.to/lastmile_qr_scan", "android": "https://dc.lft.to/lastmile_qr_scan"}, "is_reserved": 0, "fusion_lon": 0.0, "fusion_lat": 0.0, "lon": -77.0231755, "name": "928de4c93cffcb338f0580d5247e1eee"}, {"bike_id": "d2c4f43c7fec0ce3985eea1d3adfd164", "type": "electric_scooter", "is_disabled": 0, "lat": 38.91572333333333, "rental_uris": {"ios": "https://dc.lft.to/lastmile_qr_scan", "android": "https://dc.lft.to/lastmile_qr_scan"}, "is_reserved": 0, "fusion_lon": 0.0, "fusion_lat": 0.0, "lon": -77.03182033333333, "name": "d2c4f43c7fec0ce3985eea1d3adfd164"}, {"bike_id": "cb5e18ed6330123815c4796b50057241", "type": "electric_scooter", "is_disabled": 0, "lat": 38.9133735, "rental_uris": {"ios": "https://dc.lft.to/lastmile_qr_scan", "android": "https://dc.lft.to/lastmile_qr_scan"}, "is_reserved": 0, "fusion_lon": 0.0, "fusion_lat": 0.0, "lon": -77.03174383333334, "name": "cb5e18ed6330123815c4796b50057241"}, {"bike_id": "e369566eabd6502034ad225ac78a08c1", "type": "electric_scooter", "is_disabled": 0, "lat": 38.87806966666667, "rental_uris": {"ios": "https://dc.lft.to/lastmile_qr_scan", "android": "https://dc.lft.to/lastmile_qr_scan"}, "is_reserved": 0, "fusion_lon": 0.0, "fusion_lat": 0.0, "lon": -76.93085766666667, "name": "e369566eabd6502034ad225ac78a08c1"}, {"bike_id": "b1116e01670f2e2057bbb681d2b4b7ab", "type": "electric_scooter", "is_disabled": 0, "lat": 38.901288666666666, "rental_uris": {"ios": "https://dc.lft.to/lastmile_qr_scan", "android": "https://dc.lft.to/lastmile_qr_scan"}, "is_reserved": 0, "fusion_lon": 0.0, "fusion_lat": 0.0, "lon": -77.03491583333333, "name": "b1116e01670f2e2057bbb681d2b4b7ab"}, {"bike_id": "38e92a56471b4a57107432244b43b01e", "type": "electric_scooter", "is_disabled": 0, "lat": 38.90268833333333, "rental_uris": {"ios": "https://dc.lft.to/lastmile_qr_scan", "android": "https://dc.lft.to/lastmile_qr_scan"}, "is_reserved": 0, "fusion_lon": 0.0, "fusion_lat": 0.0, "lon": -77.05478483333333, "name": "38e92a56471b4a57107432244b43b01e"}, {"bike_id": "cfd6489c4af4e8351c3f49e049fdc977", "type": "electric_scooter", "is_disabled": 0, "lat": 38.927886666666666, "rental_uris": {"ios": "https://dc.lft.to/lastmile_qr_scan", "android": "https://dc.lft.to/lastmile_qr_scan"}, "is_reserved": 0, "fusion_lon": 0.0, "fusion_lat": 0.0, "lon": -77.026225, "name": "cfd6489c4af4e8351c3f49e049fdc977"}, {"bike_id": "831f69bbd8ed585ae93f65de64529d00", "type": "electric_scooter", "is_disabled": 0, "lat": 38.906968666666664, "rental_uris": {"ios": "https://dc.lft.to/lastmile_qr_scan", "android": "https://dc.lft.to/lastmile_qr_scan"}, "is_reserved": 0, "fusion_lon": 0.0, "fusion_lat": 0.0, "lon": -77.05639416666666, "name": "831f69bbd8ed585ae93f65de64529d00"}, {"bike_id": "95efb7f2de48c7dcbe731453ddbe5c9d", "type": "electric_scooter", "is_disabled": 0, "lat": 38.926035166666665, "rental_uris": {"ios": "https://dc.lft.to/lastmile_qr_scan", "android": "https://dc.lft.to/lastmile_qr_scan"}, "is_reserved": 0, "fusion_lon": 0.0, "fusion_lat": 0.0, "lon": -77.037479, "name": "95efb7f2de48c7dcbe731453ddbe5c9d"}, {"bike_id": "f4913ff3ecf049b62be0e473272cc23d", "type": "electric_scooter", "is_disabled": 0, "lat": 38.9146815, "rental_uris": {"ios": "https://dc.lft.to/lastmile_qr_scan", "android": "https://dc.lft.to/lastmile_qr_scan"}, "is_reserved": 0, "fusion_lon": 0.0, "fusion_lat": 0.0, "lon": -77.03198516666667, "name": "f4913ff3ecf049b62be0e473272cc23d"}, {"bike_id": "fed25d716a92fac16bb2117204bf8743", "type": "electric_scooter", "is_disabled": 0, "lat": 38.928078, "rental_uris": {"ios": "https://dc.lft.to/lastmile_qr_scan", "android": "https://dc.lft.to/lastmile_qr_scan"}, "is_reserved": 0, "fusion_lon": 0.0, "fusion_lat": 0.0, "lon": -77.02697066666667, "name": "fed25d716a92fac16bb2117204bf8743"}, {"bike_id": "59b69510b82a46f252e853972ccff9e9", "type": "electric_scooter", "is_disabled": 0, "lat": 38.91417466666667, "rental_uris": {"ios": "https://dc.lft.to/lastmile_qr_scan", "android": "https://dc.lft.to/lastmile_qr_scan"}, "is_reserved": 0, "fusion_lon": 0.0, "fusion_lat": 0.0, "lon": -77.0225165, "name": "59b69510b82a46f252e853972ccff9e9"}, {"bike_id": "546f882f6ba3299d2b497013d69ed389", "type": "electric_scooter", "is_disabled": 0, "lat": 38.91770366666667, "rental_uris": {"ios": "https://dc.lft.to/lastmile_qr_scan", "android": "https://dc.lft.to/lastmile_qr_scan"}, "is_reserved": 0, "fusion_lon": 0.0, "fusion_lat": 0.0, "lon": -77.01460083333333, "name": "546f882f6ba3299d2b497013d69ed389"}, {"bike_id": "f177d039d6900fe607eef08fa35a8ade", "type": "electric_scooter", "is_disabled": 0, "lat": 38.935384666666664, "rental_uris": {"ios": "https://dc.lft.to/lastmile_qr_scan", "android": "https://dc.lft.to/lastmile_qr_scan"}, "is_reserved": 0, "fusion_lon": 0.0, "fusion_lat": 0.0, "lon": -77.0234925, "name": "f177d039d6900fe607eef08fa35a8ade"}, {"bike_id": "de308c9b2a5a4db3430605d78055db62", "type": "electric_scooter", "is_disabled": 0, "lat": 38.88491766666667, "rental_uris": {"ios": "https://dc.lft.to/lastmile_qr_scan", "android": "https://dc.lft.to/lastmile_qr_scan"}, "is_reserved": 0, "fusion_lon": 0.0, "fusion_lat": 0.0, "lon": -77.00717116666667, "name": "de308c9b2a5a4db3430605d78055db62"}, {"bike_id": "b54d0733ab04e2409e5275cc04a59a0a", "type": "electric_scooter", "is_disabled": 0, "lat": 38.93328666666667, "rental_uris": {"ios": "https://dc.lft.to/lastmile_qr_scan", "android": "https://dc.lft.to/lastmile_qr_scan"}, "is_reserved": 0, "fusion_lon": 0.0, "fusion_lat": 0.0, "lon": -77.02922133333334, "name": "b54d0733ab04e2409e5275cc04a59a0a"}, {"bike_id": "6d9f837f69e1146241e99c882e12113e", "type": "electric_scooter", "is_disabled": 0, "lat": 38.92455116666667, "rental_uris": {"ios": "https://dc.lft.to/lastmile_qr_scan", "android": "https://dc.lft.to/lastmile_qr_scan"}, "is_reserved": 0, "fusion_lon": 0.0, "fusion_lat": 0.0, "lon": -77.02414383333333, "name": "6d9f837f69e1146241e99c882e12113e"}, {"bike_id": "b86f9b05b62c14d71cb7e267baf2ad42", "type": "electric_bike", "is_disabled": 0, "lat": 38.85430983333333, "rental_uris": {"ios": "https://dc.lft.to/lastmile_qr_scan", "android": "https://dc.lft.to/lastmile_qr_scan"}, "is_reserved": 0, "fusion_lon": 0.0, "fusion_lat": 0.0, "lon": -77.1207965, "name": "b86f9b05b62c14d71cb7e267baf2ad42"}, {"bike_id": "1989a3c351d3c597c1c10b13f9200cfd", "type": "electric_scooter", "is_disabled": 0, "lat": 38.9207015, "rental_uris": {"ios": "https://dc.lft.to/lastmile_qr_scan", "android": "https://dc.lft.to/lastmile_qr_scan"}, "is_reserved": 0, "fusion_lon": 0.0, "fusion_lat": 0.0, "lon": -77.04379033333333, "name": "1989a3c351d3c597c1c10b13f9200cfd"}, {"bike_id": "6aee7bb5cd64eed3a715f979ce9367ec", "type": "electric_scooter", "is_disabled": 0, "lat": 38.901728, "rental_uris": {"ios": "https://dc.lft.to/lastmile_qr_scan", "android": "https://dc.lft.to/lastmile_qr_scan"}, "is_reserved": 0, "fusion_lon": 0.0, "fusion_lat": 0.0, "lon": -76.98454116666667, "name": "6aee7bb5cd64eed3a715f979ce9367ec"}, {"bike_id": "91fc405d8fb52b52fc4f1c7830b7cbfa", "type": "electric_scooter", "is_disabled": 0, "lat": 38.862478833333334, "rental_uris": {"ios": "https://dc.lft.to/lastmile_qr_scan", "android": "https://dc.lft.to/lastmile_qr_scan"}, "is_reserved": 0, "fusion_lon": 0.0, "fusion_lat": 0.0, "lon": -76.99500633333334, "name": "91fc405d8fb52b52fc4f1c7830b7cbfa"}, {"bike_id": "fe7b09647fd5de79980ae361eedcd5bc", "type": "electric_scooter", "is_disabled": 0, "lat": 38.94295366666667, "rental_uris": {"ios": "https://dc.lft.to/lastmile_qr_scan", "android": "https://dc.lft.to/lastmile_qr_scan"}, "is_reserved": 0, "fusion_lon": 0.0, "fusion_lat": 0.0, "lon": -77.02168433333334, "name": "fe7b09647fd5de79980ae361eedcd5bc"}, {"bike_id": "ecd80b57a6b283eb4c821c715511d1b4", "type": "electric_scooter", "is_disabled": 0, "lat": 38.948410833333334, "rental_uris": {"ios": "https://dc.lft.to/lastmile_qr_scan", "android": "https://dc.lft.to/lastmile_qr_scan"}, "is_reserved": 0, "fusion_lon": 0.0, "fusion_lat": 0.0, "lon": -77.02548533333334, "name": "ecd80b57a6b283eb4c821c715511d1b4"}, {"bike_id": "cf85e9af7b439a35be548ca5563310e4", "type": "electric_scooter", "is_disabled": 0, "lat": 38.91753283333333, "rental_uris": {"ios": "https://dc.lft.to/lastmile_qr_scan", "android": "https://dc.lft.to/lastmile_qr_scan"}, "is_reserved": 0, "fusion_lon": 0.0, "fusion_lat": 0.0, "lon": -77.038616, "name": "cf85e9af7b439a35be548ca5563310e4"}, {"bike_id": "913f366ecf8284fadea9e20acebac43e", "type": "electric_scooter", "is_disabled": 0, "lat": 38.904226, "rental_uris": {"ios": "https://dc.lft.to/lastmile_qr_scan", "android": "https://dc.lft.to/lastmile_qr_scan"}, "is_reserved": 0, "fusion_lon": 0.0, "fusion_lat": 0.0, "lon": -76.97376683333333, "name": "913f366ecf8284fadea9e20acebac43e"}, {"bike_id": "c67e79785898c8b70ae8c55b176766a3", "type": "electric_scooter", "is_disabled": 0, "lat": 38.934264666666664, "rental_uris": {"ios": "https://dc.lft.to/lastmile_qr_scan", "android": "https://dc.lft.to/lastmile_qr_scan"}, "is_reserved": 0, "fusion_lon": 0.0, "fusion_lat": 0.0, "lon": -77.03914083333333, "name": "c67e79785898c8b70ae8c55b176766a3"}, {"bike_id": "df6c2bdc55ae1a018b78c2e82d96a344", "type": "electric_scooter", "is_disabled": 0, "lat": 38.905072833333335, "rental_uris": {"ios": "https://dc.lft.to/lastmile_qr_scan", "android": "https://dc.lft.to/lastmile_qr_scan"}, "is_reserved": 0, "fusion_lon": 0.0, "fusion_lat": 0.0, "lon": -77.06740833333333, "name": "df6c2bdc55ae1a018b78c2e82d96a344"}, {"bike_id": "b3f6667fc3035a33b0a8483bd2ade4e8", "type": "electric_scooter", "is_disabled": 0, "lat": 38.854496833333336, "rental_uris": {"ios": "https://dc.lft.to/lastmile_qr_scan", "android": "https://dc.lft.to/lastmile_qr_scan"}, "is_reserved": 0, "fusion_lon": 0.0, "fusion_lat": 0.0, "lon": -76.98611333333334, "name": "b3f6667fc3035a33b0a8483bd2ade4e8"}, {"bike_id": "c87b423306d7fb5f942bf7d063483c1a", "type": "electric_scooter", "is_disabled": 0, "lat": 38.9119065, "rental_uris": {"ios": "https://dc.lft.to/lastmile_qr_scan", "android": "https://dc.lft.to/lastmile_qr_scan"}, "is_reserved": 0, "fusion_lon": 0.0, "fusion_lat": 0.0, "lon": -77.0383315, "name": "c87b423306d7fb5f942bf7d063483c1a"}, {"bike_id": "dedaf76fa82d3a8d53f6201dfbd1dd25", "type": "electric_scooter", "is_disabled": 0, "lat": 38.887488833333336, "rental_uris": {"ios": "https://dc.lft.to/lastmile_qr_scan", "android": "https://dc.lft.to/lastmile_qr_scan"}, "is_reserved": 0, "fusion_lon": 0.0, "fusion_lat": 0.0, "lon": -76.99624766666666, "name": "dedaf76fa82d3a8d53f6201dfbd1dd25"}, {"bike_id": "14f51fc53e719d1aa4a6decd4875a68e", "type": "electric_scooter", "is_disabled": 0, "lat": 38.9120495, "rental_uris": {"ios": "https://dc.lft.to/lastmile_qr_scan", "android": "https://dc.lft.to/lastmile_qr_scan"}, "is_reserved": 0, "fusion_lon": 0.0, "fusion_lat": 0.0, "lon": -77.0320645, "name": "14f51fc53e719d1aa4a6decd4875a68e"}, {"bike_id": "34b4c765c4fba0a883c014494899e760", "type": "electric_scooter", "is_disabled": 0, "lat": 38.90560266666667, "rental_uris": {"ios": "https://dc.lft.to/lastmile_qr_scan", "android": "https://dc.lft.to/lastmile_qr_scan"}, "is_reserved": 0, "fusion_lon": 0.0, "fusion_lat": 0.0, "lon": -76.997937, "name": "34b4c765c4fba0a883c014494899e760"}, {"bike_id": "8ca15ccee6189b6cce2167925dc5af46", "type": "electric_bike", "is_disabled": 0, "lat": 38.978822666666666, "rental_uris": {"ios": "https://dc.lft.to/lastmile_qr_scan", "android": "https://dc.lft.to/lastmile_qr_scan"}, "is_reserved": 0, "fusion_lon": 0.0, "fusion_lat": 0.0, "lon": -77.060314, "name": "8ca15ccee6189b6cce2167925dc5af46"}, {"bike_id": "85fc2799329c1099c46396d143344a6a", "type": "electric_scooter", "is_disabled": 0, "lat": 38.935378666666665, "rental_uris": {"ios": "https://dc.lft.to/lastmile_qr_scan", "android": "https://dc.lft.to/lastmile_qr_scan"}, "is_reserved": 0, "fusion_lon": 0.0, "fusion_lat": 0.0, "lon": -77.02343316666666, "name": "85fc2799329c1099c46396d143344a6a"}, {"bike_id": "560fedf6ff3d16d823c1813e527866ad", "type": "electric_scooter", "is_disabled": 0, "lat": 38.9095195, "rental_uris": {"ios": "https://dc.lft.to/lastmile_qr_scan", "android": "https://dc.lft.to/lastmile_qr_scan"}, "is_reserved": 0, "fusion_lon": 0.0, "fusion_lat": 0.0, "lon": -77.04409, "name": "560fedf6ff3d16d823c1813e527866ad"}, {"bike_id": "83880e4d203eafc037cfcf606e758c39", "type": "electric_scooter", "is_disabled": 0, "lat": 38.924465166666664, "rental_uris": {"ios": "https://dc.lft.to/lastmile_qr_scan", "android": "https://dc.lft.to/lastmile_qr_scan"}, "is_reserved": 0, "fusion_lon": 0.0, "fusion_lat": 0.0, "lon": -77.029751, "name": "83880e4d203eafc037cfcf606e758c39"}, {"bike_id": "074a7a6138af6449f0569b42ec2afc78", "type": "electric_scooter", "is_disabled": 0, "lat": 38.92032716666667, "rental_uris": {"ios": "https://dc.lft.to/lastmile_qr_scan", "android": "https://dc.lft.to/lastmile_qr_scan"}, "is_reserved": 0, "fusion_lon": 0.0, "fusion_lat": 0.0, "lon": -77.031228, "name": "074a7a6138af6449f0569b42ec2afc78"}, {"bike_id": "5d1e6627aa4c98c39371dfb89de09a6e", "type": "electric_scooter", "is_disabled": 0, "lat": 38.901598166666666, "rental_uris": {"ios": "https://dc.lft.to/lastmile_qr_scan", "android": "https://dc.lft.to/lastmile_qr_scan"}, "is_reserved": 0, "fusion_lon": 0.0, "fusion_lat": 0.0, "lon": -77.05924933333333, "name": "5d1e6627aa4c98c39371dfb89de09a6e"}, {"bike_id": "52b6e6170d600e60f631819a50b2d085", "type": "electric_scooter", "is_disabled": 0, "lat": 38.931801666666665, "rental_uris": {"ios": "https://dc.lft.to/lastmile_qr_scan", "android": "https://dc.lft.to/lastmile_qr_scan"}, "is_reserved": 0, "fusion_lon": 0.0, "fusion_lat": 0.0, "lon": -77.02353, "name": "52b6e6170d600e60f631819a50b2d085"}, {"bike_id": "416f3b1778755bc15cd1130dcfa01912", "type": "electric_scooter", "is_disabled": 0, "lat": 38.94494866666667, "rental_uris": {"ios": "https://dc.lft.to/lastmile_qr_scan", "android": "https://dc.lft.to/lastmile_qr_scan"}, "is_reserved": 0, "fusion_lon": 0.0, "fusion_lat": 0.0, "lon": -77.02621616666667, "name": "416f3b1778755bc15cd1130dcfa01912"}, {"bike_id": "7cd6d88aa8df0e61f510d4f56a3e7018", "type": "electric_scooter", "is_disabled": 0, "lat": 38.92140233333333, "rental_uris": {"ios": "https://dc.lft.to/lastmile_qr_scan", "android": "https://dc.lft.to/lastmile_qr_scan"}, "is_reserved": 0, "fusion_lon": 0.0, "fusion_lat": 0.0, "lon": -77.01802133333334, "name": "7cd6d88aa8df0e61f510d4f56a3e7018"}, {"bike_id": "a56dc26cb7443384eabda65f9ea99199", "type": "electric_scooter", "is_disabled": 0, "lat": 38.91278466666667, "rental_uris": {"ios": "https://dc.lft.to/lastmile_qr_scan", "android": "https://dc.lft.to/lastmile_qr_scan"}, "is_reserved": 0, "fusion_lon": 0.0, "fusion_lat": 0.0, "lon": -77.02249166666667, "name": "a56dc26cb7443384eabda65f9ea99199"}, {"bike_id": "cd91a1f9f3b25cd7b33ffb95a60e2e95", "type": "electric_scooter", "is_disabled": 0, "lat": 38.94218683333333, "rental_uris": {"ios": "https://dc.lft.to/lastmile_qr_scan", "android": "https://dc.lft.to/lastmile_qr_scan"}, "is_reserved": 0, "fusion_lon": 0.0, "fusion_lat": 0.0, "lon": -77.02587716666666, "name": "cd91a1f9f3b25cd7b33ffb95a60e2e95"}, {"bike_id": "fa83333f34c966e762ad3389f07ddc38", "type": "electric_scooter", "is_disabled": 0, "lat": 38.905727, "rental_uris": {"ios": "https://dc.lft.to/lastmile_qr_scan", "android": "https://dc.lft.to/lastmile_qr_scan"}, "is_reserved": 0, "fusion_lon": 0.0, "fusion_lat": 0.0, "lon": -77.044468, "name": "fa83333f34c966e762ad3389f07ddc38"}, {"bike_id": "3a67cc1a596cdbe1f6a3f32be611c809", "type": "electric_scooter", "is_disabled": 0, "lat": 38.871815166666664, "rental_uris": {"ios": "https://dc.lft.to/lastmile_qr_scan", "android": "https://dc.lft.to/lastmile_qr_scan"}, "is_reserved": 0, "fusion_lon": 0.0, "fusion_lat": 0.0, "lon": -77.00611333333333, "name": "3a67cc1a596cdbe1f6a3f32be611c809"}, {"bike_id": "e67c423d97ec117abbbd6a23d1aad80d", "type": "electric_scooter", "is_disabled": 0, "lat": 38.905865, "rental_uris": {"ios": "https://dc.lft.to/lastmile_qr_scan", "android": "https://dc.lft.to/lastmile_qr_scan"}, "is_reserved": 0, "fusion_lon": 0.0, "fusion_lat": 0.0, "lon": -77.02599833333333, "name": "e67c423d97ec117abbbd6a23d1aad80d"}, {"bike_id": "582febbb579b6aa2959867cbfa0f152f", "type": "electric_scooter", "is_disabled": 0, "lat": 38.922617, "rental_uris": {"ios": "https://dc.lft.to/lastmile_qr_scan", "android": "https://dc.lft.to/lastmile_qr_scan"}, "is_reserved": 0, "fusion_lon": 0.0, "fusion_lat": 0.0, "lon": -77.036384, "name": "582febbb579b6aa2959867cbfa0f152f"}, {"bike_id": "0212b90a0aca35437238ee789aa7f08f", "type": "electric_scooter", "is_disabled": 0, "lat": 38.92881833333333, "rental_uris": {"ios": "https://dc.lft.to/lastmile_qr_scan", "android": "https://dc.lft.to/lastmile_qr_scan"}, "is_reserved": 0, "fusion_lon": 0.0, "fusion_lat": 0.0, "lon": -77.032741, "name": "0212b90a0aca35437238ee789aa7f08f"}, {"bike_id": "9c34588bed19ff52294f3ce8baeb2df8", "type": "electric_scooter", "is_disabled": 0, "lat": 38.9216125, "rental_uris": {"ios": "https://dc.lft.to/lastmile_qr_scan", "android": "https://dc.lft.to/lastmile_qr_scan"}, "is_reserved": 0, "fusion_lon": 0.0, "fusion_lat": 0.0, "lon": -77.03376333333334, "name": "9c34588bed19ff52294f3ce8baeb2df8"}, {"bike_id": "fac6e1666d7d7e59dd1bda2c3771f4d0", "type": "electric_scooter", "is_disabled": 0, "lat": 38.915080833333334, "rental_uris": {"ios": "https://dc.lft.to/lastmile_qr_scan", "android": "https://dc.lft.to/lastmile_qr_scan"}, "is_reserved": 0, "fusion_lon": 0.0, "fusion_lat": 0.0, "lon": -77.01777366666667, "name": "fac6e1666d7d7e59dd1bda2c3771f4d0"}, {"bike_id": "7c0a6578fd0e18d4e6b3abcf821ab8aa", "type": "electric_scooter", "is_disabled": 0, "lat": 38.89576816666667, "rental_uris": {"ios": "https://dc.lft.to/lastmile_qr_scan", "android": "https://dc.lft.to/lastmile_qr_scan"}, "is_reserved": 0, "fusion_lon": 0.0, "fusion_lat": 0.0, "lon": -77.01115766666666, "name": "7c0a6578fd0e18d4e6b3abcf821ab8aa"}, {"bike_id": "1e354910e8ab3c646f2b1401d1b71e3d", "type": "electric_scooter", "is_disabled": 0, "lat": 38.882746833333336, "rental_uris": {"ios": "https://dc.lft.to/lastmile_qr_scan", "android": "https://dc.lft.to/lastmile_qr_scan"}, "is_reserved": 0, "fusion_lon": 0.0, "fusion_lat": 0.0, "lon": -76.99360983333334, "name": "1e354910e8ab3c646f2b1401d1b71e3d"}, {"bike_id": "07896c4866ce43d8ef939618d1dbceb1", "type": "electric_scooter", "is_disabled": 0, "lat": 38.9052215, "rental_uris": {"ios": "https://dc.lft.to/lastmile_qr_scan", "android": "https://dc.lft.to/lastmile_qr_scan"}, "is_reserved": 0, "fusion_lon": 0.0, "fusion_lat": 0.0, "lon": -77.068733, "name": "07896c4866ce43d8ef939618d1dbceb1"}, {"bike_id": "15892a7b8a50fdab3b77751153ef07ac", "type": "electric_scooter", "is_disabled": 0, "lat": 38.9159775, "rental_uris": {"ios": "https://dc.lft.to/lastmile_qr_scan", "android": "https://dc.lft.to/lastmile_qr_scan"}, "is_reserved": 0, "fusion_lon": 0.0, "fusion_lat": 0.0, "lon": -77.045215, "name": "15892a7b8a50fdab3b77751153ef07ac"}, {"bike_id": "27bf19ebafd2d0d2867aa47efbaa3654", "type": "electric_scooter", "is_disabled": 0, "lat": 38.89230083333333, "rental_uris": {"ios": "https://dc.lft.to/lastmile_qr_scan", "android": "https://dc.lft.to/lastmile_qr_scan"}, "is_reserved": 0, "fusion_lon": 0.0, "fusion_lat": 0.0, "lon": -77.0465625, "name": "27bf19ebafd2d0d2867aa47efbaa3654"}, {"bike_id": "d93e645ec7f987787e43c6a49d724e0b", "type": "electric_scooter", "is_disabled": 0, "lat": 38.8662865, "rental_uris": {"ios": "https://dc.lft.to/lastmile_qr_scan", "android": "https://dc.lft.to/lastmile_qr_scan"}, "is_reserved": 0, "fusion_lon": 0.0, "fusion_lat": 0.0, "lon": -76.987127, "name": "d93e645ec7f987787e43c6a49d724e0b"}, {"bike_id": "927af543853aa39f11e78409e6038346", "type": "electric_scooter", "is_disabled": 0, "lat": 38.914170666666664, "rental_uris": {"ios": "https://dc.lft.to/lastmile_qr_scan", "android": "https://dc.lft.to/lastmile_qr_scan"}, "is_reserved": 0, "fusion_lon": 0.0, "fusion_lat": 0.0, "lon": -77.017987, "name": "927af543853aa39f11e78409e6038346"}, {"bike_id": "41347668c25e7c06e3493bb8cf5fcf8c", "type": "electric_scooter", "is_disabled": 0, "lat": 38.9289295, "rental_uris": {"ios": "https://dc.lft.to/lastmile_qr_scan", "android": "https://dc.lft.to/lastmile_qr_scan"}, "is_reserved": 0, "fusion_lon": 0.0, "fusion_lat": 0.0, "lon": -77.03254783333334, "name": "41347668c25e7c06e3493bb8cf5fcf8c"}, {"bike_id": "213d8f6f9826120448511f56631955d4", "type": "electric_scooter", "is_disabled": 0, "lat": 38.90492883333334, "rental_uris": {"ios": "https://dc.lft.to/lastmile_qr_scan", "android": "https://dc.lft.to/lastmile_qr_scan"}, "is_reserved": 0, "fusion_lon": 0.0, "fusion_lat": 0.0, "lon": -77.067902, "name": "213d8f6f9826120448511f56631955d4"}, {"bike_id": "aa144fbec669d6526cf5b0039e94b94e", "type": "electric_scooter", "is_disabled": 0, "lat": 38.899655, "rental_uris": {"ios": "https://dc.lft.to/lastmile_qr_scan", "android": "https://dc.lft.to/lastmile_qr_scan"}, "is_reserved": 0, "fusion_lon": 0.0, "fusion_lat": 0.0, "lon": -76.9263165, "name": "aa144fbec669d6526cf5b0039e94b94e"}, {"bike_id": "7e46abcf9651032ef8794c287bfaeff1", "type": "electric_scooter", "is_disabled": 0, "lat": 38.92487916666666, "rental_uris": {"ios": "https://dc.lft.to/lastmile_qr_scan", "android": "https://dc.lft.to/lastmile_qr_scan"}, "is_reserved": 0, "fusion_lon": 0.0, "fusion_lat": 0.0, "lon": -77.05773066666667, "name": "7e46abcf9651032ef8794c287bfaeff1"}, {"bike_id": "663194a4edcc5864342a000c88ce757a", "type": "electric_scooter", "is_disabled": 0, "lat": 38.9111175, "rental_uris": {"ios": "https://dc.lft.to/lastmile_qr_scan", "android": "https://dc.lft.to/lastmile_qr_scan"}, "is_reserved": 0, "fusion_lon": 0.0, "fusion_lat": 0.0, "lon": -77.02184416666667, "name": "663194a4edcc5864342a000c88ce757a"}, {"bike_id": "dfa71070fd077707eb58d50005198619", "type": "electric_scooter", "is_disabled": 0, "lat": 38.909664666666664, "rental_uris": {"ios": "https://dc.lft.to/lastmile_qr_scan", "android": "https://dc.lft.to/lastmile_qr_scan"}, "is_reserved": 0, "fusion_lon": 0.0, "fusion_lat": 0.0, "lon": -77.03373533333334, "name": "dfa71070fd077707eb58d50005198619"}, {"bike_id": "05ff44880c350b25196dbf40c9e52457", "type": "electric_scooter", "is_disabled": 0, "lat": 38.890064333333335, "rental_uris": {"ios": "https://dc.lft.to/lastmile_qr_scan", "android": "https://dc.lft.to/lastmile_qr_scan"}, "is_reserved": 0, "fusion_lon": 0.0, "fusion_lat": 0.0, "lon": -76.93744366666667, "name": "05ff44880c350b25196dbf40c9e52457"}, {"bike_id": "18d51f9b23f46abfff51d0d42b4b8f66", "type": "electric_scooter", "is_disabled": 0, "lat": 38.8637715, "rental_uris": {"ios": "https://dc.lft.to/lastmile_qr_scan", "android": "https://dc.lft.to/lastmile_qr_scan"}, "is_reserved": 0, "fusion_lon": 0.0, "fusion_lat": 0.0, "lon": -76.9905555, "name": "18d51f9b23f46abfff51d0d42b4b8f66"}, {"bike_id": "b263aabcd84a1263bf6721b2d8afa4b3", "type": "electric_scooter", "is_disabled": 0, "lat": 38.874234, "rental_uris": {"ios": "https://dc.lft.to/lastmile_qr_scan", "android": "https://dc.lft.to/lastmile_qr_scan"}, "is_reserved": 0, "fusion_lon": 0.0, "fusion_lat": 0.0, "lon": -76.96908333333333, "name": "b263aabcd84a1263bf6721b2d8afa4b3"}, {"bike_id": "f18eb126c0e829127c0956e030236749", "type": "electric_scooter", "is_disabled": 0, "lat": 38.90779533333333, "rental_uris": {"ios": "https://dc.lft.to/lastmile_qr_scan", "android": "https://dc.lft.to/lastmile_qr_scan"}, "is_reserved": 0, "fusion_lon": 0.0, "fusion_lat": 0.0, "lon": -77.04481366666667, "name": "f18eb126c0e829127c0956e030236749"}, {"bike_id": "64f1fb41ee6b6d004e6faaad6e369f04", "type": "electric_scooter", "is_disabled": 0, "lat": 38.90861783333333, "rental_uris": {"ios": "https://dc.lft.to/lastmile_qr_scan", "android": "https://dc.lft.to/lastmile_qr_scan"}, "is_reserved": 0, "fusion_lon": 0.0, "fusion_lat": 0.0, "lon": -76.99945083333333, "name": "64f1fb41ee6b6d004e6faaad6e369f04"}, {"bike_id": "f7aab2873226486c0eadf41be9307fff", "type": "electric_scooter", "is_disabled": 0, "lat": 38.9227715, "rental_uris": {"ios": "https://dc.lft.to/lastmile_qr_scan", "android": "https://dc.lft.to/lastmile_qr_scan"}, "is_reserved": 0, "fusion_lon": 0.0, "fusion_lat": 0.0, "lon": -77.0295945, "name": "f7aab2873226486c0eadf41be9307fff"}, {"bike_id": "abc8b63f2a23079a24f95a0d14c0c51e", "type": "electric_scooter", "is_disabled": 0, "lat": 38.91577316666667, "rental_uris": {"ios": "https://dc.lft.to/lastmile_qr_scan", "android": "https://dc.lft.to/lastmile_qr_scan"}, "is_reserved": 0, "fusion_lon": 0.0, "fusion_lat": 0.0, "lon": -77.0205385, "name": "abc8b63f2a23079a24f95a0d14c0c51e"}, {"bike_id": "071518c319cb4c86bb88e639a2ea3aa8", "type": "electric_scooter", "is_disabled": 0, "lat": 38.94274216666667, "rental_uris": {"ios": "https://dc.lft.to/lastmile_qr_scan", "android": "https://dc.lft.to/lastmile_qr_scan"}, "is_reserved": 0, "fusion_lon": 0.0, "fusion_lat": 0.0, "lon": -77.03259716666666, "name": "071518c319cb4c86bb88e639a2ea3aa8"}, {"bike_id": "cddf0b44254284094bc2a5bf5aec0094", "type": "electric_scooter", "is_disabled": 0, "lat": 38.878696, "rental_uris": {"ios": "https://dc.lft.to/lastmile_qr_scan", "android": "https://dc.lft.to/lastmile_qr_scan"}, "is_reserved": 0, "fusion_lon": 0.0, "fusion_lat": 0.0, "lon": -76.96984383333333, "name": "cddf0b44254284094bc2a5bf5aec0094"}, {"bike_id": "f30237413afbf17c319738ff6e612ed7", "type": "electric_scooter", "is_disabled": 0, "lat": 38.954787, "rental_uris": {"ios": "https://dc.lft.to/lastmile_qr_scan", "android": "https://dc.lft.to/lastmile_qr_scan"}, "is_reserved": 0, "fusion_lon": 0.0, "fusion_lat": 0.0, "lon": -77.08215583333333, "name": "f30237413afbf17c319738ff6e612ed7"}, {"bike_id": "9fe54eabdc1febe18a45869704eae392", "type": "electric_scooter", "is_disabled": 0, "lat": 38.895072, "rental_uris": {"ios": "https://dc.lft.to/lastmile_qr_scan", "android": "https://dc.lft.to/lastmile_qr_scan"}, "is_reserved": 0, "fusion_lon": 0.0, "fusion_lat": 0.0, "lon": -76.93478033333334, "name": "9fe54eabdc1febe18a45869704eae392"}, {"bike_id": "7c3ba45bfde08827f1c036c7f90bd51e", "type": "electric_scooter", "is_disabled": 0, "lat": 38.943237, "rental_uris": {"ios": "https://dc.lft.to/lastmile_qr_scan", "android": "https://dc.lft.to/lastmile_qr_scan"}, "is_reserved": 0, "fusion_lon": 0.0, "fusion_lat": 0.0, "lon": -77.06131166666667, "name": "7c3ba45bfde08827f1c036c7f90bd51e"}, {"bike_id": "1ea1c76d0fb68df0a72bdcb6093bfcf6", "type": "electric_scooter", "is_disabled": 0, "lat": 38.90863083333333, "rental_uris": {"ios": "https://dc.lft.to/lastmile_qr_scan", "android": "https://dc.lft.to/lastmile_qr_scan"}, "is_reserved": 0, "fusion_lon": 0.0, "fusion_lat": 0.0, "lon": -77.02364933333334, "name": "1ea1c76d0fb68df0a72bdcb6093bfcf6"}, {"bike_id": "5b2f730ed7d9ae51087242c1369868e1", "type": "electric_scooter", "is_disabled": 0, "lat": 38.92546816666667, "rental_uris": {"ios": "https://dc.lft.to/lastmile_qr_scan", "android": "https://dc.lft.to/lastmile_qr_scan"}, "is_reserved": 0, "fusion_lon": 0.0, "fusion_lat": 0.0, "lon": -77.03359316666666, "name": "5b2f730ed7d9ae51087242c1369868e1"}, {"bike_id": "c4ee9e22e74db9c5e9bcc8aa89ea9913", "type": "electric_bike", "is_disabled": 0, "lat": 38.94264033333333, "rental_uris": {"ios": "https://dc.lft.to/lastmile_qr_scan", "android": "https://dc.lft.to/lastmile_qr_scan"}, "is_reserved": 0, "fusion_lon": 0.0, "fusion_lat": 0.0, "lon": -76.99073433333334, "name": "c4ee9e22e74db9c5e9bcc8aa89ea9913"}, {"bike_id": "de2c4ca12fefcc3764a13b72ee8d225e", "type": "electric_scooter", "is_disabled": 0, "lat": 38.951192, "rental_uris": {"ios": "https://dc.lft.to/lastmile_qr_scan", "android": "https://dc.lft.to/lastmile_qr_scan"}, "is_reserved": 0, "fusion_lon": 0.0, "fusion_lat": 0.0, "lon": -77.01435716666667, "name": "de2c4ca12fefcc3764a13b72ee8d225e"}, {"bike_id": "380d8ce6a45dc9c11783ee25c1168206", "type": "electric_scooter", "is_disabled": 0, "lat": 38.86694033333333, "rental_uris": {"ios": "https://dc.lft.to/lastmile_qr_scan", "android": "https://dc.lft.to/lastmile_qr_scan"}, "is_reserved": 0, "fusion_lon": 0.0, "fusion_lat": 0.0, "lon": -76.985617, "name": "380d8ce6a45dc9c11783ee25c1168206"}, {"bike_id": "1caa5f07f44b54941559bd663dd5f23c", "type": "electric_scooter", "is_disabled": 0, "lat": 38.900688333333335, "rental_uris": {"ios": "https://dc.lft.to/lastmile_qr_scan", "android": "https://dc.lft.to/lastmile_qr_scan"}, "is_reserved": 0, "fusion_lon": 0.0, "fusion_lat": 0.0, "lon": -77.05124033333334, "name": "1caa5f07f44b54941559bd663dd5f23c"}, {"bike_id": "481396606b0988d0eee08e742b12804f", "type": "electric_scooter", "is_disabled": 0, "lat": 38.915048666666664, "rental_uris": {"ios": "https://dc.lft.to/lastmile_qr_scan", "android": "https://dc.lft.to/lastmile_qr_scan"}, "is_reserved": 0, "fusion_lon": 0.0, "fusion_lat": 0.0, "lon": -77.02280616666667, "name": "481396606b0988d0eee08e742b12804f"}, {"bike_id": "caaa3ad852abc89466587bffc9573717", "type": "electric_scooter", "is_disabled": 0, "lat": 38.90070516666667, "rental_uris": {"ios": "https://dc.lft.to/lastmile_qr_scan", "android": "https://dc.lft.to/lastmile_qr_scan"}, "is_reserved": 0, "fusion_lon": 0.0, "fusion_lat": 0.0, "lon": -77.01909066666667, "name": "caaa3ad852abc89466587bffc9573717"}, {"bike_id": "2a72ef73f83a13186c23eb90fef1380a", "type": "electric_bike", "is_disabled": 0, "lat": 38.84844366666667, "rental_uris": {"ios": "https://dc.lft.to/lastmile_qr_scan", "android": "https://dc.lft.to/lastmile_qr_scan"}, "is_reserved": 0, "fusion_lon": 0.0, "fusion_lat": 0.0, "lon": -77.07924933333334, "name": "2a72ef73f83a13186c23eb90fef1380a"}, {"bike_id": "4e1ba7da602b6c2b439c4b09132f646f", "type": "electric_bike", "is_disabled": 0, "lat": 38.969607833333335, "rental_uris": {"ios": "https://dc.lft.to/lastmile_qr_scan", "android": "https://dc.lft.to/lastmile_qr_scan"}, "is_reserved": 0, "fusion_lon": 0.0, "fusion_lat": 0.0, "lon": -76.95751816666667, "name": "4e1ba7da602b6c2b439c4b09132f646f"}, {"bike_id": "6ab25a4279db8ea58bd09a8e36804540", "type": "electric_scooter", "is_disabled": 0, "lat": 38.9354715, "rental_uris": {"ios": "https://dc.lft.to/lastmile_qr_scan", "android": "https://dc.lft.to/lastmile_qr_scan"}, "is_reserved": 0, "fusion_lon": 0.0, "fusion_lat": 0.0, "lon": -77.05855733333334, "name": "6ab25a4279db8ea58bd09a8e36804540"}, {"bike_id": "cc2438e1d59b39ba517003a763629d8b", "type": "electric_scooter", "is_disabled": 0, "lat": 38.883007166666665, "rental_uris": {"ios": "https://dc.lft.to/lastmile_qr_scan", "android": "https://dc.lft.to/lastmile_qr_scan"}, "is_reserved": 0, "fusion_lon": 0.0, "fusion_lat": 0.0, "lon": -76.9486115, "name": "cc2438e1d59b39ba517003a763629d8b"}, {"bike_id": "a6f5fcfd51db0a5dddf7b0f861bee71a", "type": "electric_scooter", "is_disabled": 0, "lat": 38.924705, "rental_uris": {"ios": "https://dc.lft.to/lastmile_qr_scan", "android": "https://dc.lft.to/lastmile_qr_scan"}, "is_reserved": 0, "fusion_lon": 0.0, "fusion_lat": 0.0, "lon": -77.02834566666667, "name": "a6f5fcfd51db0a5dddf7b0f861bee71a"}, {"bike_id": "915e307b614abf3aa44103122e7c2ddb", "type": "electric_scooter", "is_disabled": 0, "lat": 38.9232885, "rental_uris": {"ios": "https://dc.lft.to/lastmile_qr_scan", "android": "https://dc.lft.to/lastmile_qr_scan"}, "is_reserved": 0, "fusion_lon": 0.0, "fusion_lat": 0.0, "lon": -77.0561595, "name": "915e307b614abf3aa44103122e7c2ddb"}, {"bike_id": "06f6669e77a43887b2ba78d03880145a", "type": "electric_scooter", "is_disabled": 0, "lat": 38.90030733333333, "rental_uris": {"ios": "https://dc.lft.to/lastmile_qr_scan", "android": "https://dc.lft.to/lastmile_qr_scan"}, "is_reserved": 0, "fusion_lon": 0.0, "fusion_lat": 0.0, "lon": -76.99894583333334, "name": "06f6669e77a43887b2ba78d03880145a"}, {"bike_id": "bb055e1285b5dd3b914f3c49d43aa80c", "type": "electric_scooter", "is_disabled": 0, "lat": 38.9247395, "rental_uris": {"ios": "https://dc.lft.to/lastmile_qr_scan", "android": "https://dc.lft.to/lastmile_qr_scan"}, "is_reserved": 0, "fusion_lon": 0.0, "fusion_lat": 0.0, "lon": -77.02248016666667, "name": "bb055e1285b5dd3b914f3c49d43aa80c"}, {"bike_id": "5c2ff6a313c066634451ca1547bac2e9", "type": "electric_scooter", "is_disabled": 0, "lat": 38.915979166666666, "rental_uris": {"ios": "https://dc.lft.to/lastmile_qr_scan", "android": "https://dc.lft.to/lastmile_qr_scan"}, "is_reserved": 0, "fusion_lon": 0.0, "fusion_lat": 0.0, "lon": -77.04472316666667, "name": "5c2ff6a313c066634451ca1547bac2e9"}, {"bike_id": "b634a7b9ae963445cf9d5bbcd2f1cde9", "type": "electric_scooter", "is_disabled": 0, "lat": 38.864761666666666, "rental_uris": {"ios": "https://dc.lft.to/lastmile_qr_scan", "android": "https://dc.lft.to/lastmile_qr_scan"}, "is_reserved": 0, "fusion_lon": 0.0, "fusion_lat": 0.0, "lon": -76.97751866666667, "name": "b634a7b9ae963445cf9d5bbcd2f1cde9"}, {"bike_id": "e543933cd03783665816e68c8b5001be", "type": "electric_scooter", "is_disabled": 0, "lat": 38.936532, "rental_uris": {"ios": "https://dc.lft.to/lastmile_qr_scan", "android": "https://dc.lft.to/lastmile_qr_scan"}, "is_reserved": 0, "fusion_lon": 0.0, "fusion_lat": 0.0, "lon": -77.02639783333333, "name": "e543933cd03783665816e68c8b5001be"}, {"bike_id": "76e9df85760bdabf4a5cee42b51ee8fc", "type": "electric_scooter", "is_disabled": 0, "lat": 38.91823483333334, "rental_uris": {"ios": "https://dc.lft.to/lastmile_qr_scan", "android": "https://dc.lft.to/lastmile_qr_scan"}, "is_reserved": 0, "fusion_lon": 0.0, "fusion_lat": 0.0, "lon": -77.0242335, "name": "76e9df85760bdabf4a5cee42b51ee8fc"}, {"bike_id": "b155687391e9d98f217b9235279f534d", "type": "electric_scooter", "is_disabled": 0, "lat": 38.903856833333336, "rental_uris": {"ios": "https://dc.lft.to/lastmile_qr_scan", "android": "https://dc.lft.to/lastmile_qr_scan"}, "is_reserved": 0, "fusion_lon": 0.0, "fusion_lat": 0.0, "lon": -76.9820215, "name": "b155687391e9d98f217b9235279f534d"}, {"bike_id": "ece9ceb93d03cc59d87d0866da63827c", "type": "electric_scooter", "is_disabled": 0, "lat": 38.9129115, "rental_uris": {"ios": "https://dc.lft.to/lastmile_qr_scan", "android": "https://dc.lft.to/lastmile_qr_scan"}, "is_reserved": 0, "fusion_lon": 0.0, "fusion_lat": 0.0, "lon": -77.04493333333333, "name": "ece9ceb93d03cc59d87d0866da63827c"}, {"bike_id": "4ec650ab6f7cb00e228d49086ac6b359", "type": "electric_scooter", "is_disabled": 0, "lat": 38.93191566666667, "rental_uris": {"ios": "https://dc.lft.to/lastmile_qr_scan", "android": "https://dc.lft.to/lastmile_qr_scan"}, "is_reserved": 0, "fusion_lon": 0.0, "fusion_lat": 0.0, "lon": -77.02353283333333, "name": "4ec650ab6f7cb00e228d49086ac6b359"}, {"bike_id": "bbbf336b88e45e8ec47db3310b037ffd", "type": "electric_scooter", "is_disabled": 0, "lat": 38.92273683333333, "rental_uris": {"ios": "https://dc.lft.to/lastmile_qr_scan", "android": "https://dc.lft.to/lastmile_qr_scan"}, "is_reserved": 0, "fusion_lon": 0.0, "fusion_lat": 0.0, "lon": -77.0366055, "name": "bbbf336b88e45e8ec47db3310b037ffd"}, {"bike_id": "1434621137fdcab813b3dae52d3e3c84", "type": "electric_scooter", "is_disabled": 0, "lat": 38.888482833333335, "rental_uris": {"ios": "https://dc.lft.to/lastmile_qr_scan", "android": "https://dc.lft.to/lastmile_qr_scan"}, "is_reserved": 0, "fusion_lon": 0.0, "fusion_lat": 0.0, "lon": -76.92682783333333, "name": "1434621137fdcab813b3dae52d3e3c84"}, {"bike_id": "4cc7a8445fc1717b6c6401db1ec83e35", "type": "electric_scooter", "is_disabled": 0, "lat": 38.918274, "rental_uris": {"ios": "https://dc.lft.to/lastmile_qr_scan", "android": "https://dc.lft.to/lastmile_qr_scan"}, "is_reserved": 0, "fusion_lon": 0.0, "fusion_lat": 0.0, "lon": -77.02419283333333, "name": "4cc7a8445fc1717b6c6401db1ec83e35"}, {"bike_id": "8827b7e36de439e268adbf36e9a66d90", "type": "electric_scooter", "is_disabled": 0, "lat": 38.957344166666665, "rental_uris": {"ios": "https://dc.lft.to/lastmile_qr_scan", "android": "https://dc.lft.to/lastmile_qr_scan"}, "is_reserved": 0, "fusion_lon": 0.0, "fusion_lat": 0.0, "lon": -77.02425333333333, "name": "8827b7e36de439e268adbf36e9a66d90"}, {"bike_id": "fd533ccb59c5a67e485349219907db35", "type": "electric_scooter", "is_disabled": 0, "lat": 38.929435166666664, "rental_uris": {"ios": "https://dc.lft.to/lastmile_qr_scan", "android": "https://dc.lft.to/lastmile_qr_scan"}, "is_reserved": 0, "fusion_lon": 0.0, "fusion_lat": 0.0, "lon": -77.02315, "name": "fd533ccb59c5a67e485349219907db35"}, {"bike_id": "1ad5a099873aef9d366df7f6579d1b52", "type": "electric_scooter", "is_disabled": 0, "lat": 38.906547833333335, "rental_uris": {"ios": "https://dc.lft.to/lastmile_qr_scan", "android": "https://dc.lft.to/lastmile_qr_scan"}, "is_reserved": 0, "fusion_lon": 0.0, "fusion_lat": 0.0, "lon": -77.02482666666667, "name": "1ad5a099873aef9d366df7f6579d1b52"}, {"bike_id": "37552bf3e2d325c73dae88baaf3787e3", "type": "electric_bike", "is_disabled": 0, "lat": 38.869409833333336, "rental_uris": {"ios": "https://dc.lft.to/lastmile_qr_scan", "android": "https://dc.lft.to/lastmile_qr_scan"}, "is_reserved": 0, "fusion_lon": 0.0, "fusion_lat": 0.0, "lon": -77.094657, "name": "37552bf3e2d325c73dae88baaf3787e3"}, {"bike_id": "d9359c4dc6d9bd783a4bbec0c0178ee5", "type": "electric_scooter", "is_disabled": 0, "lat": 38.887391, "rental_uris": {"ios": "https://dc.lft.to/lastmile_qr_scan", "android": "https://dc.lft.to/lastmile_qr_scan"}, "is_reserved": 0, "fusion_lon": 0.0, "fusion_lat": 0.0, "lon": -77.01516916666667, "name": "d9359c4dc6d9bd783a4bbec0c0178ee5"}, {"bike_id": "98db3d0e790ce05efbf08ca21624ed44", "type": "electric_scooter", "is_disabled": 0, "lat": 38.90976783333333, "rental_uris": {"ios": "https://dc.lft.to/lastmile_qr_scan", "android": "https://dc.lft.to/lastmile_qr_scan"}, "is_reserved": 0, "fusion_lon": 0.0, "fusion_lat": 0.0, "lon": -77.0280215, "name": "98db3d0e790ce05efbf08ca21624ed44"}, {"bike_id": "b248364dd5fa22502edc1db33b260b8f", "type": "electric_scooter", "is_disabled": 0, "lat": 38.92682216666667, "rental_uris": {"ios": "https://dc.lft.to/lastmile_qr_scan", "android": "https://dc.lft.to/lastmile_qr_scan"}, "is_reserved": 0, "fusion_lon": 0.0, "fusion_lat": 0.0, "lon": -77.0278, "name": "b248364dd5fa22502edc1db33b260b8f"}, {"bike_id": "862827e7214174642f91009be401b699", "type": "electric_scooter", "is_disabled": 0, "lat": 38.87479316666666, "rental_uris": {"ios": "https://dc.lft.to/lastmile_qr_scan", "android": "https://dc.lft.to/lastmile_qr_scan"}, "is_reserved": 0, "fusion_lon": 0.0, "fusion_lat": 0.0, "lon": -77.01069116666666, "name": "862827e7214174642f91009be401b699"}, {"bike_id": "909ae62089862afb0475889a8b5888a3", "type": "electric_scooter", "is_disabled": 0, "lat": 38.88433916666666, "rental_uris": {"ios": "https://dc.lft.to/lastmile_qr_scan", "android": "https://dc.lft.to/lastmile_qr_scan"}, "is_reserved": 0, "fusion_lon": 0.0, "fusion_lat": 0.0, "lon": -76.9575085, "name": "909ae62089862afb0475889a8b5888a3"}, {"bike_id": "0d078256b8a0ebed4e65b005af728d58", "type": "electric_scooter", "is_disabled": 0, "lat": 38.917398166666665, "rental_uris": {"ios": "https://dc.lft.to/lastmile_qr_scan", "android": "https://dc.lft.to/lastmile_qr_scan"}, "is_reserved": 0, "fusion_lon": 0.0, "fusion_lat": 0.0, "lon": -77.02821466666667, "name": "0d078256b8a0ebed4e65b005af728d58"}, {"bike_id": "e326bb51a028a4f5d905b0ffe1a9184b", "type": "electric_scooter", "is_disabled": 0, "lat": 38.900380166666665, "rental_uris": {"ios": "https://dc.lft.to/lastmile_qr_scan", "android": "https://dc.lft.to/lastmile_qr_scan"}, "is_reserved": 0, "fusion_lon": 0.0, "fusion_lat": 0.0, "lon": -77.03315966666666, "name": "e326bb51a028a4f5d905b0ffe1a9184b"}, {"bike_id": "d014a4daef5a130ca23e4162c889a83a", "type": "electric_scooter", "is_disabled": 0, "lat": 38.915347833333335, "rental_uris": {"ios": "https://dc.lft.to/lastmile_qr_scan", "android": "https://dc.lft.to/lastmile_qr_scan"}, "is_reserved": 0, "fusion_lon": 0.0, "fusion_lat": 0.0, "lon": -77.04614933333333, "name": "d014a4daef5a130ca23e4162c889a83a"}, {"bike_id": "175585cb9d0f2d2a5c966d637bc19522", "type": "electric_scooter", "is_disabled": 0, "lat": 38.934299, "rental_uris": {"ios": "https://dc.lft.to/lastmile_qr_scan", "android": "https://dc.lft.to/lastmile_qr_scan"}, "is_reserved": 0, "fusion_lon": 0.0, "fusion_lat": 0.0, "lon": -77.04007583333333, "name": "175585cb9d0f2d2a5c966d637bc19522"}, {"bike_id": "ce867945a1c39b5629ec36b8e6c1ecc0", "type": "electric_bike", "is_disabled": 0, "lat": 38.87886866666667, "rental_uris": {"ios": "https://dc.lft.to/lastmile_qr_scan", "android": "https://dc.lft.to/lastmile_qr_scan"}, "is_reserved": 0, "fusion_lon": 0.0, "fusion_lat": 0.0, "lon": -77.0961595, "name": "ce867945a1c39b5629ec36b8e6c1ecc0"}, {"bike_id": "96b3fddb51ed307ae4376e67dfae7fc2", "type": "electric_scooter", "is_disabled": 0, "lat": 38.89724233333333, "rental_uris": {"ios": "https://dc.lft.to/lastmile_qr_scan", "android": "https://dc.lft.to/lastmile_qr_scan"}, "is_reserved": 0, "fusion_lon": 0.0, "fusion_lat": 0.0, "lon": -77.0091985, "name": "96b3fddb51ed307ae4376e67dfae7fc2"}, {"bike_id": "2b1cb61b5d9455f129d16f5dee82a07e", "type": "electric_scooter", "is_disabled": 0, "lat": 38.93090633333333, "rental_uris": {"ios": "https://dc.lft.to/lastmile_qr_scan", "android": "https://dc.lft.to/lastmile_qr_scan"}, "is_reserved": 0, "fusion_lon": 0.0, "fusion_lat": 0.0, "lon": -77.03431416666666, "name": "2b1cb61b5d9455f129d16f5dee82a07e"}, {"bike_id": "b60b4283191c2e54b9cf1df1b77f2c17", "type": "electric_scooter", "is_disabled": 0, "lat": 38.91778883333333, "rental_uris": {"ios": "https://dc.lft.to/lastmile_qr_scan", "android": "https://dc.lft.to/lastmile_qr_scan"}, "is_reserved": 0, "fusion_lon": 0.0, "fusion_lat": 0.0, "lon": -77.0410575, "name": "b60b4283191c2e54b9cf1df1b77f2c17"}, {"bike_id": "9bd8ddfcb6f8a97c06abd7cfc6b18262", "type": "electric_scooter", "is_disabled": 0, "lat": 38.90387333333334, "rental_uris": {"ios": "https://dc.lft.to/lastmile_qr_scan", "android": "https://dc.lft.to/lastmile_qr_scan"}, "is_reserved": 0, "fusion_lon": 0.0, "fusion_lat": 0.0, "lon": -77.0467365, "name": "9bd8ddfcb6f8a97c06abd7cfc6b18262"}, {"bike_id": "ac9c509b3d87a831845227dacabb6e79", "type": "electric_scooter", "is_disabled": 0, "lat": 38.905046, "rental_uris": {"ios": "https://dc.lft.to/lastmile_qr_scan", "android": "https://dc.lft.to/lastmile_qr_scan"}, "is_reserved": 0, "fusion_lon": 0.0, "fusion_lat": 0.0, "lon": -77.01991816666667, "name": "ac9c509b3d87a831845227dacabb6e79"}, {"bike_id": "9f79320bd9f596c34da7b14d86283de3", "type": "electric_scooter", "is_disabled": 0, "lat": 38.91574933333333, "rental_uris": {"ios": "https://dc.lft.to/lastmile_qr_scan", "android": "https://dc.lft.to/lastmile_qr_scan"}, "is_reserved": 0, "fusion_lon": 0.0, "fusion_lat": 0.0, "lon": -77.02006133333333, "name": "9f79320bd9f596c34da7b14d86283de3"}, {"bike_id": "fa6c2644947c51b3766d973bc580ac0c", "type": "electric_scooter", "is_disabled": 0, "lat": 38.910295, "rental_uris": {"ios": "https://dc.lft.to/lastmile_qr_scan", "android": "https://dc.lft.to/lastmile_qr_scan"}, "is_reserved": 0, "fusion_lon": 0.0, "fusion_lat": 0.0, "lon": -77.0383605, "name": "fa6c2644947c51b3766d973bc580ac0c"}, {"bike_id": "707f375bef8eb9a8750c7ce175964fa0", "type": "electric_scooter", "is_disabled": 0, "lat": 38.92143016666667, "rental_uris": {"ios": "https://dc.lft.to/lastmile_qr_scan", "android": "https://dc.lft.to/lastmile_qr_scan"}, "is_reserved": 0, "fusion_lon": 0.0, "fusion_lat": 0.0, "lon": -77.04136433333333, "name": "707f375bef8eb9a8750c7ce175964fa0"}, {"bike_id": "4889fbd4c79af544ae51b96d544819e2", "type": "electric_scooter", "is_disabled": 0, "lat": 38.923176, "rental_uris": {"ios": "https://dc.lft.to/lastmile_qr_scan", "android": "https://dc.lft.to/lastmile_qr_scan"}, "is_reserved": 0, "fusion_lon": 0.0, "fusion_lat": 0.0, "lon": -77.03913333333334, "name": "4889fbd4c79af544ae51b96d544819e2"}, {"bike_id": "4ece5c222c77f2dbda560e45786b21ca", "type": "electric_scooter", "is_disabled": 0, "lat": 38.920466833333336, "rental_uris": {"ios": "https://dc.lft.to/lastmile_qr_scan", "android": "https://dc.lft.to/lastmile_qr_scan"}, "is_reserved": 0, "fusion_lon": 0.0, "fusion_lat": 0.0, "lon": -77.03396366666666, "name": "4ece5c222c77f2dbda560e45786b21ca"}, {"bike_id": "7557dc085c6c7c15aa6763eb19fd96db", "type": "electric_bike", "is_disabled": 0, "lat": 38.908732666666666, "rental_uris": {"ios": "https://dc.lft.to/lastmile_qr_scan", "android": "https://dc.lft.to/lastmile_qr_scan"}, "is_reserved": 0, "fusion_lon": 0.0, "fusion_lat": 0.0, "lon": -76.99131483333333, "name": "7557dc085c6c7c15aa6763eb19fd96db"}, {"bike_id": "856efa56b939e1b0f8e80ba9601b8ca6", "type": "electric_scooter", "is_disabled": 0, "lat": 38.89333233333333, "rental_uris": {"ios": "https://dc.lft.to/lastmile_qr_scan", "android": "https://dc.lft.to/lastmile_qr_scan"}, "is_reserved": 0, "fusion_lon": 0.0, "fusion_lat": 0.0, "lon": -77.0317835, "name": "856efa56b939e1b0f8e80ba9601b8ca6"}, {"bike_id": "88f53c9fde6ee5e9908266bbf2016296", "type": "electric_scooter", "is_disabled": 0, "lat": 38.907257, "rental_uris": {"ios": "https://dc.lft.to/lastmile_qr_scan", "android": "https://dc.lft.to/lastmile_qr_scan"}, "is_reserved": 0, "fusion_lon": 0.0, "fusion_lat": 0.0, "lon": -77.03354283333333, "name": "88f53c9fde6ee5e9908266bbf2016296"}, {"bike_id": "6628aa14530ad638d11597408c809420", "type": "electric_scooter", "is_disabled": 0, "lat": 38.90279816666666, "rental_uris": {"ios": "https://dc.lft.to/lastmile_qr_scan", "android": "https://dc.lft.to/lastmile_qr_scan"}, "is_reserved": 0, "fusion_lon": 0.0, "fusion_lat": 0.0, "lon": -77.02313083333334, "name": "6628aa14530ad638d11597408c809420"}, {"bike_id": "6869aff17db227aca7009e561534f1de", "type": "electric_scooter", "is_disabled": 0, "lat": 38.9119835, "rental_uris": {"ios": "https://dc.lft.to/lastmile_qr_scan", "android": "https://dc.lft.to/lastmile_qr_scan"}, "is_reserved": 0, "fusion_lon": 0.0, "fusion_lat": 0.0, "lon": -77.07316683333333, "name": "6869aff17db227aca7009e561534f1de"}, {"bike_id": "948cf580209303ad42998de23e1aa28e", "type": "electric_scooter", "is_disabled": 0, "lat": 38.876501166666664, "rental_uris": {"ios": "https://dc.lft.to/lastmile_qr_scan", "android": "https://dc.lft.to/lastmile_qr_scan"}, "is_reserved": 0, "fusion_lon": 0.0, "fusion_lat": 0.0, "lon": -76.96506916666667, "name": "948cf580209303ad42998de23e1aa28e"}, {"bike_id": "5e0fba709b7aeea25dbabf2d7f28f618", "type": "electric_scooter", "is_disabled": 0, "lat": 38.887416333333334, "rental_uris": {"ios": "https://dc.lft.to/lastmile_qr_scan", "android": "https://dc.lft.to/lastmile_qr_scan"}, "is_reserved": 0, "fusion_lon": 0.0, "fusion_lat": 0.0, "lon": -77.01536816666666, "name": "5e0fba709b7aeea25dbabf2d7f28f618"}, {"bike_id": "3e442f78c57b346548fd430aafafa20b", "type": "electric_scooter", "is_disabled": 0, "lat": 38.87334416666667, "rental_uris": {"ios": "https://dc.lft.to/lastmile_qr_scan", "android": "https://dc.lft.to/lastmile_qr_scan"}, "is_reserved": 0, "fusion_lon": 0.0, "fusion_lat": 0.0, "lon": -76.967828, "name": "3e442f78c57b346548fd430aafafa20b"}, {"bike_id": "3cb1f62258fea5b92be290adc6ec9465", "type": "electric_scooter", "is_disabled": 0, "lat": 38.9232925, "rental_uris": {"ios": "https://dc.lft.to/lastmile_qr_scan", "android": "https://dc.lft.to/lastmile_qr_scan"}, "is_reserved": 0, "fusion_lon": 0.0, "fusion_lat": 0.0, "lon": -77.037904, "name": "3cb1f62258fea5b92be290adc6ec9465"}, {"bike_id": "e6dea861f1426cc1346b424adce1bf1f", "type": "electric_scooter", "is_disabled": 0, "lat": 38.8991075, "rental_uris": {"ios": "https://dc.lft.to/lastmile_qr_scan", "android": "https://dc.lft.to/lastmile_qr_scan"}, "is_reserved": 0, "fusion_lon": 0.0, "fusion_lat": 0.0, "lon": -77.039403, "name": "e6dea861f1426cc1346b424adce1bf1f"}, {"bike_id": "98c619d3e0cb2eea6f4c1a736c1e65b4", "type": "electric_scooter", "is_disabled": 0, "lat": 38.95627733333333, "rental_uris": {"ios": "https://dc.lft.to/lastmile_qr_scan", "android": "https://dc.lft.to/lastmile_qr_scan"}, "is_reserved": 0, "fusion_lon": 0.0, "fusion_lat": 0.0, "lon": -77.03621366666667, "name": "98c619d3e0cb2eea6f4c1a736c1e65b4"}, {"bike_id": "fe5a16ac044bde2486c6ccb60ccfd8fc", "type": "electric_scooter", "is_disabled": 0, "lat": 38.873552333333336, "rental_uris": {"ios": "https://dc.lft.to/lastmile_qr_scan", "android": "https://dc.lft.to/lastmile_qr_scan"}, "is_reserved": 0, "fusion_lon": 0.0, "fusion_lat": 0.0, "lon": -77.0056055, "name": "fe5a16ac044bde2486c6ccb60ccfd8fc"}, {"bike_id": "cde4b5c2d9030ac1812cec9b6f1e73f4", "type": "electric_bike", "is_disabled": 0, "lat": 38.9739815, "rental_uris": {"ios": "https://dc.lft.to/lastmile_qr_scan", "android": "https://dc.lft.to/lastmile_qr_scan"}, "is_reserved": 0, "fusion_lon": 0.0, "fusion_lat": 0.0, "lon": -77.06459, "name": "cde4b5c2d9030ac1812cec9b6f1e73f4"}, {"bike_id": "fce22ddf7b884fe56466b807813c0888", "type": "electric_scooter", "is_disabled": 0, "lat": 38.879191666666664, "rental_uris": {"ios": "https://dc.lft.to/lastmile_qr_scan", "android": "https://dc.lft.to/lastmile_qr_scan"}, "is_reserved": 0, "fusion_lon": 0.0, "fusion_lat": 0.0, "lon": -77.00879916666666, "name": "fce22ddf7b884fe56466b807813c0888"}, {"bike_id": "bf963b38aa2772542e0bbd8d94f68d07", "type": "electric_scooter", "is_disabled": 0, "lat": 38.901045833333335, "rental_uris": {"ios": "https://dc.lft.to/lastmile_qr_scan", "android": "https://dc.lft.to/lastmile_qr_scan"}, "is_reserved": 0, "fusion_lon": 0.0, "fusion_lat": 0.0, "lon": -77.049895, "name": "bf963b38aa2772542e0bbd8d94f68d07"}, {"bike_id": "bcefe1f8c5d15344e50f1ce089958d88", "type": "electric_scooter", "is_disabled": 0, "lat": 38.9002995, "rental_uris": {"ios": "https://dc.lft.to/lastmile_qr_scan", "android": "https://dc.lft.to/lastmile_qr_scan"}, "is_reserved": 0, "fusion_lon": 0.0, "fusion_lat": 0.0, "lon": -76.99245666666667, "name": "bcefe1f8c5d15344e50f1ce089958d88"}, {"bike_id": "5e290ec0e63f5ac21bca86818956dda9", "type": "electric_scooter", "is_disabled": 0, "lat": 38.902783166666666, "rental_uris": {"ios": "https://dc.lft.to/lastmile_qr_scan", "android": "https://dc.lft.to/lastmile_qr_scan"}, "is_reserved": 0, "fusion_lon": 0.0, "fusion_lat": 0.0, "lon": -77.003374, "name": "5e290ec0e63f5ac21bca86818956dda9"}, {"bike_id": "77d5f0ebaee57adbb50a4c1a422f5e29", "type": "electric_scooter", "is_disabled": 0, "lat": 38.90121666666667, "rental_uris": {"ios": "https://dc.lft.to/lastmile_qr_scan", "android": "https://dc.lft.to/lastmile_qr_scan"}, "is_reserved": 0, "fusion_lon": 0.0, "fusion_lat": 0.0, "lon": -76.92956333333333, "name": "77d5f0ebaee57adbb50a4c1a422f5e29"}, {"bike_id": "30b1fdba61a7e376b21b01ffc6e3121c", "type": "electric_scooter", "is_disabled": 0, "lat": 38.86887866666667, "rental_uris": {"ios": "https://dc.lft.to/lastmile_qr_scan", "android": "https://dc.lft.to/lastmile_qr_scan"}, "is_reserved": 0, "fusion_lon": 0.0, "fusion_lat": 0.0, "lon": -76.98444566666667, "name": "30b1fdba61a7e376b21b01ffc6e3121c"}, {"bike_id": "bdb8d7956f4579cee944dc9a95290fed", "type": "electric_scooter", "is_disabled": 0, "lat": 38.9654895, "rental_uris": {"ios": "https://dc.lft.to/lastmile_qr_scan", "android": "https://dc.lft.to/lastmile_qr_scan"}, "is_reserved": 0, "fusion_lon": 0.0, "fusion_lat": 0.0, "lon": -77.036289, "name": "bdb8d7956f4579cee944dc9a95290fed"}, {"bike_id": "07e42fd4a9487df2fb7b2e696647c491", "type": "electric_scooter", "is_disabled": 0, "lat": 38.922462333333335, "rental_uris": {"ios": "https://dc.lft.to/lastmile_qr_scan", "android": "https://dc.lft.to/lastmile_qr_scan"}, "is_reserved": 0, "fusion_lon": 0.0, "fusion_lat": 0.0, "lon": -77.03902766666667, "name": "07e42fd4a9487df2fb7b2e696647c491"}, {"bike_id": "6e081c96c1466da5f5c1eff0bb3a02f8", "type": "electric_scooter", "is_disabled": 0, "lat": 38.90382916666667, "rental_uris": {"ios": "https://dc.lft.to/lastmile_qr_scan", "android": "https://dc.lft.to/lastmile_qr_scan"}, "is_reserved": 0, "fusion_lon": 0.0, "fusion_lat": 0.0, "lon": -77.05333016666667, "name": "6e081c96c1466da5f5c1eff0bb3a02f8"}, {"bike_id": "4291aa31a82eaef632909c54d6ba49d9", "type": "electric_bike", "is_disabled": 0, "lat": 38.838100833333336, "rental_uris": {"ios": "https://dc.lft.to/lastmile_qr_scan", "android": "https://dc.lft.to/lastmile_qr_scan"}, "is_reserved": 0, "fusion_lon": 0.0, "fusion_lat": 0.0, "lon": -77.0952105, "name": "4291aa31a82eaef632909c54d6ba49d9"}, {"bike_id": "4654d9a4a7a79612f87b77e751b00cdb", "type": "electric_scooter", "is_disabled": 0, "lat": 38.955347333333336, "rental_uris": {"ios": "https://dc.lft.to/lastmile_qr_scan", "android": "https://dc.lft.to/lastmile_qr_scan"}, "is_reserved": 0, "fusion_lon": 0.0, "fusion_lat": 0.0, "lon": -77.027767, "name": "4654d9a4a7a79612f87b77e751b00cdb"}, {"bike_id": "0df4e0afbde8c19c82011fae5c1cef4b", "type": "electric_scooter", "is_disabled": 0, "lat": 38.929204166666665, "rental_uris": {"ios": "https://dc.lft.to/lastmile_qr_scan", "android": "https://dc.lft.to/lastmile_qr_scan"}, "is_reserved": 0, "fusion_lon": 0.0, "fusion_lat": 0.0, "lon": -77.03174366666667, "name": "0df4e0afbde8c19c82011fae5c1cef4b"}, {"bike_id": "4838af38308dfada3f799483b1499977", "type": "electric_scooter", "is_disabled": 0, "lat": 38.924745333333334, "rental_uris": {"ios": "https://dc.lft.to/lastmile_qr_scan", "android": "https://dc.lft.to/lastmile_qr_scan"}, "is_reserved": 0, "fusion_lon": 0.0, "fusion_lat": 0.0, "lon": -77.03543733333333, "name": "4838af38308dfada3f799483b1499977"}, {"bike_id": "16eda45af0583ce6559664bc9bb8a65f", "type": "electric_scooter", "is_disabled": 0, "lat": 38.91245716666667, "rental_uris": {"ios": "https://dc.lft.to/lastmile_qr_scan", "android": "https://dc.lft.to/lastmile_qr_scan"}, "is_reserved": 0, "fusion_lon": 0.0, "fusion_lat": 0.0, "lon": -77.02219883333333, "name": "16eda45af0583ce6559664bc9bb8a65f"}, {"bike_id": "96c749e06403106dde74644d42b46aaf", "type": "electric_scooter", "is_disabled": 0, "lat": 38.94292183333334, "rental_uris": {"ios": "https://dc.lft.to/lastmile_qr_scan", "android": "https://dc.lft.to/lastmile_qr_scan"}, "is_reserved": 0, "fusion_lon": 0.0, "fusion_lat": 0.0, "lon": -77.02173733333333, "name": "96c749e06403106dde74644d42b46aaf"}, {"bike_id": "7e8a5fa0832d7bc2f12e4470edf0c053", "type": "electric_scooter", "is_disabled": 0, "lat": 38.91379533333333, "rental_uris": {"ios": "https://dc.lft.to/lastmile_qr_scan", "android": "https://dc.lft.to/lastmile_qr_scan"}, "is_reserved": 0, "fusion_lon": 0.0, "fusion_lat": 0.0, "lon": -77.0414075, "name": "7e8a5fa0832d7bc2f12e4470edf0c053"}, {"bike_id": "4863cc5d50dc67bdc18ab5f4c5bbf21f", "type": "electric_scooter", "is_disabled": 0, "lat": 38.92204433333333, "rental_uris": {"ios": "https://dc.lft.to/lastmile_qr_scan", "android": "https://dc.lft.to/lastmile_qr_scan"}, "is_reserved": 0, "fusion_lon": 0.0, "fusion_lat": 0.0, "lon": -77.04021066666667, "name": "4863cc5d50dc67bdc18ab5f4c5bbf21f"}, {"bike_id": "da9f141b63853cad318027323f4563a2", "type": "electric_scooter", "is_disabled": 0, "lat": 38.91607483333333, "rental_uris": {"ios": "https://dc.lft.to/lastmile_qr_scan", "android": "https://dc.lft.to/lastmile_qr_scan"}, "is_reserved": 0, "fusion_lon": 0.0, "fusion_lat": 0.0, "lon": -77.02294433333333, "name": "da9f141b63853cad318027323f4563a2"}, {"bike_id": "730570cc1ebcddf6f8bb0023fc5de9d9", "type": "electric_scooter", "is_disabled": 0, "lat": 38.903623833333334, "rental_uris": {"ios": "https://dc.lft.to/lastmile_qr_scan", "android": "https://dc.lft.to/lastmile_qr_scan"}, "is_reserved": 0, "fusion_lon": 0.0, "fusion_lat": 0.0, "lon": -77.00740033333334, "name": "730570cc1ebcddf6f8bb0023fc5de9d9"},