{"data": {"bikes": [{"fusion_lat": 0.0, "name": "06aba296e00d1b8bd17fed5703f47704", "is_disabled": 0, "rental_uris": {"android": "https://dc.lft.to/lastmile_qr_scan", "ios": "https://dc.lft.to/lastmile_qr_scan"}, "fusion_lon": 0.0, "lat": 38.896066166666664, "bike_id": "06aba296e00d1b8bd17fed5703f47704", "type": "electric_scooter", "is_reserved": 0, "lon": -77.00930833333334}, {"fusion_lat": 0.0, "name": "3bddbc500c151ceb3ab7a487a6306083", "is_disabled": 0, "rental_uris": {"android": "https://dc.lft.to/lastmile_qr_scan", "ios": "https://dc.lft.to/lastmile_qr_scan"}, "fusion_lon": 0.0, "lat": 38.89875766666667, "bike_id": "3bddbc500c151ceb3ab7a487a6306083", "type": "electric_scooter", "is_reserved": 0, "lon": -76.93184316666667}, {"fusion_lat": 0.0, "name": "4a9e4d6bea3b0a132c4430acf865a3dc", "is_disabled": 0, "rental_uris": {"android": "https://dc.lft.to/lastmile_qr_scan", "ios": "https://dc.lft.to/lastmile_qr_scan"}, "fusion_lon": 0.0, "lat": 38.90458, "bike_id": "4a9e4d6bea3b0a132c4430acf865a3dc", "type": "electric_scooter", "is_reserved": 0, "lon": -77.01769583333333}, {"fusion_lat": 0.0, "name": "5c4e91d185d033a7efb691c5b48d432b", "is_disabled": 0, "rental_uris": {"android": "https://dc.lft.to/lastmile_qr_scan", "ios": "https://dc.lft.to/lastmile_qr_scan"}, "fusion_lon": 0.0, "lat": 38.88612466666667, "bike_id": "5c4e91d185d033a7efb691c5b48d432b", "type": "electric_scooter", "is_reserved": 0, "lon": -77.0155555}, {"fusion_lat": 0.0, "name": "c5a730c7b4139014e9820dd713e2d17e", "is_disabled": 0, "rental_uris": {"android": "https://dc.lft.to/lastmile_qr_scan", "ios": "https://dc.lft.to/lastmile_qr_scan"}, "fusion_lon": 0.0, "lat": 38.877076333333335, "bike_id": "c5a730c7b4139014e9820dd713e2d17e", "type": "electric_scooter", "is_reserved": 0, "lon": -76.9938165}, {"fusion_lat": 0.0, "name": "0b92b16cde3e16eda4852bbd1caf4a51", "is_disabled": 0, "rental_uris": {"android": "https://dc.lft.to/lastmile_qr_scan", "ios": "https://dc.lft.to/lastmile_qr_scan"}, "fusion_lon": 0.0, "lat": 38.92503216666667, "bike_id": "0b92b16cde3e16eda4852bbd1caf4a51", "type": "electric_scooter", "is_reserved": 0, "lon": -77.051123}, {"fusion_lat": 0.0, "name": "e3e6e006b5030d3f3d1611347f6e6659", "is_disabled": 0, "rental_uris": {"android": "https://dc.lft.to/lastmile_qr_scan", "ios": "https://dc.lft.to/lastmile_qr_scan"}, "fusion_lon": 0.0, "lat": 38.92777366666667, "bike_id": "e3e6e006b5030d3f3d1611347f6e6659", "type": "electric_scooter", "is_reserved": 0, "lon": -77.05287216666666}, {"fusion_lat": 0.0, "name": "ba8642705da04c19f5b80a9056984813", "is_disabled": 0, "rental_uris": {"android": "https://dc.lft.to/lastmile_qr_scan", "ios": "https://dc.lft.to/lastmile_qr_scan"}, "fusion_lon": 0.0, "lat": 38.912677, "bike_id": "ba8642705da04c19f5b80a9056984813", "type": "electric_scooter", "is_reserved": 0, "lon": -77.04354083333334}, {"fusion_lat": 0.0, "name": "96e766546d8f79d213f32bf6e9a4e848", "is_disabled": 0, "rental_uris": {"android": "https://dc.lft.to/lastmile_qr_scan", "ios": "https://dc.lft.to/lastmile_qr_scan"}, "fusion_lon": 0.0, "lat": 38.91694433333333, "bike_id": "96e766546d8f79d213f32bf6e9a4e848", "type": "electric_scooter", "is_reserved": 0, "lon": -77.04214366666666}, {"fusion_lat": 0.0, "name": "742fc476374776af58cd082d5f56df98", "is_disabled": 0, "rental_uris": {"android": "https://dc.lft.to/lastmile_qr_scan", "ios": "https://dc.lft.to/lastmile_qr_scan"}, "fusion_lon": 0.0, "lat": 38.896531, "bike_id": "742fc476374776af58cd082d5f56df98", "type": "electric_scooter", "is_reserved": 0, "lon": -77.0434265}, {"fusion_lat": 0.0, "name": "a580a48d8122f43e0674050cad3d7d39", "is_disabled": 0, "rental_uris": {"android": "https://dc.lft.to/lastmile_qr_scan", "ios": "https://dc.lft.to/lastmile_qr_scan"}, "fusion_lon": 0.0, "lat": 38.90036516666667, "bike_id": "a580a48d8122f43e0674050cad3d7d39", "type": "electric_scooter", "is_reserved": 0, "lon": -77.00225566666667}, {"fusion_lat": 0.0, "name": "b4239e8b266ef211ef0d12cb0142a37c", "is_disabled": 0, "rental_uris": {"android": "https://dc.lft.to/lastmile_qr_scan", "ios": "https://dc.lft.to/lastmile_qr_scan"}, "fusion_lon": 0.0, "lat": 38.8829565, "bike_id": "b4239e8b266ef211ef0d12cb0142a37c", "type": "electric_scooter", "is_reserved": 0, "lon": -77.02478066666667}, {"fusion_lat": 0.0, "name": "55dc1b46aa2e9ef600f4972e6928c4ea", "is_disabled": 0, "rental_uris": {"android": "https://dc.lft.to/lastmile_qr_scan", "ios": "https://dc.lft.to/lastmile_qr_scan"}, "fusion_lon": 0.0, "lat": 38.924797166666664, "bike_id": "55dc1b46aa2e9ef600f4972e6928c4ea", "type": "electric_scooter", "is_reserved": 0, "lon": -77.02625833333333}, {"fusion_lat": 0.0, "name": "ba5172356242e0a6d2945d0d79d62a47", "is_disabled": 0, "rental_uris": {"android": "https://dc.lft.to/lastmile_qr_scan", "ios": "https://dc.lft.to/lastmile_qr_scan"}, "fusion_lon": 0.0, "lat": 38.91425866666667, "bike_id": "ba5172356242e0a6d2945d0d79d62a47", "type": "electric_scooter", "is_reserved": 0, "lon": -77.0346795}, {"fusion_lat": 0.0, "name": "ef9093ce3f0d93634d008604c9af6b4f", "is_disabled": 0, "rental_uris": {"android": "https://dc.lft.to/lastmile_qr_scan", "ios": "https://dc.lft.to/lastmile_qr_scan"}, "fusion_lon": 0.0, "lat": 38.92247183333333, "bike_id": "ef9093ce3f0d93634d008604c9af6b4f", "type": "electric_scooter", "is_reserved": 0, "lon": -77.0747695}, {"fusion_lat": 0.0, "name": "ef2f220af5361c492360bee8e357a380", "is_disabled": 0, "rental_uris": {"android": "https://dc.lft.to/lastmile_qr_scan", "ios": "https://dc.lft.to/lastmile_qr_scan"}, "fusion_lon": 0.0, "lat": 38.93507666666667, "bike_id": "ef2f220af5361c492360bee8e357a380", "type": "electric_scooter", "is_reserved": 0, "lon": -77.03261416666666}, {"fusion_lat": 0.0, "name": "f5646a87af8249b856d6305014273884", "is_disabled": 0, "rental_uris": {"android": "https://dc.lft.to/lastmile_qr_scan", "ios": "https://dc.lft.to/lastmile_qr_scan"}, "fusion_lon": 0.0, "lat": 38.920282666666665, "bike_id": "f5646a87af8249b856d6305014273884", "type": "electric_scooter", "is_reserved": 0, "lon": -77.03144016666667}, {"fusion_lat": 0.0, "name": "0c58d9e651ad87b9ab899e1b58394817", "is_disabled": 0, "rental_uris": {"android": "https://dc.lft.to/lastmile_qr_scan", "ios": "https://dc.lft.to/lastmile_qr_scan"}, "fusion_lon": 0.0, "lat": 38.8132965, "bike_id": "0c58d9e651ad87b9ab899e1b58394817", "type": "electric_bike", "is_reserved": 0, "lon": -77.05093116666667}, {"fusion_lat": 0.0, "name": "bd41396003acd485fbe59b832df3a55c", "is_disabled": 0, "rental_uris": {"android": "https://dc.lft.to/lastmile_qr_scan", "ios": "https://dc.lft.to/lastmile_qr_scan"}, "fusion_lon": 0.0, "lat": 38.883243, "bike_id": "bd41396003acd485fbe59b832df3a55c", "type": "electric_scooter", "is_reserved": 0, "lon": -77.01766433333333}, {"fusion_lat": 0.0, "name": "a23bd9243c7ed8a8ed6464472887dd16", "is_disabled": 0, "rental_uris": {"android": "https://dc.lft.to/lastmile_qr_scan", "ios": "https://dc.lft.to/lastmile_qr_scan"}, "fusion_lon": 0.0, "lat": 38.93188333333333, "bike_id": "a23bd9243c7ed8a8ed6464472887dd16", "type": "electric_bike", "is_reserved": 0, "lon": -77.22929933333333}, {"fusion_lat": 0.0, "name": "1b765c8a919aaceb2a9e095b067763d0", "is_disabled": 0, "rental_uris": {"android": "https://dc.lft.to/lastmile_qr_scan", "ios": "https://dc.lft.to/lastmile_qr_scan"}, "fusion_lon": 0.0, "lat": 38.856103166666664, "bike_id": "1b765c8a919aaceb2a9e095b067763d0", "type": "electric_scooter", "is_reserved": 0, "lon": -76.9727375}, {"fusion_lat": 0.0, "name": "2a4b182b611fd8d712847a01cf2292a6", "is_disabled": 0, "rental_uris": {"android": "https://dc.lft.to/lastmile_qr_scan", "ios": "https://dc.lft.to/lastmile_qr_scan"}, "fusion_lon": 0.0, "lat": 38.89822433333333, "bike_id": "2a4b182b611fd8d712847a01cf2292a6", "type": "electric_scooter", "is_reserved": 0, "lon": -77.046549}, {"fusion_lat": 0.0, "name": "1e04ffdf5b49bc522a34d5736d2cb56f", "is_disabled": 0, "rental_uris": {"android": "https://dc.lft.to/lastmile_qr_scan", "ios": "https://dc.lft.to/lastmile_qr_scan"}, "fusion_lon": 0.0, "lat": 38.9213865, "bike_id": "1e04ffdf5b49bc522a34d5736d2cb56f", "type": "electric_scooter", "is_reserved": 0, "lon": -77.0251585}, {"fusion_lat": 0.0, "name": "534650d66038814226a3f73ae99fcf5f", "is_disabled": 0, "rental_uris": {"android": "https://dc.lft.to/lastmile_qr_scan", "ios": "https://dc.lft.to/lastmile_qr_scan"}, "fusion_lon": 0.0, "lat": 38.89243333333334, "bike_id": "534650d66038814226a3f73ae99fcf5f", "type": "electric_scooter", "is_reserved": 0, "lon": -77.04657933333333}, {"fusion_lat": 0.0, "name": "3797904e6315aeb598aa912d152736ef", "is_disabled": 0, "rental_uris": {"android": "https://dc.lft.to/lastmile_qr_scan", "ios": "https://dc.lft.to/lastmile_qr_scan"}, "fusion_lon": 0.0, "lat": 38.92603583333333, "bike_id": "3797904e6315aeb598aa912d152736ef", "type": "electric_scooter", "is_reserved": 0, "lon": -77.0396645}, {"fusion_lat": 0.0, "name": "62e102d22d5bdf9ffd1cfecb9849be0b", "is_disabled": 0, "rental_uris": {"android": "https://dc.lft.to/lastmile_qr_scan", "ios": "https://dc.lft.to/lastmile_qr_scan"}, "fusion_lon": 0.0, "lat": 38.89601483333333, "bike_id": "62e102d22d5bdf9ffd1cfecb9849be0b", "type": "electric_scooter", "is_reserved": 0, "lon": -77.00330733333334}, {"fusion_lat": 0.0, "name": "00de123ef1b81446769f23ac742b75da", "is_disabled": 0, "rental_uris": {"android": "https://dc.lft.to/lastmile_qr_scan", "ios": "https://dc.lft.to/lastmile_qr_scan"}, "fusion_lon": 0.0, "lat": 38.898996333333336, "bike_id": "00de123ef1b81446769f23ac742b75da", "type": "electric_bike", "is_reserved": 0, "lon": -77.0962035}, {"fusion_lat": 0.0, "name": "29ca3daec953de79e6793e13a347395f", "is_disabled": 0, "rental_uris": {"android": "https://dc.lft.to/lastmile_qr_scan", "ios": "https://dc.lft.to/lastmile_qr_scan"}, "fusion_lon": 0.0, "lat": 38.90028866666667, "bike_id": "29ca3daec953de79e6793e13a347395f", "type": "electric_scooter", "is_reserved": 0, "lon": -77.0020885}, {"fusion_lat": 0.0, "name": "d795f9b7bce5b5f1640689040445e062", "is_disabled": 0, "rental_uris": {"android": "https://dc.lft.to/lastmile_qr_scan", "ios": "https://dc.lft.to/lastmile_qr_scan"}, "fusion_lon": 0.0, "lat": 38.8919385, "bike_id": "d795f9b7bce5b5f1640689040445e062", "type": "electric_scooter", "is_reserved": 0, "lon": -77.02130883333334}, {"fusion_lat": 0.0, "name": "d98337ee6fcf0e2bb415da2c3b740b51", "is_disabled": 0, "rental_uris": {"android": "https://dc.lft.to/lastmile_qr_scan", "ios": "https://dc.lft.to/lastmile_qr_scan"}, "fusion_lon": 0.0, "lat": 38.90905883333333, "bike_id": "d98337ee6fcf0e2bb415da2c3b740b51", "type": "electric_scooter", "is_reserved": 0, "lon": -76.99895966666666}, {"fusion_lat": 0.0, "name": "02aa43c71dc556a0f131c34e4f4f67e4", "is_disabled": 0, "rental_uris": {"android": "https://dc.lft.to/lastmile_qr_scan", "ios": "https://dc.lft.to/lastmile_qr_scan"}, "fusion_lon": 0.0, "lat": 38.92073083333333, "bike_id": "02aa43c71dc556a0f131c34e4f4f67e4", "type": "electric_scooter", "is_reserved": 0, "lon": -76.99476166666666}, {"fusion_lat": 0.0, "name": "712780cd2124774bb34a77d1ab3ef54b", "is_disabled": 0, "rental_uris": {"android": "https://dc.lft.to/lastmile_qr_scan", "ios": "https://dc.lft.to/lastmile_qr_scan"}, "fusion_lon": 0.0, "lat": 38.907044166666665, "bike_id": "712780cd2124774bb34a77d1ab3ef54b", "type": "electric_scooter", "is_reserved": 0, "lon": -76.98696416666667}, {"fusion_lat": 0.0, "name": "cc9a1d3718e8bf9cdf20463264eec25e", "is_disabled": 0, "rental_uris": {"android": "https://dc.lft.to/lastmile_qr_scan", "ios": "https://dc.lft.to/lastmile_qr_scan"}, "fusion_lon": 0.0, "lat": 38.99095033333333, "bike_id": "cc9a1d3718e8bf9cdf20463264eec25e", "type": "electric_bike", "is_reserved": 0, "lon": -76.99378366666667}, {"fusion_lat": 0.0, "name": "d7a2cb64479aa4955064094adc7816b6", "is_disabled": 0, "rental_uris": {"android": "https://dc.lft.to/lastmile_qr_scan", "ios": "https://dc.lft.to/lastmile_qr_scan"}, "fusion_lon": 0.0, "lat": 38.922432, "bike_id": "d7a2cb64479aa4955064094adc7816b6", "type": "electric_scooter", "is_reserved": 0, "lon": -77.042554}, {"fusion_lat": 0.0, "name": "779fde80343ab8852d1feeb713258dde", "is_disabled": 0, "rental_uris": {"android": "https://dc.lft.to/lastmile_qr_scan", "ios": "https://dc.lft.to/lastmile_qr_scan"}, "fusion_lon": 0.0, "lat": 38.91928566666667, "bike_id": "779fde80343ab8852d1feeb713258dde", "type": "electric_scooter", "is_reserved": 0, "lon": -77.0448175}, {"fusion_lat": 0.0, "name": "aa0a9437cf8e308e6e0620b9cb93f610", "is_disabled": 0, "rental_uris": {"android": "https://dc.lft.to/lastmile_qr_scan", "ios": "https://dc.lft.to/lastmile_qr_scan"}, "fusion_lon": 0.0, "lat": 38.914086833333336, "bike_id": "aa0a9437cf8e308e6e0620b9cb93f610", "type": "electric_scooter", "is_reserved": 0, "lon": -77.01327316666666}, {"fusion_lat": 0.0, "name": "01f0d06f997a49d268037eee527bacb4", "is_disabled": 0, "rental_uris": {"android": "https://dc.lft.to/lastmile_qr_scan", "ios": "https://dc.lft.to/lastmile_qr_scan"}, "fusion_lon": 0.0, "lat": 38.86617366666667, "bike_id": "01f0d06f997a49d268037eee527bacb4", "type": "electric_bike", "is_reserved": 0, "lon": -76.94569816666667}, {"fusion_lat": 0.0, "name": "dd3383ff438b526467ad0a5066e34287", "is_disabled": 0, "rental_uris": {"android": "https://dc.lft.to/lastmile_qr_scan", "ios": "https://dc.lft.to/lastmile_qr_scan"}, "fusion_lon": 0.0, "lat": 38.928619, "bike_id": "dd3383ff438b526467ad0a5066e34287", "type": "electric_scooter", "is_reserved": 0, "lon": -77.01413666666667}, {"fusion_lat": 0.0, "name": "358de2395b86cd9f44983d4c026368e4", "is_disabled": 0, "rental_uris": {"android": "https://dc.lft.to/lastmile_qr_scan", "ios": "https://dc.lft.to/lastmile_qr_scan"}, "fusion_lon": 0.0, "lat": 38.916290333333336, "bike_id": "358de2395b86cd9f44983d4c026368e4", "type": "electric_scooter", "is_reserved": 0, "lon": -77.03985416666667}, {"fusion_lat": 0.0, "name": "fbd34d8ca7fac1bb34e50528d00178bc", "is_disabled": 0, "rental_uris": {"android": "https://dc.lft.to/lastmile_qr_scan", "ios": "https://dc.lft.to/lastmile_qr_scan"}, "fusion_lon": 0.0, "lat": 38.949544, "bike_id": "fbd34d8ca7fac1bb34e50528d00178bc", "type": "electric_bike", "is_reserved": 0, "lon": -77.06542033333334}, {"fusion_lat": 0.0, "name": "60f3a438b5785cef5991a213c39f1baf", "is_disabled": 0, "rental_uris": {"android": "https://dc.lft.to/lastmile_qr_scan", "ios": "https://dc.lft.to/lastmile_qr_scan"}, "fusion_lon": 0.0, "lat": 38.864579666666664, "bike_id": "60f3a438b5785cef5991a213c39f1baf", "type": "electric_bike", "is_reserved": 0, "lon": -76.94530583333334}, {"fusion_lat": 0.0, "name": "999cfaaa940ccbfb5a21bafe76710d80", "is_disabled": 0, "rental_uris": {"android": "https://dc.lft.to/lastmile_qr_scan", "ios": "https://dc.lft.to/lastmile_qr_scan"}, "fusion_lon": 0.0, "lat": 38.92969516666667, "bike_id": "999cfaaa940ccbfb5a21bafe76710d80", "type": "electric_scooter", "is_reserved": 0, "lon": -77.02802466666667}, {"fusion_lat": 0.0, "name": "8243279e96f2e215fbc63324449e3a73", "is_disabled": 0, "rental_uris": {"android": "https://dc.lft.to/lastmile_qr_scan", "ios": "https://dc.lft.to/lastmile_qr_scan"}, "fusion_lon": 0.0, "lat": 38.94662316666667, "bike_id": "8243279e96f2e215fbc63324449e3a73", "type": "electric_bike", "is_reserved": 0, "lon": -77.00698966666667}, {"fusion_lat": 0.0, "name": "3e24165979371781eea4762f12d19d85", "is_disabled": 0, "rental_uris": {"android": "https://dc.lft.to/lastmile_qr_scan", "ios": "https://dc.lft.to/lastmile_qr_scan"}, "fusion_lon": 0.0, "lat": 38.922431333333336, "bike_id": "3e24165979371781eea4762f12d19d85", "type": "electric_scooter", "is_reserved": 0, "lon": -77.02995916666667}, {"fusion_lat": 0.0, "name": "4d3a98efb332fc3983a77de46afd4c79", "is_disabled": 0, "rental_uris": {"android": "https://dc.lft.to/lastmile_qr_scan", "ios": "https://dc.lft.to/lastmile_qr_scan"}, "fusion_lon": 0.0, "lat": 38.89717233333333, "bike_id": "4d3a98efb332fc3983a77de46afd4c79", "type": "electric_scooter", "is_reserved": 0, "lon": -77.0084635}, {"fusion_lat": 0.0, "name": "12771c8cd9fa896055146612f5a109ac", "is_disabled": 0, "rental_uris": {"android": "https://dc.lft.to/lastmile_qr_scan", "ios": "https://dc.lft.to/lastmile_qr_scan"}, "fusion_lon": 0.0, "lat": 38.87931283333333, "bike_id": "12771c8cd9fa896055146612f5a109ac", "type": "electric_bike", "is_reserved": 0, "lon": -77.00782116666667}, {"fusion_lat": 0.0, "name": "0558b610337ac8bd09f36dc25ad1b1d7", "is_disabled": 0, "rental_uris": {"android": "https://dc.lft.to/lastmile_qr_scan", "ios": "https://dc.lft.to/lastmile_qr_scan"}, "fusion_lon": 0.0, "lat": 38.88111816666667, "bike_id": "0558b610337ac8bd09f36dc25ad1b1d7", "type": "electric_scooter", "is_reserved": 0, "lon": -76.99858566666667}, {"fusion_lat": 0.0, "name": "f19d79c9015cb8cdcb45b50c0a267c94", "is_disabled": 0, "rental_uris": {"android": "https://dc.lft.to/lastmile_qr_scan", "ios": "https://dc.lft.to/lastmile_qr_scan"}, "fusion_lon": 0.0, "lat": 38.88624266666667, "bike_id": "f19d79c9015cb8cdcb45b50c0a267c94", "type": "electric_scooter", "is_reserved": 0, "lon": -77.01988283333333}, {"fusion_lat": 0.0, "name": "3224127f6f4438aa042a4be5d9a5563f", "is_disabled": 0, "rental_uris": {"android": "https://dc.lft.to/lastmile_qr_scan", "ios": "https://dc.lft.to/lastmile_qr_scan"}, "fusion_lon": 0.0, "lat": 38.936725333333335, "bike_id": "3224127f6f4438aa042a4be5d9a5563f", "type": "electric_scooter", "is_reserved": 0, "lon": -77.035951}, {"fusion_lat": 0.0, "name": "56f02900fc10e55af4e283e14a761856", "is_disabled": 0, "rental_uris": {"android": "https://dc.lft.to/lastmile_qr_scan", "ios": "https://dc.lft.to/lastmile_qr_scan"}, "fusion_lon": 0.0, "lat": 38.862610333333336, "bike_id": "56f02900fc10e55af4e283e14a761856", "type": "electric_bike", "is_reserved": 0, "lon": -76.98359333333333}, {"fusion_lat": 0.0, "name": "b3ae6f2acddfedb78531c9c1e8b915a8", "is_disabled": 0, "rental_uris": {"android": "https://dc.lft.to/lastmile_qr_scan", "ios": "https://dc.lft.to/lastmile_qr_scan"}, "fusion_lon": 0.0, "lat": 38.88721, "bike_id": "b3ae6f2acddfedb78531c9c1e8b915a8", "type": "electric_scooter", "is_reserved": 0, "lon": -77.01332366666666}, {"fusion_lat": 0.0, "name": "d4f00d60732b760d7efda85bef5af7ff", "is_disabled": 0, "rental_uris": {"android": "https://dc.lft.to/lastmile_qr_scan", "ios": "https://dc.lft.to/lastmile_qr_scan"}, "fusion_lon": 0.0, "lat": 38.92143216666667, "bike_id": "d4f00d60732b760d7efda85bef5af7ff", "type": "electric_scooter", "is_reserved": 0, "lon": -77.03182633333333}, {"fusion_lat": 0.0, "name": "2a05020fb8e90ff5c4d9b2f3dcf15594", "is_disabled": 0, "rental_uris": {"android": "https://dc.lft.to/lastmile_qr_scan", "ios": "https://dc.lft.to/lastmile_qr_scan"}, "fusion_lon": 0.0, "lat": 38.953726833333334, "bike_id": "2a05020fb8e90ff5c4d9b2f3dcf15594", "type": "electric_scooter", "is_reserved": 0, "lon": -77.0255895}, {"fusion_lat": 0.0, "name": "6ec63948cd6de462c5d02d74b4b3c608", "is_disabled": 0, "rental_uris": {"android": "https://dc.lft.to/lastmile_qr_scan", "ios": "https://dc.lft.to/lastmile_qr_scan"}, "fusion_lon": 0.0, "lat": 38.9165525, "bike_id": "6ec63948cd6de462c5d02d74b4b3c608", "type": "electric_scooter", "is_reserved": 0, "lon": -77.02806133333333}, {"fusion_lat": 0.0, "name": "89f2f944e49b3f565a50e16dca2270c8", "is_disabled": 0, "rental_uris": {"android": "https://dc.lft.to/lastmile_qr_scan", "ios": "https://dc.lft.to/lastmile_qr_scan"}, "fusion_lon": 0.0, "lat": 38.92289983333333, "bike_id": "89f2f944e49b3f565a50e16dca2270c8", "type": "electric_scooter", "is_reserved": 0, "lon": -76.997795}, {"fusion_lat": 0.0, "name": "9fb23611f6a609bec6c483654817433b", "is_disabled": 0, "rental_uris": {"android": "https://dc.lft.to/lastmile_qr_scan", "ios": "https://dc.lft.to/lastmile_qr_scan"}, "fusion_lon": 0.0, "lat": 38.89825866666666, "bike_id": "9fb23611f6a609bec6c483654817433b", "type": "electric_scooter", "is_reserved": 0, "lon": -76.946539}, {"fusion_lat": 0.0, "name": "965ce8461e43b6bb7aff5bb1b17296e4", "is_disabled": 0, "rental_uris": {"android": "https://dc.lft.to/lastmile_qr_scan", "ios": "https://dc.lft.to/lastmile_qr_scan"}, "fusion_lon": 0.0, "lat": 38.906780833333336, "bike_id": "965ce8461e43b6bb7aff5bb1b17296e4", "type": "electric_scooter", "is_reserved": 0, "lon": -77.04719133333333}, {"fusion_lat": 0.0, "name": "6b19e10790de98f599f9e6848cd07c9d", "is_disabled": 0, "rental_uris": {"android": "https://dc.lft.to/lastmile_qr_scan", "ios": "https://dc.lft.to/lastmile_qr_scan"}, "fusion_lon": 0.0, "lat": 38.8789605, "bike_id": "6b19e10790de98f599f9e6848cd07c9d", "type": "electric_scooter", "is_reserved": 0, "lon": -77.01365166666666}, {"fusion_lat": 0.0, "name": "d0d4d54f11df423039468e000e655242", "is_disabled": 0, "rental_uris": {"android": "https://dc.lft.to/lastmile_qr_scan", "ios": "https://dc.lft.to/lastmile_qr_scan"}, "fusion_lon": 0.0, "lat": 38.90490333333333, "bike_id": "d0d4d54f11df423039468e000e655242", "type": "electric_scooter", "is_reserved": 0, "lon": -77.01026916666666}, {"fusion_lat": 0.0, "name": "fbdadeafb592dc752547d0d344c9e65e", "is_disabled": 0, "rental_uris": {"android": "https://dc.lft.to/lastmile_qr_scan", "ios": "https://dc.lft.to/lastmile_qr_scan"}, "fusion_lon": 0.0, "lat": 38.91768916666667, "bike_id": "fbdadeafb592dc752547d0d344c9e65e", "type": "electric_scooter", "is_reserved": 0, "lon": -77.0149795}, {"fusion_lat": 0.0, "name": "b10b429e65cf54c61ed868df739742c3", "is_disabled": 0, "rental_uris": {"android": "https://dc.lft.to/lastmile_qr_scan", "ios": "https://dc.lft.to/lastmile_qr_scan"}, "fusion_lon": 0.0, "lat": 38.94405183333333, "bike_id": "b10b429e65cf54c61ed868df739742c3", "type": "electric_scooter", "is_reserved": 0, "lon": -77.03209283333334}, {"fusion_lat": 0.0, "name": "1f152a002a25f2bf32a1ba14ee236eee", "is_disabled": 0, "rental_uris": {"android": "https://dc.lft.to/lastmile_qr_scan", "ios": "https://dc.lft.to/lastmile_qr_scan"}, "fusion_lon": 0.0, "lat": 38.929562833333335, "bike_id": "1f152a002a25f2bf32a1ba14ee236eee", "type": "electric_scooter", "is_reserved": 0, "lon": -77.03102966666667}, {"fusion_lat": 0.0, "name": "0e3d79a3336a4447c807efbdadf8e2ba", "is_disabled": 0, "rental_uris": {"android": "https://dc.lft.to/lastmile_qr_scan", "ios": "https://dc.lft.to/lastmile_qr_scan"}, "fusion_lon": 0.0, "lat": 38.91545466666667, "bike_id": "0e3d79a3336a4447c807efbdadf8e2ba", "type": "electric_scooter", "is_reserved": 0, "lon": -77.02204066666667}, {"fusion_lat": 0.0, "name": "cffba6bfd5511bb4dad60cfec1d6d010", "is_disabled": 0, "rental_uris": {"android": "https://dc.lft.to/lastmile_qr_scan", "ios": "https://dc.lft.to/lastmile_qr_scan"}, "fusion_lon": 0.0, "lat": 38.91637516666667, "bike_id": "cffba6bfd5511bb4dad60cfec1d6d010", "type": "electric_scooter", "is_reserved": 0, "lon": -77.04785233333334}, {"fusion_lat": 0.0, "name": "48a833d82f40fa387e613910ae65b883", "is_disabled": 0, "rental_uris": {"android": "https://dc.lft.to/lastmile_qr_scan", "ios": "https://dc.lft.to/lastmile_qr_scan"}, "fusion_lon": 0.0, "lat": 38.87366433333333, "bike_id": "48a833d82f40fa387e613910ae65b883", "type": "electric_scooter", "is_reserved": 0, "lon": -77.00102966666667}, {"fusion_lat": 0.0, "name": "ca0f110e0c65dcc6d811cdcc8b5aa389", "is_disabled": 0, "rental_uris": {"android": "https://dc.lft.to/lastmile_qr_scan", "ios": "https://dc.lft.to/lastmile_qr_scan"}, "fusion_lon": 0.0, "lat": 38.89891133333333, "bike_id": "ca0f110e0c65dcc6d811cdcc8b5aa389", "type": "electric_scooter", "is_reserved": 0, "lon": -77.0329}, {"fusion_lat": 0.0, "name": "6bef7060bfef0aea8d884993ea2d653e", "is_disabled": 0, "rental_uris": {"android": "https://dc.lft.to/lastmile_qr_scan", "ios": "https://dc.lft.to/lastmile_qr_scan"}, "fusion_lon": 0.0, "lat": 38.94450833333333, "bike_id": "6bef7060bfef0aea8d884993ea2d653e", "type": "electric_scooter", "is_reserved": 0, "lon": -77.06148933333333}, {"fusion_lat": 0.0, "name": "a42f213c62db0a8d4fe9aa7ea0431738", "is_disabled": 0, "rental_uris": {"android": "https://dc.lft.to/lastmile_qr_scan", "ios": "https://dc.lft.to/lastmile_qr_scan"}, "fusion_lon": 0.0, "lat": 38.926994666666666, "bike_id": "a42f213c62db0a8d4fe9aa7ea0431738", "type": "electric_scooter", "is_reserved": 0, "lon": -77.02079816666667}, {"fusion_lat": 0.0, "name": "135e35b1d1e94cebc118e4149d61f85f", "is_disabled": 0, "rental_uris": {"android": "https://dc.lft.to/lastmile_qr_scan", "ios": "https://dc.lft.to/lastmile_qr_scan"}, "fusion_lon": 0.0, "lat": 38.916638666666664, "bike_id": "135e35b1d1e94cebc118e4149d61f85f", "type": "electric_scooter", "is_reserved": 0, "lon": -77.02971333333333}, {"fusion_lat": 0.0, "name": "4e486ec43ff2e28d32ff2153277e8bbc", "is_disabled": 0, "rental_uris": {"android": "https://dc.lft.to/lastmile_qr_scan", "ios": "https://dc.lft.to/lastmile_qr_scan"}, "fusion_lon": 0.0, "lat": 38.939753333333336, "bike_id": "4e486ec43ff2e28d32ff2153277e8bbc", "type": "electric_scooter", "is_reserved": 0, "lon": -77.0356445}, {"fusion_lat": 0.0, "name": "8e779ffa055ef7a707663ea4075da750", "is_disabled": 0, "rental_uris": {"android": "https://dc.lft.to/lastmile_qr_scan", "ios": "https://dc.lft.to/lastmile_qr_scan"}, "fusion_lon": 0.0, "lat": 38.884656166666666, "bike_id": "8e779ffa055ef7a707663ea4075da750", "type": "electric_scooter", "is_reserved": 0, "lon": -76.9498115}, {"fusion_lat": 0.0, "name": "d36e1bd32e0ed4410bed638cd2fba48d", "is_disabled": 0, "rental_uris": {"android": "https://dc.lft.to/lastmile_qr_scan", "ios": "https://dc.lft.to/lastmile_qr_scan"}, "fusion_lon": 0.0, "lat": 38.96123983333333, "bike_id": "d36e1bd32e0ed4410bed638cd2fba48d", "type": "electric_bike", "is_reserved": 0, "lon": -77.03272983333333}, {"fusion_lat": 0.0, "name": "ac9df459cf14323e07c9a31f56607039", "is_disabled": 0, "rental_uris": {"android": "https://dc.lft.to/lastmile_qr_scan", "ios": "https://dc.lft.to/lastmile_qr_scan"}, "fusion_lon": 0.0, "lat": 38.876454833333334, "bike_id": "ac9df459cf14323e07c9a31f56607039", "type": "electric_scooter", "is_reserved": 0, "lon": -77.00118616666667}, {"fusion_lat": 0.0, "name": "7216a196581882ba658f830f8e32b365", "is_disabled": 0, "rental_uris": {"android": "https://dc.lft.to/lastmile_qr_scan", "ios": "https://dc.lft.to/lastmile_qr_scan"}, "fusion_lon": 0.0, "lat": 38.88498033333333, "bike_id": "7216a196581882ba658f830f8e32b365", "type": "electric_scooter", "is_reserved": 0, "lon": -76.92953533333333}, {"fusion_lat": 0.0, "name": "85e9fae2f26dd74e97386920d9dc8001", "is_disabled": 0, "rental_uris": {"android": "https://dc.lft.to/lastmile_qr_scan", "ios": "https://dc.lft.to/lastmile_qr_scan"}, "fusion_lon": 0.0, "lat": 38.8786505, "bike_id": "85e9fae2f26dd74e97386920d9dc8001", "type": "electric_scooter", "is_reserved": 0, "lon": -77.0058895}, {"fusion_lat": 0.0, "name": "84c346a0ad4c80b2eb1a15df81ce5d79", "is_disabled": 0, "rental_uris": {"android": "https://dc.lft.to/lastmile_qr_scan", "ios": "https://dc.lft.to/lastmile_qr_scan"}, "fusion_lon": 0.0, "lat": 38.90852566666667, "bike_id": "84c346a0ad4c80b2eb1a15df81ce5d79", "type": "electric_scooter", "is_reserved": 0, "lon": -77.04539833333334}, {"fusion_lat": 0.0, "name": "7d2cd37946eee803e6dd555007737ef9", "is_disabled": 0, "rental_uris": {"android": "https://dc.lft.to/lastmile_qr_scan", "ios": "https://dc.lft.to/lastmile_qr_scan"}, "fusion_lon": 0.0, "lat": 38.9253575, "bike_id": "7d2cd37946eee803e6dd555007737ef9", "type": "electric_scooter", "is_reserved": 0, "lon": -77.0348235}, {"fusion_lat": 0.0, "name": "0d95fbb2c6bef5fc60bc611f487a7ae7", "is_disabled": 0, "rental_uris": {"android": "https://dc.lft.to/lastmile_qr_scan", "ios": "https://dc.lft.to/lastmile_qr_scan"}, "fusion_lon": 0.0, "lat": 38.89737383333333, "bike_id": "0d95fbb2c6bef5fc60bc611f487a7ae7", "type": "electric_scooter", "is_reserved": 0, "lon": -77.0338255}, {"fusion_lat": 0.0, "name": "a90308de568a259f877ab487d3d00acd", "is_disabled": 0, "rental_uris": {"android": "https://dc.lft.to/lastmile_qr_scan", "ios": "https://dc.lft.to/lastmile_qr_scan"}, "fusion_lon": 0.0, "lat": 38.896117, "bike_id": "a90308de568a259f877ab487d3d00acd", "type": "electric_scooter", "is_reserved": 0, "lon": -76.9481435}, {"fusion_lat": 0.0, "name": "c6717043d10e925afcf30834b0f037d7", "is_disabled": 0, "rental_uris": {"android": "https://dc.lft.to/lastmile_qr_scan", "ios": "https://dc.lft.to/lastmile_qr_scan"}, "fusion_lon": 0.0, "lat": 38.91193916666667, "bike_id": "c6717043d10e925afcf30834b0f037d7", "type": "electric_scooter", "is_reserved": 0, "lon": -77.04244566666667}, {"fusion_lat": 0.0, "name": "ae0647e43606b935e621d524b41f6afc", "is_disabled": 0, "rental_uris": {"android": "https://dc.lft.to/lastmile_qr_scan", "ios": "https://dc.lft.to/lastmile_qr_scan"}, "fusion_lon": 0.0, "lat": 38.923008, "bike_id": "ae0647e43606b935e621d524b41f6afc", "type": "electric_scooter", "is_reserved": 0, "lon": -77.04119016666667}, {"fusion_lat": 0.0, "name": "aba8ad39f562f398cccfabc83977ca68", "is_disabled": 0, "rental_uris": {"android": "https://dc.lft.to/lastmile_qr_scan", "ios": "https://dc.lft.to/lastmile_qr_scan"}, "fusion_lon": 0.0, "lat": 38.96157083333333, "bike_id": "aba8ad39f562f398cccfabc83977ca68", "type": "electric_scooter", "is_reserved": 0, "lon": -77.073577}, {"fusion_lat": 0.0, "name": "b671066325d5cc048fc2be3e441af499", "is_disabled": 0, "rental_uris": {"android": "https://dc.lft.to/lastmile_qr_scan", "ios": "https://dc.lft.to/lastmile_qr_scan"}, "fusion_lon": 0.0, "lat": 38.90411483333333, "bike_id": "b671066325d5cc048fc2be3e441af499", "type": "electric_scooter", "is_reserved": 0, "lon": -77.001185}, {"fusion_lat": 0.0, "name": "63f6fc4f2d622885b473a4958fec3077", "is_disabled": 0, "rental_uris": {"android": "https://dc.lft.to/lastmile_qr_scan", "ios": "https://dc.lft.to/lastmile_qr_scan"}, "fusion_lon": 0.0, "lat": 38.907065333333335, "bike_id": "63f6fc4f2d622885b473a4958fec3077", "type": "electric_scooter", "is_reserved": 0, "lon": -77.03200616666666}, {"fusion_lat": 0.0, "name": "8488c1f86d2c69c138d1c91fcdf9b828", "is_disabled": 0, "rental_uris": {"android": "https://dc.lft.to/lastmile_qr_scan", "ios": "https://dc.lft.to/lastmile_qr_scan"}, "fusion_lon": 0.0, "lat": 38.887603, "bike_id": "8488c1f86d2c69c138d1c91fcdf9b828", "type": "electric_scooter", "is_reserved": 0, "lon": -76.97752216666666}, {"fusion_lat": 0.0, "name": "0cdecff1b3fc73c52d5c3c7995f2f35c", "is_disabled": 0, "rental_uris": {"android": "https://dc.lft.to/lastmile_qr_scan", "ios": "https://dc.lft.to/lastmile_qr_scan"}, "fusion_lon": 0.0, "lat": 38.916934499999996, "bike_id": "0cdecff1b3fc73c52d5c3c7995f2f35c", "type": "electric_scooter", "is_reserved": 0, "lon": -77.04220833333333}, {"fusion_lat": 0.0, "name": "d03a30ea3061bdf58520f9d5843c9b89", "is_disabled": 0, "rental_uris": {"android": "https://dc.lft.to/lastmile_qr_scan", "ios": "https://dc.lft.to/lastmile_qr_scan"}, "fusion_lon": 0.0, "lat": 38.90947466666667, "bike_id": "d03a30ea3061bdf58520f9d5843c9b89", "type": "electric_scooter", "is_reserved": 0, "lon": -76.98537483333334}, {"fusion_lat": 0.0, "name": "756d89c907488e7ae5d4633d14349bb9", "is_disabled": 0, "rental_uris": {"android": "https://dc.lft.to/lastmile_qr_scan", "ios": "https://dc.lft.to/lastmile_qr_scan"}, "fusion_lon": 0.0, "lat": 38.90015833333333, "bike_id": "756d89c907488e7ae5d4633d14349bb9", "type": "electric_scooter", "is_reserved": 0, "lon": -77.00666583333333}, {"fusion_lat": 0.0, "name": "ea1f4e2fad52d13c3149c163e77ed7ec", "is_disabled": 0, "rental_uris": {"android": "https://dc.lft.to/lastmile_qr_scan", "ios": "https://dc.lft.to/lastmile_qr_scan"}, "fusion_lon": 0.0, "lat": 38.92126666666667, "bike_id": "ea1f4e2fad52d13c3149c163e77ed7ec", "type": "electric_bike", "is_reserved": 0, "lon": -77.01075}, {"fusion_lat": 0.0, "name": "9654096fec01a42308e07a1e48ce69f8", "is_disabled": 0, "rental_uris": {"android": "https://dc.lft.to/lastmile_qr_scan", "ios": "https://dc.lft.to/lastmile_qr_scan"}, "fusion_lon": 0.0, "lat": 38.912606333333336, "bike_id": "9654096fec01a42308e07a1e48ce69f8", "type": "electric_scooter", "is_reserved": 0, "lon": -77.048431}, {"fusion_lat": 0.0, "name": "079921c416e082744a920bbb51cea268", "is_disabled": 0, "rental_uris": {"android": "https://dc.lft.to/lastmile_qr_scan", "ios": "https://dc.lft.to/lastmile_qr_scan"}, "fusion_lon": 0.0, "lat": 38.89741883333333, "bike_id": "079921c416e082744a920bbb51cea268", "type": "electric_scooter", "is_reserved": 0, "lon": -77.04617683333333}, {"fusion_lat": 0.0, "name": "0594987a9fa7103f935bd354adbc28b0", "is_disabled": 0, "rental_uris": {"android": "https://dc.lft.to/lastmile_qr_scan", "ios": "https://dc.lft.to/lastmile_qr_scan"}, "fusion_lon": 0.0, "lat": 38.82460283333333, "bike_id": "0594987a9fa7103f935bd354adbc28b0", "type": "electric_bike", "is_reserved": 0, "lon": -77.00793483333334}, {"fusion_lat": 0.0, "name": "e2906c0af55e57998a3f9d5f115c53c2", "is_disabled": 0, "rental_uris": {"android": "https://dc.lft.to/lastmile_qr_scan", "ios": "https://dc.lft.to/lastmile_qr_scan"}, "fusion_lon": 0.0, "lat": 38.91357816666667, "bike_id": "e2906c0af55e57998a3f9d5f115c53c2", "type": "electric_scooter", "is_reserved": 0, "lon": -77.045739}, {"fusion_lat": 0.0, "name": "cc52bc254f8d4f38a9283ad6c36e6773", "is_disabled": 0, "rental_uris": {"android": "https://dc.lft.to/lastmile_qr_scan", "ios": "https://dc.lft.to/lastmile_qr_scan"}, "fusion_lon": 0.0, "lat": 38.89360766666667, "bike_id": "cc52bc254f8d4f38a9283ad6c36e6773", "type": "electric_scooter", "is_reserved": 0, "lon": -76.92597383333333}, {"fusion_lat": 0.0, "name": "3c4d250256fad3662349ab63b8c67651", "is_disabled": 0, "rental_uris": {"android": "https://dc.lft.to/lastmile_qr_scan", "ios": "https://dc.lft.to/lastmile_qr_scan"}, "fusion_lon": 0.0, "lat": 38.876817833333334, "bike_id": "3c4d250256fad3662349ab63b8c67651", "type": "electric_scooter", "is_reserved": 0, "lon": -77.00758033333334}, {"fusion_lat": 0.0, "name": "424179cf2c57c4aa21f1296915148d03", "is_disabled": 0, "rental_uris": {"android": "https://dc.lft.to/lastmile_qr_scan", "ios": "https://dc.lft.to/lastmile_qr_scan"}, "fusion_lon": 0.0, "lat": 38.908585, "bike_id": "424179cf2c57c4aa21f1296915148d03", "type": "electric_scooter", "is_reserved": 0, "lon": -77.08593966666666}, {"fusion_lat": 0.0, "name": "47b32fe1899c30db8c877cfe479d215f", "is_disabled": 0, "rental_uris": {"android": "https://dc.lft.to/lastmile_qr_scan", "ios": "https://dc.lft.to/lastmile_qr_scan"}, "fusion_lon": 0.0, "lat": 38.91292116666666, "bike_id": "47b32fe1899c30db8c877cfe479d215f", "type": "electric_scooter", "is_reserved": 0, "lon": -76.98476316666667}, {"fusion_lat": 0.0, "name": "3b6034f08cb9fbf8e4f2252afb7bd574", "is_disabled": 0, "rental_uris": {"android": "https://dc.lft.to/lastmile_qr_scan", "ios": "https://dc.lft.to/lastmile_qr_scan"}, "fusion_lon": 0.0, "lat": 38.85868166666667, "bike_id": "3b6034f08cb9fbf8e4f2252afb7bd574", "type": "electric_bike", "is_reserved": 0, "lon": -77.09561883333333}, {"fusion_lat": 0.0, "name": "9cb243170dcb2a92075370e98bdd736d", "is_disabled": 0, "rental_uris": {"android": "https://dc.lft.to/lastmile_qr_scan", "ios": "https://dc.lft.to/lastmile_qr_scan"}, "fusion_lon": 0.0, "lat": 38.91978616666667, "bike_id": "9cb243170dcb2a92075370e98bdd736d", "type": "electric_scooter", "is_reserved": 0, "lon": -77.02384483333333}, {"fusion_lat": 0.0, "name": "b649367f611f3635eb9d392135a43076", "is_disabled": 0, "rental_uris": {"android": "https://dc.lft.to/lastmile_qr_scan", "ios": "https://dc.lft.to/lastmile_qr_scan"}, "fusion_lon": 0.0, "lat": 38.90086133333333, "bike_id": "b649367f611f3635eb9d392135a43076", "type": "electric_scooter", "is_reserved": 0, "lon": -77.0583115}, {"fusion_lat": 0.0, "name": "dae85ea7c899fb4dd6a4073e10cf91ac", "is_disabled": 0, "rental_uris": {"android": "https://dc.lft.to/lastmile_qr_scan", "ios": "https://dc.lft.to/lastmile_qr_scan"}, "fusion_lon": 0.0, "lat": 38.86627283333333, "bike_id": "dae85ea7c899fb4dd6a4073e10cf91ac", "type": "electric_scooter", "is_reserved": 0, "lon": -76.987158}, {"fusion_lat": 0.0, "name": "502b74b3816fe44f97ebe69b0eac4562", "is_disabled": 0, "rental_uris": {"android": "https://dc.lft.to/lastmile_qr_scan", "ios": "https://dc.lft.to/lastmile_qr_scan"}, "fusion_lon": 0.0, "lat": 38.892227166666665, "bike_id": "502b74b3816fe44f97ebe69b0eac4562", "type": "electric_scooter", "is_reserved": 0, "lon": -77.04690466666666}, {"fusion_lat": 0.0, "name": "c6cba58dcd360a161051b4127af02914", "is_disabled": 0, "rental_uris": {"android": "https://dc.lft.to/lastmile_qr_scan", "ios": "https://dc.lft.to/lastmile_qr_scan"}, "fusion_lon": 0.0, "lat": 38.9444955, "bike_id": "c6cba58dcd360a161051b4127af02914", "type": "electric_scooter", "is_reserved": 0, "lon": -77.02342033333333}, {"fusion_lat": 0.0, "name": "82adcb2b72c33838ed044deeb563d96f", "is_disabled": 0, "rental_uris": {"android": "https://dc.lft.to/lastmile_qr_scan", "ios": "https://dc.lft.to/lastmile_qr_scan"}, "fusion_lon": 0.0, "lat": 38.931325, "bike_id": "82adcb2b72c33838ed044deeb563d96f", "type": "electric_scooter", "is_reserved": 0, "lon": -77.07844616666667}, {"fusion_lat": 0.0, "name": "1758df541ae8670e388618b50a056a05", "is_disabled": 0, "rental_uris": {"android": "https://dc.lft.to/lastmile_qr_scan", "ios": "https://dc.lft.to/lastmile_qr_scan"}, "fusion_lon": 0.0, "lat": 38.895055, "bike_id": "1758df541ae8670e388618b50a056a05", "type": "electric_scooter", "is_reserved": 0, "lon": -77.02689466666666}, {"fusion_lat": 0.0, "name": "144c40a0d4ac7f600a9a3a36bd863902", "is_disabled": 0, "rental_uris": {"android": "https://dc.lft.to/lastmile_qr_scan", "ios": "https://dc.lft.to/lastmile_qr_scan"}, "fusion_lon": 0.0, "lat": 38.883405833333335, "bike_id": "144c40a0d4ac7f600a9a3a36bd863902", "type": "electric_scooter", "is_reserved": 0, "lon": -77.0136725}, {"fusion_lat": 0.0, "name": "351a5877464bb9ae0699ad313d44e6ff", "is_disabled": 0, "rental_uris": {"android": "https://dc.lft.to/lastmile_qr_scan", "ios": "https://dc.lft.to/lastmile_qr_scan"}, "fusion_lon": 0.0, "lat": 38.935315, "bike_id": "351a5877464bb9ae0699ad313d44e6ff", "type": "electric_scooter", "is_reserved": 0, "lon": -77.0451845}, {"fusion_lat": 0.0, "name": "83ea29cc1367965a2581ad0cba25c44b", "is_disabled": 0, "rental_uris": {"android": "https://dc.lft.to/lastmile_qr_scan", "ios": "https://dc.lft.to/lastmile_qr_scan"}, "fusion_lon": 0.0, "lat": 38.974932, "bike_id": "83ea29cc1367965a2581ad0cba25c44b", "type": "electric_scooter", "is_reserved": 0, "lon": -77.0169125}, {"fusion_lat": 0.0, "name": "645e0c5784a70ad6cac939c0d365a7d7", "is_disabled": 0, "rental_uris": {"android": "https://dc.lft.to/lastmile_qr_scan", "ios": "https://dc.lft.to/lastmile_qr_scan"}, "fusion_lon": 0.0, "lat": 38.90349283333333, "bike_id": "645e0c5784a70ad6cac939c0d365a7d7", "type": "electric_scooter", "is_reserved": 0, "lon": -76.97477516666666}, {"fusion_lat": 0.0, "name": "db0d58630818c60c245d115f6314f600", "is_disabled": 0, "rental_uris": {"android": "https://dc.lft.to/lastmile_qr_scan", "ios": "https://dc.lft.to/lastmile_qr_scan"}, "fusion_lon": 0.0, "lat": 38.90869766666667, "bike_id": "db0d58630818c60c245d115f6314f600", "type": "electric_scooter", "is_reserved": 0, "lon": -77.05424933333333}, {"fusion_lat": 0.0, "name": "9cdcb7238cb7ba8afd282caf2fe1851a", "is_disabled": 0, "rental_uris": {"android": "https://dc.lft.to/lastmile_qr_scan", "ios": "https://dc.lft.to/lastmile_qr_scan"}, "fusion_lon": 0.0, "lat": 38.9186075, "bike_id": "9cdcb7238cb7ba8afd282caf2fe1851a", "type": "electric_scooter", "is_reserved": 0, "lon": -77.0349065}, {"fusion_lat": 0.0, "name": "30acfb04b55e316bea919b891a6330fc", "is_disabled": 0, "rental_uris": {"android": "https://dc.lft.to/lastmile_qr_scan", "ios": "https://dc.lft.to/lastmile_qr_scan"}, "fusion_lon": 0.0, "lat": 38.9097475, "bike_id": "30acfb04b55e316bea919b891a6330fc", "type": "electric_scooter", "is_reserved": 0, "lon": -77.0487405}, {"fusion_lat": 0.0, "name": "81b6ef53880272d97354c5f2cb9f05f0", "is_disabled": 0, "rental_uris": {"android": "https://dc.lft.to/lastmile_qr_scan", "ios": "https://dc.lft.to/lastmile_qr_scan"}, "fusion_lon": 0.0, "lat": 38.946206333333336, "bike_id": "81b6ef53880272d97354c5f2cb9f05f0", "type": "electric_scooter", "is_reserved": 0, "lon": -77.03279183333333}, {"fusion_lat": 0.0, "name": "cc35c3daa3b8c7e94e6279d2114bfb03", "is_disabled": 0, "rental_uris": {"android": "https://dc.lft.to/lastmile_qr_scan", "ios": "https://dc.lft.to/lastmile_qr_scan"}, "fusion_lon": 0.0, "lat": 38.949102833333335, "bike_id": "cc35c3daa3b8c7e94e6279d2114bfb03", "type": "electric_bike", "is_reserved": 0, "lon": -77.03806733333333}, {"fusion_lat": 0.0, "name": "85bf2960c43e449b1abb07c5aa1787c6", "is_disabled": 0, "rental_uris": {"android": "https://dc.lft.to/lastmile_qr_scan", "ios": "https://dc.lft.to/lastmile_qr_scan"}, "fusion_lon": 0.0, "lat": 38.92049166666666, "bike_id": "85bf2960c43e449b1abb07c5aa1787c6", "type": "electric_scooter", "is_reserved": 0, "lon": -77.0020735}, {"fusion_lat": 0.0, "name": "5693dc68447b5901c8b3859f62f6ad24", "is_disabled": 0, "rental_uris": {"android": "https://dc.lft.to/lastmile_qr_scan", "ios": "https://dc.lft.to/lastmile_qr_scan"}, "fusion_lon": 0.0, "lat": 38.88869783333333, "bike_id": "5693dc68447b5901c8b3859f62f6ad24", "type": "electric_scooter", "is_reserved": 0, "lon": -76.98459016666666}, {"fusion_lat": 0.0, "name": "8da931b4e8507981391ab66ac338ef7f", "is_disabled": 0, "rental_uris": {"android": "https://dc.lft.to/lastmile_qr_scan", "ios": "https://dc.lft.to/lastmile_qr_scan"}, "fusion_lon": 0.0, "lat": 38.88746033333334, "bike_id": "8da931b4e8507981391ab66ac338ef7f", "type": "electric_scooter", "is_reserved": 0, "lon": -77.0236465}, {"fusion_lat": 0.0, "name": "2d5f072a9f1e72fe9196ef9dd4de6c2d", "is_disabled": 0, "rental_uris": {"android": "https://dc.lft.to/lastmile_qr_scan", "ios": "https://dc.lft.to/lastmile_qr_scan"}, "fusion_lon": 0.0, "lat": 38.896302666666664, "bike_id": "2d5f072a9f1e72fe9196ef9dd4de6c2d", "type": "electric_scooter", "is_reserved": 0, "lon": -77.0114755}, {"fusion_lat": 0.0, "name": "f7b517740b06f527622d806a43880e6c", "is_disabled": 0, "rental_uris": {"android": "https://dc.lft.to/lastmile_qr_scan", "ios": "https://dc.lft.to/lastmile_qr_scan"}, "fusion_lon": 0.0, "lat": 38.855105333333334, "bike_id": "f7b517740b06f527622d806a43880e6c", "type": "electric_bike", "is_reserved": 0, "lon": -77.10539216666666}, {"fusion_lat": 0.0, "name": "b2e36c5de16b302d7054976c368aa9f2", "is_disabled": 0, "rental_uris": {"android": "https://dc.lft.to/lastmile_qr_scan", "ios": "https://dc.lft.to/lastmile_qr_scan"}, "fusion_lon": 0.0, "lat": 38.9264145, "bike_id": "b2e36c5de16b302d7054976c368aa9f2", "type": "electric_scooter", "is_reserved": 0, "lon": -77.03401716666667}, {"fusion_lat": 0.0, "name": "198d3b803f12c4ac664f724ca1491563", "is_disabled": 0, "rental_uris": {"android": "https://dc.lft.to/lastmile_qr_scan", "ios": "https://dc.lft.to/lastmile_qr_scan"}, "fusion_lon": 0.0, "lat": 38.90655016666667, "bike_id": "198d3b803f12c4ac664f724ca1491563", "type": "electric_scooter", "is_reserved": 0, "lon": -77.03510833333333}, {"fusion_lat": 0.0, "name": "3e6d54f6c45775ccdee1dca4ef862bf7", "is_disabled": 0, "rental_uris": {"android": "https://dc.lft.to/lastmile_qr_scan", "ios": "https://dc.lft.to/lastmile_qr_scan"}, "fusion_lon": 0.0, "lat": 38.901938333333334, "bike_id": "3e6d54f6c45775ccdee1dca4ef862bf7", "type": "electric_scooter", "is_reserved": 0, "lon": -76.92895883333334}, {"fusion_lat": 0.0, "name": "c6a5d6d087d69fb99f01e2c9456bb3ce", "is_disabled": 0, "rental_uris": {"android": "https://dc.lft.to/lastmile_qr_scan", "ios": "https://dc.lft.to/lastmile_qr_scan"}, "fusion_lon": 0.0, "lat": 38.886329333333336, "bike_id": "c6a5d6d087d69fb99f01e2c9456bb3ce", "type": "electric_scooter", "is_reserved": 0, "lon": -76.92593466666666}, {"fusion_lat": 0.0, "name": "2853adb7018895ae0b5b535694302cd8", "is_disabled": 0, "rental_uris": {"android": "https://dc.lft.to/lastmile_qr_scan", "ios": "https://dc.lft.to/lastmile_qr_scan"}, "fusion_lon": 0.0, "lat": 38.919681833333335, "bike_id": "2853adb7018895ae0b5b535694302cd8", "type": "electric_scooter", "is_reserved": 0, "lon": -77.00113283333333}, {"fusion_lat": 0.0, "name": "b2d041db5aa4f88902fd30772c62843c", "is_disabled": 0, "rental_uris": {"android": "https://dc.lft.to/lastmile_qr_scan", "ios": "https://dc.lft.to/lastmile_qr_scan"}, "fusion_lon": 0.0, "lat": 38.9282795, "bike_id": "b2d041db5aa4f88902fd30772c62843c", "type": "electric_scooter", "is_reserved": 0, "lon": -77.05441283333333}, {"fusion_lat": 0.0, "name": "de5703d866efb16ad95a8d309e1b88e1", "is_disabled": 0, "rental_uris": {"android": "https://dc.lft.to/lastmile_qr_scan", "ios": "https://dc.lft.to/lastmile_qr_scan"}, "fusion_lon": 0.0, "lat": 38.883457666666665, "bike_id": "de5703d866efb16ad95a8d309e1b88e1", "type": "electric_scooter", "is_reserved": 0, "lon": -76.995037}, {"fusion_lat": 0.0, "name": "0fd4f458c17d36abc4cefd046a03c9e5", "is_disabled": 0, "rental_uris": {"android": "https://dc.lft.to/lastmile_qr_scan", "ios": "https://dc.lft.to/lastmile_qr_scan"}, "fusion_lon": 0.0, "lat": 38.905669833333334, "bike_id": "0fd4f458c17d36abc4cefd046a03c9e5", "type": "electric_scooter", "is_reserved": 0, "lon": -77.03052783333334}, {"fusion_lat": 0.0, "name": "d024184a1a98eaaf0f7dfd5673a3f0ef", "is_disabled": 0, "rental_uris": {"android": "https://dc.lft.to/lastmile_qr_scan", "ios": "https://dc.lft.to/lastmile_qr_scan"}, "fusion_lon": 0.0, "lat": 38.903120333333334, "bike_id": "d024184a1a98eaaf0f7dfd5673a3f0ef", "type": "electric_scooter", "is_reserved": 0, "lon": -76.978003}, {"fusion_lat": 0.0, "name": "bc5b6621b87daf87066d3cd0c3d1cf41", "is_disabled": 0, "rental_uris": {"android": "https://dc.lft.to/lastmile_qr_scan", "ios": "https://dc.lft.to/lastmile_qr_scan"}, "fusion_lon": 0.0, "lat": 38.925877666666665, "bike_id": "bc5b6621b87daf87066d3cd0c3d1cf41", "type": "electric_scooter", "is_reserved": 0, "lon": -77.03771033333334}, {"fusion_lat": 0.0, "name": "5ee05307159fede710be3294d39402cf", "is_disabled": 0, "rental_uris": {"android": "https://dc.lft.to/lastmile_qr_scan", "ios": "https://dc.lft.to/lastmile_qr_scan"}, "fusion_lon": 0.0, "lat": 38.8947975, "bike_id": "5ee05307159fede710be3294d39402cf", "type": "electric_scooter", "is_reserved": 0, "lon": -77.02681583333333}, {"fusion_lat": 0.0, "name": "24cb30641062be7c55f3b086fc5fd7ef", "is_disabled": 0, "rental_uris": {"android": "https://dc.lft.to/lastmile_qr_scan", "ios": "https://dc.lft.to/lastmile_qr_scan"}, "fusion_lon": 0.0, "lat": 38.89692, "bike_id": "24cb30641062be7c55f3b086fc5fd7ef", "type": "electric_scooter", "is_reserved": 0, "lon": -77.05139616666666}, {"fusion_lat": 0.0, "name": "03c28572cd146a2175bd0de11ab9951b", "is_disabled": 0, "rental_uris": {"android": "https://dc.lft.to/lastmile_qr_scan", "ios": "https://dc.lft.to/lastmile_qr_scan"}, "fusion_lon": 0.0, "lat": 39.034250666666665, "bike_id": "03c28572cd146a2175bd0de11ab9951b", "type": "electric_bike", "is_reserved": 0, "lon": -77.04297}, {"fusion_lat": 0.0, "name": "6b0cfd98905f6c7501b84755d9b624f3", "is_disabled": 0, "rental_uris": {"android": "https://dc.lft.to/lastmile_qr_scan", "ios": "https://dc.lft.to/lastmile_qr_scan"}, "fusion_lon": 0.0, "lat": 38.972536166666664, "bike_id": "6b0cfd98905f6c7501b84755d9b624f3", "type": "electric_bike", "is_reserved": 0, "lon": -76.99279483333333}, {"fusion_lat": 0.0, "name": "08a0f9e32fd18e6c723e668e600c8a7f", "is_disabled": 0, "rental_uris": {"android": "https://dc.lft.to/lastmile_qr_scan", "ios": "https://dc.lft.to/lastmile_qr_scan"}, "fusion_lon": 0.0, "lat": 38.923187, "bike_id": "08a0f9e32fd18e6c723e668e600c8a7f", "type": "electric_scooter", "is_reserved": 0, "lon": -77.0297055}, {"fusion_lat": 0.0, "name": "4f963c23e847bf201041cb2838e47301", "is_disabled": 0, "rental_uris": {"android": "https://dc.lft.to/lastmile_qr_scan", "ios": "https://dc.lft.to/lastmile_qr_scan"}, "fusion_lon": 0.0, "lat": 38.9069395, "bike_id": "4f963c23e847bf201041cb2838e47301", "type": "electric_scooter", "is_reserved": 0, "lon": -77.06531133333333}, {"fusion_lat": 0.0, "name": "10a68950e7bc66b68f12c9e3ec38c7e1", "is_disabled": 0, "rental_uris": {"android": "https://dc.lft.to/lastmile_qr_scan", "ios": "https://dc.lft.to/lastmile_qr_scan"}, "fusion_lon": 0.0, "lat": 38.9244915, "bike_id": "10a68950e7bc66b68f12c9e3ec38c7e1", "type": "electric_scooter", "is_reserved": 0, "lon": -77.008772}, {"fusion_lat": 0.0, "name": "2835a1b79ee898ed077ea492daea26f4", "is_disabled": 0, "rental_uris": {"android": "https://dc.lft.to/lastmile_qr_scan", "ios": "https://dc.lft.to/lastmile_qr_scan"}, "fusion_lon": 0.0, "lat": 38.883363833333334, "bike_id": "2835a1b79ee898ed077ea492daea26f4", "type": "electric_scooter", "is_reserved": 0, "lon": -77.01368183333334}, {"fusion_lat": 0.0, "name": "5f04fdd7ab8738ed8d4501f50a0f5ca6", "is_disabled": 0, "rental_uris": {"android": "https://dc.lft.to/lastmile_qr_scan", "ios": "https://dc.lft.to/lastmile_qr_scan"}, "fusion_lon": 0.0, "lat": 38.969900333333335, "bike_id": "5f04fdd7ab8738ed8d4501f50a0f5ca6", "type": "electric_scooter", "is_reserved": 0, "lon": -77.01161866666666}, {"fusion_lat": 0.0, "name": "0fca8b7eea11106154e8518b11f646e1", "is_disabled": 0, "rental_uris": {"android": "https://dc.lft.to/lastmile_qr_scan", "ios": "https://dc.lft.to/lastmile_qr_scan"}, "fusion_lon": 0.0, "lat": 38.9110525, "bike_id": "0fca8b7eea11106154e8518b11f646e1", "type": "electric_scooter", "is_reserved": 0, "lon": -77.02912133333334}, {"fusion_lat": 0.0, "name": "696d42fcd1606797202e49b56a391701", "is_disabled": 0, "rental_uris": {"android": "https://dc.lft.to/lastmile_qr_scan", "ios": "https://dc.lft.to/lastmile_qr_scan"}, "fusion_lon": 0.0, "lat": 38.93064116666667, "bike_id": "696d42fcd1606797202e49b56a391701", "type": "electric_scooter", "is_reserved": 0, "lon": -77.0405755}, {"fusion_lat": 0.0, "name": "d425a4ad379d2e53f5dfb16e08c01ed8", "is_disabled": 0, "rental_uris": {"android": "https://dc.lft.to/lastmile_qr_scan", "ios": "https://dc.lft.to/lastmile_qr_scan"}, "fusion_lon": 0.0, "lat": 38.91816516666667, "bike_id": "d425a4ad379d2e53f5dfb16e08c01ed8", "type": "electric_scooter", "is_reserved": 0, "lon": -77.012084}, {"fusion_lat": 0.0, "name": "f4f0adbb52efd9d83b8d9964c6bc4ffe", "is_disabled": 0, "rental_uris": {"android": "https://dc.lft.to/lastmile_qr_scan", "ios": "https://dc.lft.to/lastmile_qr_scan"}, "fusion_lon": 0.0, "lat": 38.909077333333336, "bike_id": "f4f0adbb52efd9d83b8d9964c6bc4ffe", "type": "electric_scooter", "is_reserved": 0, "lon": -77.07283116666666}, {"fusion_lat": 0.0, "name": "851f5d77bdbfa578c458108e448d3214", "is_disabled": 0, "rental_uris": {"android": "https://dc.lft.to/lastmile_qr_scan", "ios": "https://dc.lft.to/lastmile_qr_scan"}, "fusion_lon": 0.0, "lat": 38.908421833333335, "bike_id": "851f5d77bdbfa578c458108e448d3214", "type": "electric_scooter", "is_reserved": 0, "lon": -77.04362366666666}, {"fusion_lat": 0.0, "name": "7af754a361cd475c31363da7c2233fc1", "is_disabled": 0, "rental_uris": {"android": "https://dc.lft.to/lastmile_qr_scan", "ios": "https://dc.lft.to/lastmile_qr_scan"}, "fusion_lon": 0.0, "lat": 38.897293, "bike_id": "7af754a361cd475c31363da7c2233fc1", "type": "electric_scooter", "is_reserved": 0, "lon": -77.00372683333333}, {"fusion_lat": 0.0, "name": "77df9334688a326df988f0aee2f92b5a", "is_disabled": 0, "rental_uris": {"android": "https://dc.lft.to/lastmile_qr_scan", "ios": "https://dc.lft.to/lastmile_qr_scan"}, "fusion_lon": 0.0, "lat": 38.919079333333336, "bike_id": "77df9334688a326df988f0aee2f92b5a", "type": "electric_scooter", "is_reserved": 0, "lon": -77.00215433333334}, {"fusion_lat": 0.0, "name": "7ab55a81e73a06f6d4f5670d23e06f7c", "is_disabled": 0, "rental_uris": {"android": "https://dc.lft.to/lastmile_qr_scan", "ios": "https://dc.lft.to/lastmile_qr_scan"}, "fusion_lon": 0.0, "lat": 38.89690433333333, "bike_id": "7ab55a81e73a06f6d4f5670d23e06f7c", "type": "electric_scooter", "is_reserved": 0, "lon": -77.0433835}, {"fusion_lat": 0.0, "name": "4f565a610eb0c9e95f6c259d64f66d45", "is_disabled": 0, "rental_uris": {"android": "https://dc.lft.to/lastmile_qr_scan", "ios": "https://dc.lft.to/lastmile_qr_scan"}, "fusion_lon": 0.0, "lat": 38.8910365, "bike_id": "4f565a610eb0c9e95f6c259d64f66d45", "type": "electric_scooter", "is_reserved": 0, "lon": -76.94385216666667}, {"fusion_lat": 0.0, "name": "9f6cc71288a91edd779f5bce161eca1a", "is_disabled": 0, "rental_uris": {"android": "https://dc.lft.to/lastmile_qr_scan", "ios": "https://dc.lft.to/lastmile_qr_scan"}, "fusion_lon": 0.0, "lat": 38.90693983333333, "bike_id": "9f6cc71288a91edd779f5bce161eca1a", "type": "electric_scooter", "is_reserved": 0, "lon": -77.02712983333333}, {"fusion_lat": 0.0, "name": "2b9ccb36261840c8cae0d54c46d83e7d", "is_disabled": 0, "rental_uris": {"android": "https://dc.lft.to/lastmile_qr_scan", "ios": "https://dc.lft.to/lastmile_qr_scan"}, "fusion_lon": 0.0, "lat": 38.91122716666667, "bike_id": "2b9ccb36261840c8cae0d54c46d83e7d", "type": "electric_scooter", "is_reserved": 0, "lon": -77.0208955}, {"fusion_lat": 0.0, "name": "69907b9733d939fa3b69c6e49863536d", "is_disabled": 0, "rental_uris": {"android": "https://dc.lft.to/lastmile_qr_scan", "ios": "https://dc.lft.to/lastmile_qr_scan"}, "fusion_lon": 0.0, "lat": 38.89735483333333, "bike_id": "69907b9733d939fa3b69c6e49863536d", "type": "electric_bike", "is_reserved": 0, "lon": -76.92046816666667}, {"fusion_lat": 0.0, "name": "c7c1258c0140db153f883409881fed0c", "is_disabled": 0, "rental_uris": {"android": "https://dc.lft.to/lastmile_qr_scan", "ios": "https://dc.lft.to/lastmile_qr_scan"}, "fusion_lon": 0.0, "lat": 38.88121533333333, "bike_id": "c7c1258c0140db153f883409881fed0c", "type": "electric_bike", "is_reserved": 0, "lon": -77.01632433333333}, {"fusion_lat": 0.0, "name": "73f5ef5eaee9efbad13c9b71d87dc7d9", "is_disabled": 0, "rental_uris": {"android": "https://dc.lft.to/lastmile_qr_scan", "ios": "https://dc.lft.to/lastmile_qr_scan"}, "fusion_lon": 0.0, "lat": 38.926414333333334, "bike_id": "73f5ef5eaee9efbad13c9b71d87dc7d9", "type": "electric_scooter", "is_reserved": 0, "lon": -77.03321883333334}, {"fusion_lat": 0.0, "name": "e999a4b4d5cd09e4ffb915770c1662d2", "is_disabled": 0, "rental_uris": {"android": "https://dc.lft.to/lastmile_qr_scan", "ios": "https://dc.lft.to/lastmile_qr_scan"}, "fusion_lon": 0.0, "lat": 38.974976833333336, "bike_id": "e999a4b4d5cd09e4ffb915770c1662d2", "type": "electric_scooter", "is_reserved": 0, "lon": -77.01691783333334}, {"fusion_lat": 0.0, "name": "56714aa27326db8edf9b36b89daab992", "is_disabled": 0, "rental_uris": {"android": "https://dc.lft.to/lastmile_qr_scan", "ios": "https://dc.lft.to/lastmile_qr_scan"}, "fusion_lon": 0.0, "lat": 38.85657, "bike_id": "56714aa27326db8edf9b36b89daab992", "type": "electric_scooter", "is_reserved": 0, "lon": -76.9967305}, {"fusion_lat": 0.0, "name": "d3fc945f8d834dcc40c6ae883cdc280b", "is_disabled": 0, "rental_uris": {"android": "https://dc.lft.to/lastmile_qr_scan", "ios": "https://dc.lft.to/lastmile_qr_scan"}, "fusion_lon": 0.0, "lat": 38.93191483333333, "bike_id": "d3fc945f8d834dcc40c6ae883cdc280b", "type": "electric_scooter", "is_reserved": 0, "lon": -77.02966033333334}, {"fusion_lat": 0.0, "name": "09a9608a7f44cbfd7a2af96991e62942", "is_disabled": 0, "rental_uris": {"android": "https://dc.lft.to/lastmile_qr_scan", "ios": "https://dc.lft.to/lastmile_qr_scan"}, "fusion_lon": 0.0, "lat": 38.90055666666667, "bike_id": "09a9608a7f44cbfd7a2af96991e62942", "type": "electric_scooter", "is_reserved": 0, "lon": -76.9871895}, {"fusion_lat": 0.0, "name": "178eaecdb9aade8bd4aebf7c1ac6a2ee", "is_disabled": 0, "rental_uris": {"android": "https://dc.lft.to/lastmile_qr_scan", "ios": "https://dc.lft.to/lastmile_qr_scan"}, "fusion_lon": 0.0, "lat": 38.927052333333336, "bike_id": "178eaecdb9aade8bd4aebf7c1ac6a2ee", "type": "electric_scooter", "is_reserved": 0, "lon": -77.02081916666667}, {"fusion_lat": 0.0, "name": "c65206cbdac0e69ee37e551f84c82b7c", "is_disabled": 0, "rental_uris": {"android": "https://dc.lft.to/lastmile_qr_scan", "ios": "https://dc.lft.to/lastmile_qr_scan"}, "fusion_lon": 0.0, "lat": 38.885046333333335, "bike_id": "c65206cbdac0e69ee37e551f84c82b7c", "type": "electric_scooter", "is_reserved": 0, "lon": -76.9975965}, {"fusion_lat": 0.0, "name": "0440e3fe1c021c29cd431cc31cd388bd", "is_disabled": 0, "rental_uris": {"android": "https://dc.lft.to/lastmile_qr_scan", "ios": "https://dc.lft.to/lastmile_qr_scan"}, "fusion_lon": 0.0, "lat": 38.8160375, "bike_id": "0440e3fe1c021c29cd431cc31cd388bd", "type": "electric_bike", "is_reserved": 0, "lon": -76.996617}, {"fusion_lat": 0.0, "name": "29983625ccb3f6c615fca66daa70d566", "is_disabled": 0, "rental_uris": {"android": "https://dc.lft.to/lastmile_qr_scan", "ios": "https://dc.lft.to/lastmile_qr_scan"}, "fusion_lon": 0.0, "lat": 39.01411483333333, "bike_id": "29983625ccb3f6c615fca66daa70d566", "type": "electric_bike", "is_reserved": 0, "lon": -77.04500066666667}, {"fusion_lat": 0.0, "name": "3fea69eab18c7316fc935182108321c9", "is_disabled": 0, "rental_uris": {"android": "https://dc.lft.to/lastmile_qr_scan", "ios": "https://dc.lft.to/lastmile_qr_scan"}, "fusion_lon": 0.0, "lat": 38.91769516666667, "bike_id": "3fea69eab18c7316fc935182108321c9", "type": "electric_scooter", "is_reserved": 0, "lon": -77.01917433333334}, {"fusion_lat": 0.0, "name": "0f173e67b7221d8193ce0b8bef7baca6", "is_disabled": 0, "rental_uris": {"android": "https://dc.lft.to/lastmile_qr_scan", "ios": "https://dc.lft.to/lastmile_qr_scan"}, "fusion_lon": 0.0, "lat": 38.928274333333334, "bike_id": "0f173e67b7221d8193ce0b8bef7baca6", "type": "electric_bike", "is_reserved": 0, "lon": -77.0541235}, {"fusion_lat": 0.0, "name": "3532b9485cecbac71414204094777e85", "is_disabled": 0, "rental_uris": {"android": "https://dc.lft.to/lastmile_qr_scan", "ios": "https://dc.lft.to/lastmile_qr_scan"}, "fusion_lon": 0.0, "lat": 38.84911866666667, "bike_id": "3532b9485cecbac71414204094777e85", "type": "electric_bike", "is_reserved": 0, "lon": -77.0792785}, {"fusion_lat": 0.0, "name": "5c7a7b6fffbe4bbdfa1a93f782465c27", "is_disabled": 0, "rental_uris": {"android": "https://dc.lft.to/lastmile_qr_scan", "ios": "https://dc.lft.to/lastmile_qr_scan"}, "fusion_lon": 0.0, "lat": 38.917129833333334, "bike_id": "5c7a7b6fffbe4bbdfa1a93f782465c27", "type": "electric_scooter", "is_reserved": 0, "lon": -77.04153333333333}, {"fusion_lat": 0.0, "name": "6f05697f05a6332e0a786da586eb5d68", "is_disabled": 0, "rental_uris": {"android": "https://dc.lft.to/lastmile_qr_scan", "ios": "https://dc.lft.to/lastmile_qr_scan"}, "fusion_lon": 0.0, "lat": 38.90592016666667, "bike_id": "6f05697f05a6332e0a786da586eb5d68", "type": "electric_scooter", "is_reserved": 0, "lon": -76.98798583333334}, {"fusion_lat": 0.0, "name": "fa37b9407342431bd707e19d81fad86f", "is_disabled": 0, "rental_uris": {"android": "https://dc.lft.to/lastmile_qr_scan", "ios": "https://dc.lft.to/lastmile_qr_scan"}, "fusion_lon": 0.0, "lat": 38.966210333333336, "bike_id": "fa37b9407342431bd707e19d81fad86f", "type": "electric_bike", "is_reserved": 0, "lon": -77.03429766666666}, {"fusion_lat": 0.0, "name": "82cadb0cf8eca53b7b04155bbf6e5e5e", "is_disabled": 0, "rental_uris": {"android": "https://dc.lft.to/lastmile_qr_scan", "ios": "https://dc.lft.to/lastmile_qr_scan"}, "fusion_lon": 0.0, "lat": 38.895422833333335, "bike_id": "82cadb0cf8eca53b7b04155bbf6e5e5e", "type": "electric_scooter", "is_reserved": 0, "lon": -76.9821125}, {"fusion_lat": 0.0, "name": "50767cf9038ed95eaba75fdf346e35a1", "is_disabled": 0, "rental_uris": {"android": "https://dc.lft.to/lastmile_qr_scan", "ios": "https://dc.lft.to/lastmile_qr_scan"}, "fusion_lon": 0.0, "lat": 38.916168666666664, "bike_id": "50767cf9038ed95eaba75fdf346e35a1", "type": "electric_scooter", "is_reserved": 0, "lon": -77.011201}, {"fusion_lat": 0.0, "name": "a4bd1a1012dc7cf4a0512b7ed235b45c", "is_disabled": 0, "rental_uris": {"android": "https://dc.lft.to/lastmile_qr_scan", "ios": "https://dc.lft.to/lastmile_qr_scan"}, "fusion_lon": 0.0, "lat": 38.904005166666664, "bike_id": "a4bd1a1012dc7cf4a0512b7ed235b45c", "type": "electric_scooter", "is_reserved": 0, "lon": -77.06772333333333}, {"fusion_lat": 0.0, "name": "65450d4ccba37f737cdaa62997d14c12", "is_disabled": 0, "rental_uris": {"android": "https://dc.lft.to/lastmile_qr_scan", "ios": "https://dc.lft.to/lastmile_qr_scan"}, "fusion_lon": 0.0, "lat": 38.815983333333335, "bike_id": "65450d4ccba37f737cdaa62997d14c12", "type": "electric_bike", "is_reserved": 0, "lon": -77.05053883333333}, {"fusion_lat": 0.0, "name": "75cce714b4cbeb357e9988cd4a4e2d39", "is_disabled": 0, "rental_uris": {"android": "https://dc.lft.to/lastmile_qr_scan", "ios": "https://dc.lft.to/lastmile_qr_scan"}, "fusion_lon": 0.0, "lat": 38.908460166666664, "bike_id": "75cce714b4cbeb357e9988cd4a4e2d39", "type": "electric_scooter", "is_reserved": 0, "lon": -77.02696766666666}, {"fusion_lat": 0.0, "name": "090433483401bc7f5dffec88fdddca0f", "is_disabled": 0, "rental_uris": {"android": "https://dc.lft.to/lastmile_qr_scan", "ios": "https://dc.lft.to/lastmile_qr_scan"}, "fusion_lon": 0.0, "lat": 38.90927416666667, "bike_id": "090433483401bc7f5dffec88fdddca0f", "type": "electric_scooter", "is_reserved": 0, "lon": -77.0457905}, {"fusion_lat": 0.0, "name": "60dce14d5551eca2a0ac1a35b0460ed4", "is_disabled": 0, "rental_uris": {"android": "https://dc.lft.to/lastmile_qr_scan", "ios": "https://dc.lft.to/lastmile_qr_scan"}, "fusion_lon": 0.0, "lat": 38.905002833333334, "bike_id": "60dce14d5551eca2a0ac1a35b0460ed4", "type": "electric_scooter", "is_reserved": 0, "lon": -77.02955766666666}, {"fusion_lat": 0.0, "name": "da633e4bc389a6b2c3404bc6a7ea1779", "is_disabled": 0, "rental_uris": {"android": "https://dc.lft.to/lastmile_qr_scan", "ios": "https://dc.lft.to/lastmile_qr_scan"}, "fusion_lon": 0.0, "lat": 38.92454733333334, "bike_id": "da633e4bc389a6b2c3404bc6a7ea1779", "type": "electric_scooter", "is_reserved": 0, "lon": -77.02409066666667}, {"fusion_lat": 0.0, "name": "d2d9435340e123d972a8aa834a8cf558", "is_disabled": 0, "rental_uris": {"android": "https://dc.lft.to/lastmile_qr_scan", "ios": "https://dc.lft.to/lastmile_qr_scan"}, "fusion_lon": 0.0, "lat": 38.87095516666667, "bike_id": "d2d9435340e123d972a8aa834a8cf558", "type": "electric_scooter", "is_reserved": 0, "lon": -77.00741883333333}, {"fusion_lat": 0.0, "name": "e3002a343f09e3e181bd07887850b1cf", "is_disabled": 0, "rental_uris": {"android": "https://dc.lft.to/lastmile_qr_scan", "ios": "https://dc.lft.to/lastmile_qr_scan"}, "fusion_lon": 0.0, "lat": 38.934818166666666, "bike_id": "e3002a343f09e3e181bd07887850b1cf", "type": "electric_scooter", "is_reserved": 0, "lon": -77.0453395}, {"fusion_lat": 0.0, "name": "7700da86a5b376957012022c3aa78e6a", "is_disabled": 0, "rental_uris": {"android": "https://dc.lft.to/lastmile_qr_scan", "ios": "https://dc.lft.to/lastmile_qr_scan"}, "fusion_lon": 0.0, "lat": 38.8717745, "bike_id": "7700da86a5b376957012022c3aa78e6a", "type": "electric_scooter", "is_reserved": 0, "lon": -77.0061705}, {"fusion_lat": 0.0, "name": "44641fd565ba450e041f4026351b90c6", "is_disabled": 0, "rental_uris": {"android": "https://dc.lft.to/lastmile_qr_scan", "ios": "https://dc.lft.to/lastmile_qr_scan"}, "fusion_lon": 0.0, "lat": 38.91915483333333, "bike_id": "44641fd565ba450e041f4026351b90c6", "type": "electric_scooter", "is_reserved": 0, "lon": -77.02195233333333}, {"fusion_lat": 0.0, "name": "37dc44f331cba7d295b792d02cc72761", "is_disabled": 0, "rental_uris": {"android": "https://dc.lft.to/lastmile_qr_scan", "ios": "https://dc.lft.to/lastmile_qr_scan"}, "fusion_lon": 0.0, "lat": 38.915257833333335, "bike_id": "37dc44f331cba7d295b792d02cc72761", "type": "electric_scooter", "is_reserved": 0, "lon": -77.07272816666666}, {"fusion_lat": 0.0, "name": "3e9ed94c0b2e60718dd9b92994ef0848", "is_disabled": 0, "rental_uris": {"android": "https://dc.lft.to/lastmile_qr_scan", "ios": "https://dc.lft.to/lastmile_qr_scan"}, "fusion_lon": 0.0, "lat": 38.95383233333333, "bike_id": "3e9ed94c0b2e60718dd9b92994ef0848", "type": "electric_bike", "is_reserved": 0, "lon": -76.9795695}, {"fusion_lat": 0.0, "name": "d1e57230b9059646839f2463db9be83e", "is_disabled": 0, "rental_uris": {"android": "https://dc.lft.to/lastmile_qr_scan", "ios": "https://dc.lft.to/lastmile_qr_scan"}, "fusion_lon": 0.0, "lat": 38.90273916666666, "bike_id": "d1e57230b9059646839f2463db9be83e", "type": "electric_scooter", "is_reserved": 0, "lon": -76.976733}, {"fusion_lat": 0.0, "name": "ad3bfc04667f845c177854fccc974fb4", "is_disabled": 0, "rental_uris": {"android": "https://dc.lft.to/lastmile_qr_scan", "ios": "https://dc.lft.to/lastmile_qr_scan"}, "fusion_lon": 0.0, "lat": 38.92345516666666, "bike_id": "ad3bfc04667f845c177854fccc974fb4", "type": "electric_scooter", "is_reserved": 0, "lon": -77.02016333333333}, {"fusion_lat": 0.0, "name": "d2709c3bc0d01d2bf00ddcd172d1c516", "is_disabled": 0, "rental_uris": {"android": "https://dc.lft.to/lastmile_qr_scan", "ios": "https://dc.lft.to/lastmile_qr_scan"}, "fusion_lon": 0.0, "lat": 38.898709, "bike_id": "d2709c3bc0d01d2bf00ddcd172d1c516", "type": "electric_scooter", "is_reserved": 0, "lon": -76.931841}, {"fusion_lat": 0.0, "name": "357bd05923841692338869fc013f0788", "is_disabled": 0, "rental_uris": {"android": "https://dc.lft.to/lastmile_qr_scan", "ios": "https://dc.lft.to/lastmile_qr_scan"}, "fusion_lon": 0.0, "lat": 38.900262833333336, "bike_id": "357bd05923841692338869fc013f0788", "type": "electric_scooter", "is_reserved": 0, "lon": -76.99599866666667}, {"fusion_lat": 0.0, "name": "51a4b3b302e15a56ddd00b542db7e6fd", "is_disabled": 0, "rental_uris": {"android": "https://dc.lft.to/lastmile_qr_scan", "ios": "https://dc.lft.to/lastmile_qr_scan"}, "fusion_lon": 0.0, "lat": 38.921286, "bike_id": "51a4b3b302e15a56ddd00b542db7e6fd", "type": "electric_scooter", "is_reserved": 0, "lon": -77.04704516666666}, {"fusion_lat": 0.0, "name": "ae4c8f538083a0e7df26d1f7f8b144f1", "is_disabled": 0, "rental_uris": {"android": "https://dc.lft.to/lastmile_qr_scan", "ios": "https://dc.lft.to/lastmile_qr_scan"}, "fusion_lon": 0.0, "lat": 38.879178, "bike_id": "ae4c8f538083a0e7df26d1f7f8b144f1", "type": "electric_scooter", "is_reserved": 0, "lon": -77.02153566666667}, {"fusion_lat": 0.0, "name": "35d58e89bbe56211b8528a9791b75c0a", "is_disabled": 0, "rental_uris": {"android": "https://dc.lft.to/lastmile_qr_scan", "ios": "https://dc.lft.to/lastmile_qr_scan"}, "fusion_lon": 0.0, "lat": 38.918038333333335, "bike_id": "35d58e89bbe56211b8528a9791b75c0a", "type": "electric_scooter", "is_reserved": 0, "lon": -76.99982283333334}, {"fusion_lat": 0.0, "name": "cb60dceaad7448869711672453695fe3", "is_disabled": 0, "rental_uris": {"android": "https://dc.lft.to/lastmile_qr_scan", "ios": "https://dc.lft.to/lastmile_qr_scan"}, "fusion_lon": 0.0, "lat": 38.961147833333335, "bike_id": "cb60dceaad7448869711672453695fe3", "type": "electric_scooter", "is_reserved": 0, "lon": -77.02867866666666}, {"fusion_lat": 0.0, "name": "de8695e04c0ee18a8c8d236272c25fc1", "is_disabled": 0, "rental_uris": {"android": "https://dc.lft.to/lastmile_qr_scan", "ios": "https://dc.lft.to/lastmile_qr_scan"}, "fusion_lon": 0.0, "lat": 38.95117583333333, "bike_id": "de8695e04c0ee18a8c8d236272c25fc1", "type": "electric_scooter", "is_reserved": 0, "lon": -77.01366866666666}, {"fusion_lat": 0.0, "name": "b21425d99f018bf6aa6465be59401eb6", "is_disabled": 0, "rental_uris": {"android": "https://dc.lft.to/lastmile_qr_scan", "ios": "https://dc.lft.to/lastmile_qr_scan"}, "fusion_lon": 0.0, "lat": 38.9156355, "bike_id": "b21425d99f018bf6aa6465be59401eb6", "type": "electric_scooter", "is_reserved": 0, "lon": -77.03228066666667}, {"fusion_lat": 0.0, "name": "31a57706fb61df919fbda6c70d04a0e1", "is_disabled": 0, "rental_uris": {"android": "https://dc.lft.to/lastmile_qr_scan", "ios": "https://dc.lft.to/lastmile_qr_scan"}, "fusion_lon": 0.0, "lat": 38.93677516666666, "bike_id": "31a57706fb61df919fbda6c70d04a0e1", "type": "electric_scooter", "is_reserved": 0, "lon": -77.0359415}, {"fusion_lat": 0.0, "name": "e9f4bc3b3555b5b6649a3d7aa21137d4", "is_disabled": 0, "rental_uris": {"android": "https://dc.lft.to/lastmile_qr_scan", "ios": "https://dc.lft.to/lastmile_qr_scan"}, "fusion_lon": 0.0, "lat": 38.975001, "bike_id": "e9f4bc3b3555b5b6649a3d7aa21137d4", "type": "electric_scooter", "is_reserved": 0, "lon": -77.01700683333334}, {"fusion_lat": 0.0, "name": "d53694b6fb90786d24e635041066afc8", "is_disabled": 0, "rental_uris": {"android": "https://dc.lft.to/lastmile_qr_scan", "ios": "https://dc.lft.to/lastmile_qr_scan"}, "fusion_lon": 0.0, "lat": 38.93784483333334, "bike_id": "d53694b6fb90786d24e635041066afc8", "type": "electric_scooter", "is_reserved": 0, "lon": -77.02476533333333}, {"fusion_lat": 0.0, "name": "88133f46b279f81c6bc1d5501181ac65", "is_disabled": 0, "rental_uris": {"android": "https://dc.lft.to/lastmile_qr_scan", "ios": "https://dc.lft.to/lastmile_qr_scan"}, "fusion_lon": 0.0, "lat": 38.94700983333333, "bike_id": "88133f46b279f81c6bc1d5501181ac65", "type": "electric_scooter", "is_reserved": 0, "lon": -77.0194175}, {"fusion_lat": 0.0, "name": "961a8a7b30dd1877e0976f476a405ba9", "is_disabled": 0, "rental_uris": {"android": "https://dc.lft.to/lastmile_qr_scan", "ios": "https://dc.lft.to/lastmile_qr_scan"}, "fusion_lon": 0.0, "lat": 38.9318835, "bike_id": "961a8a7b30dd1877e0976f476a405ba9", "type": "electric_scooter", "is_reserved": 0, "lon": -77.04298016666667}, {"fusion_lat": 0.0, "name": "3f4327fda6df943269bd6d9a5253b3b4", "is_disabled": 0, "rental_uris": {"android": "https://dc.lft.to/lastmile_qr_scan", "ios": "https://dc.lft.to/lastmile_qr_scan"}, "fusion_lon": 0.0, "lat": 38.884594, "bike_id": "3f4327fda6df943269bd6d9a5253b3b4", "type": "electric_scooter", "is_reserved": 0, "lon": -76.9983915}, {"fusion_lat": 0.0, "name": "31bb4ce62174de4006817407ece96a6b", "is_disabled": 0, "rental_uris": {"android": "https://dc.lft.to/lastmile_qr_scan", "ios": "https://dc.lft.to/lastmile_qr_scan"}, "fusion_lon": 0.0, "lat": 38.91115666666666, "bike_id": "31bb4ce62174de4006817407ece96a6b", "type": "electric_scooter", "is_reserved": 0, "lon": -77.02084316666667}, {"fusion_lat": 0.0, "name": "8ceee5a7100ef38368cc65ada288ac1a", "is_disabled": 0, "rental_uris": {"android": "https://dc.lft.to/lastmile_qr_scan", "ios": "https://dc.lft.to/lastmile_qr_scan"}, "fusion_lon": 0.0, "lat": 38.894762, "bike_id": "8ceee5a7100ef38368cc65ada288ac1a", "type": "electric_scooter", "is_reserved": 0, "lon": -77.01526283333334}, {"fusion_lat": 0.0, "name": "43fcb1417a28ba4f17f1da9ef606f141", "is_disabled": 0, "rental_uris": {"android": "https://dc.lft.to/lastmile_qr_scan", "ios": "https://dc.lft.to/lastmile_qr_scan"}, "fusion_lon": 0.0, "lat": 38.919156666666666, "bike_id": "43fcb1417a28ba4f17f1da9ef606f141", "type": "electric_scooter", "is_reserved": 0, "lon": -77.03312416666667}, {"fusion_lat": 0.0, "name": "0151f21ac7f31ac6b78810d3cb7b05d7", "is_disabled": 0, "rental_uris": {"android": "https://dc.lft.to/lastmile_qr_scan", "ios": "https://dc.lft.to/lastmile_qr_scan"}, "fusion_lon": 0.0, "lat": 38.93296316666667, "bike_id": "0151f21ac7f31ac6b78810d3cb7b05d7", "type": "electric_scooter", "is_reserved": 0, "lon": -77.02470083333333}, {"fusion_lat": 0.0, "name": "dc64c75ab1da1d7df4e0cd23613471d3", "is_disabled": 0, "rental_uris": {"android": "https://dc.lft.to/lastmile_qr_scan", "ios": "https://dc.lft.to/lastmile_qr_scan"}, "fusion_lon": 0.0, "lat": 38.92076433333333, "bike_id": "dc64c75ab1da1d7df4e0cd23613471d3", "type": "electric_scooter", "is_reserved": 0, "lon": -77.0046055}, {"fusion_lat": 0.0, "name": "1bb72151790e693205c667d531cc90ce", "is_disabled": 0, "rental_uris": {"android": "https://dc.lft.to/lastmile_qr_scan", "ios": "https://dc.lft.to/lastmile_qr_scan"}, "fusion_lon": 0.0, "lat": 38.930764333333336, "bike_id": "1bb72151790e693205c667d531cc90ce", "type": "electric_scooter", "is_reserved": 0, "lon": -77.0219385}, {"fusion_lat": 0.0, "name": "42afeb74375954480f4e975c39de3bbd", "is_disabled": 0, "rental_uris": {"android": "https://dc.lft.to/lastmile_qr_scan", "ios": "https://dc.lft.to/lastmile_qr_scan"}, "fusion_lon": 0.0, "lat": 38.917696, "bike_id": "42afeb74375954480f4e975c39de3bbd", "type": "electric_scooter", "is_reserved": 0, "lon": -77.0193035}, {"fusion_lat": 0.0, "name": "fc532d77dd15d2802de492dd4d6e904c", "is_disabled": 0, "rental_uris": {"android": "https://dc.lft.to/lastmile_qr_scan", "ios": "https://dc.lft.to/lastmile_qr_scan"}, "fusion_lon": 0.0, "lat": 38.88506433333333, "bike_id": "fc532d77dd15d2802de492dd4d6e904c", "type": "electric_scooter", "is_reserved": 0, "lon": -76.929541}, {"fusion_lat": 0.0, "name": "36ad688eb4a314a559cb413d879a3781", "is_disabled": 0, "rental_uris": {"android": "https://dc.lft.to/lastmile_qr_scan", "ios": "https://dc.lft.to/lastmile_qr_scan"}, "fusion_lon": 0.0, "lat": 38.946420833333335, "bike_id": "36ad688eb4a314a559cb413d879a3781", "type": "electric_bike", "is_reserved": 0, "lon": -77.03049433333334}, {"fusion_lat": 0.0, "name": "9802adb360b24e71c5358e6a5b3a7893", "is_disabled": 0, "rental_uris": {"android": "https://dc.lft.to/lastmile_qr_scan", "ios": "https://dc.lft.to/lastmile_qr_scan"}, "fusion_lon": 0.0, "lat": 38.91715033333333, "bike_id": "9802adb360b24e71c5358e6a5b3a7893", "type": "electric_scooter", "is_reserved": 0, "lon": -77.01209016666667}, {"fusion_lat": 0.0, "name": "a3cfdbdbae794232cb2c9e40cdb5c468", "is_disabled": 0, "rental_uris": {"android": "https://dc.lft.to/lastmile_qr_scan", "ios": "https://dc.lft.to/lastmile_qr_scan"}, "fusion_lon": 0.0, "lat": 38.908205, "bike_id": "a3cfdbdbae794232cb2c9e40cdb5c468", "type": "electric_scooter", "is_reserved": 0, "lon": -77.0549745}, {"fusion_lat": 0.0, "name": "281ea9da9123ed4ee731639fd7470b27", "is_disabled": 0, "rental_uris": {"android": "https://dc.lft.to/lastmile_qr_scan", "ios": "https://dc.lft.to/lastmile_qr_scan"}, "fusion_lon": 0.0, "lat": 38.915529166666666, "bike_id": "281ea9da9123ed4ee731639fd7470b27", "type": "electric_scooter", "is_reserved": 0, "lon": -77.03223683333333}, {"fusion_lat": 0.0, "name": "4d3ebc74fc7c1513e782c94e97394fa5", "is_disabled": 0, "rental_uris": {"android": "https://dc.lft.to/lastmile_qr_scan", "ios": "https://dc.lft.to/lastmile_qr_scan"}, "fusion_lon": 0.0, "lat": 38.92593683333333, "bike_id": "4d3ebc74fc7c1513e782c94e97394fa5", "type": "electric_scooter", "is_reserved": 0, "lon": -77.02588983333334}, {"fusion_lat": 0.0, "name": "bd4a4c57626eacc380e9fb6e360da3d5", "is_disabled": 0, "rental_uris": {"android": "https://dc.lft.to/lastmile_qr_scan", "ios": "https://dc.lft.to/lastmile_qr_scan"}, "fusion_lon": 0.0, "lat": 38.958312, "bike_id": "bd4a4c57626eacc380e9fb6e360da3d5", "type": "electric_bike", "is_reserved": 0, "lon": -77.015125}, {"fusion_lat": 0.0, "name": "a1ff65abef80f458453f53d2406727f8", "is_disabled": 0, "rental_uris": {"android": "https://dc.lft.to/lastmile_qr_scan", "ios": "https://dc.lft.to/lastmile_qr_scan"}, "fusion_lon": 0.0, "lat": 38.93651, "bike_id": "a1ff65abef80f458453f53d2406727f8", "type": "electric_scooter", "is_reserved": 0, "lon": -77.0368425}, {"fusion_lat": 0.0, "name": "ef8c4c4756277408ac5c1b1356afc10b", "is_disabled": 0, "rental_uris": {"android": "https://dc.lft.to/lastmile_qr_scan", "ios": "https://dc.lft.to/lastmile_qr_scan"}, "fusion_lon": 0.0, "lat": 38.88763816666667, "bike_id": "ef8c4c4756277408ac5c1b1356afc10b", "type": "electric_scooter", "is_reserved": 0, "lon": -76.99463433333334}, {"fusion_lat": 0.0, "name": "29474fb01b382d759339deabde08706a", "is_disabled": 0, "rental_uris": {"android": "https://dc.lft.to/lastmile_qr_scan", "ios": "https://dc.lft.to/lastmile_qr_scan"}, "fusion_lon": 0.0, "lat": 38.9216315, "bike_id": "29474fb01b382d759339deabde08706a", "type": "electric_scooter", "is_reserved": 0, "lon": -77.03658283333333}, {"fusion_lat": 0.0, "name": "80912225d5b26ef80e144342a75249e2", "is_disabled": 0, "rental_uris": {"android": "https://dc.lft.to/lastmile_qr_scan", "ios": "https://dc.lft.to/lastmile_qr_scan"}, "fusion_lon": 0.0, "lat": 38.95293566666667, "bike_id": "80912225d5b26ef80e144342a75249e2", "type": "electric_scooter", "is_reserved": 0, "lon": -76.99902583333333}, {"fusion_lat": 0.0, "name": "f7827aba5f610044f99faf3e62b2249c", "is_disabled": 0, "rental_uris": {"android": "https://dc.lft.to/lastmile_qr_scan", "ios": "https://dc.lft.to/lastmile_qr_scan"}, "fusion_lon": 0.0, "lat": 38.90682983333333, "bike_id": "f7827aba5f610044f99faf3e62b2249c", "type": "electric_scooter", "is_reserved": 0, "lon": -77.048862}, {"fusion_lat": 0.0, "name": "9a51db0efe59e472f914d11356ec20f8", "is_disabled": 0, "rental_uris": {"android": "https://dc.lft.to/lastmile_qr_scan", "ios": "https://dc.lft.to/lastmile_qr_scan"}, "fusion_lon": 0.0, "lat": 38.924476166666665, "bike_id": "9a51db0efe59e472f914d11356ec20f8", "type": "electric_scooter", "is_reserved": 0, "lon": -77.080318}, {"fusion_lat": 0.0, "name": "ced6b9ace5220d253b8d1b075a427842", "is_disabled": 0, "rental_uris": {"android": "https://dc.lft.to/lastmile_qr_scan", "ios": "https://dc.lft.to/lastmile_qr_scan"}, "fusion_lon": 0.0, "lat": 38.92320333333333, "bike_id": "ced6b9ace5220d253b8d1b075a427842", "type": "electric_scooter", "is_reserved": 0, "lon": -77.02968566666667}, {"fusion_lat": 0.0, "name": "146a0d5438c1b9a9fc74f5c14bd320bd", "is_disabled": 0, "rental_uris": {"android": "https://dc.lft.to/lastmile_qr_scan", "ios": "https://dc.lft.to/lastmile_qr_scan"}, "fusion_lon": 0.0, "lat": 38.9847435, "bike_id": "146a0d5438c1b9a9fc74f5c14bd320bd", "type": "electric_scooter", "is_reserved": 0, "lon": -77.02644716666667}, {"fusion_lat": 0.0, "name": "b4912c7fa9486ff93de727bda8d90707", "is_disabled": 0, "rental_uris": {"android": "https://dc.lft.to/lastmile_qr_scan", "ios": "https://dc.lft.to/lastmile_qr_scan"}, "fusion_lon": 0.0, "lat": 38.887689333333334, "bike_id": "b4912c7fa9486ff93de727bda8d90707", "type": "electric_scooter", "is_reserved": 0, "lon": -77.00257716666667}, {"fusion_lat": 0.0, "name": "b5470cfc131b3581dbe0b3cf22ccb327", "is_disabled": 0, "rental_uris": {"android": "https://dc.lft.to/lastmile_qr_scan", "ios": "https://dc.lft.to/lastmile_qr_scan"}, "fusion_lon": 0.0, "lat": 38.906713833333335, "bike_id": "b5470cfc131b3581dbe0b3cf22ccb327", "type": "electric_scooter", "is_reserved": 0, "lon": -77.02713183333333}, {"fusion_lat": 0.0, "name": "4ce27af284155464f633cadeb5a9702d", "is_disabled": 0, "rental_uris": {"android": "https://dc.lft.to/lastmile_qr_scan", "ios": "https://dc.lft.to/lastmile_qr_scan"}, "fusion_lon": 0.0, "lat": 38.904102333333334, "bike_id": "4ce27af284155464f633cadeb5a9702d", "type": "electric_scooter", "is_reserved": 0, "lon": -76.97329316666666}, {"fusion_lat": 0.0, "name": "abd063552468f6f8bd5770ab466f4b0f", "is_disabled": 0, "rental_uris": {"android": "https://dc.lft.to/lastmile_qr_scan", "ios": "https://dc.lft.to/lastmile_qr_scan"}, "fusion_lon": 0.0, "lat": 38.92395366666667, "bike_id": "abd063552468f6f8bd5770ab466f4b0f", "type": "electric_scooter", "is_reserved": 0, "lon": -77.0248655}, {"fusion_lat": 0.0, "name": "3fdbac8deab35f3cecec617ac97a01c5", "is_disabled": 0, "rental_uris": {"android": "https://dc.lft.to/lastmile_qr_scan", "ios": "https://dc.lft.to/lastmile_qr_scan"}, "fusion_lon": 0.0, "lat": 38.8601885, "bike_id": "3fdbac8deab35f3cecec617ac97a01c5", "type": "electric_bike", "is_reserved": 0, "lon": -77.12808683333333}, {"fusion_lat": 0.0, "name": "01932f132904a1870f9083218c15166e", "is_disabled": 0, "rental_uris": {"android": "https://dc.lft.to/lastmile_qr_scan", "ios": "https://dc.lft.to/lastmile_qr_scan"}, "fusion_lon": 0.0, "lat": 38.880628, "bike_id": "01932f132904a1870f9083218c15166e", "type": "electric_scooter", "is_reserved": 0, "lon": -77.0254825}, {"fusion_lat": 0.0, "name": "7c4e112e1b7a3aae2b1be8146d732848", "is_disabled": 0, "rental_uris": {"android": "https://dc.lft.to/lastmile_qr_scan", "ios": "https://dc.lft.to/lastmile_qr_scan"}, "fusion_lon": 0.0, "lat": 38.90252816666667, "bike_id": "7c4e112e1b7a3aae2b1be8146d732848", "type": "electric_scooter", "is_reserved": 0, "lon": -76.97455316666667}, {"fusion_lat": 0.0, "name": "4e5b1b783971d1638ce86d2900145b95", "is_disabled": 0, "rental_uris": {"android": "https://dc.lft.to/lastmile_qr_scan", "ios": "https://dc.lft.to/lastmile_qr_scan"}, "fusion_lon": 0.0, "lat": 38.956302, "bike_id": "4e5b1b783971d1638ce86d2900145b95", "type": "electric_scooter", "is_reserved": 0, "lon": -77.0231525}, {"fusion_lat": 0.0, "name": "866a7633d863f3165f15a3bfe800958f", "is_disabled": 0, "rental_uris": {"android": "https://dc.lft.to/lastmile_qr_scan", "ios": "https://dc.lft.to/lastmile_qr_scan"}, "fusion_lon": 0.0, "lat": 38.892209333333334, "bike_id": "866a7633d863f3165f15a3bfe800958f", "type": "electric_scooter", "is_reserved": 0, "lon": -77.03173033333333}, {"fusion_lat": 0.0, "name": "cac4d69a2b089c7f92c7f3b28a5e586a", "is_disabled": 0, "rental_uris": {"android": "https://dc.lft.to/lastmile_qr_scan", "ios": "https://dc.lft.to/lastmile_qr_scan"}, "fusion_lon": 0.0, "lat": 38.914716, "bike_id": "cac4d69a2b089c7f92c7f3b28a5e586a", "type": "electric_scooter", "is_reserved": 0, "lon": -77.0180135}, {"fusion_lat": 0.0, "name": "fecbc34a3850be5c9e20a6b3d65fabf4", "is_disabled": 0, "rental_uris": {"android": "https://dc.lft.to/lastmile_qr_scan", "ios": "https://dc.lft.to/lastmile_qr_scan"}, "fusion_lon": 0.0, "lat": 38.901546333333336, "bike_id": "fecbc34a3850be5c9e20a6b3d65fabf4", "type": "electric_scooter", "is_reserved": 0, "lon": -77.033217}, {"fusion_lat": 0.0, "name": "c4c7d2d9eccf63b76a413165cdb054b9", "is_disabled": 0, "rental_uris": {"android": "https://dc.lft.to/lastmile_qr_scan", "ios": "https://dc.lft.to/lastmile_qr_scan"}, "fusion_lon": 0.0, "lat": 38.863156833333335, "bike_id": "c4c7d2d9eccf63b76a413165cdb054b9", "type": "electric_bike", "is_reserved": 0, "lon": -76.98708033333334}, {"fusion_lat": 0.0, "name": "b9324ccc456990be01f47cb006beeda9", "is_disabled": 0, "rental_uris": {"android": "https://dc.lft.to/lastmile_qr_scan", "ios": "https://dc.lft.to/lastmile_qr_scan"}, "fusion_lon": 0.0, "lat": 38.8961, "bike_id": "b9324ccc456990be01f47cb006beeda9", "type": "electric_scooter", "is_reserved": 0, "lon": -76.948131}, {"fusion_lat": 0.0, "name": "31630fe61105da33d551fc93d8c0c159", "is_disabled": 0, "rental_uris": {"android": "https://dc.lft.to/lastmile_qr_scan", "ios": "https://dc.lft.to/lastmile_qr_scan"}, "fusion_lon": 0.0, "lat": 38.9171295, "bike_id": "31630fe61105da33d551fc93d8c0c159", "type": "electric_scooter", "is_reserved": 0, "lon": -77.03108533333334}, {"fusion_lat": 0.0, "name": "f8811ceeb3b28a18ec1b94ab936f281f", "is_disabled": 0, "rental_uris": {"android": "https://dc.lft.to/lastmile_qr_scan", "ios": "https://dc.lft.to/lastmile_qr_scan"}, "fusion_lon": 0.0, "lat": 38.908136666666664, "bike_id": "f8811ceeb3b28a18ec1b94ab936f281f", "type": "electric_scooter", "is_reserved": 0, "lon": -77.0385365}, {"fusion_lat": 0.0, "name": "15a77baa32b87c8d1038ff7025fcb907", "is_disabled": 0, "rental_uris": {"android": "https://dc.lft.to/lastmile_qr_scan", "ios": "https://dc.lft.to/lastmile_qr_scan"}, "fusion_lon": 0.0, "lat": 38.905709, "bike_id": "15a77baa32b87c8d1038ff7025fcb907", "type": "electric_scooter", "is_reserved": 0, "lon": -77.04171616666666}, {"fusion_lat": 0.0, "name": "c4ea6fe2682698c8649ea5313a1e82b6", "is_disabled": 0, "rental_uris": {"android": "https://dc.lft.to/lastmile_qr_scan", "ios": "https://dc.lft.to/lastmile_qr_scan"}, "fusion_lon": 0.0, "lat": 38.912640333333336, "bike_id": "c4ea6fe2682698c8649ea5313a1e82b6", "type": "electric_scooter", "is_reserved": 0, "lon": -77.04735633333334}, {"fusion_lat": 0.0, "name": "6dfa4fa078d87fcfcf91d1175aa56fa1", "is_disabled": 0, "rental_uris": {"android": "https://dc.lft.to/lastmile_qr_scan", "ios": "https://dc.lft.to/lastmile_qr_scan"}, "fusion_lon": 0.0, "lat": 38.882571166666665, "bike_id": "6dfa4fa078d87fcfcf91d1175aa56fa1", "type": "electric_scooter", "is_reserved": 0, "lon": -76.99491733333333}, {"fusion_lat": 0.0, "name": "11df85237446fe254435c7791f883651", "is_disabled": 0, "rental_uris": {"android": "https://dc.lft.to/lastmile_qr_scan", "ios": "https://dc.lft.to/lastmile_qr_scan"}, "fusion_lon": 0.0, "lat": 38.940697666666665, "bike_id": "11df85237446fe254435c7791f883651", "type": "electric_scooter", "is_reserved": 0, "lon": -77.01705333333334}, {"fusion_lat": 0.0, "name": "540574b0ef4d1bc979c571f84d075bf9", "is_disabled": 0, "rental_uris": {"android": "https://dc.lft.to/lastmile_qr_scan", "ios": "https://dc.lft.to/lastmile_qr_scan"}, "fusion_lon": 0.0, "lat": 38.9099645, "bike_id": "540574b0ef4d1bc979c571f84d075bf9", "type": "electric_scooter", "is_reserved": 0, "lon": -77.04479916666666}, {"fusion_lat": 0.0, "name": "0ed21dcce5953a79b75a350d24f024d3", "is_disabled": 0, "rental_uris": {"android": "https://dc.lft.to/lastmile_qr_scan", "ios": "https://dc.lft.to/lastmile_qr_scan"}, "fusion_lon": 0.0, "lat": 38.865571, "bike_id": "0ed21dcce5953a79b75a350d24f024d3", "type": "electric_scooter", "is_reserved": 0, "lon": -76.98352666666666}, {"fusion_lat": 0.0, "name": "6f3323903fbfb365662b53bef7f8f3eb", "is_disabled": 0, "rental_uris": {"android": "https://dc.lft.to/lastmile_qr_scan", "ios": "https://dc.lft.to/lastmile_qr_scan"}, "fusion_lon": 0.0, "lat": 38.934519333333334, "bike_id": "6f3323903fbfb365662b53bef7f8f3eb", "type": "electric_scooter", "is_reserved": 0, "lon": -77.07269033333333}, {"fusion_lat": 0.0, "name": "774172fca1b821a4892d13070638c3ee", "is_disabled": 0, "rental_uris": {"android": "https://dc.lft.to/lastmile_qr_scan", "ios": "https://dc.lft.to/lastmile_qr_scan"}, "fusion_lon": 0.0, "lat": 38.887313166666665, "bike_id": "774172fca1b821a4892d13070638c3ee", "type": "electric_scooter", "is_reserved": 0, "lon": -77.02583766666666}, {"fusion_lat": 0.0, "name": "7af6600ff751850d318510b70b166322", "is_disabled": 0, "rental_uris": {"android": "https://dc.lft.to/lastmile_qr_scan", "ios": "https://dc.lft.to/lastmile_qr_scan"}, "fusion_lon": 0.0, "lat": 38.95730183333333, "bike_id": "7af6600ff751850d318510b70b166322", "type": "electric_scooter", "is_reserved": 0, "lon": -77.02402883333333}, {"fusion_lat": 0.0, "name": "7289372ebdf5a0a9d26ff8891d5eaa27", "is_disabled": 0, "rental_uris": {"android": "https://dc.lft.to/lastmile_qr_scan", "ios": "https://dc.lft.to/lastmile_qr_scan"}, "fusion_lon": 0.0, "lat": 38.91833833333333, "bike_id": "7289372ebdf5a0a9d26ff8891d5eaa27", "type": "electric_scooter", "is_reserved": 0, "lon": -77.02387033333333}, {"fusion_lat": 0.0, "name": "15075c2f503cc6cd1cbab8004ec2ce59", "is_disabled": 0, "rental_uris": {"android": "https://dc.lft.to/lastmile_qr_scan", "ios": "https://dc.lft.to/lastmile_qr_scan"}, "fusion_lon": 0.0, "lat": 38.901788, "bike_id": "15075c2f503cc6cd1cbab8004ec2ce59", "type": "electric_scooter", "is_reserved": 0, "lon": -76.94146016666667}, {"fusion_lat": 0.0, "name": "3cad6a511148fc71325aedde788e1156", "is_disabled": 0, "rental_uris": {"android": "https://dc.lft.to/lastmile_qr_scan", "ios": "https://dc.lft.to/lastmile_qr_scan"}, "fusion_lon": 0.0, "lat": 38.89740416666667, "bike_id": "3cad6a511148fc71325aedde788e1156", "type": "electric_scooter", "is_reserved": 0, "lon": -77.00010766666666}, {"fusion_lat": 0.0, "name": "b26b6c705297e1051885c8fd51289ba2", "is_disabled": 0, "rental_uris": {"android": "https://dc.lft.to/lastmile_qr_scan", "ios": "https://dc.lft.to/lastmile_qr_scan"}, "fusion_lon": 0.0, "lat": 38.900291, "bike_id": "b26b6c705297e1051885c8fd51289ba2", "type": "electric_scooter", "is_reserved": 0, "lon": -77.011905}, {"fusion_lat": 0.0, "name": "64bbf2491411228455a7381a23ed4391", "is_disabled": 0, "rental_uris": {"android": "https://dc.lft.to/lastmile_qr_scan", "ios": "https://dc.lft.to/lastmile_qr_scan"}, "fusion_lon": 0.0, "lat": 38.90514, "bike_id": "64bbf2491411228455a7381a23ed4391", "type": "electric_scooter", "is_reserved": 0, "lon": -77.03488233333333}, {"fusion_lat": 0.0, "name": "93853637bd870ce66541bd32a296f7b3", "is_disabled": 0, "rental_uris": {"android": "https://dc.lft.to/lastmile_qr_scan", "ios": "https://dc.lft.to/lastmile_qr_scan"}, "fusion_lon": 0.0, "lat": 38.87637016666667, "bike_id": "93853637bd870ce66541bd32a296f7b3", "type": "electric_scooter", "is_reserved": 0, "lon": -77.00121983333334}, {"fusion_lat": 0.0, "name": "685d089aa373b1538d00dfd1c166cd56", "is_disabled": 0, "rental_uris": {"android": "https://dc.lft.to/lastmile_qr_scan", "ios": "https://dc.lft.to/lastmile_qr_scan"}, "fusion_lon": 0.0, "lat": 38.91625533333333, "bike_id": "685d089aa373b1538d00dfd1c166cd56", "type": "electric_scooter", "is_reserved": 0, "lon": -77.04816533333333}, {"fusion_lat": 0.0, "name": "82c67d010cafdc815429057439d6d0cd", "is_disabled": 0, "rental_uris": {"android": "https://dc.lft.to/lastmile_qr_scan", "ios": "https://dc.lft.to/lastmile_qr_scan"}, "fusion_lon": 0.0, "lat": 38.901933166666666, "bike_id": "82c67d010cafdc815429057439d6d0cd", "type": "electric_scooter", "is_reserved": 0, "lon": -76.98844266666667}, {"fusion_lat": 0.0, "name": "e40573357efff256f1735ffefe0c84cd", "is_disabled": 0, "rental_uris": {"android": "https://dc.lft.to/lastmile_qr_scan", "ios": "https://dc.lft.to/lastmile_qr_scan"}, "fusion_lon": 0.0, "lat": 38.89158033333333, "bike_id": "e40573357efff256f1735ffefe0c84cd", "type": "electric_bike", "is_reserved": 0, "lon": -77.0047065}, {"fusion_lat": 0.0, "name": "53a4ea2aaabd1109650bc768b7be7733", "is_disabled": 0, "rental_uris": {"android": "https://dc.lft.to/lastmile_qr_scan", "ios": "https://dc.lft.to/lastmile_qr_scan"}, "fusion_lon": 0.0, "lat": 38.8812505, "bike_id": "53a4ea2aaabd1109650bc768b7be7733", "type": "electric_scooter", "is_reserved": 0, "lon": -76.99280166666667}, {"fusion_lat": 0.0, "name": "239e619c8f50d669305bcd528538b9cf", "is_disabled": 0, "rental_uris": {"android": "https://dc.lft.to/lastmile_qr_scan", "ios": "https://dc.lft.to/lastmile_qr_scan"}, "fusion_lon": 0.0, "lat": 38.94513283333333, "bike_id": "239e619c8f50d669305bcd528538b9cf", "type": "electric_bike", "is_reserved": 0, "lon": -77.0067595}, {"fusion_lat": 0.0, "name": "b58a1642577387315ed269a07b5e7035", "is_disabled": 0, "rental_uris": {"android": "https://dc.lft.to/lastmile_qr_scan", "ios": "https://dc.lft.to/lastmile_qr_scan"}, "fusion_lon": 0.0, "lat": 38.88987183333333, "bike_id": "b58a1642577387315ed269a07b5e7035", "type": "electric_scooter", "is_reserved": 0, "lon": -76.98415066666666}, {"fusion_lat": 0.0, "name": "d8f52736a781f7c24ea21890a579412f", "is_disabled": 0, "rental_uris": {"android": "https://dc.lft.to/lastmile_qr_scan", "ios": "https://dc.lft.to/lastmile_qr_scan"}, "fusion_lon": 0.0, "lat": 38.892233166666664, "bike_id": "d8f52736a781f7c24ea21890a579412f", "type": "electric_scooter", "is_reserved": 0, "lon": -77.04508016666666}, {"fusion_lat": 0.0, "name": "fc768f925f105cb981c8f18b0665389d", "is_disabled": 0, "rental_uris": {"android": "https://dc.lft.to/lastmile_qr_scan", "ios": "https://dc.lft.to/lastmile_qr_scan"}, "fusion_lon": 0.0, "lat": 38.927992333333336, "bike_id": "fc768f925f105cb981c8f18b0665389d", "type": "electric_scooter", "is_reserved": 0, "lon": -77.05525466666667}, {"fusion_lat": 0.0, "name": "3ba05b07ceeb0e2cec440737cf24e730", "is_disabled": 0, "rental_uris": {"android": "https://dc.lft.to/lastmile_qr_scan", "ios": "https://dc.lft.to/lastmile_qr_scan"}, "fusion_lon": 0.0, "lat": 38.8963155, "bike_id": "3ba05b07ceeb0e2cec440737cf24e730", "type": "electric_scooter", "is_reserved": 0, "lon": -77.00920783333333}, {"fusion_lat": 0.0, "name": "989a79c9d7fb9881d85e748d85f839c1", "is_disabled": 0, "rental_uris": {"android": "https://dc.lft.to/lastmile_qr_scan", "ios": "https://dc.lft.to/lastmile_qr_scan"}, "fusion_lon": 0.0, "lat": 38.90723166666667, "bike_id": "989a79c9d7fb9881d85e748d85f839c1", "type": "electric_scooter", "is_reserved": 0, "lon": -77.028167}, {"fusion_lat": 0.0, "name": "0ac4cb0c71bd957a2844c77076a460d5", "is_disabled": 0, "rental_uris": {"android": "https://dc.lft.to/lastmile_qr_scan", "ios": "https://dc.lft.to/lastmile_qr_scan"}, "fusion_lon": 0.0, "lat": 38.92058016666667, "bike_id": "0ac4cb0c71bd957a2844c77076a460d5", "type": "electric_scooter", "is_reserved": 0, "lon": -77.03248033333334}, {"fusion_lat": 0.0, "name": "b1c4a5e13258eda98fa4dd573fd1bb69", "is_disabled": 0, "rental_uris": {"android": "https://dc.lft.to/lastmile_qr_scan", "ios": "https://dc.lft.to/lastmile_qr_scan"}, "fusion_lon": 0.0, "lat": 38.856977, "bike_id": "b1c4a5e13258eda98fa4dd573fd1bb69", "type": "electric_scooter", "is_reserved": 0, "lon": -76.9959625}, {"fusion_lat": 0.0, "name": "1145c1b348e63dfa9e4d81fee0a8695b", "is_disabled": 0, "rental_uris": {"android": "https://dc.lft.to/lastmile_qr_scan", "ios": "https://dc.lft.to/lastmile_qr_scan"}, "fusion_lon": 0.0, "lat": 38.901756166666665, "bike_id": "1145c1b348e63dfa9e4d81fee0a8695b", "type": "electric_scooter", "is_reserved": 0, "lon": -77.02212833333333}, {"fusion_lat": 0.0, "name": "8fe8626485be3df488f9858d1322be25", "is_disabled": 0, "rental_uris": {"android": "https://dc.lft.to/lastmile_qr_scan", "ios": "https://dc.lft.to/lastmile_qr_scan"}, "fusion_lon": 0.0, "lat": 38.91572766666667, "bike_id": "8fe8626485be3df488f9858d1322be25", "type": "electric_scooter", "is_reserved": 0, "lon": -77.03784683333333}, {"fusion_lat": 0.0, "name": "fcbdd53b854b50eae278ac2c85498fa3", "is_disabled": 0, "rental_uris": {"android": "https://dc.lft.to/lastmile_qr_scan", "ios": "https://dc.lft.to/lastmile_qr_scan"}, "fusion_lon": 0.0, "lat": 38.90232233333333, "bike_id": "fcbdd53b854b50eae278ac2c85498fa3", "type": "electric_scooter", "is_reserved": 0, "lon": -77.02365116666667}, {"fusion_lat": 0.0, "name": "756aab232fbcdc2af28c8da444dd09e4", "is_disabled": 0, "rental_uris": {"android": "https://dc.lft.to/lastmile_qr_scan", "ios": "https://dc.lft.to/lastmile_qr_scan"}, "fusion_lon": 0.0, "lat": 38.93210066666666, "bike_id": "756aab232fbcdc2af28c8da444dd09e4", "type": "electric_scooter", "is_reserved": 0, "lon": -77.03350866666666}, {"fusion_lat": 0.0, "name": "dd8272eb8ce2cf5a0cdc17dabae685c1", "is_disabled": 0, "rental_uris": {"android": "https://dc.lft.to/lastmile_qr_scan", "ios": "https://dc.lft.to/lastmile_qr_scan"}, "fusion_lon": 0.0, "lat": 38.924882333333336, "bike_id": "dd8272eb8ce2cf5a0cdc17dabae685c1", "type": "electric_scooter", "is_reserved": 0, "lon": -77.02660016666667}, {"fusion_lat": 0.0, "name": "787ab0e1695c2e05ec088f5a0ac5b7b9", "is_disabled": 0, "rental_uris": {"android": "https://dc.lft.to/lastmile_qr_scan", "ios": "https://dc.lft.to/lastmile_qr_scan"}, "fusion_lon": 0.0, "lat": 38.885023, "bike_id": "787ab0e1695c2e05ec088f5a0ac5b7b9", "type": "electric_scooter", "is_reserved": 0, "lon": -77.0069885}, {"fusion_lat": 0.0, "name": "d8f80966baefd070bd9f2e03ced3df74", "is_disabled": 0, "rental_uris": {"android": "https://dc.lft.to/lastmile_qr_scan", "ios": "https://dc.lft.to/lastmile_qr_scan"}, "fusion_lon": 0.0, "lat": 38.925809, "bike_id": "d8f80966baefd070bd9f2e03ced3df74", "type": "electric_scooter", "is_reserved": 0, "lon": -77.03244666666667}, {"fusion_lat": 0.0, "name": "9db88384000dc5f522006da10529c827", "is_disabled": 0, "rental_uris": {"android": "https://dc.lft.to/lastmile_qr_scan", "ios": "https://dc.lft.to/lastmile_qr_scan"}, "fusion_lon": 0.0, "lat": 38.923376166666664, "bike_id": "9db88384000dc5f522006da10529c827", "type": "electric_scooter", "is_reserved": 0, "lon": -77.02445816666666}, {"fusion_lat": 0.0, "name": "45d9530c5b23468c1213845c5d92c54a", "is_disabled": 0, "rental_uris": {"android": "https://dc.lft.to/lastmile_qr_scan", "ios": "https://dc.lft.to/lastmile_qr_scan"}, "fusion_lon": 0.0, "lat": 38.865548833333335, "bike_id": "45d9530c5b23468c1213845c5d92c54a", "type": "electric_scooter", "is_reserved": 0, "lon": -76.98355333333333}, {"fusion_lat": 0.0, "name": "d05d0376d215a68511d93ce8c50ed1c9", "is_disabled": 0, "rental_uris": {"android": "https://dc.lft.to/lastmile_qr_scan", "ios": "https://dc.lft.to/lastmile_qr_scan"}, "fusion_lon": 0.0, "lat": 38.8972725, "bike_id": "d05d0376d215a68511d93ce8c50ed1c9", "type": "electric_scooter", "is_reserved": 0, "lon": -76.9470215}, {"fusion_lat": 0.0, "name": "17208d2b72de06b72744e0795d569f91", "is_disabled": 0, "rental_uris": {"android": "https://dc.lft.to/lastmile_qr_scan", "ios": "https://dc.lft.to/lastmile_qr_scan"}, "fusion_lon": 0.0, "lat": 38.907936166666666, "bike_id": "17208d2b72de06b72744e0795d569f91", "type": "electric_scooter", "is_reserved": 0, "lon": -77.01109233333334}, {"fusion_lat": 0.0, "name": "c6a791fb064d2a9712e4837aa2d93c08", "is_disabled": 0, "rental_uris": {"android": "https://dc.lft.to/lastmile_qr_scan", "ios": "https://dc.lft.to/lastmile_qr_scan"}, "fusion_lon": 0.0, "lat": 38.895550666666665, "bike_id": "c6a791fb064d2a9712e4837aa2d93c08", "type": "electric_scooter", "is_reserved": 0, "lon": -77.0274355}, {"fusion_lat": 0.0, "name": "a9440c8ff421b6227d70ecaebd1707e8", "is_disabled": 0, "rental_uris": {"android": "https://dc.lft.to/lastmile_qr_scan", "ios": "https://dc.lft.to/lastmile_qr_scan"}, "fusion_lon": 0.0, "lat": 38.88409816666667, "bike_id": "a9440c8ff421b6227d70ecaebd1707e8", "type": "electric_bike", "is_reserved": 0, "lon": -76.960603}, {"fusion_lat": 0.0, "name": "a097851847208a56d03cde10d3083794", "is_disabled": 0, "rental_uris": {"android": "https://dc.lft.to/lastmile_qr_scan", "ios": "https://dc.lft.to/lastmile_qr_scan"}, "fusion_lon": 0.0, "lat": 38.897826333333335, "bike_id": "a097851847208a56d03cde10d3083794", "type": "electric_scooter", "is_reserved": 0, "lon": -77.01071883333333}, {"fusion_lat": 0.0, "name": "b00fbc5866c560bcfb2ae458d352449a", "is_disabled": 0, "rental_uris": {"android": "https://dc.lft.to/lastmile_qr_scan", "ios": "https://dc.lft.to/lastmile_qr_scan"}, "fusion_lon": 0.0, "lat": 38.861349833333335, "bike_id": "b00fbc5866c560bcfb2ae458d352449a", "type": "electric_bike", "is_reserved": 0, "lon": -76.97173433333333}, {"fusion_lat": 0.0, "name": "63a22cd7d4cddca2eb57d218d03a6a56", "is_disabled": 0, "rental_uris": {"android": "https://dc.lft.to/lastmile_qr_scan", "ios": "https://dc.lft.to/lastmile_qr_scan"}, "fusion_lon": 0.0, "lat": 38.92656516666667, "bike_id": "63a22cd7d4cddca2eb57d218d03a6a56", "type": "electric_scooter", "is_reserved": 0, "lon": -77.02427416666667}, {"fusion_lat": 0.0, "name": "a49b2c1797e448dc98f5741acffc3fbd", "is_disabled": 0, "rental_uris": {"android": "https://dc.lft.to/lastmile_qr_scan", "ios": "https://dc.lft.to/lastmile_qr_scan"}, "fusion_lon": 0.0, "lat": 38.96602016666667, "bike_id": "a49b2c1797e448dc98f5741acffc3fbd", "type": "electric_bike", "is_reserved": 0, "lon": -77.02806783333334}, {"fusion_lat": 0.0, "name": "f85572f2502f898b8f0faead27435487", "is_disabled": 0, "rental_uris": {"android": "https://dc.lft.to/lastmile_qr_scan", "ios": "https://dc.lft.to/lastmile_qr_scan"}, "fusion_lon": 0.0, "lat": 38.94184966666667, "bike_id": "f85572f2502f898b8f0faead27435487", "type": "electric_scooter", "is_reserved": 0, "lon": -77.02406733333333}, {"fusion_lat": 0.0, "name": "6aa0aedf9eba515f97a078e8b9465a97", "is_disabled": 0, "rental_uris": {"android": "https://dc.lft.to/lastmile_qr_scan", "ios": "https://dc.lft.to/lastmile_qr_scan"}, "fusion_lon": 0.0, "lat": 38.910362, "bike_id": "6aa0aedf9eba515f97a078e8b9465a97", "type": "electric_scooter", "is_reserved": 0, "lon": -77.03835666666667}, {"fusion_lat": 0.0, "name": "62630f092732802c836f961dc78294f5", "is_disabled": 0, "rental_uris": {"android": "https://dc.lft.to/lastmile_qr_scan", "ios": "https://dc.lft.to/lastmile_qr_scan"}, "fusion_lon": 0.0, "lat": 38.902145166666664, "bike_id": "62630f092732802c836f961dc78294f5", "type": "electric_scooter", "is_reserved": 0, "lon": -76.9750825}, {"fusion_lat": 0.0, "name": "77cdc59c059dbfc8ede81c09a78f1826", "is_disabled": 0, "rental_uris": {"android": "https://dc.lft.to/lastmile_qr_scan", "ios": "https://dc.lft.to/lastmile_qr_scan"}, "fusion_lon": 0.0, "lat": 38.90031833333333, "bike_id": "77cdc59c059dbfc8ede81c09a78f1826", "type": "electric_scooter", "is_reserved": 0, "lon": -76.99255883333333}, {"fusion_lat": 0.0, "name": "aaf3828dab63c7e37985d9f722e03521", "is_disabled": 0, "rental_uris": {"android": "https://dc.lft.to/lastmile_qr_scan", "ios": "https://dc.lft.to/lastmile_qr_scan"}, "fusion_lon": 0.0, "lat": 38.904978, "bike_id": "aaf3828dab63c7e37985d9f722e03521", "type": "electric_scooter", "is_reserved": 0, "lon": -76.97956566666667},