{"data": {"bikes": [{"rental_uris": {"ios": "https://dc.lft.to/lastmile_qr_scan", "android": "https://dc.lft.to/lastmile_qr_scan"}, "lon": -77.02476566666667, "type": "electric_scooter", "fusion_lat": 0.0, "lat": 38.918154333333334, "name": "25eafed63fdc8780ba289eebae5dae0f", "fusion_lon": 0.0, "bike_id": "25eafed63fdc8780ba289eebae5dae0f", "is_disabled": 0, "is_reserved": 0}, {"rental_uris": {"ios": "https://dc.lft.to/lastmile_qr_scan", "android": "https://dc.lft.to/lastmile_qr_scan"}, "lon": -76.87828033333334, "type": "electric_bike", "fusion_lat": 0.0, "lat": 38.992379666666665, "name": "9fef041ad2ed75eb20d9c560dc724f62", "fusion_lon": 0.0, "bike_id": "9fef041ad2ed75eb20d9c560dc724f62", "is_disabled": 0, "is_reserved": 0}, {"rental_uris": {"ios": "https://dc.lft.to/lastmile_qr_scan", "android": "https://dc.lft.to/lastmile_qr_scan"}, "lon": -77.107065, "type": "electric_bike", "fusion_lat": 0.0, "lat": 38.855460666666666, "name": "11b0bd7b2b70796bd2a123503aacc742", "fusion_lon": 0.0, "bike_id": "11b0bd7b2b70796bd2a123503aacc742", "is_disabled": 0, "is_reserved": 0}, {"rental_uris": {"ios": "https://dc.lft.to/lastmile_qr_scan", "android": "https://dc.lft.to/lastmile_qr_scan"}, "lon": -76.94633583333334, "type": "electric_scooter", "fusion_lat": 0.0, "lat": 38.898318333333336, "name": "8c3da178b71a9a51ef893c122360aa55", "fusion_lon": 0.0, "bike_id": "8c3da178b71a9a51ef893c122360aa55", "is_disabled": 0, "is_reserved": 0}, {"rental_uris": {"ios": "https://dc.lft.to/lastmile_qr_scan", "android": "https://dc.lft.to/lastmile_qr_scan"}, "lon": -77.02139233333334, "type": "electric_bike", "fusion_lat": 0.0, "lat": 38.948049166666664, "name": "7b6260c6716b83813727e39cb6627007", "fusion_lon": 0.0, "bike_id": "7b6260c6716b83813727e39cb6627007", "is_disabled": 0, "is_reserved": 0}, {"rental_uris": {"ios": "https://dc.lft.to/lastmile_qr_scan", "android": "https://dc.lft.to/lastmile_qr_scan"}, "lon": -77.03783783333333, "type": "electric_scooter", "fusion_lat": 0.0, "lat": 38.92624466666667, "name": "4e42dd58df2ad603a94ec9eb788db702", "fusion_lon": 0.0, "bike_id": "4e42dd58df2ad603a94ec9eb788db702", "is_disabled": 0, "is_reserved": 0}, {"rental_uris": {"ios": "https://dc.lft.to/lastmile_qr_scan", "android": "https://dc.lft.to/lastmile_qr_scan"}, "lon": -76.97616416666666, "type": "electric_scooter", "fusion_lat": 0.0, "lat": 38.90384, "name": "9840a74318949d0da813b8944f593b71", "fusion_lon": 0.0, "bike_id": "9840a74318949d0da813b8944f593b71", "is_disabled": 0, "is_reserved": 0}, {"rental_uris": {"ios": "https://dc.lft.to/lastmile_qr_scan", "android": "https://dc.lft.to/lastmile_qr_scan"}, "lon": -76.97747883333334, "type": "electric_scooter", "fusion_lat": 0.0, "lat": 38.900107166666665, "name": "66f592da8774bd6c94b399cab0d14955", "fusion_lon": 0.0, "bike_id": "66f592da8774bd6c94b399cab0d14955", "is_disabled": 0, "is_reserved": 0}, {"rental_uris": {"ios": "https://dc.lft.to/lastmile_qr_scan", "android": "https://dc.lft.to/lastmile_qr_scan"}, "lon": -77.0384355, "type": "electric_scooter", "fusion_lat": 0.0, "lat": 38.9218205, "name": "0a14223442f03587a1d548fc9d20f27b", "fusion_lon": 0.0, "bike_id": "0a14223442f03587a1d548fc9d20f27b", "is_disabled": 0, "is_reserved": 0}, {"rental_uris": {"ios": "https://dc.lft.to/lastmile_qr_scan", "android": "https://dc.lft.to/lastmile_qr_scan"}, "lon": -77.05517783333333, "type": "electric_scooter", "fusion_lat": 0.0, "lat": 38.899310666666665, "name": "11d1f3edbba8d21fa213dbea8d00d110", "fusion_lon": 0.0, "bike_id": "11d1f3edbba8d21fa213dbea8d00d110", "is_disabled": 0, "is_reserved": 0}, {"rental_uris": {"ios": "https://dc.lft.to/lastmile_qr_scan", "android": "https://dc.lft.to/lastmile_qr_scan"}, "lon": -77.03486833333334, "type": "electric_scooter", "fusion_lat": 0.0, "lat": 38.91708633333333, "name": "684a2725cdf594f3cf763bafc8a81036", "fusion_lon": 0.0, "bike_id": "684a2725cdf594f3cf763bafc8a81036", "is_disabled": 0, "is_reserved": 0}, {"rental_uris": {"ios": "https://dc.lft.to/lastmile_qr_scan", "android": "https://dc.lft.to/lastmile_qr_scan"}, "lon": -77.03301716666667, "type": "electric_scooter", "fusion_lat": 0.0, "lat": 38.901472166666665, "name": "58988f6e7d8b146b3285bbd457443d1b", "fusion_lon": 0.0, "bike_id": "58988f6e7d8b146b3285bbd457443d1b", "is_disabled": 0, "is_reserved": 0}, {"rental_uris": {"ios": "https://dc.lft.to/lastmile_qr_scan", "android": "https://dc.lft.to/lastmile_qr_scan"}, "lon": -76.97821466666667, "type": "electric_scooter", "fusion_lat": 0.0, "lat": 38.89526566666667, "name": "c2de0d01596c0650177c19fa6a3714a2", "fusion_lon": 0.0, "bike_id": "c2de0d01596c0650177c19fa6a3714a2", "is_disabled": 0, "is_reserved": 0}, {"rental_uris": {"ios": "https://dc.lft.to/lastmile_qr_scan", "android": "https://dc.lft.to/lastmile_qr_scan"}, "lon": -76.99020833333333, "type": "electric_scooter", "fusion_lat": 0.0, "lat": 38.85867233333333, "name": "6620a9c8d516c1a7b66335ded5e38b74", "fusion_lon": 0.0, "bike_id": "6620a9c8d516c1a7b66335ded5e38b74", "is_disabled": 0, "is_reserved": 0}, {"rental_uris": {"ios": "https://dc.lft.to/lastmile_qr_scan", "android": "https://dc.lft.to/lastmile_qr_scan"}, "lon": -77.03997216666667, "type": "electric_scooter", "fusion_lat": 0.0, "lat": 38.90029233333333, "name": "194870b71b8be90d7c74fb08d7f0c957", "fusion_lon": 0.0, "bike_id": "194870b71b8be90d7c74fb08d7f0c957", "is_disabled": 0, "is_reserved": 0}, {"rental_uris": {"ios": "https://dc.lft.to/lastmile_qr_scan", "android": "https://dc.lft.to/lastmile_qr_scan"}, "lon": -77.017504, "type": "electric_scooter", "fusion_lat": 0.0, "lat": 38.905635833333335, "name": "38942885f2f3a6d4da846c464fff67ef", "fusion_lon": 0.0, "bike_id": "38942885f2f3a6d4da846c464fff67ef", "is_disabled": 0, "is_reserved": 0}, {"rental_uris": {"ios": "https://dc.lft.to/lastmile_qr_scan", "android": "https://dc.lft.to/lastmile_qr_scan"}, "lon": -77.06355166666667, "type": "electric_scooter", "fusion_lat": 0.0, "lat": 38.94450283333333, "name": "7d1371a19a4cc13c3dad1256946421f7", "fusion_lon": 0.0, "bike_id": "7d1371a19a4cc13c3dad1256946421f7", "is_disabled": 0, "is_reserved": 0}, {"rental_uris": {"ios": "https://dc.lft.to/lastmile_qr_scan", "android": "https://dc.lft.to/lastmile_qr_scan"}, "lon": -77.0386305, "type": "electric_scooter", "fusion_lat": 0.0, "lat": 38.90810583333333, "name": "78f30d3faecdc2165172566c5e18accd", "fusion_lon": 0.0, "bike_id": "78f30d3faecdc2165172566c5e18accd", "is_disabled": 0, "is_reserved": 0}, {"rental_uris": {"ios": "https://dc.lft.to/lastmile_qr_scan", "android": "https://dc.lft.to/lastmile_qr_scan"}, "lon": -77.03626683333333, "type": "electric_scooter", "fusion_lat": 0.0, "lat": 38.93741583333333, "name": "867001fcd0ed9db630fd9b77b366fd99", "fusion_lon": 0.0, "bike_id": "867001fcd0ed9db630fd9b77b366fd99", "is_disabled": 0, "is_reserved": 0}, {"rental_uris": {"ios": "https://dc.lft.to/lastmile_qr_scan", "android": "https://dc.lft.to/lastmile_qr_scan"}, "lon": -77.018591, "type": "electric_scooter", "fusion_lat": 0.0, "lat": 38.89260683333333, "name": "7ff3566afb969c66e607f7cdb8230e2e", "fusion_lon": 0.0, "bike_id": "7ff3566afb969c66e607f7cdb8230e2e", "is_disabled": 0, "is_reserved": 0}, {"rental_uris": {"ios": "https://dc.lft.to/lastmile_qr_scan", "android": "https://dc.lft.to/lastmile_qr_scan"}, "lon": -77.063787, "type": "electric_scooter", "fusion_lat": 0.0, "lat": 38.90508883333333, "name": "ba46fc7c83d046a959c6e6b216cb37dc", "fusion_lon": 0.0, "bike_id": "ba46fc7c83d046a959c6e6b216cb37dc", "is_disabled": 0, "is_reserved": 0}, {"rental_uris": {"ios": "https://dc.lft.to/lastmile_qr_scan", "android": "https://dc.lft.to/lastmile_qr_scan"}, "lon": -77.02549116666667, "type": "electric_scooter", "fusion_lat": 0.0, "lat": 38.892301833333335, "name": "ea0186a84fea1a743f0c9d51abe04928", "fusion_lon": 0.0, "bike_id": "ea0186a84fea1a743f0c9d51abe04928", "is_disabled": 0, "is_reserved": 0}, {"rental_uris": {"ios": "https://dc.lft.to/lastmile_qr_scan", "android": "https://dc.lft.to/lastmile_qr_scan"}, "lon": -77.004829, "type": "electric_scooter", "fusion_lat": 0.0, "lat": 38.911851666666664, "name": "3f9dc32c0854bf51ef4d863ace00aa4e", "fusion_lon": 0.0, "bike_id": "3f9dc32c0854bf51ef4d863ace00aa4e", "is_disabled": 0, "is_reserved": 0}, {"rental_uris": {"ios": "https://dc.lft.to/lastmile_qr_scan", "android": "https://dc.lft.to/lastmile_qr_scan"}, "lon": -77.00269716666666, "type": "electric_bike", "fusion_lat": 0.0, "lat": 38.912042166666666, "name": "83809df70776f009217a381f19cdbd14", "fusion_lon": 0.0, "bike_id": "83809df70776f009217a381f19cdbd14", "is_disabled": 0, "is_reserved": 0}, {"rental_uris": {"ios": "https://dc.lft.to/lastmile_qr_scan", "android": "https://dc.lft.to/lastmile_qr_scan"}, "lon": -77.04858433333334, "type": "electric_scooter", "fusion_lat": 0.0, "lat": 38.91971316666667, "name": "4c769976a4f2fabb6aba40c065141394", "fusion_lon": 0.0, "bike_id": "4c769976a4f2fabb6aba40c065141394", "is_disabled": 0, "is_reserved": 0}, {"rental_uris": {"ios": "https://dc.lft.to/lastmile_qr_scan", "android": "https://dc.lft.to/lastmile_qr_scan"}, "lon": -77.0198255, "type": "electric_scooter", "fusion_lat": 0.0, "lat": 38.89857166666667, "name": "d928b106cfbef621acb30491aecb2da5", "fusion_lon": 0.0, "bike_id": "d928b106cfbef621acb30491aecb2da5", "is_disabled": 0, "is_reserved": 0}, {"rental_uris": {"ios": "https://dc.lft.to/lastmile_qr_scan", "android": "https://dc.lft.to/lastmile_qr_scan"}, "lon": -77.18294116666667, "type": "electric_bike", "fusion_lat": 0.0, "lat": 38.883426166666666, "name": "109e3ed84674df5c017e7e9d4a02fd00", "fusion_lon": 0.0, "bike_id": "109e3ed84674df5c017e7e9d4a02fd00", "is_disabled": 0, "is_reserved": 0}, {"rental_uris": {"ios": "https://dc.lft.to/lastmile_qr_scan", "android": "https://dc.lft.to/lastmile_qr_scan"}, "lon": -77.03147633333333, "type": "electric_scooter", "fusion_lat": 0.0, "lat": 38.9140685, "name": "6c8f879fcd7ddd9e491fa3f279cfb03b", "fusion_lon": 0.0, "bike_id": "6c8f879fcd7ddd9e491fa3f279cfb03b", "is_disabled": 0, "is_reserved": 0}, {"rental_uris": {"ios": "https://dc.lft.to/lastmile_qr_scan", "android": "https://dc.lft.to/lastmile_qr_scan"}, "lon": -76.98992916666667, "type": "electric_scooter", "fusion_lat": 0.0, "lat": 38.903880666666666, "name": "0763f4611bb46969d56f1dd2d9512bd9", "fusion_lon": 0.0, "bike_id": "0763f4611bb46969d56f1dd2d9512bd9", "is_disabled": 0, "is_reserved": 0}, {"rental_uris": {"ios": "https://dc.lft.to/lastmile_qr_scan", "android": "https://dc.lft.to/lastmile_qr_scan"}, "lon": -77.01894966666667, "type": "electric_scooter", "fusion_lat": 0.0, "lat": 38.90354033333333, "name": "ecd4dce404aa68a9390a65207f3ff5ea", "fusion_lon": 0.0, "bike_id": "ecd4dce404aa68a9390a65207f3ff5ea", "is_disabled": 0, "is_reserved": 0}, {"rental_uris": {"ios": "https://dc.lft.to/lastmile_qr_scan", "android": "https://dc.lft.to/lastmile_qr_scan"}, "lon": -77.01023216666667, "type": "electric_scooter", "fusion_lat": 0.0, "lat": 38.91804883333333, "name": "2e4eedcb0be22842ca433a7dcb3dce25", "fusion_lon": 0.0, "bike_id": "2e4eedcb0be22842ca433a7dcb3dce25", "is_disabled": 0, "is_reserved": 0}, {"rental_uris": {"ios": "https://dc.lft.to/lastmile_qr_scan", "android": "https://dc.lft.to/lastmile_qr_scan"}, "lon": -77.037591, "type": "electric_scooter", "fusion_lat": 0.0, "lat": 38.912705333333335, "name": "092e4776b310c6c34b4242304941f795", "fusion_lon": 0.0, "bike_id": "092e4776b310c6c34b4242304941f795", "is_disabled": 0, "is_reserved": 0}, {"rental_uris": {"ios": "https://dc.lft.to/lastmile_qr_scan", "android": "https://dc.lft.to/lastmile_qr_scan"}, "lon": -76.99824733333334, "type": "electric_scooter", "fusion_lat": 0.0, "lat": 38.900429, "name": "fdde125935343d0693e4c832109d0b3e", "fusion_lon": 0.0, "bike_id": "fdde125935343d0693e4c832109d0b3e", "is_disabled": 0, "is_reserved": 0}, {"rental_uris": {"ios": "https://dc.lft.to/lastmile_qr_scan", "android": "https://dc.lft.to/lastmile_qr_scan"}, "lon": -77.05755833333333, "type": "electric_scooter", "fusion_lat": 0.0, "lat": 38.93419, "name": "5ab3ef49ae078c047bb61603e98ea2d7", "fusion_lon": 0.0, "bike_id": "5ab3ef49ae078c047bb61603e98ea2d7", "is_disabled": 0, "is_reserved": 0}, {"rental_uris": {"ios": "https://dc.lft.to/lastmile_qr_scan", "android": "https://dc.lft.to/lastmile_qr_scan"}, "lon": -77.03095733333333, "type": "electric_scooter", "fusion_lat": 0.0, "lat": 38.917048666666666, "name": "1e442c9e0af7efc498788731d0d6e30b", "fusion_lon": 0.0, "bike_id": "1e442c9e0af7efc498788731d0d6e30b", "is_disabled": 0, "is_reserved": 0}, {"rental_uris": {"ios": "https://dc.lft.to/lastmile_qr_scan", "android": "https://dc.lft.to/lastmile_qr_scan"}, "lon": -77.059281, "type": "electric_scooter", "fusion_lat": 0.0, "lat": 38.9095565, "name": "f5fe580b1bc97c4fdea819452af3380f", "fusion_lon": 0.0, "bike_id": "f5fe580b1bc97c4fdea819452af3380f", "is_disabled": 0, "is_reserved": 0}, {"rental_uris": {"ios": "https://dc.lft.to/lastmile_qr_scan", "android": "https://dc.lft.to/lastmile_qr_scan"}, "lon": -77.019918, "type": "electric_scooter", "fusion_lat": 0.0, "lat": 38.93781583333333, "name": "76ac530ce90010701ea2c9559ae0df2b", "fusion_lon": 0.0, "bike_id": "76ac530ce90010701ea2c9559ae0df2b", "is_disabled": 0, "is_reserved": 0}, {"rental_uris": {"ios": "https://dc.lft.to/lastmile_qr_scan", "android": "https://dc.lft.to/lastmile_qr_scan"}, "lon": -76.99549966666666, "type": "electric_scooter", "fusion_lat": 0.0, "lat": 38.862339, "name": "f19b66f7025b088bcc39e9710a61fb97", "fusion_lon": 0.0, "bike_id": "f19b66f7025b088bcc39e9710a61fb97", "is_disabled": 0, "is_reserved": 0}, {"rental_uris": {"ios": "https://dc.lft.to/lastmile_qr_scan", "android": "https://dc.lft.to/lastmile_qr_scan"}, "lon": -76.98303333333334, "type": "electric_scooter", "fusion_lat": 0.0, "lat": 38.899676, "name": "71bc63c31495a4fc1f408f57737df444", "fusion_lon": 0.0, "bike_id": "71bc63c31495a4fc1f408f57737df444", "is_disabled": 0, "is_reserved": 0}, {"rental_uris": {"ios": "https://dc.lft.to/lastmile_qr_scan", "android": "https://dc.lft.to/lastmile_qr_scan"}, "lon": -77.03466366666666, "type": "electric_scooter", "fusion_lat": 0.0, "lat": 38.93452216666667, "name": "944763c8e6d611fc50707a99158a369b", "fusion_lon": 0.0, "bike_id": "944763c8e6d611fc50707a99158a369b", "is_disabled": 0, "is_reserved": 0}, {"rental_uris": {"ios": "https://dc.lft.to/lastmile_qr_scan", "android": "https://dc.lft.to/lastmile_qr_scan"}, "lon": -76.99574883333334, "type": "electric_scooter", "fusion_lat": 0.0, "lat": 38.90031316666666, "name": "08d9738708d7ff583c56824de60e638f", "fusion_lon": 0.0, "bike_id": "08d9738708d7ff583c56824de60e638f", "is_disabled": 0, "is_reserved": 0}, {"rental_uris": {"ios": "https://dc.lft.to/lastmile_qr_scan", "android": "https://dc.lft.to/lastmile_qr_scan"}, "lon": -77.044885, "type": "electric_scooter", "fusion_lat": 0.0, "lat": 38.903398833333334, "name": "7f67429452fbf6984caa7b69cc949608", "fusion_lon": 0.0, "bike_id": "7f67429452fbf6984caa7b69cc949608", "is_disabled": 0, "is_reserved": 0}, {"rental_uris": {"ios": "https://dc.lft.to/lastmile_qr_scan", "android": "https://dc.lft.to/lastmile_qr_scan"}, "lon": -77.04201183333333, "type": "electric_scooter", "fusion_lat": 0.0, "lat": 38.91873416666667, "name": "a1b45a5a4a2d45fbf5b434add73f4d98", "fusion_lon": 0.0, "bike_id": "a1b45a5a4a2d45fbf5b434add73f4d98", "is_disabled": 0, "is_reserved": 0}, {"rental_uris": {"ios": "https://dc.lft.to/lastmile_qr_scan", "android": "https://dc.lft.to/lastmile_qr_scan"}, "lon": -76.9237085, "type": "electric_bike", "fusion_lat": 0.0, "lat": 38.88375166666667, "name": "490162d295506204b2984658574908e5", "fusion_lon": 0.0, "bike_id": "490162d295506204b2984658574908e5", "is_disabled": 0, "is_reserved": 0}, {"rental_uris": {"ios": "https://dc.lft.to/lastmile_qr_scan", "android": "https://dc.lft.to/lastmile_qr_scan"}, "lon": -77.01645316666666, "type": "electric_scooter", "fusion_lat": 0.0, "lat": 38.90383883333333, "name": "d25ace18c2ecc6d4e6c7ca9cd652dd3f", "fusion_lon": 0.0, "bike_id": "d25ace18c2ecc6d4e6c7ca9cd652dd3f", "is_disabled": 0, "is_reserved": 0}, {"rental_uris": {"ios": "https://dc.lft.to/lastmile_qr_scan", "android": "https://dc.lft.to/lastmile_qr_scan"}, "lon": -77.00813266666667, "type": "electric_scooter", "fusion_lat": 0.0, "lat": 38.905720333333335, "name": "b1d41048484af62766d7d55d634b152e", "fusion_lon": 0.0, "bike_id": "b1d41048484af62766d7d55d634b152e", "is_disabled": 0, "is_reserved": 0}, {"rental_uris": {"ios": "https://dc.lft.to/lastmile_qr_scan", "android": "https://dc.lft.to/lastmile_qr_scan"}, "lon": -76.97568483333333, "type": "electric_bike", "fusion_lat": 0.0, "lat": 38.925044, "name": "2805a5d34a3168dc4ef7f98b8f5dfa2a", "fusion_lon": 0.0, "bike_id": "2805a5d34a3168dc4ef7f98b8f5dfa2a", "is_disabled": 0, "is_reserved": 0}, {"rental_uris": {"ios": "https://dc.lft.to/lastmile_qr_scan", "android": "https://dc.lft.to/lastmile_qr_scan"}, "lon": -77.0431495, "type": "electric_scooter", "fusion_lat": 0.0, "lat": 38.908748, "name": "0e2285f8f213bcf2d97bf314080bdb88", "fusion_lon": 0.0, "bike_id": "0e2285f8f213bcf2d97bf314080bdb88", "is_disabled": 0, "is_reserved": 0}, {"rental_uris": {"ios": "https://dc.lft.to/lastmile_qr_scan", "android": "https://dc.lft.to/lastmile_qr_scan"}, "lon": -76.9958495, "type": "electric_scooter", "fusion_lat": 0.0, "lat": 38.9550205, "name": "f0f54db47645437e89d4cfcc34a27fef", "fusion_lon": 0.0, "bike_id": "f0f54db47645437e89d4cfcc34a27fef", "is_disabled": 0, "is_reserved": 0}, {"rental_uris": {"ios": "https://dc.lft.to/lastmile_qr_scan", "android": "https://dc.lft.to/lastmile_qr_scan"}, "lon": -76.93175533333333, "type": "electric_scooter", "fusion_lat": 0.0, "lat": 38.8988595, "name": "7f678bf789431c12477e39ac1c96a2d4", "fusion_lon": 0.0, "bike_id": "7f678bf789431c12477e39ac1c96a2d4", "is_disabled": 0, "is_reserved": 0}, {"rental_uris": {"ios": "https://dc.lft.to/lastmile_qr_scan", "android": "https://dc.lft.to/lastmile_qr_scan"}, "lon": -77.04507566666666, "type": "electric_scooter", "fusion_lat": 0.0, "lat": 38.91106716666667, "name": "5d1d0916074e506f859033d158005e62", "fusion_lon": 0.0, "bike_id": "5d1d0916074e506f859033d158005e62", "is_disabled": 0, "is_reserved": 0}, {"rental_uris": {"ios": "https://dc.lft.to/lastmile_qr_scan", "android": "https://dc.lft.to/lastmile_qr_scan"}, "lon": -77.07374533333333, "type": "electric_bike", "fusion_lat": 0.0, "lat": 38.96173433333333, "name": "6c6a96f31b96336b5f2c5e53edadbcf6", "fusion_lon": 0.0, "bike_id": "6c6a96f31b96336b5f2c5e53edadbcf6", "is_disabled": 0, "is_reserved": 0}, {"rental_uris": {"ios": "https://dc.lft.to/lastmile_qr_scan", "android": "https://dc.lft.to/lastmile_qr_scan"}, "lon": -77.02761533333333, "type": "electric_scooter", "fusion_lat": 0.0, "lat": 38.91345666666667, "name": "5f2251774dd217f6263b73df2ff86aa4", "fusion_lon": 0.0, "bike_id": "5f2251774dd217f6263b73df2ff86aa4", "is_disabled": 0, "is_reserved": 0}, {"rental_uris": {"ios": "https://dc.lft.to/lastmile_qr_scan", "android": "https://dc.lft.to/lastmile_qr_scan"}, "lon": -77.032676, "type": "electric_scooter", "fusion_lat": 0.0, "lat": 38.90719133333333, "name": "6e04eeffe31404d9daf8e1884fed374c", "fusion_lon": 0.0, "bike_id": "6e04eeffe31404d9daf8e1884fed374c", "is_disabled": 0, "is_reserved": 0}, {"rental_uris": {"ios": "https://dc.lft.to/lastmile_qr_scan", "android": "https://dc.lft.to/lastmile_qr_scan"}, "lon": -77.0437065, "type": "electric_scooter", "fusion_lat": 0.0, "lat": 38.92156466666667, "name": "e0b04a773318c7cb6b1380f377d7c912", "fusion_lon": 0.0, "bike_id": "e0b04a773318c7cb6b1380f377d7c912", "is_disabled": 0, "is_reserved": 0}, {"rental_uris": {"ios": "https://dc.lft.to/lastmile_qr_scan", "android": "https://dc.lft.to/lastmile_qr_scan"}, "lon": -77.051479, "type": "electric_scooter", "fusion_lat": 0.0, "lat": 38.902023666666665, "name": "a8dd8eb357af9f558b0636f731b85d11", "fusion_lon": 0.0, "bike_id": "a8dd8eb357af9f558b0636f731b85d11", "is_disabled": 0, "is_reserved": 0}, {"rental_uris": {"ios": "https://dc.lft.to/lastmile_qr_scan", "android": "https://dc.lft.to/lastmile_qr_scan"}, "lon": -77.0242735, "type": "electric_scooter", "fusion_lat": 0.0, "lat": 38.92052366666667, "name": "5c3c3b3f8f7f23ec49809e18c13075d4", "fusion_lon": 0.0, "bike_id": "5c3c3b3f8f7f23ec49809e18c13075d4", "is_disabled": 0, "is_reserved": 0}, {"rental_uris": {"ios": "https://dc.lft.to/lastmile_qr_scan", "android": "https://dc.lft.to/lastmile_qr_scan"}, "lon": -77.03824816666666, "type": "electric_scooter", "fusion_lat": 0.0, "lat": 38.920724, "name": "7352e5a41e021f1bdf378d7c5267bedc", "fusion_lon": 0.0, "bike_id": "7352e5a41e021f1bdf378d7c5267bedc", "is_disabled": 0, "is_reserved": 0}, {"rental_uris": {"ios": "https://dc.lft.to/lastmile_qr_scan", "android": "https://dc.lft.to/lastmile_qr_scan"}, "lon": -77.00259483333333, "type": "electric_scooter", "fusion_lat": 0.0, "lat": 38.91195666666667, "name": "346e3a907f498d87bb6d937c7693bd17", "fusion_lon": 0.0, "bike_id": "346e3a907f498d87bb6d937c7693bd17", "is_disabled": 0, "is_reserved": 0}, {"rental_uris": {"ios": "https://dc.lft.to/lastmile_qr_scan", "android": "https://dc.lft.to/lastmile_qr_scan"}, "lon": -77.01977483333333, "type": "electric_scooter", "fusion_lat": 0.0, "lat": 38.898685666666665, "name": "2c932ba48286b96b2d0000dfbe73a4bc", "fusion_lon": 0.0, "bike_id": "2c932ba48286b96b2d0000dfbe73a4bc", "is_disabled": 0, "is_reserved": 0}, {"rental_uris": {"ios": "https://dc.lft.to/lastmile_qr_scan", "android": "https://dc.lft.to/lastmile_qr_scan"}, "lon": -77.03061133333334, "type": "electric_scooter", "fusion_lat": 0.0, "lat": 38.88419483333333, "name": "0e7a8e3362a46a32934ed90bae7e839e", "fusion_lon": 0.0, "bike_id": "0e7a8e3362a46a32934ed90bae7e839e", "is_disabled": 0, "is_reserved": 0}, {"rental_uris": {"ios": "https://dc.lft.to/lastmile_qr_scan", "android": "https://dc.lft.to/lastmile_qr_scan"}, "lon": -77.09877433333334, "type": "electric_bike", "fusion_lat": 0.0, "lat": 38.947907666666666, "name": "c513eb23398730467c574d73ac56c8c1", "fusion_lon": 0.0, "bike_id": "c513eb23398730467c574d73ac56c8c1", "is_disabled": 0, "is_reserved": 0}, {"rental_uris": {"ios": "https://dc.lft.to/lastmile_qr_scan", "android": "https://dc.lft.to/lastmile_qr_scan"}, "lon": -77.02381233333334, "type": "electric_scooter", "fusion_lat": 0.0, "lat": 38.92066783333333, "name": "8867d8c3d4ebd2e5d1d49b2b67545b20", "fusion_lon": 0.0, "bike_id": "8867d8c3d4ebd2e5d1d49b2b67545b20", "is_disabled": 0, "is_reserved": 0}, {"rental_uris": {"ios": "https://dc.lft.to/lastmile_qr_scan", "android": "https://dc.lft.to/lastmile_qr_scan"}, "lon": -77.04789633333333, "type": "electric_scooter", "fusion_lat": 0.0, "lat": 38.89361916666667, "name": "9c2bd1c39200b8bf5293e1a099403147", "fusion_lon": 0.0, "bike_id": "9c2bd1c39200b8bf5293e1a099403147", "is_disabled": 0, "is_reserved": 0}, {"rental_uris": {"ios": "https://dc.lft.to/lastmile_qr_scan", "android": "https://dc.lft.to/lastmile_qr_scan"}, "lon": -76.991488, "type": "electric_scooter", "fusion_lat": 0.0, "lat": 38.8934595, "name": "f9d5a9eb1dd93ef7cc1963dec1ba7936", "fusion_lon": 0.0, "bike_id": "f9d5a9eb1dd93ef7cc1963dec1ba7936", "is_disabled": 0, "is_reserved": 0}, {"rental_uris": {"ios": "https://dc.lft.to/lastmile_qr_scan", "android": "https://dc.lft.to/lastmile_qr_scan"}, "lon": -76.97336266666667, "type": "electric_scooter", "fusion_lat": 0.0, "lat": 38.904817666666666, "name": "1a8991399a43883b4763c8a00656789f", "fusion_lon": 0.0, "bike_id": "1a8991399a43883b4763c8a00656789f", "is_disabled": 0, "is_reserved": 0}, {"rental_uris": {"ios": "https://dc.lft.to/lastmile_qr_scan", "android": "https://dc.lft.to/lastmile_qr_scan"}, "lon": -77.1089745, "type": "electric_bike", "fusion_lat": 0.0, "lat": 38.830389833333335, "name": "95c85a793c614495e627b094e412e53d", "fusion_lon": 0.0, "bike_id": "95c85a793c614495e627b094e412e53d", "is_disabled": 0, "is_reserved": 0}, {"rental_uris": {"ios": "https://dc.lft.to/lastmile_qr_scan", "android": "https://dc.lft.to/lastmile_qr_scan"}, "lon": -77.01101583333333, "type": "electric_bike", "fusion_lat": 0.0, "lat": 38.963061333333336, "name": "c5f7364f3644d916c241dd50befc4a6b", "fusion_lon": 0.0, "bike_id": "c5f7364f3644d916c241dd50befc4a6b", "is_disabled": 0, "is_reserved": 0}, {"rental_uris": {"ios": "https://dc.lft.to/lastmile_qr_scan", "android": "https://dc.lft.to/lastmile_qr_scan"}, "lon": -77.03355866666666, "type": "electric_scooter", "fusion_lat": 0.0, "lat": 38.9288885, "name": "a1391b7292d2e362cff8897362718d27", "fusion_lon": 0.0, "bike_id": "a1391b7292d2e362cff8897362718d27", "is_disabled": 0, "is_reserved": 0}, {"rental_uris": {"ios": "https://dc.lft.to/lastmile_qr_scan", "android": "https://dc.lft.to/lastmile_qr_scan"}, "lon": -77.03795616666666, "type": "electric_scooter", "fusion_lat": 0.0, "lat": 38.9302505, "name": "e7afa2dd3ce76a75af3b7c7d6027519b", "fusion_lon": 0.0, "bike_id": "e7afa2dd3ce76a75af3b7c7d6027519b", "is_disabled": 0, "is_reserved": 0}, {"rental_uris": {"ios": "https://dc.lft.to/lastmile_qr_scan", "android": "https://dc.lft.to/lastmile_qr_scan"}, "lon": -77.00135133333333, "type": "electric_scooter", "fusion_lat": 0.0, "lat": 38.904075166666665, "name": "7d84a5edc20f3e424dc175aee159fe90", "fusion_lon": 0.0, "bike_id": "7d84a5edc20f3e424dc175aee159fe90", "is_disabled": 0, "is_reserved": 0}, {"rental_uris": {"ios": "https://dc.lft.to/lastmile_qr_scan", "android": "https://dc.lft.to/lastmile_qr_scan"}, "lon": -77.04869683333334, "type": "electric_scooter", "fusion_lat": 0.0, "lat": 38.90529566666667, "name": "bcad2dc4ac611db9c6165fb839ad8fda", "fusion_lon": 0.0, "bike_id": "bcad2dc4ac611db9c6165fb839ad8fda", "is_disabled": 0, "is_reserved": 0}, {"rental_uris": {"ios": "https://dc.lft.to/lastmile_qr_scan", "android": "https://dc.lft.to/lastmile_qr_scan"}, "lon": -77.01786716666666, "type": "electric_scooter", "fusion_lat": 0.0, "lat": 38.90409916666667, "name": "e134c6243404a5d090e03833946f3c5f", "fusion_lon": 0.0, "bike_id": "e134c6243404a5d090e03833946f3c5f", "is_disabled": 0, "is_reserved": 0}, {"rental_uris": {"ios": "https://dc.lft.to/lastmile_qr_scan", "android": "https://dc.lft.to/lastmile_qr_scan"}, "lon": -76.94848666666667, "type": "electric_scooter", "fusion_lat": 0.0, "lat": 38.884126333333334, "name": "fb925d70d9a815e9465a1c07aa7b544c", "fusion_lon": 0.0, "bike_id": "fb925d70d9a815e9465a1c07aa7b544c", "is_disabled": 0, "is_reserved": 0}, {"rental_uris": {"ios": "https://dc.lft.to/lastmile_qr_scan", "android": "https://dc.lft.to/lastmile_qr_scan"}, "lon": -77.08043133333334, "type": "electric_bike", "fusion_lat": 0.0, "lat": 38.8484215, "name": "f4942570ffae53bf4743d341fac5a890", "fusion_lon": 0.0, "bike_id": "f4942570ffae53bf4743d341fac5a890", "is_disabled": 0, "is_reserved": 0}, {"rental_uris": {"ios": "https://dc.lft.to/lastmile_qr_scan", "android": "https://dc.lft.to/lastmile_qr_scan"}, "lon": -77.03345083333333, "type": "electric_scooter", "fusion_lat": 0.0, "lat": 38.903006, "name": "870a81220ccb8f949f20c53e225f1828", "fusion_lon": 0.0, "bike_id": "870a81220ccb8f949f20c53e225f1828", "is_disabled": 0, "is_reserved": 0}, {"rental_uris": {"ios": "https://dc.lft.to/lastmile_qr_scan", "android": "https://dc.lft.to/lastmile_qr_scan"}, "lon": -76.92879083333334, "type": "electric_scooter", "fusion_lat": 0.0, "lat": 38.884445, "name": "1cf465e13742ba2886e6db985ec9fa49", "fusion_lon": 0.0, "bike_id": "1cf465e13742ba2886e6db985ec9fa49", "is_disabled": 0, "is_reserved": 0}, {"rental_uris": {"ios": "https://dc.lft.to/lastmile_qr_scan", "android": "https://dc.lft.to/lastmile_qr_scan"}, "lon": -76.92786483333333, "type": "electric_scooter", "fusion_lat": 0.0, "lat": 38.883489833333336, "name": "38b60c4e727003bf6e87a647f01594f3", "fusion_lon": 0.0, "bike_id": "38b60c4e727003bf6e87a647f01594f3", "is_disabled": 0, "is_reserved": 0}, {"rental_uris": {"ios": "https://dc.lft.to/lastmile_qr_scan", "android": "https://dc.lft.to/lastmile_qr_scan"}, "lon": -77.04284833333334, "type": "electric_scooter", "fusion_lat": 0.0, "lat": 38.907362, "name": "6f79eb42fc87c3377b871f4ff3f15110", "fusion_lon": 0.0, "bike_id": "6f79eb42fc87c3377b871f4ff3f15110", "is_disabled": 0, "is_reserved": 0}, {"rental_uris": {"ios": "https://dc.lft.to/lastmile_qr_scan", "android": "https://dc.lft.to/lastmile_qr_scan"}, "lon": -77.02021016666667, "type": "electric_bike", "fusion_lat": 0.0, "lat": 38.937278, "name": "10e07a8bcf474fb5f473f990d1e3d8a8", "fusion_lon": 0.0, "bike_id": "10e07a8bcf474fb5f473f990d1e3d8a8", "is_disabled": 0, "is_reserved": 0}, {"rental_uris": {"ios": "https://dc.lft.to/lastmile_qr_scan", "android": "https://dc.lft.to/lastmile_qr_scan"}, "lon": -77.0354725, "type": "electric_scooter", "fusion_lat": 0.0, "lat": 38.90780483333333, "name": "313fb25990b0664ae4399e18ec92177f", "fusion_lon": 0.0, "bike_id": "313fb25990b0664ae4399e18ec92177f", "is_disabled": 0, "is_reserved": 0}, {"rental_uris": {"ios": "https://dc.lft.to/lastmile_qr_scan", "android": "https://dc.lft.to/lastmile_qr_scan"}, "lon": -77.048248, "type": "electric_scooter", "fusion_lat": 0.0, "lat": 38.90959133333333, "name": "507b14f5648f228fb8dc4b4d30baed76", "fusion_lon": 0.0, "bike_id": "507b14f5648f228fb8dc4b4d30baed76", "is_disabled": 0, "is_reserved": 0}, {"rental_uris": {"ios": "https://dc.lft.to/lastmile_qr_scan", "android": "https://dc.lft.to/lastmile_qr_scan"}, "lon": -76.98613416666667, "type": "electric_scooter", "fusion_lat": 0.0, "lat": 38.87840666666666, "name": "d6c85c8c11084af591883b7d7ab18bee", "fusion_lon": 0.0, "bike_id": "d6c85c8c11084af591883b7d7ab18bee", "is_disabled": 0, "is_reserved": 0}, {"rental_uris": {"ios": "https://dc.lft.to/lastmile_qr_scan", "android": "https://dc.lft.to/lastmile_qr_scan"}, "lon": -76.98512133333334, "type": "electric_scooter", "fusion_lat": 0.0, "lat": 38.90998583333333, "name": "9a8da9e628d3f67f6c669b810e0ec5f4", "fusion_lon": 0.0, "bike_id": "9a8da9e628d3f67f6c669b810e0ec5f4", "is_disabled": 0, "is_reserved": 0}, {"rental_uris": {"ios": "https://dc.lft.to/lastmile_qr_scan", "android": "https://dc.lft.to/lastmile_qr_scan"}, "lon": -76.956786, "type": "electric_bike", "fusion_lat": 0.0, "lat": 38.947287833333334, "name": "a9daeaabcdd10b0ec12788361bb029be", "fusion_lon": 0.0, "bike_id": "a9daeaabcdd10b0ec12788361bb029be", "is_disabled": 0, "is_reserved": 0}, {"rental_uris": {"ios": "https://dc.lft.to/lastmile_qr_scan", "android": "https://dc.lft.to/lastmile_qr_scan"}, "lon": -77.04569316666667, "type": "electric_scooter", "fusion_lat": 0.0, "lat": 38.910608, "name": "55b0c9cd22e0ee28a0eea17ddd86f863", "fusion_lon": 0.0, "bike_id": "55b0c9cd22e0ee28a0eea17ddd86f863", "is_disabled": 0, "is_reserved": 0}, {"rental_uris": {"ios": "https://dc.lft.to/lastmile_qr_scan", "android": "https://dc.lft.to/lastmile_qr_scan"}, "lon": -77.011113, "type": "electric_scooter", "fusion_lat": 0.0, "lat": 38.87085283333333, "name": "677d8cc84295cdfc1a75c6defa1f76d0", "fusion_lon": 0.0, "bike_id": "677d8cc84295cdfc1a75c6defa1f76d0", "is_disabled": 0, "is_reserved": 0}, {"rental_uris": {"ios": "https://dc.lft.to/lastmile_qr_scan", "android": "https://dc.lft.to/lastmile_qr_scan"}, "lon": -77.00337683333333, "type": "electric_bike", "fusion_lat": 0.0, "lat": 38.87658883333334, "name": "93294c3b4b4d8eb072cbcb12b0c42d00", "fusion_lon": 0.0, "bike_id": "93294c3b4b4d8eb072cbcb12b0c42d00", "is_disabled": 0, "is_reserved": 0}, {"rental_uris": {"ios": "https://dc.lft.to/lastmile_qr_scan", "android": "https://dc.lft.to/lastmile_qr_scan"}, "lon": -76.97409266666666, "type": "electric_scooter", "fusion_lat": 0.0, "lat": 38.9023695, "name": "162e4c2d5d5953d6ae1ab467c8067204", "fusion_lon": 0.0, "bike_id": "162e4c2d5d5953d6ae1ab467c8067204", "is_disabled": 0, "is_reserved": 0}, {"rental_uris": {"ios": "https://dc.lft.to/lastmile_qr_scan", "android": "https://dc.lft.to/lastmile_qr_scan"}, "lon": -77.03841033333333, "type": "electric_scooter", "fusion_lat": 0.0, "lat": 38.907533, "name": "f2aea594cc1ea1f58a6099d5149100e5", "fusion_lon": 0.0, "bike_id": "f2aea594cc1ea1f58a6099d5149100e5", "is_disabled": 0, "is_reserved": 0}, {"rental_uris": {"ios": "https://dc.lft.to/lastmile_qr_scan", "android": "https://dc.lft.to/lastmile_qr_scan"}, "lon": -77.03897883333333, "type": "electric_scooter", "fusion_lat": 0.0, "lat": 38.92235866666667, "name": "573f24fc2c06af7efc55a1d1c6c71322", "fusion_lon": 0.0, "bike_id": "573f24fc2c06af7efc55a1d1c6c71322", "is_disabled": 0, "is_reserved": 0}, {"rental_uris": {"ios": "https://dc.lft.to/lastmile_qr_scan", "android": "https://dc.lft.to/lastmile_qr_scan"}, "lon": -77.03179283333333, "type": "electric_scooter", "fusion_lat": 0.0, "lat": 38.893639666666665, "name": "368dfec734befa2f1539cad707c584a0", "fusion_lon": 0.0, "bike_id": "368dfec734befa2f1539cad707c584a0", "is_disabled": 0, "is_reserved": 0}, {"rental_uris": {"ios": "https://dc.lft.to/lastmile_qr_scan", "android": "https://dc.lft.to/lastmile_qr_scan"}, "lon": -76.99460233333333, "type": "electric_scooter", "fusion_lat": 0.0, "lat": 38.851630166666666, "name": "79ac3b756bf387ae43cc6dc565cc3be0", "fusion_lon": 0.0, "bike_id": "79ac3b756bf387ae43cc6dc565cc3be0", "is_disabled": 0, "is_reserved": 0}, {"rental_uris": {"ios": "https://dc.lft.to/lastmile_qr_scan", "android": "https://dc.lft.to/lastmile_qr_scan"}, "lon": -77.0341065, "type": "electric_scooter", "fusion_lat": 0.0, "lat": 38.924290666666664, "name": "3947251027a0cc88e47ba6f37755a4c2", "fusion_lon": 0.0, "bike_id": "3947251027a0cc88e47ba6f37755a4c2", "is_disabled": 0, "is_reserved": 0}, {"rental_uris": {"ios": "https://dc.lft.to/lastmile_qr_scan", "android": "https://dc.lft.to/lastmile_qr_scan"}, "lon": -76.93157466666666, "type": "electric_scooter", "fusion_lat": 0.0, "lat": 38.8987425, "name": "f3ddad78e6d05d468dbbcdb7795426f4", "fusion_lon": 0.0, "bike_id": "f3ddad78e6d05d468dbbcdb7795426f4", "is_disabled": 0, "is_reserved": 0}, {"rental_uris": {"ios": "https://dc.lft.to/lastmile_qr_scan", "android": "https://dc.lft.to/lastmile_qr_scan"}, "lon": -77.03974083333334, "type": "electric_scooter", "fusion_lat": 0.0, "lat": 38.90262283333333, "name": "ded62da827b7b0eb363561c2c5258de1", "fusion_lon": 0.0, "bike_id": "ded62da827b7b0eb363561c2c5258de1", "is_disabled": 0, "is_reserved": 0}, {"rental_uris": {"ios": "https://dc.lft.to/lastmile_qr_scan", "android": "https://dc.lft.to/lastmile_qr_scan"}, "lon": -77.03121716666666, "type": "electric_scooter", "fusion_lat": 0.0, "lat": 38.97373366666667, "name": "6aa567ac6cd3ac4eb3482c20cac4f547", "fusion_lon": 0.0, "bike_id": "6aa567ac6cd3ac4eb3482c20cac4f547", "is_disabled": 0, "is_reserved": 0}, {"rental_uris": {"ios": "https://dc.lft.to/lastmile_qr_scan", "android": "https://dc.lft.to/lastmile_qr_scan"}, "lon": -76.961741, "type": "electric_bike", "fusion_lat": 0.0, "lat": 38.918599, "name": "f16b7e3ac286a14ce6add7d9a4b2c014", "fusion_lon": 0.0, "bike_id": "f16b7e3ac286a14ce6add7d9a4b2c014", "is_disabled": 0, "is_reserved": 0}, {"rental_uris": {"ios": "https://dc.lft.to/lastmile_qr_scan", "android": "https://dc.lft.to/lastmile_qr_scan"}, "lon": -77.039229, "type": "electric_scooter", "fusion_lat": 0.0, "lat": 38.9174935, "name": "84ab075ae6f4b0bc5d6e2043a14d8bc3", "fusion_lon": 0.0, "bike_id": "84ab075ae6f4b0bc5d6e2043a14d8bc3", "is_disabled": 0, "is_reserved": 0}, {"rental_uris": {"ios": "https://dc.lft.to/lastmile_qr_scan", "android": "https://dc.lft.to/lastmile_qr_scan"}, "lon": -77.13094333333333, "type": "electric_bike", "fusion_lat": 0.0, "lat": 38.8616395, "name": "d231a78aa29ef1ec4833ec6618e42ba0", "fusion_lon": 0.0, "bike_id": "d231a78aa29ef1ec4833ec6618e42ba0", "is_disabled": 0, "is_reserved": 0}, {"rental_uris": {"ios": "https://dc.lft.to/lastmile_qr_scan", "android": "https://dc.lft.to/lastmile_qr_scan"}, "lon": -77.03766566666667, "type": "electric_scooter", "fusion_lat": 0.0, "lat": 38.925965166666664, "name": "deed83441e18681a17c9c705fb72ff50", "fusion_lon": 0.0, "bike_id": "deed83441e18681a17c9c705fb72ff50", "is_disabled": 0, "is_reserved": 0}, {"rental_uris": {"ios": "https://dc.lft.to/lastmile_qr_scan", "android": "https://dc.lft.to/lastmile_qr_scan"}, "lon": -77.05599, "type": "electric_scooter", "fusion_lat": 0.0, "lat": 38.936967333333335, "name": "dfa368cc135badbb8030995b4932bd8f", "fusion_lon": 0.0, "bike_id": "dfa368cc135badbb8030995b4932bd8f", "is_disabled": 0, "is_reserved": 0}, {"rental_uris": {"ios": "https://dc.lft.to/lastmile_qr_scan", "android": "https://dc.lft.to/lastmile_qr_scan"}, "lon": -77.04176066666666, "type": "electric_scooter", "fusion_lat": 0.0, "lat": 38.91853833333333, "name": "0c0b167472c6acf8482257b2d703a7d1", "fusion_lon": 0.0, "bike_id": "0c0b167472c6acf8482257b2d703a7d1", "is_disabled": 0, "is_reserved": 0}, {"rental_uris": {"ios": "https://dc.lft.to/lastmile_qr_scan", "android": "https://dc.lft.to/lastmile_qr_scan"}, "lon": -77.0471365, "type": "electric_scooter", "fusion_lat": 0.0, "lat": 38.9210525, "name": "1e2473c6e16783d3d169ef6ae13c30cc", "fusion_lon": 0.0, "bike_id": "1e2473c6e16783d3d169ef6ae13c30cc", "is_disabled": 0, "is_reserved": 0}, {"rental_uris": {"ios": "https://dc.lft.to/lastmile_qr_scan", "android": "https://dc.lft.to/lastmile_qr_scan"}, "lon": -77.0288595, "type": "electric_scooter", "fusion_lat": 0.0, "lat": 38.904631, "name": "ed7907267658c79f2505cd5a3d28467b", "fusion_lon": 0.0, "bike_id": "ed7907267658c79f2505cd5a3d28467b", "is_disabled": 0, "is_reserved": 0}, {"rental_uris": {"ios": "https://dc.lft.to/lastmile_qr_scan", "android": "https://dc.lft.to/lastmile_qr_scan"}, "lon": -77.032384, "type": "electric_scooter", "fusion_lat": 0.0, "lat": 38.89628916666667, "name": "bd2e56f6aa4a941659bb6718e8edef2e", "fusion_lon": 0.0, "bike_id": "bd2e56f6aa4a941659bb6718e8edef2e", "is_disabled": 0, "is_reserved": 0}, {"rental_uris": {"ios": "https://dc.lft.to/lastmile_qr_scan", "android": "https://dc.lft.to/lastmile_qr_scan"}, "lon": -77.09161516666667, "type": "electric_bike", "fusion_lat": 0.0, "lat": 38.96761933333333, "name": "4741c53349a42718638ae70e19bc4ae6", "fusion_lon": 0.0, "bike_id": "4741c53349a42718638ae70e19bc4ae6", "is_disabled": 0, "is_reserved": 0}, {"rental_uris": {"ios": "https://dc.lft.to/lastmile_qr_scan", "android": "https://dc.lft.to/lastmile_qr_scan"}, "lon": -77.024081, "type": "electric_bike", "fusion_lat": 0.0, "lat": 38.934593, "name": "bec33461631ae03c7ab2a41bcf307aef", "fusion_lon": 0.0, "bike_id": "bec33461631ae03c7ab2a41bcf307aef", "is_disabled": 0, "is_reserved": 0}, {"rental_uris": {"ios": "https://dc.lft.to/lastmile_qr_scan", "android": "https://dc.lft.to/lastmile_qr_scan"}, "lon": -77.01336066666667, "type": "electric_scooter", "fusion_lat": 0.0, "lat": 38.9660935, "name": "8c4a8057314c2e9f241c38ad8971f8da", "fusion_lon": 0.0, "bike_id": "8c4a8057314c2e9f241c38ad8971f8da", "is_disabled": 0, "is_reserved": 0}, {"rental_uris": {"ios": "https://dc.lft.to/lastmile_qr_scan", "android": "https://dc.lft.to/lastmile_qr_scan"}, "lon": -77.03781933333333, "type": "electric_scooter", "fusion_lat": 0.0, "lat": 38.9359475, "name": "8c4e619dab7135b3ead10c2ffac07b25", "fusion_lon": 0.0, "bike_id": "8c4e619dab7135b3ead10c2ffac07b25", "is_disabled": 0, "is_reserved": 0}, {"rental_uris": {"ios": "https://dc.lft.to/lastmile_qr_scan", "android": "https://dc.lft.to/lastmile_qr_scan"}, "lon": -77.0440615, "type": "electric_scooter", "fusion_lat": 0.0, "lat": 38.874299666666666, "name": "d33faa869029f8a1452e1f02ff6b8f7a", "fusion_lon": 0.0, "bike_id": "d33faa869029f8a1452e1f02ff6b8f7a", "is_disabled": 0, "is_reserved": 0}, {"rental_uris": {"ios": "https://dc.lft.to/lastmile_qr_scan", "android": "https://dc.lft.to/lastmile_qr_scan"}, "lon": -77.0233765, "type": "electric_scooter", "fusion_lat": 0.0, "lat": 38.88352966666667, "name": "ec8f540ccd7a68e793c7a8de99940acf", "fusion_lon": 0.0, "bike_id": "ec8f540ccd7a68e793c7a8de99940acf", "is_disabled": 0, "is_reserved": 0}, {"rental_uris": {"ios": "https://dc.lft.to/lastmile_qr_scan", "android": "https://dc.lft.to/lastmile_qr_scan"}, "lon": -77.0386255, "type": "electric_scooter", "fusion_lat": 0.0, "lat": 38.91341516666667, "name": "439e99a644fd7cfb33584cad3009cb6e", "fusion_lon": 0.0, "bike_id": "439e99a644fd7cfb33584cad3009cb6e", "is_disabled": 0, "is_reserved": 0}, {"rental_uris": {"ios": "https://dc.lft.to/lastmile_qr_scan", "android": "https://dc.lft.to/lastmile_qr_scan"}, "lon": -77.03876833333334, "type": "electric_scooter", "fusion_lat": 0.0, "lat": 38.92318916666667, "name": "556fb5ada5e6a0772115244b7861997b", "fusion_lon": 0.0, "bike_id": "556fb5ada5e6a0772115244b7861997b", "is_disabled": 0, "is_reserved": 0}, {"rental_uris": {"ios": "https://dc.lft.to/lastmile_qr_scan", "android": "https://dc.lft.to/lastmile_qr_scan"}, "lon": -77.0512235, "type": "electric_scooter", "fusion_lat": 0.0, "lat": 38.923582, "name": "6fe9da36309c574ce83d615021ef8163", "fusion_lon": 0.0, "bike_id": "6fe9da36309c574ce83d615021ef8163", "is_disabled": 0, "is_reserved": 0}, {"rental_uris": {"ios": "https://dc.lft.to/lastmile_qr_scan", "android": "https://dc.lft.to/lastmile_qr_scan"}, "lon": -77.04666283333333, "type": "electric_scooter", "fusion_lat": 0.0, "lat": 38.905559333333336, "name": "3825ecbd60778dbb0142f9f37dcc471f", "fusion_lon": 0.0, "bike_id": "3825ecbd60778dbb0142f9f37dcc471f", "is_disabled": 0, "is_reserved": 0}, {"rental_uris": {"ios": "https://dc.lft.to/lastmile_qr_scan", "android": "https://dc.lft.to/lastmile_qr_scan"}, "lon": -77.00135683333333, "type": "electric_scooter", "fusion_lat": 0.0, "lat": 38.90421833333333, "name": "1b14d0826f6d6afcfb2cc16ea21e8617", "fusion_lon": 0.0, "bike_id": "1b14d0826f6d6afcfb2cc16ea21e8617", "is_disabled": 0, "is_reserved": 0}, {"rental_uris": {"ios": "https://dc.lft.to/lastmile_qr_scan", "android": "https://dc.lft.to/lastmile_qr_scan"}, "lon": -77.00587866666666, "type": "electric_scooter", "fusion_lat": 0.0, "lat": 38.905537, "name": "dcdf78b103815909c356610919a19389", "fusion_lon": 0.0, "bike_id": "dcdf78b103815909c356610919a19389", "is_disabled": 0, "is_reserved": 0}, {"rental_uris": {"ios": "https://dc.lft.to/lastmile_qr_scan", "android": "https://dc.lft.to/lastmile_qr_scan"}, "lon": -76.99937516666667, "type": "electric_scooter", "fusion_lat": 0.0, "lat": 38.89617116666667, "name": "33153b38d696420bc1bf0c4d190b1309", "fusion_lon": 0.0, "bike_id": "33153b38d696420bc1bf0c4d190b1309", "is_disabled": 0, "is_reserved": 0}, {"rental_uris": {"ios": "https://dc.lft.to/lastmile_qr_scan", "android": "https://dc.lft.to/lastmile_qr_scan"}, "lon": -77.01971383333333, "type": "electric_scooter", "fusion_lat": 0.0, "lat": 38.87845, "name": "f250f40271bc2857b87fdd8ad650a91f", "fusion_lon": 0.0, "bike_id": "f250f40271bc2857b87fdd8ad650a91f", "is_disabled": 0, "is_reserved": 0}, {"rental_uris": {"ios": "https://dc.lft.to/lastmile_qr_scan", "android": "https://dc.lft.to/lastmile_qr_scan"}, "lon": -77.02122966666667, "type": "electric_scooter", "fusion_lat": 0.0, "lat": 38.914193, "name": "6291451a0b3ff5d5102d95e128181a00", "fusion_lon": 0.0, "bike_id": "6291451a0b3ff5d5102d95e128181a00", "is_disabled": 0, "is_reserved": 0}, {"rental_uris": {"ios": "https://dc.lft.to/lastmile_qr_scan", "android": "https://dc.lft.to/lastmile_qr_scan"}, "lon": -77.07150833333333, "type": "electric_scooter", "fusion_lat": 0.0, "lat": 38.90742916666667, "name": "49172a76df25139cde98672fceafaac2", "fusion_lon": 0.0, "bike_id": "49172a76df25139cde98672fceafaac2", "is_disabled": 0, "is_reserved": 0}, {"rental_uris": {"ios": "https://dc.lft.to/lastmile_qr_scan", "android": "https://dc.lft.to/lastmile_qr_scan"}, "lon": -77.0472285, "type": "electric_scooter", "fusion_lat": 0.0, "lat": 38.909608, "name": "e02884930580493cbeda98933181e1f3", "fusion_lon": 0.0, "bike_id": "e02884930580493cbeda98933181e1f3", "is_disabled": 0, "is_reserved": 0}, {"rental_uris": {"ios": "https://dc.lft.to/lastmile_qr_scan", "android": "https://dc.lft.to/lastmile_qr_scan"}, "lon": -76.9649495, "type": "electric_bike", "fusion_lat": 0.0, "lat": 38.87555033333334, "name": "30c91b879efd8cbde567c14314e95551", "fusion_lon": 0.0, "bike_id": "30c91b879efd8cbde567c14314e95551", "is_disabled": 0, "is_reserved": 0}, {"rental_uris": {"ios": "https://dc.lft.to/lastmile_qr_scan", "android": "https://dc.lft.to/lastmile_qr_scan"}, "lon": -76.95207, "type": "electric_bike", "fusion_lat": 0.0, "lat": 38.93670133333333, "name": "92f9f4aff30a8068e436731b26244fb0", "fusion_lon": 0.0, "bike_id": "92f9f4aff30a8068e436731b26244fb0", "is_disabled": 0, "is_reserved": 0}, {"rental_uris": {"ios": "https://dc.lft.to/lastmile_qr_scan", "android": "https://dc.lft.to/lastmile_qr_scan"}, "lon": -77.03198516666667, "type": "electric_scooter", "fusion_lat": 0.0, "lat": 38.91632966666667, "name": "a6cc6e3a393729611cb5f4adad0294f8", "fusion_lon": 0.0, "bike_id": "a6cc6e3a393729611cb5f4adad0294f8", "is_disabled": 0, "is_reserved": 0}, {"rental_uris": {"ios": "https://dc.lft.to/lastmile_qr_scan", "android": "https://dc.lft.to/lastmile_qr_scan"}, "lon": -76.93183466666666, "type": "electric_scooter", "fusion_lat": 0.0, "lat": 38.89875766666667, "name": "591c41f5005c776417d4b9152b78c0e0", "fusion_lon": 0.0, "bike_id": "591c41f5005c776417d4b9152b78c0e0", "is_disabled": 0, "is_reserved": 0}, {"rental_uris": {"ios": "https://dc.lft.to/lastmile_qr_scan", "android": "https://dc.lft.to/lastmile_qr_scan"}, "lon": -77.00869283333333, "type": "electric_scooter", "fusion_lat": 0.0, "lat": 38.911765, "name": "879314ab831178555f12e0a39c18cef9", "fusion_lon": 0.0, "bike_id": "879314ab831178555f12e0a39c18cef9", "is_disabled": 0, "is_reserved": 0}, {"rental_uris": {"ios": "https://dc.lft.to/lastmile_qr_scan", "android": "https://dc.lft.to/lastmile_qr_scan"}, "lon": -77.0343065, "type": "electric_scooter", "fusion_lat": 0.0, "lat": 38.9183355, "name": "5be7991eeb935bc5460f9941e0084a71", "fusion_lon": 0.0, "bike_id": "5be7991eeb935bc5460f9941e0084a71", "is_disabled": 0, "is_reserved": 0}, {"rental_uris": {"ios": "https://dc.lft.to/lastmile_qr_scan", "android": "https://dc.lft.to/lastmile_qr_scan"}, "lon": -77.01302633333333, "type": "electric_scooter", "fusion_lat": 0.0, "lat": 38.912669666666666, "name": "f6087b815c6178b7248a50acbe60d192", "fusion_lon": 0.0, "bike_id": "f6087b815c6178b7248a50acbe60d192", "is_disabled": 0, "is_reserved": 0}, {"rental_uris": {"ios": "https://dc.lft.to/lastmile_qr_scan", "android": "https://dc.lft.to/lastmile_qr_scan"}, "lon": -77.02559333333333, "type": "electric_scooter", "fusion_lat": 0.0, "lat": 38.939815333333335, "name": "affc3235bfe9195215da360c17be5978", "fusion_lon": 0.0, "bike_id": "affc3235bfe9195215da360c17be5978", "is_disabled": 0, "is_reserved": 0}, {"rental_uris": {"ios": "https://dc.lft.to/lastmile_qr_scan", "android": "https://dc.lft.to/lastmile_qr_scan"}, "lon": -77.044337, "type": "electric_scooter", "fusion_lat": 0.0, "lat": 38.9057785, "name": "754e8c316652b1ab4e3e55a0e020c66b", "fusion_lon": 0.0, "bike_id": "754e8c316652b1ab4e3e55a0e020c66b", "is_disabled": 0, "is_reserved": 0}, {"rental_uris": {"ios": "https://dc.lft.to/lastmile_qr_scan", "android": "https://dc.lft.to/lastmile_qr_scan"}, "lon": -77.03855566666667, "type": "electric_scooter", "fusion_lat": 0.0, "lat": 38.91240766666667, "name": "65a59ef3544d60162a8aaa8b591d63dd", "fusion_lon": 0.0, "bike_id": "65a59ef3544d60162a8aaa8b591d63dd", "is_disabled": 0, "is_reserved": 0}, {"rental_uris": {"ios": "https://dc.lft.to/lastmile_qr_scan", "android": "https://dc.lft.to/lastmile_qr_scan"}, "lon": -77.04038583333333, "type": "electric_scooter", "fusion_lat": 0.0, "lat": 38.924339833333335, "name": "68f8611c2f89f18461ccca413ee8ff78", "fusion_lon": 0.0, "bike_id": "68f8611c2f89f18461ccca413ee8ff78", "is_disabled": 0, "is_reserved": 0}, {"rental_uris": {"ios": "https://dc.lft.to/lastmile_qr_scan", "android": "https://dc.lft.to/lastmile_qr_scan"}, "lon": -77.04405, "type": "electric_scooter", "fusion_lat": 0.0, "lat": 38.9091235, "name": "b0feebef1f519e010fcd2b4ebac4b407", "fusion_lon": 0.0, "bike_id": "b0feebef1f519e010fcd2b4ebac4b407", "is_disabled": 0, "is_reserved": 0}, {"rental_uris": {"ios": "https://dc.lft.to/lastmile_qr_scan", "android": "https://dc.lft.to/lastmile_qr_scan"}, "lon": -77.04337483333333, "type": "electric_scooter", "fusion_lat": 0.0, "lat": 38.89669683333334, "name": "f05a97f119fe297e218fad665e77e2d4", "fusion_lon": 0.0, "bike_id": "f05a97f119fe297e218fad665e77e2d4", "is_disabled": 0, "is_reserved": 0}, {"rental_uris": {"ios": "https://dc.lft.to/lastmile_qr_scan", "android": "https://dc.lft.to/lastmile_qr_scan"}, "lon": -77.04451283333333, "type": "electric_scooter", "fusion_lat": 0.0, "lat": 38.919341833333334, "name": "d457374f7fef3a72924b08ab543052cc", "fusion_lon": 0.0, "bike_id": "d457374f7fef3a72924b08ab543052cc", "is_disabled": 0, "is_reserved": 0}, {"rental_uris": {"ios": "https://dc.lft.to/lastmile_qr_scan", "android": "https://dc.lft.to/lastmile_qr_scan"}, "lon": -77.03813716666667, "type": "electric_scooter", "fusion_lat": 0.0, "lat": 38.9068285, "name": "db6d8a091d681294d4affb8e529175b4", "fusion_lon": 0.0, "bike_id": "db6d8a091d681294d4affb8e529175b4", "is_disabled": 0, "is_reserved": 0}, {"rental_uris": {"ios": "https://dc.lft.to/lastmile_qr_scan", "android": "https://dc.lft.to/lastmile_qr_scan"}, "lon": -77.03327333333333, "type": "electric_scooter", "fusion_lat": 0.0, "lat": 38.89851, "name": "d4b3f79c034b5da3540b72b28dacac99", "fusion_lon": 0.0, "bike_id": "d4b3f79c034b5da3540b72b28dacac99", "is_disabled": 0, "is_reserved": 0}, {"rental_uris": {"ios": "https://dc.lft.to/lastmile_qr_scan", "android": "https://dc.lft.to/lastmile_qr_scan"}, "lon": -77.0308225, "type": "electric_scooter", "fusion_lat": 0.0, "lat": 38.89982066666666, "name": "85af7179b4217000f46e8ab54717a804", "fusion_lon": 0.0, "bike_id": "85af7179b4217000f46e8ab54717a804", "is_disabled": 0, "is_reserved": 0}, {"rental_uris": {"ios": "https://dc.lft.to/lastmile_qr_scan", "android": "https://dc.lft.to/lastmile_qr_scan"}, "lon": -77.05129566666666, "type": "electric_scooter", "fusion_lat": 0.0, "lat": 38.90534, "name": "1c188a27ef82513951ed1b3af4e71daa", "fusion_lon": 0.0, "bike_id": "1c188a27ef82513951ed1b3af4e71daa", "is_disabled": 0, "is_reserved": 0}, {"rental_uris": {"ios": "https://dc.lft.to/lastmile_qr_scan", "android": "https://dc.lft.to/lastmile_qr_scan"}, "lon": -77.03790966666666, "type": "electric_scooter", "fusion_lat": 0.0, "lat": 38.91213616666667, "name": "09461edbf4622903585799f6bebbd7b2", "fusion_lon": 0.0, "bike_id": "09461edbf4622903585799f6bebbd7b2", "is_disabled": 0, "is_reserved": 0}, {"rental_uris": {"ios": "https://dc.lft.to/lastmile_qr_scan", "android": "https://dc.lft.to/lastmile_qr_scan"}, "lon": -77.027254, "type": "electric_scooter", "fusion_lat": 0.0, "lat": 38.93790533333333, "name": "5b5323af5352a19ad45a903c9561664e", "fusion_lon": 0.0, "bike_id": "5b5323af5352a19ad45a903c9561664e", "is_disabled": 0, "is_reserved": 0}, {"rental_uris": {"ios": "https://dc.lft.to/lastmile_qr_scan", "android": "https://dc.lft.to/lastmile_qr_scan"}, "lon": -77.06401516666666, "type": "electric_scooter", "fusion_lat": 0.0, "lat": 38.9083565, "name": "c2b2ff6821a11334e96b15930407eb3a", "fusion_lon": 0.0, "bike_id": "c2b2ff6821a11334e96b15930407eb3a", "is_disabled": 0, "is_reserved": 0}, {"rental_uris": {"ios": "https://dc.lft.to/lastmile_qr_scan", "android": "https://dc.lft.to/lastmile_qr_scan"}, "lon": -77.0193655, "type": "electric_scooter", "fusion_lat": 0.0, "lat": 38.94924133333333, "name": "980c1f587165428f1aa6f0b02b098509", "fusion_lon": 0.0, "bike_id": "980c1f587165428f1aa6f0b02b098509", "is_disabled": 0, "is_reserved": 0}, {"rental_uris": {"ios": "https://dc.lft.to/lastmile_qr_scan", "android": "https://dc.lft.to/lastmile_qr_scan"}, "lon": -77.0386315, "type": "electric_scooter", "fusion_lat": 0.0, "lat": 38.91558, "name": "7c6687b9e9b235c67ceb00e73ff295f9", "fusion_lon": 0.0, "bike_id": "7c6687b9e9b235c67ceb00e73ff295f9", "is_disabled": 0, "is_reserved": 0}, {"rental_uris": {"ios": "https://dc.lft.to/lastmile_qr_scan", "android": "https://dc.lft.to/lastmile_qr_scan"}, "lon": -77.03174883333334, "type": "electric_scooter", "fusion_lat": 0.0, "lat": 38.91926016666667, "name": "b983a279e0481fc59a2d8c6482a9178a", "fusion_lon": 0.0, "bike_id": "b983a279e0481fc59a2d8c6482a9178a", "is_disabled": 0, "is_reserved": 0}, {"rental_uris": {"ios": "https://dc.lft.to/lastmile_qr_scan", "android": "https://dc.lft.to/lastmile_qr_scan"}, "lon": -77.02983616666667, "type": "electric_scooter", "fusion_lat": 0.0, "lat": 38.90898383333333, "name": "d0585127ba4fc9993ec541cf46f41e0f", "fusion_lon": 0.0, "bike_id": "d0585127ba4fc9993ec541cf46f41e0f", "is_disabled": 0, "is_reserved": 0}, {"rental_uris": {"ios": "https://dc.lft.to/lastmile_qr_scan", "android": "https://dc.lft.to/lastmile_qr_scan"}, "lon": -76.99661166666667, "type": "electric_scooter", "fusion_lat": 0.0, "lat": 38.932376833333336, "name": "db2cd8d2f633b41c92b53d02838aebbe", "fusion_lon": 0.0, "bike_id": "db2cd8d2f633b41c92b53d02838aebbe", "is_disabled": 0, "is_reserved": 0}, {"rental_uris": {"ios": "https://dc.lft.to/lastmile_qr_scan", "android": "https://dc.lft.to/lastmile_qr_scan"}, "lon": -77.021717, "type": "electric_bike", "fusion_lat": 0.0, "lat": 38.883474666666665, "name": "24b51724c1a2e3e88cb6a86b93dbf3f3", "fusion_lon": 0.0, "bike_id": "24b51724c1a2e3e88cb6a86b93dbf3f3", "is_disabled": 0, "is_reserved": 0}, {"rental_uris": {"ios": "https://dc.lft.to/lastmile_qr_scan", "android": "https://dc.lft.to/lastmile_qr_scan"}, "lon": -77.08201583333333, "type": "electric_bike", "fusion_lat": 0.0, "lat": 38.922031833333335, "name": "6a016849c802c6c9cd503936a76edbd1", "fusion_lon": 0.0, "bike_id": "6a016849c802c6c9cd503936a76edbd1", "is_disabled": 0, "is_reserved": 0}, {"rental_uris": {"ios": "https://dc.lft.to/lastmile_qr_scan", "android": "https://dc.lft.to/lastmile_qr_scan"}, "lon": -77.05680966666667, "type": "electric_scooter", "fusion_lat": 0.0, "lat": 38.923299166666666, "name": "3be456582738194c334665a6a107ec00", "fusion_lon": 0.0, "bike_id": "3be456582738194c334665a6a107ec00", "is_disabled": 0, "is_reserved": 0}, {"rental_uris": {"ios": "https://dc.lft.to/lastmile_qr_scan", "android": "https://dc.lft.to/lastmile_qr_scan"}, "lon": -76.97954983333334, "type": "electric_scooter", "fusion_lat": 0.0, "lat": 38.9037895, "name": "a51dfe5bb51b8939215f886b800f6815", "fusion_lon": 0.0, "bike_id": "a51dfe5bb51b8939215f886b800f6815", "is_disabled": 0, "is_reserved": 0}, {"rental_uris": {"ios": "https://dc.lft.to/lastmile_qr_scan", "android": "https://dc.lft.to/lastmile_qr_scan"}, "lon": -77.02872216666667, "type": "electric_scooter", "fusion_lat": 0.0, "lat": 38.9073885, "name": "c444de6de0a40fffbe16621cca8e0651", "fusion_lon": 0.0, "bike_id": "c444de6de0a40fffbe16621cca8e0651", "is_disabled": 0, "is_reserved": 0}, {"rental_uris": {"ios": "https://dc.lft.to/lastmile_qr_scan", "android": "https://dc.lft.to/lastmile_qr_scan"}, "lon": -77.03187733333333, "type": "electric_scooter", "fusion_lat": 0.0, "lat": 38.915907833333335, "name": "0b8735853c42ce125b7972c1ad5e90fc", "fusion_lon": 0.0, "bike_id": "0b8735853c42ce125b7972c1ad5e90fc", "is_disabled": 0, "is_reserved": 0}, {"rental_uris": {"ios": "https://dc.lft.to/lastmile_qr_scan", "android": "https://dc.lft.to/lastmile_qr_scan"}, "lon": -77.03281383333334, "type": "electric_scooter", "fusion_lat": 0.0, "lat": 38.93984716666667, "name": "6eaa1b6a25f48f4477c97fdf72edd093", "fusion_lon": 0.0, "bike_id": "6eaa1b6a25f48f4477c97fdf72edd093", "is_disabled": 0, "is_reserved": 0}, {"rental_uris": {"ios": "https://dc.lft.to/lastmile_qr_scan", "android": "https://dc.lft.to/lastmile_qr_scan"}, "lon": -77.03265566666667, "type": "electric_scooter", "fusion_lat": 0.0, "lat": 38.947847833333334, "name": "f9bc9ae27efc44945d6c0ac6566f7e60", "fusion_lon": 0.0, "bike_id": "f9bc9ae27efc44945d6c0ac6566f7e60", "is_disabled": 0, "is_reserved": 0}, {"rental_uris": {"ios": "https://dc.lft.to/lastmile_qr_scan", "android": "https://dc.lft.to/lastmile_qr_scan"}, "lon": -76.98688533333333, "type": "electric_scooter", "fusion_lat": 0.0, "lat": 38.882145, "name": "cd3e2087bde349dcf6663684c76d86f8", "fusion_lon": 0.0, "bike_id": "cd3e2087bde349dcf6663684c76d86f8", "is_disabled": 0, "is_reserved": 0}, {"rental_uris": {"ios": "https://dc.lft.to/lastmile_qr_scan", "android": "https://dc.lft.to/lastmile_qr_scan"}, "lon": -77.033456, "type": "electric_scooter", "fusion_lat": 0.0, "lat": 38.885085, "name": "db84fc726421531e067169d7c063be61", "fusion_lon": 0.0, "bike_id": "db84fc726421531e067169d7c063be61", "is_disabled": 0, "is_reserved": 0}, {"rental_uris": {"ios": "https://dc.lft.to/lastmile_qr_scan", "android": "https://dc.lft.to/lastmile_qr_scan"}, "lon": -77.0952565, "type": "electric_bike", "fusion_lat": 0.0, "lat": 38.838112333333335, "name": "f375e41205f6b48504d6e811a36260bb", "fusion_lon": 0.0, "bike_id": "f375e41205f6b48504d6e811a36260bb", "is_disabled": 0, "is_reserved": 0}, {"rental_uris": {"ios": "https://dc.lft.to/lastmile_qr_scan", "android": "https://dc.lft.to/lastmile_qr_scan"}, "lon": -77.05593066666667, "type": "electric_scooter", "fusion_lat": 0.0, "lat": 38.92778833333333, "name": "ed0428bf8380dd3bdd1f168ba4cefb4d", "fusion_lon": 0.0, "bike_id": "ed0428bf8380dd3bdd1f168ba4cefb4d", "is_disabled": 0, "is_reserved": 0}, {"rental_uris": {"ios": "https://dc.lft.to/lastmile_qr_scan", "android": "https://dc.lft.to/lastmile_qr_scan"}, "lon": -77.044505, "type": "electric_scooter", "fusion_lat": 0.0, "lat": 38.918795833333334, "name": "17876643cffb80dc7cce331bfad6241f", "fusion_lon": 0.0, "bike_id": "17876643cffb80dc7cce331bfad6241f", "is_disabled": 0, "is_reserved": 0}, {"rental_uris": {"ios": "https://dc.lft.to/lastmile_qr_scan", "android": "https://dc.lft.to/lastmile_qr_scan"}, "lon": -77.045169, "type": "electric_scooter", "fusion_lat": 0.0, "lat": 38.909666, "name": "c065f871af2b8741d727b7b0fef2e2db", "fusion_lon": 0.0, "bike_id": "c065f871af2b8741d727b7b0fef2e2db", "is_disabled": 0, "is_reserved": 0}, {"rental_uris": {"ios": "https://dc.lft.to/lastmile_qr_scan", "android": "https://dc.lft.to/lastmile_qr_scan"}, "lon": -77.03260983333334, "type": "electric_scooter", "fusion_lat": 0.0, "lat": 38.91823683333333, "name": "3437cd8fefff6926407ffeea4d3154e4", "fusion_lon": 0.0, "bike_id": "3437cd8fefff6926407ffeea4d3154e4", "is_disabled": 0, "is_reserved": 0}, {"rental_uris": {"ios": "https://dc.lft.to/lastmile_qr_scan", "android": "https://dc.lft.to/lastmile_qr_scan"}, "lon": -77.02803833333333, "type": "electric_scooter", "fusion_lat": 0.0, "lat": 38.89387283333333, "name": "026a3234b33cb864f20edb9431e1d541", "fusion_lon": 0.0, "bike_id": "026a3234b33cb864f20edb9431e1d541", "is_disabled": 0, "is_reserved": 0}, {"rental_uris": {"ios": "https://dc.lft.to/lastmile_qr_scan", "android": "https://dc.lft.to/lastmile_qr_scan"}, "lon": -77.04363383333333, "type": "electric_scooter", "fusion_lat": 0.0, "lat": 38.902673666666665, "name": "dfff0bf634068c3b5681c1f1f7d348e8", "fusion_lon": 0.0, "bike_id": "dfff0bf634068c3b5681c1f1f7d348e8", "is_disabled": 0, "is_reserved": 0}, {"rental_uris": {"ios": "https://dc.lft.to/lastmile_qr_scan", "android": "https://dc.lft.to/lastmile_qr_scan"}, "lon": -77.038256, "type": "electric_scooter", "fusion_lat": 0.0, "lat": 38.920529, "name": "f0bd85099498f99ea6744116ce22ddd8", "fusion_lon": 0.0, "bike_id": "f0bd85099498f99ea6744116ce22ddd8", "is_disabled": 0, "is_reserved": 0}, {"rental_uris": {"ios": "https://dc.lft.to/lastmile_qr_scan", "android": "https://dc.lft.to/lastmile_qr_scan"}, "lon": -77.04007283333334, "type": "electric_scooter", "fusion_lat": 0.0, "lat": 38.88893, "name": "11b4e0532f2766d9c4450e932bbf30e9", "fusion_lon": 0.0, "bike_id": "11b4e0532f2766d9c4450e932bbf30e9", "is_disabled": 0, "is_reserved": 0}, {"rental_uris": {"ios": "https://dc.lft.to/lastmile_qr_scan", "android": "https://dc.lft.to/lastmile_qr_scan"}, "lon": -77.03192966666667, "type": "electric_scooter", "fusion_lat": 0.0, "lat": 38.913132833333336, "name": "f3553e95b9d23a61683f7d38c51cde37", "fusion_lon": 0.0, "bike_id": "f3553e95b9d23a61683f7d38c51cde37", "is_disabled": 0, "is_reserved": 0}, {"rental_uris": {"ios": "https://dc.lft.to/lastmile_qr_scan", "android": "https://dc.lft.to/lastmile_qr_scan"}, "lon": -77.03571883333333, "type": "electric_scooter", "fusion_lat": 0.0, "lat": 38.918145333333335, "name": "34171ac777378c5f0116c35f6a325284", "fusion_lon": 0.0, "bike_id": "34171ac777378c5f0116c35f6a325284", "is_disabled": 0, "is_reserved": 0}, {"rental_uris": {"ios": "https://dc.lft.to/lastmile_qr_scan", "android": "https://dc.lft.to/lastmile_qr_scan"}, "lon": -77.03217316666667, "type": "electric_scooter", "fusion_lat": 0.0, "lat": 38.9169495, "name": "e85fafb09c453e4187266643e65e4eab", "fusion_lon": 0.0, "bike_id": "e85fafb09c453e4187266643e65e4eab", "is_disabled": 0, "is_reserved": 0}, {"rental_uris": {"ios": "https://dc.lft.to/lastmile_qr_scan", "android": "https://dc.lft.to/lastmile_qr_scan"}, "lon": -76.958159, "type": "electric_scooter", "fusion_lat": 0.0, "lat": 38.89053533333333, "name": "36ecfd4ec63856a193df22b88b315cbe", "fusion_lon": 0.0, "bike_id": "36ecfd4ec63856a193df22b88b315cbe", "is_disabled": 0, "is_reserved": 0}, {"rental_uris": {"ios": "https://dc.lft.to/lastmile_qr_scan", "android": "https://dc.lft.to/lastmile_qr_scan"}, "lon": -76.98513933333334, "type": "electric_scooter", "fusion_lat": 0.0, "lat": 38.90607516666667, "name": "3bddce51888f68835aeb4ee6747a8816", "fusion_lon": 0.0, "bike_id": "3bddce51888f68835aeb4ee6747a8816", "is_disabled": 0, "is_reserved": 0}, {"rental_uris": {"ios": "https://dc.lft.to/lastmile_qr_scan", "android": "https://dc.lft.to/lastmile_qr_scan"}, "lon": -76.999739, "type": "electric_scooter", "fusion_lat": 0.0, "lat": 38.90930566666667, "name": "2fd1137774d3fe3f4514b2b877694e4b", "fusion_lon": 0.0, "bike_id": "2fd1137774d3fe3f4514b2b877694e4b", "is_disabled": 0, "is_reserved": 0}, {"rental_uris": {"ios": "https://dc.lft.to/lastmile_qr_scan", "android": "https://dc.lft.to/lastmile_qr_scan"}, "lon": -77.00616333333333, "type": "electric_scooter", "fusion_lat": 0.0, "lat": 38.87715333333333, "name": "68265456b844336ab94cda53e58b3af0", "fusion_lon": 0.0, "bike_id": "68265456b844336ab94cda53e58b3af0", "is_disabled": 0, "is_reserved": 0}, {"rental_uris": {"ios": "https://dc.lft.to/lastmile_qr_scan", "android": "https://dc.lft.to/lastmile_qr_scan"}, "lon": -77.03554733333333, "type": "electric_bike", "fusion_lat": 0.0, "lat": 38.9646795, "name": "91a4d23d00a3c40ab224ecf966ea12d5", "fusion_lon": 0.0, "bike_id": "91a4d23d00a3c40ab224ecf966ea12d5", "is_disabled": 0, "is_reserved": 0}, {"rental_uris": {"ios": "https://dc.lft.to/lastmile_qr_scan", "android": "https://dc.lft.to/lastmile_qr_scan"}, "lon": -77.00222833333333, "type": "electric_scooter", "fusion_lat": 0.0, "lat": 38.90023566666667, "name": "69a8e44f0d420553bd917948708e402c", "fusion_lon": 0.0, "bike_id": "69a8e44f0d420553bd917948708e402c", "is_disabled": 0, "is_reserved": 0}, {"rental_uris": {"ios": "https://dc.lft.to/lastmile_qr_scan", "android": "https://dc.lft.to/lastmile_qr_scan"}, "lon": -77.03522983333333, "type": "electric_scooter", "fusion_lat": 0.0, "lat": 38.92221583333333, "name": "7a487571a0339635f2cdea156427903a", "fusion_lon": 0.0, "bike_id": "7a487571a0339635f2cdea156427903a", "is_disabled": 0, "is_reserved": 0}, {"rental_uris": {"ios": "https://dc.lft.to/lastmile_qr_scan", "android": "https://dc.lft.to/lastmile_qr_scan"}, "lon": -77.032321, "type": "electric_scooter", "fusion_lat": 0.0, "lat": 38.914871, "name": "54a3761d19c68a4325e04bc426a44a3b", "fusion_lon": 0.0, "bike_id": "54a3761d19c68a4325e04bc426a44a3b", "is_disabled": 0, "is_reserved": 0}, {"rental_uris": {"ios": "https://dc.lft.to/lastmile_qr_scan", "android": "https://dc.lft.to/lastmile_qr_scan"}, "lon": -76.99819033333333, "type": "electric_scooter", "fusion_lat": 0.0, "lat": 38.888718833333336, "name": "eee328c55bd4eccc2fd11e1b53113521", "fusion_lon": 0.0, "bike_id": "eee328c55bd4eccc2fd11e1b53113521", "is_disabled": 0, "is_reserved": 0}, {"rental_uris": {"ios": "https://dc.lft.to/lastmile_qr_scan", "android": "https://dc.lft.to/lastmile_qr_scan"}, "lon": -77.01622533333334, "type": "electric_scooter", "fusion_lat": 0.0, "lat": 38.90709483333333, "name": "8b217a9c090518c97fa59ccb49975fe1", "fusion_lon": 0.0, "bike_id": "8b217a9c090518c97fa59ccb49975fe1", "is_disabled": 0, "is_reserved": 0}, {"rental_uris": {"ios": "https://dc.lft.to/lastmile_qr_scan", "android": "https://dc.lft.to/lastmile_qr_scan"}, "lon": -77.04360233333334, "type": "electric_scooter", "fusion_lat": 0.0, "lat": 38.89662666666667, "name": "2ddc331488a28a05f17cdd252f219fd8", "fusion_lon": 0.0, "bike_id": "2ddc331488a28a05f17cdd252f219fd8", "is_disabled": 0, "is_reserved": 0}, {"rental_uris": {"ios": "https://dc.lft.to/lastmile_qr_scan", "android": "https://dc.lft.to/lastmile_qr_scan"}, "lon": -77.04135866666667, "type": "electric_scooter", "fusion_lat": 0.0, "lat": 38.9216535, "name": "a4ae2a4220446c6d48774cc658fdbae0", "fusion_lon": 0.0, "bike_id": "a4ae2a4220446c6d48774cc658fdbae0", "is_disabled": 0, "is_reserved": 0}, {"rental_uris": {"ios": "https://dc.lft.to/lastmile_qr_scan", "android": "https://dc.lft.to/lastmile_qr_scan"}, "lon": -77.02567033333334, "type": "electric_scooter", "fusion_lat": 0.0, "lat": 38.88427983333333, "name": "cc73a058485af2a28a17475e8d40cdbb", "fusion_lon": 0.0, "bike_id": "cc73a058485af2a28a17475e8d40cdbb", "is_disabled": 0, "is_reserved": 0}, {"rental_uris": {"ios": "https://dc.lft.to/lastmile_qr_scan", "android": "https://dc.lft.to/lastmile_qr_scan"}, "lon": -77.01892516666666, "type": "electric_scooter", "fusion_lat": 0.0, "lat": 38.9118665, "name": "855d067cc0da0d51ac38ba0ef1d1dcdd", "fusion_lon": 0.0, "bike_id": "855d067cc0da0d51ac38ba0ef1d1dcdd", "is_disabled": 0, "is_reserved": 0}, {"rental_uris": {"ios": "https://dc.lft.to/lastmile_qr_scan", "android": "https://dc.lft.to/lastmile_qr_scan"}, "lon": -77.01882133333334, "type": "electric_scooter", "fusion_lat": 0.0, "lat": 38.9061005, "name": "a20f7ddbbb41c0433528184a86681fe8", "fusion_lon": 0.0, "bike_id": "a20f7ddbbb41c0433528184a86681fe8", "is_disabled": 0, "is_reserved": 0}, {"rental_uris": {"ios": "https://dc.lft.to/lastmile_qr_scan", "android": "https://dc.lft.to/lastmile_qr_scan"}, "lon": -77.020496, "type": "electric_scooter", "fusion_lat": 0.0, "lat": 38.9155625, "name": "b7db952663a177001abf6eb25d507e3f", "fusion_lon": 0.0, "bike_id": "b7db952663a177001abf6eb25d507e3f", "is_disabled": 0, "is_reserved": 0}, {"rental_uris": {"ios": "https://dc.lft.to/lastmile_qr_scan", "android": "https://dc.lft.to/lastmile_qr_scan"}, "lon": -77.05320216666667, "type": "electric_scooter", "fusion_lat": 0.0, "lat": 38.906474833333334, "name": "c6fc3c984108b532d5ace61db8c56f3a", "fusion_lon": 0.0, "bike_id": "c6fc3c984108b532d5ace61db8c56f3a", "is_disabled": 0, "is_reserved": 0}, {"rental_uris": {"ios": "https://dc.lft.to/lastmile_qr_scan", "android": "https://dc.lft.to/lastmile_qr_scan"}, "lon": -77.05221233333333, "type": "electric_scooter", "fusion_lat": 0.0, "lat": 38.92492083333333, "name": "fa980cfa8cf039f56c15e32babdddf3f", "fusion_lon": 0.0, "bike_id": "fa980cfa8cf039f56c15e32babdddf3f", "is_disabled": 0, "is_reserved": 0}, {"rental_uris": {"ios": "https://dc.lft.to/lastmile_qr_scan", "android": "https://dc.lft.to/lastmile_qr_scan"}, "lon": -77.04121966666666, "type": "electric_scooter", "fusion_lat": 0.0, "lat": 38.93400166666667, "name": "a5c7ebf5d3bede1fe144f63099465db6", "fusion_lon": 0.0, "bike_id": "a5c7ebf5d3bede1fe144f63099465db6", "is_disabled": 0, "is_reserved": 0}, {"rental_uris": {"ios": "https://dc.lft.to/lastmile_qr_scan", "android": "https://dc.lft.to/lastmile_qr_scan"}, "lon": -77.00496366666667, "type": "electric_scooter", "fusion_lat": 0.0, "lat": 38.8789375, "name": "3daaee6339676610497f10e1ea1023f0", "fusion_lon": 0.0, "bike_id": "3daaee6339676610497f10e1ea1023f0", "is_disabled": 0, "is_reserved": 0}, {"rental_uris": {"ios": "https://dc.lft.to/lastmile_qr_scan", "android": "https://dc.lft.to/lastmile_qr_scan"}, "lon": -77.003458, "type": "electric_scooter", "fusion_lat": 0.0, "lat": 38.8926715, "name": "e2730bd5a13bbdbc93c1c62da1d5b91a", "fusion_lon": 0.0, "bike_id": "e2730bd5a13bbdbc93c1c62da1d5b91a", "is_disabled": 0, "is_reserved": 0}, {"rental_uris": {"ios": "https://dc.lft.to/lastmile_qr_scan", "android": "https://dc.lft.to/lastmile_qr_scan"}, "lon": -76.98643, "type": "electric_scooter", "fusion_lat": 0.0, "lat": 38.900202, "name": "e2de08475054e0c0bbd7ffd0e38508bf", "fusion_lon": 0.0, "bike_id": "e2de08475054e0c0bbd7ffd0e38508bf", "is_disabled": 0, "is_reserved": 0}, {"rental_uris": {"ios": "https://dc.lft.to/lastmile_qr_scan", "android": "https://dc.lft.to/lastmile_qr_scan"}, "lon": -76.99000333333333, "type": "electric_scooter", "fusion_lat": 0.0, "lat": 38.865056333333335, "name": "ade7eb411fbd63cbf772af390f758ca7", "fusion_lon": 0.0, "bike_id": "ade7eb411fbd63cbf772af390f758ca7", "is_disabled": 0, "is_reserved": 0}, {"rental_uris": {"ios": "https://dc.lft.to/lastmile_qr_scan", "android": "https://dc.lft.to/lastmile_qr_scan"}, "lon": -77.05128816666667, "type": "electric_scooter", "fusion_lat": 0.0, "lat": 38.92364283333333, "name": "f1a7464902c5b226f9b4a765b54f6fac", "fusion_lon": 0.0, "bike_id": "f1a7464902c5b226f9b4a765b54f6fac", "is_disabled": 0, "is_reserved": 0}, {"rental_uris": {"ios": "https://dc.lft.to/lastmile_qr_scan", "android": "https://dc.lft.to/lastmile_qr_scan"}, "lon": -77.07811533333333, "type": "electric_scooter", "fusion_lat": 0.0, "lat": 38.926300499999996, "name": "d369741618f5768361493045ae4ada82", "fusion_lon": 0.0, "bike_id": "d369741618f5768361493045ae4ada82", "is_disabled": 0, "is_reserved": 0}, {"rental_uris": {"ios": "https://dc.lft.to/lastmile_qr_scan", "android": "https://dc.lft.to/lastmile_qr_scan"}, "lon": -77.03073383333333, "type": "electric_scooter", "fusion_lat": 0.0, "lat": 38.89958383333333, "name": "d25fd10de16042e06cb0f10b76d8cece", "fusion_lon": 0.0, "bike_id": "d25fd10de16042e06cb0f10b76d8cece", "is_disabled": 0, "is_reserved": 0}, {"rental_uris": {"ios": "https://dc.lft.to/lastmile_qr_scan", "android": "https://dc.lft.to/lastmile_qr_scan"}, "lon": -77.022148, "type": "electric_scooter", "fusion_lat": 0.0, "lat": 38.887687166666666, "name": "8786d5440da1f4feec722702a3c40c37", "fusion_lon": 0.0, "bike_id": "8786d5440da1f4feec722702a3c40c37", "is_disabled": 0, "is_reserved": 0}, {"rental_uris": {"ios": "https://dc.lft.to/lastmile_qr_scan", "android": "https://dc.lft.to/lastmile_qr_scan"}, "lon": -77.0219785, "type": "electric_scooter", "fusion_lat": 0.0, "lat": 38.908458333333336, "name": "72c9538fb8f0b48151257e8c2bce7e91", "fusion_lon": 0.0, "bike_id": "72c9538fb8f0b48151257e8c2bce7e91", "is_disabled": 0, "is_reserved": 0}, {"rental_uris": {"ios": "https://dc.lft.to/lastmile_qr_scan", "android": "https://dc.lft.to/lastmile_qr_scan"}, "lon": -77.11429433333333, "type": "electric_bike", "fusion_lat": 0.0, "lat": 38.85244383333333, "name": "685c5a8515ee70513f577a4bfbd17eb0", "fusion_lon": 0.0, "bike_id": "685c5a8515ee70513f577a4bfbd17eb0", "is_disabled": 0, "is_reserved": 0}, {"rental_uris": {"ios": "https://dc.lft.to/lastmile_qr_scan", "android": "https://dc.lft.to/lastmile_qr_scan"}, "lon": -77.04268766666667, "type": "electric_scooter", "fusion_lat": 0.0, "lat": 38.9224265, "name": "ff242cbf813a65a7ebf80deca9349536", "fusion_lon": 0.0, "bike_id": "ff242cbf813a65a7ebf80deca9349536", "is_disabled": 0, "is_reserved": 0}, {"rental_uris": {"ios": "https://dc.lft.to/lastmile_qr_scan", "android": "https://dc.lft.to/lastmile_qr_scan"}, "lon": -76.9835605, "type": "electric_scooter", "fusion_lat": 0.0, "lat": 38.9154295, "name": "41893e9708064f793dff56c95eb923a7", "fusion_lon": 0.0, "bike_id": "41893e9708064f793dff56c95eb923a7", "is_disabled": 0, "is_reserved": 0}, {"rental_uris": {"ios": "https://dc.lft.to/lastmile_qr_scan", "android": "https://dc.lft.to/lastmile_qr_scan"}, "lon": -76.9678585, "type": "electric_scooter", "fusion_lat": 0.0, "lat": 38.86160133333333, "name": "57e05397cdcdfd946f186682a69efb19", "fusion_lon": 0.0, "bike_id": "57e05397cdcdfd946f186682a69efb19", "is_disabled": 0, "is_reserved": 0}, {"rental_uris": {"ios": "https://dc.lft.to/lastmile_qr_scan", "android": "https://dc.lft.to/lastmile_qr_scan"}, "lon": -76.98364416666666, "type": "electric_scooter", "fusion_lat": 0.0, "lat": 38.864837666666666, "name": "47095d47d0663c4b6de49f5725f68123", "fusion_lon": 0.0, "bike_id": "47095d47d0663c4b6de49f5725f68123", "is_disabled": 0, "is_reserved": 0}, {"rental_uris": {"ios": "https://dc.lft.to/lastmile_qr_scan", "android": "https://dc.lft.to/lastmile_qr_scan"}, "lon": -77.041846, "type": "electric_scooter", "fusion_lat": 0.0, "lat": 38.90729866666667, "name": "e7f581e212a215bcc6f5e844a3975426", "fusion_lon": 0.0, "bike_id": "e7f581e212a215bcc6f5e844a3975426", "is_disabled": 0, "is_reserved": 0}, {"rental_uris": {"ios": "https://dc.lft.to/lastmile_qr_scan", "android": "https://dc.lft.to/lastmile_qr_scan"}, "lon": -77.03219166666666, "type": "electric_scooter", "fusion_lat": 0.0, "lat": 38.89226716666667, "name": "6f2c0bed1c7576b555e7ab277c200d11", "fusion_lon": 0.0, "bike_id": "6f2c0bed1c7576b555e7ab277c200d11", "is_disabled": 0, "is_reserved": 0}, {"rental_uris": {"ios": "https://dc.lft.to/lastmile_qr_scan", "android": "https://dc.lft.to/lastmile_qr_scan"}, "lon": -77.01985866666666, "type": "electric_scooter", "fusion_lat": 0.0, "lat": 38.89860983333333, "name": "f34358aa4664f80c821dbad9d066083d", "fusion_lon": 0.0, "bike_id": "f34358aa4664f80c821dbad9d066083d", "is_disabled": 0, "is_reserved": 0}, {"rental_uris": {"ios": "https://dc.lft.to/lastmile_qr_scan", "android": "https://dc.lft.to/lastmile_qr_scan"}, "lon": -76.98412266666666, "type": "electric_scooter", "fusion_lat": 0.0, "lat": 38.91382466666666, "name": "811b1498827a218d6cb15e396c10d1f2", "fusion_lon": 0.0, "bike_id": "811b1498827a218d6cb15e396c10d1f2", "is_disabled": 0, "is_reserved": 0}, {"rental_uris": {"ios": "https://dc.lft.to/lastmile_qr_scan", "android": "https://dc.lft.to/lastmile_qr_scan"}, "lon": -76.988514, "type": "electric_scooter", "fusion_lat": 0.0, "lat": 38.90342166666667, "name": "88159ebe26f150b85acbdc828ba2ec19", "fusion_lon": 0.0, "bike_id": "88159ebe26f150b85acbdc828ba2ec19", "is_disabled": 0, "is_reserved": 0}, {"rental_uris": {"ios": "https://dc.lft.to/lastmile_qr_scan", "android": "https://dc.lft.to/lastmile_qr_scan"}, "lon": -77.03657683333333, "type": "electric_scooter", "fusion_lat": 0.0, "lat": 38.9307995, "name": "31b460cc5047e6e9de469c0cab03c0c7", "fusion_lon": 0.0, "bike_id": "31b460cc5047e6e9de469c0cab03c0c7", "is_disabled": 0, "is_reserved": 0}, {"rental_uris": {"ios": "https://dc.lft.to/lastmile_qr_scan", "android": "https://dc.lft.to/lastmile_qr_scan"}, "lon": -77.02491916666666, "type": "electric_scooter", "fusion_lat": 0.0, "lat": 38.904217333333335, "name": "63c24dc7ba88587102de38060e1844fe", "fusion_lon": 0.0, "bike_id": "63c24dc7ba88587102de38060e1844fe", "is_disabled": 0, "is_reserved": 0}, {"rental_uris": {"ios": "https://dc.lft.to/lastmile_qr_scan", "android": "https://dc.lft.to/lastmile_qr_scan"}, "lon": -77.04193983333333, "type": "electric_scooter", "fusion_lat": 0.0, "lat": 38.90348083333333, "name": "41945ffca6ecd1bec0acfa94b3550a9c", "fusion_lon": 0.0, "bike_id": "41945ffca6ecd1bec0acfa94b3550a9c", "is_disabled": 0, "is_reserved": 0}, {"rental_uris": {"ios": "https://dc.lft.to/lastmile_qr_scan", "android": "https://dc.lft.to/lastmile_qr_scan"}, "lon": -77.02787733333334, "type": "electric_scooter", "fusion_lat": 0.0, "lat": 38.9237125, "name": "159145739cd40bc1b0028ad297139f4b", "fusion_lon": 0.0, "bike_id": "159145739cd40bc1b0028ad297139f4b", "is_disabled": 0, "is_reserved": 0}, {"rental_uris": {"ios": "https://dc.lft.to/lastmile_qr_scan", "android": "https://dc.lft.to/lastmile_qr_scan"}, "lon": -77.04713466666666, "type": "electric_scooter", "fusion_lat": 0.0, "lat": 38.909499, "name": "ab836d927e05f4758625cd2c4faf85fc", "fusion_lon": 0.0, "bike_id": "ab836d927e05f4758625cd2c4faf85fc", "is_disabled": 0, "is_reserved": 0}, {"rental_uris": {"ios": "https://dc.lft.to/lastmile_qr_scan", "android": "https://dc.lft.to/lastmile_qr_scan"}, "lon": -77.03306083333334, "type": "electric_scooter", "fusion_lat": 0.0, "lat": 38.90153516666667, "name": "eb2399cd7c77a0e3fe1b3f4d85bcbbb2", "fusion_lon": 0.0, "bike_id": "eb2399cd7c77a0e3fe1b3f4d85bcbbb2", "is_disabled": 0, "is_reserved": 0}, {"rental_uris": {"ios": "https://dc.lft.to/lastmile_qr_scan", "android": "https://dc.lft.to/lastmile_qr_scan"}, "lon": -77.028074, "type": "electric_scooter", "fusion_lat": 0.0, "lat": 38.93083266666667, "name": "03dfef02659f85f90c4e8f356ff554af", "fusion_lon": 0.0, "bike_id": "03dfef02659f85f90c4e8f356ff554af", "is_disabled": 0, "is_reserved": 0}, {"rental_uris": {"ios": "https://dc.lft.to/lastmile_qr_scan", "android": "https://dc.lft.to/lastmile_qr_scan"}, "lon": -77.02152466666666, "type": "electric_scooter", "fusion_lat": 0.0, "lat": 38.92825783333333, "name": "6ff3f7db907584bdf5e99be79b1f0fb9", "fusion_lon": 0.0, "bike_id": "6ff3f7db907584bdf5e99be79b1f0fb9", "is_disabled": 0, "is_reserved": 0}, {"rental_uris": {"ios": "https://dc.lft.to/lastmile_qr_scan", "android": "https://dc.lft.to/lastmile_qr_scan"}, "lon": -77.06353316666667, "type": "electric_scooter", "fusion_lat": 0.0, "lat": 38.944475, "name": "c80d0781a66ea0b189b1de66e06d6f88", "fusion_lon": 0.0, "bike_id": "c80d0781a66ea0b189b1de66e06d6f88", "is_disabled": 0, "is_reserved": 0}, {"rental_uris": {"ios": "https://dc.lft.to/lastmile_qr_scan", "android": "https://dc.lft.to/lastmile_qr_scan"}, "lon": -76.94722983333334, "type": "electric_scooter", "fusion_lat": 0.0, "lat": 38.89683733333333, "name": "3d45f5bfb786ce65ac08847ec09c5d29", "fusion_lon": 0.0, "bike_id": "3d45f5bfb786ce65ac08847ec09c5d29", "is_disabled": 0, "is_reserved": 0}, {"rental_uris": {"ios": "https://dc.lft.to/lastmile_qr_scan", "android": "https://dc.lft.to/lastmile_qr_scan"}, "lon": -77.02482733333333, "type": "electric_scooter", "fusion_lat": 0.0, "lat": 38.89735433333333, "name": "52dbf26312171c83c7cc492b0dbe1df9", "fusion_lon": 0.0, "bike_id": "52dbf26312171c83c7cc492b0dbe1df9", "is_disabled": 0, "is_reserved": 0}, {"rental_uris": {"ios": "https://dc.lft.to/lastmile_qr_scan", "android": "https://dc.lft.to/lastmile_qr_scan"}, "lon": -76.998283, "type": "electric_scooter", "fusion_lat": 0.0, "lat": 38.900445, "name": "c22a32a22d19dfea6d3ce5babec1aea1", "fusion_lon": 0.0, "bike_id": "c22a32a22d19dfea6d3ce5babec1aea1", "is_disabled": 0, "is_reserved": 0}, {"rental_uris": {"ios": "https://dc.lft.to/lastmile_qr_scan", "android": "https://dc.lft.to/lastmile_qr_scan"}, "lon": -77.03849416666667, "type": "electric_scooter", "fusion_lat": 0.0, "lat": 38.90370866666667, "name": "d4f2edc196759172a85649e50e07728f", "fusion_lon": 0.0, "bike_id": "d4f2edc196759172a85649e50e07728f", "is_disabled": 0, "is_reserved": 0}, {"rental_uris": {"ios": "https://dc.lft.to/lastmile_qr_scan", "android": "https://dc.lft.to/lastmile_qr_scan"}, "lon": -76.990287, "type": "electric_scooter", "fusion_lat": 0.0, "lat": 38.86406916666667, "name": "20247ac8f9b3fed23c1f93ed9a828ade", "fusion_lon": 0.0, "bike_id": "20247ac8f9b3fed23c1f93ed9a828ade", "is_disabled": 0, "is_reserved": 0}, {"rental_uris": {"ios": "https://dc.lft.to/lastmile_qr_scan", "android": "https://dc.lft.to/lastmile_qr_scan"}, "lon": -77.01404083333334, "type": "electric_scooter", "fusion_lat": 0.0, "lat": 38.875515666666665, "name": "4eaf90420996b5ad1f6a27fa4dcde040", "fusion_lon": 0.0, "bike_id": "4eaf90420996b5ad1f6a27fa4dcde040", "is_disabled": 0, "is_reserved": 0}, {"rental_uris": {"ios": "https://dc.lft.to/lastmile_qr_scan", "android": "https://dc.lft.to/lastmile_qr_scan"}, "lon": -77.07496516666667, "type": "electric_bike", "fusion_lat": 0.0, "lat": 38.89299033333333, "name": "3601ca1e393634bf66b2b0b74bb430f4", "fusion_lon": 0.0, "bike_id": "3601ca1e393634bf66b2b0b74bb430f4", "is_disabled": 0, "is_reserved": 0}, {"rental_uris": {"ios": "https://dc.lft.to/lastmile_qr_scan", "android": "https://dc.lft.to/lastmile_qr_scan"}, "lon": -77.03069633333334, "type": "electric_scooter", "fusion_lat": 0.0, "lat": 38.89968116666667, "name": "5b83e9bb42bab6fd5f4fdf825923e6a8", "fusion_lon": 0.0, "bike_id": "5b83e9bb42bab6fd5f4fdf825923e6a8", "is_disabled": 0, "is_reserved": 0}, {"rental_uris": {"ios": "https://dc.lft.to/lastmile_qr_scan", "android": "https://dc.lft.to/lastmile_qr_scan"}, "lon": -77.02899433333333, "type": "electric_scooter", "fusion_lat": 0.0, "lat": 38.91688416666667, "name": "1f6171fc8bb6ed4b7546fbcc546d0230", "fusion_lon": 0.0, "bike_id": "1f6171fc8bb6ed4b7546fbcc546d0230", "is_disabled": 0, "is_reserved": 0}, {"rental_uris": {"ios": "https://dc.lft.to/lastmile_qr_scan", "android": "https://dc.lft.to/lastmile_qr_scan"}, "lon": -77.07927066666667, "type": "electric_scooter", "fusion_lat": 0.0, "lat": 38.948636, "name": "8077043a3b7e62f8bbc020a70ff2ad6c", "fusion_lon": 0.0, "bike_id": "8077043a3b7e62f8bbc020a70ff2ad6c", "is_disabled": 0, "is_reserved": 0}, {"rental_uris": {"ios": "https://dc.lft.to/lastmile_qr_scan", "android": "https://dc.lft.to/lastmile_qr_scan"}, "lon": -77.01899766666666, "type": "electric_scooter", "fusion_lat": 0.0, "lat": 38.905582833333334, "name": "2149e202eb6ecb218dc4d745064bbed4", "fusion_lon": 0.0, "bike_id": "2149e202eb6ecb218dc4d745064bbed4", "is_disabled": 0, "is_reserved": 0}, {"rental_uris": {"ios": "https://dc.lft.to/lastmile_qr_scan", "android": "https://dc.lft.to/lastmile_qr_scan"}, "lon": -77.039633, "type": "electric_scooter", "fusion_lat": 0.0, "lat": 38.919915333333336, "name": "23aa5603c6c0a80ed4b6dfd78972d685", "fusion_lon": 0.0, "bike_id": "23aa5603c6c0a80ed4b6dfd78972d685", "is_disabled": 0, "is_reserved": 0}, {"rental_uris": {"ios": "https://dc.lft.to/lastmile_qr_scan", "android": "https://dc.lft.to/lastmile_qr_scan"}, "lon": -77.00716166666666, "type": "electric_scooter", "fusion_lat": 0.0, "lat": 38.91343216666667, "name": "ec469a77596e05f361e1448fe6bd8d5b", "fusion_lon": 0.0, "bike_id": "ec469a77596e05f361e1448fe6bd8d5b", "is_disabled": 0, "is_reserved": 0}, {"rental_uris": {"ios": "https://dc.lft.to/lastmile_qr_scan", "android": "https://dc.lft.to/lastmile_qr_scan"}, "lon": -77.05288183333333, "type": "electric_scooter", "fusion_lat": 0.0, "lat": 38.910154166666665, "name": "8e023ee0772783d81d175aab1becfb13", "fusion_lon": 0.0, "bike_id": "8e023ee0772783d81d175aab1becfb13", "is_disabled": 0, "is_reserved": 0}, {"rental_uris": {"ios": "https://dc.lft.to/lastmile_qr_scan", "android": "https://dc.lft.to/lastmile_qr_scan"}, "lon": -77.0261745, "type": "electric_scooter", "fusion_lat": 0.0, "lat": 38.9191395, "name": "d806c7f891e08a81744af37ddc02df39", "fusion_lon": 0.0, "bike_id": "d806c7f891e08a81744af37ddc02df39", "is_disabled": 0, "is_reserved": 0}, {"rental_uris": {"ios": "https://dc.lft.to/lastmile_qr_scan", "android": "https://dc.lft.to/lastmile_qr_scan"}, "lon": -77.00229166666666, "type": "electric_scooter", "fusion_lat": 0.0, "lat": 38.90826033333333, "name": "532b87e40032bc4fcbbcc1076e1930f6", "fusion_lon": 0.0, "bike_id": "532b87e40032bc4fcbbcc1076e1930f6", "is_disabled": 0, "is_reserved": 0}, {"rental_uris": {"ios": "https://dc.lft.to/lastmile_qr_scan", "android": "https://dc.lft.to/lastmile_qr_scan"}, "lon": -76.92998116666666, "type": "electric_bike", "fusion_lat": 0.0, "lat": 38.888016, "name": "27285b96436b6cdd4c97fc8ff516ba37", "fusion_lon": 0.0, "bike_id": "27285b96436b6cdd4c97fc8ff516ba37", "is_disabled": 0, "is_reserved": 0}, {"rental_uris": {"ios": "https://dc.lft.to/lastmile_qr_scan", "android": "https://dc.lft.to/lastmile_qr_scan"}, "lon": -77.04916533333333, "type": "electric_scooter", "fusion_lat": 0.0, "lat": 38.900731666666665, "name": "053f6808f34e5abb0e095b01634d849c", "fusion_lon": 0.0, "bike_id": "053f6808f34e5abb0e095b01634d849c", "is_disabled": 0, "is_reserved": 0}, {"rental_uris": {"ios": "https://dc.lft.to/lastmile_qr_scan", "android": "https://dc.lft.to/lastmile_qr_scan"}, "lon": -77.016053, "type": "electric_scooter", "fusion_lat": 0.0, "lat": 38.89615166666667, "name": "b1c357f34e6b53df754339184fd74d4b", "fusion_lon": 0.0, "bike_id": "b1c357f34e6b53df754339184fd74d4b", "is_disabled": 0, "is_reserved": 0}, {"rental_uris": {"ios": "https://dc.lft.to/lastmile_qr_scan", "android": "https://dc.lft.to/lastmile_qr_scan"}, "lon": -76.98569866666666, "type": "electric_scooter", "fusion_lat": 0.0, "lat": 38.861476, "name": "9a505ac1d8d0f0493db7cae495274ad5", "fusion_lon": 0.0, "bike_id": "9a505ac1d8d0f0493db7cae495274ad5", "is_disabled": 0, "is_reserved": 0}, {"rental_uris": {"ios": "https://dc.lft.to/lastmile_qr_scan", "android": "https://dc.lft.to/lastmile_qr_scan"}, "lon": -77.03189816666666, "type": "electric_scooter", "fusion_lat": 0.0, "lat": 38.907908166666665, "name": "dd4a92282c5690df7dd8170ad93e6dd1", "fusion_lon": 0.0, "bike_id": "dd4a92282c5690df7dd8170ad93e6dd1", "is_disabled": 0, "is_reserved": 0}, {"rental_uris": {"ios": "https://dc.lft.to/lastmile_qr_scan", "android": "https://dc.lft.to/lastmile_qr_scan"}, "lon": -77.04326316666666, "type": "electric_scooter", "fusion_lat": 0.0, "lat": 38.92613466666667, "name": "5cc5a6e246e39c3e1fe77d1c974fd7b9", "fusion_lon": 0.0, "bike_id": "5cc5a6e246e39c3e1fe77d1c974fd7b9", "is_disabled": 0, "is_reserved": 0}, {"rental_uris": {"ios": "https://dc.lft.to/lastmile_qr_scan", "android": "https://dc.lft.to/lastmile_qr_scan"}, "lon": -77.04635716666667, "type": "electric_scooter", "fusion_lat": 0.0, "lat": 38.892248333333335, "name": "1afe0312a3712727a92b0c19fad7859e", "fusion_lon": 0.0, "bike_id": "1afe0312a3712727a92b0c19fad7859e", "is_disabled": 0, "is_reserved": 0}, {"rental_uris": {"ios": "https://dc.lft.to/lastmile_qr_scan", "android": "https://dc.lft.to/lastmile_qr_scan"}, "lon": -77.04050416666666, "type": "electric_bike", "fusion_lat": 0.0, "lat": 38.8042235, "name": "d94f16dd5780c761ac2cf677e1555d0c", "fusion_lon": 0.0, "bike_id": "d94f16dd5780c761ac2cf677e1555d0c", "is_disabled": 0, "is_reserved": 0}, {"rental_uris": {"ios": "https://dc.lft.to/lastmile_qr_scan", "android": "https://dc.lft.to/lastmile_qr_scan"}, "lon": -76.983731, "type": "electric_scooter", "fusion_lat": 0.0, "lat": 38.860312666666665, "name": "daa442a52e506fd7dbd5bb46ce34c72b", "fusion_lon": 0.0, "bike_id": "daa442a52e506fd7dbd5bb46ce34c72b", "is_disabled": 0, "is_reserved": 0}, {"rental_uris": {"ios": "https://dc.lft.to/lastmile_qr_scan", "android": "https://dc.lft.to/lastmile_qr_scan"}, "lon": -76.9750195, "type": "electric_bike", "fusion_lat": 0.0, "lat": 38.919331166666666, "name": "bf7f42d194a627ade8df0dd9db231f89", "fusion_lon": 0.0, "bike_id": "bf7f42d194a627ade8df0dd9db231f89", "is_disabled": 0, "is_reserved": 0}, {"rental_uris": {"ios": "https://dc.lft.to/lastmile_qr_scan", "android": "https://dc.lft.to/lastmile_qr_scan"}, "lon": -77.04260783333334, "type": "electric_scooter", "fusion_lat": 0.0, "lat": 38.9084745, "name": "88a33df15e1dce52399f138a08eda1b7", "fusion_lon": 0.0, "bike_id": "88a33df15e1dce52399f138a08eda1b7", "is_disabled": 0, "is_reserved": 0}, {"rental_uris": {"ios": "https://dc.lft.to/lastmile_qr_scan", "android": "https://dc.lft.to/lastmile_qr_scan"}, "lon": -76.97319933333333, "type": "electric_scooter", "fusion_lat": 0.0, "lat": 38.93025983333333, "name": "68e44fc5ea0d4f21e8034388ed730796", "fusion_lon": 0.0, "bike_id": "68e44fc5ea0d4f21e8034388ed730796", "is_disabled": 0, "is_reserved": 0}, {"rental_uris": {"ios": "https://dc.lft.to/lastmile_qr_scan", "android": "https://dc.lft.to/lastmile_qr_scan"}, "lon": -76.975632, "type": "electric_scooter", "fusion_lat": 0.0, "lat": 38.9044975, "name": "50de44a601a459881f8359e4d53278cb", "fusion_lon": 0.0, "bike_id": "50de44a601a459881f8359e4d53278cb", "is_disabled": 0, "is_reserved": 0}, {"rental_uris": {"ios": "https://dc.lft.to/lastmile_qr_scan", "android": "https://dc.lft.to/lastmile_qr_scan"}, "lon": -76.99609033333333, "type": "electric_scooter", "fusion_lat": 0.0, "lat": 38.88620733333333, "name": "f5ce0fc59cb28f0930c0731832f9cc41", "fusion_lon": 0.0, "bike_id": "f5ce0fc59cb28f0930c0731832f9cc41", "is_disabled": 0, "is_reserved": 0}, {"rental_uris": {"ios": "https://dc.lft.to/lastmile_qr_scan", "android": "https://dc.lft.to/lastmile_qr_scan"}, "lon": -77.04494266666667, "type": "electric_scooter", "fusion_lat": 0.0, "lat": 38.91514266666667, "name": "8d006855a9ed5ff975f33abee5131a4d", "fusion_lon": 0.0, "bike_id": "8d006855a9ed5ff975f33abee5131a4d", "is_disabled": 0, "is_reserved": 0}, {"rental_uris": {"ios": "https://dc.lft.to/lastmile_qr_scan", "android": "https://dc.lft.to/lastmile_qr_scan"}, "lon": -77.010913, "type": "electric_scooter", "fusion_lat": 0.0, "lat": 38.91559766666666, "name": "6a1ea78eb475c8fb49eb415da95a0d6f", "fusion_lon": 0.0, "bike_id": "6a1ea78eb475c8fb49eb415da95a0d6f", "is_disabled": 0, "is_reserved": 0}, {"rental_uris": {"ios": "https://dc.lft.to/lastmile_qr_scan", "android": "https://dc.lft.to/lastmile_qr_scan"}, "lon": -77.04186516666667, "type": "electric_scooter", "fusion_lat": 0.0, "lat": 38.9126105, "name": "22210a930cc9cfe9b909372efd9b2b70", "fusion_lon": 0.0, "bike_id": "22210a930cc9cfe9b909372efd9b2b70", "is_disabled": 0, "is_reserved": 0}, {"rental_uris": {"ios": "https://dc.lft.to/lastmile_qr_scan", "android": "https://dc.lft.to/lastmile_qr_scan"}, "lon": -77.01611466666667, "type": "electric_scooter", "fusion_lat": 0.0, "lat": 38.900008166666666, "name": "5313180e7c04bfdd66e2297f20247310", "fusion_lon": 0.0, "bike_id": "5313180e7c04bfdd66e2297f20247310", "is_disabled": 0, "is_reserved": 0}, {"rental_uris": {"ios": "https://dc.lft.to/lastmile_qr_scan", "android": "https://dc.lft.to/lastmile_qr_scan"}, "lon": -77.03171033333334, "type": "electric_scooter", "fusion_lat": 0.0, "lat": 38.9156175, "name": "ebc84a7d241c4d6e5a3b36728f8c108d", "fusion_lon": 0.0, "bike_id": "ebc84a7d241c4d6e5a3b36728f8c108d", "is_disabled": 0, "is_reserved": 0}, {"rental_uris": {"ios": "https://dc.lft.to/lastmile_qr_scan", "android": "https://dc.lft.to/lastmile_qr_scan"}, "lon": -77.01117283333333, "type": "electric_scooter", "fusion_lat": 0.0, "lat": 38.90362233333333, "name": "fcf6b7cd5dc1c8c098bdf8934fd64eec", "fusion_lon": 0.0, "bike_id": "fcf6b7cd5dc1c8c098bdf8934fd64eec", "is_disabled": 0, "is_reserved": 0}, {"rental_uris": {"ios": "https://dc.lft.to/lastmile_qr_scan", "android": "https://dc.lft.to/lastmile_qr_scan"}, "lon": -77.02803816666666, "type": "electric_scooter", "fusion_lat": 0.0, "lat": 38.8990555, "name": "492d3c7fc517bf5a3ce97e5a7e2823b1", "fusion_lon": 0.0, "bike_id": "492d3c7fc517bf5a3ce97e5a7e2823b1", "is_disabled": 0, "is_reserved": 0}, {"rental_uris": {"ios": "https://dc.lft.to/lastmile_qr_scan", "android": "https://dc.lft.to/lastmile_qr_scan"}, "lon": -77.02736483333334, "type": "electric_scooter", "fusion_lat": 0.0, "lat": 38.91195716666667, "name": "b672118602f3a558ac2fecfcea91bb50", "fusion_lon": 0.0, "bike_id": "b672118602f3a558ac2fecfcea91bb50", "is_disabled": 0, "is_reserved": 0}, {"rental_uris": {"ios": "https://dc.lft.to/lastmile_qr_scan", "android": "https://dc.lft.to/lastmile_qr_scan"}, "lon": -76.96525216666667, "type": "electric_scooter", "fusion_lat": 0.0, "lat": 38.87625, "name": "61ca1ab752298abed900b742c3a846af", "fusion_lon": 0.0, "bike_id": "61ca1ab752298abed900b742c3a846af", "is_disabled": 0, "is_reserved": 0}, {"rental_uris": {"ios": "https://dc.lft.to/lastmile_qr_scan", "android": "https://dc.lft.to/lastmile_qr_scan"}, "lon": -77.04017566666667, "type": "electric_scooter", "fusion_lat": 0.0, "lat": 38.92182616666667, "name": "9d285280f5c2145e7eb845c39f520954", "fusion_lon": 0.0, "bike_id": "9d285280f5c2145e7eb845c39f520954", "is_disabled": 0, "is_reserved": 0}, {"rental_uris": {"ios": "https://dc.lft.to/lastmile_qr_scan", "android": "https://dc.lft.to/lastmile_qr_scan"}, "lon": -77.05942066666667, "type": "electric_scooter", "fusion_lat": 0.0, "lat": 38.909561833333335, "name": "72f2e3dcae576ff42ebf07eca1a7d43d", "fusion_lon": 0.0, "bike_id": "72f2e3dcae576ff42ebf07eca1a7d43d", "is_disabled": 0, "is_reserved": 0}, {"rental_uris": {"ios": "https://dc.lft.to/lastmile_qr_scan", "android": "https://dc.lft.to/lastmile_qr_scan"}, "lon": -77.05850766666667, "type": "electric_scooter", "fusion_lat": 0.0, "lat": 38.934302333333335, "name": "97aae39fef740886d87227301c29971c", "fusion_lon": 0.0, "bike_id": "97aae39fef740886d87227301c29971c", "is_disabled": 0, "is_reserved": 0}, {"rental_uris": {"ios": "https://dc.lft.to/lastmile_qr_scan", "android": "https://dc.lft.to/lastmile_qr_scan"}, "lon": -77.03211416666667, "type": "electric_scooter", "fusion_lat": 0.0, "lat": 38.90723466666667, "name": "7efeb1a56f3171b5e4eca46ab87c3f45", "fusion_lon": 0.0, "bike_id": "7efeb1a56f3171b5e4eca46ab87c3f45", "is_disabled": 0, "is_reserved": 0}, {"rental_uris": {"ios": "https://dc.lft.to/lastmile_qr_scan", "android": "https://dc.lft.to/lastmile_qr_scan"}, "lon": -77.02394733333334, "type": "electric_scooter", "fusion_lat": 0.0, "lat": 38.91597933333333, "name": "82c3b3ce3377a210a64f562a111a8e5b", "fusion_lon": 0.0, "bike_id": "82c3b3ce3377a210a64f562a111a8e5b", "is_disabled": 0, "is_reserved": 0}, {"rental_uris": {"ios": "https://dc.lft.to/lastmile_qr_scan", "android": "https://dc.lft.to/lastmile_qr_scan"}, "lon": -76.947213, "type": "electric_scooter", "fusion_lat": 0.0, "lat": 38.89737516666667, "name": "d5d38f49ef0ee622a7a4f5a64c2891c4", "fusion_lon": 0.0, "bike_id": "d5d38f49ef0ee622a7a4f5a64c2891c4", "is_disabled": 0, "is_reserved": 0}, {"rental_uris": {"ios": "https://dc.lft.to/lastmile_qr_scan", "android": "https://dc.lft.to/lastmile_qr_scan"}, "lon": -77.0139965, "type": "electric_scooter", "fusion_lat": 0.0, "lat": 38.92818716666667, "name": "2cbe7557b6f94d3fbb9c7446a2f57d64", "fusion_lon": 0.0, "bike_id": "2cbe7557b6f94d3fbb9c7446a2f57d64", "is_disabled": 0, "is_reserved": 0}, {"rental_uris": {"ios": "https://dc.lft.to/lastmile_qr_scan", "android": "https://dc.lft.to/lastmile_qr_scan"}, "lon": -76.98708316666666, "type": "electric_scooter", "fusion_lat": 0.0, "lat": 38.86258333333333, "name": "ca6cd40e9e8435444bdbb93354cad111", "fusion_lon": 0.0, "bike_id": "ca6cd40e9e8435444bdbb93354cad111", "is_disabled": 0, "is_reserved": 0}, {"rental_uris": {"ios": "https://dc.lft.to/lastmile_qr_scan", "android": "https://dc.lft.to/lastmile_qr_scan"}, "lon": -77.0201775, "type": "electric_scooter", "fusion_lat": 0.0, "lat": 38.9497835, "name": "49a33a69686176828c4eddb0dd52bb8b", "fusion_lon": 0.0, "bike_id": "49a33a69686176828c4eddb0dd52bb8b", "is_disabled": 0, "is_reserved": 0}, {"rental_uris": {"ios": "https://dc.lft.to/lastmile_qr_scan", "android": "https://dc.lft.to/lastmile_qr_scan"}, "lon": -77.02775166666666, "type": "electric_scooter", "fusion_lat": 0.0, "lat": 38.895041166666665, "name": "3abd4190be9ce06464c6583cfb4abdcc", "fusion_lon": 0.0, "bike_id": "3abd4190be9ce06464c6583cfb4abdcc", "is_disabled": 0, "is_reserved": 0}, {"rental_uris": {"ios": "https://dc.lft.to/lastmile_qr_scan", "android": "https://dc.lft.to/lastmile_qr_scan"}, "lon": -77.02164566666667, "type": "electric_scooter", "fusion_lat": 0.0, "lat": 38.89916933333333, "name": "e624a69efdc7a410ce1e389fedb584df", "fusion_lon": 0.0, "bike_id": "e624a69efdc7a410ce1e389fedb584df", "is_disabled": 0, "is_reserved": 0}, {"rental_uris": {"ios": "https://dc.lft.to/lastmile_qr_scan", "android": "https://dc.lft.to/lastmile_qr_scan"}, "lon": -77.01186533333333, "type": "electric_scooter", "fusion_lat": 0.0, "lat": 38.9156145, "name": "cda6b774039d18c5e7c28757fe97ae65", "fusion_lon": 0.0, "bike_id": "cda6b774039d18c5e7c28757fe97ae65", "is_disabled": 0, "is_reserved": 0}, {"rental_uris": {"ios": "https://dc.lft.to/lastmile_qr_scan", "android": "https://dc.lft.to/lastmile_qr_scan"}, "lon": -77.046058, "type": "electric_scooter", "fusion_lat": 0.0, "lat": 38.92229733333333, "name": "0310fbf3cc9b2d60f991a13537b95fce", "fusion_lon": 0.0, "bike_id": "0310fbf3cc9b2d60f991a13537b95fce", "is_disabled": 0, "is_reserved": 0}, {"rental_uris": {"ios": "https://dc.lft.to/lastmile_qr_scan", "android": "https://dc.lft.to/lastmile_qr_scan"}, "lon": -77.03220516666667, "type": "electric_scooter", "fusion_lat": 0.0, "lat": 38.9119405, "name": "874fd40e71e9e06514bcaab2922e4fc0", "fusion_lon": 0.0, "bike_id": "874fd40e71e9e06514bcaab2922e4fc0", "is_disabled": 0, "is_reserved": 0}, {"rental_uris": {"ios": "https://dc.lft.to/lastmile_qr_scan", "android": "https://dc.lft.to/lastmile_qr_scan"}, "lon": -77.03615733333334, "type": "electric_scooter", "fusion_lat": 0.0, "lat": 38.902458333333335, "name": "0ac070074895061695326ef124be5eae", "fusion_lon": 0.0, "bike_id": "0ac070074895061695326ef124be5eae", "is_disabled": 0, "is_reserved": 0}, {"rental_uris": {"ios": "https://dc.lft.to/lastmile_qr_scan", "android": "https://dc.lft.to/lastmile_qr_scan"}, "lon": -77.0073685, "type": "electric_scooter", "fusion_lat": 0.0, "lat": 38.955201333333335, "name": "9eb2f197a45aa2bb65dc3713db051587", "fusion_lon": 0.0, "bike_id": "9eb2f197a45aa2bb65dc3713db051587", "is_disabled": 0, "is_reserved": 0}, {"rental_uris": {"ios": "https://dc.lft.to/lastmile_qr_scan", "android": "https://dc.lft.to/lastmile_qr_scan"}, "lon": -77.0326915, "type": "electric_scooter", "fusion_lat": 0.0, "lat": 38.932353666666664, "name": "432d27fcd907d7cf61c17e1bb382f4e0", "fusion_lon": 0.0, "bike_id": "432d27fcd907d7cf61c17e1bb382f4e0", "is_disabled": 0, "is_reserved": 0}, {"rental_uris": {"ios": "https://dc.lft.to/lastmile_qr_scan", "android": "https://dc.lft.to/lastmile_qr_scan"}, "lon": -77.0255875, "type": "electric_scooter", "fusion_lat": 0.0, "lat": 38.918153, "name": "4c9c2597552a022d2f44366cba81488d", "fusion_lon": 0.0, "bike_id": "4c9c2597552a022d2f44366cba81488d", "is_disabled": 0, "is_reserved": 0}, {"rental_uris": {"ios": "https://dc.lft.to/lastmile_qr_scan", "android": "https://dc.lft.to/lastmile_qr_scan"}, "lon": -77.023555, "type": "electric_scooter", "fusion_lat": 0.0, "lat": 38.92277516666667, "name": "af9d4fbb4eafbba753cc78f791aa04b7", "fusion_lon": 0.0, "bike_id": "af9d4fbb4eafbba753cc78f791aa04b7", "is_disabled": 0, "is_reserved": 0}, {"rental_uris": {"ios": "https://dc.lft.to/lastmile_qr_scan", "android": "https://dc.lft.to/lastmile_qr_scan"}, "lon": -77.03484266666666, "type": "electric_scooter", "fusion_lat": 0.0, "lat": 38.902451166666665, "name": "933088740049a5f7a6fd2a97b2cd975b", "fusion_lon": 0.0, "bike_id": "933088740049a5f7a6fd2a97b2cd975b", "is_disabled": 0, "is_reserved": 0}, {"rental_uris": {"ios": "https://dc.lft.to/lastmile_qr_scan", "android": "https://dc.lft.to/lastmile_qr_scan"}, "lon": -77.06793716666667, "type": "electric_scooter", "fusion_lat": 0.0, "lat": 38.9521125, "name": "9bf67f27be1dd710e91920d11cb58d57", "fusion_lon": 0.0, "bike_id": "9bf67f27be1dd710e91920d11cb58d57", "is_disabled": 0, "is_reserved": 0}, {"rental_uris": {"ios": "https://dc.lft.to/lastmile_qr_scan", "android": "https://dc.lft.to/lastmile_qr_scan"}, "lon": -77.03487183333333, "type": "electric_scooter", "fusion_lat": 0.0, "lat": 38.917046, "name": "8c8e44e088eecdb8597b22bf960c875c", "fusion_lon": 0.0, "bike_id": "8c8e44e088eecdb8597b22bf960c875c", "is_disabled": 0, "is_reserved": 0}, {"rental_uris": {"ios": "https://dc.lft.to/lastmile_qr_scan", "android": "https://dc.lft.to/lastmile_qr_scan"}, "lon": -77.00214883333334, "type": "electric_scooter", "fusion_lat": 0.0, "lat": 38.902187833333336, "name": "30032c813428b4c420ed3d95b2919a99", "fusion_lon": 0.0, "bike_id": "30032c813428b4c420ed3d95b2919a99", "is_disabled": 0, "is_reserved": 0}, {"rental_uris": {"ios": "https://dc.lft.to/lastmile_qr_scan", "android": "https://dc.lft.to/lastmile_qr_scan"}, "lon": -77.044801, "type": "electric_scooter", "fusion_lat": 0.0, "lat": 38.91551066666667, "name": "a093487438289cd511b6cf0f6cf69673", "fusion_lon": 0.0, "bike_id": "a093487438289cd511b6cf0f6cf69673", "is_disabled": 0, "is_reserved": 0}, {"rental_uris": {"ios": "https://dc.lft.to/lastmile_qr_scan", "android": "https://dc.lft.to/lastmile_qr_scan"}, "lon": -77.00656716666667, "type": "electric_scooter", "fusion_lat": 0.0, "lat": 38.944589666666666, "name": "29bfc829c58a59d728f473d796543a7f", "fusion_lon": 0.0, "bike_id": "29bfc829c58a59d728f473d796543a7f", "is_disabled": 0, "is_reserved": 0},