{"data": {"bikes": [{"is_disabled": 0, "is_reserved": 0, "fusion_lat": 0.0, "lat": 38.922098166666665, "fusion_lon": 0.0, "rental_uris": {"ios": "https://dc.lft.to/lastmile_qr_scan", "android": "https://dc.lft.to/lastmile_qr_scan"}, "lon": -77.0425825, "bike_id": "99afe76ff06046999584d8fc6439490f", "type": "electric_scooter", "name": "99afe76ff06046999584d8fc6439490f"}, {"is_disabled": 0, "is_reserved": 0, "fusion_lat": 0.0, "lat": 38.90661033333333, "fusion_lon": 0.0, "rental_uris": {"ios": "https://dc.lft.to/lastmile_qr_scan", "android": "https://dc.lft.to/lastmile_qr_scan"}, "lon": -76.98598633333333, "bike_id": "e9bf9c568c671b25d667582760b89e21", "type": "electric_scooter", "name": "e9bf9c568c671b25d667582760b89e21"}, {"is_disabled": 0, "is_reserved": 0, "fusion_lat": 0.0, "lat": 38.895472833333336, "fusion_lon": 0.0, "rental_uris": {"ios": "https://dc.lft.to/lastmile_qr_scan", "android": "https://dc.lft.to/lastmile_qr_scan"}, "lon": -77.03975333333334, "bike_id": "8fbee0f3d0769ec613b867961d38b5e0", "type": "electric_scooter", "name": "8fbee0f3d0769ec613b867961d38b5e0"}, {"is_disabled": 0, "is_reserved": 0, "fusion_lat": 0.0, "lat": 38.919256833333336, "fusion_lon": 0.0, "rental_uris": {"ios": "https://dc.lft.to/lastmile_qr_scan", "android": "https://dc.lft.to/lastmile_qr_scan"}, "lon": -77.0097535, "bike_id": "ebf6beaef90b4bade1fad782bc9d5528", "type": "electric_scooter", "name": "ebf6beaef90b4bade1fad782bc9d5528"}, {"is_disabled": 0, "is_reserved": 0, "fusion_lat": 0.0, "lat": 38.90077683333333, "fusion_lon": 0.0, "rental_uris": {"ios": "https://dc.lft.to/lastmile_qr_scan", "android": "https://dc.lft.to/lastmile_qr_scan"}, "lon": -77.0176985, "bike_id": "81c17ed7ae1389ceb60dbcbef64f6f03", "type": "electric_scooter", "name": "81c17ed7ae1389ceb60dbcbef64f6f03"}, {"is_disabled": 0, "is_reserved": 0, "fusion_lat": 0.0, "lat": 38.927550333333336, "fusion_lon": 0.0, "rental_uris": {"ios": "https://dc.lft.to/lastmile_qr_scan", "android": "https://dc.lft.to/lastmile_qr_scan"}, "lon": -77.03269016666667, "bike_id": "19bf24ee4cb1fb861d0e0fd0ebaf1b85", "type": "electric_scooter", "name": "19bf24ee4cb1fb861d0e0fd0ebaf1b85"}, {"is_disabled": 0, "is_reserved": 0, "fusion_lat": 0.0, "lat": 38.9078245, "fusion_lon": 0.0, "rental_uris": {"ios": "https://dc.lft.to/lastmile_qr_scan", "android": "https://dc.lft.to/lastmile_qr_scan"}, "lon": -77.06836033333333, "bike_id": "070cd397fd20193d9fa3348a48d5b266", "type": "electric_scooter", "name": "070cd397fd20193d9fa3348a48d5b266"}, {"is_disabled": 0, "is_reserved": 0, "fusion_lat": 0.0, "lat": 38.91351316666667, "fusion_lon": 0.0, "rental_uris": {"ios": "https://dc.lft.to/lastmile_qr_scan", "android": "https://dc.lft.to/lastmile_qr_scan"}, "lon": -77.04416033333334, "bike_id": "6bb2b1231a525ccbb55420f469330de6", "type": "electric_scooter", "name": "6bb2b1231a525ccbb55420f469330de6"}, {"is_disabled": 0, "is_reserved": 0, "fusion_lat": 0.0, "lat": 38.92377183333333, "fusion_lon": 0.0, "rental_uris": {"ios": "https://dc.lft.to/lastmile_qr_scan", "android": "https://dc.lft.to/lastmile_qr_scan"}, "lon": -77.02029633333333, "bike_id": "2f58428ca63a014102cd61ffd07b9540", "type": "electric_scooter", "name": "2f58428ca63a014102cd61ffd07b9540"}, {"is_disabled": 0, "is_reserved": 0, "fusion_lat": 0.0, "lat": 38.94314716666667, "fusion_lon": 0.0, "rental_uris": {"ios": "https://dc.lft.to/lastmile_qr_scan", "android": "https://dc.lft.to/lastmile_qr_scan"}, "lon": -77.0172485, "bike_id": "6a13044f6ecdb13e29b756c14387e051", "type": "electric_scooter", "name": "6a13044f6ecdb13e29b756c14387e051"}, {"is_disabled": 0, "is_reserved": 0, "fusion_lat": 0.0, "lat": 38.907395333333334, "fusion_lon": 0.0, "rental_uris": {"ios": "https://dc.lft.to/lastmile_qr_scan", "android": "https://dc.lft.to/lastmile_qr_scan"}, "lon": -77.00374033333334, "bike_id": "f1c13852eedb040cf537f1e2754ee538", "type": "electric_scooter", "name": "f1c13852eedb040cf537f1e2754ee538"}, {"is_disabled": 0, "is_reserved": 0, "fusion_lat": 0.0, "lat": 38.915636666666664, "fusion_lon": 0.0, "rental_uris": {"ios": "https://dc.lft.to/lastmile_qr_scan", "android": "https://dc.lft.to/lastmile_qr_scan"}, "lon": -77.03140866666666, "bike_id": "83ef0d7a08fb695ce4d405511f5cb362", "type": "electric_scooter", "name": "83ef0d7a08fb695ce4d405511f5cb362"}, {"is_disabled": 0, "is_reserved": 0, "fusion_lat": 0.0, "lat": 38.90540933333333, "fusion_lon": 0.0, "rental_uris": {"ios": "https://dc.lft.to/lastmile_qr_scan", "android": "https://dc.lft.to/lastmile_qr_scan"}, "lon": -77.05695, "bike_id": "938aaa604c3fd6f0fbdc81d4e6341d30", "type": "electric_scooter", "name": "938aaa604c3fd6f0fbdc81d4e6341d30"}, {"is_disabled": 0, "is_reserved": 0, "fusion_lat": 0.0, "lat": 38.95754733333333, "fusion_lon": 0.0, "rental_uris": {"ios": "https://dc.lft.to/lastmile_qr_scan", "android": "https://dc.lft.to/lastmile_qr_scan"}, "lon": -77.02207466666667, "bike_id": "bf8ed8c33f44938e93a07234ffe749bf", "type": "electric_scooter", "name": "bf8ed8c33f44938e93a07234ffe749bf"}, {"is_disabled": 0, "is_reserved": 0, "fusion_lat": 0.0, "lat": 38.92172133333333, "fusion_lon": 0.0, "rental_uris": {"ios": "https://dc.lft.to/lastmile_qr_scan", "android": "https://dc.lft.to/lastmile_qr_scan"}, "lon": -77.04022716666667, "bike_id": "b56dee1a585a332fadd8de3cc139e7f0", "type": "electric_scooter", "name": "b56dee1a585a332fadd8de3cc139e7f0"}, {"is_disabled": 0, "is_reserved": 0, "fusion_lat": 0.0, "lat": 38.9052165, "fusion_lon": 0.0, "rental_uris": {"ios": "https://dc.lft.to/lastmile_qr_scan", "android": "https://dc.lft.to/lastmile_qr_scan"}, "lon": -77.06600333333333, "bike_id": "c9e26581308e8ac4890cdd84786dcd87", "type": "electric_scooter", "name": "c9e26581308e8ac4890cdd84786dcd87"}, {"is_disabled": 0, "is_reserved": 0, "fusion_lat": 0.0, "lat": 38.92405466666666, "fusion_lon": 0.0, "rental_uris": {"ios": "https://dc.lft.to/lastmile_qr_scan", "android": "https://dc.lft.to/lastmile_qr_scan"}, "lon": -77.01995666666667, "bike_id": "5c42448fdd7b2eb60382413288b4da1a", "type": "electric_scooter", "name": "5c42448fdd7b2eb60382413288b4da1a"}, {"is_disabled": 0, "is_reserved": 0, "fusion_lat": 0.0, "lat": 38.901939, "fusion_lon": 0.0, "rental_uris": {"ios": "https://dc.lft.to/lastmile_qr_scan", "android": "https://dc.lft.to/lastmile_qr_scan"}, "lon": -77.00211016666667, "bike_id": "51ad055a97fb30e8c7b699b5582b1a15", "type": "electric_scooter", "name": "51ad055a97fb30e8c7b699b5582b1a15"}, {"is_disabled": 0, "is_reserved": 0, "fusion_lat": 0.0, "lat": 38.9025745, "fusion_lon": 0.0, "rental_uris": {"ios": "https://dc.lft.to/lastmile_qr_scan", "android": "https://dc.lft.to/lastmile_qr_scan"}, "lon": -77.02680866666667, "bike_id": "9c14bce39e459c3ee73bfd3708095c83", "type": "electric_scooter", "name": "9c14bce39e459c3ee73bfd3708095c83"}, {"is_disabled": 0, "is_reserved": 0, "fusion_lat": 0.0, "lat": 38.87468666666667, "fusion_lon": 0.0, "rental_uris": {"ios": "https://dc.lft.to/lastmile_qr_scan", "android": "https://dc.lft.to/lastmile_qr_scan"}, "lon": -77.00549433333333, "bike_id": "304f60d656d3809f7faf2bb0617b335a", "type": "electric_scooter", "name": "304f60d656d3809f7faf2bb0617b335a"}, {"is_disabled": 0, "is_reserved": 0, "fusion_lat": 0.0, "lat": 38.90469916666667, "fusion_lon": 0.0, "rental_uris": {"ios": "https://dc.lft.to/lastmile_qr_scan", "android": "https://dc.lft.to/lastmile_qr_scan"}, "lon": -77.06745, "bike_id": "4eb3cb243d553e019820868568033bfc", "type": "electric_bike", "name": "4eb3cb243d553e019820868568033bfc"}, {"is_disabled": 0, "is_reserved": 0, "fusion_lat": 0.0, "lat": 38.88539266666667, "fusion_lon": 0.0, "rental_uris": {"ios": "https://dc.lft.to/lastmile_qr_scan", "android": "https://dc.lft.to/lastmile_qr_scan"}, "lon": -76.92365966666667, "bike_id": "33c48d6892fa86aa1c61a7e661e39b30", "type": "electric_scooter", "name": "33c48d6892fa86aa1c61a7e661e39b30"}, {"is_disabled": 0, "is_reserved": 0, "fusion_lat": 0.0, "lat": 38.91250683333333, "fusion_lon": 0.0, "rental_uris": {"ios": "https://dc.lft.to/lastmile_qr_scan", "android": "https://dc.lft.to/lastmile_qr_scan"}, "lon": -77.04550183333333, "bike_id": "d04de18dac2a3e8d0521b1c4e4051401", "type": "electric_scooter", "name": "d04de18dac2a3e8d0521b1c4e4051401"}, {"is_disabled": 0, "is_reserved": 0, "fusion_lat": 0.0, "lat": 38.88532933333333, "fusion_lon": 0.0, "rental_uris": {"ios": "https://dc.lft.to/lastmile_qr_scan", "android": "https://dc.lft.to/lastmile_qr_scan"}, "lon": -76.9805705, "bike_id": "50702c9bc893e66f65f1527d42402654", "type": "electric_scooter", "name": "50702c9bc893e66f65f1527d42402654"}, {"is_disabled": 0, "is_reserved": 0, "fusion_lat": 0.0, "lat": 38.95688716666667, "fusion_lon": 0.0, "rental_uris": {"ios": "https://dc.lft.to/lastmile_qr_scan", "android": "https://dc.lft.to/lastmile_qr_scan"}, "lon": -77.02233416666667, "bike_id": "990c716a7baa00ed0f4e6ac753b5c7c4", "type": "electric_scooter", "name": "990c716a7baa00ed0f4e6ac753b5c7c4"}, {"is_disabled": 0, "is_reserved": 0, "fusion_lat": 0.0, "lat": 38.896285166666665, "fusion_lon": 0.0, "rental_uris": {"ios": "https://dc.lft.to/lastmile_qr_scan", "android": "https://dc.lft.to/lastmile_qr_scan"}, "lon": -76.90752866666666, "bike_id": "d364b1d976254001af97e35a0b9edc2d", "type": "electric_bike", "name": "d364b1d976254001af97e35a0b9edc2d"}, {"is_disabled": 0, "is_reserved": 0, "fusion_lat": 0.0, "lat": 38.91191416666667, "fusion_lon": 0.0, "rental_uris": {"ios": "https://dc.lft.to/lastmile_qr_scan", "android": "https://dc.lft.to/lastmile_qr_scan"}, "lon": -77.02978183333333, "bike_id": "4f56e493497d9a7e614bbebbb91b5970", "type": "electric_scooter", "name": "4f56e493497d9a7e614bbebbb91b5970"}, {"is_disabled": 0, "is_reserved": 0, "fusion_lat": 0.0, "lat": 38.9257105, "fusion_lon": 0.0, "rental_uris": {"ios": "https://dc.lft.to/lastmile_qr_scan", "android": "https://dc.lft.to/lastmile_qr_scan"}, "lon": -76.99498, "bike_id": "5a4575a7dc4c08cb242dba172dcdd84e", "type": "electric_scooter", "name": "5a4575a7dc4c08cb242dba172dcdd84e"}, {"is_disabled": 0, "is_reserved": 0, "fusion_lat": 0.0, "lat": 38.91765633333333, "fusion_lon": 0.0, "rental_uris": {"ios": "https://dc.lft.to/lastmile_qr_scan", "android": "https://dc.lft.to/lastmile_qr_scan"}, "lon": -77.027059, "bike_id": "c13d2bf34149b8d6f42cfe4e33773cbd", "type": "electric_scooter", "name": "c13d2bf34149b8d6f42cfe4e33773cbd"}, {"is_disabled": 0, "is_reserved": 0, "fusion_lat": 0.0, "lat": 38.930622, "fusion_lon": 0.0, "rental_uris": {"ios": "https://dc.lft.to/lastmile_qr_scan", "android": "https://dc.lft.to/lastmile_qr_scan"}, "lon": -77.0381555, "bike_id": "668b997015ec094822d27f7157e1c617", "type": "electric_scooter", "name": "668b997015ec094822d27f7157e1c617"}, {"is_disabled": 0, "is_reserved": 0, "fusion_lat": 0.0, "lat": 38.89784516666667, "fusion_lon": 0.0, "rental_uris": {"ios": "https://dc.lft.to/lastmile_qr_scan", "android": "https://dc.lft.to/lastmile_qr_scan"}, "lon": -77.050278, "bike_id": "49f75ee89a85b063b24555ebec7228cd", "type": "electric_scooter", "name": "49f75ee89a85b063b24555ebec7228cd"}, {"is_disabled": 0, "is_reserved": 0, "fusion_lat": 0.0, "lat": 38.872628166666665, "fusion_lon": 0.0, "rental_uris": {"ios": "https://dc.lft.to/lastmile_qr_scan", "android": "https://dc.lft.to/lastmile_qr_scan"}, "lon": -77.01698433333334, "bike_id": "f97b6a8e94d89654f885ebbcee4a590b", "type": "electric_scooter", "name": "f97b6a8e94d89654f885ebbcee4a590b"}, {"is_disabled": 0, "is_reserved": 0, "fusion_lat": 0.0, "lat": 38.9420055, "fusion_lon": 0.0, "rental_uris": {"ios": "https://dc.lft.to/lastmile_qr_scan", "android": "https://dc.lft.to/lastmile_qr_scan"}, "lon": -77.01338166666666, "bike_id": "c616f1cd348e3e7ae9c73ac8ed386a71", "type": "electric_scooter", "name": "c616f1cd348e3e7ae9c73ac8ed386a71"}, {"is_disabled": 0, "is_reserved": 0, "fusion_lat": 0.0, "lat": 38.9270525, "fusion_lon": 0.0, "rental_uris": {"ios": "https://dc.lft.to/lastmile_qr_scan", "android": "https://dc.lft.to/lastmile_qr_scan"}, "lon": -76.96077466666667, "bike_id": "719605a30410ac18b27a3472139b621f", "type": "electric_scooter", "name": "719605a30410ac18b27a3472139b621f"}, {"is_disabled": 0, "is_reserved": 0, "fusion_lat": 0.0, "lat": 38.88096766666666, "fusion_lon": 0.0, "rental_uris": {"ios": "https://dc.lft.to/lastmile_qr_scan", "android": "https://dc.lft.to/lastmile_qr_scan"}, "lon": -77.02644983333333, "bike_id": "731c97a746b4ff2d482ec6eaf2cc3c45", "type": "electric_scooter", "name": "731c97a746b4ff2d482ec6eaf2cc3c45"}, {"is_disabled": 0, "is_reserved": 0, "fusion_lat": 0.0, "lat": 38.92495616666667, "fusion_lon": 0.0, "rental_uris": {"ios": "https://dc.lft.to/lastmile_qr_scan", "android": "https://dc.lft.to/lastmile_qr_scan"}, "lon": -77.04329016666667, "bike_id": "67071ddeb167687131ac9b176f967137", "type": "electric_scooter", "name": "67071ddeb167687131ac9b176f967137"}, {"is_disabled": 0, "is_reserved": 0, "fusion_lat": 0.0, "lat": 39.084346, "fusion_lon": 0.0, "rental_uris": {"ios": "https://dc.lft.to/lastmile_qr_scan", "android": "https://dc.lft.to/lastmile_qr_scan"}, "lon": -76.9513955, "bike_id": "5a7c70f6e0d7cd8c8b40e8f0eaabe3e0", "type": "electric_bike", "name": "5a7c70f6e0d7cd8c8b40e8f0eaabe3e0"}, {"is_disabled": 0, "is_reserved": 0, "fusion_lat": 0.0, "lat": 38.916834333333334, "fusion_lon": 0.0, "rental_uris": {"ios": "https://dc.lft.to/lastmile_qr_scan", "android": "https://dc.lft.to/lastmile_qr_scan"}, "lon": -77.041414, "bike_id": "b7718b259b463ce5186ce4e128f6fa5d", "type": "electric_scooter", "name": "b7718b259b463ce5186ce4e128f6fa5d"}, {"is_disabled": 0, "is_reserved": 0, "fusion_lat": 0.0, "lat": 38.90262766666667, "fusion_lon": 0.0, "rental_uris": {"ios": "https://dc.lft.to/lastmile_qr_scan", "android": "https://dc.lft.to/lastmile_qr_scan"}, "lon": -77.0313805, "bike_id": "30ea80e3e1513a52a2ec6907d88af9a5", "type": "electric_scooter", "name": "30ea80e3e1513a52a2ec6907d88af9a5"}, {"is_disabled": 0, "is_reserved": 0, "fusion_lat": 0.0, "lat": 38.841029166666665, "fusion_lon": 0.0, "rental_uris": {"ios": "https://dc.lft.to/lastmile_qr_scan", "android": "https://dc.lft.to/lastmile_qr_scan"}, "lon": -77.089421, "bike_id": "6bde1c8278f423d84a326e9961f2f246", "type": "electric_bike", "name": "6bde1c8278f423d84a326e9961f2f246"}, {"is_disabled": 0, "is_reserved": 0, "fusion_lat": 0.0, "lat": 38.88446783333333, "fusion_lon": 0.0, "rental_uris": {"ios": "https://dc.lft.to/lastmile_qr_scan", "android": "https://dc.lft.to/lastmile_qr_scan"}, "lon": -77.00902433333333, "bike_id": "cc7ec3fe2bbe696a024b072c621f3629", "type": "electric_scooter", "name": "cc7ec3fe2bbe696a024b072c621f3629"}, {"is_disabled": 0, "is_reserved": 0, "fusion_lat": 0.0, "lat": 38.883868, "fusion_lon": 0.0, "rental_uris": {"ios": "https://dc.lft.to/lastmile_qr_scan", "android": "https://dc.lft.to/lastmile_qr_scan"}, "lon": -76.93033766666667, "bike_id": "69616898b39e9ef7af70bdd7627b99b3", "type": "electric_scooter", "name": "69616898b39e9ef7af70bdd7627b99b3"}, {"is_disabled": 0, "is_reserved": 0, "fusion_lat": 0.0, "lat": 38.9316195, "fusion_lon": 0.0, "rental_uris": {"ios": "https://dc.lft.to/lastmile_qr_scan", "android": "https://dc.lft.to/lastmile_qr_scan"}, "lon": -77.05607633333334, "bike_id": "3ca49a01d5e4df1f411a8f51551fa229", "type": "electric_scooter", "name": "3ca49a01d5e4df1f411a8f51551fa229"}, {"is_disabled": 0, "is_reserved": 0, "fusion_lat": 0.0, "lat": 38.899924166666665, "fusion_lon": 0.0, "rental_uris": {"ios": "https://dc.lft.to/lastmile_qr_scan", "android": "https://dc.lft.to/lastmile_qr_scan"}, "lon": -77.00263316666667, "bike_id": "0da8e663b47b0c475bb46c8c608c46e6", "type": "electric_scooter", "name": "0da8e663b47b0c475bb46c8c608c46e6"}, {"is_disabled": 0, "is_reserved": 0, "fusion_lat": 0.0, "lat": 38.903762, "fusion_lon": 0.0, "rental_uris": {"ios": "https://dc.lft.to/lastmile_qr_scan", "android": "https://dc.lft.to/lastmile_qr_scan"}, "lon": -76.99497433333333, "bike_id": "ed65803ec6cb5cffe03a5b86d7a74159", "type": "electric_scooter", "name": "ed65803ec6cb5cffe03a5b86d7a74159"}, {"is_disabled": 0, "is_reserved": 0, "fusion_lat": 0.0, "lat": 38.9210245, "fusion_lon": 0.0, "rental_uris": {"ios": "https://dc.lft.to/lastmile_qr_scan", "android": "https://dc.lft.to/lastmile_qr_scan"}, "lon": -77.0394805, "bike_id": "65b5ce3cd9e301be37810cc93159e22d", "type": "electric_scooter", "name": "65b5ce3cd9e301be37810cc93159e22d"}, {"is_disabled": 0, "is_reserved": 0, "fusion_lat": 0.0, "lat": 38.927243833333335, "fusion_lon": 0.0, "rental_uris": {"ios": "https://dc.lft.to/lastmile_qr_scan", "android": "https://dc.lft.to/lastmile_qr_scan"}, "lon": -77.02309966666667, "bike_id": "015ab22362aa88d7c326bc87367bc0c8", "type": "electric_scooter", "name": "015ab22362aa88d7c326bc87367bc0c8"}, {"is_disabled": 0, "is_reserved": 0, "fusion_lat": 0.0, "lat": 38.9169025, "fusion_lon": 0.0, "rental_uris": {"ios": "https://dc.lft.to/lastmile_qr_scan", "android": "https://dc.lft.to/lastmile_qr_scan"}, "lon": -77.02513833333333, "bike_id": "22d5e8f6c9a8403f7d58195a5138b1f7", "type": "electric_scooter", "name": "22d5e8f6c9a8403f7d58195a5138b1f7"}, {"is_disabled": 0, "is_reserved": 0, "fusion_lat": 0.0, "lat": 38.96380033333333, "fusion_lon": 0.0, "rental_uris": {"ios": "https://dc.lft.to/lastmile_qr_scan", "android": "https://dc.lft.to/lastmile_qr_scan"}, "lon": -77.019755, "bike_id": "6dc65fe7ecfb01a56e6d22cfd4e74797", "type": "electric_bike", "name": "6dc65fe7ecfb01a56e6d22cfd4e74797"}, {"is_disabled": 0, "is_reserved": 0, "fusion_lat": 0.0, "lat": 38.902544666666664, "fusion_lon": 0.0, "rental_uris": {"ios": "https://dc.lft.to/lastmile_qr_scan", "android": "https://dc.lft.to/lastmile_qr_scan"}, "lon": -77.01856233333334, "bike_id": "0f10e8ca7acc0df405b92d41ae7aa891", "type": "electric_scooter", "name": "0f10e8ca7acc0df405b92d41ae7aa891"}, {"is_disabled": 0, "is_reserved": 0, "fusion_lat": 0.0, "lat": 38.933431, "fusion_lon": 0.0, "rental_uris": {"ios": "https://dc.lft.to/lastmile_qr_scan", "android": "https://dc.lft.to/lastmile_qr_scan"}, "lon": -77.0194205, "bike_id": "4a410e738fab91c07f5f9cd686564ba5", "type": "electric_scooter", "name": "4a410e738fab91c07f5f9cd686564ba5"}, {"is_disabled": 0, "is_reserved": 0, "fusion_lat": 0.0, "lat": 38.926041166666664, "fusion_lon": 0.0, "rental_uris": {"ios": "https://dc.lft.to/lastmile_qr_scan", "android": "https://dc.lft.to/lastmile_qr_scan"}, "lon": -77.02292883333334, "bike_id": "520b18da10c0df142774b0fb91cf7b1f", "type": "electric_scooter", "name": "520b18da10c0df142774b0fb91cf7b1f"}, {"is_disabled": 0, "is_reserved": 0, "fusion_lat": 0.0, "lat": 38.930542, "fusion_lon": 0.0, "rental_uris": {"ios": "https://dc.lft.to/lastmile_qr_scan", "android": "https://dc.lft.to/lastmile_qr_scan"}, "lon": -77.0335925, "bike_id": "0d53c49423a97cd5847ce25818121a33", "type": "electric_scooter", "name": "0d53c49423a97cd5847ce25818121a33"}, {"is_disabled": 0, "is_reserved": 0, "fusion_lat": 0.0, "lat": 38.8847995, "fusion_lon": 0.0, "rental_uris": {"ios": "https://dc.lft.to/lastmile_qr_scan", "android": "https://dc.lft.to/lastmile_qr_scan"}, "lon": -77.03175966666667, "bike_id": "0b9b2ddb8d02e3e5d65420def6faa4e1", "type": "electric_bike", "name": "0b9b2ddb8d02e3e5d65420def6faa4e1"}, {"is_disabled": 0, "is_reserved": 0, "fusion_lat": 0.0, "lat": 38.93533333333333, "fusion_lon": 0.0, "rental_uris": {"ios": "https://dc.lft.to/lastmile_qr_scan", "android": "https://dc.lft.to/lastmile_qr_scan"}, "lon": -77.0235515, "bike_id": "fba5310ce4d768547660b930a6a5c830", "type": "electric_scooter", "name": "fba5310ce4d768547660b930a6a5c830"}, {"is_disabled": 0, "is_reserved": 0, "fusion_lat": 0.0, "lat": 38.87586616666667, "fusion_lon": 0.0, "rental_uris": {"ios": "https://dc.lft.to/lastmile_qr_scan", "android": "https://dc.lft.to/lastmile_qr_scan"}, "lon": -77.00566966666666, "bike_id": "b1fd6a048f76e9d6285cb53397e44413", "type": "electric_scooter", "name": "b1fd6a048f76e9d6285cb53397e44413"}, {"is_disabled": 0, "is_reserved": 0, "fusion_lat": 0.0, "lat": 38.923393833333336, "fusion_lon": 0.0, "rental_uris": {"ios": "https://dc.lft.to/lastmile_qr_scan", "android": "https://dc.lft.to/lastmile_qr_scan"}, "lon": -77.0413985, "bike_id": "4d1ac358281579f8a7ff6a315058172e", "type": "electric_scooter", "name": "4d1ac358281579f8a7ff6a315058172e"}, {"is_disabled": 0, "is_reserved": 0, "fusion_lat": 0.0, "lat": 38.887119, "fusion_lon": 0.0, "rental_uris": {"ios": "https://dc.lft.to/lastmile_qr_scan", "android": "https://dc.lft.to/lastmile_qr_scan"}, "lon": -76.98381933333333, "bike_id": "0ed9ddf7ec9353760094c080951289a8", "type": "electric_scooter", "name": "0ed9ddf7ec9353760094c080951289a8"}, {"is_disabled": 0, "is_reserved": 0, "fusion_lat": 0.0, "lat": 38.90184333333333, "fusion_lon": 0.0, "rental_uris": {"ios": "https://dc.lft.to/lastmile_qr_scan", "android": "https://dc.lft.to/lastmile_qr_scan"}, "lon": -76.97667416666667, "bike_id": "4003183924ccb6fe34d4428388cbf76f", "type": "electric_scooter", "name": "4003183924ccb6fe34d4428388cbf76f"}, {"is_disabled": 0, "is_reserved": 0, "fusion_lat": 0.0, "lat": 38.898537833333336, "fusion_lon": 0.0, "rental_uris": {"ios": "https://dc.lft.to/lastmile_qr_scan", "android": "https://dc.lft.to/lastmile_qr_scan"}, "lon": -77.0217175, "bike_id": "33e65cf2e91e512409b52676c2078c74", "type": "electric_scooter", "name": "33e65cf2e91e512409b52676c2078c74"}, {"is_disabled": 0, "is_reserved": 0, "fusion_lat": 0.0, "lat": 38.915380166666665, "fusion_lon": 0.0, "rental_uris": {"ios": "https://dc.lft.to/lastmile_qr_scan", "android": "https://dc.lft.to/lastmile_qr_scan"}, "lon": -77.07542616666667, "bike_id": "f5ffd8715e98a9e17c1d30628ae43619", "type": "electric_scooter", "name": "f5ffd8715e98a9e17c1d30628ae43619"}, {"is_disabled": 0, "is_reserved": 0, "fusion_lat": 0.0, "lat": 38.926114, "fusion_lon": 0.0, "rental_uris": {"ios": "https://dc.lft.to/lastmile_qr_scan", "android": "https://dc.lft.to/lastmile_qr_scan"}, "lon": -77.0216385, "bike_id": "2d5476fa86e8d971fdc64505dc127c6f", "type": "electric_scooter", "name": "2d5476fa86e8d971fdc64505dc127c6f"}, {"is_disabled": 0, "is_reserved": 0, "fusion_lat": 0.0, "lat": 38.93969233333333, "fusion_lon": 0.0, "rental_uris": {"ios": "https://dc.lft.to/lastmile_qr_scan", "android": "https://dc.lft.to/lastmile_qr_scan"}, "lon": -77.03253516666666, "bike_id": "8ed83a3159e756589cba7308f16ed410", "type": "electric_scooter", "name": "8ed83a3159e756589cba7308f16ed410"}, {"is_disabled": 0, "is_reserved": 0, "fusion_lat": 0.0, "lat": 38.89362933333334, "fusion_lon": 0.0, "rental_uris": {"ios": "https://dc.lft.to/lastmile_qr_scan", "android": "https://dc.lft.to/lastmile_qr_scan"}, "lon": -77.0447345, "bike_id": "9884e5d499459851c207b01744c06b23", "type": "electric_scooter", "name": "9884e5d499459851c207b01744c06b23"}, {"is_disabled": 0, "is_reserved": 0, "fusion_lat": 0.0, "lat": 38.92779516666667, "fusion_lon": 0.0, "rental_uris": {"ios": "https://dc.lft.to/lastmile_qr_scan", "android": "https://dc.lft.to/lastmile_qr_scan"}, "lon": -77.05261833333333, "bike_id": "0aa01d6e9da5e036f386025ccbea69d6", "type": "electric_scooter", "name": "0aa01d6e9da5e036f386025ccbea69d6"}, {"is_disabled": 0, "is_reserved": 0, "fusion_lat": 0.0, "lat": 39.000211666666665, "fusion_lon": 0.0, "rental_uris": {"ios": "https://dc.lft.to/lastmile_qr_scan", "android": "https://dc.lft.to/lastmile_qr_scan"}, "lon": -76.910647, "bike_id": "72f3753f1a5190ec0680bb83b490fa61", "type": "electric_bike", "name": "72f3753f1a5190ec0680bb83b490fa61"}, {"is_disabled": 0, "is_reserved": 0, "fusion_lat": 0.0, "lat": 38.939811166666665, "fusion_lon": 0.0, "rental_uris": {"ios": "https://dc.lft.to/lastmile_qr_scan", "android": "https://dc.lft.to/lastmile_qr_scan"}, "lon": -77.01904, "bike_id": "e6e2d284358c0df3c5bb82b3e02a7978", "type": "electric_scooter", "name": "e6e2d284358c0df3c5bb82b3e02a7978"}, {"is_disabled": 0, "is_reserved": 0, "fusion_lat": 0.0, "lat": 38.95738433333333, "fusion_lon": 0.0, "rental_uris": {"ios": "https://dc.lft.to/lastmile_qr_scan", "android": "https://dc.lft.to/lastmile_qr_scan"}, "lon": -77.02317516666666, "bike_id": "fa963cdb36743d8756c0c3a730127326", "type": "electric_scooter", "name": "fa963cdb36743d8756c0c3a730127326"}, {"is_disabled": 0, "is_reserved": 0, "fusion_lat": 0.0, "lat": 38.94166216666667, "fusion_lon": 0.0, "rental_uris": {"ios": "https://dc.lft.to/lastmile_qr_scan", "android": "https://dc.lft.to/lastmile_qr_scan"}, "lon": -76.99408866666667, "bike_id": "e6be323d45a8d1ac963388697445019d", "type": "electric_bike", "name": "e6be323d45a8d1ac963388697445019d"}, {"is_disabled": 0, "is_reserved": 0, "fusion_lat": 0.0, "lat": 38.875723, "fusion_lon": 0.0, "rental_uris": {"ios": "https://dc.lft.to/lastmile_qr_scan", "android": "https://dc.lft.to/lastmile_qr_scan"}, "lon": -77.00588983333333, "bike_id": "719381ead2299dd1f0fb72e0f4ec7292", "type": "electric_scooter", "name": "719381ead2299dd1f0fb72e0f4ec7292"}, {"is_disabled": 0, "is_reserved": 0, "fusion_lat": 0.0, "lat": 38.92615766666667, "fusion_lon": 0.0, "rental_uris": {"ios": "https://dc.lft.to/lastmile_qr_scan", "android": "https://dc.lft.to/lastmile_qr_scan"}, "lon": -77.00650616666667, "bike_id": "0def8914716a860d2e00320bf9cddf72", "type": "electric_scooter", "name": "0def8914716a860d2e00320bf9cddf72"}, {"is_disabled": 0, "is_reserved": 0, "fusion_lat": 0.0, "lat": 38.90174316666667, "fusion_lon": 0.0, "rental_uris": {"ios": "https://dc.lft.to/lastmile_qr_scan", "android": "https://dc.lft.to/lastmile_qr_scan"}, "lon": -77.00211483333334, "bike_id": "2066396190875c883c02bc0ba0bd654f", "type": "electric_scooter", "name": "2066396190875c883c02bc0ba0bd654f"}, {"is_disabled": 0, "is_reserved": 0, "fusion_lat": 0.0, "lat": 38.912608166666665, "fusion_lon": 0.0, "rental_uris": {"ios": "https://dc.lft.to/lastmile_qr_scan", "android": "https://dc.lft.to/lastmile_qr_scan"}, "lon": -77.04787966666666, "bike_id": "c60a1fd73e853a5511e162224cd39d7f", "type": "electric_scooter", "name": "c60a1fd73e853a5511e162224cd39d7f"}, {"is_disabled": 0, "is_reserved": 0, "fusion_lat": 0.0, "lat": 38.945895666666665, "fusion_lon": 0.0, "rental_uris": {"ios": "https://dc.lft.to/lastmile_qr_scan", "android": "https://dc.lft.to/lastmile_qr_scan"}, "lon": -77.02034083333334, "bike_id": "7eebe3de5beaf0acdf377423a0adaf11", "type": "electric_scooter", "name": "7eebe3de5beaf0acdf377423a0adaf11"}, {"is_disabled": 0, "is_reserved": 0, "fusion_lat": 0.0, "lat": 38.9199165, "fusion_lon": 0.0, "rental_uris": {"ios": "https://dc.lft.to/lastmile_qr_scan", "android": "https://dc.lft.to/lastmile_qr_scan"}, "lon": -76.97299483333333, "bike_id": "19ec5ebe485a420b8bfd8b5b40cd0cd7", "type": "electric_scooter", "name": "19ec5ebe485a420b8bfd8b5b40cd0cd7"}, {"is_disabled": 0, "is_reserved": 0, "fusion_lat": 0.0, "lat": 38.923814, "fusion_lon": 0.0, "rental_uris": {"ios": "https://dc.lft.to/lastmile_qr_scan", "android": "https://dc.lft.to/lastmile_qr_scan"}, "lon": -77.0402915, "bike_id": "103403907798b7aae68679386e1fda2e", "type": "electric_scooter", "name": "103403907798b7aae68679386e1fda2e"}, {"is_disabled": 0, "is_reserved": 0, "fusion_lat": 0.0, "lat": 38.842764, "fusion_lon": 0.0, "rental_uris": {"ios": "https://dc.lft.to/lastmile_qr_scan", "android": "https://dc.lft.to/lastmile_qr_scan"}, "lon": -76.98843866666667, "bike_id": "8e7a0207a2cb56e048abe73d5a1ef701", "type": "electric_bike", "name": "8e7a0207a2cb56e048abe73d5a1ef701"}, {"is_disabled": 0, "is_reserved": 0, "fusion_lat": 0.0, "lat": 38.908279666666665, "fusion_lon": 0.0, "rental_uris": {"ios": "https://dc.lft.to/lastmile_qr_scan", "android": "https://dc.lft.to/lastmile_qr_scan"}, "lon": -77.03851783333333, "bike_id": "dcbb83df31eebfa8047f7a5c1ae2ef79", "type": "electric_bike", "name": "dcbb83df31eebfa8047f7a5c1ae2ef79"}, {"is_disabled": 0, "is_reserved": 0, "fusion_lat": 0.0, "lat": 38.8922605, "fusion_lon": 0.0, "rental_uris": {"ios": "https://dc.lft.to/lastmile_qr_scan", "android": "https://dc.lft.to/lastmile_qr_scan"}, "lon": -77.03216283333333, "bike_id": "5b6b229b21e9568651c36a7c643d7969", "type": "electric_scooter", "name": "5b6b229b21e9568651c36a7c643d7969"}, {"is_disabled": 0, "is_reserved": 0, "fusion_lat": 0.0, "lat": 38.915644, "fusion_lon": 0.0, "rental_uris": {"ios": "https://dc.lft.to/lastmile_qr_scan", "android": "https://dc.lft.to/lastmile_qr_scan"}, "lon": -77.031375, "bike_id": "745800d1f7429ac04be229e97f7aa6f3", "type": "electric_scooter", "name": "745800d1f7429ac04be229e97f7aa6f3"}, {"is_disabled": 0, "is_reserved": 0, "fusion_lat": 0.0, "lat": 38.924141666666664, "fusion_lon": 0.0, "rental_uris": {"ios": "https://dc.lft.to/lastmile_qr_scan", "android": "https://dc.lft.to/lastmile_qr_scan"}, "lon": -77.03556366666666, "bike_id": "c667d2a28a375bb3c62faccda9e7d930", "type": "electric_scooter", "name": "c667d2a28a375bb3c62faccda9e7d930"}, {"is_disabled": 0, "is_reserved": 0, "fusion_lat": 0.0, "lat": 38.916513333333334, "fusion_lon": 0.0, "rental_uris": {"ios": "https://dc.lft.to/lastmile_qr_scan", "android": "https://dc.lft.to/lastmile_qr_scan"}, "lon": -77.03195983333333, "bike_id": "23b77ea57833d9d1a79dab7690679bab", "type": "electric_scooter", "name": "23b77ea57833d9d1a79dab7690679bab"}, {"is_disabled": 0, "is_reserved": 0, "fusion_lat": 0.0, "lat": 38.90653483333333, "fusion_lon": 0.0, "rental_uris": {"ios": "https://dc.lft.to/lastmile_qr_scan", "android": "https://dc.lft.to/lastmile_qr_scan"}, "lon": -77.045547, "bike_id": "c9d56995de96933ed5b0d64b63e7d602", "type": "electric_scooter", "name": "c9d56995de96933ed5b0d64b63e7d602"}, {"is_disabled": 0, "is_reserved": 0, "fusion_lat": 0.0, "lat": 38.900787333333334, "fusion_lon": 0.0, "rental_uris": {"ios": "https://dc.lft.to/lastmile_qr_scan", "android": "https://dc.lft.to/lastmile_qr_scan"}, "lon": -77.04932016666666, "bike_id": "f192c4e8357077403f76bfe993ec17cb", "type": "electric_scooter", "name": "f192c4e8357077403f76bfe993ec17cb"}, {"is_disabled": 0, "is_reserved": 0, "fusion_lat": 0.0, "lat": 38.89836, "fusion_lon": 0.0, "rental_uris": {"ios": "https://dc.lft.to/lastmile_qr_scan", "android": "https://dc.lft.to/lastmile_qr_scan"}, "lon": -76.98653833333333, "bike_id": "aaddceaaeb3244f2b052825d28ed09d3", "type": "electric_scooter", "name": "aaddceaaeb3244f2b052825d28ed09d3"}, {"is_disabled": 0, "is_reserved": 0, "fusion_lat": 0.0, "lat": 38.94633433333333, "fusion_lon": 0.0, "rental_uris": {"ios": "https://dc.lft.to/lastmile_qr_scan", "android": "https://dc.lft.to/lastmile_qr_scan"}, "lon": -77.01839666666666, "bike_id": "c7075085b1375c0e20a122ed266b3648", "type": "electric_scooter", "name": "c7075085b1375c0e20a122ed266b3648"}, {"is_disabled": 0, "is_reserved": 0, "fusion_lat": 0.0, "lat": 38.912598, "fusion_lon": 0.0, "rental_uris": {"ios": "https://dc.lft.to/lastmile_qr_scan", "android": "https://dc.lft.to/lastmile_qr_scan"}, "lon": -77.0459755, "bike_id": "cfe8781364b0187d03d12b4458c9ad07", "type": "electric_scooter", "name": "cfe8781364b0187d03d12b4458c9ad07"}, {"is_disabled": 0, "is_reserved": 0, "fusion_lat": 0.0, "lat": 38.9056125, "fusion_lon": 0.0, "rental_uris": {"ios": "https://dc.lft.to/lastmile_qr_scan", "android": "https://dc.lft.to/lastmile_qr_scan"}, "lon": -77.01718133333334, "bike_id": "512f37ad0f70ca9747ef9bdd33cfc125", "type": "electric_scooter", "name": "512f37ad0f70ca9747ef9bdd33cfc125"}, {"is_disabled": 0, "is_reserved": 0, "fusion_lat": 0.0, "lat": 38.924052333333336, "fusion_lon": 0.0, "rental_uris": {"ios": "https://dc.lft.to/lastmile_qr_scan", "android": "https://dc.lft.to/lastmile_qr_scan"}, "lon": -77.051682, "bike_id": "ea73a4709f2d9ba67b9459b164fd4fde", "type": "electric_scooter", "name": "ea73a4709f2d9ba67b9459b164fd4fde"}, {"is_disabled": 0, "is_reserved": 0, "fusion_lat": 0.0, "lat": 38.90041333333333, "fusion_lon": 0.0, "rental_uris": {"ios": "https://dc.lft.to/lastmile_qr_scan", "android": "https://dc.lft.to/lastmile_qr_scan"}, "lon": -76.99507033333333, "bike_id": "740cc2e4ca6538ea06bfc904373ebc12", "type": "electric_scooter", "name": "740cc2e4ca6538ea06bfc904373ebc12"}, {"is_disabled": 0, "is_reserved": 0, "fusion_lat": 0.0, "lat": 38.96433366666667, "fusion_lon": 0.0, "rental_uris": {"ios": "https://dc.lft.to/lastmile_qr_scan", "android": "https://dc.lft.to/lastmile_qr_scan"}, "lon": -77.03184633333333, "bike_id": "481cbc6299c032540249b6122be22d77", "type": "electric_bike", "name": "481cbc6299c032540249b6122be22d77"}, {"is_disabled": 0, "is_reserved": 0, "fusion_lat": 0.0, "lat": 38.932126833333335, "fusion_lon": 0.0, "rental_uris": {"ios": "https://dc.lft.to/lastmile_qr_scan", "android": "https://dc.lft.to/lastmile_qr_scan"}, "lon": -77.03534066666667, "bike_id": "1b9ef8d78c6f342428f61c5f6030b6e1", "type": "electric_scooter", "name": "1b9ef8d78c6f342428f61c5f6030b6e1"}, {"is_disabled": 0, "is_reserved": 0, "fusion_lat": 0.0, "lat": 38.91109183333333, "fusion_lon": 0.0, "rental_uris": {"ios": "https://dc.lft.to/lastmile_qr_scan", "android": "https://dc.lft.to/lastmile_qr_scan"}, "lon": -77.03834683333334, "bike_id": "51bf8d1bbaef5184f9bc7a522ad355de", "type": "electric_scooter", "name": "51bf8d1bbaef5184f9bc7a522ad355de"}, {"is_disabled": 0, "is_reserved": 0, "fusion_lat": 0.0, "lat": 38.92006833333333, "fusion_lon": 0.0, "rental_uris": {"ios": "https://dc.lft.to/lastmile_qr_scan", "android": "https://dc.lft.to/lastmile_qr_scan"}, "lon": -77.0715845, "bike_id": "57f317073832a45233058d2eb5c9ed7a", "type": "electric_scooter", "name": "57f317073832a45233058d2eb5c9ed7a"}, {"is_disabled": 0, "is_reserved": 0, "fusion_lat": 0.0, "lat": 38.92899516666667, "fusion_lon": 0.0, "rental_uris": {"ios": "https://dc.lft.to/lastmile_qr_scan", "android": "https://dc.lft.to/lastmile_qr_scan"}, "lon": -77.03224583333333, "bike_id": "2d9a5b4ae3749edb56328cb76ed89935", "type": "electric_scooter", "name": "2d9a5b4ae3749edb56328cb76ed89935"}, {"is_disabled": 0, "is_reserved": 0, "fusion_lat": 0.0, "lat": 38.908249166666664, "fusion_lon": 0.0, "rental_uris": {"ios": "https://dc.lft.to/lastmile_qr_scan", "android": "https://dc.lft.to/lastmile_qr_scan"}, "lon": -77.03842883333333, "bike_id": "0c0fdaa10b289e2bebd10b5a3b5327e8", "type": "electric_scooter", "name": "0c0fdaa10b289e2bebd10b5a3b5327e8"}, {"is_disabled": 0, "is_reserved": 0, "fusion_lat": 0.0, "lat": 38.87090633333333, "fusion_lon": 0.0, "rental_uris": {"ios": "https://dc.lft.to/lastmile_qr_scan", "android": "https://dc.lft.to/lastmile_qr_scan"}, "lon": -77.0108245, "bike_id": "65e19dc49a878746f87c163e3e82928c", "type": "electric_scooter", "name": "65e19dc49a878746f87c163e3e82928c"}, {"is_disabled": 0, "is_reserved": 0, "fusion_lat": 0.0, "lat": 38.87640233333333, "fusion_lon": 0.0, "rental_uris": {"ios": "https://dc.lft.to/lastmile_qr_scan", "android": "https://dc.lft.to/lastmile_qr_scan"}, "lon": -77.00209866666667, "bike_id": "9785210b73353222770396c135fbe7d5", "type": "electric_scooter", "name": "9785210b73353222770396c135fbe7d5"}, {"is_disabled": 0, "is_reserved": 0, "fusion_lat": 0.0, "lat": 38.91110916666667, "fusion_lon": 0.0, "rental_uris": {"ios": "https://dc.lft.to/lastmile_qr_scan", "android": "https://dc.lft.to/lastmile_qr_scan"}, "lon": -77.03835066666667, "bike_id": "b9657643e36773dd7005c7ce9b5e4887", "type": "electric_scooter", "name": "b9657643e36773dd7005c7ce9b5e4887"}, {"is_disabled": 0, "is_reserved": 0, "fusion_lat": 0.0, "lat": 38.87922, "fusion_lon": 0.0, "rental_uris": {"ios": "https://dc.lft.to/lastmile_qr_scan", "android": "https://dc.lft.to/lastmile_qr_scan"}, "lon": -77.02373883333334, "bike_id": "6a3238861f01eaec7cf5322efe09b162", "type": "electric_scooter", "name": "6a3238861f01eaec7cf5322efe09b162"}, {"is_disabled": 0, "is_reserved": 0, "fusion_lat": 0.0, "lat": 38.9243005, "fusion_lon": 0.0, "rental_uris": {"ios": "https://dc.lft.to/lastmile_qr_scan", "android": "https://dc.lft.to/lastmile_qr_scan"}, "lon": -77.01952116666666, "bike_id": "c6bce3065596f1241b554a63dc86e6ec", "type": "electric_scooter", "name": "c6bce3065596f1241b554a63dc86e6ec"}, {"is_disabled": 0, "is_reserved": 0, "fusion_lat": 0.0, "lat": 38.903944, "fusion_lon": 0.0, "rental_uris": {"ios": "https://dc.lft.to/lastmile_qr_scan", "android": "https://dc.lft.to/lastmile_qr_scan"}, "lon": -77.01747366666666, "bike_id": "49c064826e36eabfb104f954d4555ce8", "type": "electric_scooter", "name": "49c064826e36eabfb104f954d4555ce8"}, {"is_disabled": 0, "is_reserved": 0, "fusion_lat": 0.0, "lat": 38.91745433333333, "fusion_lon": 0.0, "rental_uris": {"ios": "https://dc.lft.to/lastmile_qr_scan", "android": "https://dc.lft.to/lastmile_qr_scan"}, "lon": -77.01082816666667, "bike_id": "a8a011cdb880d914adc42b64b4834381", "type": "electric_scooter", "name": "a8a011cdb880d914adc42b64b4834381"}, {"is_disabled": 0, "is_reserved": 0, "fusion_lat": 0.0, "lat": 38.8993585, "fusion_lon": 0.0, "rental_uris": {"ios": "https://dc.lft.to/lastmile_qr_scan", "android": "https://dc.lft.to/lastmile_qr_scan"}, "lon": -76.93759, "bike_id": "dfe36761d90481b48e8aa971c744e099", "type": "electric_scooter", "name": "dfe36761d90481b48e8aa971c744e099"}, {"is_disabled": 0, "is_reserved": 0, "fusion_lat": 0.0, "lat": 38.902556, "fusion_lon": 0.0, "rental_uris": {"ios": "https://dc.lft.to/lastmile_qr_scan", "android": "https://dc.lft.to/lastmile_qr_scan"}, "lon": -77.06278383333333, "bike_id": "c289f7485f78f1405c827c5481bb30d3", "type": "electric_scooter", "name": "c289f7485f78f1405c827c5481bb30d3"}, {"is_disabled": 0, "is_reserved": 0, "fusion_lat": 0.0, "lat": 38.87352633333333, "fusion_lon": 0.0, "rental_uris": {"ios": "https://dc.lft.to/lastmile_qr_scan", "android": "https://dc.lft.to/lastmile_qr_scan"}, "lon": -77.00204266666667, "bike_id": "d037607a234fc1f7512ccd75adb2e9d2", "type": "electric_scooter", "name": "d037607a234fc1f7512ccd75adb2e9d2"}, {"is_disabled": 0, "is_reserved": 0, "fusion_lat": 0.0, "lat": 38.889755666666666, "fusion_lon": 0.0, "rental_uris": {"ios": "https://dc.lft.to/lastmile_qr_scan", "android": "https://dc.lft.to/lastmile_qr_scan"}, "lon": -76.98177883333334, "bike_id": "d63b8679453d72757ed5e280a72e8ca3", "type": "electric_scooter", "name": "d63b8679453d72757ed5e280a72e8ca3"}, {"is_disabled": 0, "is_reserved": 0, "fusion_lat": 0.0, "lat": 38.99099783333333, "fusion_lon": 0.0, "rental_uris": {"ios": "https://dc.lft.to/lastmile_qr_scan", "android": "https://dc.lft.to/lastmile_qr_scan"}, "lon": -76.99364133333333, "bike_id": "c75641138c4e5c62f8bbc0bc284c09d6", "type": "electric_bike", "name": "c75641138c4e5c62f8bbc0bc284c09d6"}, {"is_disabled": 0, "is_reserved": 0, "fusion_lat": 0.0, "lat": 38.895419833333335, "fusion_lon": 0.0, "rental_uris": {"ios": "https://dc.lft.to/lastmile_qr_scan", "android": "https://dc.lft.to/lastmile_qr_scan"}, "lon": -77.0219915, "bike_id": "391a097c1d92f6f73a8d291e4c43cd75", "type": "electric_scooter", "name": "391a097c1d92f6f73a8d291e4c43cd75"}, {"is_disabled": 0, "is_reserved": 0, "fusion_lat": 0.0, "lat": 38.91544183333333, "fusion_lon": 0.0, "rental_uris": {"ios": "https://dc.lft.to/lastmile_qr_scan", "android": "https://dc.lft.to/lastmile_qr_scan"}, "lon": -77.02634366666666, "bike_id": "906ee7aa687d780115f5795a8fb3296e", "type": "electric_scooter", "name": "906ee7aa687d780115f5795a8fb3296e"}, {"is_disabled": 0, "is_reserved": 0, "fusion_lat": 0.0, "lat": 38.8662135, "fusion_lon": 0.0, "rental_uris": {"ios": "https://dc.lft.to/lastmile_qr_scan", "android": "https://dc.lft.to/lastmile_qr_scan"}, "lon": -76.98995233333333, "bike_id": "c3dbd5d295de4b759d9c17bc155a298b", "type": "electric_bike", "name": "c3dbd5d295de4b759d9c17bc155a298b"}, {"is_disabled": 0, "is_reserved": 0, "fusion_lat": 0.0, "lat": 38.9084455, "fusion_lon": 0.0, "rental_uris": {"ios": "https://dc.lft.to/lastmile_qr_scan", "android": "https://dc.lft.to/lastmile_qr_scan"}, "lon": -77.05813816666667, "bike_id": "079004a69a6de1bb08f383eff71c8ccf", "type": "electric_scooter", "name": "079004a69a6de1bb08f383eff71c8ccf"}, {"is_disabled": 0, "is_reserved": 0, "fusion_lat": 0.0, "lat": 38.90079266666667, "fusion_lon": 0.0, "rental_uris": {"ios": "https://dc.lft.to/lastmile_qr_scan", "android": "https://dc.lft.to/lastmile_qr_scan"}, "lon": -77.04464266666666, "bike_id": "b015e21592404029c924c16f8c10777d", "type": "electric_scooter", "name": "b015e21592404029c924c16f8c10777d"}, {"is_disabled": 0, "is_reserved": 0, "fusion_lat": 0.0, "lat": 38.897317666666666, "fusion_lon": 0.0, "rental_uris": {"ios": "https://dc.lft.to/lastmile_qr_scan", "android": "https://dc.lft.to/lastmile_qr_scan"}, "lon": -77.03369983333333, "bike_id": "2ff54d745ef64c8296cadfa5b86df39c", "type": "electric_scooter", "name": "2ff54d745ef64c8296cadfa5b86df39c"}, {"is_disabled": 0, "is_reserved": 0, "fusion_lat": 0.0, "lat": 38.8485855, "fusion_lon": 0.0, "rental_uris": {"ios": "https://dc.lft.to/lastmile_qr_scan", "android": "https://dc.lft.to/lastmile_qr_scan"}, "lon": -77.06829066666667, "bike_id": "9232ee3895436e24914376eacababe3e", "type": "electric_bike", "name": "9232ee3895436e24914376eacababe3e"}, {"is_disabled": 0, "is_reserved": 0, "fusion_lat": 0.0, "lat": 38.9062895, "fusion_lon": 0.0, "rental_uris": {"ios": "https://dc.lft.to/lastmile_qr_scan", "android": "https://dc.lft.to/lastmile_qr_scan"}, "lon": -77.04869233333334, "bike_id": "3171c1f9062c5d056b2e8553515f7767", "type": "electric_scooter", "name": "3171c1f9062c5d056b2e8553515f7767"}, {"is_disabled": 0, "is_reserved": 0, "fusion_lat": 0.0, "lat": 38.92043183333333, "fusion_lon": 0.0, "rental_uris": {"ios": "https://dc.lft.to/lastmile_qr_scan", "android": "https://dc.lft.to/lastmile_qr_scan"}, "lon": -77.01678483333333, "bike_id": "194ef00b8974fe8cdf57d428c6adc38e", "type": "electric_scooter", "name": "194ef00b8974fe8cdf57d428c6adc38e"}, {"is_disabled": 0, "is_reserved": 0, "fusion_lat": 0.0, "lat": 38.90809083333333, "fusion_lon": 0.0, "rental_uris": {"ios": "https://dc.lft.to/lastmile_qr_scan", "android": "https://dc.lft.to/lastmile_qr_scan"}, "lon": -76.99992483333334, "bike_id": "7dd9aee4e1d72a5f0aab95cc5eef18bf", "type": "electric_scooter", "name": "7dd9aee4e1d72a5f0aab95cc5eef18bf"}, {"is_disabled": 0, "is_reserved": 0, "fusion_lat": 0.0, "lat": 38.90510166666667, "fusion_lon": 0.0, "rental_uris": {"ios": "https://dc.lft.to/lastmile_qr_scan", "android": "https://dc.lft.to/lastmile_qr_scan"}, "lon": -77.04082466666667, "bike_id": "4a06bb8cb5a893bd3b8e426aec79bcfb", "type": "electric_scooter", "name": "4a06bb8cb5a893bd3b8e426aec79bcfb"}, {"is_disabled": 0, "is_reserved": 0, "fusion_lat": 0.0, "lat": 38.90229183333334, "fusion_lon": 0.0, "rental_uris": {"ios": "https://dc.lft.to/lastmile_qr_scan", "android": "https://dc.lft.to/lastmile_qr_scan"}, "lon": -77.0006455, "bike_id": "08f4149e8287f2d189317fa6f6310bea", "type": "electric_scooter", "name": "08f4149e8287f2d189317fa6f6310bea"}, {"is_disabled": 0, "is_reserved": 0, "fusion_lat": 0.0, "lat": 38.91608883333333, "fusion_lon": 0.0, "rental_uris": {"ios": "https://dc.lft.to/lastmile_qr_scan", "android": "https://dc.lft.to/lastmile_qr_scan"}, "lon": -77.021171, "bike_id": "a49a7882657ba17f722faf3f6dedb81d", "type": "electric_scooter", "name": "a49a7882657ba17f722faf3f6dedb81d"}, {"is_disabled": 0, "is_reserved": 0, "fusion_lat": 0.0, "lat": 38.92228683333333, "fusion_lon": 0.0, "rental_uris": {"ios": "https://dc.lft.to/lastmile_qr_scan", "android": "https://dc.lft.to/lastmile_qr_scan"}, "lon": -76.97528883333334, "bike_id": "2dd176114604b39d88602564668b51f7", "type": "electric_scooter", "name": "2dd176114604b39d88602564668b51f7"}, {"is_disabled": 0, "is_reserved": 0, "fusion_lat": 0.0, "lat": 38.93408683333333, "fusion_lon": 0.0, "rental_uris": {"ios": "https://dc.lft.to/lastmile_qr_scan", "android": "https://dc.lft.to/lastmile_qr_scan"}, "lon": -77.02045916666667, "bike_id": "1369ee990c059d16237542ac72d66e0b", "type": "electric_scooter", "name": "1369ee990c059d16237542ac72d66e0b"}, {"is_disabled": 0, "is_reserved": 0, "fusion_lat": 0.0, "lat": 38.90359733333333, "fusion_lon": 0.0, "rental_uris": {"ios": "https://dc.lft.to/lastmile_qr_scan", "android": "https://dc.lft.to/lastmile_qr_scan"}, "lon": -77.04005383333333, "bike_id": "0e5b2241a997bcfd594f1bd63ca0f714", "type": "electric_scooter", "name": "0e5b2241a997bcfd594f1bd63ca0f714"}, {"is_disabled": 0, "is_reserved": 0, "fusion_lat": 0.0, "lat": 38.91024683333333, "fusion_lon": 0.0, "rental_uris": {"ios": "https://dc.lft.to/lastmile_qr_scan", "android": "https://dc.lft.to/lastmile_qr_scan"}, "lon": -77.03444383333333, "bike_id": "4989e1e64128bdbe42856f768767edae", "type": "electric_scooter", "name": "4989e1e64128bdbe42856f768767edae"}, {"is_disabled": 0, "is_reserved": 0, "fusion_lat": 0.0, "lat": 38.90370683333333, "fusion_lon": 0.0, "rental_uris": {"ios": "https://dc.lft.to/lastmile_qr_scan", "android": "https://dc.lft.to/lastmile_qr_scan"}, "lon": -76.98013633333333, "bike_id": "85855924d779475f1c086e0cf6805f92", "type": "electric_bike", "name": "85855924d779475f1c086e0cf6805f92"}, {"is_disabled": 0, "is_reserved": 0, "fusion_lat": 0.0, "lat": 38.90813083333333, "fusion_lon": 0.0, "rental_uris": {"ios": "https://dc.lft.to/lastmile_qr_scan", "android": "https://dc.lft.to/lastmile_qr_scan"}, "lon": -77.03039, "bike_id": "49248e962cd2a8c5baf8a8244e7c99f3", "type": "electric_scooter", "name": "49248e962cd2a8c5baf8a8244e7c99f3"}, {"is_disabled": 0, "is_reserved": 0, "fusion_lat": 0.0, "lat": 38.897620333333336, "fusion_lon": 0.0, "rental_uris": {"ios": "https://dc.lft.to/lastmile_qr_scan", "android": "https://dc.lft.to/lastmile_qr_scan"}, "lon": -77.03291683333333, "bike_id": "0bee2204cbf29db038a6f102293913db", "type": "electric_scooter", "name": "0bee2204cbf29db038a6f102293913db"}, {"is_disabled": 0, "is_reserved": 0, "fusion_lat": 0.0, "lat": 38.928132166666664, "fusion_lon": 0.0, "rental_uris": {"ios": "https://dc.lft.to/lastmile_qr_scan", "android": "https://dc.lft.to/lastmile_qr_scan"}, "lon": -77.04356833333334, "bike_id": "63826f89316237d3b11cab0dd981ffc0", "type": "electric_scooter", "name": "63826f89316237d3b11cab0dd981ffc0"}, {"is_disabled": 0, "is_reserved": 0, "fusion_lat": 0.0, "lat": 38.9250635, "fusion_lon": 0.0, "rental_uris": {"ios": "https://dc.lft.to/lastmile_qr_scan", "android": "https://dc.lft.to/lastmile_qr_scan"}, "lon": -77.022691, "bike_id": "e31cfa3d0db4a149738a38fa521f2f5d", "type": "electric_scooter", "name": "e31cfa3d0db4a149738a38fa521f2f5d"}, {"is_disabled": 0, "is_reserved": 0, "fusion_lat": 0.0, "lat": 38.900695166666665, "fusion_lon": 0.0, "rental_uris": {"ios": "https://dc.lft.to/lastmile_qr_scan", "android": "https://dc.lft.to/lastmile_qr_scan"}, "lon": -77.04343916666667, "bike_id": "539426036c2106412b24f65af3317c2e", "type": "electric_scooter", "name": "539426036c2106412b24f65af3317c2e"}, {"is_disabled": 0, "is_reserved": 0, "fusion_lat": 0.0, "lat": 38.94310466666667, "fusion_lon": 0.0, "rental_uris": {"ios": "https://dc.lft.to/lastmile_qr_scan", "android": "https://dc.lft.to/lastmile_qr_scan"}, "lon": -77.07722066666666, "bike_id": "0d1dc9d80a15c0d74050a5f92a606c04", "type": "electric_scooter", "name": "0d1dc9d80a15c0d74050a5f92a606c04"}, {"is_disabled": 0, "is_reserved": 0, "fusion_lat": 0.0, "lat": 38.88875383333333, "fusion_lon": 0.0, "rental_uris": {"ios": "https://dc.lft.to/lastmile_qr_scan", "android": "https://dc.lft.to/lastmile_qr_scan"}, "lon": -76.95700016666666, "bike_id": "39119c70c8e87450848447fa5b317113", "type": "electric_bike", "name": "39119c70c8e87450848447fa5b317113"}, {"is_disabled": 0, "is_reserved": 0, "fusion_lat": 0.0, "lat": 38.91709933333333, "fusion_lon": 0.0, "rental_uris": {"ios": "https://dc.lft.to/lastmile_qr_scan", "android": "https://dc.lft.to/lastmile_qr_scan"}, "lon": -77.0250535, "bike_id": "739b8e03fa26930dcd835911f4a38f28", "type": "electric_scooter", "name": "739b8e03fa26930dcd835911f4a38f28"}, {"is_disabled": 0, "is_reserved": 0, "fusion_lat": 0.0, "lat": 38.90192483333333, "fusion_lon": 0.0, "rental_uris": {"ios": "https://dc.lft.to/lastmile_qr_scan", "android": "https://dc.lft.to/lastmile_qr_scan"}, "lon": -77.00218083333333, "bike_id": "d97252e45346ad18430f5df4a0ec4e23", "type": "electric_scooter", "name": "d97252e45346ad18430f5df4a0ec4e23"}, {"is_disabled": 0, "is_reserved": 0, "fusion_lat": 0.0, "lat": 38.901819833333334, "fusion_lon": 0.0, "rental_uris": {"ios": "https://dc.lft.to/lastmile_qr_scan", "android": "https://dc.lft.to/lastmile_qr_scan"}, "lon": -77.00056583333334, "bike_id": "650c0c3fafdc915f00d8155e7b589077", "type": "electric_scooter", "name": "650c0c3fafdc915f00d8155e7b589077"}, {"is_disabled": 0, "is_reserved": 0, "fusion_lat": 0.0, "lat": 38.8795715, "fusion_lon": 0.0, "rental_uris": {"ios": "https://dc.lft.to/lastmile_qr_scan", "android": "https://dc.lft.to/lastmile_qr_scan"}, "lon": -76.93180766666667, "bike_id": "c28804ca35f33bd7eb9f776db70e864a", "type": "electric_bike", "name": "c28804ca35f33bd7eb9f776db70e864a"}, {"is_disabled": 0, "is_reserved": 0, "fusion_lat": 0.0, "lat": 38.91832466666666, "fusion_lon": 0.0, "rental_uris": {"ios": "https://dc.lft.to/lastmile_qr_scan", "android": "https://dc.lft.to/lastmile_qr_scan"}, "lon": -77.02296866666667, "bike_id": "689079da2f4d2e13bb3b33bc8e6e8808", "type": "electric_scooter", "name": "689079da2f4d2e13bb3b33bc8e6e8808"}, {"is_disabled": 0, "is_reserved": 0, "fusion_lat": 0.0, "lat": 38.91251233333333, "fusion_lon": 0.0, "rental_uris": {"ios": "https://dc.lft.to/lastmile_qr_scan", "android": "https://dc.lft.to/lastmile_qr_scan"}, "lon": -77.0324495, "bike_id": "fd5317b46cb327913c62485385ab5fdd", "type": "electric_scooter", "name": "fd5317b46cb327913c62485385ab5fdd"}, {"is_disabled": 0, "is_reserved": 0, "fusion_lat": 0.0, "lat": 38.89857116666667, "fusion_lon": 0.0, "rental_uris": {"ios": "https://dc.lft.to/lastmile_qr_scan", "android": "https://dc.lft.to/lastmile_qr_scan"}, "lon": -76.946402, "bike_id": "92c03b6b54e6a9cd54359d1edb80b22e", "type": "electric_scooter", "name": "92c03b6b54e6a9cd54359d1edb80b22e"}, {"is_disabled": 0, "is_reserved": 0, "fusion_lat": 0.0, "lat": 38.918093166666665, "fusion_lon": 0.0, "rental_uris": {"ios": "https://dc.lft.to/lastmile_qr_scan", "android": "https://dc.lft.to/lastmile_qr_scan"}, "lon": -77.0345915, "bike_id": "7d1b713e7fb2ab1c4cf3e2ed2c8c5252", "type": "electric_scooter", "name": "7d1b713e7fb2ab1c4cf3e2ed2c8c5252"}, {"is_disabled": 0, "is_reserved": 0, "fusion_lat": 0.0, "lat": 38.8981845, "fusion_lon": 0.0, "rental_uris": {"ios": "https://dc.lft.to/lastmile_qr_scan", "android": "https://dc.lft.to/lastmile_qr_scan"}, "lon": -77.0020575, "bike_id": "f8809ca84f5f3f3944091f8e7385cddc", "type": "electric_scooter", "name": "f8809ca84f5f3f3944091f8e7385cddc"}, {"is_disabled": 0, "is_reserved": 0, "fusion_lat": 0.0, "lat": 38.87069483333333, "fusion_lon": 0.0, "rental_uris": {"ios": "https://dc.lft.to/lastmile_qr_scan", "android": "https://dc.lft.to/lastmile_qr_scan"}, "lon": -76.979379, "bike_id": "e66349446e7622d1ba41a8c71874eab2", "type": "electric_scooter", "name": "e66349446e7622d1ba41a8c71874eab2"}, {"is_disabled": 0, "is_reserved": 0, "fusion_lat": 0.0, "lat": 38.93563616666667, "fusion_lon": 0.0, "rental_uris": {"ios": "https://dc.lft.to/lastmile_qr_scan", "android": "https://dc.lft.to/lastmile_qr_scan"}, "lon": -77.028506, "bike_id": "230c9b0626dd262203b6fd057ffa980e", "type": "electric_scooter", "name": "230c9b0626dd262203b6fd057ffa980e"}, {"is_disabled": 0, "is_reserved": 0, "fusion_lat": 0.0, "lat": 38.918227333333334, "fusion_lon": 0.0, "rental_uris": {"ios": "https://dc.lft.to/lastmile_qr_scan", "android": "https://dc.lft.to/lastmile_qr_scan"}, "lon": -77.02294416666666, "bike_id": "dc3133d01f6a4e25cd252b66fd080caa", "type": "electric_scooter", "name": "dc3133d01f6a4e25cd252b66fd080caa"}, {"is_disabled": 0, "is_reserved": 0, "fusion_lat": 0.0, "lat": 38.90869583333333, "fusion_lon": 0.0, "rental_uris": {"ios": "https://dc.lft.to/lastmile_qr_scan", "android": "https://dc.lft.to/lastmile_qr_scan"}, "lon": -77.00379566666666, "bike_id": "6a5c5b1f3599704b05241798d1b279f3", "type": "electric_scooter", "name": "6a5c5b1f3599704b05241798d1b279f3"}, {"is_disabled": 0, "is_reserved": 0, "fusion_lat": 0.0, "lat": 38.90187983333333, "fusion_lon": 0.0, "rental_uris": {"ios": "https://dc.lft.to/lastmile_qr_scan", "android": "https://dc.lft.to/lastmile_qr_scan"}, "lon": -77.0005925, "bike_id": "417d8ad7fed2089e9db8f25d12573f67", "type": "electric_scooter", "name": "417d8ad7fed2089e9db8f25d12573f67"}, {"is_disabled": 0, "is_reserved": 0, "fusion_lat": 0.0, "lat": 38.89833133333333, "fusion_lon": 0.0, "rental_uris": {"ios": "https://dc.lft.to/lastmile_qr_scan", "android": "https://dc.lft.to/lastmile_qr_scan"}, "lon": -76.94634466666666, "bike_id": "7a9e7ae590d51ef4307e568999f30aa1", "type": "electric_scooter", "name": "7a9e7ae590d51ef4307e568999f30aa1"}, {"is_disabled": 0, "is_reserved": 0, "fusion_lat": 0.0, "lat": 38.9171335, "fusion_lon": 0.0, "rental_uris": {"ios": "https://dc.lft.to/lastmile_qr_scan", "android": "https://dc.lft.to/lastmile_qr_scan"}, "lon": -77.03237566666667, "bike_id": "8281512ea85a792783ccb1bd1c073f2d", "type": "electric_scooter", "name": "8281512ea85a792783ccb1bd1c073f2d"}, {"is_disabled": 0, "is_reserved": 0, "fusion_lat": 0.0, "lat": 38.920853666666666, "fusion_lon": 0.0, "rental_uris": {"ios": "https://dc.lft.to/lastmile_qr_scan", "android": "https://dc.lft.to/lastmile_qr_scan"}, "lon": -77.03191933333333, "bike_id": "b8525188cc4b8414317fd8ecc47854bc", "type": "electric_scooter", "name": "b8525188cc4b8414317fd8ecc47854bc"}, {"is_disabled": 0, "is_reserved": 0, "fusion_lat": 0.0, "lat": 38.846436833333335, "fusion_lon": 0.0, "rental_uris": {"ios": "https://dc.lft.to/lastmile_qr_scan", "android": "https://dc.lft.to/lastmile_qr_scan"}, "lon": -77.00373516666667, "bike_id": "219b167640066043e4ff60838a11c6d0", "type": "electric_scooter", "name": "219b167640066043e4ff60838a11c6d0"}, {"is_disabled": 0, "is_reserved": 0, "fusion_lat": 0.0, "lat": 38.88023583333333, "fusion_lon": 0.0, "rental_uris": {"ios": "https://dc.lft.to/lastmile_qr_scan", "android": "https://dc.lft.to/lastmile_qr_scan"}, "lon": -76.94319716666666, "bike_id": "940aa7452a01ef1e6574a16477328823", "type": "electric_scooter", "name": "940aa7452a01ef1e6574a16477328823"}, {"is_disabled": 0, "is_reserved": 0, "fusion_lat": 0.0, "lat": 38.84619083333333, "fusion_lon": 0.0, "rental_uris": {"ios": "https://dc.lft.to/lastmile_qr_scan", "android": "https://dc.lft.to/lastmile_qr_scan"}, "lon": -76.97836116666667, "bike_id": "79675929d51c6af4f856d35515c619d5", "type": "electric_bike", "name": "79675929d51c6af4f856d35515c619d5"}, {"is_disabled": 0, "is_reserved": 0, "fusion_lat": 0.0, "lat": 38.90261366666667, "fusion_lon": 0.0, "rental_uris": {"ios": "https://dc.lft.to/lastmile_qr_scan", "android": "https://dc.lft.to/lastmile_qr_scan"}, "lon": -77.03470483333334, "bike_id": "557452155990651c5fbffbd79d4c3414", "type": "electric_scooter", "name": "557452155990651c5fbffbd79d4c3414"}, {"is_disabled": 0, "is_reserved": 0, "fusion_lat": 0.0, "lat": 38.932990333333336, "fusion_lon": 0.0, "rental_uris": {"ios": "https://dc.lft.to/lastmile_qr_scan", "android": "https://dc.lft.to/lastmile_qr_scan"}, "lon": -77.02442033333334, "bike_id": "2b43208b4809d5e5dbc892c944d4ca29", "type": "electric_scooter", "name": "2b43208b4809d5e5dbc892c944d4ca29"}, {"is_disabled": 0, "is_reserved": 0, "fusion_lat": 0.0, "lat": 38.903825833333336, "fusion_lon": 0.0, "rental_uris": {"ios": "https://dc.lft.to/lastmile_qr_scan", "android": "https://dc.lft.to/lastmile_qr_scan"}, "lon": -76.9807955, "bike_id": "41e23c2d77ec36a9ae3d609a89a33557", "type": "electric_scooter", "name": "41e23c2d77ec36a9ae3d609a89a33557"}, {"is_disabled": 0, "is_reserved": 0, "fusion_lat": 0.0, "lat": 38.901542166666665, "fusion_lon": 0.0, "rental_uris": {"ios": "https://dc.lft.to/lastmile_qr_scan", "android": "https://dc.lft.to/lastmile_qr_scan"}, "lon": -77.0349255, "bike_id": "a63a10be9a35a96784df9efc3606acb7", "type": "electric_scooter", "name": "a63a10be9a35a96784df9efc3606acb7"}, {"is_disabled": 0, "is_reserved": 0, "fusion_lat": 0.0, "lat": 38.904663666666664, "fusion_lon": 0.0, "rental_uris": {"ios": "https://dc.lft.to/lastmile_qr_scan", "android": "https://dc.lft.to/lastmile_qr_scan"}, "lon": -77.06275566666666, "bike_id": "874338bece48e1b5c8b58fc7b15750b2", "type": "electric_scooter", "name": "874338bece48e1b5c8b58fc7b15750b2"}, {"is_disabled": 0, "is_reserved": 0, "fusion_lat": 0.0, "lat": 38.88708366666667, "fusion_lon": 0.0, "rental_uris": {"ios": "https://dc.lft.to/lastmile_qr_scan", "android": "https://dc.lft.to/lastmile_qr_scan"}, "lon": -76.983426, "bike_id": "8c56f385197eb7d4ff415ce02030a5be", "type": "electric_scooter", "name": "8c56f385197eb7d4ff415ce02030a5be"}, {"is_disabled": 0, "is_reserved": 0, "fusion_lat": 0.0, "lat": 38.913693333333335, "fusion_lon": 0.0, "rental_uris": {"ios": "https://dc.lft.to/lastmile_qr_scan", "android": "https://dc.lft.to/lastmile_qr_scan"}, "lon": -77.01563083333333, "bike_id": "401c5035e3484e353d330aad1ed4214f", "type": "electric_scooter", "name": "401c5035e3484e353d330aad1ed4214f"}, {"is_disabled": 0, "is_reserved": 0, "fusion_lat": 0.0, "lat": 39.04236083333333, "fusion_lon": 0.0, "rental_uris": {"ios": "https://dc.lft.to/lastmile_qr_scan", "android": "https://dc.lft.to/lastmile_qr_scan"}, "lon": -76.99733166666667, "bike_id": "48e4dae478b8bf082e95eb4ccdaa4497", "type": "electric_bike", "name": "48e4dae478b8bf082e95eb4ccdaa4497"}, {"is_disabled": 0, "is_reserved": 0, "fusion_lat": 0.0, "lat": 38.908933166666664, "fusion_lon": 0.0, "rental_uris": {"ios": "https://dc.lft.to/lastmile_qr_scan", "android": "https://dc.lft.to/lastmile_qr_scan"}, "lon": -77.04666833333333, "bike_id": "c1c77a30cb78a16a25388522de0ded11", "type": "electric_scooter", "name": "c1c77a30cb78a16a25388522de0ded11"}, {"is_disabled": 0, "is_reserved": 0, "fusion_lat": 0.0, "lat": 38.9214285, "fusion_lon": 0.0, "rental_uris": {"ios": "https://dc.lft.to/lastmile_qr_scan", "android": "https://dc.lft.to/lastmile_qr_scan"}, "lon": -77.01800483333334, "bike_id": "bf2b42b1c7eddada00f1b0f3a0ed4414", "type": "electric_scooter", "name": "bf2b42b1c7eddada00f1b0f3a0ed4414"}, {"is_disabled": 0, "is_reserved": 0, "fusion_lat": 0.0, "lat": 38.89226133333333, "fusion_lon": 0.0, "rental_uris": {"ios": "https://dc.lft.to/lastmile_qr_scan", "android": "https://dc.lft.to/lastmile_qr_scan"}, "lon": -77.04335316666666, "bike_id": "a901558ea3296d1cfd0b872f39d7bd57", "type": "electric_scooter", "name": "a901558ea3296d1cfd0b872f39d7bd57"}, {"is_disabled": 0, "is_reserved": 0, "fusion_lat": 0.0, "lat": 38.90262083333333, "fusion_lon": 0.0, "rental_uris": {"ios": "https://dc.lft.to/lastmile_qr_scan", "android": "https://dc.lft.to/lastmile_qr_scan"}, "lon": -77.03459883333333, "bike_id": "7f4d091a432c4c282c2e563d504a0c6b", "type": "electric_scooter", "name": "7f4d091a432c4c282c2e563d504a0c6b"}, {"is_disabled": 0, "is_reserved": 0, "fusion_lat": 0.0, "lat": 38.998498166666664, "fusion_lon": 0.0, "rental_uris": {"ios": "https://dc.lft.to/lastmile_qr_scan", "android": "https://dc.lft.to/lastmile_qr_scan"}, "lon": -77.00250666666666, "bike_id": "0c73802ac77b0e3ade84aa3797258230", "type": "electric_bike", "name": "0c73802ac77b0e3ade84aa3797258230"}, {"is_disabled": 0, "is_reserved": 0, "fusion_lat": 0.0, "lat": 38.875649, "fusion_lon": 0.0, "rental_uris": {"ios": "https://dc.lft.to/lastmile_qr_scan", "android": "https://dc.lft.to/lastmile_qr_scan"}, "lon": -77.04704933333333, "bike_id": "344b5cd571e6cc457c483186cd594463", "type": "electric_bike", "name": "344b5cd571e6cc457c483186cd594463"}, {"is_disabled": 0, "is_reserved": 0, "fusion_lat": 0.0, "lat": 38.91273416666667, "fusion_lon": 0.0, "rental_uris": {"ios": "https://dc.lft.to/lastmile_qr_scan", "android": "https://dc.lft.to/lastmile_qr_scan"}, "lon": -77.0466235, "bike_id": "f74a681b2ea5973772d3170f86570460", "type": "electric_scooter", "name": "f74a681b2ea5973772d3170f86570460"}, {"is_disabled": 0, "is_reserved": 0, "fusion_lat": 0.0, "lat": 38.928892833333336, "fusion_lon": 0.0, "rental_uris": {"ios": "https://dc.lft.to/lastmile_qr_scan", "android": "https://dc.lft.to/lastmile_qr_scan"}, "lon": -77.03874683333333, "bike_id": "0587e5f8e4a0884baa1f7d52972d8ea7", "type": "electric_scooter", "name": "0587e5f8e4a0884baa1f7d52972d8ea7"}, {"is_disabled": 0, "is_reserved": 0, "fusion_lat": 0.0, "lat": 38.906911666666666, "fusion_lon": 0.0, "rental_uris": {"ios": "https://dc.lft.to/lastmile_qr_scan", "android": "https://dc.lft.to/lastmile_qr_scan"}, "lon": -77.06297366666666, "bike_id": "22665745e59d4db2deb43d388b3d2860", "type": "electric_scooter", "name": "22665745e59d4db2deb43d388b3d2860"}, {"is_disabled": 0, "is_reserved": 0, "fusion_lat": 0.0, "lat": 38.901369333333335, "fusion_lon": 0.0, "rental_uris": {"ios": "https://dc.lft.to/lastmile_qr_scan", "android": "https://dc.lft.to/lastmile_qr_scan"}, "lon": -77.03503566666667, "bike_id": "ebe58a52daf706329ab289c7b8049806", "type": "electric_scooter", "name": "ebe58a52daf706329ab289c7b8049806"}, {"is_disabled": 0, "is_reserved": 0, "fusion_lat": 0.0, "lat": 38.91119966666667, "fusion_lon": 0.0, "rental_uris": {"ios": "https://dc.lft.to/lastmile_qr_scan", "android": "https://dc.lft.to/lastmile_qr_scan"}, "lon": -77.03140383333333, "bike_id": "625b3b366fbbbf2563b16585d8148a0d", "type": "electric_scooter", "name": "625b3b366fbbbf2563b16585d8148a0d"}, {"is_disabled": 0, "is_reserved": 0, "fusion_lat": 0.0, "lat": 38.92216966666667, "fusion_lon": 0.0, "rental_uris": {"ios": "https://dc.lft.to/lastmile_qr_scan", "android": "https://dc.lft.to/lastmile_qr_scan"}, "lon": -77.0431335, "bike_id": "1911b4020d37f6b687618df89c2e2dc1", "type": "electric_scooter", "name": "1911b4020d37f6b687618df89c2e2dc1"}, {"is_disabled": 0, "is_reserved": 0, "fusion_lat": 0.0, "lat": 38.898308666666665, "fusion_lon": 0.0, "rental_uris": {"ios": "https://dc.lft.to/lastmile_qr_scan", "android": "https://dc.lft.to/lastmile_qr_scan"}, "lon": -76.9901515, "bike_id": "fac49c6d4cab6a65c9421f96349086f9", "type": "electric_scooter", "name": "fac49c6d4cab6a65c9421f96349086f9"}, {"is_disabled": 0, "is_reserved": 0, "fusion_lat": 0.0, "lat": 38.91417366666667, "fusion_lon": 0.0, "rental_uris": {"ios": "https://dc.lft.to/lastmile_qr_scan", "android": "https://dc.lft.to/lastmile_qr_scan"}, "lon": -77.03332216666666, "bike_id": "ca25d87f4f1ee9e9be0f41735cbc40db", "type": "electric_scooter", "name": "ca25d87f4f1ee9e9be0f41735cbc40db"}, {"is_disabled": 0, "is_reserved": 0, "fusion_lat": 0.0, "lat": 38.9212095, "fusion_lon": 0.0, "rental_uris": {"ios": "https://dc.lft.to/lastmile_qr_scan", "android": "https://dc.lft.to/lastmile_qr_scan"}, "lon": -77.01207616666667, "bike_id": "f9f2ee4e45d2c82bdf39fb2efa9b72a0", "type": "electric_scooter", "name": "f9f2ee4e45d2c82bdf39fb2efa9b72a0"}, {"is_disabled": 0, "is_reserved": 0, "fusion_lat": 0.0, "lat": 38.904529833333335, "fusion_lon": 0.0, "rental_uris": {"ios": "https://dc.lft.to/lastmile_qr_scan", "android": "https://dc.lft.to/lastmile_qr_scan"}, "lon": -76.93274833333334, "bike_id": "f1be3efec89c204ce322414802f5c200", "type": "electric_scooter", "name": "f1be3efec89c204ce322414802f5c200"}, {"is_disabled": 0, "is_reserved": 0, "fusion_lat": 0.0, "lat": 38.898199166666664, "fusion_lon": 0.0, "rental_uris": {"ios": "https://dc.lft.to/lastmile_qr_scan", "android": "https://dc.lft.to/lastmile_qr_scan"}, "lon": -76.9927215, "bike_id": "4da24b5af700a22c9b0ceef852cbfa28", "type": "electric_scooter", "name": "4da24b5af700a22c9b0ceef852cbfa28"}, {"is_disabled": 0, "is_reserved": 0, "fusion_lat": 0.0, "lat": 38.923814166666666, "fusion_lon": 0.0, "rental_uris": {"ios": "https://dc.lft.to/lastmile_qr_scan", "android": "https://dc.lft.to/lastmile_qr_scan"}, "lon": -77.04023233333334, "bike_id": "2fbf5160b47bdf95e8bfb3d38fab2bff", "type": "electric_scooter", "name": "2fbf5160b47bdf95e8bfb3d38fab2bff"}, {"is_disabled": 0, "is_reserved": 0, "fusion_lat": 0.0, "lat": 38.8900035, "fusion_lon": 0.0, "rental_uris": {"ios": "https://dc.lft.to/lastmile_qr_scan", "android": "https://dc.lft.to/lastmile_qr_scan"}, "lon": -77.04904066666667, "bike_id": "ff9e47fb269a3132f8c210c19fa16091", "type": "electric_scooter", "name": "ff9e47fb269a3132f8c210c19fa16091"}, {"is_disabled": 0, "is_reserved": 0, "fusion_lat": 0.0, "lat": 38.9355485, "fusion_lon": 0.0, "rental_uris": {"ios": "https://dc.lft.to/lastmile_qr_scan", "android": "https://dc.lft.to/lastmile_qr_scan"}, "lon": -77.07705516666667, "bike_id": "532a4100fe3fc1f31b9bc8b075726115", "type": "electric_scooter", "name": "532a4100fe3fc1f31b9bc8b075726115"}, {"is_disabled": 0, "is_reserved": 0, "fusion_lat": 0.0, "lat": 38.91930166666667, "fusion_lon": 0.0, "rental_uris": {"ios": "https://dc.lft.to/lastmile_qr_scan", "android": "https://dc.lft.to/lastmile_qr_scan"}, "lon": -77.024713, "bike_id": "6713acee194f8593ce2408ff7d8d9416", "type": "electric_scooter", "name": "6713acee194f8593ce2408ff7d8d9416"}, {"is_disabled": 0, "is_reserved": 0, "fusion_lat": 0.0, "lat": 38.94463116666667, "fusion_lon": 0.0, "rental_uris": {"ios": "https://dc.lft.to/lastmile_qr_scan", "android": "https://dc.lft.to/lastmile_qr_scan"}, "lon": -77.00656116666667, "bike_id": "682a9e11407dde145c3d5b967359bf8a", "type": "electric_scooter", "name": "682a9e11407dde145c3d5b967359bf8a"}, {"is_disabled": 0, "is_reserved": 0, "fusion_lat": 0.0, "lat": 38.912157666666666, "fusion_lon": 0.0, "rental_uris": {"ios": "https://dc.lft.to/lastmile_qr_scan", "android": "https://dc.lft.to/lastmile_qr_scan"}, "lon": -77.00665433333333, "bike_id": "0c9fff01350a8d60b2561a8a440577fb", "type": "electric_scooter", "name": "0c9fff01350a8d60b2561a8a440577fb"}, {"is_disabled": 0, "is_reserved": 0, "fusion_lat": 0.0, "lat": 38.920935666666665, "fusion_lon": 0.0, "rental_uris": {"ios": "https://dc.lft.to/lastmile_qr_scan", "android": "https://dc.lft.to/lastmile_qr_scan"}, "lon": -77.02499, "bike_id": "14b63d77a19bce59b0394abb59ab3fa8", "type": "electric_scooter", "name": "14b63d77a19bce59b0394abb59ab3fa8"}, {"is_disabled": 0, "is_reserved": 0, "fusion_lat": 0.0, "lat": 38.9429285, "fusion_lon": 0.0, "rental_uris": {"ios": "https://dc.lft.to/lastmile_qr_scan", "android": "https://dc.lft.to/lastmile_qr_scan"}, "lon": -76.99069716666666, "bike_id": "7d0cac726fabf17d8403b966723644e3", "type": "electric_bike", "name": "7d0cac726fabf17d8403b966723644e3"}, {"is_disabled": 0, "is_reserved": 0, "fusion_lat": 0.0, "lat": 38.91830066666667, "fusion_lon": 0.0, "rental_uris": {"ios": "https://dc.lft.to/lastmile_qr_scan", "android": "https://dc.lft.to/lastmile_qr_scan"}, "lon": -77.041733, "bike_id": "5e97dd46024d03f667fb1e261a5d84ff", "type": "electric_scooter", "name": "5e97dd46024d03f667fb1e261a5d84ff"}, {"is_disabled": 0, "is_reserved": 0, "fusion_lat": 0.0, "lat": 38.9077085, "fusion_lon": 0.0, "rental_uris": {"ios": "https://dc.lft.to/lastmile_qr_scan", "android": "https://dc.lft.to/lastmile_qr_scan"}, "lon": -76.99717116666666, "bike_id": "c0ecb4da9ae6b762a1ebfd71b034e12f", "type": "electric_scooter", "name": "c0ecb4da9ae6b762a1ebfd71b034e12f"}, {"is_disabled": 0, "is_reserved": 0, "fusion_lat": 0.0, "lat": 38.897615333333334, "fusion_lon": 0.0, "rental_uris": {"ios": "https://dc.lft.to/lastmile_qr_scan", "android": "https://dc.lft.to/lastmile_qr_scan"}, "lon": -77.05500966666666, "bike_id": "306c6100515213b1fd104402feb81ebf", "type": "electric_scooter", "name": "306c6100515213b1fd104402feb81ebf"}, {"is_disabled": 0, "is_reserved": 0, "fusion_lat": 0.0, "lat": 38.91782966666667, "fusion_lon": 0.0, "rental_uris": {"ios": "https://dc.lft.to/lastmile_qr_scan", "android": "https://dc.lft.to/lastmile_qr_scan"}, "lon": -77.04185266666667, "bike_id": "ee42ea9891e68a7f37ac23d19d8e6241", "type": "electric_scooter", "name": "ee42ea9891e68a7f37ac23d19d8e6241"}, {"is_disabled": 0, "is_reserved": 0, "fusion_lat": 0.0, "lat": 38.881554666666666, "fusion_lon": 0.0, "rental_uris": {"ios": "https://dc.lft.to/lastmile_qr_scan", "android": "https://dc.lft.to/lastmile_qr_scan"}, "lon": -77.01302383333334, "bike_id": "fc9f5f38374ba2195d40a390c266c4eb", "type": "electric_scooter", "name": "fc9f5f38374ba2195d40a390c266c4eb"}, {"is_disabled": 0, "is_reserved": 0, "fusion_lat": 0.0, "lat": 38.89828983333334, "fusion_lon": 0.0, "rental_uris": {"ios": "https://dc.lft.to/lastmile_qr_scan", "android": "https://dc.lft.to/lastmile_qr_scan"}, "lon": -77.0465135, "bike_id": "7b42574b93117e994cd20466c2d02240", "type": "electric_scooter", "name": "7b42574b93117e994cd20466c2d02240"}, {"is_disabled": 0, "is_reserved": 0, "fusion_lat": 0.0, "lat": 38.932089, "fusion_lon": 0.0, "rental_uris": {"ios": "https://dc.lft.to/lastmile_qr_scan", "android": "https://dc.lft.to/lastmile_qr_scan"}, "lon": -77.0228975, "bike_id": "0ec8a0486df56f0c9b8e0ac4664a1d82", "type": "electric_scooter", "name": "0ec8a0486df56f0c9b8e0ac4664a1d82"}, {"is_disabled": 0, "is_reserved": 0, "fusion_lat": 0.0, "lat": 38.90228, "fusion_lon": 0.0, "rental_uris": {"ios": "https://dc.lft.to/lastmile_qr_scan", "android": "https://dc.lft.to/lastmile_qr_scan"}, "lon": -77.06066716666666, "bike_id": "4bcfc36a96807d5704d983dfa1bd81a7", "type": "electric_scooter", "name": "4bcfc36a96807d5704d983dfa1bd81a7"}, {"is_disabled": 0, "is_reserved": 0, "fusion_lat": 0.0, "lat": 38.91737616666666, "fusion_lon": 0.0, "rental_uris": {"ios": "https://dc.lft.to/lastmile_qr_scan", "android": "https://dc.lft.to/lastmile_qr_scan"}, "lon": -77.06885666666666, "bike_id": "fb924b62ca9fbeb6cb9d6075b1653669", "type": "electric_scooter", "name": "fb924b62ca9fbeb6cb9d6075b1653669"}, {"is_disabled": 0, "is_reserved": 0, "fusion_lat": 0.0, "lat": 38.925958333333334, "fusion_lon": 0.0, "rental_uris": {"ios": "https://dc.lft.to/lastmile_qr_scan", "android": "https://dc.lft.to/lastmile_qr_scan"}, "lon": -77.02432, "bike_id": "1c77b7a31d989cf6c34648aff2e72a50", "type": "electric_bike", "name": "1c77b7a31d989cf6c34648aff2e72a50"}, {"is_disabled": 0, "is_reserved": 0, "fusion_lat": 0.0, "lat": 38.915548333333334, "fusion_lon": 0.0, "rental_uris": {"ios": "https://dc.lft.to/lastmile_qr_scan", "android": "https://dc.lft.to/lastmile_qr_scan"}, "lon": -77.02333216666666, "bike_id": "972f837ab3ac708f9421fde606807e79", "type": "electric_scooter", "name": "972f837ab3ac708f9421fde606807e79"}, {"is_disabled": 0, "is_reserved": 0, "fusion_lat": 0.0, "lat": 38.90280216666667, "fusion_lon": 0.0, "rental_uris": {"ios": "https://dc.lft.to/lastmile_qr_scan", "android": "https://dc.lft.to/lastmile_qr_scan"}, "lon": -77.01879766666667, "bike_id": "67ed1ed1fe4aa2ed23e6237ff97bebf5", "type": "electric_scooter", "name": "67ed1ed1fe4aa2ed23e6237ff97bebf5"}, {"is_disabled": 0, "is_reserved": 0, "fusion_lat": 0.0, "lat": 38.8048225, "fusion_lon": 0.0, "rental_uris": {"ios": "https://dc.lft.to/lastmile_qr_scan", "android": "https://dc.lft.to/lastmile_qr_scan"}, "lon": -76.99102666666667, "bike_id": "2bcfc838d7879058bd1b5f028793c0e3", "type": "electric_bike", "name": "2bcfc838d7879058bd1b5f028793c0e3"}, {"is_disabled": 0, "is_reserved": 0, "fusion_lat": 0.0, "lat": 38.91951016666667, "fusion_lon": 0.0, "rental_uris": {"ios": "https://dc.lft.to/lastmile_qr_scan", "android": "https://dc.lft.to/lastmile_qr_scan"}, "lon": -77.02481316666666, "bike_id": "b4a88260a2b7d77ef0c4388d513a1c85", "type": "electric_scooter", "name": "b4a88260a2b7d77ef0c4388d513a1c85"}, {"is_disabled": 0, "is_reserved": 0, "fusion_lat": 0.0, "lat": 38.9272345, "fusion_lon": 0.0, "rental_uris": {"ios": "https://dc.lft.to/lastmile_qr_scan", "android": "https://dc.lft.to/lastmile_qr_scan"}, "lon": -77.02273866666667, "bike_id": "46c5562c0f68b3c24047c659518b6759", "type": "electric_scooter", "name": "46c5562c0f68b3c24047c659518b6759"}, {"is_disabled": 0, "is_reserved": 0, "fusion_lat": 0.0, "lat": 38.933453166666666, "fusion_lon": 0.0, "rental_uris": {"ios": "https://dc.lft.to/lastmile_qr_scan", "android": "https://dc.lft.to/lastmile_qr_scan"}, "lon": -77.01935633333333, "bike_id": "26cb773021f256fc4fb2ca570407534b", "type": "electric_scooter", "name": "26cb773021f256fc4fb2ca570407534b"}, {"is_disabled": 0, "is_reserved": 0, "fusion_lat": 0.0, "lat": 38.92977066666667, "fusion_lon": 0.0, "rental_uris": {"ios": "https://dc.lft.to/lastmile_qr_scan", "android": "https://dc.lft.to/lastmile_qr_scan"}, "lon": -77.02959983333334, "bike_id": "e76f812e06f4b8aa95ff75eb18e40992", "type": "electric_scooter", "name": "e76f812e06f4b8aa95ff75eb18e40992"}, {"is_disabled": 0, "is_reserved": 0, "fusion_lat": 0.0, "lat": 38.9299605, "fusion_lon": 0.0, "rental_uris": {"ios": "https://dc.lft.to/lastmile_qr_scan", "android": "https://dc.lft.to/lastmile_qr_scan"}, "lon": -77.02171383333334, "bike_id": "a197aaec17e6e5083673e843de70a0d9", "type": "electric_scooter", "name": "a197aaec17e6e5083673e843de70a0d9"}, {"is_disabled": 0, "is_reserved": 0, "fusion_lat": 0.0, "lat": 38.91728333333333, "fusion_lon": 0.0, "rental_uris": {"ios": "https://dc.lft.to/lastmile_qr_scan", "android": "https://dc.lft.to/lastmile_qr_scan"}, "lon": -77.02605183333333, "bike_id": "177e319bc90061920cd0768db83ee1e5", "type": "electric_scooter", "name": "177e319bc90061920cd0768db83ee1e5"}, {"is_disabled": 0, "is_reserved": 0, "fusion_lat": 0.0, "lat": 38.9127505, "fusion_lon": 0.0, "rental_uris": {"ios": "https://dc.lft.to/lastmile_qr_scan", "android": "https://dc.lft.to/lastmile_qr_scan"}, "lon": -77.002133, "bike_id": "5f05749f8ab3456c4d4c1c4bcfd20786", "type": "electric_scooter", "name": "5f05749f8ab3456c4d4c1c4bcfd20786"}, {"is_disabled": 0, "is_reserved": 0, "fusion_lat": 0.0, "lat": 38.92579833333333, "fusion_lon": 0.0, "rental_uris": {"ios": "https://dc.lft.to/lastmile_qr_scan", "android": "https://dc.lft.to/lastmile_qr_scan"}, "lon": -77.028427, "bike_id": "81cf9134e69150c2276a6001b7042a59", "type": "electric_scooter", "name": "81cf9134e69150c2276a6001b7042a59"}, {"is_disabled": 0, "is_reserved": 0, "fusion_lat": 0.0, "lat": 38.89087266666667, "fusion_lon": 0.0, "rental_uris": {"ios": "https://dc.lft.to/lastmile_qr_scan", "android": "https://dc.lft.to/lastmile_qr_scan"}, "lon": -76.95474366666667, "bike_id": "a57699c6026158dd6f38f99eb4acf7c6", "type": "electric_bike", "name": "a57699c6026158dd6f38f99eb4acf7c6"}, {"is_disabled": 0, "is_reserved": 0, "fusion_lat": 0.0, "lat": 38.9305925, "fusion_lon": 0.0, "rental_uris": {"ios": "https://dc.lft.to/lastmile_qr_scan", "android": "https://dc.lft.to/lastmile_qr_scan"}, "lon": -76.97325783333334, "bike_id": "c0ea6304a347eb36d65e5f95731ff2aa", "type": "electric_scooter", "name": "c0ea6304a347eb36d65e5f95731ff2aa"}, {"is_disabled": 0, "is_reserved": 0, "fusion_lat": 0.0, "lat": 38.95637933333333, "fusion_lon": 0.0, "rental_uris": {"ios": "https://dc.lft.to/lastmile_qr_scan", "android": "https://dc.lft.to/lastmile_qr_scan"}, "lon": -77.03631433333334, "bike_id": "944501c03a1b34980715d8e094e1662a", "type": "electric_scooter", "name": "944501c03a1b34980715d8e094e1662a"}, {"is_disabled": 0, "is_reserved": 0, "fusion_lat": 0.0, "lat": 38.92613633333333, "fusion_lon": 0.0, "rental_uris": {"ios": "https://dc.lft.to/lastmile_qr_scan", "android": "https://dc.lft.to/lastmile_qr_scan"}, "lon": -77.02157933333334, "bike_id": "0dc35c971c980e94199c519ca1bc0274", "type": "electric_scooter", "name": "0dc35c971c980e94199c519ca1bc0274"}, {"is_disabled": 0, "is_reserved": 0, "fusion_lat": 0.0, "lat": 38.9115455, "fusion_lon": 0.0, "rental_uris": {"ios": "https://dc.lft.to/lastmile_qr_scan", "android": "https://dc.lft.to/lastmile_qr_scan"}, "lon": -77.00200866666667, "bike_id": "e0460b65de47d4991ee78d8d908d612d", "type": "electric_scooter", "name": "e0460b65de47d4991ee78d8d908d612d"}, {"is_disabled": 0, "is_reserved": 0, "fusion_lat": 0.0, "lat": 38.88507116666667, "fusion_lon": 0.0, "rental_uris": {"ios": "https://dc.lft.to/lastmile_qr_scan", "android": "https://dc.lft.to/lastmile_qr_scan"}, "lon": -76.9975275, "bike_id": "d79486a42ad07cd180b2367127caa171", "type": "electric_scooter", "name": "d79486a42ad07cd180b2367127caa171"}, {"is_disabled": 0, "is_reserved": 0, "fusion_lat": 0.0, "lat": 38.85798966666667, "fusion_lon": 0.0, "rental_uris": {"ios": "https://dc.lft.to/lastmile_qr_scan", "android": "https://dc.lft.to/lastmile_qr_scan"}, "lon": -76.98749616666667, "bike_id": "6932f946a15d3d22235fad926e25904f", "type": "electric_bike", "name": "6932f946a15d3d22235fad926e25904f"}, {"is_disabled": 0, "is_reserved": 0, "fusion_lat": 0.0, "lat": 39.0262355, "fusion_lon": 0.0, "rental_uris": {"ios": "https://dc.lft.to/lastmile_qr_scan", "android": "https://dc.lft.to/lastmile_qr_scan"}, "lon": -77.03882983333334, "bike_id": "bfd9a182ae666455bf18b5a31bc40844", "type": "electric_bike", "name": "bfd9a182ae666455bf18b5a31bc40844"}, {"is_disabled": 0, "is_reserved": 0, "fusion_lat": 0.0, "lat": 38.938781, "fusion_lon": 0.0, "rental_uris": {"ios": "https://dc.lft.to/lastmile_qr_scan", "android": "https://dc.lft.to/lastmile_qr_scan"}, "lon": -77.02831966666666, "bike_id": "096613cee3c346fdb62408ebe65a589d", "type": "electric_scooter", "name": "096613cee3c346fdb62408ebe65a589d"}, {"is_disabled": 0, "is_reserved": 0, "fusion_lat": 0.0, "lat": 38.90816433333333, "fusion_lon": 0.0, "rental_uris": {"ios": "https://dc.lft.to/lastmile_qr_scan", "android": "https://dc.lft.to/lastmile_qr_scan"}, "lon": -76.98829016666667, "bike_id": "02951999d44021ee133d70e6fd6af3b8", "type": "electric_scooter", "name": "02951999d44021ee133d70e6fd6af3b8"}, {"is_disabled": 0, "is_reserved": 0, "fusion_lat": 0.0, "lat": 38.913403, "fusion_lon": 0.0, "rental_uris": {"ios": "https://dc.lft.to/lastmile_qr_scan", "android": "https://dc.lft.to/lastmile_qr_scan"}, "lon": -77.042436, "bike_id": "b3212af17987c8fd048edb827d9f2d19", "type": "electric_scooter", "name": "b3212af17987c8fd048edb827d9f2d19"}, {"is_disabled": 0, "is_reserved": 0, "fusion_lat": 0.0, "lat": 38.928340166666665, "fusion_lon": 0.0, "rental_uris": {"ios": "https://dc.lft.to/lastmile_qr_scan", "android": "https://dc.lft.to/lastmile_qr_scan"}, "lon": -77.03699316666666, "bike_id": "e6320d57619c8f85fc73b4e8cbd2a01f", "type": "electric_scooter", "name": "e6320d57619c8f85fc73b4e8cbd2a01f"}, {"is_disabled": 0, "is_reserved": 0, "fusion_lat": 0.0, "lat": 38.907200333333336, "fusion_lon": 0.0, "rental_uris": {"ios": "https://dc.lft.to/lastmile_qr_scan", "android": "https://dc.lft.to/lastmile_qr_scan"}, "lon": -77.04645766666667, "bike_id": "4e29e093218e413356f62de3b44da41c", "type": "electric_scooter", "name": "4e29e093218e413356f62de3b44da41c"}, {"is_disabled": 0, "is_reserved": 0, "fusion_lat": 0.0, "lat": 38.89846383333333, "fusion_lon": 0.0, "rental_uris": {"ios": "https://dc.lft.to/lastmile_qr_scan", "android": "https://dc.lft.to/lastmile_qr_scan"}, "lon": -76.92750516666666, "bike_id": "9b9876e0e2ed40cce66c35d8bc67db33", "type": "electric_scooter", "name": "9b9876e0e2ed40cce66c35d8bc67db33"}, {"is_disabled": 0, "is_reserved": 0, "fusion_lat": 0.0, "lat": 38.90431733333333, "fusion_lon": 0.0, "rental_uris": {"ios": "https://dc.lft.to/lastmile_qr_scan", "android": "https://dc.lft.to/lastmile_qr_scan"}, "lon": -76.97226816666667, "bike_id": "b19ff3737e8ca9a0abc29aaa47e7098a", "type": "electric_bike", "name": "b19ff3737e8ca9a0abc29aaa47e7098a"}, {"is_disabled": 0, "is_reserved": 0, "fusion_lat": 0.0, "lat": 38.83295616666667, "fusion_lon": 0.0, "rental_uris": {"ios": "https://dc.lft.to/lastmile_qr_scan", "android": "https://dc.lft.to/lastmile_qr_scan"}, "lon": -77.08404783333333, "bike_id": "186a1a0123ef5a8b7018a1536f661eea", "type": "electric_bike", "name": "186a1a0123ef5a8b7018a1536f661eea"}, {"is_disabled": 0, "is_reserved": 0, "fusion_lat": 0.0, "lat": 38.9422635, "fusion_lon": 0.0, "rental_uris": {"ios": "https://dc.lft.to/lastmile_qr_scan", "android": "https://dc.lft.to/lastmile_qr_scan"}, "lon": -77.01435783333334, "bike_id": "ea24159409a18fa5c326f5b4928569b0", "type": "electric_scooter", "name": "ea24159409a18fa5c326f5b4928569b0"}, {"is_disabled": 0, "is_reserved": 0, "fusion_lat": 0.0, "lat": 38.9181795, "fusion_lon": 0.0, "rental_uris": {"ios": "https://dc.lft.to/lastmile_qr_scan", "android": "https://dc.lft.to/lastmile_qr_scan"}, "lon": -77.03879883333333, "bike_id": "86fd818d3ef0b21b9b174e13acd1ce37", "type": "electric_scooter", "name": "86fd818d3ef0b21b9b174e13acd1ce37"}, {"is_disabled": 0, "is_reserved": 0, "fusion_lat": 0.0, "lat": 38.92317283333333, "fusion_lon": 0.0, "rental_uris": {"ios": "https://dc.lft.to/lastmile_qr_scan", "android": "https://dc.lft.to/lastmile_qr_scan"}, "lon": -77.04507166666667, "bike_id": "530aa313caf4e84fe3938502016dcdb9", "type": "electric_scooter", "name": "530aa313caf4e84fe3938502016dcdb9"}, {"is_disabled": 0, "is_reserved": 0, "fusion_lat": 0.0, "lat": 38.9160005, "fusion_lon": 0.0, "rental_uris": {"ios": "https://dc.lft.to/lastmile_qr_scan", "android": "https://dc.lft.to/lastmile_qr_scan"}, "lon": -77.02401683333333, "bike_id": "493ac05daff35f5af762d7d17d41d647", "type": "electric_scooter", "name": "493ac05daff35f5af762d7d17d41d647"}, {"is_disabled": 0, "is_reserved": 0, "fusion_lat": 0.0, "lat": 38.921009166666664, "fusion_lon": 0.0, "rental_uris": {"ios": "https://dc.lft.to/lastmile_qr_scan", "android": "https://dc.lft.to/lastmile_qr_scan"}, "lon": -77.03042383333333, "bike_id": "06e9939e4f4784884e8351e144cc0d1c", "type": "electric_scooter", "name": "06e9939e4f4784884e8351e144cc0d1c"}, {"is_disabled": 0, "is_reserved": 0, "fusion_lat": 0.0, "lat": 38.95236716666667, "fusion_lon": 0.0, "rental_uris": {"ios": "https://dc.lft.to/lastmile_qr_scan", "android": "https://dc.lft.to/lastmile_qr_scan"}, "lon": -76.979461, "bike_id": "26de38b30bb01837dd96ca637c5aeb9e", "type": "electric_bike", "name": "26de38b30bb01837dd96ca637c5aeb9e"}, {"is_disabled": 0, "is_reserved": 0, "fusion_lat": 0.0, "lat": 38.90631883333333, "fusion_lon": 0.0, "rental_uris": {"ios": "https://dc.lft.to/lastmile_qr_scan", "android": "https://dc.lft.to/lastmile_qr_scan"}, "lon": -77.06900533333334, "bike_id": "0fd3c778e0b89f3b0cb86d60f81088e0", "type": "electric_scooter", "name": "0fd3c778e0b89f3b0cb86d60f81088e0"}, {"is_disabled": 0, "is_reserved": 0, "fusion_lat": 0.0, "lat": 38.917238833333336, "fusion_lon": 0.0, "rental_uris": {"ios": "https://dc.lft.to/lastmile_qr_scan", "android": "https://dc.lft.to/lastmile_qr_scan"}, "lon": -77.0250305, "bike_id": "9ff14ba809a8d5699d399038efc35a55", "type": "electric_scooter", "name": "9ff14ba809a8d5699d399038efc35a55"}, {"is_disabled": 0, "is_reserved": 0, "fusion_lat": 0.0, "lat": 38.894259, "fusion_lon": 0.0, "rental_uris": {"ios": "https://dc.lft.to/lastmile_qr_scan", "android": "https://dc.lft.to/lastmile_qr_scan"}, "lon": -77.05593333333333, "bike_id": "b053d0915ef8729d9917094bb004e79c", "type": "electric_scooter", "name": "b053d0915ef8729d9917094bb004e79c"}, {"is_disabled": 0, "is_reserved": 0, "fusion_lat": 0.0, "lat": 38.89653083333333, "fusion_lon": 0.0, "rental_uris": {"ios": "https://dc.lft.to/lastmile_qr_scan", "android": "https://dc.lft.to/lastmile_qr_scan"}, "lon": -77.04357766666666, "bike_id": "91aedbd882bf8852ef9cecb85e3f7776", "type": "electric_scooter", "name": "91aedbd882bf8852ef9cecb85e3f7776"}, {"is_disabled": 0, "is_reserved": 0, "fusion_lat": 0.0, "lat": 38.904002, "fusion_lon": 0.0, "rental_uris": {"ios": "https://dc.lft.to/lastmile_qr_scan", "android": "https://dc.lft.to/lastmile_qr_scan"}, "lon": -77.065167, "bike_id": "23c233ece86111b1329bfc0f32c6ef16", "type": "electric_scooter", "name": "23c233ece86111b1329bfc0f32c6ef16"}, {"is_disabled": 0, "is_reserved": 0, "fusion_lat": 0.0, "lat": 38.9064745, "fusion_lon": 0.0, "rental_uris": {"ios": "https://dc.lft.to/lastmile_qr_scan", "android": "https://dc.lft.to/lastmile_qr_scan"}, "lon": -77.02477033333334, "bike_id": "889454a1e9211defabc80ed3ff6e76da", "type": "electric_scooter", "name": "889454a1e9211defabc80ed3ff6e76da"}, {"is_disabled": 0, "is_reserved": 0, "fusion_lat": 0.0, "lat": 38.927353, "fusion_lon": 0.0, "rental_uris": {"ios": "https://dc.lft.to/lastmile_qr_scan", "android": "https://dc.lft.to/lastmile_qr_scan"}, "lon": -77.022766, "bike_id": "485247b6cfc0296bac18077dbc63b515", "type": "electric_scooter", "name": "485247b6cfc0296bac18077dbc63b515"}, {"is_disabled": 0, "is_reserved": 0, "fusion_lat": 0.0, "lat": 38.911559833333335, "fusion_lon": 0.0, "rental_uris": {"ios": "https://dc.lft.to/lastmile_qr_scan", "android": "https://dc.lft.to/lastmile_qr_scan"}, "lon": -77.01995783333334, "bike_id": "52c6c069649df21514168ac4e492c2b2", "type": "electric_scooter", "name": "52c6c069649df21514168ac4e492c2b2"}, {"is_disabled": 0, "is_reserved": 0, "fusion_lat": 0.0, "lat": 38.92133833333333, "fusion_lon": 0.0, "rental_uris": {"ios": "https://dc.lft.to/lastmile_qr_scan", "android": "https://dc.lft.to/lastmile_qr_scan"}, "lon": -77.00400766666667, "bike_id": "70ceafd84648687c36fb5febf7e9c2ca", "type": "electric_scooter", "name": "70ceafd84648687c36fb5febf7e9c2ca"}, {"is_disabled": 0, "is_reserved": 0, "fusion_lat": 0.0, "lat": 38.9280345, "fusion_lon": 0.0, "rental_uris": {"ios": "https://dc.lft.to/lastmile_qr_scan", "android": "https://dc.lft.to/lastmile_qr_scan"}, "lon": -77.0212835, "bike_id": "bfecda90bdb568221804617a265713d2", "type": "electric_scooter", "name": "bfecda90bdb568221804617a265713d2"}, {"is_disabled": 0, "is_reserved": 0, "fusion_lat": 0.0, "lat": 38.952401333333334, "fusion_lon": 0.0, "rental_uris": {"ios": "https://dc.lft.to/lastmile_qr_scan", "android": "https://dc.lft.to/lastmile_qr_scan"}, "lon": -76.982443, "bike_id": "fbb24d7f3bee5e6020f5372d1d6ef4b5", "type": "electric_bike", "name": "fbb24d7f3bee5e6020f5372d1d6ef4b5"}, {"is_disabled": 0, "is_reserved": 0, "fusion_lat": 0.0, "lat": 38.920570833333336, "fusion_lon": 0.0, "rental_uris": {"ios": "https://dc.lft.to/lastmile_qr_scan", "android": "https://dc.lft.to/lastmile_qr_scan"}, "lon": -77.01729816666666, "bike_id": "0ca188bc9975f8581a5998f3fd895c4c", "type": "electric_scooter", "name": "0ca188bc9975f8581a5998f3fd895c4c"}, {"is_disabled": 0, "is_reserved": 0, "fusion_lat": 0.0, "lat": 38.901453333333336, "fusion_lon": 0.0, "rental_uris": {"ios": "https://dc.lft.to/lastmile_qr_scan", "android": "https://dc.lft.to/lastmile_qr_scan"}, "lon": -77.01503416666667, "bike_id": "b1d97bc999f4a3fe7e834db4768bae07", "type": "electric_scooter", "name": "b1d97bc999f4a3fe7e834db4768bae07"}, {"is_disabled": 0, "is_reserved": 0, "fusion_lat": 0.0, "lat": 38.8973585, "fusion_lon": 0.0, "rental_uris": {"ios": "https://dc.lft.to/lastmile_qr_scan", "android": "https://dc.lft.to/lastmile_qr_scan"}, "lon": -77.00770316666667, "bike_id": "0ac52c6925048ca896d7e9f351a01b9f", "type": "electric_scooter", "name": "0ac52c6925048ca896d7e9f351a01b9f"}, {"is_disabled": 0, "is_reserved": 0, "fusion_lat": 0.0, "lat": 38.92814633333333, "fusion_lon": 0.0, "rental_uris": {"ios": "https://dc.lft.to/lastmile_qr_scan", "android": "https://dc.lft.to/lastmile_qr_scan"}, "lon": -77.04341516666666, "bike_id": "7b1491f91428494f9d62d1ee18e9b16b", "type": "electric_scooter", "name": "7b1491f91428494f9d62d1ee18e9b16b"}, {"is_disabled": 0, "is_reserved": 0, "fusion_lat": 0.0, "lat": 38.925048333333336, "fusion_lon": 0.0, "rental_uris": {"ios": "https://dc.lft.to/lastmile_qr_scan", "android": "https://dc.lft.to/lastmile_qr_scan"}, "lon": -77.02445583333333, "bike_id": "db7ae0c602418cc1e3ea92def4192e50", "type": "electric_scooter", "name": "db7ae0c602418cc1e3ea92def4192e50"}, {"is_disabled": 0, "is_reserved": 0, "fusion_lat": 0.0, "lat": 38.9203095, "fusion_lon": 0.0, "rental_uris": {"ios": "https://dc.lft.to/lastmile_qr_scan", "android": "https://dc.lft.to/lastmile_qr_scan"}, "lon": -77.03856483333334, "bike_id": "35385711b2029a141f130e05cfc15344", "type": "electric_scooter", "name": "35385711b2029a141f130e05cfc15344"}, {"is_disabled": 0, "is_reserved": 0, "fusion_lat": 0.0, "lat": 38.90256466666666, "fusion_lon": 0.0, "rental_uris": {"ios": "https://dc.lft.to/lastmile_qr_scan", "android": "https://dc.lft.to/lastmile_qr_scan"}, "lon": -77.019123, "bike_id": "8843414bcc586ab51d1a2b9947eabeb0", "type": "electric_scooter", "name": "8843414bcc586ab51d1a2b9947eabeb0"}, {"is_disabled": 0, "is_reserved": 0, "fusion_lat": 0.0, "lat": 38.92720966666667, "fusion_lon": 0.0, "rental_uris": {"ios": "https://dc.lft.to/lastmile_qr_scan", "android": "https://dc.lft.to/lastmile_qr_scan"}, "lon": -77.05141733333333, "bike_id": "f148582e79e8ac9213ea1832819a24f6", "type": "electric_scooter", "name": "f148582e79e8ac9213ea1832819a24f6"}, {"is_disabled": 0, "is_reserved": 0, "fusion_lat": 0.0, "lat": 38.908433, "fusion_lon": 0.0, "rental_uris": {"ios": "https://dc.lft.to/lastmile_qr_scan", "android": "https://dc.lft.to/lastmile_qr_scan"}, "lon": -77.02700066666667, "bike_id": "b7cecc6769b08a463a697049db52b6cd", "type": "electric_scooter", "name": "b7cecc6769b08a463a697049db52b6cd"}, {"is_disabled": 0, "is_reserved": 0, "fusion_lat": 0.0, "lat": 38.9240615, "fusion_lon": 0.0, "rental_uris": {"ios": "https://dc.lft.to/lastmile_qr_scan", "android": "https://dc.lft.to/lastmile_qr_scan"}, "lon": -77.03897133333334, "bike_id": "97785ad709ffb7300a00782c2170f419", "type": "electric_scooter", "name": "97785ad709ffb7300a00782c2170f419"}, {"is_disabled": 0, "is_reserved": 0, "fusion_lat": 0.0, "lat": 38.926484, "fusion_lon": 0.0, "rental_uris": {"ios": "https://dc.lft.to/lastmile_qr_scan", "android": "https://dc.lft.to/lastmile_qr_scan"}, "lon": -77.03310033333334, "bike_id": "6d09a0da88f03763a57a5d7c23073803", "type": "electric_scooter", "name": "6d09a0da88f03763a57a5d7c23073803"}, {"is_disabled": 0, "is_reserved": 0, "fusion_lat": 0.0, "lat": 38.90266466666667, "fusion_lon": 0.0, "rental_uris": {"ios": "https://dc.lft.to/lastmile_qr_scan", "android": "https://dc.lft.to/lastmile_qr_scan"}, "lon": -77.0626865, "bike_id": "66dada94e7fe94515bc4f4fa2b18bb50", "type": "electric_scooter", "name": "66dada94e7fe94515bc4f4fa2b18bb50"}, {"is_disabled": 0, "is_reserved": 0, "fusion_lat": 0.0, "lat": 38.863708333333335, "fusion_lon": 0.0, "rental_uris": {"ios": "https://dc.lft.to/lastmile_qr_scan", "android": "https://dc.lft.to/lastmile_qr_scan"}, "lon": -77.01365, "bike_id": "97ce687491124709406c68c4ec13b01f", "type": "electric_scooter", "name": "97ce687491124709406c68c4ec13b01f"}, {"is_disabled": 0, "is_reserved": 0, "fusion_lat": 0.0, "lat": 38.90583983333333, "fusion_lon": 0.0, "rental_uris": {"ios": "https://dc.lft.to/lastmile_qr_scan", "android": "https://dc.lft.to/lastmile_qr_scan"}, "lon": -77.0443145, "bike_id": "b1bfc6523d6e9b3846878c86316f6e33", "type": "electric_scooter", "name": "b1bfc6523d6e9b3846878c86316f6e33"}, {"is_disabled": 0, "is_reserved": 0, "fusion_lat": 0.0, "lat": 38.89884283333333, "fusion_lon": 0.0, "rental_uris": {"ios": "https://dc.lft.to/lastmile_qr_scan", "android": "https://dc.lft.to/lastmile_qr_scan"}, "lon": -76.93174666666667, "bike_id": "260a39974f62c13a0f5c03ead4564546", "type": "electric_scooter", "name": "260a39974f62c13a0f5c03ead4564546"}, {"is_disabled": 0, "is_reserved": 0, "fusion_lat": 0.0, "lat": 38.880108666666665, "fusion_lon": 0.0, "rental_uris": {"ios": "https://dc.lft.to/lastmile_qr_scan", "android": "https://dc.lft.to/lastmile_qr_scan"}, "lon": -76.99741816666666, "bike_id": "4bc7fa7228754a722a62ff5f1703e322", "type": "electric_scooter", "name": "4bc7fa7228754a722a62ff5f1703e322"}, {"is_disabled": 0, "is_reserved": 0, "fusion_lat": 0.0, "lat": 38.90085533333333, "fusion_lon": 0.0, "rental_uris": {"ios": "https://dc.lft.to/lastmile_qr_scan", "android": "https://dc.lft.to/lastmile_qr_scan"}, "lon": -77.0499305, "bike_id": "1e3e8047f894370b4f0fe215ea0ce4b5", "type": "electric_scooter", "name": "1e3e8047f894370b4f0fe215ea0ce4b5"}, {"is_disabled": 0, "is_reserved": 0, "fusion_lat": 0.0, "lat": 38.92073116666667, "fusion_lon": 0.0, "rental_uris": {"ios": "https://dc.lft.to/lastmile_qr_scan", "android": "https://dc.lft.to/lastmile_qr_scan"}, "lon": -77.02505883333333, "bike_id": "bf3aa94bb78809d62999bcc1ea947939", "type": "electric_scooter", "name": "bf3aa94bb78809d62999bcc1ea947939"}, {"is_disabled": 0, "is_reserved": 0, "fusion_lat": 0.0, "lat": 38.916372333333335, "fusion_lon": 0.0, "rental_uris": {"ios": "https://dc.lft.to/lastmile_qr_scan", "android": "https://dc.lft.to/lastmile_qr_scan"}, "lon": -77.0268935, "bike_id": "2355f4de802976487a568ea9fccf7901", "type": "electric_scooter", "name": "2355f4de802976487a568ea9fccf7901"}, {"is_disabled": 0, "is_reserved": 0, "fusion_lat": 0.0, "lat": 38.900083, "fusion_lon": 0.0, "rental_uris": {"ios": "https://dc.lft.to/lastmile_qr_scan", "android": "https://dc.lft.to/lastmile_qr_scan"}, "lon": -76.98217133333333, "bike_id": "11cb92d1c50a97bbba20813bef34209c", "type": "electric_scooter", "name": "11cb92d1c50a97bbba20813bef34209c"}, {"is_disabled": 0, "is_reserved": 0, "fusion_lat": 0.0, "lat": 38.87087733333333, "fusion_lon": 0.0, "rental_uris": {"ios": "https://dc.lft.to/lastmile_qr_scan", "android": "https://dc.lft.to/lastmile_qr_scan"}, "lon": -77.01211833333333, "bike_id": "066a11b4c46d229469b93eaf092aa990", "type": "electric_scooter", "name": "066a11b4c46d229469b93eaf092aa990"}, {"is_disabled": 0, "is_reserved": 0, "fusion_lat": 0.0, "lat": 38.89693466666667, "fusion_lon": 0.0, "rental_uris": {"ios": "https://dc.lft.to/lastmile_qr_scan", "android": "https://dc.lft.to/lastmile_qr_scan"}, "lon": -77.02417966666667, "bike_id": "d608f37a48405b3ccf33790ead0fd376", "type": "electric_scooter", "name": "d608f37a48405b3ccf33790ead0fd376"}, {"is_disabled": 0, "is_reserved": 0, "fusion_lat": 0.0, "lat": 38.90008566666667, "fusion_lon": 0.0, "rental_uris": {"ios": "https://dc.lft.to/lastmile_qr_scan", "android": "https://dc.lft.to/lastmile_qr_scan"}, "lon": -76.97984816666667, "bike_id": "40fc867e65193e3b9f97947ca170c575", "type": "electric_scooter", "name": "40fc867e65193e3b9f97947ca170c575"}, {"is_disabled": 0, "is_reserved": 0, "fusion_lat": 0.0, "lat": 38.92239033333333, "fusion_lon": 0.0, "rental_uris": {"ios": "https://dc.lft.to/lastmile_qr_scan", "android": "https://dc.lft.to/lastmile_qr_scan"}, "lon": -77.04019366666667, "bike_id": "00d5e99be07fc84c6c2820245048e72e", "type": "electric_scooter", "name": "00d5e99be07fc84c6c2820245048e72e"}, {"is_disabled": 0, "is_reserved": 0, "fusion_lat": 0.0, "lat": 38.93797266666667, "fusion_lon": 0.0, "rental_uris": {"ios": "https://dc.lft.to/lastmile_qr_scan", "android": "https://dc.lft.to/lastmile_qr_scan"}, "lon": -77.02459083333333, "bike_id": "bb67f4611788ef32c15261964db2f86d", "type": "electric_scooter", "name": "bb67f4611788ef32c15261964db2f86d"}, {"is_disabled": 0, "is_reserved": 0, "fusion_lat": 0.0, "lat": 38.90067483333333, "fusion_lon": 0.0, "rental_uris": {"ios": "https://dc.lft.to/lastmile_qr_scan", "android": "https://dc.lft.to/lastmile_qr_scan"}, "lon": -77.006713, "bike_id": "c6107b0fd0864eae81be8bb3a37f3140", "type": "electric_scooter", "name": "c6107b0fd0864eae81be8bb3a37f3140"}, {"is_disabled": 0, "is_reserved": 0, "fusion_lat": 0.0, "lat": 38.89495083333333, "fusion_lon": 0.0, "rental_uris": {"ios": "https://dc.lft.to/lastmile_qr_scan", "android": "https://dc.lft.to/lastmile_qr_scan"}, "lon": -77.02162633333333, "bike_id": "35545d5ebe3fae60b9dadf7b3b5f8890", "type": "electric_scooter", "name": "35545d5ebe3fae60b9dadf7b3b5f8890"}, {"is_disabled": 0, "is_reserved": 0, "fusion_lat": 0.0, "lat": 38.91037766666667, "fusion_lon": 0.0, "rental_uris": {"ios": "https://dc.lft.to/lastmile_qr_scan", "android": "https://dc.lft.to/lastmile_qr_scan"}, "lon": -77.03795466666666, "bike_id": "993f6a36633a56d96d4ac12313899dc2", "type": "electric_scooter", "name": "993f6a36633a56d96d4ac12313899dc2"}, {"is_disabled": 0, "is_reserved": 0, "fusion_lat": 0.0, "lat": 38.90268616666667, "fusion_lon": 0.0, "rental_uris": {"ios": "https://dc.lft.to/lastmile_qr_scan", "android": "https://dc.lft.to/lastmile_qr_scan"}, "lon": -77.04653833333333, "bike_id": "93348ae7df73d3ef61602f48b07c9378", "type": "electric_scooter", "name": "93348ae7df73d3ef61602f48b07c9378"}, {"is_disabled": 0, "is_reserved": 0, "fusion_lat": 0.0, "lat": 38.89816116666667, "fusion_lon": 0.0, "rental_uris": {"ios": "https://dc.lft.to/lastmile_qr_scan", "android": "https://dc.lft.to/lastmile_qr_scan"}, "lon": -77.00204216666667, "bike_id": "06fc55d227218b8eac928212b5b93057", "type": "electric_scooter", "name": "06fc55d227218b8eac928212b5b93057"}, {"is_disabled": 0, "is_reserved": 0, "fusion_lat": 0.0, "lat": 38.90192583333334, "fusion_lon": 0.0, "rental_uris": {"ios": "https://dc.lft.to/lastmile_qr_scan", "android": "https://dc.lft.to/lastmile_qr_scan"}, "lon": -77.00196466666667, "bike_id": "3ad90529a4806c5688d2f08893ad6006", "type": "electric_scooter", "name": "3ad90529a4806c5688d2f08893ad6006"}, {"is_disabled": 0, "is_reserved": 0, "fusion_lat": 0.0, "lat": 38.91886133333333, "fusion_lon": 0.0, "rental_uris": {"ios": "https://dc.lft.to/lastmile_qr_scan", "android": "https://dc.lft.to/lastmile_qr_scan"}, "lon": -77.0356315, "bike_id": "ae7ac8fdd55f3806f0797bd241ebf748", "type": "electric_scooter", "name": "ae7ac8fdd55f3806f0797bd241ebf748"}, {"is_disabled": 0, "is_reserved": 0, "fusion_lat": 0.0, "lat": 38.920328833333336, "fusion_lon": 0.0, "rental_uris": {"ios": "https://dc.lft.to/lastmile_qr_scan", "android": "https://dc.lft.to/lastmile_qr_scan"}, "lon": -77.03853466666666, "bike_id": "6a1b71618a0678cb7505828b724eb6eb", "type": "electric_scooter", "name": "6a1b71618a0678cb7505828b724eb6eb"}, {"is_disabled": 0, "is_reserved": 0, "fusion_lat": 0.0, "lat": 38.9358815, "fusion_lon": 0.0, "rental_uris": {"ios": "https://dc.lft.to/lastmile_qr_scan", "android": "https://dc.lft.to/lastmile_qr_scan"}, "lon": -77.07427483333333, "bike_id": "c1b2a6368b1ce0413913dc01e5c417fa", "type": "electric_scooter", "name": "c1b2a6368b1ce0413913dc01e5c417fa"}, {"is_disabled": 0, "is_reserved": 0, "fusion_lat": 0.0, "lat": 38.9180575, "fusion_lon": 0.0, "rental_uris": {"ios": "https://dc.lft.to/lastmile_qr_scan", "android": "https://dc.lft.to/lastmile_qr_scan"}, "lon": -77.02495216666667, "bike_id": "618725f62b64e0f53b92e84e4d0e8fb4", "type": "electric_scooter", "name": "618725f62b64e0f53b92e84e4d0e8fb4"}, {"is_disabled": 0, "is_reserved": 0, "fusion_lat": 0.0, "lat": 38.917051, "fusion_lon": 0.0, "rental_uris": {"ios": "https://dc.lft.to/lastmile_qr_scan", "android": "https://dc.lft.to/lastmile_qr_scan"}, "lon": -77.02409833333333, "bike_id": "af48476e040fb65411c5a04a48bb0c87", "type": "electric_scooter", "name": "af48476e040fb65411c5a04a48bb0c87"}, {"is_disabled": 0, "is_reserved": 0, "fusion_lat": 0.0, "lat": 38.87661116666666, "fusion_lon": 0.0, "rental_uris": {"ios": "https://dc.lft.to/lastmile_qr_scan", "android": "https://dc.lft.to/lastmile_qr_scan"}, "lon": -77.0074115, "bike_id": "78a81c8dc752ca774d3e8e61ce8fdea9", "type": "electric_scooter", "name": "78a81c8dc752ca774d3e8e61ce8fdea9"}, {"is_disabled": 0, "is_reserved": 0, "fusion_lat": 0.0, "lat": 38.91078983333333, "fusion_lon": 0.0, "rental_uris": {"ios": "https://dc.lft.to/lastmile_qr_scan", "android": "https://dc.lft.to/lastmile_qr_scan"}, "lon": -77.02404916666667, "bike_id": "d07af59f0e314fb94daee834d6a3916a", "type": "electric_scooter", "name": "d07af59f0e314fb94daee834d6a3916a"}, {"is_disabled": 0, "is_reserved": 0, "fusion_lat": 0.0, "lat": 38.90562583333333, "fusion_lon": 0.0, "rental_uris": {"ios": "https://dc.lft.to/lastmile_qr_scan", "android": "https://dc.lft.to/lastmile_qr_scan"}, "lon": -77.04876466666667, "bike_id": "d1df9f9aed428e341c7f15db92dd821f", "type": "electric_scooter", "name": "d1df9f9aed428e341c7f15db92dd821f"}, {"is_disabled": 0, "is_reserved": 0, "fusion_lat": 0.0, "lat": 38.89339966666667, "fusion_lon": 0.0, "rental_uris": {"ios": "https://dc.lft.to/lastmile_qr_scan", "android": "https://dc.lft.to/lastmile_qr_scan"}, "lon": -76.9856025, "bike_id": "572feba9979a568449a64d8c11f1a292", "type": "electric_scooter", "name": "572feba9979a568449a64d8c11f1a292"}, {"is_disabled": 0, "is_reserved": 0, "fusion_lat": 0.0, "lat": 38.92413883333333, "fusion_lon": 0.0, "rental_uris": {"ios": "https://dc.lft.to/lastmile_qr_scan", "android": "https://dc.lft.to/lastmile_qr_scan"}, "lon": -77.02030133333334, "bike_id": "60894c24db3fef1165690210a17ad0b6", "type": "electric_scooter", "name": "60894c24db3fef1165690210a17ad0b6"}, {"is_disabled": 0, "is_reserved": 0, "fusion_lat": 0.0, "lat": 38.91713216666667, "fusion_lon": 0.0, "rental_uris": {"ios": "https://dc.lft.to/lastmile_qr_scan", "android": "https://dc.lft.to/lastmile_qr_scan"},