{"data": {"bikes": [{"name": "2ba3f7916270619c41438837e4fe8ac4", "is_disabled": 0, "fusion_lat": 0.0, "fusion_lon": 0.0, "type": "electric_scooter", "lat": 38.90851683333333, "bike_id": "2ba3f7916270619c41438837e4fe8ac4", "is_reserved": 0, "lon": -77.04273216666667, "rental_uris": {"android": "https://dc.lft.to/lastmile_qr_scan", "ios": "https://dc.lft.to/lastmile_qr_scan"}}, {"name": "518636a64216e1148391ede6594bc074", "is_disabled": 0, "fusion_lat": 0.0, "fusion_lon": 0.0, "type": "electric_bike", "lat": 39.054924666666665, "bike_id": "518636a64216e1148391ede6594bc074", "is_reserved": 0, "lon": -77.11789483333334, "rental_uris": {"android": "https://dc.lft.to/lastmile_qr_scan", "ios": "https://dc.lft.to/lastmile_qr_scan"}}, {"name": "f572c524b40e5eb68cffd86c003910a9", "is_disabled": 0, "fusion_lat": 0.0, "fusion_lon": 0.0, "type": "electric_scooter", "lat": 38.926601, "bike_id": "f572c524b40e5eb68cffd86c003910a9", "is_reserved": 0, "lon": -77.00871616666667, "rental_uris": {"android": "https://dc.lft.to/lastmile_qr_scan", "ios": "https://dc.lft.to/lastmile_qr_scan"}}, {"name": "9eaf62e24af446e13ceb497e3c792726", "is_disabled": 0, "fusion_lat": 0.0, "fusion_lon": 0.0, "type": "electric_scooter", "lat": 38.90645983333334, "bike_id": "9eaf62e24af446e13ceb497e3c792726", "is_reserved": 0, "lon": -77.05124083333334, "rental_uris": {"android": "https://dc.lft.to/lastmile_qr_scan", "ios": "https://dc.lft.to/lastmile_qr_scan"}}, {"name": "435f4eb51e2ca12cab4b32b9edc18e6e", "is_disabled": 0, "fusion_lat": 0.0, "fusion_lon": 0.0, "type": "electric_bike", "lat": 39.03422666666667, "bike_id": "435f4eb51e2ca12cab4b32b9edc18e6e", "is_reserved": 0, "lon": -77.040967, "rental_uris": {"android": "https://dc.lft.to/lastmile_qr_scan", "ios": "https://dc.lft.to/lastmile_qr_scan"}}, {"name": "cd69c62fe765275ffaf020a0b3f7b9de", "is_disabled": 0, "fusion_lat": 0.0, "fusion_lon": 0.0, "type": "electric_scooter", "lat": 38.9023675, "bike_id": "cd69c62fe765275ffaf020a0b3f7b9de", "is_reserved": 0, "lon": -77.00199183333334, "rental_uris": {"android": "https://dc.lft.to/lastmile_qr_scan", "ios": "https://dc.lft.to/lastmile_qr_scan"}}, {"name": "42a474074d0e90cc96120105fa5b8b07", "is_disabled": 0, "fusion_lat": 0.0, "fusion_lon": 0.0, "type": "electric_scooter", "lat": 38.920708833333336, "bike_id": "42a474074d0e90cc96120105fa5b8b07", "is_reserved": 0, "lon": -77.02070433333333, "rental_uris": {"android": "https://dc.lft.to/lastmile_qr_scan", "ios": "https://dc.lft.to/lastmile_qr_scan"}}, {"name": "f14e1b7f9a56b3cf4610588b84885ed8", "is_disabled": 0, "fusion_lat": 0.0, "fusion_lon": 0.0, "type": "electric_bike", "lat": 38.88334733333333, "bike_id": "f14e1b7f9a56b3cf4610588b84885ed8", "is_reserved": 0, "lon": -77.065681, "rental_uris": {"android": "https://dc.lft.to/lastmile_qr_scan", "ios": "https://dc.lft.to/lastmile_qr_scan"}}, {"name": "2aca341078df153d240000755d854a9f", "is_disabled": 0, "fusion_lat": 0.0, "fusion_lon": 0.0, "type": "electric_scooter", "lat": 38.925142666666666, "bike_id": "2aca341078df153d240000755d854a9f", "is_reserved": 0, "lon": -77.03873866666666, "rental_uris": {"android": "https://dc.lft.to/lastmile_qr_scan", "ios": "https://dc.lft.to/lastmile_qr_scan"}}, {"name": "ce29706e8792f1e037fb898d1ce52c24", "is_disabled": 0, "fusion_lat": 0.0, "fusion_lon": 0.0, "type": "electric_scooter", "lat": 38.9218055, "bike_id": "ce29706e8792f1e037fb898d1ce52c24", "is_reserved": 0, "lon": -77.026647, "rental_uris": {"android": "https://dc.lft.to/lastmile_qr_scan", "ios": "https://dc.lft.to/lastmile_qr_scan"}}, {"name": "f7246f97828508c33fed1423ea71228c", "is_disabled": 0, "fusion_lat": 0.0, "fusion_lon": 0.0, "type": "electric_scooter", "lat": 38.930817166666664, "bike_id": "f7246f97828508c33fed1423ea71228c", "is_reserved": 0, "lon": -76.9961165, "rental_uris": {"android": "https://dc.lft.to/lastmile_qr_scan", "ios": "https://dc.lft.to/lastmile_qr_scan"}}, {"name": "ace9cf4234d2995960cf65a61dfe4add", "is_disabled": 0, "fusion_lat": 0.0, "fusion_lon": 0.0, "type": "electric_bike", "lat": 38.9381065, "bike_id": "ace9cf4234d2995960cf65a61dfe4add", "is_reserved": 0, "lon": -77.06855466666667, "rental_uris": {"android": "https://dc.lft.to/lastmile_qr_scan", "ios": "https://dc.lft.to/lastmile_qr_scan"}}, {"name": "d787a36a38ad73bfc77114fc4cdf24db", "is_disabled": 0, "fusion_lat": 0.0, "fusion_lon": 0.0, "type": "electric_scooter", "lat": 38.880158, "bike_id": "d787a36a38ad73bfc77114fc4cdf24db", "is_reserved": 0, "lon": -77.02469783333333, "rental_uris": {"android": "https://dc.lft.to/lastmile_qr_scan", "ios": "https://dc.lft.to/lastmile_qr_scan"}}, {"name": "68d87a62bc328c79a10156dcb0386430", "is_disabled": 0, "fusion_lat": 0.0, "fusion_lon": 0.0, "type": "electric_scooter", "lat": 38.894756, "bike_id": "68d87a62bc328c79a10156dcb0386430", "is_reserved": 0, "lon": -77.0227395, "rental_uris": {"android": "https://dc.lft.to/lastmile_qr_scan", "ios": "https://dc.lft.to/lastmile_qr_scan"}}, {"name": "aa5f53065856e0d1588c4d04436ae000", "is_disabled": 0, "fusion_lat": 0.0, "fusion_lon": 0.0, "type": "electric_bike", "lat": 38.96957316666666, "bike_id": "aa5f53065856e0d1588c4d04436ae000", "is_reserved": 0, "lon": -76.95749016666667, "rental_uris": {"android": "https://dc.lft.to/lastmile_qr_scan", "ios": "https://dc.lft.to/lastmile_qr_scan"}}, {"name": "ccf6ecbb69444d25378d1d2dc175d585", "is_disabled": 0, "fusion_lat": 0.0, "fusion_lon": 0.0, "type": "electric_scooter", "lat": 38.924808166666665, "bike_id": "ccf6ecbb69444d25378d1d2dc175d585", "is_reserved": 0, "lon": -77.02723733333333, "rental_uris": {"android": "https://dc.lft.to/lastmile_qr_scan", "ios": "https://dc.lft.to/lastmile_qr_scan"}}, {"name": "31c9c7605344af5276867b2e6d267950", "is_disabled": 0, "fusion_lat": 0.0, "fusion_lon": 0.0, "type": "electric_scooter", "lat": 38.90996916666667, "bike_id": "31c9c7605344af5276867b2e6d267950", "is_reserved": 0, "lon": -77.0280915, "rental_uris": {"android": "https://dc.lft.to/lastmile_qr_scan", "ios": "https://dc.lft.to/lastmile_qr_scan"}}, {"name": "8b77ba0a899dc3fa06c57a7c9c366486", "is_disabled": 0, "fusion_lat": 0.0, "fusion_lon": 0.0, "type": "electric_scooter", "lat": 38.90493033333333, "bike_id": "8b77ba0a899dc3fa06c57a7c9c366486", "is_reserved": 0, "lon": -77.04647816666666, "rental_uris": {"android": "https://dc.lft.to/lastmile_qr_scan", "ios": "https://dc.lft.to/lastmile_qr_scan"}}, {"name": "1a1e48fa4ac2664665a725cba6e94184", "is_disabled": 0, "fusion_lat": 0.0, "fusion_lon": 0.0, "type": "electric_scooter", "lat": 38.92347133333333, "bike_id": "1a1e48fa4ac2664665a725cba6e94184", "is_reserved": 0, "lon": -77.03393216666667, "rental_uris": {"android": "https://dc.lft.to/lastmile_qr_scan", "ios": "https://dc.lft.to/lastmile_qr_scan"}}, {"name": "e00136fc88e5a029d8be89af5b7dbb77", "is_disabled": 0, "fusion_lat": 0.0, "fusion_lon": 0.0, "type": "electric_scooter", "lat": 38.91766533333333, "bike_id": "e00136fc88e5a029d8be89af5b7dbb77", "is_reserved": 0, "lon": -77.04060483333333, "rental_uris": {"android": "https://dc.lft.to/lastmile_qr_scan", "ios": "https://dc.lft.to/lastmile_qr_scan"}}, {"name": "c6e85583b850c568ca2b787d04ba5bd5", "is_disabled": 0, "fusion_lat": 0.0, "fusion_lon": 0.0, "type": "electric_scooter", "lat": 38.884836166666666, "bike_id": "c6e85583b850c568ca2b787d04ba5bd5", "is_reserved": 0, "lon": -76.926208, "rental_uris": {"android": "https://dc.lft.to/lastmile_qr_scan", "ios": "https://dc.lft.to/lastmile_qr_scan"}}, {"name": "279f991fe694797d9b2073e159cbd556", "is_disabled": 0, "fusion_lat": 0.0, "fusion_lon": 0.0, "type": "electric_bike", "lat": 38.9565, "bike_id": "279f991fe694797d9b2073e159cbd556", "is_reserved": 0, "lon": -77.01280883333334, "rental_uris": {"android": "https://dc.lft.to/lastmile_qr_scan", "ios": "https://dc.lft.to/lastmile_qr_scan"}}, {"name": "0cde6541422376b4d12682c78bb1ac2c", "is_disabled": 0, "fusion_lat": 0.0, "fusion_lon": 0.0, "type": "electric_scooter", "lat": 38.92973416666667, "bike_id": "0cde6541422376b4d12682c78bb1ac2c", "is_reserved": 0, "lon": -77.01321366666667, "rental_uris": {"android": "https://dc.lft.to/lastmile_qr_scan", "ios": "https://dc.lft.to/lastmile_qr_scan"}}, {"name": "b4311d13b0de182198dc3fcc2151ad07", "is_disabled": 0, "fusion_lat": 0.0, "fusion_lon": 0.0, "type": "electric_scooter", "lat": 38.90723883333333, "bike_id": "b4311d13b0de182198dc3fcc2151ad07", "is_reserved": 0, "lon": -77.04349516666667, "rental_uris": {"android": "https://dc.lft.to/lastmile_qr_scan", "ios": "https://dc.lft.to/lastmile_qr_scan"}}, {"name": "da473efcb9c1d6153c5f427149fc8c4b", "is_disabled": 0, "fusion_lat": 0.0, "fusion_lon": 0.0, "type": "electric_scooter", "lat": 38.89863166666667, "bike_id": "da473efcb9c1d6153c5f427149fc8c4b", "is_reserved": 0, "lon": -76.92755016666666, "rental_uris": {"android": "https://dc.lft.to/lastmile_qr_scan", "ios": "https://dc.lft.to/lastmile_qr_scan"}}, {"name": "f83ec7a6b5bd2ed4130c87a8a4e77f74", "is_disabled": 0, "fusion_lat": 0.0, "fusion_lon": 0.0, "type": "electric_scooter", "lat": 38.85538866666667, "bike_id": "f83ec7a6b5bd2ed4130c87a8a4e77f74", "is_reserved": 0, "lon": -76.98415883333334, "rental_uris": {"android": "https://dc.lft.to/lastmile_qr_scan", "ios": "https://dc.lft.to/lastmile_qr_scan"}}, {"name": "8b0c7e38a0b8b8e7d314f1b322311f95", "is_disabled": 0, "fusion_lat": 0.0, "fusion_lon": 0.0, "type": "electric_scooter", "lat": 38.89698216666667, "bike_id": "8b0c7e38a0b8b8e7d314f1b322311f95", "is_reserved": 0, "lon": -77.02415866666666, "rental_uris": {"android": "https://dc.lft.to/lastmile_qr_scan", "ios": "https://dc.lft.to/lastmile_qr_scan"}}, {"name": "75384a60d37fc0397cd6ff5beab8a79a", "is_disabled": 0, "fusion_lat": 0.0, "fusion_lon": 0.0, "type": "electric_scooter", "lat": 38.923129833333334, "bike_id": "75384a60d37fc0397cd6ff5beab8a79a", "is_reserved": 0, "lon": -77.01954283333333, "rental_uris": {"android": "https://dc.lft.to/lastmile_qr_scan", "ios": "https://dc.lft.to/lastmile_qr_scan"}}, {"name": "7db122023c64b4c41f20fbfd1d230a0e", "is_disabled": 0, "fusion_lat": 0.0, "fusion_lon": 0.0, "type": "electric_scooter", "lat": 38.90083033333333, "bike_id": "7db122023c64b4c41f20fbfd1d230a0e", "is_reserved": 0, "lon": -76.930164, "rental_uris": {"android": "https://dc.lft.to/lastmile_qr_scan", "ios": "https://dc.lft.to/lastmile_qr_scan"}}, {"name": "04bb1a830fa7e430bf140d2480864644", "is_disabled": 0, "fusion_lat": 0.0, "fusion_lon": 0.0, "type": "electric_scooter", "lat": 38.897596166666666, "bike_id": "04bb1a830fa7e430bf140d2480864644", "is_reserved": 0, "lon": -77.020157, "rental_uris": {"android": "https://dc.lft.to/lastmile_qr_scan", "ios": "https://dc.lft.to/lastmile_qr_scan"}}, {"name": "f8900d53b4b5755af098ba6b05909efb", "is_disabled": 0, "fusion_lat": 0.0, "fusion_lon": 0.0, "type": "electric_scooter", "lat": 38.90561533333333, "bike_id": "f8900d53b4b5755af098ba6b05909efb", "is_reserved": 0, "lon": -77.045015, "rental_uris": {"android": "https://dc.lft.to/lastmile_qr_scan", "ios": "https://dc.lft.to/lastmile_qr_scan"}}, {"name": "9af3074da675e960d8e533edefef8613", "is_disabled": 0, "fusion_lat": 0.0, "fusion_lon": 0.0, "type": "electric_scooter", "lat": 38.917082666666666, "bike_id": "9af3074da675e960d8e533edefef8613", "is_reserved": 0, "lon": -77.038636, "rental_uris": {"android": "https://dc.lft.to/lastmile_qr_scan", "ios": "https://dc.lft.to/lastmile_qr_scan"}}, {"name": "31d928086e32804c711855461c70283c", "is_disabled": 0, "fusion_lat": 0.0, "fusion_lon": 0.0, "type": "electric_scooter", "lat": 38.9168015, "bike_id": "31d928086e32804c711855461c70283c", "is_reserved": 0, "lon": -77.02971066666667, "rental_uris": {"android": "https://dc.lft.to/lastmile_qr_scan", "ios": "https://dc.lft.to/lastmile_qr_scan"}}, {"name": "0f1e20447c382cf1554013ebd577f191", "is_disabled": 0, "fusion_lat": 0.0, "fusion_lon": 0.0, "type": "electric_scooter", "lat": 38.898320166666664, "bike_id": "0f1e20447c382cf1554013ebd577f191", "is_reserved": 0, "lon": -77.007523, "rental_uris": {"android": "https://dc.lft.to/lastmile_qr_scan", "ios": "https://dc.lft.to/lastmile_qr_scan"}}, {"name": "9c30905fe8b72215e9e901dfa91d76d0", "is_disabled": 0, "fusion_lat": 0.0, "fusion_lon": 0.0, "type": "electric_scooter", "lat": 38.892211833333334, "bike_id": "9c30905fe8b72215e9e901dfa91d76d0", "is_reserved": 0, "lon": -77.02228133333334, "rental_uris": {"android": "https://dc.lft.to/lastmile_qr_scan", "ios": "https://dc.lft.to/lastmile_qr_scan"}}, {"name": "7b0099484bf4ad8f403f9f50104b05a8", "is_disabled": 0, "fusion_lat": 0.0, "fusion_lon": 0.0, "type": "electric_scooter", "lat": 38.934780833333335, "bike_id": "7b0099484bf4ad8f403f9f50104b05a8", "is_reserved": 0, "lon": -77.05795, "rental_uris": {"android": "https://dc.lft.to/lastmile_qr_scan", "ios": "https://dc.lft.to/lastmile_qr_scan"}}, {"name": "34b870349fe2508a5120b1b30bda3684", "is_disabled": 0, "fusion_lat": 0.0, "fusion_lon": 0.0, "type": "electric_scooter", "lat": 38.92904766666667, "bike_id": "34b870349fe2508a5120b1b30bda3684", "is_reserved": 0, "lon": -77.032998, "rental_uris": {"android": "https://dc.lft.to/lastmile_qr_scan", "ios": "https://dc.lft.to/lastmile_qr_scan"}}, {"name": "d461585b5d26d01265a39ce60b9020a7", "is_disabled": 0, "fusion_lat": 0.0, "fusion_lon": 0.0, "type": "electric_scooter", "lat": 38.903353333333335, "bike_id": "d461585b5d26d01265a39ce60b9020a7", "is_reserved": 0, "lon": -77.043522, "rental_uris": {"android": "https://dc.lft.to/lastmile_qr_scan", "ios": "https://dc.lft.to/lastmile_qr_scan"}}, {"name": "021f74188277b384c25328c6e0aed089", "is_disabled": 0, "fusion_lat": 0.0, "fusion_lon": 0.0, "type": "electric_scooter", "lat": 38.91711566666667, "bike_id": "021f74188277b384c25328c6e0aed089", "is_reserved": 0, "lon": -77.034736, "rental_uris": {"android": "https://dc.lft.to/lastmile_qr_scan", "ios": "https://dc.lft.to/lastmile_qr_scan"}}, {"name": "fdf5c3454870c04e0b5b976fd6959935", "is_disabled": 0, "fusion_lat": 0.0, "fusion_lon": 0.0, "type": "electric_scooter", "lat": 38.89349633333333, "bike_id": "fdf5c3454870c04e0b5b976fd6959935", "is_reserved": 0, "lon": -77.00332733333333, "rental_uris": {"android": "https://dc.lft.to/lastmile_qr_scan", "ios": "https://dc.lft.to/lastmile_qr_scan"}}, {"name": "02dd187ccc5ce06b414315a2427b632c", "is_disabled": 0, "fusion_lat": 0.0, "fusion_lon": 0.0, "type": "electric_bike", "lat": 38.8772685, "bike_id": "02dd187ccc5ce06b414315a2427b632c", "is_reserved": 0, "lon": -76.98106616666666, "rental_uris": {"android": "https://dc.lft.to/lastmile_qr_scan", "ios": "https://dc.lft.to/lastmile_qr_scan"}}, {"name": "6ccce803519228b142620a18d6ed1ccb", "is_disabled": 0, "fusion_lat": 0.0, "fusion_lon": 0.0, "type": "electric_scooter", "lat": 38.86060166666667, "bike_id": "6ccce803519228b142620a18d6ed1ccb", "is_reserved": 0, "lon": -76.98423216666667, "rental_uris": {"android": "https://dc.lft.to/lastmile_qr_scan", "ios": "https://dc.lft.to/lastmile_qr_scan"}}, {"name": "96da64535b504c0c1ccab1f9425f18e3", "is_disabled": 0, "fusion_lat": 0.0, "fusion_lon": 0.0, "type": "electric_scooter", "lat": 38.894836166666664, "bike_id": "96da64535b504c0c1ccab1f9425f18e3", "is_reserved": 0, "lon": -77.0227585, "rental_uris": {"android": "https://dc.lft.to/lastmile_qr_scan", "ios": "https://dc.lft.to/lastmile_qr_scan"}}, {"name": "03595be644185062edce43fa38190717", "is_disabled": 0, "fusion_lat": 0.0, "fusion_lon": 0.0, "type": "electric_scooter", "lat": 38.91124833333333, "bike_id": "03595be644185062edce43fa38190717", "is_reserved": 0, "lon": -77.00323366666667, "rental_uris": {"android": "https://dc.lft.to/lastmile_qr_scan", "ios": "https://dc.lft.to/lastmile_qr_scan"}}, {"name": "a14e6f47d2849c395b30e87fb2c43e28", "is_disabled": 0, "fusion_lat": 0.0, "fusion_lon": 0.0, "type": "electric_scooter", "lat": 38.88045, "bike_id": "a14e6f47d2849c395b30e87fb2c43e28", "is_reserved": 0, "lon": -77.01988566666667, "rental_uris": {"android": "https://dc.lft.to/lastmile_qr_scan", "ios": "https://dc.lft.to/lastmile_qr_scan"}}, {"name": "130b078b012223521e081a8850ac390d", "is_disabled": 0, "fusion_lat": 0.0, "fusion_lon": 0.0, "type": "electric_scooter", "lat": 38.89895466666667, "bike_id": "130b078b012223521e081a8850ac390d", "is_reserved": 0, "lon": -76.93400683333333, "rental_uris": {"android": "https://dc.lft.to/lastmile_qr_scan", "ios": "https://dc.lft.to/lastmile_qr_scan"}}, {"name": "29d5b41e56da414967e9808512411a69", "is_disabled": 0, "fusion_lat": 0.0, "fusion_lon": 0.0, "type": "electric_scooter", "lat": 38.9385905, "bike_id": "29d5b41e56da414967e9808512411a69", "is_reserved": 0, "lon": -77.0264965, "rental_uris": {"android": "https://dc.lft.to/lastmile_qr_scan", "ios": "https://dc.lft.to/lastmile_qr_scan"}}, {"name": "bab937adfe1c885c4f6f67f203253fbe", "is_disabled": 0, "fusion_lat": 0.0, "fusion_lon": 0.0, "type": "electric_scooter", "lat": 38.90264366666667, "bike_id": "bab937adfe1c885c4f6f67f203253fbe", "is_reserved": 0, "lon": -77.04601533333333, "rental_uris": {"android": "https://dc.lft.to/lastmile_qr_scan", "ios": "https://dc.lft.to/lastmile_qr_scan"}}, {"name": "7d49a8b369c282d67fdef218c71dbd9b", "is_disabled": 0, "fusion_lat": 0.0, "fusion_lon": 0.0, "type": "electric_scooter", "lat": 38.924990666666666, "bike_id": "7d49a8b369c282d67fdef218c71dbd9b", "is_reserved": 0, "lon": -77.02157766666667, "rental_uris": {"android": "https://dc.lft.to/lastmile_qr_scan", "ios": "https://dc.lft.to/lastmile_qr_scan"}}, {"name": "290500e0cde2753329e5230a595160aa", "is_disabled": 0, "fusion_lat": 0.0, "fusion_lon": 0.0, "type": "electric_scooter", "lat": 38.9208965, "bike_id": "290500e0cde2753329e5230a595160aa", "is_reserved": 0, "lon": -77.022241, "rental_uris": {"android": "https://dc.lft.to/lastmile_qr_scan", "ios": "https://dc.lft.to/lastmile_qr_scan"}}, {"name": "9cbab4f1b3c6257cd9239d318d49343d", "is_disabled": 0, "fusion_lat": 0.0, "fusion_lon": 0.0, "type": "electric_scooter", "lat": 38.895034833333334, "bike_id": "9cbab4f1b3c6257cd9239d318d49343d", "is_reserved": 0, "lon": -77.02740866666667, "rental_uris": {"android": "https://dc.lft.to/lastmile_qr_scan", "ios": "https://dc.lft.to/lastmile_qr_scan"}}, {"name": "267e1227af22e9dcce8873e60de6ab0b", "is_disabled": 0, "fusion_lat": 0.0, "fusion_lon": 0.0, "type": "electric_scooter", "lat": 38.892359166666665, "bike_id": "267e1227af22e9dcce8873e60de6ab0b", "is_reserved": 0, "lon": -77.03208183333334, "rental_uris": {"android": "https://dc.lft.to/lastmile_qr_scan", "ios": "https://dc.lft.to/lastmile_qr_scan"}}, {"name": "58ba0c60aae689eeb6b62608a6b97c40", "is_disabled": 0, "fusion_lat": 0.0, "fusion_lon": 0.0, "type": "electric_scooter", "lat": 38.920371, "bike_id": "58ba0c60aae689eeb6b62608a6b97c40", "is_reserved": 0, "lon": -77.0219775, "rental_uris": {"android": "https://dc.lft.to/lastmile_qr_scan", "ios": "https://dc.lft.to/lastmile_qr_scan"}}, {"name": "5239bba68d865ca15354adfba758d0fd", "is_disabled": 0, "fusion_lat": 0.0, "fusion_lon": 0.0, "type": "electric_scooter", "lat": 38.9677745, "bike_id": "5239bba68d865ca15354adfba758d0fd", "is_reserved": 0, "lon": -77.01513966666667, "rental_uris": {"android": "https://dc.lft.to/lastmile_qr_scan", "ios": "https://dc.lft.to/lastmile_qr_scan"}}, {"name": "cfd9f40363976828cafcb50a623762fb", "is_disabled": 0, "fusion_lat": 0.0, "fusion_lon": 0.0, "type": "electric_scooter", "lat": 38.918945, "bike_id": "cfd9f40363976828cafcb50a623762fb", "is_reserved": 0, "lon": -77.04825866666667, "rental_uris": {"android": "https://dc.lft.to/lastmile_qr_scan", "ios": "https://dc.lft.to/lastmile_qr_scan"}}, {"name": "ec87b740b5b6aa3a20f1c25b1d1567db", "is_disabled": 0, "fusion_lat": 0.0, "fusion_lon": 0.0, "type": "electric_scooter", "lat": 38.906811166666664, "bike_id": "ec87b740b5b6aa3a20f1c25b1d1567db", "is_reserved": 0, "lon": -77.00601316666666, "rental_uris": {"android": "https://dc.lft.to/lastmile_qr_scan", "ios": "https://dc.lft.to/lastmile_qr_scan"}}, {"name": "420d8b903ca20c1b8ff89000e6fb5743", "is_disabled": 0, "fusion_lat": 0.0, "fusion_lon": 0.0, "type": "electric_bike", "lat": 38.928915333333336, "bike_id": "420d8b903ca20c1b8ff89000e6fb5743", "is_reserved": 0, "lon": -77.08403716666666, "rental_uris": {"android": "https://dc.lft.to/lastmile_qr_scan", "ios": "https://dc.lft.to/lastmile_qr_scan"}}, {"name": "1b9fd28662e6ca357415ae022a3a5200", "is_disabled": 0, "fusion_lat": 0.0, "fusion_lon": 0.0, "type": "electric_scooter", "lat": 38.887179333333336, "bike_id": "1b9fd28662e6ca357415ae022a3a5200", "is_reserved": 0, "lon": -77.03210766666666, "rental_uris": {"android": "https://dc.lft.to/lastmile_qr_scan", "ios": "https://dc.lft.to/lastmile_qr_scan"}}, {"name": "f250a8a920239bf3de325ce3ab9b594e", "is_disabled": 0, "fusion_lat": 0.0, "fusion_lon": 0.0, "type": "electric_scooter", "lat": 38.892234333333334, "bike_id": "f250a8a920239bf3de325ce3ab9b594e", "is_reserved": 0, "lon": -77.04687816666667, "rental_uris": {"android": "https://dc.lft.to/lastmile_qr_scan", "ios": "https://dc.lft.to/lastmile_qr_scan"}}, {"name": "24169ab70ab48043048a8fa82cd21ad2", "is_disabled": 0, "fusion_lat": 0.0, "fusion_lon": 0.0, "type": "electric_scooter", "lat": 38.90594983333333, "bike_id": "24169ab70ab48043048a8fa82cd21ad2", "is_reserved": 0, "lon": -77.064219, "rental_uris": {"android": "https://dc.lft.to/lastmile_qr_scan", "ios": "https://dc.lft.to/lastmile_qr_scan"}}, {"name": "b97667aff30868fff860bcce94159355", "is_disabled": 0, "fusion_lat": 0.0, "fusion_lon": 0.0, "type": "electric_scooter", "lat": 38.924301166666666, "bike_id": "b97667aff30868fff860bcce94159355", "is_reserved": 0, "lon": -77.05210016666666, "rental_uris": {"android": "https://dc.lft.to/lastmile_qr_scan", "ios": "https://dc.lft.to/lastmile_qr_scan"}}, {"name": "fd42e0b6a847505a522b8ad37dafcf18", "is_disabled": 0, "fusion_lat": 0.0, "fusion_lon": 0.0, "type": "electric_scooter", "lat": 38.89599, "bike_id": "fd42e0b6a847505a522b8ad37dafcf18", "is_reserved": 0, "lon": -77.01154116666666, "rental_uris": {"android": "https://dc.lft.to/lastmile_qr_scan", "ios": "https://dc.lft.to/lastmile_qr_scan"}}, {"name": "59668c1cfc5be0b2778ed5608c97abe9", "is_disabled": 0, "fusion_lat": 0.0, "fusion_lon": 0.0, "type": "electric_scooter", "lat": 38.860577666666664, "bike_id": "59668c1cfc5be0b2778ed5608c97abe9", "is_reserved": 0, "lon": -76.98506533333334, "rental_uris": {"android": "https://dc.lft.to/lastmile_qr_scan", "ios": "https://dc.lft.to/lastmile_qr_scan"}}, {"name": "23274939eddf79a91b054e875fea353f", "is_disabled": 0, "fusion_lat": 0.0, "fusion_lon": 0.0, "type": "electric_scooter", "lat": 38.896044833333335, "bike_id": "23274939eddf79a91b054e875fea353f", "is_reserved": 0, "lon": -76.99972233333334, "rental_uris": {"android": "https://dc.lft.to/lastmile_qr_scan", "ios": "https://dc.lft.to/lastmile_qr_scan"}}, {"name": "a079abae6e5014eb8577387f2dc58187", "is_disabled": 0, "fusion_lat": 0.0, "fusion_lon": 0.0, "type": "electric_bike", "lat": 39.04301916666667, "bike_id": "a079abae6e5014eb8577387f2dc58187", "is_reserved": 0, "lon": -77.05157116666666, "rental_uris": {"android": "https://dc.lft.to/lastmile_qr_scan", "ios": "https://dc.lft.to/lastmile_qr_scan"}}, {"name": "2d84ae06e069b6256d30b4afc89de5e8", "is_disabled": 0, "fusion_lat": 0.0, "fusion_lon": 0.0, "type": "electric_scooter", "lat": 38.92879933333333, "bike_id": "2d84ae06e069b6256d30b4afc89de5e8", "is_reserved": 0, "lon": -77.03344816666667, "rental_uris": {"android": "https://dc.lft.to/lastmile_qr_scan", "ios": "https://dc.lft.to/lastmile_qr_scan"}}, {"name": "6307764fb8a4da7f75508df889044f77", "is_disabled": 0, "fusion_lat": 0.0, "fusion_lon": 0.0, "type": "electric_scooter", "lat": 38.907288333333334, "bike_id": "6307764fb8a4da7f75508df889044f77", "is_reserved": 0, "lon": -76.9869245, "rental_uris": {"android": "https://dc.lft.to/lastmile_qr_scan", "ios": "https://dc.lft.to/lastmile_qr_scan"}}, {"name": "064aed0c3a4527fa5ab1fc9b4579361c", "is_disabled": 0, "fusion_lat": 0.0, "fusion_lon": 0.0, "type": "electric_bike", "lat": 38.911269, "bike_id": "064aed0c3a4527fa5ab1fc9b4579361c", "is_reserved": 0, "lon": -76.99721066666666, "rental_uris": {"android": "https://dc.lft.to/lastmile_qr_scan", "ios": "https://dc.lft.to/lastmile_qr_scan"}}, {"name": "cd43b8ec98ec03d25bea313c11462959", "is_disabled": 0, "fusion_lat": 0.0, "fusion_lon": 0.0, "type": "electric_scooter", "lat": 38.9036795, "bike_id": "cd43b8ec98ec03d25bea313c11462959", "is_reserved": 0, "lon": -76.99717616666666, "rental_uris": {"android": "https://dc.lft.to/lastmile_qr_scan", "ios": "https://dc.lft.to/lastmile_qr_scan"}}, {"name": "020837baaeec4bcf5ee03d6e0492edf5", "is_disabled": 0, "fusion_lat": 0.0, "fusion_lon": 0.0, "type": "electric_scooter", "lat": 38.92861383333333, "bike_id": "020837baaeec4bcf5ee03d6e0492edf5", "is_reserved": 0, "lon": -77.02765566666666, "rental_uris": {"android": "https://dc.lft.to/lastmile_qr_scan", "ios": "https://dc.lft.to/lastmile_qr_scan"}}, {"name": "1b1ccfb4db689381d77fad396fa3ab3a", "is_disabled": 0, "fusion_lat": 0.0, "fusion_lon": 0.0, "type": "electric_scooter", "lat": 38.89888366666667, "bike_id": "1b1ccfb4db689381d77fad396fa3ab3a", "is_reserved": 0, "lon": -77.03277933333334, "rental_uris": {"android": "https://dc.lft.to/lastmile_qr_scan", "ios": "https://dc.lft.to/lastmile_qr_scan"}}, {"name": "8ab7d6fff6b8879e516fa8df54355c52", "is_disabled": 0, "fusion_lat": 0.0, "fusion_lon": 0.0, "type": "electric_scooter", "lat": 38.9234565, "bike_id": "8ab7d6fff6b8879e516fa8df54355c52", "is_reserved": 0, "lon": -77.05129333333333, "rental_uris": {"android": "https://dc.lft.to/lastmile_qr_scan", "ios": "https://dc.lft.to/lastmile_qr_scan"}}, {"name": "b00de75f0dea630ec67d88b1d9c8373d", "is_disabled": 0, "fusion_lat": 0.0, "fusion_lon": 0.0, "type": "electric_scooter", "lat": 38.91185, "bike_id": "b00de75f0dea630ec67d88b1d9c8373d", "is_reserved": 0, "lon": -77.00511316666666, "rental_uris": {"android": "https://dc.lft.to/lastmile_qr_scan", "ios": "https://dc.lft.to/lastmile_qr_scan"}}, {"name": "ad41ca42082d4198f8a03b29156dc9a9", "is_disabled": 0, "fusion_lat": 0.0, "fusion_lon": 0.0, "type": "electric_scooter", "lat": 38.91540783333333, "bike_id": "ad41ca42082d4198f8a03b29156dc9a9", "is_reserved": 0, "lon": -76.97016333333333, "rental_uris": {"android": "https://dc.lft.to/lastmile_qr_scan", "ios": "https://dc.lft.to/lastmile_qr_scan"}}, {"name": "320dfb7e35877ce56ae9ae8c7985826b", "is_disabled": 0, "fusion_lat": 0.0, "fusion_lon": 0.0, "type": "electric_scooter", "lat": 38.937048, "bike_id": "320dfb7e35877ce56ae9ae8c7985826b", "is_reserved": 0, "lon": -77.02937816666666, "rental_uris": {"android": "https://dc.lft.to/lastmile_qr_scan", "ios": "https://dc.lft.to/lastmile_qr_scan"}}, {"name": "850aecf8d93584ddb48e50674ae02cf3", "is_disabled": 0, "fusion_lat": 0.0, "fusion_lon": 0.0, "type": "electric_scooter", "lat": 38.91714116666667, "bike_id": "850aecf8d93584ddb48e50674ae02cf3", "is_reserved": 0, "lon": -77.02890983333333, "rental_uris": {"android": "https://dc.lft.to/lastmile_qr_scan", "ios": "https://dc.lft.to/lastmile_qr_scan"}}, {"name": "2295a2dc0df922193606cc04177119f4", "is_disabled": 0, "fusion_lat": 0.0, "fusion_lon": 0.0, "type": "electric_scooter", "lat": 38.92115066666667, "bike_id": "2295a2dc0df922193606cc04177119f4", "is_reserved": 0, "lon": -77.039334, "rental_uris": {"android": "https://dc.lft.to/lastmile_qr_scan", "ios": "https://dc.lft.to/lastmile_qr_scan"}}, {"name": "d122452c1ef86be980b4fa03a1b59ff0", "is_disabled": 0, "fusion_lat": 0.0, "fusion_lon": 0.0, "type": "electric_scooter", "lat": 38.88368083333334, "bike_id": "d122452c1ef86be980b4fa03a1b59ff0", "is_reserved": 0, "lon": -76.99501833333333, "rental_uris": {"android": "https://dc.lft.to/lastmile_qr_scan", "ios": "https://dc.lft.to/lastmile_qr_scan"}}, {"name": "92a4ae4ce94fef45b0ca943de9b8c5fa", "is_disabled": 0, "fusion_lat": 0.0, "fusion_lon": 0.0, "type": "electric_scooter", "lat": 38.9000125, "bike_id": "92a4ae4ce94fef45b0ca943de9b8c5fa", "is_reserved": 0, "lon": -76.99624933333334, "rental_uris": {"android": "https://dc.lft.to/lastmile_qr_scan", "ios": "https://dc.lft.to/lastmile_qr_scan"}}, {"name": "56bcdf9a5064296bad1e284f721dcee9", "is_disabled": 0, "fusion_lat": 0.0, "fusion_lon": 0.0, "type": "electric_scooter", "lat": 38.93871266666667, "bike_id": "56bcdf9a5064296bad1e284f721dcee9", "is_reserved": 0, "lon": -77.02521166666666, "rental_uris": {"android": "https://dc.lft.to/lastmile_qr_scan", "ios": "https://dc.lft.to/lastmile_qr_scan"}}, {"name": "7ca90d4571328db07d558bd77751d954", "is_disabled": 0, "fusion_lat": 0.0, "fusion_lon": 0.0, "type": "electric_scooter", "lat": 38.924527166666664, "bike_id": "7ca90d4571328db07d558bd77751d954", "is_reserved": 0, "lon": -77.02154766666666, "rental_uris": {"android": "https://dc.lft.to/lastmile_qr_scan", "ios": "https://dc.lft.to/lastmile_qr_scan"}}, {"name": "059ede7b37d5ea2d768affd27e38854e", "is_disabled": 0, "fusion_lat": 0.0, "fusion_lon": 0.0, "type": "electric_scooter", "lat": 38.9199595, "bike_id": "059ede7b37d5ea2d768affd27e38854e", "is_reserved": 0, "lon": -77.0321695, "rental_uris": {"android": "https://dc.lft.to/lastmile_qr_scan", "ios": "https://dc.lft.to/lastmile_qr_scan"}}, {"name": "38962ae2c93ea79e1cca1724cd7a0257", "is_disabled": 0, "fusion_lat": 0.0, "fusion_lon": 0.0, "type": "electric_scooter", "lat": 38.920541166666666, "bike_id": "38962ae2c93ea79e1cca1724cd7a0257", "is_reserved": 0, "lon": -77.02986433333334, "rental_uris": {"android": "https://dc.lft.to/lastmile_qr_scan", "ios": "https://dc.lft.to/lastmile_qr_scan"}}, {"name": "ac1f285750d74136967c256cf1ca41ca", "is_disabled": 0, "fusion_lat": 0.0, "fusion_lon": 0.0, "type": "electric_bike", "lat": 38.84561383333333, "bike_id": "ac1f285750d74136967c256cf1ca41ca", "is_reserved": 0, "lon": -77.06693233333333, "rental_uris": {"android": "https://dc.lft.to/lastmile_qr_scan", "ios": "https://dc.lft.to/lastmile_qr_scan"}}, {"name": "97e4bf72e59fb313391d5a097e0c4378", "is_disabled": 0, "fusion_lat": 0.0, "fusion_lon": 0.0, "type": "electric_scooter", "lat": 38.904722166666666, "bike_id": "97e4bf72e59fb313391d5a097e0c4378", "is_reserved": 0, "lon": -77.04815366666666, "rental_uris": {"android": "https://dc.lft.to/lastmile_qr_scan", "ios": "https://dc.lft.to/lastmile_qr_scan"}}, {"name": "051d2b85ea94d35d1ac353422f040d4d", "is_disabled": 0, "fusion_lat": 0.0, "fusion_lon": 0.0, "type": "electric_scooter", "lat": 38.919386333333335, "bike_id": "051d2b85ea94d35d1ac353422f040d4d", "is_reserved": 0, "lon": -77.02365183333333, "rental_uris": {"android": "https://dc.lft.to/lastmile_qr_scan", "ios": "https://dc.lft.to/lastmile_qr_scan"}}, {"name": "6e818853076f6e5633fed2c1ef2e251d", "is_disabled": 0, "fusion_lat": 0.0, "fusion_lon": 0.0, "type": "electric_scooter", "lat": 38.941835166666664, "bike_id": "6e818853076f6e5633fed2c1ef2e251d", "is_reserved": 0, "lon": -77.02489416666667, "rental_uris": {"android": "https://dc.lft.to/lastmile_qr_scan", "ios": "https://dc.lft.to/lastmile_qr_scan"}}, {"name": "1d54fd24d5f582e74e6fc9a46b1f6784", "is_disabled": 0, "fusion_lat": 0.0, "fusion_lon": 0.0, "type": "electric_bike", "lat": 38.99344766666667, "bike_id": "1d54fd24d5f582e74e6fc9a46b1f6784", "is_reserved": 0, "lon": -77.11573733333333, "rental_uris": {"android": "https://dc.lft.to/lastmile_qr_scan", "ios": "https://dc.lft.to/lastmile_qr_scan"}}, {"name": "6857b7a4343caaf4ff7f1818f6056e15", "is_disabled": 0, "fusion_lat": 0.0, "fusion_lon": 0.0, "type": "electric_scooter", "lat": 38.930197666666665, "bike_id": "6857b7a4343caaf4ff7f1818f6056e15", "is_reserved": 0, "lon": -77.05533766666667, "rental_uris": {"android": "https://dc.lft.to/lastmile_qr_scan", "ios": "https://dc.lft.to/lastmile_qr_scan"}}, {"name": "39b64e415a0f0f37febca11374b81cdd", "is_disabled": 0, "fusion_lat": 0.0, "fusion_lon": 0.0, "type": "electric_scooter", "lat": 38.951884166666666, "bike_id": "39b64e415a0f0f37febca11374b81cdd", "is_reserved": 0, "lon": -77.026144, "rental_uris": {"android": "https://dc.lft.to/lastmile_qr_scan", "ios": "https://dc.lft.to/lastmile_qr_scan"}}, {"name": "745869da559ec72ab840d3c680953c9d", "is_disabled": 0, "fusion_lat": 0.0, "fusion_lon": 0.0, "type": "electric_scooter", "lat": 38.926159166666665, "bike_id": "745869da559ec72ab840d3c680953c9d", "is_reserved": 0, "lon": -77.0431485, "rental_uris": {"android": "https://dc.lft.to/lastmile_qr_scan", "ios": "https://dc.lft.to/lastmile_qr_scan"}}, {"name": "6ba0a0dad3353eb4fe59a6164323b069", "is_disabled": 0, "fusion_lat": 0.0, "fusion_lon": 0.0, "type": "electric_scooter", "lat": 38.90010616666667, "bike_id": "6ba0a0dad3353eb4fe59a6164323b069", "is_reserved": 0, "lon": -77.04140533333333, "rental_uris": {"android": "https://dc.lft.to/lastmile_qr_scan", "ios": "https://dc.lft.to/lastmile_qr_scan"}}, {"name": "4d4950789e3139cf7e7bd7c26e5630e7", "is_disabled": 0, "fusion_lat": 0.0, "fusion_lon": 0.0, "type": "electric_scooter", "lat": 38.91638583333334, "bike_id": "4d4950789e3139cf7e7bd7c26e5630e7", "is_reserved": 0, "lon": -77.04810183333333, "rental_uris": {"android": "https://dc.lft.to/lastmile_qr_scan", "ios": "https://dc.lft.to/lastmile_qr_scan"}}, {"name": "8c69a390d719e34af02ac513918787c2", "is_disabled": 0, "fusion_lat": 0.0, "fusion_lon": 0.0, "type": "electric_scooter", "lat": 38.921628, "bike_id": "8c69a390d719e34af02ac513918787c2", "is_reserved": 0, "lon": -77.033821, "rental_uris": {"android": "https://dc.lft.to/lastmile_qr_scan", "ios": "https://dc.lft.to/lastmile_qr_scan"}}, {"name": "7199e1842d987f3092edfb1fcbffe933", "is_disabled": 0, "fusion_lat": 0.0, "fusion_lon": 0.0, "type": "electric_scooter", "lat": 38.9148315, "bike_id": "7199e1842d987f3092edfb1fcbffe933", "is_reserved": 0, "lon": -77.0409085, "rental_uris": {"android": "https://dc.lft.to/lastmile_qr_scan", "ios": "https://dc.lft.to/lastmile_qr_scan"}}, {"name": "6da0582b4251c4e46015ebaa4cdd0dff", "is_disabled": 0, "fusion_lat": 0.0, "fusion_lon": 0.0, "type": "electric_scooter", "lat": 38.902271, "bike_id": "6da0582b4251c4e46015ebaa4cdd0dff", "is_reserved": 0, "lon": -77.0462715, "rental_uris": {"android": "https://dc.lft.to/lastmile_qr_scan", "ios": "https://dc.lft.to/lastmile_qr_scan"}}, {"name": "172c18ea1166643e8e20380656534569", "is_disabled": 0, "fusion_lat": 0.0, "fusion_lon": 0.0, "type": "electric_scooter", "lat": 38.928690833333334, "bike_id": "172c18ea1166643e8e20380656534569", "is_reserved": 0, "lon": -77.03289733333334, "rental_uris": {"android": "https://dc.lft.to/lastmile_qr_scan", "ios": "https://dc.lft.to/lastmile_qr_scan"}}, {"name": "69182f403a29c6540596aa22fd5c1b19", "is_disabled": 0, "fusion_lat": 0.0, "fusion_lon": 0.0, "type": "electric_scooter", "lat": 38.899891, "bike_id": "69182f403a29c6540596aa22fd5c1b19", "is_reserved": 0, "lon": -77.01661566666667, "rental_uris": {"android": "https://dc.lft.to/lastmile_qr_scan", "ios": "https://dc.lft.to/lastmile_qr_scan"}}, {"name": "d765763ad916369b10d6b38960ad121e", "is_disabled": 0, "fusion_lat": 0.0, "fusion_lon": 0.0, "type": "electric_scooter", "lat": 38.907219166666664, "bike_id": "d765763ad916369b10d6b38960ad121e", "is_reserved": 0, "lon": -77.0434435, "rental_uris": {"android": "https://dc.lft.to/lastmile_qr_scan", "ios": "https://dc.lft.to/lastmile_qr_scan"}}, {"name": "de9254bc570a0fafeb6095b6142460b1", "is_disabled": 0, "fusion_lat": 0.0, "fusion_lon": 0.0, "type": "electric_scooter", "lat": 38.90490633333334, "bike_id": "de9254bc570a0fafeb6095b6142460b1", "is_reserved": 0, "lon": -76.98709366666667, "rental_uris": {"android": "https://dc.lft.to/lastmile_qr_scan", "ios": "https://dc.lft.to/lastmile_qr_scan"}}, {"name": "0ca721437b1bc2fdc537d95dfdbd05e2", "is_disabled": 0, "fusion_lat": 0.0, "fusion_lon": 0.0, "type": "electric_scooter", "lat": 38.894241, "bike_id": "0ca721437b1bc2fdc537d95dfdbd05e2", "is_reserved": 0, "lon": -77.04005516666666, "rental_uris": {"android": "https://dc.lft.to/lastmile_qr_scan", "ios": "https://dc.lft.to/lastmile_qr_scan"}}, {"name": "e6235f3ecd680d7d4d6deb2699aa2b24", "is_disabled": 0, "fusion_lat": 0.0, "fusion_lon": 0.0, "type": "electric_bike", "lat": 38.932260166666666, "bike_id": "e6235f3ecd680d7d4d6deb2699aa2b24", "is_reserved": 0, "lon": -77.181235, "rental_uris": {"android": "https://dc.lft.to/lastmile_qr_scan", "ios": "https://dc.lft.to/lastmile_qr_scan"}}, {"name": "fe840fe1b940c3dfbefb8bdac3dbb87c", "is_disabled": 0, "fusion_lat": 0.0, "fusion_lon": 0.0, "type": "electric_scooter", "lat": 38.91766533333333, "bike_id": "fe840fe1b940c3dfbefb8bdac3dbb87c", "is_reserved": 0, "lon": -77.04059366666667, "rental_uris": {"android": "https://dc.lft.to/lastmile_qr_scan", "ios": "https://dc.lft.to/lastmile_qr_scan"}}, {"name": "3afdc90bf49252167d33fee1099427d7", "is_disabled": 0, "fusion_lat": 0.0, "fusion_lon": 0.0, "type": "electric_bike", "lat": 38.953288666666666, "bike_id": "3afdc90bf49252167d33fee1099427d7", "is_reserved": 0, "lon": -76.954353, "rental_uris": {"android": "https://dc.lft.to/lastmile_qr_scan", "ios": "https://dc.lft.to/lastmile_qr_scan"}}, {"name": "27eb4d9ada4a4b3c1fd1d52b364dd8da", "is_disabled": 0, "fusion_lat": 0.0, "fusion_lon": 0.0, "type": "electric_scooter", "lat": 38.90302633333334, "bike_id": "27eb4d9ada4a4b3c1fd1d52b364dd8da", "is_reserved": 0, "lon": -77.03469683333333, "rental_uris": {"android": "https://dc.lft.to/lastmile_qr_scan", "ios": "https://dc.lft.to/lastmile_qr_scan"}}, {"name": "827727423684308b28e7093162072950", "is_disabled": 0, "fusion_lat": 0.0, "fusion_lon": 0.0, "type": "electric_scooter", "lat": 38.907236833333336, "bike_id": "827727423684308b28e7093162072950", "is_reserved": 0, "lon": -77.00071216666667, "rental_uris": {"android": "https://dc.lft.to/lastmile_qr_scan", "ios": "https://dc.lft.to/lastmile_qr_scan"}}, {"name": "bc8f3d3505acaf9b491d3f9fb9e62cd6", "is_disabled": 0, "fusion_lat": 0.0, "fusion_lon": 0.0, "type": "electric_scooter", "lat": 38.86624183333333, "bike_id": "bc8f3d3505acaf9b491d3f9fb9e62cd6", "is_reserved": 0, "lon": -76.98903216666666, "rental_uris": {"android": "https://dc.lft.to/lastmile_qr_scan", "ios": "https://dc.lft.to/lastmile_qr_scan"}}, {"name": "45afe2326dab01af8dbd1306fac7e045", "is_disabled": 0, "fusion_lat": 0.0, "fusion_lon": 0.0, "type": "electric_scooter", "lat": 38.89700166666667, "bike_id": "45afe2326dab01af8dbd1306fac7e045", "is_reserved": 0, "lon": -76.93001266666667, "rental_uris": {"android": "https://dc.lft.to/lastmile_qr_scan", "ios": "https://dc.lft.to/lastmile_qr_scan"}}, {"name": "a06e9a3769efe00a74601cdadc69f2d3", "is_disabled": 0, "fusion_lat": 0.0, "fusion_lon": 0.0, "type": "electric_scooter", "lat": 38.934533, "bike_id": "a06e9a3769efe00a74601cdadc69f2d3", "is_reserved": 0, "lon": -77.03755116666666, "rental_uris": {"android": "https://dc.lft.to/lastmile_qr_scan", "ios": "https://dc.lft.to/lastmile_qr_scan"}}, {"name": "91b61c415b69323466ef11c828fd429c", "is_disabled": 0, "fusion_lat": 0.0, "fusion_lon": 0.0, "type": "electric_scooter", "lat": 38.90248616666667, "bike_id": "91b61c415b69323466ef11c828fd429c", "is_reserved": 0, "lon": -77.046009, "rental_uris": {"android": "https://dc.lft.to/lastmile_qr_scan", "ios": "https://dc.lft.to/lastmile_qr_scan"}}, {"name": "218ebae80347243a96f3ec60f7317e5a", "is_disabled": 0, "fusion_lat": 0.0, "fusion_lon": 0.0, "type": "electric_scooter", "lat": 38.909826833333334, "bike_id": "218ebae80347243a96f3ec60f7317e5a", "is_reserved": 0, "lon": -77.03195783333334, "rental_uris": {"android": "https://dc.lft.to/lastmile_qr_scan", "ios": "https://dc.lft.to/lastmile_qr_scan"}}, {"name": "8fcc0c2bde5737e2ef20ec1832d5d258", "is_disabled": 0, "fusion_lat": 0.0, "fusion_lon": 0.0, "type": "electric_scooter", "lat": 38.90297316666667, "bike_id": "8fcc0c2bde5737e2ef20ec1832d5d258", "is_reserved": 0, "lon": -77.02071383333333, "rental_uris": {"android": "https://dc.lft.to/lastmile_qr_scan", "ios": "https://dc.lft.to/lastmile_qr_scan"}}, {"name": "1c8a9094cfbfc774d2c659d5b8f74f84", "is_disabled": 0, "fusion_lat": 0.0, "fusion_lon": 0.0, "type": "electric_scooter", "lat": 38.923183333333334, "bike_id": "1c8a9094cfbfc774d2c659d5b8f74f84", "is_reserved": 0, "lon": -77.0353845, "rental_uris": {"android": "https://dc.lft.to/lastmile_qr_scan", "ios": "https://dc.lft.to/lastmile_qr_scan"}}, {"name": "d37590e674243da8704e2ba4029742e0", "is_disabled": 0, "fusion_lat": 0.0, "fusion_lon": 0.0, "type": "electric_scooter", "lat": 38.907454666666666, "bike_id": "d37590e674243da8704e2ba4029742e0", "is_reserved": 0, "lon": -77.0414835, "rental_uris": {"android": "https://dc.lft.to/lastmile_qr_scan", "ios": "https://dc.lft.to/lastmile_qr_scan"}}, {"name": "62325bfef0a15ee16bd7abc753e71627", "is_disabled": 0, "fusion_lat": 0.0, "fusion_lon": 0.0, "type": "electric_scooter", "lat": 38.90004716666667, "bike_id": "62325bfef0a15ee16bd7abc753e71627", "is_reserved": 0, "lon": -77.04050183333334, "rental_uris": {"android": "https://dc.lft.to/lastmile_qr_scan", "ios": "https://dc.lft.to/lastmile_qr_scan"}}, {"name": "036a67c20d73ed17e608502373679c2d", "is_disabled": 0, "fusion_lat": 0.0, "fusion_lon": 0.0, "type": "electric_bike", "lat": 38.89825783333333, "bike_id": "036a67c20d73ed17e608502373679c2d", "is_reserved": 0, "lon": -77.02499766666666, "rental_uris": {"android": "https://dc.lft.to/lastmile_qr_scan", "ios": "https://dc.lft.to/lastmile_qr_scan"}}, {"name": "d48ab0e5c75be2603baeb95781c82ffc", "is_disabled": 0, "fusion_lat": 0.0, "fusion_lon": 0.0, "type": "electric_scooter", "lat": 38.9050395, "bike_id": "d48ab0e5c75be2603baeb95781c82ffc", "is_reserved": 0, "lon": -77.04144133333334, "rental_uris": {"android": "https://dc.lft.to/lastmile_qr_scan", "ios": "https://dc.lft.to/lastmile_qr_scan"}}, {"name": "c7578c3141b6e2f82bc4b33576b9459b", "is_disabled": 0, "fusion_lat": 0.0, "fusion_lon": 0.0, "type": "electric_scooter", "lat": 38.92003033333334, "bike_id": "c7578c3141b6e2f82bc4b33576b9459b", "is_reserved": 0, "lon": -77.03222583333333, "rental_uris": {"android": "https://dc.lft.to/lastmile_qr_scan", "ios": "https://dc.lft.to/lastmile_qr_scan"}}, {"name": "370e5b132623488cec01cb5b8f14462c", "is_disabled": 0, "fusion_lat": 0.0, "fusion_lon": 0.0, "type": "electric_scooter", "lat": 38.89996283333333, "bike_id": "370e5b132623488cec01cb5b8f14462c", "is_reserved": 0, "lon": -77.0320985, "rental_uris": {"android": "https://dc.lft.to/lastmile_qr_scan", "ios": "https://dc.lft.to/lastmile_qr_scan"}}, {"name": "569a8315a002105f524dc582e2e11880", "is_disabled": 0, "fusion_lat": 0.0, "fusion_lon": 0.0, "type": "electric_scooter", "lat": 38.9097675, "bike_id": "569a8315a002105f524dc582e2e11880", "is_reserved": 0, "lon": -77.04872333333333, "rental_uris": {"android": "https://dc.lft.to/lastmile_qr_scan", "ios": "https://dc.lft.to/lastmile_qr_scan"}}, {"name": "5fb09c52782c7478810871e51ed4d037", "is_disabled": 0, "fusion_lat": 0.0, "fusion_lon": 0.0, "type": "electric_scooter", "lat": 38.906248833333336, "bike_id": "5fb09c52782c7478810871e51ed4d037", "is_reserved": 0, "lon": -77.03847433333334, "rental_uris": {"android": "https://dc.lft.to/lastmile_qr_scan", "ios": "https://dc.lft.to/lastmile_qr_scan"}}, {"name": "b05b9b4d373a8c9111354890467c089d", "is_disabled": 0, "fusion_lat": 0.0, "fusion_lon": 0.0, "type": "electric_scooter", "lat": 38.934056, "bike_id": "b05b9b4d373a8c9111354890467c089d", "is_reserved": 0, "lon": -77.03263483333333, "rental_uris": {"android": "https://dc.lft.to/lastmile_qr_scan", "ios": "https://dc.lft.to/lastmile_qr_scan"}}, {"name": "5c3af40724d5e3547cb40be044bbbf87", "is_disabled": 0, "fusion_lat": 0.0, "fusion_lon": 0.0, "type": "electric_scooter", "lat": 38.90358583333333, "bike_id": "5c3af40724d5e3547cb40be044bbbf87", "is_reserved": 0, "lon": -77.0367395, "rental_uris": {"android": "https://dc.lft.to/lastmile_qr_scan", "ios": "https://dc.lft.to/lastmile_qr_scan"}}, {"name": "e03bfa182974a9cd1b3c95588336ed14", "is_disabled": 0, "fusion_lat": 0.0, "fusion_lon": 0.0, "type": "electric_scooter", "lat": 38.916871, "bike_id": "e03bfa182974a9cd1b3c95588336ed14", "is_reserved": 0, "lon": -77.03819366666667, "rental_uris": {"android": "https://dc.lft.to/lastmile_qr_scan", "ios": "https://dc.lft.to/lastmile_qr_scan"}}, {"name": "170c99f5138c30485a7c58e8a10077b0", "is_disabled": 0, "fusion_lat": 0.0, "fusion_lon": 0.0, "type": "electric_scooter", "lat": 38.90363766666667, "bike_id": "170c99f5138c30485a7c58e8a10077b0", "is_reserved": 0, "lon": -77.04502583333333, "rental_uris": {"android": "https://dc.lft.to/lastmile_qr_scan", "ios": "https://dc.lft.to/lastmile_qr_scan"}}, {"name": "c7f54e9220df71b577c369a744c04a37", "is_disabled": 0, "fusion_lat": 0.0, "fusion_lon": 0.0, "type": "electric_bike", "lat": 39.050473833333335, "bike_id": "c7f54e9220df71b577c369a744c04a37", "is_reserved": 0, "lon": -77.05147433333333, "rental_uris": {"android": "https://dc.lft.to/lastmile_qr_scan", "ios": "https://dc.lft.to/lastmile_qr_scan"}}, {"name": "508e91d24dff6f732e95b59ac7b89658", "is_disabled": 0, "fusion_lat": 0.0, "fusion_lon": 0.0, "type": "electric_scooter", "lat": 38.9302685, "bike_id": "508e91d24dff6f732e95b59ac7b89658", "is_reserved": 0, "lon": -77.0631105, "rental_uris": {"android": "https://dc.lft.to/lastmile_qr_scan", "ios": "https://dc.lft.to/lastmile_qr_scan"}}, {"name": "56a701924990c81133f4ce5c51933018", "is_disabled": 0, "fusion_lat": 0.0, "fusion_lon": 0.0, "type": "electric_bike", "lat": 38.8323565, "bike_id": "56a701924990c81133f4ce5c51933018", "is_reserved": 0, "lon": -76.9461535, "rental_uris": {"android": "https://dc.lft.to/lastmile_qr_scan", "ios": "https://dc.lft.to/lastmile_qr_scan"}}, {"name": "46293f8ecddf63c2cbd93c765dc10235", "is_disabled": 0, "fusion_lat": 0.0, "fusion_lon": 0.0, "type": "electric_scooter", "lat": 38.899615, "bike_id": "46293f8ecddf63c2cbd93c765dc10235", "is_reserved": 0, "lon": -77.041677, "rental_uris": {"android": "https://dc.lft.to/lastmile_qr_scan", "ios": "https://dc.lft.to/lastmile_qr_scan"}}, {"name": "9c0fff29589b129af3ec000db2f7793c", "is_disabled": 0, "fusion_lat": 0.0, "fusion_lon": 0.0, "type": "electric_scooter", "lat": 38.902424, "bike_id": "9c0fff29589b129af3ec000db2f7793c", "is_reserved": 0, "lon": -77.033439, "rental_uris": {"android": "https://dc.lft.to/lastmile_qr_scan", "ios": "https://dc.lft.to/lastmile_qr_scan"}}, {"name": "fde65b277d085c18c85419612f741e3c", "is_disabled": 0, "fusion_lat": 0.0, "fusion_lon": 0.0, "type": "electric_scooter", "lat": 38.885050166666666, "bike_id": "fde65b277d085c18c85419612f741e3c", "is_reserved": 0, "lon": -77.00566766666667, "rental_uris": {"android": "https://dc.lft.to/lastmile_qr_scan", "ios": "https://dc.lft.to/lastmile_qr_scan"}}, {"name": "828da3890acaacd9dc040f80715e2e3e", "is_disabled": 0, "fusion_lat": 0.0, "fusion_lon": 0.0, "type": "electric_scooter", "lat": 38.90409833333333, "bike_id": "828da3890acaacd9dc040f80715e2e3e", "is_reserved": 0, "lon": -76.97332316666666, "rental_uris": {"android": "https://dc.lft.to/lastmile_qr_scan", "ios": "https://dc.lft.to/lastmile_qr_scan"}}, {"name": "e7ed9a1bf8f868fecd51bc6cc58f297f", "is_disabled": 0, "fusion_lat": 0.0, "fusion_lon": 0.0, "type": "electric_scooter", "lat": 38.876645833333335, "bike_id": "e7ed9a1bf8f868fecd51bc6cc58f297f", "is_reserved": 0, "lon": -77.004471, "rental_uris": {"android": "https://dc.lft.to/lastmile_qr_scan", "ios": "https://dc.lft.to/lastmile_qr_scan"}}, {"name": "cd98979a0646965702cd3e9ea2be0ecb", "is_disabled": 0, "fusion_lat": 0.0, "fusion_lon": 0.0, "type": "electric_scooter", "lat": 38.906392833333335, "bike_id": "cd98979a0646965702cd3e9ea2be0ecb", "is_reserved": 0, "lon": -77.04642233333334, "rental_uris": {"android": "https://dc.lft.to/lastmile_qr_scan", "ios": "https://dc.lft.to/lastmile_qr_scan"}}, {"name": "7c3957519381c213266f298689949426", "is_disabled": 0, "fusion_lat": 0.0, "fusion_lon": 0.0, "type": "electric_scooter", "lat": 38.921826, "bike_id": "7c3957519381c213266f298689949426", "is_reserved": 0, "lon": -77.043494, "rental_uris": {"android": "https://dc.lft.to/lastmile_qr_scan", "ios": "https://dc.lft.to/lastmile_qr_scan"}}, {"name": "286c87198a1ebe944b3f7863a1411b01", "is_disabled": 0, "fusion_lat": 0.0, "fusion_lon": 0.0, "type": "electric_scooter", "lat": 38.90603333333333, "bike_id": "286c87198a1ebe944b3f7863a1411b01", "is_reserved": 0, "lon": -77.03464533333333, "rental_uris": {"android": "https://dc.lft.to/lastmile_qr_scan", "ios": "https://dc.lft.to/lastmile_qr_scan"}}, {"name": "13e491fbeefea46c329feeea95d4ebac", "is_disabled": 0, "fusion_lat": 0.0, "fusion_lon": 0.0, "type": "electric_scooter", "lat": 38.900098666666665, "bike_id": "13e491fbeefea46c329feeea95d4ebac", "is_reserved": 0, "lon": -76.93028533333333, "rental_uris": {"android": "https://dc.lft.to/lastmile_qr_scan", "ios": "https://dc.lft.to/lastmile_qr_scan"}}, {"name": "f78306fff02b80bcf0066deadff45e86", "is_disabled": 0, "fusion_lat": 0.0, "fusion_lon": 0.0, "type": "electric_scooter", "lat": 38.933212166666664, "bike_id": "f78306fff02b80bcf0066deadff45e86", "is_reserved": 0, "lon": -77.085588, "rental_uris": {"android": "https://dc.lft.to/lastmile_qr_scan", "ios": "https://dc.lft.to/lastmile_qr_scan"}}, {"name": "eb449b6cdeef8ea0f0f2a777c85ad672", "is_disabled": 0, "fusion_lat": 0.0, "fusion_lon": 0.0, "type": "electric_scooter", "lat": 38.8669895, "bike_id": "eb449b6cdeef8ea0f0f2a777c85ad672", "is_reserved": 0, "lon": -76.98593116666666, "rental_uris": {"android": "https://dc.lft.to/lastmile_qr_scan", "ios": "https://dc.lft.to/lastmile_qr_scan"}}, {"name": "872b0b7657ab00eda0633bc834cf401a", "is_disabled": 0, "fusion_lat": 0.0, "fusion_lon": 0.0, "type": "electric_scooter", "lat": 38.892309833333336, "bike_id": "872b0b7657ab00eda0633bc834cf401a", "is_reserved": 0, "lon": -77.0238215, "rental_uris": {"android": "https://dc.lft.to/lastmile_qr_scan", "ios": "https://dc.lft.to/lastmile_qr_scan"}}, {"name": "0e02a6e440f9f04a05cd6a0052f3d2b0", "is_disabled": 0, "fusion_lat": 0.0, "fusion_lon": 0.0, "type": "electric_scooter", "lat": 38.9101795, "bike_id": "0e02a6e440f9f04a05cd6a0052f3d2b0", "is_reserved": 0, "lon": -77.04290816666666, "rental_uris": {"android": "https://dc.lft.to/lastmile_qr_scan", "ios": "https://dc.lft.to/lastmile_qr_scan"}}, {"name": "8430328c44a5860d030dee20e3df4b41", "is_disabled": 0, "fusion_lat": 0.0, "fusion_lon": 0.0, "type": "electric_scooter", "lat": 38.908206666666665, "bike_id": "8430328c44a5860d030dee20e3df4b41", "is_reserved": 0, "lon": -77.04329483333333, "rental_uris": {"android": "https://dc.lft.to/lastmile_qr_scan", "ios": "https://dc.lft.to/lastmile_qr_scan"}}, {"name": "4d2a5b678f29c0a3d82d6c4348403eea", "is_disabled": 0, "fusion_lat": 0.0, "fusion_lon": 0.0, "type": "electric_scooter", "lat": 38.9248695, "bike_id": "4d2a5b678f29c0a3d82d6c4348403eea", "is_reserved": 0, "lon": -77.03232216666666, "rental_uris": {"android": "https://dc.lft.to/lastmile_qr_scan", "ios": "https://dc.lft.to/lastmile_qr_scan"}}, {"name": "2bd71b50fd3ec616fc3056822997f1c0", "is_disabled": 0, "fusion_lat": 0.0, "fusion_lon": 0.0, "type": "electric_scooter", "lat": 38.900906, "bike_id": "2bd71b50fd3ec616fc3056822997f1c0", "is_reserved": 0, "lon": -77.04866666666666, "rental_uris": {"android": "https://dc.lft.to/lastmile_qr_scan", "ios": "https://dc.lft.to/lastmile_qr_scan"}}, {"name": "f03b0c128adbb270a50c4b0a5f5b0515", "is_disabled": 0, "fusion_lat": 0.0, "fusion_lon": 0.0, "type": "electric_scooter", "lat": 38.9253445, "bike_id": "f03b0c128adbb270a50c4b0a5f5b0515", "is_reserved": 0, "lon": -76.97219083333333, "rental_uris": {"android": "https://dc.lft.to/lastmile_qr_scan", "ios": "https://dc.lft.to/lastmile_qr_scan"}}, {"name": "efa0e30027b1011f804c1ce99ea90a5e", "is_disabled": 0, "fusion_lat": 0.0, "fusion_lon": 0.0, "type": "electric_scooter", "lat": 38.93101133333333, "bike_id": "efa0e30027b1011f804c1ce99ea90a5e", "is_reserved": 0, "lon": -77.03810366666667, "rental_uris": {"android": "https://dc.lft.to/lastmile_qr_scan", "ios": "https://dc.lft.to/lastmile_qr_scan"}}, {"name": "aae85d95c5e26d52bea30a6a771f5589", "is_disabled": 0, "fusion_lat": 0.0, "fusion_lon": 0.0, "type": "electric_scooter", "lat": 38.915537666666665, "bike_id": "aae85d95c5e26d52bea30a6a771f5589", "is_reserved": 0, "lon": -77.053183, "rental_uris": {"android": "https://dc.lft.to/lastmile_qr_scan", "ios": "https://dc.lft.to/lastmile_qr_scan"}}, {"name": "b77e4d1a40c37abed947e07ac4496497", "is_disabled": 0, "fusion_lat": 0.0, "fusion_lon": 0.0, "type": "electric_scooter", "lat": 38.939296666666664, "bike_id": "b77e4d1a40c37abed947e07ac4496497", "is_reserved": 0, "lon": -77.060547, "rental_uris": {"android": "https://dc.lft.to/lastmile_qr_scan", "ios": "https://dc.lft.to/lastmile_qr_scan"}}, {"name": "de6966e8bec82a5fd40cd0e1553b83eb", "is_disabled": 0, "fusion_lat": 0.0, "fusion_lon": 0.0, "type": "electric_scooter", "lat": 38.896225666666666, "bike_id": "de6966e8bec82a5fd40cd0e1553b83eb", "is_reserved": 0, "lon": -77.02949233333334, "rental_uris": {"android": "https://dc.lft.to/lastmile_qr_scan", "ios": "https://dc.lft.to/lastmile_qr_scan"}}, {"name": "8760ec62c9856aedda7dfa6127d9feb8", "is_disabled": 0, "fusion_lat": 0.0, "fusion_lon": 0.0, "type": "electric_scooter", "lat": 38.914792, "bike_id": "8760ec62c9856aedda7dfa6127d9feb8", "is_reserved": 0, "lon": -77.0416075, "rental_uris": {"android": "https://dc.lft.to/lastmile_qr_scan", "ios": "https://dc.lft.to/lastmile_qr_scan"}}, {"name": "2d2761f8a0a8e86acc49fdb4cca2f9da", "is_disabled": 0, "fusion_lat": 0.0, "fusion_lon": 0.0, "type": "electric_scooter", "lat": 38.903742333333334, "bike_id": "2d2761f8a0a8e86acc49fdb4cca2f9da", "is_reserved": 0, "lon": -77.04579833333334, "rental_uris": {"android": "https://dc.lft.to/lastmile_qr_scan", "ios": "https://dc.lft.to/lastmile_qr_scan"}}, {"name": "1f20acf070bdb36ebbbbc45bc4aefc54", "is_disabled": 0, "fusion_lat": 0.0, "fusion_lon": 0.0, "type": "electric_scooter", "lat": 38.90706433333333, "bike_id": "1f20acf070bdb36ebbbbc45bc4aefc54", "is_reserved": 0, "lon": -77.00321533333333, "rental_uris": {"android": "https://dc.lft.to/lastmile_qr_scan", "ios": "https://dc.lft.to/lastmile_qr_scan"}}, {"name": "f865306305fecfeb487b33cecd9d639f", "is_disabled": 0, "fusion_lat": 0.0, "fusion_lon": 0.0, "type": "electric_scooter", "lat": 38.879890333333336, "bike_id": "f865306305fecfeb487b33cecd9d639f", "is_reserved": 0, "lon": -77.0240175, "rental_uris": {"android": "https://dc.lft.to/lastmile_qr_scan", "ios": "https://dc.lft.to/lastmile_qr_scan"}}, {"name": "5fc85cf99af9b5948186a9e6261295dc", "is_disabled": 0, "fusion_lat": 0.0, "fusion_lon": 0.0, "type": "electric_scooter", "lat": 38.908505166666664, "bike_id": "5fc85cf99af9b5948186a9e6261295dc", "is_reserved": 0, "lon": -77.04262566666667, "rental_uris": {"android": "https://dc.lft.to/lastmile_qr_scan", "ios": "https://dc.lft.to/lastmile_qr_scan"}}, {"name": "b977bcbd8739b75f0e0d53c110f94bfa", "is_disabled": 0, "fusion_lat": 0.0, "fusion_lon": 0.0, "type": "electric_bike", "lat": 38.928996833333336, "bike_id": "b977bcbd8739b75f0e0d53c110f94bfa", "is_reserved": 0, "lon": -77.03249116666667, "rental_uris": {"android": "https://dc.lft.to/lastmile_qr_scan", "ios": "https://dc.lft.to/lastmile_qr_scan"}}, {"name": "9222b1119dabcf8ddf025301ac95ae8a", "is_disabled": 0, "fusion_lat": 0.0, "fusion_lon": 0.0, "type": "electric_scooter", "lat": 38.92893433333333, "bike_id": "9222b1119dabcf8ddf025301ac95ae8a", "is_reserved": 0, "lon": -77.0168225, "rental_uris": {"android": "https://dc.lft.to/lastmile_qr_scan", "ios": "https://dc.lft.to/lastmile_qr_scan"}}, {"name": "831e01945e99feca82bb6b22c923f5af", "is_disabled": 0, "fusion_lat": 0.0, "fusion_lon": 0.0, "type": "electric_scooter", "lat": 38.880569, "bike_id": "831e01945e99feca82bb6b22c923f5af", "is_reserved": 0, "lon": -76.93218666666667, "rental_uris": {"android": "https://dc.lft.to/lastmile_qr_scan", "ios": "https://dc.lft.to/lastmile_qr_scan"}}, {"name": "4d88c6d26ccaf9d8837cd76139b28132", "is_disabled": 0, "fusion_lat": 0.0, "fusion_lon": 0.0, "type": "electric_scooter", "lat": 38.90316383333333, "bike_id": "4d88c6d26ccaf9d8837cd76139b28132", "is_reserved": 0, "lon": -77.01889633333333, "rental_uris": {"android": "https://dc.lft.to/lastmile_qr_scan", "ios": "https://dc.lft.to/lastmile_qr_scan"}}, {"name": "ace6a675ced257457ddf5677828ac411", "is_disabled": 0, "fusion_lat": 0.0, "fusion_lon": 0.0, "type": "electric_scooter", "lat": 38.8921915, "bike_id": "ace6a675ced257457ddf5677828ac411", "is_reserved": 0, "lon": -77.02228066666666, "rental_uris": {"android": "https://dc.lft.to/lastmile_qr_scan", "ios": "https://dc.lft.to/lastmile_qr_scan"}}, {"name": "be0f693bd27374dda5a5683a55f04b93", "is_disabled": 0, "fusion_lat": 0.0, "fusion_lon": 0.0, "type": "electric_scooter", "lat": 38.9103195, "bike_id": "be0f693bd27374dda5a5683a55f04b93", "is_reserved": 0, "lon": -76.99340733333334, "rental_uris": {"android": "https://dc.lft.to/lastmile_qr_scan", "ios": "https://dc.lft.to/lastmile_qr_scan"}}, {"name": "03e834be8588a935640d7b999e276ba1", "is_disabled": 0, "fusion_lat": 0.0, "fusion_lon": 0.0, "type": "electric_scooter", "lat": 38.902400166666666, "bike_id": "03e834be8588a935640d7b999e276ba1", "is_reserved": 0, "lon": -77.02693033333334, "rental_uris": {"android": "https://dc.lft.to/lastmile_qr_scan", "ios": "https://dc.lft.to/lastmile_qr_scan"}}, {"name": "720a2f45b22fa1fb9d3e1bbbe58b53f6", "is_disabled": 0, "fusion_lat": 0.0, "fusion_lon": 0.0, "type": "electric_scooter", "lat": 38.90130383333333, "bike_id": "720a2f45b22fa1fb9d3e1bbbe58b53f6", "is_reserved": 0, "lon": -77.04026516666667, "rental_uris": {"android": "https://dc.lft.to/lastmile_qr_scan", "ios": "https://dc.lft.to/lastmile_qr_scan"}}, {"name": "255d7e21337bcd8807cb279354aa416e", "is_disabled": 0, "fusion_lat": 0.0, "fusion_lon": 0.0, "type": "electric_scooter", "lat": 38.90573083333334, "bike_id": "255d7e21337bcd8807cb279354aa416e", "is_reserved": 0, "lon": -77.04191933333334, "rental_uris": {"android": "https://dc.lft.to/lastmile_qr_scan", "ios": "https://dc.lft.to/lastmile_qr_scan"}}, {"name": "211695b5c79aee42c544f9cefdfdf940", "is_disabled": 0, "fusion_lat": 0.0, "fusion_lon": 0.0, "type": "electric_scooter", "lat": 38.86692433333333, "bike_id": "211695b5c79aee42c544f9cefdfdf940", "is_reserved": 0, "lon": -76.98609766666667, "rental_uris": {"android": "https://dc.lft.to/lastmile_qr_scan", "ios": "https://dc.lft.to/lastmile_qr_scan"}}, {"name": "8c847f251f3cf6e711ba148b419fdbb3", "is_disabled": 0, "fusion_lat": 0.0, "fusion_lon": 0.0, "type": "electric_bike", "lat": 38.837893333333334, "bike_id": "8c847f251f3cf6e711ba148b419fdbb3", "is_reserved": 0, "lon": -76.99752333333333, "rental_uris": {"android": "https://dc.lft.to/lastmile_qr_scan", "ios": "https://dc.lft.to/lastmile_qr_scan"}}, {"name": "93a9f18feaeefd0c523f0537377e87d2", "is_disabled": 0, "fusion_lat": 0.0, "fusion_lon": 0.0, "type": "electric_scooter", "lat": 38.915467666666665, "bike_id": "93a9f18feaeefd0c523f0537377e87d2", "is_reserved": 0, "lon": -77.02369516666667, "rental_uris": {"android": "https://dc.lft.to/lastmile_qr_scan", "ios": "https://dc.lft.to/lastmile_qr_scan"}}, {"name": "5addc771aeaa4ed3bb68e346a2f65b95", "is_disabled": 0, "fusion_lat": 0.0, "fusion_lon": 0.0, "type": "electric_scooter", "lat": 38.899995, "bike_id": "5addc771aeaa4ed3bb68e346a2f65b95", "is_reserved": 0, "lon": -76.99842466666666, "rental_uris": {"android": "https://dc.lft.to/lastmile_qr_scan", "ios": "https://dc.lft.to/lastmile_qr_scan"}}, {"name": "9c0174b74227f4a926811e1223e9fd4a", "is_disabled": 0, "fusion_lat": 0.0, "fusion_lon": 0.0, "type": "electric_scooter", "lat": 38.87948, "bike_id": "9c0174b74227f4a926811e1223e9fd4a", "is_reserved": 0, "lon": -77.00694033333333, "rental_uris": {"android": "https://dc.lft.to/lastmile_qr_scan", "ios": "https://dc.lft.to/lastmile_qr_scan"}}, {"name": "6d7f317687a0c9a86939cbd490b1dfc0", "is_disabled": 0, "fusion_lat": 0.0, "fusion_lon": 0.0, "type": "electric_bike", "lat": 38.9568665, "bike_id": "6d7f317687a0c9a86939cbd490b1dfc0", "is_reserved": 0, "lon": -77.02226566666667, "rental_uris": {"android": "https://dc.lft.to/lastmile_qr_scan", "ios": "https://dc.lft.to/lastmile_qr_scan"}}, {"name": "81276281d631e58424eb2dca6ff5d40c", "is_disabled": 0, "fusion_lat": 0.0, "fusion_lon": 0.0, "type": "electric_scooter", "lat": 38.90431733333333, "bike_id": "81276281d631e58424eb2dca6ff5d40c", "is_reserved": 0, "lon": -77.034251, "rental_uris": {"android": "https://dc.lft.to/lastmile_qr_scan", "ios": "https://dc.lft.to/lastmile_qr_scan"}}, {"name": "21aca7106e1b22cc0782f095b7ac9747", "is_disabled": 0, "fusion_lat": 0.0, "fusion_lon": 0.0, "type": "electric_scooter", "lat": 38.942590833333334, "bike_id": "21aca7106e1b22cc0782f095b7ac9747", "is_reserved": 0, "lon": -77.02843616666667, "rental_uris": {"android": "https://dc.lft.to/lastmile_qr_scan", "ios": "https://dc.lft.to/lastmile_qr_scan"}}, {"name": "54d4e2e1150486cb6a7a389baef5f4e7", "is_disabled": 0, "fusion_lat": 0.0, "fusion_lon": 0.0, "type": "electric_scooter", "lat": 38.9514865, "bike_id": "54d4e2e1150486cb6a7a389baef5f4e7", "is_reserved": 0, "lon": -77.01869966666666, "rental_uris": {"android": "https://dc.lft.to/lastmile_qr_scan", "ios": "https://dc.lft.to/lastmile_qr_scan"}}, {"name": "105a9632a6a09cdb859790889a640d8d", "is_disabled": 0, "fusion_lat": 0.0, "fusion_lon": 0.0, "type": "electric_scooter", "lat": 38.90272916666667, "bike_id": "105a9632a6a09cdb859790889a640d8d", "is_reserved": 0, "lon": -77.03862883333333, "rental_uris": {"android": "https://dc.lft.to/lastmile_qr_scan", "ios": "https://dc.lft.to/lastmile_qr_scan"}}, {"name": "35aea53b267d327a60f49398de79c4f8", "is_disabled": 0, "fusion_lat": 0.0, "fusion_lon": 0.0, "type": "electric_bike", "lat": 38.945528, "bike_id": "35aea53b267d327a60f49398de79c4f8", "is_reserved": 0, "lon": -76.89540883333333, "rental_uris": {"android": "https://dc.lft.to/lastmile_qr_scan", "ios": "https://dc.lft.to/lastmile_qr_scan"}}, {"name": "df2d456ec30c561212a4c93aecbe214c", "is_disabled": 0, "fusion_lat": 0.0, "fusion_lon": 0.0, "type": "electric_scooter", "lat": 38.905411, "bike_id": "df2d456ec30c561212a4c93aecbe214c", "is_reserved": 0, "lon": -77.02973683333333, "rental_uris": {"android": "https://dc.lft.to/lastmile_qr_scan", "ios": "https://dc.lft.to/lastmile_qr_scan"}}, {"name": "60f0ea6d148a90f59ea1613b281e9e40", "is_disabled": 0, "fusion_lat": 0.0, "fusion_lon": 0.0, "type": "electric_scooter", "lat": 38.92446616666667, "bike_id": "60f0ea6d148a90f59ea1613b281e9e40", "is_reserved": 0, "lon": -77.021541, "rental_uris": {"android": "https://dc.lft.to/lastmile_qr_scan", "ios": "https://dc.lft.to/lastmile_qr_scan"}}, {"name": "d871b51478a2e4c63812c3c1e5636c24", "is_disabled": 0, "fusion_lat": 0.0, "fusion_lon": 0.0, "type": "electric_scooter", "lat": 38.898957, "bike_id": "d871b51478a2e4c63812c3c1e5636c24", "is_reserved": 0, "lon": -77.02983866666666, "rental_uris": {"android": "https://dc.lft.to/lastmile_qr_scan", "ios": "https://dc.lft.to/lastmile_qr_scan"}}, {"name": "865b375375f50dd6a010175765d4489e", "is_disabled": 0, "fusion_lat": 0.0, "fusion_lon": 0.0, "type": "electric_scooter", "lat": 38.921717, "bike_id": "865b375375f50dd6a010175765d4489e", "is_reserved": 0, "lon": -77.01921733333333, "rental_uris": {"android": "https://dc.lft.to/lastmile_qr_scan", "ios": "https://dc.lft.to/lastmile_qr_scan"}}, {"name": "e494c30f0b9e895e36d2e4e6d20d19fd", "is_disabled": 0, "fusion_lat": 0.0, "fusion_lon": 0.0, "type": "electric_scooter", "lat": 38.90392466666667, "bike_id": "e494c30f0b9e895e36d2e4e6d20d19fd", "is_reserved": 0, "lon": -77.06296733333333, "rental_uris": {"android": "https://dc.lft.to/lastmile_qr_scan", "ios": "https://dc.lft.to/lastmile_qr_scan"}}, {"name": "683127c7f822daea0f682e3809013b43", "is_disabled": 0, "fusion_lat": 0.0, "fusion_lon": 0.0, "type": "electric_scooter", "lat": 38.900642166666664, "bike_id": "683127c7f822daea0f682e3809013b43", "is_reserved": 0, "lon": -76.98712416666666, "rental_uris": {"android": "https://dc.lft.to/lastmile_qr_scan", "ios": "https://dc.lft.to/lastmile_qr_scan"}}, {"name": "9184f91124aca86a88fc67330a427dd0", "is_disabled": 0, "fusion_lat": 0.0, "fusion_lon": 0.0, "type": "electric_scooter", "lat": 38.91856633333333, "bike_id": "9184f91124aca86a88fc67330a427dd0", "is_reserved": 0, "lon": -77.0255165, "rental_uris": {"android": "https://dc.lft.to/lastmile_qr_scan", "ios": "https://dc.lft.to/lastmile_qr_scan"}}, {"name": "bc695f56311b12f4a44a4e3376910de0", "is_disabled": 0, "fusion_lat": 0.0, "fusion_lon": 0.0, "type": "electric_scooter", "lat": 38.89619033333334, "bike_id": "bc695f56311b12f4a44a4e3376910de0", "is_reserved": 0, "lon": -76.9984855, "rental_uris": {"android": "https://dc.lft.to/lastmile_qr_scan", "ios": "https://dc.lft.to/lastmile_qr_scan"}}, {"name": "e493d6fc53156f7b8be841c9283f471a", "is_disabled": 0, "fusion_lat": 0.0, "fusion_lon": 0.0, "type": "electric_scooter", "lat": 38.923201166666665, "bike_id": "e493d6fc53156f7b8be841c9283f471a", "is_reserved": 0, "lon": -77.04351, "rental_uris": {"android": "https://dc.lft.to/lastmile_qr_scan", "ios": "https://dc.lft.to/lastmile_qr_scan"}}, {"name": "bf03f466b5f22a30cd4bd3eafa3d695b", "is_disabled": 0, "fusion_lat": 0.0, "fusion_lon": 0.0, "type": "electric_scooter", "lat": 38.88280233333333, "bike_id": "bf03f466b5f22a30cd4bd3eafa3d695b", "is_reserved": 0, "lon": -76.98780616666667, "rental_uris": {"android": "https://dc.lft.to/lastmile_qr_scan", "ios": "https://dc.lft.to/lastmile_qr_scan"}}, {"name": "c57e830a30e45b4117e5705b29c98091", "is_disabled": 0, "fusion_lat": 0.0, "fusion_lon": 0.0, "type": "electric_scooter", "lat": 38.918984, "bike_id": "c57e830a30e45b4117e5705b29c98091", "is_reserved": 0, "lon": -77.02096483333334, "rental_uris": {"android": "https://dc.lft.to/lastmile_qr_scan", "ios": "https://dc.lft.to/lastmile_qr_scan"}}, {"name": "8165175337a2c6e48a4ac7d660c4e4c7", "is_disabled": 0, "fusion_lat": 0.0, "fusion_lon": 0.0, "type": "electric_scooter", "lat": 38.92141633333333, "bike_id": "8165175337a2c6e48a4ac7d660c4e4c7", "is_reserved": 0, "lon": -77.02057166666667, "rental_uris": {"android": "https://dc.lft.to/lastmile_qr_scan", "ios": "https://dc.lft.to/lastmile_qr_scan"}}, {"name": "3a808f1e8e6beae3b1259245dbc7f3f6", "is_disabled": 0, "fusion_lat": 0.0, "fusion_lon": 0.0, "type": "electric_scooter", "lat": 38.905505833333336, "bike_id": "3a808f1e8e6beae3b1259245dbc7f3f6", "is_reserved": 0, "lon": -77.046603, "rental_uris": {"android": "https://dc.lft.to/lastmile_qr_scan", "ios": "https://dc.lft.to/lastmile_qr_scan"}}, {"name": "1e63a279b55004e5b0165fb0e6b62527", "is_disabled": 0, "fusion_lat": 0.0, "fusion_lon": 0.0, "type": "electric_scooter", "lat": 38.89355066666667, "bike_id": "1e63a279b55004e5b0165fb0e6b62527", "is_reserved": 0, "lon": -77.00336616666667, "rental_uris": {"android": "https://dc.lft.to/lastmile_qr_scan", "ios": "https://dc.lft.to/lastmile_qr_scan"}}, {"name": "32b91cedb0a529d7b2bbe50081dbd01b", "is_disabled": 0, "fusion_lat": 0.0, "fusion_lon": 0.0, "type": "electric_scooter", "lat": 38.90364683333333, "bike_id": "32b91cedb0a529d7b2bbe50081dbd01b", "is_reserved": 0, "lon": -77.0341975, "rental_uris": {"android": "https://dc.lft.to/lastmile_qr_scan", "ios": "https://dc.lft.to/lastmile_qr_scan"}}, {"name": "c3a12bdc2cf92c78bdcb28e0d908d02c", "is_disabled": 0, "fusion_lat": 0.0, "fusion_lon": 0.0, "type": "electric_scooter", "lat": 38.92204683333333, "bike_id": "c3a12bdc2cf92c78bdcb28e0d908d02c", "is_reserved": 0, "lon": -77.0426405, "rental_uris": {"android": "https://dc.lft.to/lastmile_qr_scan", "ios": "https://dc.lft.to/lastmile_qr_scan"}}, {"name": "b8ab037d990e3ead15cff3aa846b467b", "is_disabled": 0, "fusion_lat": 0.0, "fusion_lon": 0.0, "type": "electric_bike", "lat": 38.855628, "bike_id": "b8ab037d990e3ead15cff3aa846b467b", "is_reserved": 0, "lon": -77.08189166666666, "rental_uris": {"android": "https://dc.lft.to/lastmile_qr_scan", "ios": "https://dc.lft.to/lastmile_qr_scan"}}, {"name": "a58d31ec6da68aaea7d0e7b851cc992b", "is_disabled": 0, "fusion_lat": 0.0, "fusion_lon": 0.0, "type": "electric_scooter", "lat": 38.9022745, "bike_id": "a58d31ec6da68aaea7d0e7b851cc992b", "is_reserved": 0, "lon": -77.0434755, "rental_uris": {"android": "https://dc.lft.to/lastmile_qr_scan", "ios": "https://dc.lft.to/lastmile_qr_scan"}}, {"name": "09b842cb79e5fe45113d88efd589cbbd", "is_disabled": 0, "fusion_lat": 0.0, "fusion_lon": 0.0, "type": "electric_scooter", "lat": 38.911243999999996, "bike_id": "09b842cb79e5fe45113d88efd589cbbd", "is_reserved": 0, "lon": -77.0436835, "rental_uris": {"android": "https://dc.lft.to/lastmile_qr_scan", "ios": "https://dc.lft.to/lastmile_qr_scan"}}, {"name": "b896e1d33214711eae7a197abe74792e", "is_disabled": 0, "fusion_lat": 0.0, "fusion_lon": 0.0, "type": "electric_scooter", "lat": 38.90781966666667, "bike_id": "b896e1d33214711eae7a197abe74792e", "is_reserved": 0, "lon": -77.07253333333334, "rental_uris": {"android": "https://dc.lft.to/lastmile_qr_scan", "ios": "https://dc.lft.to/lastmile_qr_scan"}}, {"name": "6694090cd43d848e5c2b79a84d951681", "is_disabled": 0, "fusion_lat": 0.0, "fusion_lon": 0.0, "type": "electric_scooter", "lat": 38.902815833333335, "bike_id": "6694090cd43d848e5c2b79a84d951681", "is_reserved": 0, "lon": -77.0581685, "rental_uris": {"android": "https://dc.lft.to/lastmile_qr_scan", "ios": "https://dc.lft.to/lastmile_qr_scan"}}, {"name": "ac58b91aad0f7cf5beeb2a2369d82599", "is_disabled": 0, "fusion_lat": 0.0, "fusion_lon": 0.0, "type": "electric_scooter", "lat": 38.93043433333333, "bike_id": "ac58b91aad0f7cf5beeb2a2369d82599", "is_reserved": 0, "lon": -77.0380155, "rental_uris": {"android": "https://dc.lft.to/lastmile_qr_scan", "ios": "https://dc.lft.to/lastmile_qr_scan"}}, {"name": "4955b344dffeb800f5547a279a1f05f9", "is_disabled": 0, "fusion_lat": 0.0, "fusion_lon": 0.0, "type": "electric_bike", "lat": 39.057826166666665, "bike_id": "4955b344dffeb800f5547a279a1f05f9", "is_reserved": 0, "lon": -77.150179, "rental_uris": {"android": "https://dc.lft.to/lastmile_qr_scan", "ios": "https://dc.lft.to/lastmile_qr_scan"}}, {"name": "dc3185c072903d89c192714881ac2f1a", "is_disabled": 0, "fusion_lat": 0.0, "fusion_lon": 0.0, "type": "electric_scooter", "lat": 38.95324216666667, "bike_id": "dc3185c072903d89c192714881ac2f1a", "is_reserved": 0, "lon": -77.07069766666666, "rental_uris": {"android": "https://dc.lft.to/lastmile_qr_scan", "ios": "https://dc.lft.to/lastmile_qr_scan"}}, {"name": "e398fa6284e930e25f4219d6a4e2fffe", "is_disabled": 0, "fusion_lat": 0.0, "fusion_lon": 0.0, "type": "electric_scooter", "lat": 38.921535166666665, "bike_id": "e398fa6284e930e25f4219d6a4e2fffe", "is_reserved": 0, "lon": -77.03314983333334, "rental_uris": {"android": "https://dc.lft.to/lastmile_qr_scan", "ios": "https://dc.lft.to/lastmile_qr_scan"}}, {"name": "d78afc7c4fd5684c9119dcaff1228a74", "is_disabled": 0, "fusion_lat": 0.0, "fusion_lon": 0.0, "type": "electric_scooter", "lat": 38.89517166666667, "bike_id": "d78afc7c4fd5684c9119dcaff1228a74", "is_reserved": 0, "lon": -77.039529, "rental_uris": {"android": "https://dc.lft.to/lastmile_qr_scan", "ios": "https://dc.lft.to/lastmile_qr_scan"}}, {"name": "947962d5213a11d5f05f024552b6b56f", "is_disabled": 0, "fusion_lat": 0.0, "fusion_lon": 0.0, "type": "electric_scooter", "lat": 38.91040666666667, "bike_id": "947962d5213a11d5f05f024552b6b56f", "is_reserved": 0, "lon": -77.0410585, "rental_uris": {"android": "https://dc.lft.to/lastmile_qr_scan", "ios": "https://dc.lft.to/lastmile_qr_scan"}}, {"name": "f4639fe4b6b6c49c447d0b31a9ddc3ee", "is_disabled": 0, "fusion_lat": 0.0, "fusion_lon": 0.0, "type": "electric_scooter", "lat": 38.903356, "bike_id": "f4639fe4b6b6c49c447d0b31a9ddc3ee", "is_reserved": 0, "lon": -77.04655933333333, "rental_uris": {"android": "https://dc.lft.to/lastmile_qr_scan", "ios": "https://dc.lft.to/lastmile_qr_scan"}}, {"name": "f477e25d116c9426aca48803f0191b42", "is_disabled": 0, "fusion_lat": 0.0, "fusion_lon": 0.0, "type": "electric_bike", "lat": 38.8120025, "bike_id": "f477e25d116c9426aca48803f0191b42", "is_reserved": 0, "lon": -77.10840216666666, "rental_uris": {"android": "https://dc.lft.to/lastmile_qr_scan", "ios": "https://dc.lft.to/lastmile_qr_scan"}}, {"name": "2e0cbef41bd70f64de5c3e5a083a6f16", "is_disabled": 0, "fusion_lat": 0.0, "fusion_lon": 0.0, "type": "electric_scooter", "lat": 38.9057375, "bike_id": "2e0cbef41bd70f64de5c3e5a083a6f16", "is_reserved": 0, "lon": -77.04138516666667, "rental_uris": {"android": "https://dc.lft.to/lastmile_qr_scan", "ios": "https://dc.lft.to/lastmile_qr_scan"}}, {"name": "63565bc0869646845afb28077cd9bc3c", "is_disabled": 0, "fusion_lat": 0.0, "fusion_lon": 0.0, "type": "electric_scooter", "lat": 38.915726166666666, "bike_id": "63565bc0869646845afb28077cd9bc3c", "is_reserved": 0, "lon": -77.03186316666667, "rental_uris": {"android": "https://dc.lft.to/lastmile_qr_scan", "ios": "https://dc.lft.to/lastmile_qr_scan"}}, {"name": "841df85d156fb5a64c79ac62eda2ea6b", "is_disabled": 0, "fusion_lat": 0.0, "fusion_lon": 0.0, "type": "electric_bike", "lat": 38.9646505, "bike_id": "841df85d156fb5a64c79ac62eda2ea6b", "is_reserved": 0, "lon": -77.03569583333334, "rental_uris": {"android": "https://dc.lft.to/lastmile_qr_scan", "ios": "https://dc.lft.to/lastmile_qr_scan"}}, {"name": "d91708490ca7f54ad52b210dc072f648", "is_disabled": 0, "fusion_lat": 0.0, "fusion_lon": 0.0, "type": "electric_scooter", "lat": 38.88202533333333, "bike_id": "d91708490ca7f54ad52b210dc072f648", "is_reserved": 0, "lon": -76.92709366666666, "rental_uris": {"android": "https://dc.lft.to/lastmile_qr_scan", "ios": "https://dc.lft.to/lastmile_qr_scan"}}, {"name": "4755c36e19f151925b398a618e078fb8", "is_disabled": 0, "fusion_lat": 0.0, "fusion_lon": 0.0, "type": "electric_scooter", "lat": 38.896416, "bike_id": "4755c36e19f151925b398a618e078fb8", "is_reserved": 0, "lon": -77.02203916666667, "rental_uris": {"android": "https://dc.lft.to/lastmile_qr_scan", "ios": "https://dc.lft.to/lastmile_qr_scan"}}, {"name": "6dedc8983150d98d301f95aef697f53d", "is_disabled": 0, "fusion_lat": 0.0, "fusion_lon": 0.0, "type": "electric_scooter", "lat": 38.91019766666667, "bike_id": "6dedc8983150d98d301f95aef697f53d", "is_reserved": 0, "lon": -77.04431966666667, "rental_uris": {"android": "https://dc.lft.to/lastmile_qr_scan", "ios": "https://dc.lft.to/lastmile_qr_scan"}}, {"name": "5f790e8f124b1652dfe08784b68a693d", "is_disabled": 0, "fusion_lat": 0.0, "fusion_lon": 0.0, "type": "electric_scooter", "lat": 38.9012435, "bike_id": "5f790e8f124b1652dfe08784b68a693d", "is_reserved": 0, "lon": -77.040312, "rental_uris": {"android": "https://dc.lft.to/lastmile_qr_scan", "ios": "https://dc.lft.to/lastmile_qr_scan"}}, {"name": "8e801a02105f6539d72cc621c5164969", "is_disabled": 0, "fusion_lat": 0.0, "fusion_lon": 0.0, "type": "electric_scooter", "lat": 38.9022605, "bike_id": "8e801a02105f6539d72cc621c5164969", "is_reserved": 0, "lon": -77.04408866666667, "rental_uris": {"android": "https://dc.lft.to/lastmile_qr_scan", "ios": "https://dc.lft.to/lastmile_qr_scan"}}, {"name": "eeb36c83dce1d9bc5a0f060223d7c1ef", "is_disabled": 0, "fusion_lat": 0.0, "fusion_lon": 0.0, "type": "electric_scooter", "lat": 38.8888205, "bike_id": "eeb36c83dce1d9bc5a0f060223d7c1ef", "is_reserved": 0, "lon": -76.947792, "rental_uris": {"android": "https://dc.lft.to/lastmile_qr_scan", "ios": "https://dc.lft.to/lastmile_qr_scan"}}, {"name": "a4211983014fae132952ff66b387ab8e", "is_disabled": 0, "fusion_lat": 0.0, "fusion_lon": 0.0, "type": "electric_scooter", "lat": 38.9772385, "bike_id": "a4211983014fae132952ff66b387ab8e", "is_reserved": 0, "lon": -77.01728383333334, "rental_uris": {"android": "https://dc.lft.to/lastmile_qr_scan", "ios": "https://dc.lft.to/lastmile_qr_scan"}}, {"name": "53cfcf49b9e8ddd42855ee0aecf1da45", "is_disabled": 0, "fusion_lat": 0.0, "fusion_lon": 0.0, "type": "electric_scooter", "lat": 38.88737166666667, "bike_id": "53cfcf49b9e8ddd42855ee0aecf1da45", "is_reserved": 0, "lon": -77.02212666666667, "rental_uris": {"android": "https://dc.lft.to/lastmile_qr_scan", "ios": "https://dc.lft.to/lastmile_qr_scan"}}, {"name": "7eb3f1a6fc0d7fbc3621a5ba3b52ad10", "is_disabled": 0, "fusion_lat": 0.0, "fusion_lon": 0.0, "type": "electric_bike", "lat": 38.97316716666667, "bike_id": "7eb3f1a6fc0d7fbc3621a5ba3b52ad10", "is_reserved": 0, "lon": -77.03429866666667, "rental_uris": {"android": "https://dc.lft.to/lastmile_qr_scan", "ios": "https://dc.lft.to/lastmile_qr_scan"}}, {"name": "1e5a2f967956e1b70ee61be81cc3e11a", "is_disabled": 0, "fusion_lat": 0.0, "fusion_lon": 0.0, "type": "electric_scooter", "lat": 38.893192, "bike_id": "1e5a2f967956e1b70ee61be81cc3e11a", "is_reserved": 0, "lon": -77.0180685, "rental_uris": {"android": "https://dc.lft.to/lastmile_qr_scan", "ios": "https://dc.lft.to/lastmile_qr_scan"}}, {"name": "7c08bfd4abb1fce1028ab6638e1b39dc", "is_disabled": 0, "fusion_lat": 0.0, "fusion_lon": 0.0, "type": "electric_scooter", "lat": 38.911054666666665, "bike_id": "7c08bfd4abb1fce1028ab6638e1b39dc", "is_reserved": 0, "lon": -77.00381483333334, "rental_uris": {"android": "https://dc.lft.to/lastmile_qr_scan", "ios": "https://dc.lft.to/lastmile_qr_scan"}}, {"name": "f65cccd439ff845bef203a07a5b2b1cd", "is_disabled": 0, "fusion_lat": 0.0, "fusion_lon": 0.0, "type": "electric_bike", "lat": 38.796757666666664, "bike_id": "f65cccd439ff845bef203a07a5b2b1cd", "is_reserved": 0, "lon": -76.99334666666667, "rental_uris": {"android": "https://dc.lft.to/lastmile_qr_scan", "ios": "https://dc.lft.to/lastmile_qr_scan"}}, {"name": "2464cf4891bf862e78e6bfc9eab1640b", "is_disabled": 0, "fusion_lat": 0.0, "fusion_lon": 0.0, "type": "electric_scooter", "lat": 38.8859355, "bike_id": "2464cf4891bf862e78e6bfc9eab1640b", "is_reserved": 0, "lon": -77.0057935, "rental_uris": {"android": "https://dc.lft.to/lastmile_qr_scan", "ios": "https://dc.lft.to/lastmile_qr_scan"}}, {"name": "9604401d97bdde0cbc278ead3fc6f2cc", "is_disabled": 0, "fusion_lat": 0.0, "fusion_lon": 0.0, "type": "electric_bike", "lat": 38.80656233333333, "bike_id": "9604401d97bdde0cbc278ead3fc6f2cc", "is_reserved": 0, "lon": -77.08763633333334, "rental_uris": {"android": "https://dc.lft.to/lastmile_qr_scan", "ios": "https://dc.lft.to/lastmile_qr_scan"}}, {"name": "baa80e8452838c47b04a34798ee4b531", "is_disabled": 0, "fusion_lat": 0.0, "fusion_lon": 0.0, "type": "electric_scooter", "lat": 38.9240825, "bike_id": "baa80e8452838c47b04a34798ee4b531", "is_reserved": 0, "lon": -77.05069333333333, "rental_uris": {"android": "https://dc.lft.to/lastmile_qr_scan", "ios": "https://dc.lft.to/lastmile_qr_scan"}}, {"name": "3c457b96c504d2cf92b54eb6d9dc7f29", "is_disabled": 0, "fusion_lat": 0.0, "fusion_lon": 0.0, "type": "electric_scooter", "lat": 38.9168005, "bike_id": "3c457b96c504d2cf92b54eb6d9dc7f29", "is_reserved": 0, "lon": -77.0297035, "rental_uris": {"android": "https://dc.lft.to/lastmile_qr_scan", "ios": "https://dc.lft.to/lastmile_qr_scan"}}, {"name": "44e2e7232c418849bbfcfa5db49fd377", "is_disabled": 0, "fusion_lat": 0.0, "fusion_lon": 0.0, "type": "electric_scooter", "lat": 38.936161166666665, "bike_id": "44e2e7232c418849bbfcfa5db49fd377", "is_reserved": 0, "lon": -77.06759433333333, "rental_uris": {"android": "https://dc.lft.to/lastmile_qr_scan", "ios": "https://dc.lft.to/lastmile_qr_scan"}}, {"name": "ff94c8ec64a79dc4cffb942e14f91c8f", "is_disabled": 0, "fusion_lat": 0.0, "fusion_lon": 0.0, "type": "electric_bike", "lat": 38.853727166666665, "bike_id": "ff94c8ec64a79dc4cffb942e14f91c8f", "is_reserved": 0, "lon": -77.12466716666667, "rental_uris": {"android": "https://dc.lft.to/lastmile_qr_scan", "ios": "https://dc.lft.to/lastmile_qr_scan"}}, {"name": "dc38eb2c478cf75bfbee078d60660432", "is_disabled": 0, "fusion_lat": 0.0, "fusion_lon": 0.0, "type": "electric_scooter", "lat": 38.897295166666666, "bike_id": "dc38eb2c478cf75bfbee078d60660432", "is_reserved": 0, "lon": -77.04411566666667, "rental_uris": {"android": "https://dc.lft.to/lastmile_qr_scan", "ios": "https://dc.lft.to/lastmile_qr_scan"}}, {"name": "550588553d97ae2b8b36481ba2b021ca", "is_disabled": 0, "fusion_lat": 0.0, "fusion_lon": 0.0, "type": "electric_scooter", "lat": 38.9109275, "bike_id": "550588553d97ae2b8b36481ba2b021ca", "is_reserved": 0, "lon": -77.04479066666667, "rental_uris": {"android": "https://dc.lft.to/lastmile_qr_scan", "ios": "https://dc.lft.to/lastmile_qr_scan"}}, {"name": "4ec5bc21ce27fff27d617f559be6235d", "is_disabled": 0, "fusion_lat": 0.0, "fusion_lon": 0.0, "type": "electric_bike", "lat": 38.872990333333334, "bike_id": "4ec5bc21ce27fff27d617f559be6235d", "is_reserved": 0, "lon": -77.13934366666666, "rental_uris": {"android": "https://dc.lft.to/lastmile_qr_scan", "ios": "https://dc.lft.to/lastmile_qr_scan"}}, {"name": "bb057529c5bf8134bf4b0590a3b11c7d", "is_disabled": 0, "fusion_lat": 0.0, "fusion_lon": 0.0, "type": "electric_scooter", "lat": 38.90418616666667, "bike_id": "bb057529c5bf8134bf4b0590a3b11c7d", "is_reserved": 0, "lon": -77.03424866666667, "rental_uris": {"android": "https://dc.lft.to/lastmile_qr_scan", "ios": "https://dc.lft.to/lastmile_qr_scan"}}, {"name": "a667536a6186145d51114ec6af5e550e", "is_disabled": 0, "fusion_lat": 0.0, "fusion_lon": 0.0, "type": "electric_scooter", "lat": 38.89223883333333, "bike_id": "a667536a6186145d51114ec6af5e550e", "is_reserved": 0, "lon": -77.0480685, "rental_uris": {"android": "https://dc.lft.to/lastmile_qr_scan", "ios": "https://dc.lft.to/lastmile_qr_scan"}}, {"name": "7423ac2c8ebc3eb24861bae68fec99ba", "is_disabled": 0, "fusion_lat": 0.0, "fusion_lon": 0.0, "type": "electric_scooter", "lat": 38.904307, "bike_id": "7423ac2c8ebc3eb24861bae68fec99ba", "is_reserved": 0, "lon": -77.030956, "rental_uris": {"android": "https://dc.lft.to/lastmile_qr_scan", "ios": "https://dc.lft.to/lastmile_qr_scan"}}, {"name": "13af09e57957d95649b1928f33e65da6", "is_disabled": 0, "fusion_lat": 0.0, "fusion_lon": 0.0, "type": "electric_scooter", "lat": 38.942986, "bike_id": "13af09e57957d95649b1928f33e65da6", "is_reserved": 0, "lon": -77.05891133333333, "rental_uris": {"android": "https://dc.lft.to/lastmile_qr_scan", "ios": "https://dc.lft.to/lastmile_qr_scan"}}, {"name": "75f2649c2b70dfcfad5c7d7627ddf5de", "is_disabled": 0, "fusion_lat": 0.0, "fusion_lon": 0.0, "type": "electric_scooter", "lat": 38.86659316666667, "bike_id": "75f2649c2b70dfcfad5c7d7627ddf5de", "is_reserved": 0, "lon": -76.9888155, "rental_uris": {"android": "https://dc.lft.to/lastmile_qr_scan", "ios": "https://dc.lft.to/lastmile_qr_scan"}}, {"name": "9f73ffd82e1a747c5cbbe88c3bce8a20", "is_disabled": 0, "fusion_lat": 0.0, "fusion_lon": 0.0, "type": "electric_scooter", "lat": 38.90239583333333, "bike_id": "9f73ffd82e1a747c5cbbe88c3bce8a20", "is_reserved": 0, "lon": -77.02694683333333, "rental_uris": {"android": "https://dc.lft.to/lastmile_qr_scan", "ios": "https://dc.lft.to/lastmile_qr_scan"}}, {"name": "f1599b502396c2c8aa0674b6371f6637", "is_disabled": 0, "fusion_lat": 0.0, "fusion_lon": 0.0, "type": "electric_scooter", "lat": 38.91814383333333, "bike_id": "f1599b502396c2c8aa0674b6371f6637", "is_reserved": 0, "lon": -77.03694516666667, "rental_uris": {"android": "https://dc.lft.to/lastmile_qr_scan", "ios": "https://dc.lft.to/lastmile_qr_scan"}}, {"name": "dc32788602d8c5991ff06d18f00214f2", "is_disabled": 0, "fusion_lat": 0.0, "fusion_lon": 0.0, "type": "electric_scooter", "lat": 38.90674416666667, "bike_id": "dc32788602d8c5991ff06d18f00214f2", "is_reserved": 0, "lon": -77.03838566666667, "rental_uris": {"android": "https://dc.lft.to/lastmile_qr_scan", "ios": "https://dc.lft.to/lastmile_qr_scan"}}, {"name": "c9485c45420ef166a4f616c7afe75d1e", "is_disabled": 0, "fusion_lat": 0.0, "fusion_lon": 0.0, "type": "electric_scooter", "lat": 38.89609816666667, "bike_id": "c9485c45420ef166a4f616c7afe75d1e", "is_reserved": 0, "lon": -77.031757, "rental_uris": {"android": "https://dc.lft.to/lastmile_qr_scan", "ios": "https://dc.lft.to/lastmile_qr_scan"}}, {"name": "67c7f2023b7d0395e2dcfe26ee3b34f5", "is_disabled": 0, "fusion_lat": 0.0, "fusion_lon": 0.0, "type": "electric_scooter", "lat": 38.904693333333334, "bike_id": "67c7f2023b7d0395e2dcfe26ee3b34f5", "is_reserved": 0, "lon": -77.0378585, "rental_uris": {"android": "https://dc.lft.to/lastmile_qr_scan", "ios": "https://dc.lft.to/lastmile_qr_scan"}}, {"name": "2ed5669747048a6f010046cfae500cd0", "is_disabled": 0, "fusion_lat": 0.0, "fusion_lon": 0.0, "type": "electric_bike", "lat": 38.956500166666665, "bike_id": "2ed5669747048a6f010046cfae500cd0", "is_reserved": 0, "lon": -77.01281283333333, "rental_uris": {"android": "https://dc.lft.to/lastmile_qr_scan", "ios": "https://dc.lft.to/lastmile_qr_scan"}}, {"name": "88ad2c919978950cb47f910877f45167", "is_disabled": 0, "fusion_lat": 0.0, "fusion_lon": 0.0, "type": "electric_scooter", "lat": 38.90055233333333, "bike_id": "88ad2c919978950cb47f910877f45167", "is_reserved": 0, "lon": -77.01508966666667, "rental_uris": {"android": "https://dc.lft.to/lastmile_qr_scan", "ios": "https://dc.lft.to/lastmile_qr_scan"}}, {"name": "fc98527896c2513add26ea258c2adf3f", "is_disabled": 0, "fusion_lat": 0.0, "fusion_lon": 0.0, "type": "electric_bike", "lat": 38.988162, "bike_id": "fc98527896c2513add26ea258c2adf3f", "is_reserved": 0, "lon": -77.0265345, "rental_uris": {"android": "https://dc.lft.to/lastmile_qr_scan", "ios": "https://dc.lft.to/lastmile_qr_scan"}}, {"name": "d62c0d0d41d275f58b05b81cae74a5c6", "is_disabled": 0, "fusion_lat": 0.0, "fusion_lon": 0.0, "type": "electric_scooter", "lat": 38.907575, "bike_id": "d62c0d0d41d275f58b05b81cae74a5c6", "is_reserved": 0, "lon": -77.03093866666667, "rental_uris": {"android": "https://dc.lft.to/lastmile_qr_scan", "ios": "https://dc.lft.to/lastmile_qr_scan"}}, {"name": "df30a26a9b8fc65aade2b1425f1c1549", "is_disabled": 0, "fusion_lat": 0.0, "fusion_lon": 0.0, "type": "electric_scooter", "lat": 38.892246166666666, "bike_id": "df30a26a9b8fc65aade2b1425f1c1549", "is_reserved": 0, "lon": -77.0433895, "rental_uris": {"android": "https://dc.lft.to/lastmile_qr_scan", "ios": "https://dc.lft.to/lastmile_qr_scan"}}, {"name": "50c25c5b2eb91bcd8bd6205a0e3dd3b4", "is_disabled": 0, "fusion_lat": 0.0, "fusion_lon": 0.0, "type": "electric_scooter", "lat": 38.90365366666666, "bike_id": "50c25c5b2eb91bcd8bd6205a0e3dd3b4", "is_reserved": 0, "lon": -77.04494616666666, "rental_uris": {"android": "https://dc.lft.to/lastmile_qr_scan", "ios": "https://dc.lft.to/lastmile_qr_scan"}}, {"name": "7599170391e96a58d16b30c5c3e9015c", "is_disabled": 0, "fusion_lat": 0.0, "fusion_lon": 0.0, "type": "electric_scooter", "lat": 38.9001555, "bike_id": "7599170391e96a58d16b30c5c3e9015c", "is_reserved": 0, "lon": -77.03040766666666, "rental_uris": {"android": "https://dc.lft.to/lastmile_qr_scan", "ios": "https://dc.lft.to/lastmile_qr_scan"}}, {"name": "06a567a4cc0559aa69af0ecf7344ada8", "is_disabled": 0, "fusion_lat": 0.0, "fusion_lon": 0.0, "type": "electric_scooter", "lat": 38.885994333333336, "bike_id": "06a567a4cc0559aa69af0ecf7344ada8", "is_reserved": 0, "lon": -77.04508833333334, "rental_uris": {"android": "https://dc.lft.to/lastmile_qr_scan", "ios": "https://dc.lft.to/lastmile_qr_scan"}}, {"name": "263f27f937a53275b65e3d4a69003dc0", "is_disabled": 0, "fusion_lat": 0.0, "fusion_lon": 0.0, "type": "electric_bike", "lat": 38.9739365, "bike_id": "263f27f937a53275b65e3d4a69003dc0", "is_reserved": 0, "lon": -77.06455816666667, "rental_uris": {"android": "https://dc.lft.to/lastmile_qr_scan", "ios": "https://dc.lft.to/lastmile_qr_scan"}}, {"name": "f91a556db9eea9a13783dea1003f083b", "is_disabled": 0, "fusion_lat": 0.0, "fusion_lon": 0.0, "type": "electric_scooter", "lat": 38.90141766666667, "bike_id": "f91a556db9eea9a13783dea1003f083b", "is_reserved": 0, "lon": -76.9297195, "rental_uris": {"android": "https://dc.lft.to/lastmile_qr_scan", "ios": "https://dc.lft.to/lastmile_qr_scan"}}, {"name": "4cf53380efe231f2def9f92351ce9adc", "is_disabled": 0, "fusion_lat": 0.0, "fusion_lon": 0.0, "type": "electric_scooter", "lat": 38.92833733333333, "bike_id": "4cf53380efe231f2def9f92351ce9adc", "is_reserved": 0, "lon": -77.05974533333334, "rental_uris": {"android": "https://dc.lft.to/lastmile_qr_scan", "ios": "https://dc.lft.to/lastmile_qr_scan"}}, {"name": "82918ee6e5f8f46da12070ea74a82ec9", "is_disabled": 0, "fusion_lat": 0.0, "fusion_lon": 0.0, "type": "electric_scooter", "lat": 38.90801666666667, "bike_id": "82918ee6e5f8f46da12070ea74a82ec9", "is_reserved": 0, "lon": -76.98740683333334, "rental_uris": {"android": "https://dc.lft.to/lastmile_qr_scan", "ios": "https://dc.lft.to/lastmile_qr_scan"}}, {"name": "c909850d29ca5803002bd8561b916a0d", "is_disabled": 0, "fusion_lat": 0.0, "fusion_lon": 0.0, "type": "electric_scooter", "lat": 38.915488, "bike_id": "c909850d29ca5803002bd8561b916a0d", "is_reserved": 0, "lon": -77.05326083333334, "rental_uris": {"android": "https://dc.lft.to/lastmile_qr_scan", "ios": "https://dc.lft.to/lastmile_qr_scan"}}, {"name": "d974eac9f746855b69c9edbdf343528f", "is_disabled": 0, "fusion_lat": 0.0, "fusion_lon": 0.0, "type": "electric_scooter", "lat": 38.91412716666667, "bike_id": "d974eac9f746855b69c9edbdf343528f", "is_reserved": 0, "lon": -77.04466383333333, "rental_uris": {"android": "https://dc.lft.to/lastmile_qr_scan", "ios": "https://dc.lft.to/lastmile_qr_scan"}}, {"name": "6868567d8f2d9ae57963bae1a5baf81c", "is_disabled": 0, "fusion_lat": 0.0, "fusion_lon": 0.0, "type": "electric_scooter", "lat": 38.91796033333333, "bike_id": "6868567d8f2d9ae57963bae1a5baf81c", "is_reserved": 0, "lon": -77.03204066666666, "rental_uris": {"android": "https://dc.lft.to/lastmile_qr_scan", "ios": "https://dc.lft.to/lastmile_qr_scan"}}, {"name": "e1a35c243faf6037eda7d8311e7daa07", "is_disabled": 0, "fusion_lat": 0.0, "fusion_lon": 0.0, "type": "electric_scooter", "lat": 38.922419166666664, "bike_id": "e1a35c243faf6037eda7d8311e7daa07", "is_reserved": 0, "lon": -77.036642, "rental_uris": {"android": "https://dc.lft.to/lastmile_qr_scan", "ios": "https://dc.lft.to/lastmile_qr_scan"}}, {"name": "0fe681ec5e7fc14322537a72a7385965", "is_disabled": 0, "fusion_lat": 0.0, "fusion_lon": 0.0, "type": "electric_scooter", "lat": 38.87288866666667, "bike_id": "0fe681ec5e7fc14322537a72a7385965", "is_reserved": 0, "lon": -76.97732616666667, "rental_uris": {"android": "https://dc.lft.to/lastmile_qr_scan", "ios": "https://dc.lft.to/lastmile_qr_scan"}}, {"name": "fbd7d6e732cc9392af1dbe2e41bea0f3", "is_disabled": 0, "fusion_lat": 0.0, "fusion_lon": 0.0, "type": "electric_scooter", "lat": 38.923841833333334, "bike_id": "fbd7d6e732cc9392af1dbe2e41bea0f3", "is_reserved": 0, "lon": -77.02763783333333, "rental_uris": {"android": "https://dc.lft.to/lastmile_qr_scan", "ios": "https://dc.lft.to/lastmile_qr_scan"}}, {"name": "e24d44498666f40a17d523cdeb42efce", "is_disabled": 0, "fusion_lat": 0.0, "fusion_lon": 0.0, "type": "electric_scooter", "lat": 38.956119666666666, "bike_id": "e24d44498666f40a17d523cdeb42efce", "is_reserved": 0, "lon": -77.0278005, "rental_uris": {"android": "https://dc.lft.to/lastmile_qr_scan", "ios": "https://dc.lft.to/lastmile_qr_scan"}}, {"name": "08e755412a334820080e004e7852bc51", "is_disabled": 0, "fusion_lat": 0.0, "fusion_lon": 0.0, "type": "electric_scooter", "lat": 38.9084795, "bike_id": "08e755412a334820080e004e7852bc51", "is_reserved": 0, "lon": -77.03851966666667, "rental_uris": {"android": "https://dc.lft.to/lastmile_qr_scan", "ios": "https://dc.lft.to/lastmile_qr_scan"}}, {"name": "16c224d4aff5b40c95762b07c11164f9", "is_disabled": 0, "fusion_lat": 0.0, "fusion_lon": 0.0, "type": "electric_scooter", "lat": 38.923582, "bike_id": "16c224d4aff5b40c95762b07c11164f9", "is_reserved": 0, "lon": -77.05224283333334, "rental_uris": {"android": "https://dc.lft.to/lastmile_qr_scan", "ios": "https://dc.lft.to/lastmile_qr_scan"}}, {"name": "70892a0262de1feef1c462dbc1a02bd2", "is_disabled": 0, "fusion_lat": 0.0, "fusion_lon": 0.0, "type": "electric_scooter", "lat": 38.907756166666665, "bike_id": "70892a0262de1feef1c462dbc1a02bd2", "is_reserved": 0, "lon": -77.07165233333333, "rental_uris": {"android": "https://dc.lft.to/lastmile_qr_scan", "ios": "https://dc.lft.to/lastmile_qr_scan"}}, {"name": "b3f998a6726e6b0b49c7d48e7f968040", "is_disabled": 0, "fusion_lat": 0.0, "fusion_lon": 0.0, "type": "electric_bike", "lat": 38.82367716666667, "bike_id": "b3f998a6726e6b0b49c7d48e7f968040", "is_reserved": 0, "lon": -77.002171, "rental_uris": {"android": "https://dc.lft.to/lastmile_qr_scan", "ios": "https://dc.lft.to/lastmile_qr_scan"}}, {"name": "8b3b18f315f407bbbe0b159d64cfe44d", "is_disabled": 0, "fusion_lat": 0.0, "fusion_lon": 0.0, "type": "electric_scooter", "lat": 38.8860835, "bike_id": "8b3b18f315f407bbbe0b159d64cfe44d", "is_reserved": 0, "lon": -77.00135233333333, "rental_uris": {"android": "https://dc.lft.to/lastmile_qr_scan", "ios": "https://dc.lft.to/lastmile_qr_scan"}}, {"name": "23993c954c60fc2d61537c814d3b0c0d", "is_disabled": 0, "fusion_lat": 0.0, "fusion_lon": 0.0, "type": "electric_scooter", "lat": 38.944121, "bike_id": "23993c954c60fc2d61537c814d3b0c0d", "is_reserved": 0, "lon": -77.02021333333333, "rental_uris": {"android": "https://dc.lft.to/lastmile_qr_scan", "ios": "https://dc.lft.to/lastmile_qr_scan"}}, {"name": "7a7a50093007bc8c59b0d6504d89ea8d", "is_disabled": 0, "fusion_lat": 0.0, "fusion_lon": 0.0, "type": "electric_scooter", "lat": 38.86476033333334, "bike_id": "7a7a50093007bc8c59b0d6504d89ea8d", "is_reserved": 0, "lon": -76.9823, "rental_uris": {"android": "https://dc.lft.to/lastmile_qr_scan", "ios": "https://dc.lft.to/lastmile_qr_scan"}}, {"name": "1984c48ad1436c711eceaa8a035eae1b", "is_disabled": 0, "fusion_lat": 0.0, "fusion_lon": 0.0, "type": "electric_bike", "lat": 38.85936, "bike_id": "1984c48ad1436c711eceaa8a035eae1b", "is_reserved": 0, "lon": -77.11829666666667, "rental_uris": {"android": "https://dc.lft.to/lastmile_qr_scan", "ios": "https://dc.lft.to/lastmile_qr_scan"}}, {"name": "77da5dd7d8ffb19a519c67c650822fca", "is_disabled": 0, "fusion_lat": 0.0, "fusion_lon": 0.0, "type": "electric_scooter", "lat": 38.90080366666667, "bike_id": "77da5dd7d8ffb19a519c67c650822fca", "is_reserved": 0, "lon": -76.99361433333334, "rental_uris": {"android": "https://dc.lft.to/lastmile_qr_scan", "ios": "https://dc.lft.to/lastmile_qr_scan"}}, {"name": "e1baf73ad4f4e5150b6166eed67b4dc5", "is_disabled": 0, "fusion_lat": 0.0, "fusion_lon": 0.0, "type": "electric_scooter", "lat": 38.924773333333334, "bike_id": "e1baf73ad4f4e5150b6166eed67b4dc5", "is_reserved": 0, "lon": -77.02210816666667, "rental_uris": {"android": "https://dc.lft.to/lastmile_qr_scan", "ios": "https://dc.lft.to/lastmile_qr_scan"}}, {"name": "2f175601db250133acbc9d6e673a646d", "is_disabled": 0, "fusion_lat": 0.0, "fusion_lon": 0.0, "type": "electric_scooter", "lat": 38.91714666666667, "bike_id": "2f175601db250133acbc9d6e673a646d", "is_reserved": 0, "lon": -77.03860766666666, "rental_uris": {"android": "https://dc.lft.to/lastmile_qr_scan", "ios": "https://dc.lft.to/lastmile_qr_scan"}}, {"name": "4e6db5a6ef5ceecc85a3d082ab5c0352", "is_disabled": 0, "fusion_lat": 0.0, "fusion_lon": 0.0, "type": "electric_scooter", "lat": 38.92667633333333, "bike_id": "4e6db5a6ef5ceecc85a3d082ab5c0352", "is_reserved": 0, "lon": -77.02835933333333, "rental_uris": {"android": "https://dc.lft.to/lastmile_qr_scan", "ios": "https://dc.lft.to/lastmile_qr_scan"}}, {"name": "e14f02211c2a81b413672146fd98d9a5", "is_disabled": 0, "fusion_lat": 0.0, "fusion_lon": 0.0, "type": "electric_scooter", "lat": 38.900220833333336, "bike_id": "e14f02211c2a81b413672146fd98d9a5", "is_reserved": 0, "lon": -77.01188, "rental_uris": {"android": "https://dc.lft.to/lastmile_qr_scan", "ios": "https://dc.lft.to/lastmile_qr_scan"}}, {"name": "e1417f455aef633003a6fa65128a2312", "is_disabled": 0, "fusion_lat": 0.0, "fusion_lon": 0.0, "type": "electric_scooter", "lat": 38.88589533333333, "bike_id": "e1417f455aef633003a6fa65128a2312", "is_reserved": 0, "lon": -77.020057, "rental_uris": {"android": "https://dc.lft.to/lastmile_qr_scan", "ios": "https://dc.lft.to/lastmile_qr_scan"}}, {"name": "e0f0d76ea85ce129d67ccfd8663ebd57", "is_disabled": 0, "fusion_lat": 0.0, "fusion_lon": 0.0, "type": "electric_scooter", "lat": 38.903174166666666, "bike_id": "e0f0d76ea85ce129d67ccfd8663ebd57", "is_reserved": 0, "lon": -77.034764, "rental_uris": {"android": "https://dc.lft.to/lastmile_qr_scan", "ios": "https://dc.lft.to/lastmile_qr_scan"}}, {"name": "b2278c7b78a3d5d7cb5e4264281ff016", "is_disabled": 0, "fusion_lat": 0.0, "fusion_lon": 0.0, "type": "electric_scooter", "lat": 38.90043716666667, "bike_id": "b2278c7b78a3d5d7cb5e4264281ff016", "is_reserved": 0, "lon": -77.043856, "rental_uris": {"android": "https://dc.lft.to/lastmile_qr_scan", "ios": "https://dc.lft.to/lastmile_qr_scan"}}, {"name": "2f41d400e98bed37923349bd65a96616", "is_disabled": 0, "fusion_lat": 0.0, "fusion_lon": 0.0, "type": "electric_scooter", "lat": 38.90378583333333, "bike_id": "2f41d400e98bed37923349bd65a96616", "is_reserved": 0, "lon": -77.04973516666666, "rental_uris": {"android": "https://dc.lft.to/lastmile_qr_scan", "ios": "https://dc.lft.to/lastmile_qr_scan"}}, {"name": "b0de7512d2e48c68b735217fdb9486a9", "is_disabled": 0, "fusion_lat": 0.0, "fusion_lon": 0.0, "type": "electric_scooter", "lat": 38.92936233333333, "bike_id": "b0de7512d2e48c68b735217fdb9486a9", "is_reserved": 0, "lon": -77.0198825, "rental_uris": {"android": "https://dc.lft.to/lastmile_qr_scan", "ios": "https://dc.lft.to/lastmile_qr_scan"}}, {"name": "f086fb0216ef96aee50dfd51ec69f82e", "is_disabled": 0, "fusion_lat": 0.0, "fusion_lon": 0.0, "type": "electric_scooter", "lat": 38.898673, "bike_id": "f086fb0216ef96aee50dfd51ec69f82e", "is_reserved": 0, "lon": -76.94662216666667, "rental_uris": {"android": "https://dc.lft.to/lastmile_qr_scan", "ios": "https://dc.lft.to/lastmile_qr_scan"}}, {"name": "c4256fa97339daa4c338f070dc609e79", "is_disabled": 0, "fusion_lat": 0.0, "fusion_lon": 0.0, "type": "electric_scooter", "lat": 38.90369416666667, "bike_id": "c4256fa97339daa4c338f070dc609e79", "is_reserved": 0, "lon": -77.03832933333334, "rental_uris": {"android": "https://dc.lft.to/lastmile_qr_scan", "ios": "https://dc.lft.to/lastmile_qr_scan"}}, {"name": "e7b85de5958504d1ea7eb38999115e33", "is_disabled": 0, "fusion_lat": 0.0, "fusion_lon": 0.0, "type": "electric_scooter", "lat": 38.89196533333333, "bike_id": "e7b85de5958504d1ea7eb38999115e33", "is_reserved": 0, "lon": -77.00294, "rental_uris": {"android": "https://dc.lft.to/lastmile_qr_scan", "ios": "https://dc.lft.to/lastmile_qr_scan"}}, {"name": "144e96444a539ffb97268470ce4f9e53", "is_disabled": 0, "fusion_lat": 0.0, "fusion_lon": 0.0, "type": "electric_scooter", "lat": 38.8901575, "bike_id": "144e96444a539ffb97268470ce4f9e53", "is_reserved": 0, "lon": -76.93733566666667, "rental_uris": {"android": "https://dc.lft.to/lastmile_qr_scan", "ios": "https://dc.lft.to/lastmile_qr_scan"}}, {"name": "70a2cfd5ef528e4b7d107f4e1ccebc88", "is_disabled": 0, "fusion_lat": 0.0, "fusion_lon": 0.0, "type": "electric_scooter", "lat": 38.92267116666667, "bike_id": "70a2cfd5ef528e4b7d107f4e1ccebc88", "is_reserved": 0, "lon": -77.04252183333334, "rental_uris": {"android": "https://dc.lft.to/lastmile_qr_scan", "ios": "https://dc.lft.to/lastmile_qr_scan"}}, {"name": "323279b8c95f3a33c06621c04c463bb7", "is_disabled": 0, "fusion_lat": 0.0, "fusion_lon": 0.0, "type": "electric_scooter", "lat": 38.898130333333334, "bike_id": "323279b8c95f3a33c06621c04c463bb7", "is_reserved": 0, "lon": -77.04010583333333, "rental_uris": {"android": "https://dc.lft.to/lastmile_qr_scan", "ios": "https://dc.lft.to/lastmile_qr_scan"}}, {"name": "edc2dfa8c60f50bfa4620d2989c21bc2", "is_disabled": 0, "fusion_lat": 0.0, "fusion_lon": 0.0, "type": "electric_bike", "lat": 38.89294, "bike_id": "edc2dfa8c60f50bfa4620d2989c21bc2", "is_reserved": 0, "lon": -77.02584183333333, "rental_uris": {"android": "https://dc.lft.to/lastmile_qr_scan", "ios": "https://dc.lft.to/lastmile_qr_scan"}}, {"name": "de917f93385897603a20ddaf6ceaa351", "is_disabled": 0, "fusion_lat": 0.0, "fusion_lon": 0.0, "type": "electric_scooter", "lat": 38.90698583333333, "bike_id": "de917f93385897603a20ddaf6ceaa351", "is_reserved": 0, "lon": -77.041942, "rental_uris": {"android": "https://dc.lft.to/lastmile_qr_scan", "ios": "https://dc.lft.to/lastmile_qr_scan"}},